{"last_updated":1706684846,"ttl":30,"version":"2.2","data":{"bikes":[{"bike_id":"3cf95b5d-d0d9-441b-a843-fa8d119e3aca","system_id":"levelo_inurba_marseille","lat":43.31341,"lon":5.367098,"is_reserved":false,"is_disabled":false,"rental_uris":{"android":"levelo://app?vid=3cf95b5d-d0d9-441b-a843-fa8d119e3aca","ios":"levelo://app?vid=3cf95b5d-d0d9-441b-a843-fa8d119e3aca"},"vehicle_type_id":"4","last_reported":1706684846,"current_range_meters":20800,"station_id":"ce4bgr92rcd13ifvqc6g","pricing_plan_id":"free"},{"bike_id":"877a433e-b469-4251-8cef-c0768e479da0","system_id":"levelo_inurba_marseille","lat":43.31341,"lon":5.367098,"is_reserved":false,"is_disabled":false,"rental_uris":{"android":"levelo://app?vid=877a433e-b469-4251-8cef-c0768e479da0","ios":"levelo://app?vid=877a433e-b469-4251-8cef-c0768e479da0"},"vehicle_type_id":"4","last_reported":1706684846,"current_range_meters":11200,"station_id":"ce4bgr92rcd13ifvqc6g","pricing_plan_id":"free"},{"bike_id":"cac69d92-0692-4a9e-8126-bf18fec9aed0","system_id":"levelo_inurba_marseille","lat":43.31341,"lon":5.367098,"is_reserved":false,"is_disabled":false,"rental_uris":{"android":"levelo://app?vid=cac69d92-0692-4a9e-8126-bf18fec9aed0","ios":"levelo://app?vid=cac69d92-0692-4a9e-8126-bf18fec9aed0"},"vehicle_type_id":"4","last_reported":1706684846,"current_range_meters":28800,"station_id":"ce4bgr92rcd13ifvqc6g","pricing_plan_id":"free"},{"bike_id":"c4c1b484-a2e7-4365-ad15-01ac7be13035","system_id":"levelo_inurba_marseille","lat":43.313391,"lon":5.36706,"is_reserved":false,"is_disabled":false,"rental_uris":{"android":"levelo://app?vid=c4c1b484-a2e7-4365-ad15-01ac7be13035","ios":"levelo://app?vid=c4c1b484-a2e7-4365-ad15-01ac7be13035"},"vehicle_type_id":"4","last_reported":1706684846,"current_range_meters":30000,"station_id":"ce4bgr92rcd13ifvqc6g","pricing_plan_id":"free"},{"bike_id":"ae061690-e53e-4700-816a-c166b81b3311","system_id":"levelo_inurba_marseille","lat":43.313391,"lon":5.36706,"is_reserved":false,"is_disabled":false,"rental_uris":{"android":"levelo://app?vid=ae061690-e53e-4700-816a-c166b81b3311","ios":"levelo://app?vid=ae061690-e53e-4700-816a-c166b81b3311"},"vehicle_type_id":"4","last_reported":1706684846,"current_range_meters":16800,"station_id":"ce4bgr92rcd13ifvqc6g","pricing_plan_id":"free"},{"bike_id":"9bfe5588-fe57-40ae-9652-52f32f630325","system_id":"levelo_inurba_marseille","lat":43.31341,"lon":5.367098,"is_reserved":false,"is_disabled":false,"rental_uris":{"android":"levelo://app?vid=9bfe5588-fe57-40ae-9652-52f32f630325","ios":"levelo://app?vid=9bfe5588-fe57-40ae-9652-52f32f630325"},"vehicle_type_id":"4","last_reported":1706684846,"current_range_meters":19600,"station_id":"ce4bgr92rcd13ifvqc6g","pricing_plan_id":"free"},{"bike_id":"a27a3919-233d-49e1-8733-332bc8c7a5d6","system_id":"levelo_inurba_marseille","lat":43.313391,"lon":5.36706,"is_reserved":false,"is_disabled":false,"rental_uris":{"android":"levelo://app?vid=a27a3919-233d-49e1-8733-332bc8c7a5d6","ios":"levelo://app?vid=a27a3919-233d-49e1-8733-332bc8c7a5d6"},"vehicle_type_id":"4","last_reported":1706684846,"current_range_meters":27600,"station_id":"ce4bgr92rcd13ifvqc6g","pricing_plan_id":"free"},{"bike_id":"2d527905-2d48-40b8-84d5-407336f6aa75","system_id":"levelo_inurba_marseille","lat":43.313391,"lon":5.36706,"is_reserved":false,"is_disabled":false,"rental_uris":{"android":"levelo://app?vid=2d527905-2d48-40b8-84d5-407336f6aa75","ios":"levelo://app?vid=2d527905-2d48-40b8-84d5-407336f6aa75"},"vehicle_type_id":"4","last_reported":1706684846,"current_range_meters":24000,"station_id":"ce4bgr92rcd13ifvqc6g","pricing_plan_id":"free"},{"bike_id":"1154d152-f0b1-41ce-b970-cda7068097fc","system_id":"levelo_inurba_marseille","lat":43.313391,"lon":5.36706,"is_reserved":false,"is_disabled":false,"rental_uris":{"android":"levelo://app?vid=1154d152-f0b1-41ce-b970-cda7068097fc","ios":"levelo://app?vid=1154d152-f0b1-41ce-b970-cda7068097fc"},"vehicle_type_id":"4","last_reported":1706684846,"current_range_meters":28800,"station_id":"ce4bgr92rcd13ifvqc6g","pricing_plan_id":"free"},{"bike_id":"4e2d73f0-42c8-4008-85f5-c56e6f077d81","system_id":"levelo_inurba_marseille","lat":43.313391,"lon":5.36706,"is_reserved":false,"is_disabled":false,"rental_uris":{"android":"levelo://app?vid=4e2d73f0-42c8-4008-85f5-c56e6f077d81","ios":"levelo://app?vid=4e2d73f0-42c8-4008-85f5-c56e6f077d81"},"vehicle_type_id":"4","last_reported":1706684846,"current_range_meters":28000,"station_id":"ce4bgr92rcd13ifvqc6g","pricing_plan_id":"free"},{"bike_id":"0fa49698-ac4e-4e0f-b8db-f81afa33b628","system_id":"levelo_inurba_marseille","lat":43.313391,"lon":5.36706,"is_reserved":false,"is_disabled":false,"rental_uris":{"android":"levelo://app?vid=0fa49698-ac4e-4e0f-b8db-f81afa33b628","ios":"levelo://app?vid=0fa49698-ac4e-4e0f-b8db-f81afa33b628"},"vehicle_type_id":"4","last_reported":1706684846,"current_range_meters":32000,"station_id":"ce4bgr92rcd13ifvqc6g","pricing_plan_id":"free"},{"bike_id":"ae004cd7-afe7-4054-a002-0eb251ac1949","system_id":"levelo_inurba_marseille","lat":43.312239,"lon":5.368562,"is_reserved":false,"is_disabled":false,"rental_uris":{"android":"levelo://app?vid=ae004cd7-afe7-4054-a002-0eb251ac1949","ios":"levelo://app?vid=ae004cd7-afe7-4054-a002-0eb251ac1949"},"vehicle_type_id":"4","last_reported":1706684846,"current_range_meters":25600,"station_id":"ce4bgl92rcd13ifvqbq0","pricing_plan_id":"free"},{"bike_id":"d231ed1c-a40f-4811-b107-d3c9191ca6a2","system_id":"levelo_inurba_marseille","lat":43.312239,"lon":5.368562,"is_reserved":false,"is_disabled":false,"rental_uris":{"android":"levelo://app?vid=d231ed1c-a40f-4811-b107-d3c9191ca6a2","ios":"levelo://app?vid=d231ed1c-a40f-4811-b107-d3c9191ca6a2"},"vehicle_type_id":"4","last_reported":1706684846,"current_range_meters":15200,"station_id":"ce4bgl92rcd13ifvqbq0","pricing_plan_id":"free"},{"bike_id":"6fddfb66-c508-4aa0-8c0d-8bfb67b0d329","system_id":"levelo_inurba_marseille","lat":43.313413,"lon":5.371306,"is_reserved":false,"is_disabled":false,"rental_uris":{"android":"levelo://app?vid=6fddfb66-c508-4aa0-8c0d-8bfb67b0d329","ios":"levelo://app?vid=6fddfb66-c508-4aa0-8c0d-8bfb67b0d329"},"vehicle_type_id":"4","last_reported":1706684846,"current_range_meters":16800,"station_id":"","pricing_plan_id":"free"},{"bike_id":"4be95425-eee7-4aa3-9025-96d4039859c7","system_id":"levelo_inurba_marseille","lat":43.309076,"lon":5.368465,"is_reserved":false,"is_disabled":false,"rental_uris":{"android":"levelo://app?vid=4be95425-eee7-4aa3-9025-96d4039859c7","ios":"levelo://app?vid=4be95425-eee7-4aa3-9025-96d4039859c7"},"vehicle_type_id":"4","last_reported":1706684846,"current_range_meters":20400,"station_id":"ce4bgn92rcd13ifvqbvg","pricing_plan_id":"free"},{"bike_id":"6af988b7-6e55-442a-a4f9-b0cb5ec88e79","system_id":"levelo_inurba_marseille","lat":43.309076,"lon":5.368465,"is_reserved":false,"is_disabled":false,"rental_uris":{"android":"levelo://app?vid=6af988b7-6e55-442a-a4f9-b0cb5ec88e79","ios":"levelo://app?vid=6af988b7-6e55-442a-a4f9-b0cb5ec88e79"},"vehicle_type_id":"4","last_reported":1706684846,"current_range_meters":27600,"station_id":"ce4bgn92rcd13ifvqbvg","pricing_plan_id":"free"},{"bike_id":"434fd167-0fe4-48ba-bd90-2214fd249af3","system_id":"levelo_inurba_marseille","lat":43.30902,"lon":5.36845,"is_reserved":false,"is_disabled":false,"rental_uris":{"android":"levelo://app?vid=434fd167-0fe4-48ba-bd90-2214fd249af3","ios":"levelo://app?vid=434fd167-0fe4-48ba-bd90-2214fd249af3"},"vehicle_type_id":"4","last_reported":1706684846,"current_range_meters":6400,"station_id":"ce4bgn92rcd13ifvqbvg","pricing_plan_id":"free"},{"bike_id":"fca29cb1-e328-4737-831a-4acdd2d6bbd5","system_id":"levelo_inurba_marseille","lat":43.309076,"lon":5.368465,"is_reserved":false,"is_disabled":false,"rental_uris":{"android":"levelo://app?vid=fca29cb1-e328-4737-831a-4acdd2d6bbd5","ios":"levelo://app?vid=fca29cb1-e328-4737-831a-4acdd2d6bbd5"},"vehicle_type_id":"4","last_reported":1706684846,"current_range_meters":30000,"station_id":"ce4bgn92rcd13ifvqbvg","pricing_plan_id":"free"},{"bike_id":"5a68f9e3-8692-4a88-a2b7-7c2e6aa3eba3","system_id":"levelo_inurba_marseille","lat":43.314811,"lon":5.373103,"is_reserved":false,"is_disabled":false,"rental_uris":{"android":"levelo://app?vid=5a68f9e3-8692-4a88-a2b7-7c2e6aa3eba3","ios":"levelo://app?vid=5a68f9e3-8692-4a88-a2b7-7c2e6aa3eba3"},"vehicle_type_id":"4","last_reported":1706684846,"current_range_meters":30800,"station_id":"ce4bgt12rcd13ifvqcd0","pricing_plan_id":"free"},{"bike_id":"42d2c531-6b4f-4ca8-a1b4-cd1e0ed38138","system_id":"levelo_inurba_marseille","lat":43.314811,"lon":5.373104,"is_reserved":false,"is_disabled":false,"rental_uris":{"android":"levelo://app?vid=42d2c531-6b4f-4ca8-a1b4-cd1e0ed38138","ios":"levelo://app?vid=42d2c531-6b4f-4ca8-a1b4-cd1e0ed38138"},"vehicle_type_id":"4","last_reported":1706684846,"current_range_meters":20400,"station_id":"ce4bgt12rcd13ifvqcd0","pricing_plan_id":"free"},{"bike_id":"9cd59b07-87c4-4cbd-98c2-99e8bd535b5c","system_id":"levelo_inurba_marseille","lat":43.314811,"lon":5.373104,"is_reserved":false,"is_disabled":false,"rental_uris":{"android":"levelo://app?vid=9cd59b07-87c4-4cbd-98c2-99e8bd535b5c","ios":"levelo://app?vid=9cd59b07-87c4-4cbd-98c2-99e8bd535b5c"},"vehicle_type_id":"4","last_reported":1706684846,"current_range_meters":21200,"station_id":"ce4bgt12rcd13ifvqcd0","pricing_plan_id":"free"},{"bike_id":"f3600257-7939-473a-bc22-549dc0e5258e","system_id":"levelo_inurba_marseille","lat":43.309039,"lon":5.371797,"is_reserved":false,"is_disabled":false,"rental_uris":{"android":"levelo://app?vid=f3600257-7939-473a-bc22-549dc0e5258e","ios":"levelo://app?vid=f3600257-7939-473a-bc22-549dc0e5258e"},"vehicle_type_id":"4","last_reported":1706684846,"current_range_meters":26400,"station_id":"ce4bguh2rcd13ifvqckg","pricing_plan_id":"free"},{"bike_id":"91699f7a-53d8-426c-bbb5-de3bd39619aa","system_id":"levelo_inurba_marseille","lat":43.305368,"lon":5.367343,"is_reserved":false,"is_disabled":false,"rental_uris":{"android":"levelo://app?vid=91699f7a-53d8-426c-bbb5-de3bd39619aa","ios":"levelo://app?vid=91699f7a-53d8-426c-bbb5-de3bd39619aa"},"vehicle_type_id":"4","last_reported":1706684846,"current_range_meters":19200,"station_id":"ce4bgrp2rcd13ifvqc9g","pricing_plan_id":"free"},{"bike_id":"27273cf4-a7d1-498a-ba9d-fbdbbbe30c0c","system_id":"levelo_inurba_marseille","lat":43.304274,"lon":5.388873,"is_reserved":false,"is_disabled":false,"rental_uris":{"android":"levelo://app?vid=27273cf4-a7d1-498a-ba9d-fbdbbbe30c0c","ios":"levelo://app?vid=27273cf4-a7d1-498a-ba9d-fbdbbbe30c0c"},"vehicle_type_id":"4","last_reported":1706684846,"current_range_meters":28400,"station_id":"ce4bgk12rcd13ifvqbi0","pricing_plan_id":"free"},{"bike_id":"1560108e-29bc-4576-871d-4c44a946e513","system_id":"levelo_inurba_marseille","lat":43.3054,"lon":5.366938,"is_reserved":false,"is_disabled":false,"rental_uris":{"android":"levelo://app?vid=1560108e-29bc-4576-871d-4c44a946e513","ios":"levelo://app?vid=1560108e-29bc-4576-871d-4c44a946e513"},"vehicle_type_id":"4","last_reported":1706684846,"current_range_meters":20000,"station_id":"ce4bgrp2rcd13ifvqc9g","pricing_plan_id":"free"},{"bike_id":"0ea16c6f-24af-4110-981c-a01164eb573f","system_id":"levelo_inurba_marseille","lat":43.305336,"lon":5.367033,"is_reserved":false,"is_disabled":false,"rental_uris":{"android":"levelo://app?vid=0ea16c6f-24af-4110-981c-a01164eb573f","ios":"levelo://app?vid=0ea16c6f-24af-4110-981c-a01164eb573f"},"vehicle_type_id":"4","last_reported":1706684846,"current_range_meters":20800,"station_id":"ce4bgrp2rcd13ifvqc9g","pricing_plan_id":"free"},{"bike_id":"e8d62b5b-16b3-498f-aabf-b685c01721c5","system_id":"levelo_inurba_marseille","lat":43.305714,"lon":5.365633,"is_reserved":false,"is_disabled":false,"rental_uris":{"android":"levelo://app?vid=e8d62b5b-16b3-498f-aabf-b685c01721c5","ios":"levelo://app?vid=e8d62b5b-16b3-498f-aabf-b685c01721c5"},"vehicle_type_id":"4","last_reported":1706684846,"current_range_meters":24800,"station_id":"ce4bgs12rcd13ifvqcag","pricing_plan_id":"free"},{"bike_id":"e73f9617-a4d0-4951-86a4-6c1b92ba8fa4","system_id":"levelo_inurba_marseille","lat":43.305706,"lon":5.365654,"is_reserved":false,"is_disabled":false,"rental_uris":{"android":"levelo://app?vid=e73f9617-a4d0-4951-86a4-6c1b92ba8fa4","ios":"levelo://app?vid=e73f9617-a4d0-4951-86a4-6c1b92ba8fa4"},"vehicle_type_id":"4","last_reported":1706684846,"current_range_meters":7200,"station_id":"ce4bgs12rcd13ifvqcag","pricing_plan_id":"free"},{"bike_id":"300689a2-9541-4c79-85fb-4ef89d2123e2","system_id":"levelo_inurba_marseille","lat":43.305706,"lon":5.365654,"is_reserved":false,"is_disabled":false,"rental_uris":{"android":"levelo://app?vid=300689a2-9541-4c79-85fb-4ef89d2123e2","ios":"levelo://app?vid=300689a2-9541-4c79-85fb-4ef89d2123e2"},"vehicle_type_id":"4","last_reported":1706684846,"current_range_meters":23600,"station_id":"ce4bgs12rcd13ifvqcag","pricing_plan_id":"free"},{"bike_id":"00496c4b-c9b1-408b-b2fe-513e22ef23cd","system_id":"levelo_inurba_marseille","lat":43.305706,"lon":5.365654,"is_reserved":false,"is_disabled":false,"rental_uris":{"android":"levelo://app?vid=00496c4b-c9b1-408b-b2fe-513e22ef23cd","ios":"levelo://app?vid=00496c4b-c9b1-408b-b2fe-513e22ef23cd"},"vehicle_type_id":"4","last_reported":1706684846,"current_range_meters":19600,"station_id":"ce4bgs12rcd13ifvqcag","pricing_plan_id":"free"},{"bike_id":"7671623f-1f60-4c8d-b0d8-377e605c5df7","system_id":"levelo_inurba_marseille","lat":43.305706,"lon":5.365654,"is_reserved":false,"is_disabled":false,"rental_uris":{"android":"levelo://app?vid=7671623f-1f60-4c8d-b0d8-377e605c5df7","ios":"levelo://app?vid=7671623f-1f60-4c8d-b0d8-377e605c5df7"},"vehicle_type_id":"4","last_reported":1706684846,"current_range_meters":24000,"station_id":"ce4bgs12rcd13ifvqcag","pricing_plan_id":"free"},{"bike_id":"9d1d0217-081c-4ab6-8348-39ef111c6efd","system_id":"levelo_inurba_marseille","lat":43.311131,"lon":5.377651,"is_reserved":false,"is_disabled":false,"rental_uris":{"android":"levelo://app?vid=9d1d0217-081c-4ab6-8348-39ef111c6efd","ios":"levelo://app?vid=9d1d0217-081c-4ab6-8348-39ef111c6efd"},"vehicle_type_id":"4","last_reported":1706684846,"current_range_meters":3600,"station_id":"ce4bgt92rcd13ifvqcg0","pricing_plan_id":"free"},{"bike_id":"031e3ba2-31d4-4fa3-9744-b143087b2c37","system_id":"levelo_inurba_marseille","lat":43.311131,"lon":5.377651,"is_reserved":false,"is_disabled":false,"rental_uris":{"android":"levelo://app?vid=031e3ba2-31d4-4fa3-9744-b143087b2c37","ios":"levelo://app?vid=031e3ba2-31d4-4fa3-9744-b143087b2c37"},"vehicle_type_id":"4","last_reported":1706684846,"current_range_meters":10000,"station_id":"ce4bgt92rcd13ifvqcg0","pricing_plan_id":"free"},{"bike_id":"f4b2188d-2b1a-429c-bdc5-1f4140f41046","system_id":"levelo_inurba_marseille","lat":43.307945,"lon":5.376487,"is_reserved":false,"is_disabled":false,"rental_uris":{"android":"levelo://app?vid=f4b2188d-2b1a-429c-bdc5-1f4140f41046","ios":"levelo://app?vid=f4b2188d-2b1a-429c-bdc5-1f4140f41046"},"vehicle_type_id":"4","last_reported":1706684846,"current_range_meters":31600,"station_id":"ce4bgv92rcd13ifvqcq0","pricing_plan_id":"free"},{"bike_id":"30eb0130-d2cd-4f72-85c3-16bf3068d200","system_id":"levelo_inurba_marseille","lat":43.317051,"lon":5.377511,"is_reserved":false,"is_disabled":false,"rental_uris":{"android":"levelo://app?vid=30eb0130-d2cd-4f72-85c3-16bf3068d200","ios":"levelo://app?vid=30eb0130-d2cd-4f72-85c3-16bf3068d200"},"vehicle_type_id":"4","last_reported":1706684846,"current_range_meters":30800,"station_id":"ce4bgth2rcd13ifvqch0","pricing_plan_id":"free"},{"bike_id":"f451b387-0e79-4dde-bd10-32f4ba4d50bd","system_id":"levelo_inurba_marseille","lat":43.308407,"lon":5.378973,"is_reserved":false,"is_disabled":false,"rental_uris":{"android":"levelo://app?vid=f451b387-0e79-4dde-bd10-32f4ba4d50bd","ios":"levelo://app?vid=f451b387-0e79-4dde-bd10-32f4ba4d50bd"},"vehicle_type_id":"4","last_reported":1706684846,"current_range_meters":4000,"station_id":"","pricing_plan_id":"free"},{"bike_id":"d47690cd-6fc3-4379-b73f-1e3eabbeb37a","system_id":"levelo_inurba_marseille","lat":43.30304,"lon":5.368987,"is_reserved":false,"is_disabled":false,"rental_uris":{"android":"levelo://app?vid=d47690cd-6fc3-4379-b73f-1e3eabbeb37a","ios":"levelo://app?vid=d47690cd-6fc3-4379-b73f-1e3eabbeb37a"},"vehicle_type_id":"4","last_reported":1706684846,"current_range_meters":16400,"station_id":"ce4bgqh2rcd13ifvqc5g","pricing_plan_id":"free"},{"bike_id":"f5503183-46d6-4c21-b96f-24ea94b1cbc0","system_id":"levelo_inurba_marseille","lat":43.301939,"lon":5.366286,"is_reserved":false,"is_disabled":false,"rental_uris":{"android":"levelo://app?vid=f5503183-46d6-4c21-b96f-24ea94b1cbc0","ios":"levelo://app?vid=f5503183-46d6-4c21-b96f-24ea94b1cbc0"},"vehicle_type_id":"4","last_reported":1706684846,"current_range_meters":6400,"station_id":"ce4bgrh2rcd13ifvqc8g","pricing_plan_id":"free"},{"bike_id":"e9eb8fc4-d945-4ffc-ab0c-41866a82135e","system_id":"levelo_inurba_marseille","lat":43.304606,"lon":5.379026,"is_reserved":false,"is_disabled":false,"rental_uris":{"android":"levelo://app?vid=e9eb8fc4-d945-4ffc-ab0c-41866a82135e","ios":"levelo://app?vid=e9eb8fc4-d945-4ffc-ab0c-41866a82135e"},"vehicle_type_id":"4","last_reported":1706684846,"current_range_meters":31600,"station_id":"ce4bgup2rcd13ifvqcn0","pricing_plan_id":"free"},{"bike_id":"c8962dd3-2dc2-4bfa-a2e4-0be536691d69","system_id":"levelo_inurba_marseille","lat":43.30467,"lon":5.378985,"is_reserved":false,"is_disabled":false,"rental_uris":{"android":"levelo://app?vid=c8962dd3-2dc2-4bfa-a2e4-0be536691d69","ios":"levelo://app?vid=c8962dd3-2dc2-4bfa-a2e4-0be536691d69"},"vehicle_type_id":"4","last_reported":1706684846,"current_range_meters":27200,"station_id":"ce4bgup2rcd13ifvqcn0","pricing_plan_id":"free"},{"bike_id":"d0d19dd0-1b09-44e0-a28d-438cc85d6c9f","system_id":"levelo_inurba_marseille","lat":43.304606,"lon":5.379026,"is_reserved":false,"is_disabled":false,"rental_uris":{"android":"levelo://app?vid=d0d19dd0-1b09-44e0-a28d-438cc85d6c9f","ios":"levelo://app?vid=d0d19dd0-1b09-44e0-a28d-438cc85d6c9f"},"vehicle_type_id":"4","last_reported":1706684846,"current_range_meters":32000,"station_id":"ce4bgup2rcd13ifvqcn0","pricing_plan_id":"free"},{"bike_id":"20706b82-8047-4ba6-bb96-73ad97c7b767","system_id":"levelo_inurba_marseille","lat":43.304773,"lon":5.379167,"is_reserved":false,"is_disabled":false,"rental_uris":{"android":"levelo://app?vid=20706b82-8047-4ba6-bb96-73ad97c7b767","ios":"levelo://app?vid=20706b82-8047-4ba6-bb96-73ad97c7b767"},"vehicle_type_id":"4","last_reported":1706684846,"current_range_meters":23200,"station_id":"ce4bgup2rcd13ifvqcn0","pricing_plan_id":"free"},{"bike_id":"26c33530-3623-428f-99f5-bfad01dfd70d","system_id":"levelo_inurba_marseille","lat":43.304606,"lon":5.379026,"is_reserved":false,"is_disabled":false,"rental_uris":{"android":"levelo://app?vid=26c33530-3623-428f-99f5-bfad01dfd70d","ios":"levelo://app?vid=26c33530-3623-428f-99f5-bfad01dfd70d"},"vehicle_type_id":"4","last_reported":1706684846,"current_range_meters":31600,"station_id":"ce4bgup2rcd13ifvqcn0","pricing_plan_id":"free"},{"bike_id":"65c73999-21cf-453d-9c65-9a9904c330c7","system_id":"levelo_inurba_marseille","lat":43.304606,"lon":5.379026,"is_reserved":false,"is_disabled":false,"rental_uris":{"android":"levelo://app?vid=65c73999-21cf-453d-9c65-9a9904c330c7","ios":"levelo://app?vid=65c73999-21cf-453d-9c65-9a9904c330c7"},"vehicle_type_id":"4","last_reported":1706684846,"current_range_meters":10400,"station_id":"ce4bgup2rcd13ifvqcn0","pricing_plan_id":"free"},{"bike_id":"e4e2233b-7822-44ce-a680-69a47a62add0","system_id":"levelo_inurba_marseille","lat":43.304606,"lon":5.379026,"is_reserved":false,"is_disabled":false,"rental_uris":{"android":"levelo://app?vid=e4e2233b-7822-44ce-a680-69a47a62add0","ios":"levelo://app?vid=e4e2233b-7822-44ce-a680-69a47a62add0"},"vehicle_type_id":"4","last_reported":1706684846,"current_range_meters":23600,"station_id":"ce4bgup2rcd13ifvqcn0","pricing_plan_id":"free"},{"bike_id":"f493a0ae-e4df-4d2e-8166-1073dea97fdb","system_id":"levelo_inurba_marseille","lat":43.304606,"lon":5.379026,"is_reserved":false,"is_disabled":false,"rental_uris":{"android":"levelo://app?vid=f493a0ae-e4df-4d2e-8166-1073dea97fdb","ios":"levelo://app?vid=f493a0ae-e4df-4d2e-8166-1073dea97fdb"},"vehicle_type_id":"4","last_reported":1706684846,"current_range_meters":14400,"station_id":"ce4bgup2rcd13ifvqcn0","pricing_plan_id":"free"},{"bike_id":"967543a6-0b9e-47e1-a010-74d971ec9e79","system_id":"levelo_inurba_marseille","lat":43.304606,"lon":5.379026,"is_reserved":false,"is_disabled":false,"rental_uris":{"android":"levelo://app?vid=967543a6-0b9e-47e1-a010-74d971ec9e79","ios":"levelo://app?vid=967543a6-0b9e-47e1-a010-74d971ec9e79"},"vehicle_type_id":"4","last_reported":1706684846,"current_range_meters":29600,"station_id":"ce4bgup2rcd13ifvqcn0","pricing_plan_id":"free"},{"bike_id":"ead217c3-28a1-4236-b4fe-9911dc5a3674","system_id":"levelo_inurba_marseille","lat":43.30462,"lon":5.37901,"is_reserved":false,"is_disabled":false,"rental_uris":{"android":"levelo://app?vid=ead217c3-28a1-4236-b4fe-9911dc5a3674","ios":"levelo://app?vid=ead217c3-28a1-4236-b4fe-9911dc5a3674"},"vehicle_type_id":"4","last_reported":1706684846,"current_range_meters":21200,"station_id":"ce4bgup2rcd13ifvqcn0","pricing_plan_id":"free"},{"bike_id":"9ff314f3-23d3-4178-ab3d-c5414a6ac773","system_id":"levelo_inurba_marseille","lat":43.304606,"lon":5.379026,"is_reserved":false,"is_disabled":false,"rental_uris":{"android":"levelo://app?vid=9ff314f3-23d3-4178-ab3d-c5414a6ac773","ios":"levelo://app?vid=9ff314f3-23d3-4178-ab3d-c5414a6ac773"},"vehicle_type_id":"4","last_reported":1706684846,"current_range_meters":3600,"station_id":"ce4bgup2rcd13ifvqcn0","pricing_plan_id":"free"},{"bike_id":"fc17fefc-8d14-4b91-b3d7-afcc7b190a05","system_id":"levelo_inurba_marseille","lat":43.304606,"lon":5.379026,"is_reserved":false,"is_disabled":false,"rental_uris":{"android":"levelo://app?vid=fc17fefc-8d14-4b91-b3d7-afcc7b190a05","ios":"levelo://app?vid=fc17fefc-8d14-4b91-b3d7-afcc7b190a05"},"vehicle_type_id":"4","last_reported":1706684846,"current_range_meters":22400,"station_id":"ce4bgup2rcd13ifvqcn0","pricing_plan_id":"free"},{"bike_id":"a4e36deb-dd5e-4558-a757-e2b0cd56137d","system_id":"levelo_inurba_marseille","lat":43.30463,"lon":5.37904,"is_reserved":false,"is_disabled":false,"rental_uris":{"android":"levelo://app?vid=a4e36deb-dd5e-4558-a757-e2b0cd56137d","ios":"levelo://app?vid=a4e36deb-dd5e-4558-a757-e2b0cd56137d"},"vehicle_type_id":"4","last_reported":1706684846,"current_range_meters":25200,"station_id":"ce4bgup2rcd13ifvqcn0","pricing_plan_id":"free"},{"bike_id":"fe7e8e55-a3a8-4a8a-b1c9-a26bac8b4c3e","system_id":"levelo_inurba_marseille","lat":43.304606,"lon":5.379026,"is_reserved":false,"is_disabled":false,"rental_uris":{"android":"levelo://app?vid=fe7e8e55-a3a8-4a8a-b1c9-a26bac8b4c3e","ios":"levelo://app?vid=fe7e8e55-a3a8-4a8a-b1c9-a26bac8b4c3e"},"vehicle_type_id":"4","last_reported":1706684846,"current_range_meters":23600,"station_id":"ce4bgup2rcd13ifvqcn0","pricing_plan_id":"free"},{"bike_id":"8627bbbc-a46e-4dc2-94d7-b7eae7f9ca49","system_id":"levelo_inurba_marseille","lat":43.30461,"lon":5.37902,"is_reserved":false,"is_disabled":false,"rental_uris":{"android":"levelo://app?vid=8627bbbc-a46e-4dc2-94d7-b7eae7f9ca49","ios":"levelo://app?vid=8627bbbc-a46e-4dc2-94d7-b7eae7f9ca49"},"vehicle_type_id":"4","last_reported":1706684846,"current_range_meters":400,"station_id":"ce4bgup2rcd13ifvqcn0","pricing_plan_id":"free"},{"bike_id":"f8c88493-a4e8-4380-a568-f412cec9e342","system_id":"levelo_inurba_marseille","lat":43.304606,"lon":5.379026,"is_reserved":false,"is_disabled":false,"rental_uris":{"android":"levelo://app?vid=f8c88493-a4e8-4380-a568-f412cec9e342","ios":"levelo://app?vid=f8c88493-a4e8-4380-a568-f412cec9e342"},"vehicle_type_id":"4","last_reported":1706684846,"current_range_meters":22800,"station_id":"ce4bgup2rcd13ifvqcn0","pricing_plan_id":"free"},{"bike_id":"4fc19e9a-fff6-406d-aa95-ea5000d5ebb2","system_id":"levelo_inurba_marseille","lat":43.30461,"lon":5.37903,"is_reserved":false,"is_disabled":false,"rental_uris":{"android":"levelo://app?vid=4fc19e9a-fff6-406d-aa95-ea5000d5ebb2","ios":"levelo://app?vid=4fc19e9a-fff6-406d-aa95-ea5000d5ebb2"},"vehicle_type_id":"4","last_reported":1706684846,"current_range_meters":22800,"station_id":"ce4bgup2rcd13ifvqcn0","pricing_plan_id":"free"},{"bike_id":"5ed251d9-36a1-4008-b7bb-962766172e09","system_id":"levelo_inurba_marseille","lat":43.304606,"lon":5.379026,"is_reserved":false,"is_disabled":false,"rental_uris":{"android":"levelo://app?vid=5ed251d9-36a1-4008-b7bb-962766172e09","ios":"levelo://app?vid=5ed251d9-36a1-4008-b7bb-962766172e09"},"vehicle_type_id":"4","last_reported":1706684846,"current_range_meters":2000,"station_id":"ce4bgup2rcd13ifvqcn0","pricing_plan_id":"free"},{"bike_id":"c9c63d1c-5ec4-4c16-8f65-8cb6eccf601e","system_id":"levelo_inurba_marseille","lat":43.30457,"lon":5.37902,"is_reserved":false,"is_disabled":false,"rental_uris":{"android":"levelo://app?vid=c9c63d1c-5ec4-4c16-8f65-8cb6eccf601e","ios":"levelo://app?vid=c9c63d1c-5ec4-4c16-8f65-8cb6eccf601e"},"vehicle_type_id":"4","last_reported":1706684846,"current_range_meters":21200,"station_id":"ce4bgup2rcd13ifvqcn0","pricing_plan_id":"free"},{"bike_id":"31b5cd49-ee61-4884-b8f4-7bd9edf51bde","system_id":"levelo_inurba_marseille","lat":43.304606,"lon":5.379026,"is_reserved":false,"is_disabled":false,"rental_uris":{"android":"levelo://app?vid=31b5cd49-ee61-4884-b8f4-7bd9edf51bde","ios":"levelo://app?vid=31b5cd49-ee61-4884-b8f4-7bd9edf51bde"},"vehicle_type_id":"4","last_reported":1706684846,"current_range_meters":27200,"station_id":"ce4bgup2rcd13ifvqcn0","pricing_plan_id":"free"},{"bike_id":"21748e3c-8124-47b4-9e3f-f974c669d297","system_id":"levelo_inurba_marseille","lat":43.304606,"lon":5.379026,"is_reserved":false,"is_disabled":false,"rental_uris":{"android":"levelo://app?vid=21748e3c-8124-47b4-9e3f-f974c669d297","ios":"levelo://app?vid=21748e3c-8124-47b4-9e3f-f974c669d297"},"vehicle_type_id":"4","last_reported":1706684846,"current_range_meters":11600,"station_id":"ce4bgup2rcd13ifvqcn0","pricing_plan_id":"free"},{"bike_id":"dc116dfc-6660-4934-b83a-96e32cf5e64a","system_id":"levelo_inurba_marseille","lat":43.304583,"lon":5.379084,"is_reserved":false,"is_disabled":false,"rental_uris":{"android":"levelo://app?vid=dc116dfc-6660-4934-b83a-96e32cf5e64a","ios":"levelo://app?vid=dc116dfc-6660-4934-b83a-96e32cf5e64a"},"vehicle_type_id":"4","last_reported":1706684846,"current_range_meters":21200,"station_id":"ce4bgup2rcd13ifvqcn0","pricing_plan_id":"free"},{"bike_id":"4c1d912b-8425-4b28-bcd4-0691a1724560","system_id":"levelo_inurba_marseille","lat":43.324789,"lon":5.365728,"is_reserved":false,"is_disabled":false,"rental_uris":{"android":"levelo://app?vid=4c1d912b-8425-4b28-bcd4-0691a1724560","ios":"levelo://app?vid=4c1d912b-8425-4b28-bcd4-0691a1724560"},"vehicle_type_id":"4","last_reported":1706684846,"current_range_meters":20400,"station_id":"ce4bhs12rcd13ifvqhvg","pricing_plan_id":"free"},{"bike_id":"a0eae40b-e718-454c-a7ff-fcb8d0520af2","system_id":"levelo_inurba_marseille","lat":43.324771,"lon":5.36557,"is_reserved":false,"is_disabled":false,"rental_uris":{"android":"levelo://app?vid=a0eae40b-e718-454c-a7ff-fcb8d0520af2","ios":"levelo://app?vid=a0eae40b-e718-454c-a7ff-fcb8d0520af2"},"vehicle_type_id":"4","last_reported":1706684846,"current_range_meters":4800,"station_id":"ce4bhs12rcd13ifvqhvg","pricing_plan_id":"free"},{"bike_id":"f9b3aa5a-40af-4040-a917-268c7acc95ae","system_id":"levelo_inurba_marseille","lat":43.324809,"lon":5.365737,"is_reserved":false,"is_disabled":false,"rental_uris":{"android":"levelo://app?vid=f9b3aa5a-40af-4040-a917-268c7acc95ae","ios":"levelo://app?vid=f9b3aa5a-40af-4040-a917-268c7acc95ae"},"vehicle_type_id":"4","last_reported":1706684846,"current_range_meters":18400,"station_id":"ce4bhs12rcd13ifvqhvg","pricing_plan_id":"free"},{"bike_id":"4736ab2f-d481-4964-88a7-047c1ca02d2a","system_id":"levelo_inurba_marseille","lat":43.324828,"lon":5.365768,"is_reserved":false,"is_disabled":false,"rental_uris":{"android":"levelo://app?vid=4736ab2f-d481-4964-88a7-047c1ca02d2a","ios":"levelo://app?vid=4736ab2f-d481-4964-88a7-047c1ca02d2a"},"vehicle_type_id":"4","last_reported":1706684846,"current_range_meters":26000,"station_id":"ce4bhs12rcd13ifvqhvg","pricing_plan_id":"free"},{"bike_id":"518e97e3-e7df-4bd7-9b68-4ba9cb6490ec","system_id":"levelo_inurba_marseille","lat":43.301429,"lon":5.37413,"is_reserved":false,"is_disabled":false,"rental_uris":{"android":"levelo://app?vid=518e97e3-e7df-4bd7-9b68-4ba9cb6490ec","ios":"levelo://app?vid=518e97e3-e7df-4bd7-9b68-4ba9cb6490ec"},"vehicle_type_id":"4","last_reported":1706684846,"current_range_meters":26000,"station_id":"ce4bgs92rcd13ifvqcc0","pricing_plan_id":"free"},{"bike_id":"fc8086d5-a06c-440d-9fdc-7d93994b05b8","system_id":"levelo_inurba_marseille","lat":43.292311,"lon":5.360731,"is_reserved":false,"is_disabled":false,"rental_uris":{"android":"levelo://app?vid=fc8086d5-a06c-440d-9fdc-7d93994b05b8","ios":"levelo://app?vid=fc8086d5-a06c-440d-9fdc-7d93994b05b8"},"vehicle_type_id":"4","last_reported":1706684846,"current_range_meters":4000,"station_id":"ce4bhbh2rcd13ifvqeqg","pricing_plan_id":"free"},{"bike_id":"59c2c426-1f4d-4afb-9040-2d699f03afd7","system_id":"levelo_inurba_marseille","lat":43.302784,"lon":5.377158,"is_reserved":false,"is_disabled":false,"rental_uris":{"android":"levelo://app?vid=59c2c426-1f4d-4afb-9040-2d699f03afd7","ios":"levelo://app?vid=59c2c426-1f4d-4afb-9040-2d699f03afd7"},"vehicle_type_id":"4","last_reported":1706684846,"current_range_meters":8400,"station_id":"ce4bguh2rcd13ifvqcj0","pricing_plan_id":"free"},{"bike_id":"c4e490d7-0ea5-4f58-9a22-31a35fb1514e","system_id":"levelo_inurba_marseille","lat":43.319935,"lon":5.381699,"is_reserved":false,"is_disabled":false,"rental_uris":{"android":"levelo://app?vid=c4e490d7-0ea5-4f58-9a22-31a35fb1514e","ios":"levelo://app?vid=c4e490d7-0ea5-4f58-9a22-31a35fb1514e"},"vehicle_type_id":"4","last_reported":1706684846,"current_range_meters":400,"station_id":"ce4bhr12rcd13ifvqhpg","pricing_plan_id":"free"},{"bike_id":"b8b1dbbf-61db-4523-87cf-433d900d312a","system_id":"levelo_inurba_marseille","lat":43.319935,"lon":5.381699,"is_reserved":false,"is_disabled":false,"rental_uris":{"android":"levelo://app?vid=b8b1dbbf-61db-4523-87cf-433d900d312a","ios":"levelo://app?vid=b8b1dbbf-61db-4523-87cf-433d900d312a"},"vehicle_type_id":"4","last_reported":1706684846,"current_range_meters":4400,"station_id":"ce4bhr12rcd13ifvqhpg","pricing_plan_id":"free"},{"bike_id":"f56ab861-27be-4472-9d9e-9174060007e9","system_id":"levelo_inurba_marseille","lat":43.313571,"lon":5.384829,"is_reserved":false,"is_disabled":false,"rental_uris":{"android":"levelo://app?vid=f56ab861-27be-4472-9d9e-9174060007e9","ios":"levelo://app?vid=f56ab861-27be-4472-9d9e-9174060007e9"},"vehicle_type_id":"4","last_reported":1706684846,"current_range_meters":25200,"station_id":"ce4bgt92rcd13ifvqcf0","pricing_plan_id":"free"},{"bike_id":"0ff6c15c-4882-46b9-9f89-c48fa312d35c","system_id":"levelo_inurba_marseille","lat":43.313571,"lon":5.384829,"is_reserved":false,"is_disabled":false,"rental_uris":{"android":"levelo://app?vid=0ff6c15c-4882-46b9-9f89-c48fa312d35c","ios":"levelo://app?vid=0ff6c15c-4882-46b9-9f89-c48fa312d35c"},"vehicle_type_id":"4","last_reported":1706684846,"current_range_meters":20400,"station_id":"ce4bgt92rcd13ifvqcf0","pricing_plan_id":"free"},{"bike_id":"986eda8d-6037-4b7c-821c-a221f8d8b663","system_id":"levelo_inurba_marseille","lat":43.311722,"lon":5.387247,"is_reserved":false,"is_disabled":false,"rental_uris":{"android":"levelo://app?vid=986eda8d-6037-4b7c-821c-a221f8d8b663","ios":"levelo://app?vid=986eda8d-6037-4b7c-821c-a221f8d8b663"},"vehicle_type_id":"4","last_reported":1706684846,"current_range_meters":25200,"station_id":"ce4bgv12rcd13ifvqcp0","pricing_plan_id":"free"},{"bike_id":"5c880cbd-5623-4ca1-8142-8e2e9c18028e","system_id":"levelo_inurba_marseille","lat":43.31168,"lon":5.38712,"is_reserved":false,"is_disabled":false,"rental_uris":{"android":"levelo://app?vid=5c880cbd-5623-4ca1-8142-8e2e9c18028e","ios":"levelo://app?vid=5c880cbd-5623-4ca1-8142-8e2e9c18028e"},"vehicle_type_id":"4","last_reported":1706684846,"current_range_meters":13200,"station_id":"ce4bgv12rcd13ifvqcp0","pricing_plan_id":"free"},{"bike_id":"7a0c2d81-2a8b-46ec-9345-33a088bcafd4","system_id":"levelo_inurba_marseille","lat":43.31181,"lon":5.387135,"is_reserved":false,"is_disabled":false,"rental_uris":{"android":"levelo://app?vid=7a0c2d81-2a8b-46ec-9345-33a088bcafd4","ios":"levelo://app?vid=7a0c2d81-2a8b-46ec-9345-33a088bcafd4"},"vehicle_type_id":"4","last_reported":1706684846,"current_range_meters":30000,"station_id":"ce4bgv12rcd13ifvqcp0","pricing_plan_id":"free"},{"bike_id":"8998b045-47bf-45e8-b945-12daa95e5fce","system_id":"levelo_inurba_marseille","lat":43.299243,"lon":5.37481,"is_reserved":false,"is_disabled":false,"rental_uris":{"android":"levelo://app?vid=8998b045-47bf-45e8-b945-12daa95e5fce","ios":"levelo://app?vid=8998b045-47bf-45e8-b945-12daa95e5fce"},"vehicle_type_id":"4","last_reported":1706684846,"current_range_meters":31600,"station_id":"ce4bgjh2rcd13ifvqbg0","pricing_plan_id":"free"},{"bike_id":"e6c8d308-a545-47ad-be3b-5bb7f6165b12","system_id":"levelo_inurba_marseille","lat":43.311693,"lon":5.387194,"is_reserved":false,"is_disabled":false,"rental_uris":{"android":"levelo://app?vid=e6c8d308-a545-47ad-be3b-5bb7f6165b12","ios":"levelo://app?vid=e6c8d308-a545-47ad-be3b-5bb7f6165b12"},"vehicle_type_id":"4","last_reported":1706684846,"current_range_meters":31200,"station_id":"ce4bgv12rcd13ifvqcp0","pricing_plan_id":"free"},{"bike_id":"c90364f6-670b-481e-85aa-d87bec6e1819","system_id":"levelo_inurba_marseille","lat":43.32822,"lon":5.36677,"is_reserved":false,"is_disabled":false,"rental_uris":{"android":"levelo://app?vid=c90364f6-670b-481e-85aa-d87bec6e1819","ios":"levelo://app?vid=c90364f6-670b-481e-85aa-d87bec6e1819"},"vehicle_type_id":"4","last_reported":1706684846,"current_range_meters":1200,"station_id":"ce4bhs92rcd13ifvqi0g","pricing_plan_id":"free"},{"bike_id":"53319c11-7baf-4e4d-80cc-5b4926497c6a","system_id":"levelo_inurba_marseille","lat":43.328371,"lon":5.366909,"is_reserved":false,"is_disabled":false,"rental_uris":{"android":"levelo://app?vid=53319c11-7baf-4e4d-80cc-5b4926497c6a","ios":"levelo://app?vid=53319c11-7baf-4e4d-80cc-5b4926497c6a"},"vehicle_type_id":"4","last_reported":1706684846,"current_range_meters":29200,"station_id":"ce4bhs92rcd13ifvqi0g","pricing_plan_id":"free"},{"bike_id":"ad4a6db5-7921-468f-9344-759103aee89e","system_id":"levelo_inurba_marseille","lat":43.328371,"lon":5.366909,"is_reserved":false,"is_disabled":false,"rental_uris":{"android":"levelo://app?vid=ad4a6db5-7921-468f-9344-759103aee89e","ios":"levelo://app?vid=ad4a6db5-7921-468f-9344-759103aee89e"},"vehicle_type_id":"4","last_reported":1706684846,"current_range_meters":28000,"station_id":"ce4bhs92rcd13ifvqi0g","pricing_plan_id":"free"},{"bike_id":"f9be9382-14ac-4417-93ad-1f5f6320b6ae","system_id":"levelo_inurba_marseille","lat":43.328371,"lon":5.366909,"is_reserved":false,"is_disabled":false,"rental_uris":{"android":"levelo://app?vid=f9be9382-14ac-4417-93ad-1f5f6320b6ae","ios":"levelo://app?vid=f9be9382-14ac-4417-93ad-1f5f6320b6ae"},"vehicle_type_id":"4","last_reported":1706684846,"current_range_meters":8400,"station_id":"ce4bhs92rcd13ifvqi0g","pricing_plan_id":"free"},{"bike_id":"d90f0439-5933-4b4c-b7c8-2f019df210a9","system_id":"levelo_inurba_marseille","lat":43.328371,"lon":5.366909,"is_reserved":false,"is_disabled":false,"rental_uris":{"android":"levelo://app?vid=d90f0439-5933-4b4c-b7c8-2f019df210a9","ios":"levelo://app?vid=d90f0439-5933-4b4c-b7c8-2f019df210a9"},"vehicle_type_id":"4","last_reported":1706684846,"current_range_meters":8400,"station_id":"ce4bhs92rcd13ifvqi0g","pricing_plan_id":"free"},{"bike_id":"5e0d7018-715e-4087-a2d6-cfa7ba43c5e5","system_id":"levelo_inurba_marseille","lat":43.328371,"lon":5.366909,"is_reserved":false,"is_disabled":false,"rental_uris":{"android":"levelo://app?vid=5e0d7018-715e-4087-a2d6-cfa7ba43c5e5","ios":"levelo://app?vid=5e0d7018-715e-4087-a2d6-cfa7ba43c5e5"},"vehicle_type_id":"4","last_reported":1706684846,"current_range_meters":14800,"station_id":"ce4bhs92rcd13ifvqi0g","pricing_plan_id":"free"},{"bike_id":"af71055b-17bb-4e0c-a2f2-fd99b82206fe","system_id":"levelo_inurba_marseille","lat":43.328371,"lon":5.366909,"is_reserved":false,"is_disabled":false,"rental_uris":{"android":"levelo://app?vid=af71055b-17bb-4e0c-a2f2-fd99b82206fe","ios":"levelo://app?vid=af71055b-17bb-4e0c-a2f2-fd99b82206fe"},"vehicle_type_id":"4","last_reported":1706684846,"current_range_meters":21200,"station_id":"ce4bhs92rcd13ifvqi0g","pricing_plan_id":"free"},{"bike_id":"4ea2af80-17e8-43b9-aa80-4dd860666ed4","system_id":"levelo_inurba_marseille","lat":43.296131,"lon":5.370791,"is_reserved":false,"is_disabled":false,"rental_uris":{"android":"levelo://app?vid=4ea2af80-17e8-43b9-aa80-4dd860666ed4","ios":"levelo://app?vid=4ea2af80-17e8-43b9-aa80-4dd860666ed4"},"vehicle_type_id":"4","last_reported":1706684846,"current_range_meters":20400,"station_id":"ce4bgnh2rcd13ifvqc0g","pricing_plan_id":"free"},{"bike_id":"cb3d4f26-21a6-4ea0-8cf1-737a22561fd3","system_id":"levelo_inurba_marseille","lat":43.29573,"lon":5.367355,"is_reserved":false,"is_disabled":false,"rental_uris":{"android":"levelo://app?vid=cb3d4f26-21a6-4ea0-8cf1-737a22561fd3","ios":"levelo://app?vid=cb3d4f26-21a6-4ea0-8cf1-737a22561fd3"},"vehicle_type_id":"4","last_reported":1706684846,"current_range_meters":30400,"station_id":"ce4bgph2rcd13ifvqc2g","pricing_plan_id":"free"},{"bike_id":"3ebba7c2-42a9-4cf5-bd61-bc77e65e7050","system_id":"levelo_inurba_marseille","lat":43.299028,"lon":5.381509,"is_reserved":false,"is_disabled":false,"rental_uris":{"android":"levelo://app?vid=3ebba7c2-42a9-4cf5-bd61-bc77e65e7050","ios":"levelo://app?vid=3ebba7c2-42a9-4cf5-bd61-bc77e65e7050"},"vehicle_type_id":"4","last_reported":1706684846,"current_range_meters":25600,"station_id":"ce4bgj12rcd13ifvqbc0","pricing_plan_id":"free"},{"bike_id":"19962e1d-9ae6-481d-94d6-98ab2fe835be","system_id":"levelo_inurba_marseille","lat":43.317557,"lon":5.390173,"is_reserved":false,"is_disabled":false,"rental_uris":{"android":"levelo://app?vid=19962e1d-9ae6-481d-94d6-98ab2fe835be","ios":"levelo://app?vid=19962e1d-9ae6-481d-94d6-98ab2fe835be"},"vehicle_type_id":"4","last_reported":1706684846,"current_range_meters":30400,"station_id":"ce4bhqp2rcd13ifvqhng","pricing_plan_id":"free"},{"bike_id":"1f3a564f-8fc2-4cde-9b18-d2ad556a297b","system_id":"levelo_inurba_marseille","lat":43.317557,"lon":5.390173,"is_reserved":false,"is_disabled":false,"rental_uris":{"android":"levelo://app?vid=1f3a564f-8fc2-4cde-9b18-d2ad556a297b","ios":"levelo://app?vid=1f3a564f-8fc2-4cde-9b18-d2ad556a297b"},"vehicle_type_id":"4","last_reported":1706684846,"current_range_meters":26400,"station_id":"ce4bhqp2rcd13ifvqhng","pricing_plan_id":"free"},{"bike_id":"6a50afe9-b390-4b14-a5d4-1b9ef566a50e","system_id":"levelo_inurba_marseille","lat":43.317557,"lon":5.390173,"is_reserved":false,"is_disabled":false,"rental_uris":{"android":"levelo://app?vid=6a50afe9-b390-4b14-a5d4-1b9ef566a50e","ios":"levelo://app?vid=6a50afe9-b390-4b14-a5d4-1b9ef566a50e"},"vehicle_type_id":"4","last_reported":1706684846,"current_range_meters":25200,"station_id":"ce4bhqp2rcd13ifvqhng","pricing_plan_id":"free"},{"bike_id":"d238589c-13d8-48d3-be35-9562cb61fbc4","system_id":"levelo_inurba_marseille","lat":43.298037,"lon":5.381066,"is_reserved":false,"is_disabled":false,"rental_uris":{"android":"levelo://app?vid=d238589c-13d8-48d3-be35-9562cb61fbc4","ios":"levelo://app?vid=d238589c-13d8-48d3-be35-9562cb61fbc4"},"vehicle_type_id":"4","last_reported":1706684846,"current_range_meters":0,"station_id":"ce4bgip2rcd13ifvqbb0","pricing_plan_id":"free"},{"bike_id":"aece7ef1-0db2-4d15-8569-6dd926fefa6d","system_id":"levelo_inurba_marseille","lat":43.298037,"lon":5.381066,"is_reserved":false,"is_disabled":false,"rental_uris":{"android":"levelo://app?vid=aece7ef1-0db2-4d15-8569-6dd926fefa6d","ios":"levelo://app?vid=aece7ef1-0db2-4d15-8569-6dd926fefa6d"},"vehicle_type_id":"4","last_reported":1706684846,"current_range_meters":26400,"station_id":"ce4bgip2rcd13ifvqbb0","pricing_plan_id":"free"},{"bike_id":"d58acb60-a751-4576-9e37-d482ae80f6af","system_id":"levelo_inurba_marseille","lat":43.304278,"lon":5.388868,"is_reserved":false,"is_disabled":false,"rental_uris":{"android":"levelo://app?vid=d58acb60-a751-4576-9e37-d482ae80f6af","ios":"levelo://app?vid=d58acb60-a751-4576-9e37-d482ae80f6af"},"vehicle_type_id":"4","last_reported":1706684846,"current_range_meters":23600,"station_id":"ce4bgk12rcd13ifvqbi0","pricing_plan_id":"free"},{"bike_id":"95d52487-cfcf-4df0-a462-042c1b536546","system_id":"levelo_inurba_marseille","lat":43.304274,"lon":5.388873,"is_reserved":false,"is_disabled":false,"rental_uris":{"android":"levelo://app?vid=95d52487-cfcf-4df0-a462-042c1b536546","ios":"levelo://app?vid=95d52487-cfcf-4df0-a462-042c1b536546"},"vehicle_type_id":"4","last_reported":1706684846,"current_range_meters":27600,"station_id":"ce4bgk12rcd13ifvqbi0","pricing_plan_id":"free"},{"bike_id":"f6a2d1ac-8f90-45cb-aa57-befcf240658b","system_id":"levelo_inurba_marseille","lat":43.304274,"lon":5.388873,"is_reserved":false,"is_disabled":false,"rental_uris":{"android":"levelo://app?vid=f6a2d1ac-8f90-45cb-aa57-befcf240658b","ios":"levelo://app?vid=f6a2d1ac-8f90-45cb-aa57-befcf240658b"},"vehicle_type_id":"4","last_reported":1706684846,"current_range_meters":24400,"station_id":"ce4bgk12rcd13ifvqbi0","pricing_plan_id":"free"},{"bike_id":"c1e2f82e-b3f1-4dcb-90f2-f435a15992fb","system_id":"levelo_inurba_marseille","lat":43.304274,"lon":5.388873,"is_reserved":false,"is_disabled":false,"rental_uris":{"android":"levelo://app?vid=c1e2f82e-b3f1-4dcb-90f2-f435a15992fb","ios":"levelo://app?vid=c1e2f82e-b3f1-4dcb-90f2-f435a15992fb"},"vehicle_type_id":"4","last_reported":1706684846,"current_range_meters":30000,"station_id":"ce4bgk12rcd13ifvqbi0","pricing_plan_id":"free"},{"bike_id":"ef5ca73e-e9ad-44c7-bfb2-2e9c959e121c","system_id":"levelo_inurba_marseille","lat":43.296277,"lon":5.377108,"is_reserved":false,"is_disabled":false,"rental_uris":{"android":"levelo://app?vid=ef5ca73e-e9ad-44c7-bfb2-2e9c959e121c","ios":"levelo://app?vid=ef5ca73e-e9ad-44c7-bfb2-2e9c959e121c"},"vehicle_type_id":"4","last_reported":1706684846,"current_range_meters":30000,"station_id":"ce4bgi92rcd13ifvqb90","pricing_plan_id":"free"},{"bike_id":"f3910ded-e7fe-4cca-8d6a-29ae7b59a886","system_id":"levelo_inurba_marseille","lat":43.296277,"lon":5.377108,"is_reserved":false,"is_disabled":false,"rental_uris":{"android":"levelo://app?vid=f3910ded-e7fe-4cca-8d6a-29ae7b59a886","ios":"levelo://app?vid=f3910ded-e7fe-4cca-8d6a-29ae7b59a886"},"vehicle_type_id":"4","last_reported":1706684846,"current_range_meters":31600,"station_id":"ce4bgi92rcd13ifvqb90","pricing_plan_id":"free"},{"bike_id":"2161816c-fd38-4b9f-8e41-b98405dce33e","system_id":"levelo_inurba_marseille","lat":43.298037,"lon":5.381066,"is_reserved":false,"is_disabled":false,"rental_uris":{"android":"levelo://app?vid=2161816c-fd38-4b9f-8e41-b98405dce33e","ios":"levelo://app?vid=2161816c-fd38-4b9f-8e41-b98405dce33e"},"vehicle_type_id":"4","last_reported":1706684846,"current_range_meters":24400,"station_id":"ce4bgip2rcd13ifvqbb0","pricing_plan_id":"free"},{"bike_id":"3304705b-41a6-4ab2-8f57-8ae4ca18e49e","system_id":"levelo_inurba_marseille","lat":43.299717,"lon":5.384845,"is_reserved":false,"is_disabled":false,"rental_uris":{"android":"levelo://app?vid=3304705b-41a6-4ab2-8f57-8ae4ca18e49e","ios":"levelo://app?vid=3304705b-41a6-4ab2-8f57-8ae4ca18e49e"},"vehicle_type_id":"4","last_reported":1706684846,"current_range_meters":20400,"station_id":"ce4bgj92rcd13ifvqbd0","pricing_plan_id":"free"},{"bike_id":"7e04a075-142b-4a9e-9eb3-2d7757ecce08","system_id":"levelo_inurba_marseille","lat":43.299717,"lon":5.384845,"is_reserved":false,"is_disabled":false,"rental_uris":{"android":"levelo://app?vid=7e04a075-142b-4a9e-9eb3-2d7757ecce08","ios":"levelo://app?vid=7e04a075-142b-4a9e-9eb3-2d7757ecce08"},"vehicle_type_id":"4","last_reported":1706684846,"current_range_meters":25200,"station_id":"ce4bgj92rcd13ifvqbd0","pricing_plan_id":"free"},{"bike_id":"de25d637-84ec-4203-b892-3e1c2d7c4ddb","system_id":"levelo_inurba_marseille","lat":43.33171,"lon":5.36443,"is_reserved":false,"is_disabled":false,"rental_uris":{"android":"levelo://app?vid=de25d637-84ec-4203-b892-3e1c2d7c4ddb","ios":"levelo://app?vid=de25d637-84ec-4203-b892-3e1c2d7c4ddb"},"vehicle_type_id":"4","last_reported":1706684846,"current_range_meters":8400,"station_id":"","pricing_plan_id":"free"},{"bike_id":"42e1b826-7d18-4d6d-8399-50a5392000d1","system_id":"levelo_inurba_marseille","lat":43.32367,"lon":5.388836,"is_reserved":false,"is_disabled":false,"rental_uris":{"android":"levelo://app?vid=42e1b826-7d18-4d6d-8399-50a5392000d1","ios":"levelo://app?vid=42e1b826-7d18-4d6d-8399-50a5392000d1"},"vehicle_type_id":"4","last_reported":1706684846,"current_range_meters":30000,"station_id":"ce4bhqp2rcd13ifvqhog","pricing_plan_id":"free"},{"bike_id":"b071eb17-b918-4d42-8403-8f2d1e2332d7","system_id":"levelo_inurba_marseille","lat":43.32367,"lon":5.388836,"is_reserved":false,"is_disabled":false,"rental_uris":{"android":"levelo://app?vid=b071eb17-b918-4d42-8403-8f2d1e2332d7","ios":"levelo://app?vid=b071eb17-b918-4d42-8403-8f2d1e2332d7"},"vehicle_type_id":"4","last_reported":1706684846,"current_range_meters":28800,"station_id":"ce4bhqp2rcd13ifvqhog","pricing_plan_id":"free"},{"bike_id":"e39d00f9-07f8-4e9d-85c6-a0b8aca8cf61","system_id":"levelo_inurba_marseille","lat":43.32367,"lon":5.388836,"is_reserved":false,"is_disabled":false,"rental_uris":{"android":"levelo://app?vid=e39d00f9-07f8-4e9d-85c6-a0b8aca8cf61","ios":"levelo://app?vid=e39d00f9-07f8-4e9d-85c6-a0b8aca8cf61"},"vehicle_type_id":"4","last_reported":1706684846,"current_range_meters":26800,"station_id":"ce4bhqp2rcd13ifvqhog","pricing_plan_id":"free"},{"bike_id":"87c37e20-93d8-4821-b2fb-71a6c4f572ed","system_id":"levelo_inurba_marseille","lat":43.32363,"lon":5.38885,"is_reserved":false,"is_disabled":false,"rental_uris":{"android":"levelo://app?vid=87c37e20-93d8-4821-b2fb-71a6c4f572ed","ios":"levelo://app?vid=87c37e20-93d8-4821-b2fb-71a6c4f572ed"},"vehicle_type_id":"4","last_reported":1706684846,"current_range_meters":4000,"station_id":"ce4bhqp2rcd13ifvqhog","pricing_plan_id":"free"},{"bike_id":"899d0092-7653-45db-88aa-d3f5eb3a8508","system_id":"levelo_inurba_marseille","lat":43.32367,"lon":5.388836,"is_reserved":false,"is_disabled":false,"rental_uris":{"android":"levelo://app?vid=899d0092-7653-45db-88aa-d3f5eb3a8508","ios":"levelo://app?vid=899d0092-7653-45db-88aa-d3f5eb3a8508"},"vehicle_type_id":"4","last_reported":1706684846,"current_range_meters":9200,"station_id":"ce4bhqp2rcd13ifvqhog","pricing_plan_id":"free"},{"bike_id":"761fa6f3-e9de-4ab9-8142-35ed430547fd","system_id":"levelo_inurba_marseille","lat":43.29609,"lon":5.380995,"is_reserved":false,"is_disabled":false,"rental_uris":{"android":"levelo://app?vid=761fa6f3-e9de-4ab9-8142-35ed430547fd","ios":"levelo://app?vid=761fa6f3-e9de-4ab9-8142-35ed430547fd"},"vehicle_type_id":"4","last_reported":1706684846,"current_range_meters":5200,"station_id":"ce4bgl12rcd13ifvqbo0","pricing_plan_id":"free"},{"bike_id":"2f860b6e-ec71-4c63-8aec-f7ff6a40b2b7","system_id":"levelo_inurba_marseille","lat":43.29602,"lon":5.381084,"is_reserved":false,"is_disabled":false,"rental_uris":{"android":"levelo://app?vid=2f860b6e-ec71-4c63-8aec-f7ff6a40b2b7","ios":"levelo://app?vid=2f860b6e-ec71-4c63-8aec-f7ff6a40b2b7"},"vehicle_type_id":"4","last_reported":1706684846,"current_range_meters":26000,"station_id":"ce4bgl12rcd13ifvqbo0","pricing_plan_id":"free"},{"bike_id":"cedd0442-3bc3-43d4-83a1-245e26b1b21b","system_id":"levelo_inurba_marseille","lat":43.29601,"lon":5.381084,"is_reserved":false,"is_disabled":false,"rental_uris":{"android":"levelo://app?vid=cedd0442-3bc3-43d4-83a1-245e26b1b21b","ios":"levelo://app?vid=cedd0442-3bc3-43d4-83a1-245e26b1b21b"},"vehicle_type_id":"4","last_reported":1706684846,"current_range_meters":28000,"station_id":"ce4bgl12rcd13ifvqbo0","pricing_plan_id":"free"},{"bike_id":"de9a43f3-3cbc-433f-9adf-481bbe6cae05","system_id":"levelo_inurba_marseille","lat":43.29601,"lon":5.381084,"is_reserved":false,"is_disabled":false,"rental_uris":{"android":"levelo://app?vid=de9a43f3-3cbc-433f-9adf-481bbe6cae05","ios":"levelo://app?vid=de9a43f3-3cbc-433f-9adf-481bbe6cae05"},"vehicle_type_id":"4","last_reported":1706684846,"current_range_meters":19600,"station_id":"ce4bgl12rcd13ifvqbo0","pricing_plan_id":"free"},{"bike_id":"57684c54-fa13-46cb-8a10-8a05e76960ed","system_id":"levelo_inurba_marseille","lat":43.29602,"lon":5.381084,"is_reserved":false,"is_disabled":false,"rental_uris":{"android":"levelo://app?vid=57684c54-fa13-46cb-8a10-8a05e76960ed","ios":"levelo://app?vid=57684c54-fa13-46cb-8a10-8a05e76960ed"},"vehicle_type_id":"4","last_reported":1706684846,"current_range_meters":10400,"station_id":"ce4bgl12rcd13ifvqbo0","pricing_plan_id":"free"},{"bike_id":"f646ab75-79d9-4e26-a3b3-a7e5379e977f","system_id":"levelo_inurba_marseille","lat":43.29306,"lon":5.37183,"is_reserved":false,"is_disabled":false,"rental_uris":{"android":"levelo://app?vid=f646ab75-79d9-4e26-a3b3-a7e5379e977f","ios":"levelo://app?vid=f646ab75-79d9-4e26-a3b3-a7e5379e977f"},"vehicle_type_id":"4","last_reported":1706684846,"current_range_meters":30000,"station_id":"ce4bgh92rcd13ifvqb40","pricing_plan_id":"free"},{"bike_id":"15cee8c6-636c-4fb2-b787-404828371651","system_id":"levelo_inurba_marseille","lat":43.30603,"lon":5.39349,"is_reserved":false,"is_disabled":false,"rental_uris":{"android":"levelo://app?vid=15cee8c6-636c-4fb2-b787-404828371651","ios":"levelo://app?vid=15cee8c6-636c-4fb2-b787-404828371651"},"vehicle_type_id":"4","last_reported":1706684846,"current_range_meters":3200,"station_id":"ce4bh0p2rcd13ifvqd80","pricing_plan_id":"free"},{"bike_id":"bea055f6-8df9-4c0e-8c5f-414eca30082e","system_id":"levelo_inurba_marseille","lat":43.305994,"lon":5.393687,"is_reserved":false,"is_disabled":false,"rental_uris":{"android":"levelo://app?vid=bea055f6-8df9-4c0e-8c5f-414eca30082e","ios":"levelo://app?vid=bea055f6-8df9-4c0e-8c5f-414eca30082e"},"vehicle_type_id":"4","last_reported":1706684846,"current_range_meters":0,"station_id":"ce4bh0p2rcd13ifvqd80","pricing_plan_id":"free"},{"bike_id":"a3637e2e-2246-4bc4-b509-bf0cba691775","system_id":"levelo_inurba_marseille","lat":43.293009,"lon":5.374584,"is_reserved":false,"is_disabled":false,"rental_uris":{"android":"levelo://app?vid=a3637e2e-2246-4bc4-b509-bf0cba691775","ios":"levelo://app?vid=a3637e2e-2246-4bc4-b509-bf0cba691775"},"vehicle_type_id":"4","last_reported":1706684846,"current_range_meters":21200,"station_id":"ce4bgi12rcd13ifvqb70","pricing_plan_id":"free"},{"bike_id":"e8497a89-63d8-4988-88aa-0dc60b3b03f5","system_id":"levelo_inurba_marseille","lat":43.305994,"lon":5.393687,"is_reserved":false,"is_disabled":false,"rental_uris":{"android":"levelo://app?vid=e8497a89-63d8-4988-88aa-0dc60b3b03f5","ios":"levelo://app?vid=e8497a89-63d8-4988-88aa-0dc60b3b03f5"},"vehicle_type_id":"4","last_reported":1706684846,"current_range_meters":24000,"station_id":"ce4bh0p2rcd13ifvqd80","pricing_plan_id":"free"},{"bike_id":"d56a6aa2-5aac-4173-8391-cb0daf6d903c","system_id":"levelo_inurba_marseille","lat":43.305994,"lon":5.393687,"is_reserved":false,"is_disabled":false,"rental_uris":{"android":"levelo://app?vid=d56a6aa2-5aac-4173-8391-cb0daf6d903c","ios":"levelo://app?vid=d56a6aa2-5aac-4173-8391-cb0daf6d903c"},"vehicle_type_id":"4","last_reported":1706684846,"current_range_meters":13200,"station_id":"ce4bh0p2rcd13ifvqd80","pricing_plan_id":"free"},{"bike_id":"6ddf8609-b136-4b1f-8486-e45ee16a0f8e","system_id":"levelo_inurba_marseille","lat":43.305994,"lon":5.393687,"is_reserved":false,"is_disabled":false,"rental_uris":{"android":"levelo://app?vid=6ddf8609-b136-4b1f-8486-e45ee16a0f8e","ios":"levelo://app?vid=6ddf8609-b136-4b1f-8486-e45ee16a0f8e"},"vehicle_type_id":"4","last_reported":1706684846,"current_range_meters":25200,"station_id":"ce4bh0p2rcd13ifvqd80","pricing_plan_id":"free"},{"bike_id":"d1f53816-508f-4d4a-9151-ca0a78c159ec","system_id":"levelo_inurba_marseille","lat":43.305994,"lon":5.393687,"is_reserved":false,"is_disabled":false,"rental_uris":{"android":"levelo://app?vid=d1f53816-508f-4d4a-9151-ca0a78c159ec","ios":"levelo://app?vid=d1f53816-508f-4d4a-9151-ca0a78c159ec"},"vehicle_type_id":"4","last_reported":1706684846,"current_range_meters":14400,"station_id":"ce4bh0p2rcd13ifvqd80","pricing_plan_id":"free"},{"bike_id":"2be455b5-14b9-40e7-bceb-a66184561006","system_id":"levelo_inurba_marseille","lat":43.305994,"lon":5.393687,"is_reserved":false,"is_disabled":false,"rental_uris":{"android":"levelo://app?vid=2be455b5-14b9-40e7-bceb-a66184561006","ios":"levelo://app?vid=2be455b5-14b9-40e7-bceb-a66184561006"},"vehicle_type_id":"4","last_reported":1706684846,"current_range_meters":27200,"station_id":"ce4bh0p2rcd13ifvqd80","pricing_plan_id":"free"},{"bike_id":"d8ba867a-0dd9-4e0a-ab29-6365c3fe789b","system_id":"levelo_inurba_marseille","lat":43.306045,"lon":5.39362,"is_reserved":false,"is_disabled":false,"rental_uris":{"android":"levelo://app?vid=d8ba867a-0dd9-4e0a-ab29-6365c3fe789b","ios":"levelo://app?vid=d8ba867a-0dd9-4e0a-ab29-6365c3fe789b"},"vehicle_type_id":"4","last_reported":1706684846,"current_range_meters":16000,"station_id":"ce4bh0p2rcd13ifvqd80","pricing_plan_id":"free"},{"bike_id":"5ef20584-1a02-49c2-88a4-bc4859a06384","system_id":"levelo_inurba_marseille","lat":43.30594,"lon":5.39357,"is_reserved":false,"is_disabled":false,"rental_uris":{"android":"levelo://app?vid=5ef20584-1a02-49c2-88a4-bc4859a06384","ios":"levelo://app?vid=5ef20584-1a02-49c2-88a4-bc4859a06384"},"vehicle_type_id":"4","last_reported":1706684846,"current_range_meters":6400,"station_id":"ce4bh0p2rcd13ifvqd80","pricing_plan_id":"free"},{"bike_id":"1305e90c-8ed3-4524-915f-7ad9bf5771bc","system_id":"levelo_inurba_marseille","lat":43.30602,"lon":5.39362,"is_reserved":false,"is_disabled":false,"rental_uris":{"android":"levelo://app?vid=1305e90c-8ed3-4524-915f-7ad9bf5771bc","ios":"levelo://app?vid=1305e90c-8ed3-4524-915f-7ad9bf5771bc"},"vehicle_type_id":"4","last_reported":1706684846,"current_range_meters":9600,"station_id":"ce4bh0p2rcd13ifvqd80","pricing_plan_id":"free"},{"bike_id":"6341f9c7-7de3-4751-ba19-9b53cf4fb653","system_id":"levelo_inurba_marseille","lat":43.305994,"lon":5.393687,"is_reserved":false,"is_disabled":false,"rental_uris":{"android":"levelo://app?vid=6341f9c7-7de3-4751-ba19-9b53cf4fb653","ios":"levelo://app?vid=6341f9c7-7de3-4751-ba19-9b53cf4fb653"},"vehicle_type_id":"4","last_reported":1706684846,"current_range_meters":18800,"station_id":"ce4bh0p2rcd13ifvqd80","pricing_plan_id":"free"},{"bike_id":"f13199f6-24a4-4d70-ba0f-57580d8d5f5c","system_id":"levelo_inurba_marseille","lat":43.30603,"lon":5.39364,"is_reserved":false,"is_disabled":false,"rental_uris":{"android":"levelo://app?vid=f13199f6-24a4-4d70-ba0f-57580d8d5f5c","ios":"levelo://app?vid=f13199f6-24a4-4d70-ba0f-57580d8d5f5c"},"vehicle_type_id":"4","last_reported":1706684846,"current_range_meters":30000,"station_id":"ce4bh0p2rcd13ifvqd80","pricing_plan_id":"free"},{"bike_id":"9e553b14-e200-441e-8060-46ab40493662","system_id":"levelo_inurba_marseille","lat":43.305994,"lon":5.393687,"is_reserved":false,"is_disabled":false,"rental_uris":{"android":"levelo://app?vid=9e553b14-e200-441e-8060-46ab40493662","ios":"levelo://app?vid=9e553b14-e200-441e-8060-46ab40493662"},"vehicle_type_id":"4","last_reported":1706684846,"current_range_meters":22400,"station_id":"ce4bh0p2rcd13ifvqd80","pricing_plan_id":"free"},{"bike_id":"44fba4bc-0873-4b5c-9286-b178e17fc265","system_id":"levelo_inurba_marseille","lat":43.305994,"lon":5.393687,"is_reserved":false,"is_disabled":false,"rental_uris":{"android":"levelo://app?vid=44fba4bc-0873-4b5c-9286-b178e17fc265","ios":"levelo://app?vid=44fba4bc-0873-4b5c-9286-b178e17fc265"},"vehicle_type_id":"4","last_reported":1706684846,"current_range_meters":8400,"station_id":"ce4bh0p2rcd13ifvqd80","pricing_plan_id":"free"},{"bike_id":"3b9fe656-9709-4a05-9469-f765bc79d8e7","system_id":"levelo_inurba_marseille","lat":43.30594,"lon":5.39362,"is_reserved":false,"is_disabled":false,"rental_uris":{"android":"levelo://app?vid=3b9fe656-9709-4a05-9469-f765bc79d8e7","ios":"levelo://app?vid=3b9fe656-9709-4a05-9469-f765bc79d8e7"},"vehicle_type_id":"4","last_reported":1706684846,"current_range_meters":18800,"station_id":"ce4bh0p2rcd13ifvqd80","pricing_plan_id":"free"},{"bike_id":"3dd083bb-bd47-4ffe-b674-fa259d25edbe","system_id":"levelo_inurba_marseille","lat":43.305994,"lon":5.393687,"is_reserved":false,"is_disabled":false,"rental_uris":{"android":"levelo://app?vid=3dd083bb-bd47-4ffe-b674-fa259d25edbe","ios":"levelo://app?vid=3dd083bb-bd47-4ffe-b674-fa259d25edbe"},"vehicle_type_id":"4","last_reported":1706684846,"current_range_meters":22000,"station_id":"ce4bh0p2rcd13ifvqd80","pricing_plan_id":"free"},{"bike_id":"48721044-b8ed-4f6a-bbad-02347931217d","system_id":"levelo_inurba_marseille","lat":43.293009,"lon":5.374584,"is_reserved":false,"is_disabled":false,"rental_uris":{"android":"levelo://app?vid=48721044-b8ed-4f6a-bbad-02347931217d","ios":"levelo://app?vid=48721044-b8ed-4f6a-bbad-02347931217d"},"vehicle_type_id":"4","last_reported":1706684846,"current_range_meters":18000,"station_id":"ce4bgi12rcd13ifvqb70","pricing_plan_id":"free"},{"bike_id":"ca455788-3106-4b41-9393-0838b1b3e0b7","system_id":"levelo_inurba_marseille","lat":43.2936,"lon":5.37835,"is_reserved":false,"is_disabled":false,"rental_uris":{"android":"levelo://app?vid=ca455788-3106-4b41-9393-0838b1b3e0b7","ios":"levelo://app?vid=ca455788-3106-4b41-9393-0838b1b3e0b7"},"vehicle_type_id":"4","last_reported":1706684846,"current_range_meters":4800,"station_id":"ce4bgjh2rcd13ifvqbf0","pricing_plan_id":"free"},{"bike_id":"80bc0310-0fa6-4a2e-b8e4-7bb713ed9469","system_id":"levelo_inurba_marseille","lat":43.2936,"lon":5.37835,"is_reserved":false,"is_disabled":false,"rental_uris":{"android":"levelo://app?vid=80bc0310-0fa6-4a2e-b8e4-7bb713ed9469","ios":"levelo://app?vid=80bc0310-0fa6-4a2e-b8e4-7bb713ed9469"},"vehicle_type_id":"4","last_reported":1706684846,"current_range_meters":28800,"station_id":"ce4bgjh2rcd13ifvqbf0","pricing_plan_id":"free"},{"bike_id":"bf0e0f82-17f1-44df-8fcf-a04da73a79ed","system_id":"levelo_inurba_marseille","lat":43.302992,"lon":5.392136,"is_reserved":false,"is_disabled":false,"rental_uris":{"android":"levelo://app?vid=bf0e0f82-17f1-44df-8fcf-a04da73a79ed","ios":"levelo://app?vid=bf0e0f82-17f1-44df-8fcf-a04da73a79ed"},"vehicle_type_id":"4","last_reported":1706684846,"current_range_meters":30000,"station_id":"ce4bgkh2rcd13ifvqbk0","pricing_plan_id":"free"},{"bike_id":"6513f3aa-df49-4bfe-8b8e-09d8a138245f","system_id":"levelo_inurba_marseille","lat":43.30085,"lon":5.390856,"is_reserved":false,"is_disabled":false,"rental_uris":{"android":"levelo://app?vid=6513f3aa-df49-4bfe-8b8e-09d8a138245f","ios":"levelo://app?vid=6513f3aa-df49-4bfe-8b8e-09d8a138245f"},"vehicle_type_id":"4","last_reported":1706684846,"current_range_meters":0,"station_id":"ce4bh192rcd13ifvqdb0","pricing_plan_id":"free"},{"bike_id":"50b792f1-b5c9-403d-818e-dd76eee53a8d","system_id":"levelo_inurba_marseille","lat":43.29224,"lon":5.36061,"is_reserved":false,"is_disabled":false,"rental_uris":{"android":"levelo://app?vid=50b792f1-b5c9-403d-818e-dd76eee53a8d","ios":"levelo://app?vid=50b792f1-b5c9-403d-818e-dd76eee53a8d"},"vehicle_type_id":"4","last_reported":1706684846,"current_range_meters":22000,"station_id":"ce4bhbh2rcd13ifvqeqg","pricing_plan_id":"free"},{"bike_id":"dea02cd6-b634-4b3c-a2cc-cffdb2488a93","system_id":"levelo_inurba_marseille","lat":43.29221,"lon":5.36062,"is_reserved":false,"is_disabled":false,"rental_uris":{"android":"levelo://app?vid=dea02cd6-b634-4b3c-a2cc-cffdb2488a93","ios":"levelo://app?vid=dea02cd6-b634-4b3c-a2cc-cffdb2488a93"},"vehicle_type_id":"4","last_reported":1706684846,"current_range_meters":30800,"station_id":"ce4bhbh2rcd13ifvqeqg","pricing_plan_id":"free"},{"bike_id":"56702718-c456-4e44-b46e-77cd897b0f02","system_id":"levelo_inurba_marseille","lat":43.292311,"lon":5.360731,"is_reserved":false,"is_disabled":false,"rental_uris":{"android":"levelo://app?vid=56702718-c456-4e44-b46e-77cd897b0f02","ios":"levelo://app?vid=56702718-c456-4e44-b46e-77cd897b0f02"},"vehicle_type_id":"4","last_reported":1706684846,"current_range_meters":11600,"station_id":"ce4bhbh2rcd13ifvqeqg","pricing_plan_id":"free"},{"bike_id":"789f60a1-be90-4d6e-a06e-2608b3200c3e","system_id":"levelo_inurba_marseille","lat":43.298764,"lon":5.388973,"is_reserved":false,"is_disabled":false,"rental_uris":{"android":"levelo://app?vid=789f60a1-be90-4d6e-a06e-2608b3200c3e","ios":"levelo://app?vid=789f60a1-be90-4d6e-a06e-2608b3200c3e"},"vehicle_type_id":"4","last_reported":1706684846,"current_range_meters":28800,"station_id":"ce4bh392rcd13ifvqdl0","pricing_plan_id":"free"},{"bike_id":"9e81abee-7f0d-4a16-88e5-0e095413917a","system_id":"levelo_inurba_marseille","lat":43.291671,"lon":5.371575,"is_reserved":false,"is_disabled":false,"rental_uris":{"android":"levelo://app?vid=9e81abee-7f0d-4a16-88e5-0e095413917a","ios":"levelo://app?vid=9e81abee-7f0d-4a16-88e5-0e095413917a"},"vehicle_type_id":"4","last_reported":1706684846,"current_range_meters":28800,"station_id":"ce4bha92rcd13ifvqeh0","pricing_plan_id":"free"},{"bike_id":"4a021476-2387-4bc0-a0ac-f6ee9eebf089","system_id":"levelo_inurba_marseille","lat":43.292038,"lon":5.358031,"is_reserved":false,"is_disabled":false,"rental_uris":{"android":"levelo://app?vid=4a021476-2387-4bc0-a0ac-f6ee9eebf089","ios":"levelo://app?vid=4a021476-2387-4bc0-a0ac-f6ee9eebf089"},"vehicle_type_id":"4","last_reported":1706684846,"current_range_meters":21600,"station_id":"ce4bhb12rcd13ifvqel0","pricing_plan_id":"free"},{"bike_id":"4c0d309b-9310-410c-84cc-13ce3be10472","system_id":"levelo_inurba_marseille","lat":43.308843,"lon":5.396262,"is_reserved":false,"is_disabled":false,"rental_uris":{"android":"levelo://app?vid=4c0d309b-9310-410c-84cc-13ce3be10472","ios":"levelo://app?vid=4c0d309b-9310-410c-84cc-13ce3be10472"},"vehicle_type_id":"4","last_reported":1706684846,"current_range_meters":28800,"station_id":"ce4bh012rcd13ifvqcv0","pricing_plan_id":"free"},{"bike_id":"c42695c5-8d2a-4c58-bafa-07e8ce969e80","system_id":"levelo_inurba_marseille","lat":43.308848,"lon":5.396265,"is_reserved":false,"is_disabled":false,"rental_uris":{"android":"levelo://app?vid=c42695c5-8d2a-4c58-bafa-07e8ce969e80","ios":"levelo://app?vid=c42695c5-8d2a-4c58-bafa-07e8ce969e80"},"vehicle_type_id":"4","last_reported":1706684846,"current_range_meters":30400,"station_id":"ce4bh012rcd13ifvqcv0","pricing_plan_id":"free"},{"bike_id":"14c28a59-5896-4632-8194-4d6274d24ee7","system_id":"levelo_inurba_marseille","lat":43.308776,"lon":5.396309,"is_reserved":false,"is_disabled":false,"rental_uris":{"android":"levelo://app?vid=14c28a59-5896-4632-8194-4d6274d24ee7","ios":"levelo://app?vid=14c28a59-5896-4632-8194-4d6274d24ee7"},"vehicle_type_id":"4","last_reported":1706684846,"current_range_meters":30000,"station_id":"ce4bh012rcd13ifvqcv0","pricing_plan_id":"free"},{"bike_id":"f82d3ea5-0c3e-447b-a4c3-b7a5eb7334ff","system_id":"levelo_inurba_marseille","lat":43.30882,"lon":5.396325,"is_reserved":false,"is_disabled":false,"rental_uris":{"android":"levelo://app?vid=f82d3ea5-0c3e-447b-a4c3-b7a5eb7334ff","ios":"levelo://app?vid=f82d3ea5-0c3e-447b-a4c3-b7a5eb7334ff"},"vehicle_type_id":"4","last_reported":1706684846,"current_range_meters":26000,"station_id":"ce4bh012rcd13ifvqcv0","pricing_plan_id":"free"},{"bike_id":"33c94b88-26d4-4311-af85-1825f528c93a","system_id":"levelo_inurba_marseille","lat":43.30886,"lon":5.39635,"is_reserved":false,"is_disabled":false,"rental_uris":{"android":"levelo://app?vid=33c94b88-26d4-4311-af85-1825f528c93a","ios":"levelo://app?vid=33c94b88-26d4-4311-af85-1825f528c93a"},"vehicle_type_id":"4","last_reported":1706684846,"current_range_meters":8800,"station_id":"ce4bh012rcd13ifvqcv0","pricing_plan_id":"free"},{"bike_id":"b815e65e-c743-4e3e-8760-80d7030bd1fe","system_id":"levelo_inurba_marseille","lat":43.313291,"lon":5.396838,"is_reserved":false,"is_disabled":false,"rental_uris":{"android":"levelo://app?vid=b815e65e-c743-4e3e-8760-80d7030bd1fe","ios":"levelo://app?vid=b815e65e-c743-4e3e-8760-80d7030bd1fe"},"vehicle_type_id":"4","last_reported":1706684846,"current_range_meters":26800,"station_id":"ce4bgvp2rcd13ifvqcu0","pricing_plan_id":"free"},{"bike_id":"0498f959-33ab-4cf6-a268-c8c1b960fc37","system_id":"levelo_inurba_marseille","lat":43.309038,"lon":5.396546,"is_reserved":false,"is_disabled":false,"rental_uris":{"android":"levelo://app?vid=0498f959-33ab-4cf6-a268-c8c1b960fc37","ios":"levelo://app?vid=0498f959-33ab-4cf6-a268-c8c1b960fc37"},"vehicle_type_id":"4","last_reported":1706684846,"current_range_meters":30000,"station_id":"ce4bh012rcd13ifvqcv0","pricing_plan_id":"free"},{"bike_id":"067a3f54-cdb1-4351-888c-7235aaac275f","system_id":"levelo_inurba_marseille","lat":43.313291,"lon":5.396838,"is_reserved":false,"is_disabled":false,"rental_uris":{"android":"levelo://app?vid=067a3f54-cdb1-4351-888c-7235aaac275f","ios":"levelo://app?vid=067a3f54-cdb1-4351-888c-7235aaac275f"},"vehicle_type_id":"4","last_reported":1706684846,"current_range_meters":3600,"station_id":"ce4bgvp2rcd13ifvqcu0","pricing_plan_id":"free"},{"bike_id":"961af791-ce80-4780-8123-07223dca3aae","system_id":"levelo_inurba_marseille","lat":43.313291,"lon":5.396838,"is_reserved":false,"is_disabled":false,"rental_uris":{"android":"levelo://app?vid=961af791-ce80-4780-8123-07223dca3aae","ios":"levelo://app?vid=961af791-ce80-4780-8123-07223dca3aae"},"vehicle_type_id":"4","last_reported":1706684846,"current_range_meters":12000,"station_id":"ce4bgvp2rcd13ifvqcu0","pricing_plan_id":"free"},{"bike_id":"751d9503-550a-45bb-8373-25caab9ec8d7","system_id":"levelo_inurba_marseille","lat":43.313291,"lon":5.396838,"is_reserved":false,"is_disabled":false,"rental_uris":{"android":"levelo://app?vid=751d9503-550a-45bb-8373-25caab9ec8d7","ios":"levelo://app?vid=751d9503-550a-45bb-8373-25caab9ec8d7"},"vehicle_type_id":"4","last_reported":1706684846,"current_range_meters":15600,"station_id":"ce4bgvp2rcd13ifvqcu0","pricing_plan_id":"free"},{"bike_id":"e5ac1836-909c-4df7-ade6-07e26df00ccf","system_id":"levelo_inurba_marseille","lat":43.29195,"lon":5.35784,"is_reserved":false,"is_disabled":false,"rental_uris":{"android":"levelo://app?vid=e5ac1836-909c-4df7-ade6-07e26df00ccf","ios":"levelo://app?vid=e5ac1836-909c-4df7-ade6-07e26df00ccf"},"vehicle_type_id":"4","last_reported":1706684846,"current_range_meters":30800,"station_id":"ce4bhb12rcd13ifvqel0","pricing_plan_id":"free"},{"bike_id":"70b7bc1e-928e-4782-9a7e-58e665e133e4","system_id":"levelo_inurba_marseille","lat":43.291994,"lon":5.357886,"is_reserved":false,"is_disabled":false,"rental_uris":{"android":"levelo://app?vid=70b7bc1e-928e-4782-9a7e-58e665e133e4","ios":"levelo://app?vid=70b7bc1e-928e-4782-9a7e-58e665e133e4"},"vehicle_type_id":"4","last_reported":1706684846,"current_range_meters":24000,"station_id":"ce4bhb12rcd13ifvqel0","pricing_plan_id":"free"},{"bike_id":"b62bcfa5-473d-4221-b143-66a964158134","system_id":"levelo_inurba_marseille","lat":43.31327,"lon":5.39693,"is_reserved":false,"is_disabled":false,"rental_uris":{"android":"levelo://app?vid=b62bcfa5-473d-4221-b143-66a964158134","ios":"levelo://app?vid=b62bcfa5-473d-4221-b143-66a964158134"},"vehicle_type_id":"4","last_reported":1706684846,"current_range_meters":0,"station_id":"ce4bgvp2rcd13ifvqcu0","pricing_plan_id":"free"},{"bike_id":"96772678-d17a-43c2-a5f2-9de991a51cc0","system_id":"levelo_inurba_marseille","lat":43.308363,"lon":5.396331,"is_reserved":false,"is_disabled":false,"rental_uris":{"android":"levelo://app?vid=96772678-d17a-43c2-a5f2-9de991a51cc0","ios":"levelo://app?vid=96772678-d17a-43c2-a5f2-9de991a51cc0"},"vehicle_type_id":"4","last_reported":1706684846,"current_range_meters":23200,"station_id":"ce4bh012rcd13ifvqcv0","pricing_plan_id":"free"},{"bike_id":"b674387c-dac7-4c72-8c60-5bdca13ab48d","system_id":"levelo_inurba_marseille","lat":43.31322,"lon":5.39695,"is_reserved":false,"is_disabled":false,"rental_uris":{"android":"levelo://app?vid=b674387c-dac7-4c72-8c60-5bdca13ab48d","ios":"levelo://app?vid=b674387c-dac7-4c72-8c60-5bdca13ab48d"},"vehicle_type_id":"4","last_reported":1706684846,"current_range_meters":26800,"station_id":"ce4bgvp2rcd13ifvqcu0","pricing_plan_id":"free"},{"bike_id":"a81ffb1d-f7f4-41a9-a4d4-6a804b0f144a","system_id":"levelo_inurba_marseille","lat":43.313291,"lon":5.396838,"is_reserved":false,"is_disabled":false,"rental_uris":{"android":"levelo://app?vid=a81ffb1d-f7f4-41a9-a4d4-6a804b0f144a","ios":"levelo://app?vid=a81ffb1d-f7f4-41a9-a4d4-6a804b0f144a"},"vehicle_type_id":"4","last_reported":1706684846,"current_range_meters":16400,"station_id":"ce4bgvp2rcd13ifvqcu0","pricing_plan_id":"free"},{"bike_id":"2ffc279e-2799-4474-8220-0a993408586f","system_id":"levelo_inurba_marseille","lat":43.313291,"lon":5.396838,"is_reserved":false,"is_disabled":false,"rental_uris":{"android":"levelo://app?vid=2ffc279e-2799-4474-8220-0a993408586f","ios":"levelo://app?vid=2ffc279e-2799-4474-8220-0a993408586f"},"vehicle_type_id":"4","last_reported":1706684846,"current_range_meters":31600,"station_id":"ce4bgvp2rcd13ifvqcu0","pricing_plan_id":"free"},{"bike_id":"d112c791-9f74-425c-845c-452333881a9e","system_id":"levelo_inurba_marseille","lat":43.313291,"lon":5.396838,"is_reserved":false,"is_disabled":false,"rental_uris":{"android":"levelo://app?vid=d112c791-9f74-425c-845c-452333881a9e","ios":"levelo://app?vid=d112c791-9f74-425c-845c-452333881a9e"},"vehicle_type_id":"4","last_reported":1706684846,"current_range_meters":25200,"station_id":"ce4bgvp2rcd13ifvqcu0","pricing_plan_id":"free"},{"bike_id":"ef62cf81-cc32-4f0e-bdf1-8a6a90e9453b","system_id":"levelo_inurba_marseille","lat":43.313291,"lon":5.396838,"is_reserved":false,"is_disabled":false,"rental_uris":{"android":"levelo://app?vid=ef62cf81-cc32-4f0e-bdf1-8a6a90e9453b","ios":"levelo://app?vid=ef62cf81-cc32-4f0e-bdf1-8a6a90e9453b"},"vehicle_type_id":"4","last_reported":1706684846,"current_range_meters":16000,"station_id":"ce4bgvp2rcd13ifvqcu0","pricing_plan_id":"free"},{"bike_id":"08c8936f-6282-4269-ac71-328472fd491d","system_id":"levelo_inurba_marseille","lat":43.313291,"lon":5.396838,"is_reserved":false,"is_disabled":false,"rental_uris":{"android":"levelo://app?vid=08c8936f-6282-4269-ac71-328472fd491d","ios":"levelo://app?vid=08c8936f-6282-4269-ac71-328472fd491d"},"vehicle_type_id":"4","last_reported":1706684846,"current_range_meters":32000,"station_id":"ce4bgvp2rcd13ifvqcu0","pricing_plan_id":"free"},{"bike_id":"1c9ce51b-33d4-41ff-a491-07c4b0b68cb0","system_id":"levelo_inurba_marseille","lat":43.313269,"lon":5.396971,"is_reserved":false,"is_disabled":false,"rental_uris":{"android":"levelo://app?vid=1c9ce51b-33d4-41ff-a491-07c4b0b68cb0","ios":"levelo://app?vid=1c9ce51b-33d4-41ff-a491-07c4b0b68cb0"},"vehicle_type_id":"4","last_reported":1706684846,"current_range_meters":2800,"station_id":"ce4bgvp2rcd13ifvqcu0","pricing_plan_id":"free"},{"bike_id":"4cd48d1b-eea7-432e-9d03-538d1fb8272c","system_id":"levelo_inurba_marseille","lat":43.30873,"lon":5.39648,"is_reserved":false,"is_disabled":false,"rental_uris":{"android":"levelo://app?vid=4cd48d1b-eea7-432e-9d03-538d1fb8272c","ios":"levelo://app?vid=4cd48d1b-eea7-432e-9d03-538d1fb8272c"},"vehicle_type_id":"4","last_reported":1706684846,"current_range_meters":26000,"station_id":"ce4bh012rcd13ifvqcv0","pricing_plan_id":"free"},{"bike_id":"9a015444-c4b0-41cf-b428-0705d5bd5a83","system_id":"levelo_inurba_marseille","lat":43.313291,"lon":5.396838,"is_reserved":false,"is_disabled":false,"rental_uris":{"android":"levelo://app?vid=9a015444-c4b0-41cf-b428-0705d5bd5a83","ios":"levelo://app?vid=9a015444-c4b0-41cf-b428-0705d5bd5a83"},"vehicle_type_id":"4","last_reported":1706684846,"current_range_meters":11200,"station_id":"ce4bgvp2rcd13ifvqcu0","pricing_plan_id":"free"},{"bike_id":"feeb888a-249a-48c9-9c30-faafc06cbb32","system_id":"levelo_inurba_marseille","lat":43.313291,"lon":5.396838,"is_reserved":false,"is_disabled":false,"rental_uris":{"android":"levelo://app?vid=feeb888a-249a-48c9-9c30-faafc06cbb32","ios":"levelo://app?vid=feeb888a-249a-48c9-9c30-faafc06cbb32"},"vehicle_type_id":"4","last_reported":1706684846,"current_range_meters":15200,"station_id":"ce4bgvp2rcd13ifvqcu0","pricing_plan_id":"free"},{"bike_id":"fd5087a9-addf-4cb2-ba7a-8020795338e2","system_id":"levelo_inurba_marseille","lat":43.29764,"lon":5.3899,"is_reserved":false,"is_disabled":false,"rental_uris":{"android":"levelo://app?vid=fd5087a9-addf-4cb2-ba7a-8020795338e2","ios":"levelo://app?vid=fd5087a9-addf-4cb2-ba7a-8020795338e2"},"vehicle_type_id":"4","last_reported":1706684846,"current_range_meters":7600,"station_id":"","pricing_plan_id":"free"},{"bike_id":"6011d03a-3766-44c3-a3c0-e064cb320572","system_id":"levelo_inurba_marseille","lat":43.30212,"lon":5.39461,"is_reserved":false,"is_disabled":false,"rental_uris":{"android":"levelo://app?vid=6011d03a-3766-44c3-a3c0-e064cb320572","ios":"levelo://app?vid=6011d03a-3766-44c3-a3c0-e064cb320572"},"vehicle_type_id":"4","last_reported":1706684846,"current_range_meters":16800,"station_id":"ce4bh0p2rcd13ifvqd70","pricing_plan_id":"free"},{"bike_id":"d4f52f80-9afc-4217-946d-8b880215c683","system_id":"levelo_inurba_marseille","lat":43.30214,"lon":5.3947,"is_reserved":false,"is_disabled":false,"rental_uris":{"android":"levelo://app?vid=d4f52f80-9afc-4217-946d-8b880215c683","ios":"levelo://app?vid=d4f52f80-9afc-4217-946d-8b880215c683"},"vehicle_type_id":"4","last_reported":1706684846,"current_range_meters":800,"station_id":"ce4bh0p2rcd13ifvqd70","pricing_plan_id":"free"},{"bike_id":"2c1e47ad-3478-424c-8c66-23a600b1f0dc","system_id":"levelo_inurba_marseille","lat":43.290441,"lon":5.359123,"is_reserved":false,"is_disabled":false,"rental_uris":{"android":"levelo://app?vid=2c1e47ad-3478-424c-8c66-23a600b1f0dc","ios":"levelo://app?vid=2c1e47ad-3478-424c-8c66-23a600b1f0dc"},"vehicle_type_id":"4","last_reported":1706684846,"current_range_meters":15200,"station_id":"","pricing_plan_id":"free"},{"bike_id":"f1289a38-fced-4930-ba11-8eea784e8278","system_id":"levelo_inurba_marseille","lat":43.294153,"lon":5.386305,"is_reserved":false,"is_disabled":false,"rental_uris":{"android":"levelo://app?vid=f1289a38-fced-4930-ba11-8eea784e8278","ios":"levelo://app?vid=f1289a38-fced-4930-ba11-8eea784e8278"},"vehicle_type_id":"4","last_reported":1706684846,"current_range_meters":14400,"station_id":"ce4bh2h2rcd13ifvqdh0","pricing_plan_id":"free"},{"bike_id":"61b50293-8497-4a6b-869f-0149baa92b9c","system_id":"levelo_inurba_marseille","lat":43.289184,"lon":5.366408,"is_reserved":false,"is_disabled":false,"rental_uris":{"android":"levelo://app?vid=61b50293-8497-4a6b-869f-0149baa92b9c","ios":"levelo://app?vid=61b50293-8497-4a6b-869f-0149baa92b9c"},"vehicle_type_id":"4","last_reported":1706684846,"current_range_meters":0,"station_id":"ce4bhap2rcd13ifvqek0","pricing_plan_id":"free"},{"bike_id":"3540bb90-8da4-436c-985c-1df97acb0f9a","system_id":"levelo_inurba_marseille","lat":43.304274,"lon":5.397513,"is_reserved":false,"is_disabled":false,"rental_uris":{"android":"levelo://app?vid=3540bb90-8da4-436c-985c-1df97acb0f9a","ios":"levelo://app?vid=3540bb90-8da4-436c-985c-1df97acb0f9a"},"vehicle_type_id":"4","last_reported":1706684846,"current_range_meters":20400,"station_id":"ce4bh092rcd13ifvqd20","pricing_plan_id":"free"},{"bike_id":"7b4e57cd-ac39-4112-a112-6a8c28e77872","system_id":"levelo_inurba_marseille","lat":43.286593,"lon":5.363346,"is_reserved":false,"is_disabled":false,"rental_uris":{"android":"levelo://app?vid=7b4e57cd-ac39-4112-a112-6a8c28e77872","ios":"levelo://app?vid=7b4e57cd-ac39-4112-a112-6a8c28e77872"},"vehicle_type_id":"4","last_reported":1706684846,"current_range_meters":15200,"station_id":"ce4bhah2rcd13ifvqej0","pricing_plan_id":"free"},{"bike_id":"9a4744fe-89c8-4575-9c8b-b0d8bd2c7994","system_id":"levelo_inurba_marseille","lat":43.290103,"lon":5.356114,"is_reserved":false,"is_disabled":false,"rental_uris":{"android":"levelo://app?vid=9a4744fe-89c8-4575-9c8b-b0d8bd2c7994","ios":"levelo://app?vid=9a4744fe-89c8-4575-9c8b-b0d8bd2c7994"},"vehicle_type_id":"4","last_reported":1706684846,"current_range_meters":8800,"station_id":"ce4bhb92rcd13ifvqen0","pricing_plan_id":"free"},{"bike_id":"cc53907f-2535-41bc-8a0f-802350d5e2d0","system_id":"levelo_inurba_marseille","lat":43.290104,"lon":5.356111,"is_reserved":false,"is_disabled":false,"rental_uris":{"android":"levelo://app?vid=cc53907f-2535-41bc-8a0f-802350d5e2d0","ios":"levelo://app?vid=cc53907f-2535-41bc-8a0f-802350d5e2d0"},"vehicle_type_id":"4","last_reported":1706684846,"current_range_meters":7600,"station_id":"ce4bhb92rcd13ifvqen0","pricing_plan_id":"free"},{"bike_id":"b9d054e1-e93c-44f3-9932-45f30f0233b3","system_id":"levelo_inurba_marseille","lat":43.290103,"lon":5.356114,"is_reserved":false,"is_disabled":false,"rental_uris":{"android":"levelo://app?vid=b9d054e1-e93c-44f3-9932-45f30f0233b3","ios":"levelo://app?vid=b9d054e1-e93c-44f3-9932-45f30f0233b3"},"vehicle_type_id":"4","last_reported":1706684846,"current_range_meters":12000,"station_id":"ce4bhb92rcd13ifvqen0","pricing_plan_id":"free"},{"bike_id":"dc0838a3-8241-4951-a02f-ff2fd0d490db","system_id":"levelo_inurba_marseille","lat":43.29004,"lon":5.356,"is_reserved":false,"is_disabled":false,"rental_uris":{"android":"levelo://app?vid=dc0838a3-8241-4951-a02f-ff2fd0d490db","ios":"levelo://app?vid=dc0838a3-8241-4951-a02f-ff2fd0d490db"},"vehicle_type_id":"4","last_reported":1706684846,"current_range_meters":30000,"station_id":"ce4bhb92rcd13ifvqen0","pricing_plan_id":"free"},{"bike_id":"8336549a-76e5-4bef-b1d7-d17a7032490e","system_id":"levelo_inurba_marseille","lat":43.290995,"lon":5.381361,"is_reserved":false,"is_disabled":false,"rental_uris":{"android":"levelo://app?vid=8336549a-76e5-4bef-b1d7-d17a7032490e","ios":"levelo://app?vid=8336549a-76e5-4bef-b1d7-d17a7032490e"},"vehicle_type_id":"4","last_reported":1706684846,"current_range_meters":26400,"station_id":"ce4bh512rcd13ifvqe2g","pricing_plan_id":"free"},{"bike_id":"7642fe22-5dab-45f7-820f-5febc709ef64","system_id":"levelo_inurba_marseille","lat":43.289743,"lon":5.378304,"is_reserved":false,"is_disabled":false,"rental_uris":{"android":"levelo://app?vid=7642fe22-5dab-45f7-820f-5febc709ef64","ios":"levelo://app?vid=7642fe22-5dab-45f7-820f-5febc709ef64"},"vehicle_type_id":"4","last_reported":1706684846,"current_range_meters":14400,"station_id":"ce4bh9p2rcd13ifvqed0","pricing_plan_id":"free"},{"bike_id":"9c7a9839-bda3-4c8b-b68c-6ac3367bbc8e","system_id":"levelo_inurba_marseille","lat":43.330442,"lon":5.389148,"is_reserved":false,"is_disabled":false,"rental_uris":{"android":"levelo://app?vid=9c7a9839-bda3-4c8b-b68c-6ac3367bbc8e","ios":"levelo://app?vid=9c7a9839-bda3-4c8b-b68c-6ac3367bbc8e"},"vehicle_type_id":"4","last_reported":1706684846,"current_range_meters":23200,"station_id":"ce4bhr92rcd13ifvqhrg","pricing_plan_id":"free"},{"bike_id":"ce25c0cc-b379-4b1d-aa28-bc65b697b0fb","system_id":"levelo_inurba_marseille","lat":43.330442,"lon":5.389148,"is_reserved":false,"is_disabled":false,"rental_uris":{"android":"levelo://app?vid=ce25c0cc-b379-4b1d-aa28-bc65b697b0fb","ios":"levelo://app?vid=ce25c0cc-b379-4b1d-aa28-bc65b697b0fb"},"vehicle_type_id":"4","last_reported":1706684846,"current_range_meters":25200,"station_id":"ce4bhr92rcd13ifvqhrg","pricing_plan_id":"free"},{"bike_id":"54340ca4-c385-46ed-b279-556ae3d847cc","system_id":"levelo_inurba_marseille","lat":43.330442,"lon":5.389148,"is_reserved":false,"is_disabled":false,"rental_uris":{"android":"levelo://app?vid=54340ca4-c385-46ed-b279-556ae3d847cc","ios":"levelo://app?vid=54340ca4-c385-46ed-b279-556ae3d847cc"},"vehicle_type_id":"4","last_reported":1706684846,"current_range_meters":12800,"station_id":"ce4bhr92rcd13ifvqhrg","pricing_plan_id":"free"},{"bike_id":"d886f36e-218b-497f-bf3c-7716ce70d8cc","system_id":"levelo_inurba_marseille","lat":43.330442,"lon":5.389148,"is_reserved":false,"is_disabled":false,"rental_uris":{"android":"levelo://app?vid=d886f36e-218b-497f-bf3c-7716ce70d8cc","ios":"levelo://app?vid=d886f36e-218b-497f-bf3c-7716ce70d8cc"},"vehicle_type_id":"4","last_reported":1706684846,"current_range_meters":800,"station_id":"ce4bhr92rcd13ifvqhrg","pricing_plan_id":"free"},{"bike_id":"d8d0ce8b-0013-416f-a622-5a4e1ad2ac83","system_id":"levelo_inurba_marseille","lat":43.28979,"lon":5.3784,"is_reserved":false,"is_disabled":false,"rental_uris":{"android":"levelo://app?vid=d8d0ce8b-0013-416f-a622-5a4e1ad2ac83","ios":"levelo://app?vid=d8d0ce8b-0013-416f-a622-5a4e1ad2ac83"},"vehicle_type_id":"4","last_reported":1706684846,"current_range_meters":25600,"station_id":"ce4bh9p2rcd13ifvqed0","pricing_plan_id":"free"},{"bike_id":"eaa294e7-ff6e-4beb-968d-403d62921c47","system_id":"levelo_inurba_marseille","lat":43.330442,"lon":5.389148,"is_reserved":false,"is_disabled":false,"rental_uris":{"android":"levelo://app?vid=eaa294e7-ff6e-4beb-968d-403d62921c47","ios":"levelo://app?vid=eaa294e7-ff6e-4beb-968d-403d62921c47"},"vehicle_type_id":"4","last_reported":1706684846,"current_range_meters":30800,"station_id":"ce4bhr92rcd13ifvqhrg","pricing_plan_id":"free"},{"bike_id":"a6344aad-ca85-494e-a1b8-f9b4ec57da99","system_id":"levelo_inurba_marseille","lat":43.330442,"lon":5.389148,"is_reserved":false,"is_disabled":false,"rental_uris":{"android":"levelo://app?vid=a6344aad-ca85-494e-a1b8-f9b4ec57da99","ios":"levelo://app?vid=a6344aad-ca85-494e-a1b8-f9b4ec57da99"},"vehicle_type_id":"4","last_reported":1706684846,"current_range_meters":5600,"station_id":"ce4bhr92rcd13ifvqhrg","pricing_plan_id":"free"},{"bike_id":"43244c99-5db6-42f7-9190-d887fb9e70d9","system_id":"levelo_inurba_marseille","lat":43.330442,"lon":5.389148,"is_reserved":false,"is_disabled":false,"rental_uris":{"android":"levelo://app?vid=43244c99-5db6-42f7-9190-d887fb9e70d9","ios":"levelo://app?vid=43244c99-5db6-42f7-9190-d887fb9e70d9"},"vehicle_type_id":"4","last_reported":1706684846,"current_range_meters":16000,"station_id":"ce4bhr92rcd13ifvqhrg","pricing_plan_id":"free"},{"bike_id":"a9ecf1c1-6f30-4a8c-b08f-5c1720bc11e6","system_id":"levelo_inurba_marseille","lat":43.28972,"lon":5.37849,"is_reserved":false,"is_disabled":false,"rental_uris":{"android":"levelo://app?vid=a9ecf1c1-6f30-4a8c-b08f-5c1720bc11e6","ios":"levelo://app?vid=a9ecf1c1-6f30-4a8c-b08f-5c1720bc11e6"},"vehicle_type_id":"4","last_reported":1706684846,"current_range_meters":22000,"station_id":"ce4bh9p2rcd13ifvqed0","pricing_plan_id":"free"},{"bike_id":"475468c0-57c5-45de-8610-f239183143f1","system_id":"levelo_inurba_marseille","lat":43.2901,"lon":5.381269,"is_reserved":false,"is_disabled":false,"rental_uris":{"android":"levelo://app?vid=475468c0-57c5-45de-8610-f239183143f1","ios":"levelo://app?vid=475468c0-57c5-45de-8610-f239183143f1"},"vehicle_type_id":"4","last_reported":1706684846,"current_range_meters":16000,"station_id":"ce4bh4p2rcd13ifvqe1g","pricing_plan_id":"free"},{"bike_id":"8598ffc9-01c0-4a20-9ce3-da902b07d7c8","system_id":"levelo_inurba_marseille","lat":43.28852,"lon":5.35847,"is_reserved":false,"is_disabled":false,"rental_uris":{"android":"levelo://app?vid=8598ffc9-01c0-4a20-9ce3-da902b07d7c8","ios":"levelo://app?vid=8598ffc9-01c0-4a20-9ce3-da902b07d7c8"},"vehicle_type_id":"4","last_reported":1706684846,"current_range_meters":31200,"station_id":"ce4bhb12rcd13ifvqem0","pricing_plan_id":"free"},{"bike_id":"69be143d-2d2b-4a08-a569-4d0efe66087e","system_id":"levelo_inurba_marseille","lat":43.288472,"lon":5.358553,"is_reserved":false,"is_disabled":false,"rental_uris":{"android":"levelo://app?vid=69be143d-2d2b-4a08-a569-4d0efe66087e","ios":"levelo://app?vid=69be143d-2d2b-4a08-a569-4d0efe66087e"},"vehicle_type_id":"4","last_reported":1706684846,"current_range_meters":28400,"station_id":"ce4bhb12rcd13ifvqem0","pricing_plan_id":"free"},{"bike_id":"88559bbf-2029-489a-ab4d-e746a3ef1046","system_id":"levelo_inurba_marseille","lat":43.312609,"lon":5.401662,"is_reserved":false,"is_disabled":false,"rental_uris":{"android":"levelo://app?vid=88559bbf-2029-489a-ab4d-e746a3ef1046","ios":"levelo://app?vid=88559bbf-2029-489a-ab4d-e746a3ef1046"},"vehicle_type_id":"4","last_reported":1706684846,"current_range_meters":18400,"station_id":"ce4bh092rcd13ifvqd30","pricing_plan_id":"free"},{"bike_id":"9008239d-ce45-46c2-8381-3c063bd03566","system_id":"levelo_inurba_marseille","lat":43.33737,"lon":5.37458,"is_reserved":false,"is_disabled":false,"rental_uris":{"android":"levelo://app?vid=9008239d-ce45-46c2-8381-3c063bd03566","ios":"levelo://app?vid=9008239d-ce45-46c2-8381-3c063bd03566"},"vehicle_type_id":"4","last_reported":1706684846,"current_range_meters":16400,"station_id":"","pricing_plan_id":"free"},{"bike_id":"9fa665cb-b57a-497b-914d-272056bde5b9","system_id":"levelo_inurba_marseille","lat":43.309371,"lon":5.401449,"is_reserved":false,"is_disabled":false,"rental_uris":{"android":"levelo://app?vid=9fa665cb-b57a-497b-914d-272056bde5b9","ios":"levelo://app?vid=9fa665cb-b57a-497b-914d-272056bde5b9"},"vehicle_type_id":"4","last_reported":1706684846,"current_range_meters":12400,"station_id":"ce4bgvp2rcd13ifvqct0","pricing_plan_id":"free"},{"bike_id":"4a38277e-0563-4c84-827a-6cdc4e476713","system_id":"levelo_inurba_marseille","lat":43.31275,"lon":5.40177,"is_reserved":false,"is_disabled":false,"rental_uris":{"android":"levelo://app?vid=4a38277e-0563-4c84-827a-6cdc4e476713","ios":"levelo://app?vid=4a38277e-0563-4c84-827a-6cdc4e476713"},"vehicle_type_id":"4","last_reported":1706684846,"current_range_meters":30800,"station_id":"ce4bh092rcd13ifvqd30","pricing_plan_id":"free"},{"bike_id":"62ea504b-d2ee-47ae-8aa9-75b64fd1b27a","system_id":"levelo_inurba_marseille","lat":43.30934,"lon":5.40146,"is_reserved":false,"is_disabled":false,"rental_uris":{"android":"levelo://app?vid=62ea504b-d2ee-47ae-8aa9-75b64fd1b27a","ios":"levelo://app?vid=62ea504b-d2ee-47ae-8aa9-75b64fd1b27a"},"vehicle_type_id":"4","last_reported":1706684846,"current_range_meters":18800,"station_id":"ce4bgvp2rcd13ifvqct0","pricing_plan_id":"free"},{"bike_id":"8f471953-2835-4a95-a318-680b1fd9c1b1","system_id":"levelo_inurba_marseille","lat":43.309371,"lon":5.401449,"is_reserved":false,"is_disabled":false,"rental_uris":{"android":"levelo://app?vid=8f471953-2835-4a95-a318-680b1fd9c1b1","ios":"levelo://app?vid=8f471953-2835-4a95-a318-680b1fd9c1b1"},"vehicle_type_id":"4","last_reported":1706684846,"current_range_meters":18000,"station_id":"ce4bgvp2rcd13ifvqct0","pricing_plan_id":"free"},{"bike_id":"0e4aa572-0c21-4409-89e4-31e246e53c21","system_id":"levelo_inurba_marseille","lat":43.3093,"lon":5.40148,"is_reserved":false,"is_disabled":false,"rental_uris":{"android":"levelo://app?vid=0e4aa572-0c21-4409-89e4-31e246e53c21","ios":"levelo://app?vid=0e4aa572-0c21-4409-89e4-31e246e53c21"},"vehicle_type_id":"4","last_reported":1706684846,"current_range_meters":21200,"station_id":"ce4bgvp2rcd13ifvqct0","pricing_plan_id":"free"},{"bike_id":"46d088a9-761a-4ab9-af81-ba95fc521a85","system_id":"levelo_inurba_marseille","lat":43.309371,"lon":5.401449,"is_reserved":false,"is_disabled":false,"rental_uris":{"android":"levelo://app?vid=46d088a9-761a-4ab9-af81-ba95fc521a85","ios":"levelo://app?vid=46d088a9-761a-4ab9-af81-ba95fc521a85"},"vehicle_type_id":"4","last_reported":1706684846,"current_range_meters":23600,"station_id":"ce4bgvp2rcd13ifvqct0","pricing_plan_id":"free"},{"bike_id":"3dea1bbc-e60d-47e2-9feb-7822a6adce23","system_id":"levelo_inurba_marseille","lat":43.30923,"lon":5.40152,"is_reserved":false,"is_disabled":false,"rental_uris":{"android":"levelo://app?vid=3dea1bbc-e60d-47e2-9feb-7822a6adce23","ios":"levelo://app?vid=3dea1bbc-e60d-47e2-9feb-7822a6adce23"},"vehicle_type_id":"4","last_reported":1706684846,"current_range_meters":3200,"station_id":"ce4bgvp2rcd13ifvqct0","pricing_plan_id":"free"},{"bike_id":"202fdab1-5a2a-4f2b-8b56-87c4b948f3b7","system_id":"levelo_inurba_marseille","lat":43.309371,"lon":5.401449,"is_reserved":false,"is_disabled":false,"rental_uris":{"android":"levelo://app?vid=202fdab1-5a2a-4f2b-8b56-87c4b948f3b7","ios":"levelo://app?vid=202fdab1-5a2a-4f2b-8b56-87c4b948f3b7"},"vehicle_type_id":"4","last_reported":1706684846,"current_range_meters":10000,"station_id":"ce4bgvp2rcd13ifvqct0","pricing_plan_id":"free"},{"bike_id":"b7d3b81d-d85a-44b5-a0c7-8f9c9f74639e","system_id":"levelo_inurba_marseille","lat":43.337587,"lon":5.374576,"is_reserved":false,"is_disabled":false,"rental_uris":{"android":"levelo://app?vid=b7d3b81d-d85a-44b5-a0c7-8f9c9f74639e","ios":"levelo://app?vid=b7d3b81d-d85a-44b5-a0c7-8f9c9f74639e"},"vehicle_type_id":"4","last_reported":1706684846,"current_range_meters":16400,"station_id":"","pricing_plan_id":"free"},{"bike_id":"2fe24097-b1c2-4583-ba1f-cf8501171a4c","system_id":"levelo_inurba_marseille","lat":43.337531,"lon":5.374911,"is_reserved":false,"is_disabled":false,"rental_uris":{"android":"levelo://app?vid=2fe24097-b1c2-4583-ba1f-cf8501171a4c","ios":"levelo://app?vid=2fe24097-b1c2-4583-ba1f-cf8501171a4c"},"vehicle_type_id":"4","last_reported":1706684846,"current_range_meters":0,"station_id":"","pricing_plan_id":"free"},{"bike_id":"1facbbf3-baac-42f8-85eb-cb1e36f3e4b9","system_id":"levelo_inurba_marseille","lat":43.337623,"lon":5.374883,"is_reserved":false,"is_disabled":false,"rental_uris":{"android":"levelo://app?vid=1facbbf3-baac-42f8-85eb-cb1e36f3e4b9","ios":"levelo://app?vid=1facbbf3-baac-42f8-85eb-cb1e36f3e4b9"},"vehicle_type_id":"4","last_reported":1706684846,"current_range_meters":4800,"station_id":"","pricing_plan_id":"free"},{"bike_id":"12568932-a9a7-4d52-8b2c-668683b75358","system_id":"levelo_inurba_marseille","lat":43.337609,"lon":5.374978,"is_reserved":false,"is_disabled":false,"rental_uris":{"android":"levelo://app?vid=12568932-a9a7-4d52-8b2c-668683b75358","ios":"levelo://app?vid=12568932-a9a7-4d52-8b2c-668683b75358"},"vehicle_type_id":"4","last_reported":1706684846,"current_range_meters":17200,"station_id":"","pricing_plan_id":"free"},{"bike_id":"d5481591-c66d-4cec-87b5-608fa08be268","system_id":"levelo_inurba_marseille","lat":43.306412,"lon":5.401035,"is_reserved":false,"is_disabled":false,"rental_uris":{"android":"levelo://app?vid=d5481591-c66d-4cec-87b5-608fa08be268","ios":"levelo://app?vid=d5481591-c66d-4cec-87b5-608fa08be268"},"vehicle_type_id":"4","last_reported":1706684846,"current_range_meters":26800,"station_id":"ce4bh112rcd13ifvqda0","pricing_plan_id":"free"},{"bike_id":"3416711e-0a91-430c-9700-e5ef13ad5ed6","system_id":"levelo_inurba_marseille","lat":43.309371,"lon":5.401449,"is_reserved":false,"is_disabled":false,"rental_uris":{"android":"levelo://app?vid=3416711e-0a91-430c-9700-e5ef13ad5ed6","ios":"levelo://app?vid=3416711e-0a91-430c-9700-e5ef13ad5ed6"},"vehicle_type_id":"4","last_reported":1706684846,"current_range_meters":26000,"station_id":"ce4bgvp2rcd13ifvqct0","pricing_plan_id":"free"},{"bike_id":"0555e4d1-181a-4cf9-a2af-e40de8c12013","system_id":"levelo_inurba_marseille","lat":43.28727,"lon":5.36078,"is_reserved":false,"is_disabled":false,"rental_uris":{"android":"levelo://app?vid=0555e4d1-181a-4cf9-a2af-e40de8c12013","ios":"levelo://app?vid=0555e4d1-181a-4cf9-a2af-e40de8c12013"},"vehicle_type_id":"4","last_reported":1706684846,"current_range_meters":10800,"station_id":"cki0cbj6b192h4jlfktg","pricing_plan_id":"free"},{"bike_id":"693fbd6e-454a-4e05-90cd-5c39d1abefc4","system_id":"levelo_inurba_marseille","lat":43.30459,"lon":5.40065,"is_reserved":false,"is_disabled":false,"rental_uris":{"android":"levelo://app?vid=693fbd6e-454a-4e05-90cd-5c39d1abefc4","ios":"levelo://app?vid=693fbd6e-454a-4e05-90cd-5c39d1abefc4"},"vehicle_type_id":"4","last_reported":1706684846,"current_range_meters":24400,"station_id":"","pricing_plan_id":"free"},{"bike_id":"d306605e-b014-4f4b-91ae-3d9512b93567","system_id":"levelo_inurba_marseille","lat":43.28727,"lon":5.36078,"is_reserved":false,"is_disabled":false,"rental_uris":{"android":"levelo://app?vid=d306605e-b014-4f4b-91ae-3d9512b93567","ios":"levelo://app?vid=d306605e-b014-4f4b-91ae-3d9512b93567"},"vehicle_type_id":"4","last_reported":1706684846,"current_range_meters":14000,"station_id":"cki0cbj6b192h4jlfktg","pricing_plan_id":"free"},{"bike_id":"14d0ef62-1764-41e7-af4c-4664d45255ba","system_id":"levelo_inurba_marseille","lat":43.295748,"lon":5.37522,"is_reserved":false,"is_disabled":false,"rental_uris":{"android":"levelo://app?vid=14d0ef62-1764-41e7-af4c-4664d45255ba","ios":"levelo://app?vid=14d0ef62-1764-41e7-af4c-4664d45255ba"},"vehicle_type_id":"4","last_reported":1706684846,"current_range_meters":22800,"station_id":"ce4bgh92rcd13ifvqb50","pricing_plan_id":"free"},{"bike_id":"9b5bc8d0-2cdc-4de0-8e84-2efaa9340f1d","system_id":"levelo_inurba_marseille","lat":43.294723,"lon":5.393083,"is_reserved":false,"is_disabled":false,"rental_uris":{"android":"levelo://app?vid=9b5bc8d0-2cdc-4de0-8e84-2efaa9340f1d","ios":"levelo://app?vid=9b5bc8d0-2cdc-4de0-8e84-2efaa9340f1d"},"vehicle_type_id":"4","last_reported":1706684846,"current_range_meters":4000,"station_id":"ce4bh492rcd13ifvqdvg","pricing_plan_id":"free"},{"bike_id":"7b951399-741f-4bc2-a948-6b76f9a0c45b","system_id":"levelo_inurba_marseille","lat":43.298681,"lon":5.397225,"is_reserved":false,"is_disabled":false,"rental_uris":{"android":"levelo://app?vid=7b951399-741f-4bc2-a948-6b76f9a0c45b","ios":"levelo://app?vid=7b951399-741f-4bc2-a948-6b76f9a0c45b"},"vehicle_type_id":"4","last_reported":1706684846,"current_range_meters":12000,"station_id":"ce4bh0h2rcd13ifvqd50","pricing_plan_id":"free"},{"bike_id":"4d1e1996-0cbe-4e44-895d-09f7bae1cf72","system_id":"levelo_inurba_marseille","lat":43.28661,"lon":5.36352,"is_reserved":false,"is_disabled":false,"rental_uris":{"android":"levelo://app?vid=4d1e1996-0cbe-4e44-895d-09f7bae1cf72","ios":"levelo://app?vid=4d1e1996-0cbe-4e44-895d-09f7bae1cf72"},"vehicle_type_id":"4","last_reported":1706684846,"current_range_meters":20800,"station_id":"ce4bhah2rcd13ifvqej0","pricing_plan_id":"free"},{"bike_id":"7070cb7d-7608-45c3-a243-1b1eb84d5479","system_id":"levelo_inurba_marseille","lat":43.289307,"lon":5.38406,"is_reserved":false,"is_disabled":false,"rental_uris":{"android":"levelo://app?vid=7070cb7d-7608-45c3-a243-1b1eb84d5479","ios":"levelo://app?vid=7070cb7d-7608-45c3-a243-1b1eb84d5479"},"vehicle_type_id":"4","last_reported":1706684846,"current_range_meters":21600,"station_id":"ce4bh612rcd13ifvqe6g","pricing_plan_id":"free"},{"bike_id":"426188d5-6663-44dd-af6f-793859180fa8","system_id":"levelo_inurba_marseille","lat":43.286359,"lon":5.362966,"is_reserved":false,"is_disabled":false,"rental_uris":{"android":"levelo://app?vid=426188d5-6663-44dd-af6f-793859180fa8","ios":"levelo://app?vid=426188d5-6663-44dd-af6f-793859180fa8"},"vehicle_type_id":"4","last_reported":1706684846,"current_range_meters":3600,"station_id":"ce4bhah2rcd13ifvqej0","pricing_plan_id":"free"},{"bike_id":"fff2c95f-5cb2-43b3-bc70-97b4f0fa8225","system_id":"levelo_inurba_marseille","lat":43.290345,"lon":5.38646,"is_reserved":false,"is_disabled":false,"rental_uris":{"android":"levelo://app?vid=fff2c95f-5cb2-43b3-bc70-97b4f0fa8225","ios":"levelo://app?vid=fff2c95f-5cb2-43b3-bc70-97b4f0fa8225"},"vehicle_type_id":"4","last_reported":1706684846,"current_range_meters":24800,"station_id":"ce4bh4p2rcd13ifvqe0g","pricing_plan_id":"free"},{"bike_id":"5c7414db-675e-445e-b1d5-0d95f66e79db","system_id":"levelo_inurba_marseille","lat":43.290336,"lon":5.386425,"is_reserved":false,"is_disabled":false,"rental_uris":{"android":"levelo://app?vid=5c7414db-675e-445e-b1d5-0d95f66e79db","ios":"levelo://app?vid=5c7414db-675e-445e-b1d5-0d95f66e79db"},"vehicle_type_id":"4","last_reported":1706684846,"current_range_meters":1600,"station_id":"ce4bh4p2rcd13ifvqe0g","pricing_plan_id":"free"},{"bike_id":"6aee7af0-bc24-410b-9834-262d795bedc1","system_id":"levelo_inurba_marseille","lat":43.290336,"lon":5.386425,"is_reserved":false,"is_disabled":false,"rental_uris":{"android":"levelo://app?vid=6aee7af0-bc24-410b-9834-262d795bedc1","ios":"levelo://app?vid=6aee7af0-bc24-410b-9834-262d795bedc1"},"vehicle_type_id":"4","last_reported":1706684846,"current_range_meters":24800,"station_id":"ce4bh4p2rcd13ifvqe0g","pricing_plan_id":"free"},{"bike_id":"4bdb55e8-7846-42c5-b62f-83a9e9162e75","system_id":"levelo_inurba_marseille","lat":43.290336,"lon":5.386425,"is_reserved":false,"is_disabled":false,"rental_uris":{"android":"levelo://app?vid=4bdb55e8-7846-42c5-b62f-83a9e9162e75","ios":"levelo://app?vid=4bdb55e8-7846-42c5-b62f-83a9e9162e75"},"vehicle_type_id":"4","last_reported":1706684846,"current_range_meters":26400,"station_id":"ce4bh4p2rcd13ifvqe0g","pricing_plan_id":"free"},{"bike_id":"8ffd514e-4f81-4420-b9b7-ccecbeaace8b","system_id":"levelo_inurba_marseille","lat":43.290336,"lon":5.386425,"is_reserved":false,"is_disabled":false,"rental_uris":{"android":"levelo://app?vid=8ffd514e-4f81-4420-b9b7-ccecbeaace8b","ios":"levelo://app?vid=8ffd514e-4f81-4420-b9b7-ccecbeaace8b"},"vehicle_type_id":"4","last_reported":1706684846,"current_range_meters":24800,"station_id":"ce4bh4p2rcd13ifvqe0g","pricing_plan_id":"free"},{"bike_id":"42385fd6-ce14-46f6-9af5-125ecbfcf508","system_id":"levelo_inurba_marseille","lat":43.289307,"lon":5.38406,"is_reserved":false,"is_disabled":false,"rental_uris":{"android":"levelo://app?vid=42385fd6-ce14-46f6-9af5-125ecbfcf508","ios":"levelo://app?vid=42385fd6-ce14-46f6-9af5-125ecbfcf508"},"vehicle_type_id":"4","last_reported":1706684846,"current_range_meters":15200,"station_id":"ce4bh612rcd13ifvqe6g","pricing_plan_id":"free"},{"bike_id":"50a9719f-8b74-4005-a5a7-fe49613fdb36","system_id":"levelo_inurba_marseille","lat":43.290345,"lon":5.38646,"is_reserved":false,"is_disabled":false,"rental_uris":{"android":"levelo://app?vid=50a9719f-8b74-4005-a5a7-fe49613fdb36","ios":"levelo://app?vid=50a9719f-8b74-4005-a5a7-fe49613fdb36"},"vehicle_type_id":"4","last_reported":1706684846,"current_range_meters":10000,"station_id":"ce4bh4p2rcd13ifvqe0g","pricing_plan_id":"free"},{"bike_id":"68d1b07f-20f6-4e7f-821c-ecb5aaa68965","system_id":"levelo_inurba_marseille","lat":43.290336,"lon":5.386425,"is_reserved":false,"is_disabled":false,"rental_uris":{"android":"levelo://app?vid=68d1b07f-20f6-4e7f-821c-ecb5aaa68965","ios":"levelo://app?vid=68d1b07f-20f6-4e7f-821c-ecb5aaa68965"},"vehicle_type_id":"4","last_reported":1706684846,"current_range_meters":25600,"station_id":"ce4bh4p2rcd13ifvqe0g","pricing_plan_id":"free"},{"bike_id":"43b9e1ce-7920-4b22-a974-e32eda02f634","system_id":"levelo_inurba_marseille","lat":43.286121,"lon":5.370648,"is_reserved":false,"is_disabled":false,"rental_uris":{"android":"levelo://app?vid=43b9e1ce-7920-4b22-a974-e32eda02f634","ios":"levelo://app?vid=43b9e1ce-7920-4b22-a974-e32eda02f634"},"vehicle_type_id":"4","last_reported":1706684846,"current_range_meters":25200,"station_id":"","pricing_plan_id":"free"},{"bike_id":"4a875853-631e-456f-86a2-029358e836db","system_id":"levelo_inurba_marseille","lat":43.289743,"lon":5.378304,"is_reserved":false,"is_disabled":false,"rental_uris":{"android":"levelo://app?vid=4a875853-631e-456f-86a2-029358e836db","ios":"levelo://app?vid=4a875853-631e-456f-86a2-029358e836db"},"vehicle_type_id":"4","last_reported":1706684846,"current_range_meters":17200,"station_id":"ce4bh9p2rcd13ifvqed0","pricing_plan_id":"free"},{"bike_id":"eb03625c-cb09-45b2-8824-199cc54701c6","system_id":"levelo_inurba_marseille","lat":43.287184,"lon":5.37937,"is_reserved":false,"is_disabled":false,"rental_uris":{"android":"levelo://app?vid=eb03625c-cb09-45b2-8824-199cc54701c6","ios":"levelo://app?vid=eb03625c-cb09-45b2-8824-199cc54701c6"},"vehicle_type_id":"4","last_reported":1706684846,"current_range_meters":13600,"station_id":"ce4bh9p2rcd13ifvqec0","pricing_plan_id":"free"},