{"last_updated":1726571278,"ttl":30,"version":"2.2","data":{"bikes":[{"bike_id":"4c980ade-facc-440f-afd2-778e925b9e3f","system_id":"levelo_inurba_marseille","lat":43.310394,"lon":5.369932,"is_reserved":false,"is_disabled":false,"rental_uris":{"android":"levelo://app?vid=4c980ade-facc-440f-afd2-778e925b9e3f","ios":"levelo://app?vid=4c980ade-facc-440f-afd2-778e925b9e3f"},"vehicle_type_id":"4","last_reported":1726571278,"current_range_meters":38800,"station_id":"ce4bgr92rcd13ifvqc6g","pricing_plan_id":"cebpf4jnsgd1na2vs0mg"},{"bike_id":"8ccaf281-e0c1-4be2-a349-06307d356b9c","system_id":"levelo_inurba_marseille","lat":43.278155,"lon":5.40722,"is_reserved":false,"is_disabled":false,"rental_uris":{"android":"levelo://app?vid=8ccaf281-e0c1-4be2-a349-06307d356b9c","ios":"levelo://app?vid=8ccaf281-e0c1-4be2-a349-06307d356b9c"},"vehicle_type_id":"4","last_reported":1726571278,"current_range_meters":5600,"station_id":"ce4bhnh2rcd13ifvqgtg","pricing_plan_id":"cebpf4jnsgd1na2vs0mg"},{"bike_id":"1928f87f-812f-49ec-819d-6b950e9bd3c9","system_id":"levelo_inurba_marseille","lat":43.29615,"lon":5.3772,"is_reserved":false,"is_disabled":false,"rental_uris":{"android":"levelo://app?vid=1928f87f-812f-49ec-819d-6b950e9bd3c9","ios":"levelo://app?vid=1928f87f-812f-49ec-819d-6b950e9bd3c9"},"vehicle_type_id":"4","last_reported":1726571278,"current_range_meters":33600,"station_id":"ce4bgi92rcd13ifvqb90","pricing_plan_id":"cebpf4jnsgd1na2vs0mg"},{"bike_id":"43176770-eaee-4996-86c7-d408161e4ce6","system_id":"levelo_inurba_marseille","lat":43.29899,"lon":5.4366,"is_reserved":false,"is_disabled":false,"rental_uris":{"android":"levelo://app?vid=43176770-eaee-4996-86c7-d408161e4ce6","ios":"levelo://app?vid=43176770-eaee-4996-86c7-d408161e4ce6"},"vehicle_type_id":"4","last_reported":1726571278,"current_range_meters":6400,"station_id":"ce4bhpp2rcd13ifvqhfg","pricing_plan_id":"cebpf4jnsgd1na2vs0mg"},{"bike_id":"44424f09-133d-4ff3-8c34-8bb853d2401b","system_id":"levelo_inurba_marseille","lat":43.29858,"lon":5.36264,"is_reserved":false,"is_disabled":false,"rental_uris":{"android":"levelo://app?vid=44424f09-133d-4ff3-8c34-8bb853d2401b","ios":"levelo://app?vid=44424f09-133d-4ff3-8c34-8bb853d2401b"},"vehicle_type_id":"4","last_reported":1726571278,"current_range_meters":12400,"station_id":"ce4bgpp2rcd13ifvqc3g","pricing_plan_id":"cebpf4jnsgd1na2vs0mg"},{"bike_id":"dbcdd529-e31b-423d-9d3d-ddbee4790574","system_id":"levelo_inurba_marseille","lat":43.28003,"lon":5.40013,"is_reserved":false,"is_disabled":false,"rental_uris":{"android":"levelo://app?vid=dbcdd529-e31b-423d-9d3d-ddbee4790574","ios":"levelo://app?vid=dbcdd529-e31b-423d-9d3d-ddbee4790574"},"vehicle_type_id":"4","last_reported":1726571278,"current_range_meters":37600,"station_id":"ce4bho92rcd13ifvqh4g","pricing_plan_id":"cebpf4jnsgd1na2vs0mg"},{"bike_id":"8ee5198f-f2e6-42b0-9222-7b0c644ae14e","system_id":"levelo_inurba_marseille","lat":43.31076,"lon":5.4243,"is_reserved":false,"is_disabled":false,"rental_uris":{"android":"levelo://app?vid=8ee5198f-f2e6-42b0-9222-7b0c644ae14e","ios":"levelo://app?vid=8ee5198f-f2e6-42b0-9222-7b0c644ae14e"},"vehicle_type_id":"4","last_reported":1726571278,"current_range_meters":38800,"station_id":"ce4bhp92rcd13ifvqhag","pricing_plan_id":"cebpf4jnsgd1na2vs0mg"},{"bike_id":"5a567a26-d9cf-4db5-9a45-0cc60399f6f1","system_id":"levelo_inurba_marseille","lat":43.30304,"lon":5.368932,"is_reserved":false,"is_disabled":false,"rental_uris":{"android":"levelo://app?vid=5a567a26-d9cf-4db5-9a45-0cc60399f6f1","ios":"levelo://app?vid=5a567a26-d9cf-4db5-9a45-0cc60399f6f1"},"vehicle_type_id":"4","last_reported":1726571278,"current_range_meters":31200,"station_id":"ce4bgqh2rcd13ifvqc5g","pricing_plan_id":"cebpf4jnsgd1na2vs0mg"},{"bike_id":"85b0de4e-bdd2-4357-b20a-68ed9a5c70af","system_id":"levelo_inurba_marseille","lat":43.30216,"lon":5.39461,"is_reserved":false,"is_disabled":false,"rental_uris":{"android":"levelo://app?vid=85b0de4e-bdd2-4357-b20a-68ed9a5c70af","ios":"levelo://app?vid=85b0de4e-bdd2-4357-b20a-68ed9a5c70af"},"vehicle_type_id":"4","last_reported":1726571278,"current_range_meters":4400,"station_id":"ce4bh0p2rcd13ifvqd70","pricing_plan_id":"cebpf4jnsgd1na2vs0mg"},{"bike_id":"13ec4916-f0ea-4897-8afc-596425b42c42","system_id":"levelo_inurba_marseille","lat":43.23188,"lon":5.35559,"is_reserved":false,"is_disabled":false,"rental_uris":{"android":"levelo://app?vid=13ec4916-f0ea-4897-8afc-596425b42c42","ios":"levelo://app?vid=13ec4916-f0ea-4897-8afc-596425b42c42"},"vehicle_type_id":"4","last_reported":1726571278,"current_range_meters":10000,"station_id":"ce4bhu92rcd13ifvqi70","pricing_plan_id":"cebpf4jnsgd1na2vs0mg"},{"bike_id":"7d825d21-2733-4bc3-95ac-e1b21f920a63","system_id":"levelo_inurba_marseille","lat":43.23157,"lon":5.43701,"is_reserved":false,"is_disabled":false,"rental_uris":{"android":"levelo://app?vid=7d825d21-2733-4bc3-95ac-e1b21f920a63","ios":"levelo://app?vid=7d825d21-2733-4bc3-95ac-e1b21f920a63"},"vehicle_type_id":"4","last_reported":1726571278,"current_range_meters":23200,"station_id":"ce4bhmp2rcd13ifvqgog","pricing_plan_id":"cebpf4jnsgd1na2vs0mg"},{"bike_id":"9d243943-f186-4f8f-b775-710d28fca1e0","system_id":"levelo_inurba_marseille","lat":43.32526,"lon":5.41429,"is_reserved":false,"is_disabled":false,"rental_uris":{"android":"levelo://app?vid=9d243943-f186-4f8f-b775-710d28fca1e0","ios":"levelo://app?vid=9d243943-f186-4f8f-b775-710d28fca1e0"},"vehicle_type_id":"4","last_reported":1726571278,"current_range_meters":33200,"station_id":"ce4bhq12rcd13ifvqhhg","pricing_plan_id":"cebpf4jnsgd1na2vs0mg"},{"bike_id":"c142123f-476f-488f-b9a7-8d5b908217c3","system_id":"levelo_inurba_marseille","lat":43.3375,"lon":5.37452,"is_reserved":false,"is_disabled":false,"rental_uris":{"android":"levelo://app?vid=c142123f-476f-488f-b9a7-8d5b908217c3","ios":"levelo://app?vid=c142123f-476f-488f-b9a7-8d5b908217c3"},"vehicle_type_id":"4","last_reported":1726571278,"current_range_meters":34000,"station_id":"","pricing_plan_id":"cebpf4jnsgd1na2vs0mg"},{"bike_id":"ebbcefaf-20d5-462a-9932-6512ad59f94f","system_id":"levelo_inurba_marseille","lat":43.29846,"lon":5.36272,"is_reserved":false,"is_disabled":false,"rental_uris":{"android":"levelo://app?vid=ebbcefaf-20d5-462a-9932-6512ad59f94f","ios":"levelo://app?vid=ebbcefaf-20d5-462a-9932-6512ad59f94f"},"vehicle_type_id":"4","last_reported":1726571278,"current_range_meters":19600,"station_id":"ce4bgpp2rcd13ifvqc3g","pricing_plan_id":"cebpf4jnsgd1na2vs0mg"},{"bike_id":"ac3e3e9b-c93d-43a8-865e-c24b0a4d6f91","system_id":"levelo_inurba_marseille","lat":43.2862,"lon":5.35106,"is_reserved":false,"is_disabled":false,"rental_uris":{"android":"levelo://app?vid=ac3e3e9b-c93d-43a8-865e-c24b0a4d6f91","ios":"levelo://app?vid=ac3e3e9b-c93d-43a8-865e-c24b0a4d6f91"},"vehicle_type_id":"4","last_reported":1726571278,"current_range_meters":16400,"station_id":"ce4bhch2rcd13ifvqeug","pricing_plan_id":"cebpf4jnsgd1na2vs0mg"},{"bike_id":"d8e0fe46-8eeb-4fb6-b0cc-7a6f63f21a63","system_id":"levelo_inurba_marseille","lat":43.33612,"lon":5.41022,"is_reserved":false,"is_disabled":false,"rental_uris":{"android":"levelo://app?vid=d8e0fe46-8eeb-4fb6-b0cc-7a6f63f21a63","ios":"levelo://app?vid=d8e0fe46-8eeb-4fb6-b0cc-7a6f63f21a63"},"vehicle_type_id":"4","last_reported":1726571278,"current_range_meters":38800,"station_id":"ce4bhqh2rcd13ifvqhmg","pricing_plan_id":"cebpf4jnsgd1na2vs0mg"},{"bike_id":"36587967-1e79-47c3-ba21-dd6bfe64ec87","system_id":"levelo_inurba_marseille","lat":43.32366,"lon":5.38884,"is_reserved":false,"is_disabled":false,"rental_uris":{"android":"levelo://app?vid=36587967-1e79-47c3-ba21-dd6bfe64ec87","ios":"levelo://app?vid=36587967-1e79-47c3-ba21-dd6bfe64ec87"},"vehicle_type_id":"4","last_reported":1726571278,"current_range_meters":16800,"station_id":"ce4bhqp2rcd13ifvqhog","pricing_plan_id":"cebpf4jnsgd1na2vs0mg"},{"bike_id":"dbd298e0-a382-4414-92ca-00d7d938bcff","system_id":"levelo_inurba_marseille","lat":43.2319,"lon":5.35553,"is_reserved":false,"is_disabled":false,"rental_uris":{"android":"levelo://app?vid=dbd298e0-a382-4414-92ca-00d7d938bcff","ios":"levelo://app?vid=dbd298e0-a382-4414-92ca-00d7d938bcff"},"vehicle_type_id":"4","last_reported":1726571278,"current_range_meters":36800,"station_id":"ce4bhu92rcd13ifvqi70","pricing_plan_id":"cebpf4jnsgd1na2vs0mg"},{"bike_id":"1b24ddd4-ab20-4266-8863-b02d660ee211","system_id":"levelo_inurba_marseille","lat":43.28613,"lon":5.35103,"is_reserved":false,"is_disabled":false,"rental_uris":{"android":"levelo://app?vid=1b24ddd4-ab20-4266-8863-b02d660ee211","ios":"levelo://app?vid=1b24ddd4-ab20-4266-8863-b02d660ee211"},"vehicle_type_id":"4","last_reported":1726571278,"current_range_meters":32400,"station_id":"ce4bhch2rcd13ifvqeug","pricing_plan_id":"cebpf4jnsgd1na2vs0mg"},{"bike_id":"6fba4958-f94f-47ce-8849-67a1a7acd095","system_id":"levelo_inurba_marseille","lat":43.29843,"lon":5.36267,"is_reserved":false,"is_disabled":false,"rental_uris":{"android":"levelo://app?vid=6fba4958-f94f-47ce-8849-67a1a7acd095","ios":"levelo://app?vid=6fba4958-f94f-47ce-8849-67a1a7acd095"},"vehicle_type_id":"4","last_reported":1726571278,"current_range_meters":17600,"station_id":"ce4bgpp2rcd13ifvqc3g","pricing_plan_id":"cebpf4jnsgd1na2vs0mg"},{"bike_id":"8911eb2d-7b08-435f-8143-91d9c6dfff38","system_id":"levelo_inurba_marseille","lat":43.25937,"lon":5.40913,"is_reserved":false,"is_disabled":false,"rental_uris":{"android":"levelo://app?vid=8911eb2d-7b08-435f-8143-91d9c6dfff38","ios":"levelo://app?vid=8911eb2d-7b08-435f-8143-91d9c6dfff38"},"vehicle_type_id":"4","last_reported":1726571278,"current_range_meters":16400,"station_id":"ce4bhm92rcd13ifvqglg","pricing_plan_id":"cebpf4jnsgd1na2vs0mg"},{"bike_id":"0a828c07-3964-4ab0-952b-80817f5985ea","system_id":"levelo_inurba_marseille","lat":43.298071,"lon":5.381102,"is_reserved":false,"is_disabled":false,"rental_uris":{"android":"levelo://app?vid=0a828c07-3964-4ab0-952b-80817f5985ea","ios":"levelo://app?vid=0a828c07-3964-4ab0-952b-80817f5985ea"},"vehicle_type_id":"4","last_reported":1726571278,"current_range_meters":30400,"station_id":"ce4bgip2rcd13ifvqbb0","pricing_plan_id":"cebpf4jnsgd1na2vs0mg"},{"bike_id":"4ad28dc3-cd96-41e8-b8d6-aa2db85b9f78","system_id":"levelo_inurba_marseille","lat":43.25946,"lon":5.40895,"is_reserved":false,"is_disabled":false,"rental_uris":{"android":"levelo://app?vid=4ad28dc3-cd96-41e8-b8d6-aa2db85b9f78","ios":"levelo://app?vid=4ad28dc3-cd96-41e8-b8d6-aa2db85b9f78"},"vehicle_type_id":"4","last_reported":1726571278,"current_range_meters":38800,"station_id":"","pricing_plan_id":"cebpf4jnsgd1na2vs0mg"},{"bike_id":"137cd12e-b16e-4927-b656-87b986477526","system_id":"levelo_inurba_marseille","lat":43.29088,"lon":5.35653,"is_reserved":false,"is_disabled":false,"rental_uris":{"android":"levelo://app?vid=137cd12e-b16e-4927-b656-87b986477526","ios":"levelo://app?vid=137cd12e-b16e-4927-b656-87b986477526"},"vehicle_type_id":"4","last_reported":1726571278,"current_range_meters":7200,"station_id":"ce4bhb92rcd13ifvqen0","pricing_plan_id":"cebpf4jnsgd1na2vs0mg"},{"bike_id":"2a5808e5-1612-4dc1-a62b-b9c71459256c","system_id":"levelo_inurba_marseille","lat":43.34088,"lon":5.39104,"is_reserved":false,"is_disabled":false,"rental_uris":{"android":"levelo://app?vid=2a5808e5-1612-4dc1-a62b-b9c71459256c","ios":"levelo://app?vid=2a5808e5-1612-4dc1-a62b-b9c71459256c"},"vehicle_type_id":"4","last_reported":1726571278,"current_range_meters":11600,"station_id":"","pricing_plan_id":"cebpf4jnsgd1na2vs0mg"},{"bike_id":"9a3de052-cecd-4d38-a0f3-ad5cf00060c0","system_id":"levelo_inurba_marseille","lat":43.287,"lon":5.37384,"is_reserved":false,"is_disabled":false,"rental_uris":{"android":"levelo://app?vid=9a3de052-cecd-4d38-a0f3-ad5cf00060c0","ios":"levelo://app?vid=9a3de052-cecd-4d38-a0f3-ad5cf00060c0"},"vehicle_type_id":"4","last_reported":1726571278,"current_range_meters":20000,"station_id":"ce4bh3p2rcd13ifvqdq0","pricing_plan_id":"cebpf4jnsgd1na2vs0mg"},{"bike_id":"43e2219b-dd8c-4128-b213-7038aa9554c3","system_id":"levelo_inurba_marseille","lat":43.26216,"lon":5.37441,"is_reserved":false,"is_disabled":false,"rental_uris":{"android":"levelo://app?vid=43e2219b-dd8c-4128-b213-7038aa9554c3","ios":"levelo://app?vid=43e2219b-dd8c-4128-b213-7038aa9554c3"},"vehicle_type_id":"4","last_reported":1726571278,"current_range_meters":17600,"station_id":"ce4bhgp2rcd13ifvqfc0","pricing_plan_id":"cebpf4jnsgd1na2vs0mg"},{"bike_id":"e75bdf37-6017-4dd9-8183-f2edc970ca06","system_id":"levelo_inurba_marseille","lat":43.23192,"lon":5.35555,"is_reserved":false,"is_disabled":false,"rental_uris":{"android":"levelo://app?vid=e75bdf37-6017-4dd9-8183-f2edc970ca06","ios":"levelo://app?vid=e75bdf37-6017-4dd9-8183-f2edc970ca06"},"vehicle_type_id":"4","last_reported":1726571278,"current_range_meters":30400,"station_id":"ce4bhu92rcd13ifvqi70","pricing_plan_id":"cebpf4jnsgd1na2vs0mg"},{"bike_id":"ecd30124-f488-45fb-8dc0-f29fdf262c93","system_id":"levelo_inurba_marseille","lat":43.27068,"lon":5.42267,"is_reserved":false,"is_disabled":false,"rental_uris":{"android":"levelo://app?vid=ecd30124-f488-45fb-8dc0-f29fdf262c93","ios":"levelo://app?vid=ecd30124-f488-45fb-8dc0-f29fdf262c93"},"vehicle_type_id":"4","last_reported":1726571278,"current_range_meters":36400,"station_id":"ce4bhk92rcd13ifvqgb0","pricing_plan_id":"cebpf4jnsgd1na2vs0mg"},{"bike_id":"854ef71a-b0ce-4b7e-853e-bc9e44a683bb","system_id":"levelo_inurba_marseille","lat":43.25927,"lon":5.40909,"is_reserved":false,"is_disabled":false,"rental_uris":{"android":"levelo://app?vid=854ef71a-b0ce-4b7e-853e-bc9e44a683bb","ios":"levelo://app?vid=854ef71a-b0ce-4b7e-853e-bc9e44a683bb"},"vehicle_type_id":"4","last_reported":1726571278,"current_range_meters":10800,"station_id":"ce4bhm92rcd13ifvqglg","pricing_plan_id":"cebpf4jnsgd1na2vs0mg"},{"bike_id":"c52e4848-dd66-46b8-a132-9836b7620028","system_id":"levelo_inurba_marseille","lat":43.25933,"lon":5.40911,"is_reserved":false,"is_disabled":false,"rental_uris":{"android":"levelo://app?vid=c52e4848-dd66-46b8-a132-9836b7620028","ios":"levelo://app?vid=c52e4848-dd66-46b8-a132-9836b7620028"},"vehicle_type_id":"4","last_reported":1726571278,"current_range_meters":18800,"station_id":"ce4bhm92rcd13ifvqglg","pricing_plan_id":"cebpf4jnsgd1na2vs0mg"},{"bike_id":"26ba68ce-9abf-45c1-9160-ad0d48c72a28","system_id":"levelo_inurba_marseille","lat":43.30542,"lon":5.36535,"is_reserved":false,"is_disabled":false,"rental_uris":{"android":"levelo://app?vid=26ba68ce-9abf-45c1-9160-ad0d48c72a28","ios":"levelo://app?vid=26ba68ce-9abf-45c1-9160-ad0d48c72a28"},"vehicle_type_id":"4","last_reported":1726571278,"current_range_meters":35200,"station_id":"ce4bgs12rcd13ifvqcag","pricing_plan_id":"cebpf4jnsgd1na2vs0mg"},{"bike_id":"6c3b465f-08c2-4171-978e-02e7d0439687","system_id":"levelo_inurba_marseille","lat":43.31997,"lon":5.38149,"is_reserved":false,"is_disabled":false,"rental_uris":{"android":"levelo://app?vid=6c3b465f-08c2-4171-978e-02e7d0439687","ios":"levelo://app?vid=6c3b465f-08c2-4171-978e-02e7d0439687"},"vehicle_type_id":"4","last_reported":1726571278,"current_range_meters":18000,"station_id":"ce4bhr12rcd13ifvqhpg","pricing_plan_id":"cebpf4jnsgd1na2vs0mg"},{"bike_id":"67b7d6fd-68e0-4974-9720-e2f4b2c8e265","system_id":"levelo_inurba_marseille","lat":43.24993,"lon":5.38937,"is_reserved":false,"is_disabled":false,"rental_uris":{"android":"levelo://app?vid=67b7d6fd-68e0-4974-9720-e2f4b2c8e265","ios":"levelo://app?vid=67b7d6fd-68e0-4974-9720-e2f4b2c8e265"},"vehicle_type_id":"4","last_reported":1726571278,"current_range_meters":12400,"station_id":"ce4bhgp2rcd13ifvqfd0","pricing_plan_id":"cebpf4jnsgd1na2vs0mg"},{"bike_id":"bad9e710-7ce0-48c4-b66d-1c47c52b95d4","system_id":"levelo_inurba_marseille","lat":43.23971,"lon":5.36632,"is_reserved":false,"is_disabled":false,"rental_uris":{"android":"levelo://app?vid=bad9e710-7ce0-48c4-b66d-1c47c52b95d4","ios":"levelo://app?vid=bad9e710-7ce0-48c4-b66d-1c47c52b95d4"},"vehicle_type_id":"4","last_reported":1726571278,"current_range_meters":21600,"station_id":"ce4bhi12rcd13ifvqfp0","pricing_plan_id":"cebpf4jnsgd1na2vs0mg"},{"bike_id":"3fe87b82-dda3-4c17-9a46-a862dce92604","system_id":"levelo_inurba_marseille","lat":43.2499,"lon":5.38939,"is_reserved":false,"is_disabled":false,"rental_uris":{"android":"levelo://app?vid=3fe87b82-dda3-4c17-9a46-a862dce92604","ios":"levelo://app?vid=3fe87b82-dda3-4c17-9a46-a862dce92604"},"vehicle_type_id":"4","last_reported":1726571278,"current_range_meters":32400,"station_id":"ce4bhgp2rcd13ifvqfd0","pricing_plan_id":"cebpf4jnsgd1na2vs0mg"},{"bike_id":"42085980-51f6-48da-962d-1c1968ba6c68","system_id":"levelo_inurba_marseille","lat":43.24494,"lon":5.37398,"is_reserved":false,"is_disabled":false,"rental_uris":{"android":"levelo://app?vid=42085980-51f6-48da-962d-1c1968ba6c68","ios":"levelo://app?vid=42085980-51f6-48da-962d-1c1968ba6c68"},"vehicle_type_id":"4","last_reported":1726571278,"current_range_meters":35200,"station_id":"ce4bhnp2rcd13ifvqgvg","pricing_plan_id":"cebpf4jnsgd1na2vs0mg"},{"bike_id":"14a183b3-c7e0-4cae-a643-ca622530fef0","system_id":"levelo_inurba_marseille","lat":43.2958,"lon":5.39535,"is_reserved":false,"is_disabled":false,"rental_uris":{"android":"levelo://app?vid=14a183b3-c7e0-4cae-a643-ca622530fef0","ios":"levelo://app?vid=14a183b3-c7e0-4cae-a643-ca622530fef0"},"vehicle_type_id":"4","last_reported":1726571278,"current_range_meters":12400,"station_id":"","pricing_plan_id":"cebpf4jnsgd1na2vs0mg"},{"bike_id":"4f318ef1-aed1-45e1-b767-9b349562d0bc","system_id":"levelo_inurba_marseille","lat":43.28417,"lon":5.34976,"is_reserved":false,"is_disabled":false,"rental_uris":{"android":"levelo://app?vid=4f318ef1-aed1-45e1-b767-9b349562d0bc","ios":"levelo://app?vid=4f318ef1-aed1-45e1-b767-9b349562d0bc"},"vehicle_type_id":"4","last_reported":1726571278,"current_range_meters":32000,"station_id":"ce4bhbh2rcd13ifvqepg","pricing_plan_id":"cebpf4jnsgd1na2vs0mg"},{"bike_id":"882e327a-d92c-4bd6-b42d-19c69c8b050c","system_id":"levelo_inurba_marseille","lat":43.30545,"lon":5.36698,"is_reserved":false,"is_disabled":false,"rental_uris":{"android":"levelo://app?vid=882e327a-d92c-4bd6-b42d-19c69c8b050c","ios":"levelo://app?vid=882e327a-d92c-4bd6-b42d-19c69c8b050c"},"vehicle_type_id":"4","last_reported":1726571278,"current_range_meters":37600,"station_id":"ce4bgrp2rcd13ifvqc9g","pricing_plan_id":"cebpf4jnsgd1na2vs0mg"},{"bike_id":"c64ce81c-efb7-4e4f-a72e-062617e35471","system_id":"levelo_inurba_marseille","lat":43.28865,"lon":5.37119,"is_reserved":false,"is_disabled":false,"rental_uris":{"android":"levelo://app?vid=c64ce81c-efb7-4e4f-a72e-062617e35471","ios":"levelo://app?vid=c64ce81c-efb7-4e4f-a72e-062617e35471"},"vehicle_type_id":"4","last_reported":1726571278,"current_range_meters":18800,"station_id":"","pricing_plan_id":"cebpf4jnsgd1na2vs0mg"},{"bike_id":"6686a262-b20a-4d62-8105-3e491ef36b46","system_id":"levelo_inurba_marseille","lat":43.24074,"lon":5.37765,"is_reserved":false,"is_disabled":false,"rental_uris":{"android":"levelo://app?vid=6686a262-b20a-4d62-8105-3e491ef36b46","ios":"levelo://app?vid=6686a262-b20a-4d62-8105-3e491ef36b46"},"vehicle_type_id":"4","last_reported":1726571278,"current_range_meters":31200,"station_id":"ce4bhnp2rcd13ifvqgvg","pricing_plan_id":"cebpf4jnsgd1na2vs0mg"},{"bike_id":"a46ec2ea-3c8f-446e-8c8c-44920c12c752","system_id":"levelo_inurba_marseille","lat":43.3054,"lon":5.36555,"is_reserved":false,"is_disabled":false,"rental_uris":{"android":"levelo://app?vid=a46ec2ea-3c8f-446e-8c8c-44920c12c752","ios":"levelo://app?vid=a46ec2ea-3c8f-446e-8c8c-44920c12c752"},"vehicle_type_id":"4","last_reported":1726571278,"current_range_meters":31200,"station_id":"ce4bgs12rcd13ifvqcag","pricing_plan_id":"cebpf4jnsgd1na2vs0mg"},{"bike_id":"408ef893-96f2-4fd4-a0a3-828f2515d5d5","system_id":"levelo_inurba_marseille","lat":43.337444,"lon":5.374475,"is_reserved":false,"is_disabled":false,"rental_uris":{"android":"levelo://app?vid=408ef893-96f2-4fd4-a0a3-828f2515d5d5","ios":"levelo://app?vid=408ef893-96f2-4fd4-a0a3-828f2515d5d5"},"vehicle_type_id":"4","last_reported":1726571278,"current_range_meters":18800,"station_id":"","pricing_plan_id":"cebpf4jnsgd1na2vs0mg"},{"bike_id":"f409a27c-3291-4d9b-ac57-9e74e75d80d1","system_id":"levelo_inurba_marseille","lat":43.32363,"lon":5.3888,"is_reserved":false,"is_disabled":false,"rental_uris":{"android":"levelo://app?vid=f409a27c-3291-4d9b-ac57-9e74e75d80d1","ios":"levelo://app?vid=f409a27c-3291-4d9b-ac57-9e74e75d80d1"},"vehicle_type_id":"4","last_reported":1726571278,"current_range_meters":15200,"station_id":"ce4bhqp2rcd13ifvqhog","pricing_plan_id":"cebpf4jnsgd1na2vs0mg"},{"bike_id":"b49672c8-10d8-4a5b-98b6-06e99d47cba4","system_id":"levelo_inurba_marseille","lat":43.30056,"lon":5.38672,"is_reserved":false,"is_disabled":false,"rental_uris":{"android":"levelo://app?vid=b49672c8-10d8-4a5b-98b6-06e99d47cba4","ios":"levelo://app?vid=b49672c8-10d8-4a5b-98b6-06e99d47cba4"},"vehicle_type_id":"4","last_reported":1726571278,"current_range_meters":36800,"station_id":"","pricing_plan_id":"cebpf4jnsgd1na2vs0mg"},{"bike_id":"e2411f7b-eeb7-4469-921e-195ed607de33","system_id":"levelo_inurba_marseille","lat":43.30538,"lon":5.36542,"is_reserved":false,"is_disabled":false,"rental_uris":{"android":"levelo://app?vid=e2411f7b-eeb7-4469-921e-195ed607de33","ios":"levelo://app?vid=e2411f7b-eeb7-4469-921e-195ed607de33"},"vehicle_type_id":"4","last_reported":1726571278,"current_range_meters":33600,"station_id":"ce4bgs12rcd13ifvqcag","pricing_plan_id":"cebpf4jnsgd1na2vs0mg"},{"bike_id":"e632dfdb-78f4-47fa-8abe-3b4836f94471","system_id":"levelo_inurba_marseille","lat":43.27489,"lon":5.42452,"is_reserved":false,"is_disabled":false,"rental_uris":{"android":"levelo://app?vid=e632dfdb-78f4-47fa-8abe-3b4836f94471","ios":"levelo://app?vid=e632dfdb-78f4-47fa-8abe-3b4836f94471"},"vehicle_type_id":"4","last_reported":1726571278,"current_range_meters":27600,"station_id":"ce4bhn92rcd13ifvqgrg","pricing_plan_id":"cebpf4jnsgd1na2vs0mg"},{"bike_id":"30ce5f9d-e14d-4ee7-b9f8-22f7215e3c5f","system_id":"levelo_inurba_marseille","lat":43.23152,"lon":5.43723,"is_reserved":false,"is_disabled":false,"rental_uris":{"android":"levelo://app?vid=30ce5f9d-e14d-4ee7-b9f8-22f7215e3c5f","ios":"levelo://app?vid=30ce5f9d-e14d-4ee7-b9f8-22f7215e3c5f"},"vehicle_type_id":"4","last_reported":1726571278,"current_range_meters":23200,"station_id":"ce4bhmp2rcd13ifvqgog","pricing_plan_id":"cebpf4jnsgd1na2vs0mg"},{"bike_id":"df2ccfbf-3380-4155-ade3-1e27d4e8d4c7","system_id":"levelo_inurba_marseille","lat":43.30329,"lon":5.4044,"is_reserved":false,"is_disabled":false,"rental_uris":{"android":"levelo://app?vid=df2ccfbf-3380-4155-ade3-1e27d4e8d4c7","ios":"levelo://app?vid=df2ccfbf-3380-4155-ade3-1e27d4e8d4c7"},"vehicle_type_id":"4","last_reported":1726571278,"current_range_meters":30400,"station_id":"ce4bh012rcd13ifvqd10","pricing_plan_id":"cebpf4jnsgd1na2vs0mg"},{"bike_id":"cd1d4c55-2cbb-4b85-a1be-a7235ca53de6","system_id":"levelo_inurba_marseille","lat":43.32483,"lon":5.3657,"is_reserved":false,"is_disabled":false,"rental_uris":{"android":"levelo://app?vid=cd1d4c55-2cbb-4b85-a1be-a7235ca53de6","ios":"levelo://app?vid=cd1d4c55-2cbb-4b85-a1be-a7235ca53de6"},"vehicle_type_id":"4","last_reported":1726571278,"current_range_meters":24400,"station_id":"ce4bhs12rcd13ifvqhvg","pricing_plan_id":"cebpf4jnsgd1na2vs0mg"},{"bike_id":"c7f93bf2-2b30-4c5c-aa72-447b3f4a28ea","system_id":"levelo_inurba_marseille","lat":43.29896,"lon":5.43664,"is_reserved":false,"is_disabled":false,"rental_uris":{"android":"levelo://app?vid=c7f93bf2-2b30-4c5c-aa72-447b3f4a28ea","ios":"levelo://app?vid=c7f93bf2-2b30-4c5c-aa72-447b3f4a28ea"},"vehicle_type_id":"4","last_reported":1726571278,"current_range_meters":9200,"station_id":"ce4bhpp2rcd13ifvqhfg","pricing_plan_id":"cebpf4jnsgd1na2vs0mg"},{"bike_id":"e1cc9cda-6b97-4714-992e-c58a2f1103da","system_id":"levelo_inurba_marseille","lat":43.3362,"lon":5.40999,"is_reserved":false,"is_disabled":false,"rental_uris":{"android":"levelo://app?vid=e1cc9cda-6b97-4714-992e-c58a2f1103da","ios":"levelo://app?vid=e1cc9cda-6b97-4714-992e-c58a2f1103da"},"vehicle_type_id":"4","last_reported":1726571278,"current_range_meters":13600,"station_id":"ce4bhqh2rcd13ifvqhmg","pricing_plan_id":"cebpf4jnsgd1na2vs0mg"},{"bike_id":"8557d022-19e8-42d7-abd9-3d3026fd13f2","system_id":"levelo_inurba_marseille","lat":43.28272,"lon":5.35056,"is_reserved":false,"is_disabled":false,"rental_uris":{"android":"levelo://app?vid=8557d022-19e8-42d7-abd9-3d3026fd13f2","ios":"levelo://app?vid=8557d022-19e8-42d7-abd9-3d3026fd13f2"},"vehicle_type_id":"4","last_reported":1726571278,"current_range_meters":27200,"station_id":"ce4bhbp2rcd13ifvqerg","pricing_plan_id":"cebpf4jnsgd1na2vs0mg"},{"bike_id":"22a588b1-cfec-4a63-9499-3cf933091fed","system_id":"levelo_inurba_marseille","lat":43.30546,"lon":5.3671,"is_reserved":false,"is_disabled":false,"rental_uris":{"android":"levelo://app?vid=22a588b1-cfec-4a63-9499-3cf933091fed","ios":"levelo://app?vid=22a588b1-cfec-4a63-9499-3cf933091fed"},"vehicle_type_id":"4","last_reported":1726571278,"current_range_meters":38800,"station_id":"ce4bgrp2rcd13ifvqc9g","pricing_plan_id":"cebpf4jnsgd1na2vs0mg"},{"bike_id":"b73337b0-7018-4502-b319-0049c9700cd2","system_id":"levelo_inurba_marseille","lat":43.24544,"lon":5.39533,"is_reserved":false,"is_disabled":false,"rental_uris":{"android":"levelo://app?vid=b73337b0-7018-4502-b319-0049c9700cd2","ios":"levelo://app?vid=b73337b0-7018-4502-b319-0049c9700cd2"},"vehicle_type_id":"4","last_reported":1726571278,"current_range_meters":28000,"station_id":"ce4bhlp2rcd13ifvqgjg","pricing_plan_id":"cebpf4jnsgd1na2vs0mg"},{"bike_id":"ee82a384-9c0a-4ae5-90ae-f217e6cf771d","system_id":"levelo_inurba_marseille","lat":43.229348,"lon":5.353774,"is_reserved":false,"is_disabled":false,"rental_uris":{"android":"levelo://app?vid=ee82a384-9c0a-4ae5-90ae-f217e6cf771d","ios":"levelo://app?vid=ee82a384-9c0a-4ae5-90ae-f217e6cf771d"},"vehicle_type_id":"4","last_reported":1726571278,"current_range_meters":15200,"station_id":"cpo3532slgdg3j2ikp40","pricing_plan_id":"cebpf4jnsgd1na2vs0mg"},{"bike_id":"ab64dc21-bd04-4ee5-9d5f-cb2f79c24156","system_id":"levelo_inurba_marseille","lat":43.30463,"lon":5.37905,"is_reserved":false,"is_disabled":false,"rental_uris":{"android":"levelo://app?vid=ab64dc21-bd04-4ee5-9d5f-cb2f79c24156","ios":"levelo://app?vid=ab64dc21-bd04-4ee5-9d5f-cb2f79c24156"},"vehicle_type_id":"4","last_reported":1726571278,"current_range_meters":3600,"station_id":"ce4bgup2rcd13ifvqcn0","pricing_plan_id":"cebpf4jnsgd1na2vs0mg"},{"bike_id":"128ec406-53f9-4071-b496-4e5020ff87f3","system_id":"levelo_inurba_marseille","lat":43.25935,"lon":5.40911,"is_reserved":false,"is_disabled":false,"rental_uris":{"android":"levelo://app?vid=128ec406-53f9-4071-b496-4e5020ff87f3","ios":"levelo://app?vid=128ec406-53f9-4071-b496-4e5020ff87f3"},"vehicle_type_id":"4","last_reported":1726571278,"current_range_meters":9200,"station_id":"ce4bhm92rcd13ifvqglg","pricing_plan_id":"cebpf4jnsgd1na2vs0mg"},{"bike_id":"c240c4c2-93fd-4f80-a695-e00971ab3984","system_id":"levelo_inurba_marseille","lat":43.267853,"lon":5.394159,"is_reserved":false,"is_disabled":false,"rental_uris":{"android":"levelo://app?vid=c240c4c2-93fd-4f80-a695-e00971ab3984","ios":"levelo://app?vid=c240c4c2-93fd-4f80-a695-e00971ab3984"},"vehicle_type_id":"4","last_reported":1726571278,"current_range_meters":29600,"station_id":"ce501612rcd8frsf0b60","pricing_plan_id":"cebpf4jnsgd1na2vs0mg"},{"bike_id":"5f663baf-b419-46a1-b117-e766dd9dfcbc","system_id":"levelo_inurba_marseille","lat":43.229395,"lon":5.353745,"is_reserved":false,"is_disabled":false,"rental_uris":{"android":"levelo://app?vid=5f663baf-b419-46a1-b117-e766dd9dfcbc","ios":"levelo://app?vid=5f663baf-b419-46a1-b117-e766dd9dfcbc"},"vehicle_type_id":"4","last_reported":1726571278,"current_range_meters":3200,"station_id":"cpo3532slgdg3j2ikp40","pricing_plan_id":"cebpf4jnsgd1na2vs0mg"},{"bike_id":"68927fae-dc93-4d1a-98d3-8c7c221cd378","system_id":"levelo_inurba_marseille","lat":43.30466,"lon":5.37909,"is_reserved":false,"is_disabled":false,"rental_uris":{"android":"levelo://app?vid=68927fae-dc93-4d1a-98d3-8c7c221cd378","ios":"levelo://app?vid=68927fae-dc93-4d1a-98d3-8c7c221cd378"},"vehicle_type_id":"4","last_reported":1726571278,"current_range_meters":28000,"station_id":"ce4bgup2rcd13ifvqcn0","pricing_plan_id":"cebpf4jnsgd1na2vs0mg"},{"bike_id":"aed0dec6-6488-4de7-9262-842f402ff1fa","system_id":"levelo_inurba_marseille","lat":43.278104,"lon":5.407092,"is_reserved":false,"is_disabled":false,"rental_uris":{"android":"levelo://app?vid=aed0dec6-6488-4de7-9262-842f402ff1fa","ios":"levelo://app?vid=aed0dec6-6488-4de7-9262-842f402ff1fa"},"vehicle_type_id":"4","last_reported":1726571278,"current_range_meters":13600,"station_id":"ce4bhnh2rcd13ifvqgtg","pricing_plan_id":"cebpf4jnsgd1na2vs0mg"},{"bike_id":"75327c0d-a20e-4421-ac92-376bbeb8ddac","system_id":"levelo_inurba_marseille","lat":43.269429,"lon":5.389213,"is_reserved":false,"is_disabled":false,"rental_uris":{"android":"levelo://app?vid=75327c0d-a20e-4421-ac92-376bbeb8ddac","ios":"levelo://app?vid=75327c0d-a20e-4421-ac92-376bbeb8ddac"},"vehicle_type_id":"4","last_reported":1726571278,"current_range_meters":35600,"station_id":"ce4bhhh2rcd13ifvqfl0","pricing_plan_id":"cebpf4jnsgd1na2vs0mg"},{"bike_id":"219d775b-e3d5-4c31-9579-99f4bbf71813","system_id":"levelo_inurba_marseille","lat":43.29961,"lon":5.41317,"is_reserved":false,"is_disabled":false,"rental_uris":{"android":"levelo://app?vid=219d775b-e3d5-4c31-9579-99f4bbf71813","ios":"levelo://app?vid=219d775b-e3d5-4c31-9579-99f4bbf71813"},"vehicle_type_id":"4","last_reported":1726571278,"current_range_meters":36000,"station_id":"ce4bhp12rcd13ifvqh9g","pricing_plan_id":"cebpf4jnsgd1na2vs0mg"},{"bike_id":"477815e2-0288-4f12-a304-475f68409582","system_id":"levelo_inurba_marseille","lat":43.30467,"lon":5.37907,"is_reserved":false,"is_disabled":false,"rental_uris":{"android":"levelo://app?vid=477815e2-0288-4f12-a304-475f68409582","ios":"levelo://app?vid=477815e2-0288-4f12-a304-475f68409582"},"vehicle_type_id":"4","last_reported":1726571278,"current_range_meters":33600,"station_id":"ce4bgup2rcd13ifvqcn0","pricing_plan_id":"cebpf4jnsgd1na2vs0mg"},{"bike_id":"68e1c6f2-5477-4daf-a8d4-bebc2b0ce367","system_id":"levelo_inurba_marseille","lat":43.2573,"lon":5.41102,"is_reserved":false,"is_disabled":false,"rental_uris":{"android":"levelo://app?vid=68e1c6f2-5477-4daf-a8d4-bebc2b0ce367","ios":"levelo://app?vid=68e1c6f2-5477-4daf-a8d4-bebc2b0ce367"},"vehicle_type_id":"4","last_reported":1726571278,"current_range_meters":3600,"station_id":"ce4bhkp2rcd13ifvqgd0","pricing_plan_id":"cebpf4jnsgd1na2vs0mg"},{"bike_id":"fff088d6-5bf0-4957-8149-65e833cfcc42","system_id":"levelo_inurba_marseille","lat":43.31271,"lon":5.40171,"is_reserved":false,"is_disabled":false,"rental_uris":{"android":"levelo://app?vid=fff088d6-5bf0-4957-8149-65e833cfcc42","ios":"levelo://app?vid=fff088d6-5bf0-4957-8149-65e833cfcc42"},"vehicle_type_id":"4","last_reported":1726571278,"current_range_meters":38800,"station_id":"ce4bh092rcd13ifvqd30","pricing_plan_id":"cebpf4jnsgd1na2vs0mg"},{"bike_id":"14607d32-a4c1-42cf-bae1-8882f3949ebc","system_id":"levelo_inurba_marseille","lat":43.29191,"lon":5.35808,"is_reserved":false,"is_disabled":false,"rental_uris":{"android":"levelo://app?vid=14607d32-a4c1-42cf-bae1-8882f3949ebc","ios":"levelo://app?vid=14607d32-a4c1-42cf-bae1-8882f3949ebc"},"vehicle_type_id":"4","last_reported":1726571278,"current_range_meters":19200,"station_id":"ce4bhb12rcd13ifvqel0","pricing_plan_id":"cebpf4jnsgd1na2vs0mg"},{"bike_id":"8cb592d9-f82f-4171-894f-8d7ffa6525e5","system_id":"levelo_inurba_marseille","lat":43.23188,"lon":5.3554,"is_reserved":false,"is_disabled":false,"rental_uris":{"android":"levelo://app?vid=8cb592d9-f82f-4171-894f-8d7ffa6525e5","ios":"levelo://app?vid=8cb592d9-f82f-4171-894f-8d7ffa6525e5"},"vehicle_type_id":"4","last_reported":1726571278,"current_range_meters":19600,"station_id":"ce4bhu92rcd13ifvqi70","pricing_plan_id":"cebpf4jnsgd1na2vs0mg"},{"bike_id":"efdd4ba0-202a-4034-abd0-2cee662d6622","system_id":"levelo_inurba_marseille","lat":43.2923,"lon":5.3607,"is_reserved":false,"is_disabled":false,"rental_uris":{"android":"levelo://app?vid=efdd4ba0-202a-4034-abd0-2cee662d6622","ios":"levelo://app?vid=efdd4ba0-202a-4034-abd0-2cee662d6622"},"vehicle_type_id":"4","last_reported":1726571278,"current_range_meters":5600,"station_id":"ce4bhbh2rcd13ifvqeqg","pricing_plan_id":"cebpf4jnsgd1na2vs0mg"},{"bike_id":"5d75f6aa-86df-493f-8d69-fe45e17e7161","system_id":"levelo_inurba_marseille","lat":43.27375,"lon":5.36256,"is_reserved":false,"is_disabled":false,"rental_uris":{"android":"levelo://app?vid=5d75f6aa-86df-493f-8d69-fe45e17e7161","ios":"levelo://app?vid=5d75f6aa-86df-493f-8d69-fe45e17e7161"},"vehicle_type_id":"4","last_reported":1726571278,"current_range_meters":20400,"station_id":"ce4bhbh2rcd13ifvqeo0","pricing_plan_id":"cebpf4jnsgd1na2vs0mg"},{"bike_id":"285e7841-204a-4b8e-8658-4da9bd95684e","system_id":"levelo_inurba_marseille","lat":43.3249,"lon":5.36561,"is_reserved":false,"is_disabled":false,"rental_uris":{"android":"levelo://app?vid=285e7841-204a-4b8e-8658-4da9bd95684e","ios":"levelo://app?vid=285e7841-204a-4b8e-8658-4da9bd95684e"},"vehicle_type_id":"4","last_reported":1726571278,"current_range_meters":27200,"station_id":"ce4bhs12rcd13ifvqhvg","pricing_plan_id":"cebpf4jnsgd1na2vs0mg"},{"bike_id":"70ee1dc4-c4c0-4c25-a8d5-46c5bad41f75","system_id":"levelo_inurba_marseille","lat":43.33024,"lon":5.39035,"is_reserved":false,"is_disabled":false,"rental_uris":{"android":"levelo://app?vid=70ee1dc4-c4c0-4c25-a8d5-46c5bad41f75","ios":"levelo://app?vid=70ee1dc4-c4c0-4c25-a8d5-46c5bad41f75"},"vehicle_type_id":"4","last_reported":1726571278,"current_range_meters":4400,"station_id":"ce4bhr92rcd13ifvqhrg","pricing_plan_id":"cebpf4jnsgd1na2vs0mg"},{"bike_id":"20a4a91d-8541-4958-9b2e-4e75165c8a2a","system_id":"levelo_inurba_marseille","lat":43.30799,"lon":5.43518,"is_reserved":false,"is_disabled":false,"rental_uris":{"android":"levelo://app?vid=20a4a91d-8541-4958-9b2e-4e75165c8a2a","ios":"levelo://app?vid=20a4a91d-8541-4958-9b2e-4e75165c8a2a"},"vehicle_type_id":"4","last_reported":1726571278,"current_range_meters":14800,"station_id":"ce4bhph2rcd13ifvqheg","pricing_plan_id":"cebpf4jnsgd1na2vs0mg"},{"bike_id":"3bd846d2-9ee7-4f89-abbd-60670d6385a4","system_id":"levelo_inurba_marseille","lat":43.304199,"lon":5.38879,"is_reserved":false,"is_disabled":false,"rental_uris":{"android":"levelo://app?vid=3bd846d2-9ee7-4f89-abbd-60670d6385a4","ios":"levelo://app?vid=3bd846d2-9ee7-4f89-abbd-60670d6385a4"},"vehicle_type_id":"4","last_reported":1726571278,"current_range_meters":32400,"station_id":"ce4bgi12rcd13ifvqb70","pricing_plan_id":"cebpf4jnsgd1na2vs0mg"},{"bike_id":"c3bcca86-6294-4639-9d07-9722d40f464e","system_id":"levelo_inurba_marseille","lat":43.29901,"lon":5.43669,"is_reserved":false,"is_disabled":false,"rental_uris":{"android":"levelo://app?vid=c3bcca86-6294-4639-9d07-9722d40f464e","ios":"levelo://app?vid=c3bcca86-6294-4639-9d07-9722d40f464e"},"vehicle_type_id":"4","last_reported":1726571278,"current_range_meters":36000,"station_id":"ce4bhpp2rcd13ifvqhfg","pricing_plan_id":"cebpf4jnsgd1na2vs0mg"},{"bike_id":"b8575011-8302-48a4-8af4-a59ce79d4a2f","system_id":"levelo_inurba_marseille","lat":43.3108,"lon":5.42436,"is_reserved":false,"is_disabled":false,"rental_uris":{"android":"levelo://app?vid=b8575011-8302-48a4-8af4-a59ce79d4a2f","ios":"levelo://app?vid=b8575011-8302-48a4-8af4-a59ce79d4a2f"},"vehicle_type_id":"4","last_reported":1726571278,"current_range_meters":32000,"station_id":"ce4bhp92rcd13ifvqhag","pricing_plan_id":"cebpf4jnsgd1na2vs0mg"},{"bike_id":"ce79cf97-2ffa-4a68-b4ed-5b474d5e432f","system_id":"levelo_inurba_marseille","lat":43.3189,"lon":5.40725,"is_reserved":false,"is_disabled":false,"rental_uris":{"android":"levelo://app?vid=ce79cf97-2ffa-4a68-b4ed-5b474d5e432f","ios":"levelo://app?vid=ce79cf97-2ffa-4a68-b4ed-5b474d5e432f"},"vehicle_type_id":"4","last_reported":1726571278,"current_range_meters":33200,"station_id":"ce4bhq12rcd13ifvqhig","pricing_plan_id":"cebpf4jnsgd1na2vs0mg"},{"bike_id":"fa9c1d07-b383-41f2-b8fe-c16ce9fdad77","system_id":"levelo_inurba_marseille","lat":43.23965,"lon":5.36629,"is_reserved":false,"is_disabled":false,"rental_uris":{"android":"levelo://app?vid=fa9c1d07-b383-41f2-b8fe-c16ce9fdad77","ios":"levelo://app?vid=fa9c1d07-b383-41f2-b8fe-c16ce9fdad77"},"vehicle_type_id":"4","last_reported":1726571278,"current_range_meters":24800,"station_id":"ce4bhi12rcd13ifvqfp0","pricing_plan_id":"cebpf4jnsgd1na2vs0mg"},{"bike_id":"f25b29a5-4cb5-4d1b-870c-9b57dee949d7","system_id":"levelo_inurba_marseille","lat":43.29782,"lon":5.3935,"is_reserved":false,"is_disabled":false,"rental_uris":{"android":"levelo://app?vid=f25b29a5-4cb5-4d1b-870c-9b57dee949d7","ios":"levelo://app?vid=f25b29a5-4cb5-4d1b-870c-9b57dee949d7"},"vehicle_type_id":"4","last_reported":1726571278,"current_range_meters":38800,"station_id":"chh1huq6cuj3fo74tm60","pricing_plan_id":"cebpf4jnsgd1na2vs0mg"},{"bike_id":"8a14e327-f1ba-4fa7-932f-68c0a0975b98","system_id":"levelo_inurba_marseille","lat":43.33608,"lon":5.41022,"is_reserved":false,"is_disabled":false,"rental_uris":{"android":"levelo://app?vid=8a14e327-f1ba-4fa7-932f-68c0a0975b98","ios":"levelo://app?vid=8a14e327-f1ba-4fa7-932f-68c0a0975b98"},"vehicle_type_id":"4","last_reported":1726571278,"current_range_meters":39200,"station_id":"ce4bhqh2rcd13ifvqhmg","pricing_plan_id":"cebpf4jnsgd1na2vs0mg"},{"bike_id":"b64bca6b-353d-4064-ba0c-4b9d8faaeff3","system_id":"levelo_inurba_marseille","lat":43.28034,"lon":5.36945,"is_reserved":false,"is_disabled":false,"rental_uris":{"android":"levelo://app?vid=b64bca6b-353d-4064-ba0c-4b9d8faaeff3","ios":"levelo://app?vid=b64bca6b-353d-4064-ba0c-4b9d8faaeff3"},"vehicle_type_id":"4","last_reported":1726571278,"current_range_meters":14800,"station_id":"ce4bha12rcd13ifvqef0","pricing_plan_id":"cebpf4jnsgd1na2vs0mg"},{"bike_id":"17a266da-29ed-43a1-a6d1-5081760c15f7","system_id":"levelo_inurba_marseille","lat":43.33604,"lon":5.41031,"is_reserved":false,"is_disabled":false,"rental_uris":{"android":"levelo://app?vid=17a266da-29ed-43a1-a6d1-5081760c15f7","ios":"levelo://app?vid=17a266da-29ed-43a1-a6d1-5081760c15f7"},"vehicle_type_id":"4","last_reported":1726571278,"current_range_meters":36400,"station_id":"ce4bhqh2rcd13ifvqhmg","pricing_plan_id":"cebpf4jnsgd1na2vs0mg"},{"bike_id":"b1db6496-7d7b-4acc-a88c-e5406d38e100","system_id":"levelo_inurba_marseille","lat":43.23191,"lon":5.35546,"is_reserved":false,"is_disabled":false,"rental_uris":{"android":"levelo://app?vid=b1db6496-7d7b-4acc-a88c-e5406d38e100","ios":"levelo://app?vid=b1db6496-7d7b-4acc-a88c-e5406d38e100"},"vehicle_type_id":"4","last_reported":1726571278,"current_range_meters":27600,"station_id":"ce4bhu92rcd13ifvqi70","pricing_plan_id":"cebpf4jnsgd1na2vs0mg"},{"bike_id":"c69cdd71-b25b-4600-bcd7-4a8738c494ae","system_id":"levelo_inurba_marseille","lat":43.30185,"lon":5.36618,"is_reserved":false,"is_disabled":false,"rental_uris":{"android":"levelo://app?vid=c69cdd71-b25b-4600-bcd7-4a8738c494ae","ios":"levelo://app?vid=c69cdd71-b25b-4600-bcd7-4a8738c494ae"},"vehicle_type_id":"4","last_reported":1726571278,"current_range_meters":38400,"station_id":"ce4bgrh2rcd13ifvqc8g","pricing_plan_id":"cebpf4jnsgd1na2vs0mg"},{"bike_id":"733e4865-3357-4a1f-819b-4a724885d4e3","system_id":"levelo_inurba_marseille","lat":43.26916,"lon":5.38643,"is_reserved":false,"is_disabled":false,"rental_uris":{"android":"levelo://app?vid=733e4865-3357-4a1f-819b-4a724885d4e3","ios":"levelo://app?vid=733e4865-3357-4a1f-819b-4a724885d4e3"},"vehicle_type_id":"4","last_reported":1726571278,"current_range_meters":32800,"station_id":"ce4bhh92rcd13ifvqfh0","pricing_plan_id":"cebpf4jnsgd1na2vs0mg"},{"bike_id":"5cf4c2f1-f092-4550-b8cf-369099ebc3bc","system_id":"levelo_inurba_marseille","lat":43.24564,"lon":5.41556,"is_reserved":false,"is_disabled":false,"rental_uris":{"android":"levelo://app?vid=5cf4c2f1-f092-4550-b8cf-369099ebc3bc","ios":"levelo://app?vid=5cf4c2f1-f092-4550-b8cf-369099ebc3bc"},"vehicle_type_id":"4","last_reported":1726571278,"current_range_meters":2800,"station_id":"ce4bhlh2rcd13ifvqgig","pricing_plan_id":"cebpf4jnsgd1na2vs0mg"},{"bike_id":"6baa22f0-81f1-4bc6-a0e3-cdd62170b76c","system_id":"levelo_inurba_marseille","lat":43.2749,"lon":5.42458,"is_reserved":false,"is_disabled":false,"rental_uris":{"android":"levelo://app?vid=6baa22f0-81f1-4bc6-a0e3-cdd62170b76c","ios":"levelo://app?vid=6baa22f0-81f1-4bc6-a0e3-cdd62170b76c"},"vehicle_type_id":"4","last_reported":1726571278,"current_range_meters":3200,"station_id":"ce4bhn92rcd13ifvqgrg","pricing_plan_id":"cebpf4jnsgd1na2vs0mg"},{"bike_id":"cc3b8af5-922b-47a4-9520-14c9cfb481c6","system_id":"levelo_inurba_marseille","lat":43.2749,"lon":5.42449,"is_reserved":false,"is_disabled":false,"rental_uris":{"android":"levelo://app?vid=cc3b8af5-922b-47a4-9520-14c9cfb481c6","ios":"levelo://app?vid=cc3b8af5-922b-47a4-9520-14c9cfb481c6"},"vehicle_type_id":"4","last_reported":1726571278,"current_range_meters":8800,"station_id":"ce4bhn92rcd13ifvqgrg","pricing_plan_id":"cebpf4jnsgd1na2vs0mg"},{"bike_id":"09ee8c82-bbfb-40e6-bfa6-c814ca02808c","system_id":"levelo_inurba_marseille","lat":43.283393,"lon":5.381113,"is_reserved":false,"is_disabled":false,"rental_uris":{"android":"levelo://app?vid=09ee8c82-bbfb-40e6-bfa6-c814ca02808c","ios":"levelo://app?vid=09ee8c82-bbfb-40e6-bfa6-c814ca02808c"},"vehicle_type_id":"4","last_reported":1726571278,"current_range_meters":9200,"station_id":"ce4bh412rcd13ifvqdr0","pricing_plan_id":"cebpf4jnsgd1na2vs0mg"},{"bike_id":"c67c6260-cefd-4051-b5df-dc47547038af","system_id":"levelo_inurba_marseille","lat":43.30151,"lon":5.38068,"is_reserved":false,"is_disabled":false,"rental_uris":{"android":"levelo://app?vid=c67c6260-cefd-4051-b5df-dc47547038af","ios":"levelo://app?vid=c67c6260-cefd-4051-b5df-dc47547038af"},"vehicle_type_id":"4","last_reported":1726571278,"current_range_meters":35200,"station_id":"ce4bgjp2rcd13ifvqbh0","pricing_plan_id":"cebpf4jnsgd1na2vs0mg"},{"bike_id":"93321e5e-91c1-4b6c-918e-ec53e93a702b","system_id":"levelo_inurba_marseille","lat":43.290343,"lon":5.386448,"is_reserved":false,"is_disabled":false,"rental_uris":{"android":"levelo://app?vid=93321e5e-91c1-4b6c-918e-ec53e93a702b","ios":"levelo://app?vid=93321e5e-91c1-4b6c-918e-ec53e93a702b"},"vehicle_type_id":"4","last_reported":1726571278,"current_range_meters":9600,"station_id":"ce4bh4p2rcd13ifvqe0g","pricing_plan_id":"cebpf4jnsgd1na2vs0mg"},{"bike_id":"0b7a628c-93fe-4767-afde-9943693a3031","system_id":"levelo_inurba_marseille","lat":43.2952,"lon":5.39052,"is_reserved":false,"is_disabled":false,"rental_uris":{"android":"levelo://app?vid=0b7a628c-93fe-4767-afde-9943693a3031","ios":"levelo://app?vid=0b7a628c-93fe-4767-afde-9943693a3031"},"vehicle_type_id":"4","last_reported":1726571278,"current_range_meters":24800,"station_id":"ce4bh3p2rcd13ifvqdp0","pricing_plan_id":"cebpf4jnsgd1na2vs0mg"},{"bike_id":"b645ac77-0d58-4fa9-8ad3-947af8bdb1d9","system_id":"levelo_inurba_marseille","lat":43.29897,"lon":5.43669,"is_reserved":false,"is_disabled":false,"rental_uris":{"android":"levelo://app?vid=b645ac77-0d58-4fa9-8ad3-947af8bdb1d9","ios":"levelo://app?vid=b645ac77-0d58-4fa9-8ad3-947af8bdb1d9"},"vehicle_type_id":"4","last_reported":1726571278,"current_range_meters":25200,"station_id":"ce4bhpp2rcd13ifvqhfg","pricing_plan_id":"cebpf4jnsgd1na2vs0mg"},{"bike_id":"dfd2b010-d2fb-4362-b034-681d537287af","system_id":"levelo_inurba_marseille","lat":43.25,"lon":5.3892,"is_reserved":false,"is_disabled":false,"rental_uris":{"android":"levelo://app?vid=dfd2b010-d2fb-4362-b034-681d537287af","ios":"levelo://app?vid=dfd2b010-d2fb-4362-b034-681d537287af"},"vehicle_type_id":"4","last_reported":1726571278,"current_range_meters":36400,"station_id":"ce4bhgp2rcd13ifvqfd0","pricing_plan_id":"cebpf4jnsgd1na2vs0mg"},{"bike_id":"40ae4ba6-e4b2-425a-9345-02ecf86ccb52","system_id":"levelo_inurba_marseille","lat":43.28435,"lon":5.34972,"is_reserved":false,"is_disabled":false,"rental_uris":{"android":"levelo://app?vid=40ae4ba6-e4b2-425a-9345-02ecf86ccb52","ios":"levelo://app?vid=40ae4ba6-e4b2-425a-9345-02ecf86ccb52"},"vehicle_type_id":"4","last_reported":1726571278,"current_range_meters":34000,"station_id":"ce4bhbh2rcd13ifvqepg","pricing_plan_id":"cebpf4jnsgd1na2vs0mg"},{"bike_id":"c633bfe9-6bbc-49b4-bd23-9050c332bf42","system_id":"levelo_inurba_marseille","lat":43.33608,"lon":5.41027,"is_reserved":false,"is_disabled":false,"rental_uris":{"android":"levelo://app?vid=c633bfe9-6bbc-49b4-bd23-9050c332bf42","ios":"levelo://app?vid=c633bfe9-6bbc-49b4-bd23-9050c332bf42"},"vehicle_type_id":"4","last_reported":1726571278,"current_range_meters":16000,"station_id":"ce4bhqh2rcd13ifvqhmg","pricing_plan_id":"cebpf4jnsgd1na2vs0mg"},{"bike_id":"d07510fb-c4f4-4c85-81e3-a462d20e3255","system_id":"levelo_inurba_marseille","lat":43.23152,"lon":5.43712,"is_reserved":false,"is_disabled":false,"rental_uris":{"android":"levelo://app?vid=d07510fb-c4f4-4c85-81e3-a462d20e3255","ios":"levelo://app?vid=d07510fb-c4f4-4c85-81e3-a462d20e3255"},"vehicle_type_id":"4","last_reported":1726571278,"current_range_meters":29600,"station_id":"ce4bhmp2rcd13ifvqgog","pricing_plan_id":"cebpf4jnsgd1na2vs0mg"},{"bike_id":"408c5749-702c-43ea-9058-5bebe1ea2111","system_id":"levelo_inurba_marseille","lat":43.27488,"lon":5.42449,"is_reserved":false,"is_disabled":false,"rental_uris":{"android":"levelo://app?vid=408c5749-702c-43ea-9058-5bebe1ea2111","ios":"levelo://app?vid=408c5749-702c-43ea-9058-5bebe1ea2111"},"vehicle_type_id":"4","last_reported":1726571278,"current_range_meters":16000,"station_id":"ce4bhn92rcd13ifvqgrg","pricing_plan_id":"cebpf4jnsgd1na2vs0mg"},{"bike_id":"888833d6-42a0-4875-a8da-bf676f879d5a","system_id":"levelo_inurba_marseille","lat":43.22934,"lon":5.35376,"is_reserved":false,"is_disabled":false,"rental_uris":{"android":"levelo://app?vid=888833d6-42a0-4875-a8da-bf676f879d5a","ios":"levelo://app?vid=888833d6-42a0-4875-a8da-bf676f879d5a"},"vehicle_type_id":"4","last_reported":1726571278,"current_range_meters":20400,"station_id":"cpo3532slgdg3j2ikp40","pricing_plan_id":"cebpf4jnsgd1na2vs0mg"},{"bike_id":"677498c9-746b-4650-9a8e-2c7479635944","system_id":"levelo_inurba_marseille","lat":43.33026,"lon":5.39046,"is_reserved":false,"is_disabled":false,"rental_uris":{"android":"levelo://app?vid=677498c9-746b-4650-9a8e-2c7479635944","ios":"levelo://app?vid=677498c9-746b-4650-9a8e-2c7479635944"},"vehicle_type_id":"4","last_reported":1726571278,"current_range_meters":22800,"station_id":"ce4bhr92rcd13ifvqhrg","pricing_plan_id":"cebpf4jnsgd1na2vs0mg"},{"bike_id":"55969a85-a7f0-4de5-9e93-9a8195587ffe","system_id":"levelo_inurba_marseille","lat":43.32363,"lon":5.3888,"is_reserved":false,"is_disabled":false,"rental_uris":{"android":"levelo://app?vid=55969a85-a7f0-4de5-9e93-9a8195587ffe","ios":"levelo://app?vid=55969a85-a7f0-4de5-9e93-9a8195587ffe"},"vehicle_type_id":"4","last_reported":1726571278,"current_range_meters":12800,"station_id":"ce4bhqp2rcd13ifvqhog","pricing_plan_id":"cebpf4jnsgd1na2vs0mg"},{"bike_id":"2735c659-0d7a-4e49-ae87-ceb05e103dc2","system_id":"levelo_inurba_marseille","lat":43.30958,"lon":5.39011,"is_reserved":false,"is_disabled":false,"rental_uris":{"android":"levelo://app?vid=2735c659-0d7a-4e49-ae87-ceb05e103dc2","ios":"levelo://app?vid=2735c659-0d7a-4e49-ae87-ceb05e103dc2"},"vehicle_type_id":"4","last_reported":1726571278,"current_range_meters":16800,"station_id":"ce4bh0p2rcd13ifvqd80","pricing_plan_id":"cebpf4jnsgd1na2vs0mg"},{"bike_id":"3ec26904-bb3b-40f7-9446-5cd2dec0a9bf","system_id":"levelo_inurba_marseille","lat":43.240601,"lon":5.377594,"is_reserved":false,"is_disabled":false,"rental_uris":{"android":"levelo://app?vid=3ec26904-bb3b-40f7-9446-5cd2dec0a9bf","ios":"levelo://app?vid=3ec26904-bb3b-40f7-9446-5cd2dec0a9bf"},"vehicle_type_id":"4","last_reported":1726571278,"current_range_meters":18800,"station_id":"ce4bhnp2rcd13ifvqgvg","pricing_plan_id":"cebpf4jnsgd1na2vs0mg"},{"bike_id":"ebe62382-580b-4708-a391-3025e468dbfc","system_id":"levelo_inurba_marseille","lat":43.29533,"lon":5.3854,"is_reserved":false,"is_disabled":false,"rental_uris":{"android":"levelo://app?vid=ebe62382-580b-4708-a391-3025e468dbfc","ios":"levelo://app?vid=ebe62382-580b-4708-a391-3025e468dbfc"},"vehicle_type_id":"4","last_reported":1726571278,"current_range_meters":8000,"station_id":"ce4bgup2rcd13ifvqcn0","pricing_plan_id":"cebpf4jnsgd1na2vs0mg"},{"bike_id":"05d8f5ca-3641-4331-bd9e-16e14944b5fb","system_id":"levelo_inurba_marseille","lat":43.29961,"lon":5.37187,"is_reserved":false,"is_disabled":false,"rental_uris":{"android":"levelo://app?vid=05d8f5ca-3641-4331-bd9e-16e14944b5fb","ios":"levelo://app?vid=05d8f5ca-3641-4331-bd9e-16e14944b5fb"},"vehicle_type_id":"4","last_reported":1726571278,"current_range_meters":27200,"station_id":"ce4bgr92rcd13ifvqc7g","pricing_plan_id":"cebpf4jnsgd1na2vs0mg"},{"bike_id":"7ba5a0d3-87f5-4dbc-8dc8-0d67d795da41","system_id":"levelo_inurba_marseille","lat":43.30908,"lon":5.36859,"is_reserved":false,"is_disabled":false,"rental_uris":{"android":"levelo://app?vid=7ba5a0d3-87f5-4dbc-8dc8-0d67d795da41","ios":"levelo://app?vid=7ba5a0d3-87f5-4dbc-8dc8-0d67d795da41"},"vehicle_type_id":"4","last_reported":1726571278,"current_range_meters":38800,"station_id":"ce4bgn92rcd13ifvqbvg","pricing_plan_id":"cebpf4jnsgd1na2vs0mg"},{"bike_id":"7c7890c5-09f0-4cf2-8901-9b666045eb68","system_id":"levelo_inurba_marseille","lat":43.249969,"lon":5.389351,"is_reserved":false,"is_disabled":false,"rental_uris":{"android":"levelo://app?vid=7c7890c5-09f0-4cf2-8901-9b666045eb68","ios":"levelo://app?vid=7c7890c5-09f0-4cf2-8901-9b666045eb68"},"vehicle_type_id":"4","last_reported":1726571278,"current_range_meters":8000,"station_id":"ce4bhgp2rcd13ifvqfd0","pricing_plan_id":"cebpf4jnsgd1na2vs0mg"},{"bike_id":"a11d32c7-eb8e-42f2-a75a-584ec8cdf63b","system_id":"levelo_inurba_marseille","lat":43.30462,"lon":5.37901,"is_reserved":false,"is_disabled":false,"rental_uris":{"android":"levelo://app?vid=a11d32c7-eb8e-42f2-a75a-584ec8cdf63b","ios":"levelo://app?vid=a11d32c7-eb8e-42f2-a75a-584ec8cdf63b"},"vehicle_type_id":"4","last_reported":1726571278,"current_range_meters":16000,"station_id":"ce4bgup2rcd13ifvqcn0","pricing_plan_id":"cebpf4jnsgd1na2vs0mg"},{"bike_id":"8f7fc6a7-4fbd-41bd-9def-6cfc44bc5fc4","system_id":"levelo_inurba_marseille","lat":43.24998,"lon":5.38928,"is_reserved":false,"is_disabled":false,"rental_uris":{"android":"levelo://app?vid=8f7fc6a7-4fbd-41bd-9def-6cfc44bc5fc4","ios":"levelo://app?vid=8f7fc6a7-4fbd-41bd-9def-6cfc44bc5fc4"},"vehicle_type_id":"4","last_reported":1726571278,"current_range_meters":19200,"station_id":"ce4bhgp2rcd13ifvqfd0","pricing_plan_id":"cebpf4jnsgd1na2vs0mg"},{"bike_id":"bdab53d1-6c0d-4e22-ae92-62ac99d9be2f","system_id":"levelo_inurba_marseille","lat":43.31219,"lon":5.36847,"is_reserved":false,"is_disabled":false,"rental_uris":{"android":"levelo://app?vid=bdab53d1-6c0d-4e22-ae92-62ac99d9be2f","ios":"levelo://app?vid=bdab53d1-6c0d-4e22-ae92-62ac99d9be2f"},"vehicle_type_id":"4","last_reported":1726571278,"current_range_meters":30800,"station_id":"ce4bgl92rcd13ifvqbq0","pricing_plan_id":"cebpf4jnsgd1na2vs0mg"},{"bike_id":"9059938d-6362-4e82-99d4-2621af456a30","system_id":"levelo_inurba_marseille","lat":43.31185,"lon":5.38723,"is_reserved":false,"is_disabled":false,"rental_uris":{"android":"levelo://app?vid=9059938d-6362-4e82-99d4-2621af456a30","ios":"levelo://app?vid=9059938d-6362-4e82-99d4-2621af456a30"},"vehicle_type_id":"4","last_reported":1726571278,"current_range_meters":9200,"station_id":"ce4bgv12rcd13ifvqcp0","pricing_plan_id":"cebpf4jnsgd1na2vs0mg"},{"bike_id":"4e220293-bbb6-489e-aebe-999ef5d2a6b1","system_id":"levelo_inurba_marseille","lat":43.28412,"lon":5.34976,"is_reserved":false,"is_disabled":false,"rental_uris":{"android":"levelo://app?vid=4e220293-bbb6-489e-aebe-999ef5d2a6b1","ios":"levelo://app?vid=4e220293-bbb6-489e-aebe-999ef5d2a6b1"},"vehicle_type_id":"4","last_reported":1726571278,"current_range_meters":36000,"station_id":"ce4bhbh2rcd13ifvqepg","pricing_plan_id":"cebpf4jnsgd1na2vs0mg"},{"bike_id":"b9178a6a-5c47-4280-924f-35a16189496e","system_id":"levelo_inurba_marseille","lat":43.29078,"lon":5.37165,"is_reserved":false,"is_disabled":false,"rental_uris":{"android":"levelo://app?vid=b9178a6a-5c47-4280-924f-35a16189496e","ios":"levelo://app?vid=b9178a6a-5c47-4280-924f-35a16189496e"},"vehicle_type_id":"4","last_reported":1726571278,"current_range_meters":32000,"station_id":"ce4bh5p2rcd13ifvqe4g","pricing_plan_id":"cebpf4jnsgd1na2vs0mg"},{"bike_id":"69fc45f7-dd19-4407-a454-e92646802611","system_id":"levelo_inurba_marseille","lat":43.24997,"lon":5.38925,"is_reserved":false,"is_disabled":false,"rental_uris":{"android":"levelo://app?vid=69fc45f7-dd19-4407-a454-e92646802611","ios":"levelo://app?vid=69fc45f7-dd19-4407-a454-e92646802611"},"vehicle_type_id":"4","last_reported":1726571278,"current_range_meters":12800,"station_id":"ce4bhgp2rcd13ifvqfd0","pricing_plan_id":"cebpf4jnsgd1na2vs0mg"},{"bike_id":"99684f50-b398-427b-a4e9-7ca0a0382c79","system_id":"levelo_inurba_marseille","lat":43.23199,"lon":5.35547,"is_reserved":false,"is_disabled":false,"rental_uris":{"android":"levelo://app?vid=99684f50-b398-427b-a4e9-7ca0a0382c79","ios":"levelo://app?vid=99684f50-b398-427b-a4e9-7ca0a0382c79"},"vehicle_type_id":"4","last_reported":1726571278,"current_range_meters":38800,"station_id":"ce4bhu92rcd13ifvqi70","pricing_plan_id":"cebpf4jnsgd1na2vs0mg"},{"bike_id":"ebef2083-d54c-43a1-b23d-c9c8bde40d72","system_id":"levelo_inurba_marseille","lat":43.30182,"lon":5.36622,"is_reserved":false,"is_disabled":false,"rental_uris":{"android":"levelo://app?vid=ebef2083-d54c-43a1-b23d-c9c8bde40d72","ios":"levelo://app?vid=ebef2083-d54c-43a1-b23d-c9c8bde40d72"},"vehicle_type_id":"4","last_reported":1726571278,"current_range_meters":38800,"station_id":"ce4bgrh2rcd13ifvqc8g","pricing_plan_id":"cebpf4jnsgd1na2vs0mg"},{"bike_id":"b73d2e37-386e-486b-9df9-fda688c146f4","system_id":"levelo_inurba_marseille","lat":43.33758,"lon":5.37445,"is_reserved":false,"is_disabled":false,"rental_uris":{"android":"levelo://app?vid=b73d2e37-386e-486b-9df9-fda688c146f4","ios":"levelo://app?vid=b73d2e37-386e-486b-9df9-fda688c146f4"},"vehicle_type_id":"4","last_reported":1726571278,"current_range_meters":30400,"station_id":"","pricing_plan_id":"cebpf4jnsgd1na2vs0mg"},{"bike_id":"b97204a3-c87f-4b76-93a2-56a3f401397c","system_id":"levelo_inurba_marseille","lat":43.28273,"lon":5.35062,"is_reserved":false,"is_disabled":false,"rental_uris":{"android":"levelo://app?vid=b97204a3-c87f-4b76-93a2-56a3f401397c","ios":"levelo://app?vid=b97204a3-c87f-4b76-93a2-56a3f401397c"},"vehicle_type_id":"4","last_reported":1726571278,"current_range_meters":35200,"station_id":"ce4bhbp2rcd13ifvqerg","pricing_plan_id":"cebpf4jnsgd1na2vs0mg"},{"bike_id":"d1f7202d-4ab4-40c3-9821-066cf6aba8f8","system_id":"levelo_inurba_marseille","lat":43.263367,"lon":5.378467,"is_reserved":false,"is_disabled":false,"rental_uris":{"android":"levelo://app?vid=d1f7202d-4ab4-40c3-9821-066cf6aba8f8","ios":"levelo://app?vid=d1f7202d-4ab4-40c3-9821-066cf6aba8f8"},"vehicle_type_id":"4","last_reported":1726571278,"current_range_meters":14000,"station_id":"ce4bgip2rcd13ifvqbb0","pricing_plan_id":"cebpf4jnsgd1na2vs0mg"},{"bike_id":"34195e9b-fc36-4b98-a05c-c2c2aad12108","system_id":"levelo_inurba_marseille","lat":43.2408,"lon":5.37747,"is_reserved":false,"is_disabled":false,"rental_uris":{"android":"levelo://app?vid=34195e9b-fc36-4b98-a05c-c2c2aad12108","ios":"levelo://app?vid=34195e9b-fc36-4b98-a05c-c2c2aad12108"},"vehicle_type_id":"4","last_reported":1726571278,"current_range_meters":26800,"station_id":"ce4bhnp2rcd13ifvqgvg","pricing_plan_id":"cebpf4jnsgd1na2vs0mg"},{"bike_id":"fcf97093-637c-4342-854a-02e456b30eed","system_id":"levelo_inurba_marseille","lat":43.31496,"lon":5.37305,"is_reserved":false,"is_disabled":false,"rental_uris":{"android":"levelo://app?vid=fcf97093-637c-4342-854a-02e456b30eed","ios":"levelo://app?vid=fcf97093-637c-4342-854a-02e456b30eed"},"vehicle_type_id":"4","last_reported":1726571278,"current_range_meters":39200,"station_id":"ce4bgt12rcd13ifvqcd0","pricing_plan_id":"cebpf4jnsgd1na2vs0mg"},{"bike_id":"f5e1a2cd-774a-4006-ac56-c95cc1c309f7","system_id":"levelo_inurba_marseille","lat":43.30263,"lon":5.40077,"is_reserved":false,"is_disabled":false,"rental_uris":{"android":"levelo://app?vid=f5e1a2cd-774a-4006-ac56-c95cc1c309f7","ios":"levelo://app?vid=f5e1a2cd-774a-4006-ac56-c95cc1c309f7"},"vehicle_type_id":"4","last_reported":1726571278,"current_range_meters":36800,"station_id":"ce4bgvh2rcd13ifvqcs0","pricing_plan_id":"cebpf4jnsgd1na2vs0mg"},{"bike_id":"ad722464-32b1-4125-bf35-54f1e4aed3dd","system_id":"levelo_inurba_marseille","lat":43.24076,"lon":5.37759,"is_reserved":false,"is_disabled":false,"rental_uris":{"android":"levelo://app?vid=ad722464-32b1-4125-bf35-54f1e4aed3dd","ios":"levelo://app?vid=ad722464-32b1-4125-bf35-54f1e4aed3dd"},"vehicle_type_id":"4","last_reported":1726571278,"current_range_meters":6400,"station_id":"ce4bhnp2rcd13ifvqgvg","pricing_plan_id":"cebpf4jnsgd1na2vs0mg"},{"bike_id":"040704b3-2c1b-4498-a526-5fa515dc1006","system_id":"levelo_inurba_marseille","lat":43.23204,"lon":5.35524,"is_reserved":false,"is_disabled":false,"rental_uris":{"android":"levelo://app?vid=040704b3-2c1b-4498-a526-5fa515dc1006","ios":"levelo://app?vid=040704b3-2c1b-4498-a526-5fa515dc1006"},"vehicle_type_id":"4","last_reported":1726571278,"current_range_meters":38800,"station_id":"ce4bhu92rcd13ifvqi70","pricing_plan_id":"cebpf4jnsgd1na2vs0mg"},{"bike_id":"5bd781e0-ccb7-4ae9-b77d-30293f831a20","system_id":"levelo_inurba_marseille","lat":43.26195,"lon":5.37447,"is_reserved":false,"is_disabled":false,"rental_uris":{"android":"levelo://app?vid=5bd781e0-ccb7-4ae9-b77d-30293f831a20","ios":"levelo://app?vid=5bd781e0-ccb7-4ae9-b77d-30293f831a20"},"vehicle_type_id":"4","last_reported":1726571278,"current_range_meters":37600,"station_id":"ce4bhgp2rcd13ifvqfc0","pricing_plan_id":"cebpf4jnsgd1na2vs0mg"},{"bike_id":"fed25c85-b3e7-4093-a992-a9eacb54e345","system_id":"levelo_inurba_marseille","lat":43.23196,"lon":5.35551,"is_reserved":false,"is_disabled":false,"rental_uris":{"android":"levelo://app?vid=fed25c85-b3e7-4093-a992-a9eacb54e345","ios":"levelo://app?vid=fed25c85-b3e7-4093-a992-a9eacb54e345"},"vehicle_type_id":"4","last_reported":1726571278,"current_range_meters":38000,"station_id":"ce4bhu92rcd13ifvqi70","pricing_plan_id":"cebpf4jnsgd1na2vs0mg"},{"bike_id":"f0751a2c-72b5-4327-8f94-59286725e55b","system_id":"levelo_inurba_marseille","lat":43.30474,"lon":5.37224,"is_reserved":false,"is_disabled":false,"rental_uris":{"android":"levelo://app?vid=f0751a2c-72b5-4327-8f94-59286725e55b","ios":"levelo://app?vid=f0751a2c-72b5-4327-8f94-59286725e55b"},"vehicle_type_id":"4","last_reported":1726571278,"current_range_meters":28800,"station_id":"","pricing_plan_id":"cebpf4jnsgd1na2vs0mg"},{"bike_id":"f1cae6a9-a8df-4cec-b9d2-e0b8f2e6a820","system_id":"levelo_inurba_marseille","lat":43.32367,"lon":5.38882,"is_reserved":false,"is_disabled":false,"rental_uris":{"android":"levelo://app?vid=f1cae6a9-a8df-4cec-b9d2-e0b8f2e6a820","ios":"levelo://app?vid=f1cae6a9-a8df-4cec-b9d2-e0b8f2e6a820"},"vehicle_type_id":"4","last_reported":1726571278,"current_range_meters":14000,"station_id":"ce4bhqp2rcd13ifvqhog","pricing_plan_id":"cebpf4jnsgd1na2vs0mg"},{"bike_id":"9004090e-4051-48de-95d1-d2bb238b4a0c","system_id":"levelo_inurba_marseille","lat":43.29302,"lon":5.40118,"is_reserved":false,"is_disabled":false,"rental_uris":{"android":"levelo://app?vid=9004090e-4051-48de-95d1-d2bb238b4a0c","ios":"levelo://app?vid=9004090e-4051-48de-95d1-d2bb238b4a0c"},"vehicle_type_id":"4","last_reported":1726571278,"current_range_meters":30000,"station_id":"ce4bh312rcd13ifvqdk0","pricing_plan_id":"cebpf4jnsgd1na2vs0mg"},{"bike_id":"18331eac-d2ce-4b34-9986-7d5c63d12f5b","system_id":"levelo_inurba_marseille","lat":43.3089,"lon":5.37187,"is_reserved":false,"is_disabled":false,"rental_uris":{"android":"levelo://app?vid=18331eac-d2ce-4b34-9986-7d5c63d12f5b","ios":"levelo://app?vid=18331eac-d2ce-4b34-9986-7d5c63d12f5b"},"vehicle_type_id":"4","last_reported":1726571278,"current_range_meters":28800,"station_id":"ce4bguh2rcd13ifvqckg","pricing_plan_id":"cebpf4jnsgd1na2vs0mg"},{"bike_id":"634f7d9c-0612-4138-bf18-01e1c3d44f3f","system_id":"levelo_inurba_marseille","lat":43.29302,"lon":5.37457,"is_reserved":false,"is_disabled":false,"rental_uris":{"android":"levelo://app?vid=634f7d9c-0612-4138-bf18-01e1c3d44f3f","ios":"levelo://app?vid=634f7d9c-0612-4138-bf18-01e1c3d44f3f"},"vehicle_type_id":"4","last_reported":1726571278,"current_range_meters":38400,"station_id":"ce4bgi12rcd13ifvqb70","pricing_plan_id":"cebpf4jnsgd1na2vs0mg"},{"bike_id":"255def12-1a7e-4787-b2e4-a6a54888a394","system_id":"levelo_inurba_marseille","lat":43.32494,"lon":5.3658,"is_reserved":false,"is_disabled":false,"rental_uris":{"android":"levelo://app?vid=255def12-1a7e-4787-b2e4-a6a54888a394","ios":"levelo://app?vid=255def12-1a7e-4787-b2e4-a6a54888a394"},"vehicle_type_id":"4","last_reported":1726571278,"current_range_meters":8000,"station_id":"ce4bhs12rcd13ifvqhvg","pricing_plan_id":"cebpf4jnsgd1na2vs0mg"},{"bike_id":"6ad2fe94-195b-4d58-9ac6-d3a9675a4c80","system_id":"levelo_inurba_marseille","lat":43.30665,"lon":5.39239,"is_reserved":false,"is_disabled":false,"rental_uris":{"android":"levelo://app?vid=6ad2fe94-195b-4d58-9ac6-d3a9675a4c80","ios":"levelo://app?vid=6ad2fe94-195b-4d58-9ac6-d3a9675a4c80"},"vehicle_type_id":"4","last_reported":1726571278,"current_range_meters":10800,"station_id":"","pricing_plan_id":"cebpf4jnsgd1na2vs0mg"},{"bike_id":"6dd17a2f-59bb-4453-859d-2c09ab795824","system_id":"levelo_inurba_marseille","lat":43.33024,"lon":5.39043,"is_reserved":false,"is_disabled":false,"rental_uris":{"android":"levelo://app?vid=6dd17a2f-59bb-4453-859d-2c09ab795824","ios":"levelo://app?vid=6dd17a2f-59bb-4453-859d-2c09ab795824"},"vehicle_type_id":"4","last_reported":1726571278,"current_range_meters":31200,"station_id":"ce4bhr92rcd13ifvqhrg","pricing_plan_id":"cebpf4jnsgd1na2vs0mg"},{"bike_id":"3922915c-5935-4627-9b6b-7f88183522c3","system_id":"levelo_inurba_marseille","lat":43.30146,"lon":5.37395,"is_reserved":false,"is_disabled":false,"rental_uris":{"android":"levelo://app?vid=3922915c-5935-4627-9b6b-7f88183522c3","ios":"levelo://app?vid=3922915c-5935-4627-9b6b-7f88183522c3"},"vehicle_type_id":"4","last_reported":1726571278,"current_range_meters":9200,"station_id":"ce4bgs92rcd13ifvqcc0","pricing_plan_id":"cebpf4jnsgd1na2vs0mg"},{"bike_id":"c2ecb147-8ee1-4803-aa1c-5a9b13d8ea1c","system_id":"levelo_inurba_marseille","lat":43.23153,"lon":5.43711,"is_reserved":false,"is_disabled":false,"rental_uris":{"android":"levelo://app?vid=c2ecb147-8ee1-4803-aa1c-5a9b13d8ea1c","ios":"levelo://app?vid=c2ecb147-8ee1-4803-aa1c-5a9b13d8ea1c"},"vehicle_type_id":"4","last_reported":1726571278,"current_range_meters":38800,"station_id":"ce4bhmp2rcd13ifvqgog","pricing_plan_id":"cebpf4jnsgd1na2vs0mg"},{"bike_id":"8ac17af3-1087-4030-8684-fc752197666e","system_id":"levelo_inurba_marseille","lat":43.32358,"lon":5.3889,"is_reserved":false,"is_disabled":false,"rental_uris":{"android":"levelo://app?vid=8ac17af3-1087-4030-8684-fc752197666e","ios":"levelo://app?vid=8ac17af3-1087-4030-8684-fc752197666e"},"vehicle_type_id":"4","last_reported":1726571278,"current_range_meters":18000,"station_id":"ce4bhqp2rcd13ifvqhog","pricing_plan_id":"cebpf4jnsgd1na2vs0mg"},{"bike_id":"5a040d48-5ea9-4fcd-ae9f-271649329fa1","system_id":"levelo_inurba_marseille","lat":43.28148,"lon":5.42646,"is_reserved":false,"is_disabled":false,"rental_uris":{"android":"levelo://app?vid=5a040d48-5ea9-4fcd-ae9f-271649329fa1","ios":"levelo://app?vid=5a040d48-5ea9-4fcd-ae9f-271649329fa1"},"vehicle_type_id":"4","last_reported":1726571278,"current_range_meters":9600,"station_id":"ce4bhnh2rcd13ifvqgug","pricing_plan_id":"cebpf4jnsgd1na2vs0mg"},{"bike_id":"a0da9788-6ad0-4bd2-9978-72c1654ca4ea","system_id":"levelo_inurba_marseille","lat":43.32371,"lon":5.38885,"is_reserved":false,"is_disabled":false,"rental_uris":{"android":"levelo://app?vid=a0da9788-6ad0-4bd2-9978-72c1654ca4ea","ios":"levelo://app?vid=a0da9788-6ad0-4bd2-9978-72c1654ca4ea"},"vehicle_type_id":"4","last_reported":1726571278,"current_range_meters":16000,"station_id":"ce4bhqp2rcd13ifvqhog","pricing_plan_id":"cebpf4jnsgd1na2vs0mg"},{"bike_id":"f11293b9-5944-418c-9cea-2087ec8521d3","system_id":"levelo_inurba_marseille","lat":43.31221,"lon":5.36856,"is_reserved":false,"is_disabled":false,"rental_uris":{"android":"levelo://app?vid=f11293b9-5944-418c-9cea-2087ec8521d3","ios":"levelo://app?vid=f11293b9-5944-418c-9cea-2087ec8521d3"},"vehicle_type_id":"4","last_reported":1726571278,"current_range_meters":16000,"station_id":"ce4bgl92rcd13ifvqbq0","pricing_plan_id":"cebpf4jnsgd1na2vs0mg"},{"bike_id":"d00ef931-ca94-46a5-a153-d39e1f7651c4","system_id":"levelo_inurba_marseille","lat":43.24647,"lon":5.38892,"is_reserved":false,"is_disabled":false,"rental_uris":{"android":"levelo://app?vid=d00ef931-ca94-46a5-a153-d39e1f7651c4","ios":"levelo://app?vid=d00ef931-ca94-46a5-a153-d39e1f7651c4"},"vehicle_type_id":"4","last_reported":1726571278,"current_range_meters":4000,"station_id":"ce4bhg12rcd13ifvqf60","pricing_plan_id":"cebpf4jnsgd1na2vs0mg"},{"bike_id":"0308f358-78cd-4ed3-9f73-03a0aff7b7aa","system_id":"levelo_inurba_marseille","lat":43.298431,"lon":5.436274,"is_reserved":false,"is_disabled":false,"rental_uris":{"android":"levelo://app?vid=0308f358-78cd-4ed3-9f73-03a0aff7b7aa","ios":"levelo://app?vid=0308f358-78cd-4ed3-9f73-03a0aff7b7aa"},"vehicle_type_id":"4","last_reported":1726571278,"current_range_meters":20400,"station_id":"ce4bhpp2rcd13ifvqhfg","pricing_plan_id":"cebpf4jnsgd1na2vs0mg"},{"bike_id":"a1353920-50fa-4ae3-bfe2-a263287aef30","system_id":"levelo_inurba_marseille","lat":43.30537,"lon":5.36726,"is_reserved":false,"is_disabled":false,"rental_uris":{"android":"levelo://app?vid=a1353920-50fa-4ae3-bfe2-a263287aef30","ios":"levelo://app?vid=a1353920-50fa-4ae3-bfe2-a263287aef30"},"vehicle_type_id":"4","last_reported":1726571278,"current_range_meters":34800,"station_id":"ce4bgrp2rcd13ifvqc9g","pricing_plan_id":"cebpf4jnsgd1na2vs0mg"},{"bike_id":"5fcce6cb-4cdf-428a-a03a-e73e25b2b70b","system_id":"levelo_inurba_marseille","lat":43.24181,"lon":5.39715,"is_reserved":false,"is_disabled":false,"rental_uris":{"android":"levelo://app?vid=5fcce6cb-4cdf-428a-a03a-e73e25b2b70b","ios":"levelo://app?vid=5fcce6cb-4cdf-428a-a03a-e73e25b2b70b"},"vehicle_type_id":"4","last_reported":1726571278,"current_range_meters":27600,"station_id":"ce4bhn12rcd13ifvqgpg","pricing_plan_id":"cebpf4jnsgd1na2vs0mg"},{"bike_id":"33b9f200-8d6c-4c1b-ab22-8f9259d0ebaa","system_id":"levelo_inurba_marseille","lat":43.25716,"lon":5.4111,"is_reserved":false,"is_disabled":false,"rental_uris":{"android":"levelo://app?vid=33b9f200-8d6c-4c1b-ab22-8f9259d0ebaa","ios":"levelo://app?vid=33b9f200-8d6c-4c1b-ab22-8f9259d0ebaa"},"vehicle_type_id":"4","last_reported":1726571278,"current_range_meters":32800,"station_id":"ce4bhkp2rcd13ifvqgd0","pricing_plan_id":"cebpf4jnsgd1na2vs0mg"},{"bike_id":"6588fdea-4e2f-421b-8e16-5049896a76f9","system_id":"levelo_inurba_marseille","lat":43.29272,"lon":5.36844,"is_reserved":false,"is_disabled":false,"rental_uris":{"android":"levelo://app?vid=6588fdea-4e2f-421b-8e16-5049896a76f9","ios":"levelo://app?vid=6588fdea-4e2f-421b-8e16-5049896a76f9"},"vehicle_type_id":"4","last_reported":1726571278,"current_range_meters":38000,"station_id":"ce4bhbp2rcd13ifvqesg","pricing_plan_id":"cebpf4jnsgd1na2vs0mg"},{"bike_id":"8179dbb6-aa6a-40a1-8ad7-2129bb25bf8c","system_id":"levelo_inurba_marseille","lat":43.29961,"lon":5.4132,"is_reserved":false,"is_disabled":false,"rental_uris":{"android":"levelo://app?vid=8179dbb6-aa6a-40a1-8ad7-2129bb25bf8c","ios":"levelo://app?vid=8179dbb6-aa6a-40a1-8ad7-2129bb25bf8c"},"vehicle_type_id":"4","last_reported":1726571278,"current_range_meters":9200,"station_id":"ce4bhp12rcd13ifvqh9g","pricing_plan_id":"cebpf4jnsgd1na2vs0mg"},{"bike_id":"16446fb9-790f-4fe5-98ea-1d5e3b47085b","system_id":"levelo_inurba_marseille","lat":43.29573,"lon":5.37496,"is_reserved":false,"is_disabled":false,"rental_uris":{"android":"levelo://app?vid=16446fb9-790f-4fe5-98ea-1d5e3b47085b","ios":"levelo://app?vid=16446fb9-790f-4fe5-98ea-1d5e3b47085b"},"vehicle_type_id":"4","last_reported":1726571278,"current_range_meters":10800,"station_id":"ce4bgh92rcd13ifvqb50","pricing_plan_id":"cebpf4jnsgd1na2vs0mg"},{"bike_id":"621052ad-e907-48b5-8b50-5412a7e589d5","system_id":"levelo_inurba_marseille","lat":43.240784,"lon":5.377597,"is_reserved":false,"is_disabled":false,"rental_uris":{"android":"levelo://app?vid=621052ad-e907-48b5-8b50-5412a7e589d5","ios":"levelo://app?vid=621052ad-e907-48b5-8b50-5412a7e589d5"},"vehicle_type_id":"4","last_reported":1726571278,"current_range_meters":26800,"station_id":"ce4bhnp2rcd13ifvqgvg","pricing_plan_id":"cebpf4jnsgd1na2vs0mg"},{"bike_id":"0d830da1-088f-410f-befa-e68ac04cbdf5","system_id":"levelo_inurba_marseille","lat":43.24077,"lon":5.37761,"is_reserved":false,"is_disabled":false,"rental_uris":{"android":"levelo://app?vid=0d830da1-088f-410f-befa-e68ac04cbdf5","ios":"levelo://app?vid=0d830da1-088f-410f-befa-e68ac04cbdf5"},"vehicle_type_id":"4","last_reported":1726571278,"current_range_meters":30400,"station_id":"ce4bhnp2rcd13ifvqgvg","pricing_plan_id":"cebpf4jnsgd1na2vs0mg"},{"bike_id":"e79b5b41-a30a-4c10-a8af-bcc327b10079","system_id":"levelo_inurba_marseille","lat":43.29037,"lon":5.37563,"is_reserved":false,"is_disabled":false,"rental_uris":{"android":"levelo://app?vid=e79b5b41-a30a-4c10-a8af-bcc327b10079","ios":"levelo://app?vid=e79b5b41-a30a-4c10-a8af-bcc327b10079"},"vehicle_type_id":"4","last_reported":1726571278,"current_range_meters":32000,"station_id":"ce4bh692rcd13ifvqe90","pricing_plan_id":"cebpf4jnsgd1na2vs0mg"},{"bike_id":"65eecb51-7024-4f30-af20-d65f809bce2b","system_id":"levelo_inurba_marseille","lat":43.31208,"lon":5.38466,"is_reserved":false,"is_disabled":false,"rental_uris":{"android":"levelo://app?vid=65eecb51-7024-4f30-af20-d65f809bce2b","ios":"levelo://app?vid=65eecb51-7024-4f30-af20-d65f809bce2b"},"vehicle_type_id":"4","last_reported":1726571278,"current_range_meters":8400,"station_id":"ce4bgvp2rcd13ifvqcu0","pricing_plan_id":"cebpf4jnsgd1na2vs0mg"},{"bike_id":"7210f478-1865-4edc-8a96-94e0b5bd4be6","system_id":"levelo_inurba_marseille","lat":43.22927,"lon":5.35376,"is_reserved":false,"is_disabled":false,"rental_uris":{"android":"levelo://app?vid=7210f478-1865-4edc-8a96-94e0b5bd4be6","ios":"levelo://app?vid=7210f478-1865-4edc-8a96-94e0b5bd4be6"},"vehicle_type_id":"4","last_reported":1726571278,"current_range_meters":27200,"station_id":"cpo3532slgdg3j2ikp40","pricing_plan_id":"cebpf4jnsgd1na2vs0mg"},{"bike_id":"c034b2d4-b5bc-412f-bc1e-4b54e7a2ef44","system_id":"levelo_inurba_marseille","lat":43.27487,"lon":5.42458,"is_reserved":false,"is_disabled":false,"rental_uris":{"android":"levelo://app?vid=c034b2d4-b5bc-412f-bc1e-4b54e7a2ef44","ios":"levelo://app?vid=c034b2d4-b5bc-412f-bc1e-4b54e7a2ef44"},"vehicle_type_id":"4","last_reported":1726571278,"current_range_meters":37600,"station_id":"ce4bhn92rcd13ifvqgrg","pricing_plan_id":"cebpf4jnsgd1na2vs0mg"},{"bike_id":"9a9303e6-6f81-4863-a153-1de3053ff8a2","system_id":"levelo_inurba_marseille","lat":43.279694,"lon":5.387426,"is_reserved":false,"is_disabled":false,"rental_uris":{"android":"levelo://app?vid=9a9303e6-6f81-4863-a153-1de3053ff8a2","ios":"levelo://app?vid=9a9303e6-6f81-4863-a153-1de3053ff8a2"},"vehicle_type_id":"4","last_reported":1726571278,"current_range_meters":16800,"station_id":"ce4bh392rcd13ifvqdm0","pricing_plan_id":"cebpf4jnsgd1na2vs0mg"},{"bike_id":"a916f344-2470-4b3c-9b4f-0e33ef18e85d","system_id":"levelo_inurba_marseille","lat":43.31715,"lon":5.43702,"is_reserved":false,"is_disabled":false,"rental_uris":{"android":"levelo://app?vid=a916f344-2470-4b3c-9b4f-0e33ef18e85d","ios":"levelo://app?vid=a916f344-2470-4b3c-9b4f-0e33ef18e85d"},"vehicle_type_id":"4","last_reported":1726571278,"current_range_meters":4400,"station_id":"ce4bhp92rcd13ifvqhcg","pricing_plan_id":"cebpf4jnsgd1na2vs0mg"},{"bike_id":"9e6acc5e-94a7-4e9f-94a9-f4362cac3b04","system_id":"levelo_inurba_marseille","lat":43.30906,"lon":5.36852,"is_reserved":false,"is_disabled":false,"rental_uris":{"android":"levelo://app?vid=9e6acc5e-94a7-4e9f-94a9-f4362cac3b04","ios":"levelo://app?vid=9e6acc5e-94a7-4e9f-94a9-f4362cac3b04"},"vehicle_type_id":"4","last_reported":1726571278,"current_range_meters":39200,"station_id":"ce4bgn92rcd13ifvqbvg","pricing_plan_id":"cebpf4jnsgd1na2vs0mg"},{"bike_id":"0101ff02-5b1d-48f6-af68-95e713443c32","system_id":"levelo_inurba_marseille","lat":43.30276,"lon":5.37687,"is_reserved":false,"is_disabled":false,"rental_uris":{"android":"levelo://app?vid=0101ff02-5b1d-48f6-af68-95e713443c32","ios":"levelo://app?vid=0101ff02-5b1d-48f6-af68-95e713443c32"},"vehicle_type_id":"4","last_reported":1726571278,"current_range_meters":33200,"station_id":"ce4bguh2rcd13ifvqcj0","pricing_plan_id":"cebpf4jnsgd1na2vs0mg"},{"bike_id":"f5c0e1e2-2d50-430f-b096-cc74d6ddc37d","system_id":"levelo_inurba_marseille","lat":43.27494,"lon":5.4245,"is_reserved":false,"is_disabled":false,"rental_uris":{"android":"levelo://app?vid=f5c0e1e2-2d50-430f-b096-cc74d6ddc37d","ios":"levelo://app?vid=f5c0e1e2-2d50-430f-b096-cc74d6ddc37d"},"vehicle_type_id":"4","last_reported":1726571278,"current_range_meters":38800,"station_id":"ce4bhn92rcd13ifvqgrg","pricing_plan_id":"cebpf4jnsgd1na2vs0mg"},{"bike_id":"23dd0c20-fce0-40ea-aaa2-cab4c3dedbd9","system_id":"levelo_inurba_marseille","lat":43.23153,"lon":5.43717,"is_reserved":false,"is_disabled":false,"rental_uris":{"android":"levelo://app?vid=23dd0c20-fce0-40ea-aaa2-cab4c3dedbd9","ios":"levelo://app?vid=23dd0c20-fce0-40ea-aaa2-cab4c3dedbd9"},"vehicle_type_id":"4","last_reported":1726571278,"current_range_meters":10000,"station_id":"ce4bhmp2rcd13ifvqgog","pricing_plan_id":"cebpf4jnsgd1na2vs0mg"},{"bike_id":"1a72562e-4a87-4b67-a557-27799b4d5715","system_id":"levelo_inurba_marseille","lat":43.30912,"lon":5.3685,"is_reserved":false,"is_disabled":false,"rental_uris":{"android":"levelo://app?vid=1a72562e-4a87-4b67-a557-27799b4d5715","ios":"levelo://app?vid=1a72562e-4a87-4b67-a557-27799b4d5715"},"vehicle_type_id":"4","last_reported":1726571278,"current_range_meters":25200,"station_id":"ce4bgn92rcd13ifvqbvg","pricing_plan_id":"cebpf4jnsgd1na2vs0mg"},{"bike_id":"fb389055-f66c-4e32-b271-86411d587f5d","system_id":"levelo_inurba_marseille","lat":43.30295,"lon":5.3691,"is_reserved":false,"is_disabled":false,"rental_uris":{"android":"levelo://app?vid=fb389055-f66c-4e32-b271-86411d587f5d","ios":"levelo://app?vid=fb389055-f66c-4e32-b271-86411d587f5d"},"vehicle_type_id":"4","last_reported":1726571278,"current_range_meters":38800,"station_id":"ce4bgqh2rcd13ifvqc5g","pricing_plan_id":"cebpf4jnsgd1na2vs0mg"},{"bike_id":"811d12b6-62df-45b0-8a39-5b260fd2bf96","system_id":"levelo_inurba_marseille","lat":43.24079,"lon":5.37747,"is_reserved":false,"is_disabled":false,"rental_uris":{"android":"levelo://app?vid=811d12b6-62df-45b0-8a39-5b260fd2bf96","ios":"levelo://app?vid=811d12b6-62df-45b0-8a39-5b260fd2bf96"},"vehicle_type_id":"4","last_reported":1726571278,"current_range_meters":33200,"station_id":"ce4bhnp2rcd13ifvqgvg","pricing_plan_id":"cebpf4jnsgd1na2vs0mg"},{"bike_id":"7dd25116-4b08-418f-b59a-2cd52163c135","system_id":"levelo_inurba_marseille","lat":43.24082,"lon":5.37753,"is_reserved":false,"is_disabled":false,"rental_uris":{"android":"levelo://app?vid=7dd25116-4b08-418f-b59a-2cd52163c135","ios":"levelo://app?vid=7dd25116-4b08-418f-b59a-2cd52163c135"},"vehicle_type_id":"4","last_reported":1726571278,"current_range_meters":28400,"station_id":"ce4bhnp2rcd13ifvqgvg","pricing_plan_id":"cebpf4jnsgd1na2vs0mg"},{"bike_id":"8ea79706-33c2-4140-a630-4d917dade742","system_id":"levelo_inurba_marseille","lat":43.2315,"lon":5.43725,"is_reserved":false,"is_disabled":false,"rental_uris":{"android":"levelo://app?vid=8ea79706-33c2-4140-a630-4d917dade742","ios":"levelo://app?vid=8ea79706-33c2-4140-a630-4d917dade742"},"vehicle_type_id":"4","last_reported":1726571278,"current_range_meters":17600,"station_id":"ce4bhmp2rcd13ifvqgog","pricing_plan_id":"cebpf4jnsgd1na2vs0mg"},{"bike_id":"1f38c15a-9705-4563-aafc-3c0e4b2a60f8","system_id":"levelo_inurba_marseille","lat":43.29845,"lon":5.36269,"is_reserved":false,"is_disabled":false,"rental_uris":{"android":"levelo://app?vid=1f38c15a-9705-4563-aafc-3c0e4b2a60f8","ios":"levelo://app?vid=1f38c15a-9705-4563-aafc-3c0e4b2a60f8"},"vehicle_type_id":"4","last_reported":1726571278,"current_range_meters":38800,"station_id":"ce4bgpp2rcd13ifvqc3g","pricing_plan_id":"cebpf4jnsgd1na2vs0mg"},{"bike_id":"9dd1464c-b3d4-49c8-868f-c3cc98746089","system_id":"levelo_inurba_marseille","lat":43.29272,"lon":5.40121,"is_reserved":false,"is_disabled":false,"rental_uris":{"android":"levelo://app?vid=9dd1464c-b3d4-49c8-868f-c3cc98746089","ios":"levelo://app?vid=9dd1464c-b3d4-49c8-868f-c3cc98746089"},"vehicle_type_id":"4","last_reported":1726571278,"current_range_meters":35600,"station_id":"ce4bh312rcd13ifvqdk0","pricing_plan_id":"cebpf4jnsgd1na2vs0mg"},{"bike_id":"a0227d82-64c2-4d0c-8d37-bf8ad5aa88a0","system_id":"levelo_inurba_marseille","lat":43.24082,"lon":5.37736,"is_reserved":false,"is_disabled":false,"rental_uris":{"android":"levelo://app?vid=a0227d82-64c2-4d0c-8d37-bf8ad5aa88a0","ios":"levelo://app?vid=a0227d82-64c2-4d0c-8d37-bf8ad5aa88a0"},"vehicle_type_id":"4","last_reported":1726571278,"current_range_meters":8400,"station_id":"ce4bhnp2rcd13ifvqgvg","pricing_plan_id":"cebpf4jnsgd1na2vs0mg"},{"bike_id":"de07479c-fa1e-4fa6-8f8a-d7163c7b679b","system_id":"levelo_inurba_marseille","lat":43.28418,"lon":5.34991,"is_reserved":false,"is_disabled":false,"rental_uris":{"android":"levelo://app?vid=de07479c-fa1e-4fa6-8f8a-d7163c7b679b","ios":"levelo://app?vid=de07479c-fa1e-4fa6-8f8a-d7163c7b679b"},"vehicle_type_id":"4","last_reported":1726571278,"current_range_meters":38400,"station_id":"ce4bhbh2rcd13ifvqepg","pricing_plan_id":"cebpf4jnsgd1na2vs0mg"},{"bike_id":"33b6c908-b316-43f1-9bed-2df4987833c0","system_id":"levelo_inurba_marseille","lat":43.30909,"lon":5.36852,"is_reserved":false,"is_disabled":false,"rental_uris":{"android":"levelo://app?vid=33b6c908-b316-43f1-9bed-2df4987833c0","ios":"levelo://app?vid=33b6c908-b316-43f1-9bed-2df4987833c0"},"vehicle_type_id":"4","last_reported":1726571278,"current_range_meters":28400,"station_id":"ce4bgn92rcd13ifvqbvg","pricing_plan_id":"cebpf4jnsgd1na2vs0mg"},{"bike_id":"1e3e380d-7a8e-48c9-9805-8e655604bee6","system_id":"levelo_inurba_marseille","lat":43.27067,"lon":5.42277,"is_reserved":false,"is_disabled":false,"rental_uris":{"android":"levelo://app?vid=1e3e380d-7a8e-48c9-9805-8e655604bee6","ios":"levelo://app?vid=1e3e380d-7a8e-48c9-9805-8e655604bee6"},"vehicle_type_id":"4","last_reported":1726571278,"current_range_meters":33600,"station_id":"ce4bhk92rcd13ifvqgb0","pricing_plan_id":"cebpf4jnsgd1na2vs0mg"},{"bike_id":"fee3d5bb-6253-48da-96ac-cce5fd5baf46","system_id":"levelo_inurba_marseille","lat":43.30546,"lon":5.36541,"is_reserved":false,"is_disabled":false,"rental_uris":{"android":"levelo://app?vid=fee3d5bb-6253-48da-96ac-cce5fd5baf46","ios":"levelo://app?vid=fee3d5bb-6253-48da-96ac-cce5fd5baf46"},"vehicle_type_id":"4","last_reported":1726571278,"current_range_meters":39200,"station_id":"ce4bgs12rcd13ifvqcag","pricing_plan_id":"cebpf4jnsgd1na2vs0mg"},{"bike_id":"54a39329-f575-4727-ac1f-a5a4ccac54db","system_id":"levelo_inurba_marseille","lat":43.33604,"lon":5.41024,"is_reserved":false,"is_disabled":false,"rental_uris":{"android":"levelo://app?vid=54a39329-f575-4727-ac1f-a5a4ccac54db","ios":"levelo://app?vid=54a39329-f575-4727-ac1f-a5a4ccac54db"},"vehicle_type_id":"4","last_reported":1726571278,"current_range_meters":39200,"station_id":"ce4bhqh2rcd13ifvqhmg","pricing_plan_id":"cebpf4jnsgd1na2vs0mg"},{"bike_id":"e9712200-91f7-4765-a25a-040591bf5fa2","system_id":"levelo_inurba_marseille","lat":43.292762,"lon":5.401189,"is_reserved":false,"is_disabled":false,"rental_uris":{"android":"levelo://app?vid=e9712200-91f7-4765-a25a-040591bf5fa2","ios":"levelo://app?vid=e9712200-91f7-4765-a25a-040591bf5fa2"},"vehicle_type_id":"4","last_reported":1726571278,"current_range_meters":24800,"station_id":"ce4bh0p2rcd13ifvqd80","pricing_plan_id":"cebpf4jnsgd1na2vs0mg"},{"bike_id":"cbaf03bf-0340-4293-a424-18d0ef0b595f","system_id":"levelo_inurba_marseille","lat":43.29892,"lon":5.43661,"is_reserved":false,"is_disabled":false,"rental_uris":{"android":"levelo://app?vid=cbaf03bf-0340-4293-a424-18d0ef0b595f","ios":"levelo://app?vid=cbaf03bf-0340-4293-a424-18d0ef0b595f"},"vehicle_type_id":"4","last_reported":1726571278,"current_range_meters":22400,"station_id":"ce4bhpp2rcd13ifvqhfg","pricing_plan_id":"cebpf4jnsgd1na2vs0mg"},{"bike_id":"4db50d13-63f4-4275-a13f-6d1f342ac8c6","system_id":"levelo_inurba_marseille","lat":43.28612,"lon":5.35103,"is_reserved":false,"is_disabled":false,"rental_uris":{"android":"levelo://app?vid=4db50d13-63f4-4275-a13f-6d1f342ac8c6","ios":"levelo://app?vid=4db50d13-63f4-4275-a13f-6d1f342ac8c6"},"vehicle_type_id":"4","last_reported":1726571278,"current_range_meters":38800,"station_id":"ce4bhch2rcd13ifvqeug","pricing_plan_id":"cebpf4jnsgd1na2vs0mg"},{"bike_id":"a7dc542c-b9d5-41da-8365-4e8ef96b9645","system_id":"levelo_inurba_marseille","lat":43.28622,"lon":5.35106,"is_reserved":false,"is_disabled":false,"rental_uris":{"android":"levelo://app?vid=a7dc542c-b9d5-41da-8365-4e8ef96b9645","ios":"levelo://app?vid=a7dc542c-b9d5-41da-8365-4e8ef96b9645"},"vehicle_type_id":"4","last_reported":1726571278,"current_range_meters":36400,"station_id":"ce4bhch2rcd13ifvqeug","pricing_plan_id":"cebpf4jnsgd1na2vs0mg"},{"bike_id":"49e200ca-be2e-44c1-88e1-5c0a88694170","system_id":"levelo_inurba_marseille","lat":43.30541,"lon":5.36545,"is_reserved":false,"is_disabled":false,"rental_uris":{"android":"levelo://app?vid=49e200ca-be2e-44c1-88e1-5c0a88694170","ios":"levelo://app?vid=49e200ca-be2e-44c1-88e1-5c0a88694170"},"vehicle_type_id":"4","last_reported":1726571278,"current_range_meters":34800,"station_id":"ce4bgs12rcd13ifvqcag","pricing_plan_id":"cebpf4jnsgd1na2vs0mg"},{"bike_id":"36bea050-cc1e-454a-9f4a-c3b28aca3c65","system_id":"levelo_inurba_marseille","lat":43.24071,"lon":5.37757,"is_reserved":false,"is_disabled":false,"rental_uris":{"android":"levelo://app?vid=36bea050-cc1e-454a-9f4a-c3b28aca3c65","ios":"levelo://app?vid=36bea050-cc1e-454a-9f4a-c3b28aca3c65"},"vehicle_type_id":"4","last_reported":1726571278,"current_range_meters":3600,"station_id":"ce4bhnp2rcd13ifvqgvg","pricing_plan_id":"cebpf4jnsgd1na2vs0mg"},{"bike_id":"a5a58379-78e8-4161-82a1-a662fa1cc11a","system_id":"levelo_inurba_marseille","lat":43.27206,"lon":5.3917,"is_reserved":false,"is_disabled":false,"rental_uris":{"android":"levelo://app?vid=a5a58379-78e8-4161-82a1-a662fa1cc11a","ios":"levelo://app?vid=a5a58379-78e8-4161-82a1-a662fa1cc11a"},"vehicle_type_id":"4","last_reported":1726571278,"current_range_meters":21600,"station_id":"ce4bhhp2rcd13ifvqfm0","pricing_plan_id":"cebpf4jnsgd1na2vs0mg"},{"bike_id":"fb565720-ce64-47db-a019-92c82ed81490","system_id":"levelo_inurba_marseille","lat":43.23967,"lon":5.36622,"is_reserved":false,"is_disabled":false,"rental_uris":{"android":"levelo://app?vid=fb565720-ce64-47db-a019-92c82ed81490","ios":"levelo://app?vid=fb565720-ce64-47db-a019-92c82ed81490"},"vehicle_type_id":"4","last_reported":1726571278,"current_range_meters":14000,"station_id":"ce4bhi12rcd13ifvqfp0","pricing_plan_id":"cebpf4jnsgd1na2vs0mg"},{"bike_id":"f78ec244-0aef-4b6c-a1be-b01f3523a44d","system_id":"levelo_inurba_marseille","lat":43.2749,"lon":5.42457,"is_reserved":false,"is_disabled":false,"rental_uris":{"android":"levelo://app?vid=f78ec244-0aef-4b6c-a1be-b01f3523a44d","ios":"levelo://app?vid=f78ec244-0aef-4b6c-a1be-b01f3523a44d"},"vehicle_type_id":"4","last_reported":1726571278,"current_range_meters":32800,"station_id":"ce4bhn92rcd13ifvqgrg","pricing_plan_id":"cebpf4jnsgd1na2vs0mg"},{"bike_id":"b71de538-a719-49bb-8773-2331356ccc3c","system_id":"levelo_inurba_marseille","lat":43.32291,"lon":5.38267,"is_reserved":false,"is_disabled":false,"rental_uris":{"android":"levelo://app?vid=b71de538-a719-49bb-8773-2331356ccc3c","ios":"levelo://app?vid=b71de538-a719-49bb-8773-2331356ccc3c"},"vehicle_type_id":"4","last_reported":1726571278,"current_range_meters":38000,"station_id":"ce4bhr12rcd13ifvqhqg","pricing_plan_id":"cebpf4jnsgd1na2vs0mg"},{"bike_id":"31d7628c-a98b-4127-881d-92022a3abc84","system_id":"levelo_inurba_marseille","lat":43.25938,"lon":5.4091,"is_reserved":false,"is_disabled":false,"rental_uris":{"android":"levelo://app?vid=31d7628c-a98b-4127-881d-92022a3abc84","ios":"levelo://app?vid=31d7628c-a98b-4127-881d-92022a3abc84"},"vehicle_type_id":"4","last_reported":1726571278,"current_range_meters":28400,"station_id":"ce4bhm92rcd13ifvqglg","pricing_plan_id":"cebpf4jnsgd1na2vs0mg"},{"bike_id":"a863318a-33d4-4c2b-89af-d99593bdb4d5","system_id":"levelo_inurba_marseille","lat":43.30462,"lon":5.37914,"is_reserved":false,"is_disabled":false,"rental_uris":{"android":"levelo://app?vid=a863318a-33d4-4c2b-89af-d99593bdb4d5","ios":"levelo://app?vid=a863318a-33d4-4c2b-89af-d99593bdb4d5"},"vehicle_type_id":"4","last_reported":1726571278,"current_range_meters":20400,"station_id":"ce4bgup2rcd13ifvqcn0","pricing_plan_id":"cebpf4jnsgd1na2vs0mg"},{"bike_id":"a3dc66ac-ec81-47a5-8dc4-56011c5e10db","system_id":"levelo_inurba_marseille","lat":43.31225,"lon":5.36864,"is_reserved":false,"is_disabled":false,"rental_uris":{"android":"levelo://app?vid=a3dc66ac-ec81-47a5-8dc4-56011c5e10db","ios":"levelo://app?vid=a3dc66ac-ec81-47a5-8dc4-56011c5e10db"},"vehicle_type_id":"4","last_reported":1726571278,"current_range_meters":32800,"station_id":"ce4bgl92rcd13ifvqbq0","pricing_plan_id":"cebpf4jnsgd1na2vs0mg"},{"bike_id":"fb6b2e20-1181-4228-aab7-94d05e809797","system_id":"levelo_inurba_marseille","lat":43.30915,"lon":5.36865,"is_reserved":false,"is_disabled":false,"rental_uris":{"android":"levelo://app?vid=fb6b2e20-1181-4228-aab7-94d05e809797","ios":"levelo://app?vid=fb6b2e20-1181-4228-aab7-94d05e809797"},"vehicle_type_id":"4","last_reported":1726571278,"current_range_meters":38800,"station_id":"ce4bgn92rcd13ifvqbvg","pricing_plan_id":"cebpf4jnsgd1na2vs0mg"},{"bike_id":"2eab0a19-e477-4b6b-a6f2-b022d82d1b38","system_id":"levelo_inurba_marseille","lat":43.29682,"lon":5.37291,"is_reserved":false,"is_disabled":false,"rental_uris":{"android":"levelo://app?vid=2eab0a19-e477-4b6b-a6f2-b022d82d1b38","ios":"levelo://app?vid=2eab0a19-e477-4b6b-a6f2-b022d82d1b38"},"vehicle_type_id":"4","last_reported":1726571278,"current_range_meters":6000,"station_id":"ce4bgk12rcd13ifvqbj0","pricing_plan_id":"cebpf4jnsgd1na2vs0mg"},{"bike_id":"28402a4c-2abe-4568-b563-2e56263fde1c","system_id":"levelo_inurba_marseille","lat":43.26493,"lon":5.39544,"is_reserved":false,"is_disabled":false,"rental_uris":{"android":"levelo://app?vid=28402a4c-2abe-4568-b563-2e56263fde1c","ios":"levelo://app?vid=28402a4c-2abe-4568-b563-2e56263fde1c"},"vehicle_type_id":"4","last_reported":1726571278,"current_range_meters":38800,"station_id":"ce4bhi12rcd13ifvqfq0","pricing_plan_id":"cebpf4jnsgd1na2vs0mg"},{"bike_id":"bb11e736-9a98-4d68-b71f-9421365485ff","system_id":"levelo_inurba_marseille","lat":43.29841,"lon":5.3627,"is_reserved":false,"is_disabled":false,"rental_uris":{"android":"levelo://app?vid=bb11e736-9a98-4d68-b71f-9421365485ff","ios":"levelo://app?vid=bb11e736-9a98-4d68-b71f-9421365485ff"},"vehicle_type_id":"4","last_reported":1726571278,"current_range_meters":23200,"station_id":"ce4bgpp2rcd13ifvqc3g","pricing_plan_id":"cebpf4jnsgd1na2vs0mg"},{"bike_id":"9b85e465-d297-48e5-a7b7-f141387a0e96","system_id":"levelo_inurba_marseille","lat":43.29005,"lon":5.35612,"is_reserved":false,"is_disabled":false,"rental_uris":{"android":"levelo://app?vid=9b85e465-d297-48e5-a7b7-f141387a0e96","ios":"levelo://app?vid=9b85e465-d297-48e5-a7b7-f141387a0e96"},"vehicle_type_id":"4","last_reported":1726571278,"current_range_meters":38800,"station_id":"ce4bhb92rcd13ifvqen0","pricing_plan_id":"cebpf4jnsgd1na2vs0mg"},{"bike_id":"764492cd-7476-4794-9106-061c8cb03c80","system_id":"levelo_inurba_marseille","lat":43.27494,"lon":5.424245,"is_reserved":false,"is_disabled":false,"rental_uris":{"android":"levelo://app?vid=764492cd-7476-4794-9106-061c8cb03c80","ios":"levelo://app?vid=764492cd-7476-4794-9106-061c8cb03c80"},"vehicle_type_id":"4","last_reported":1726571278,"current_range_meters":29600,"station_id":"ce4bhn92rcd13ifvqgrg","pricing_plan_id":"cebpf4jnsgd1na2vs0mg"},{"bike_id":"d050d7b7-e817-42dd-99e2-bc8a4864acf7","system_id":"levelo_inurba_marseille","lat":43.33619,"lon":5.4103,"is_reserved":false,"is_disabled":false,"rental_uris":{"android":"levelo://app?vid=d050d7b7-e817-42dd-99e2-bc8a4864acf7","ios":"levelo://app?vid=d050d7b7-e817-42dd-99e2-bc8a4864acf7"},"vehicle_type_id":"4","last_reported":1726571278,"current_range_meters":38400,"station_id":"ce4bhqh2rcd13ifvqhmg","pricing_plan_id":"cebpf4jnsgd1na2vs0mg"},{"bike_id":"328d45f9-980e-4811-97c0-47d761861509","system_id":"levelo_inurba_marseille","lat":43.29847,"lon":5.37836,"is_reserved":false,"is_disabled":false,"rental_uris":{"android":"levelo://app?vid=328d45f9-980e-4811-97c0-47d761861509","ios":"levelo://app?vid=328d45f9-980e-4811-97c0-47d761861509"},"vehicle_type_id":"4","last_reported":1726571278,"current_range_meters":18000,"station_id":"ce4bgkh2rcd13ifvqbl0","pricing_plan_id":"cebpf4jnsgd1na2vs0mg"},{"bike_id":"e8d27407-7a83-497a-92c2-f6f667ee402a","system_id":"levelo_inurba_marseille","lat":43.27938,"lon":5.41047,"is_reserved":false,"is_disabled":false,"rental_uris":{"android":"levelo://app?vid=e8d27407-7a83-497a-92c2-f6f667ee402a","ios":"levelo://app?vid=e8d27407-7a83-497a-92c2-f6f667ee402a"},"vehicle_type_id":"4","last_reported":1726571278,"current_range_meters":33200,"station_id":"ce4bhnp2rcd13ifvqh0g","pricing_plan_id":"cebpf4jnsgd1na2vs0mg"},{"bike_id":"d84d461a-0f80-4d5c-8030-45ef5ea64552","system_id":"levelo_inurba_marseille","lat":43.26216,"lon":5.3744,"is_reserved":false,"is_disabled":false,"rental_uris":{"android":"levelo://app?vid=d84d461a-0f80-4d5c-8030-45ef5ea64552","ios":"levelo://app?vid=d84d461a-0f80-4d5c-8030-45ef5ea64552"},"vehicle_type_id":"4","last_reported":1726571278,"current_range_meters":38800,"station_id":"ce4bhgp2rcd13ifvqfc0","pricing_plan_id":"cebpf4jnsgd1na2vs0mg"},{"bike_id":"215a2f25-03f9-481e-b07b-1b336f09aee9","system_id":"levelo_inurba_marseille","lat":43.22933,"lon":5.35372,"is_reserved":false,"is_disabled":false,"rental_uris":{"android":"levelo://app?vid=215a2f25-03f9-481e-b07b-1b336f09aee9","ios":"levelo://app?vid=215a2f25-03f9-481e-b07b-1b336f09aee9"},"vehicle_type_id":"4","last_reported":1726571278,"current_range_meters":27200,"station_id":"cpo3532slgdg3j2ikp40","pricing_plan_id":"cebpf4jnsgd1na2vs0mg"},{"bike_id":"00337d7f-40a9-4d5f-9f2d-ca76070ef21f","system_id":"levelo_inurba_marseille","lat":43.28613,"lon":5.35101,"is_reserved":false,"is_disabled":false,"rental_uris":{"android":"levelo://app?vid=00337d7f-40a9-4d5f-9f2d-ca76070ef21f","ios":"levelo://app?vid=00337d7f-40a9-4d5f-9f2d-ca76070ef21f"},"vehicle_type_id":"4","last_reported":1726571278,"current_range_meters":38000,"station_id":"ce4bhch2rcd13ifvqeug","pricing_plan_id":"cebpf4jnsgd1na2vs0mg"},{"bike_id":"fa690805-233a-4a70-a9f3-33f1b67cdb1f","system_id":"levelo_inurba_marseille","lat":43.3228,"lon":5.38265,"is_reserved":false,"is_disabled":false,"rental_uris":{"android":"levelo://app?vid=fa690805-233a-4a70-a9f3-33f1b67cdb1f","ios":"levelo://app?vid=fa690805-233a-4a70-a9f3-33f1b67cdb1f"},"vehicle_type_id":"4","last_reported":1726571278,"current_range_meters":32800,"station_id":"ce4bhr12rcd13ifvqhqg","pricing_plan_id":"cebpf4jnsgd1na2vs0mg"},{"bike_id":"8b608b96-fedf-4511-8d4b-09bad2606e1a","system_id":"levelo_inurba_marseille","lat":43.27728,"lon":5.41131,"is_reserved":false,"is_disabled":false,"rental_uris":{"android":"levelo://app?vid=8b608b96-fedf-4511-8d4b-09bad2606e1a","ios":"levelo://app?vid=8b608b96-fedf-4511-8d4b-09bad2606e1a"},"vehicle_type_id":"4","last_reported":1726571278,"current_range_meters":10000,"station_id":"","pricing_plan_id":"cebpf4jnsgd1na2vs0mg"},{"bike_id":"8b868d28-a202-48c2-859f-8108ffbd75ea","system_id":"levelo_inurba_marseille","lat":43.30609,"lon":5.39364,"is_reserved":false,"is_disabled":false,"rental_uris":{"android":"levelo://app?vid=8b868d28-a202-48c2-859f-8108ffbd75ea","ios":"levelo://app?vid=8b868d28-a202-48c2-859f-8108ffbd75ea"},"vehicle_type_id":"4","last_reported":1726571278,"current_range_meters":11200,"station_id":"ce4bh0p2rcd13ifvqd80","pricing_plan_id":"cebpf4jnsgd1na2vs0mg"},{"bike_id":"2fd20e8c-8e33-413e-9486-26b4cea28154","system_id":"levelo_inurba_marseille","lat":43.32369,"lon":5.38883,"is_reserved":false,"is_disabled":false,"rental_uris":{"android":"levelo://app?vid=2fd20e8c-8e33-413e-9486-26b4cea28154","ios":"levelo://app?vid=2fd20e8c-8e33-413e-9486-26b4cea28154"},"vehicle_type_id":"4","last_reported":1726571278,"current_range_meters":8000,"station_id":"ce4bhqp2rcd13ifvqhog","pricing_plan_id":"cebpf4jnsgd1na2vs0mg"},{"bike_id":"57be3ded-1ee9-42c1-b39d-7196fdda9743","system_id":"levelo_inurba_marseille","lat":43.32291,"lon":5.38268,"is_reserved":false,"is_disabled":false,"rental_uris":{"android":"levelo://app?vid=57be3ded-1ee9-42c1-b39d-7196fdda9743","ios":"levelo://app?vid=57be3ded-1ee9-42c1-b39d-7196fdda9743"},"vehicle_type_id":"4","last_reported":1726571278,"current_range_meters":37600,"station_id":"ce4bhr12rcd13ifvqhqg","pricing_plan_id":"cebpf4jnsgd1na2vs0mg"},{"bike_id":"b514ac0f-1591-4b9e-8f01-3525231324f2","system_id":"levelo_inurba_marseille","lat":43.2717,"lon":5.4099,"is_reserved":false,"is_disabled":false,"rental_uris":{"android":"levelo://app?vid=b514ac0f-1591-4b9e-8f01-3525231324f2","ios":"levelo://app?vid=b514ac0f-1591-4b9e-8f01-3525231324f2"},"vehicle_type_id":"4","last_reported":1726571278,"current_range_meters":13600,"station_id":"ce4bhl12rcd13ifvqgf0","pricing_plan_id":"cebpf4jnsgd1na2vs0mg"},{"bike_id":"0da792f9-3677-4c83-ac78-4693f639ff52","system_id":"levelo_inurba_marseille","lat":43.29529,"lon":5.38541,"is_reserved":false,"is_disabled":false,"rental_uris":{"android":"levelo://app?vid=0da792f9-3677-4c83-ac78-4693f639ff52","ios":"levelo://app?vid=0da792f9-3677-4c83-ac78-4693f639ff52"},"vehicle_type_id":"4","last_reported":1726571278,"current_range_meters":30800,"station_id":"ce4bgih2rcd13ifvqba0","pricing_plan_id":"cebpf4jnsgd1na2vs0mg"},{"bike_id":"61e730aa-2d78-4223-8d22-0fdb934fff14","system_id":"levelo_inurba_marseille","lat":43.28301,"lon":5.38184,"is_reserved":false,"is_disabled":false,"rental_uris":{"android":"levelo://app?vid=61e730aa-2d78-4223-8d22-0fdb934fff14","ios":"levelo://app?vid=61e730aa-2d78-4223-8d22-0fdb934fff14"},"vehicle_type_id":"4","last_reported":1726571278,"current_range_meters":33600,"station_id":"ce4bgop2rcd13ifvqc1g","pricing_plan_id":"cebpf4jnsgd1na2vs0mg"},{"bike_id":"810c08e9-25d5-4256-b6cf-81014015514c","system_id":"levelo_inurba_marseille","lat":43.29007,"lon":5.35607,"is_reserved":false,"is_disabled":false,"rental_uris":{"android":"levelo://app?vid=810c08e9-25d5-4256-b6cf-81014015514c","ios":"levelo://app?vid=810c08e9-25d5-4256-b6cf-81014015514c"},"vehicle_type_id":"4","last_reported":1726571278,"current_range_meters":8000,"station_id":"ce4bhb92rcd13ifvqen0","pricing_plan_id":"cebpf4jnsgd1na2vs0mg"},{"bike_id":"8c9bdf96-35c6-49be-9c44-e19edfe902c1","system_id":"levelo_inurba_marseille","lat":43.32476,"lon":5.36557,"is_reserved":false,"is_disabled":false,"rental_uris":{"android":"levelo://app?vid=8c9bdf96-35c6-49be-9c44-e19edfe902c1","ios":"levelo://app?vid=8c9bdf96-35c6-49be-9c44-e19edfe902c1"},"vehicle_type_id":"4","last_reported":1726571278,"current_range_meters":38800,"station_id":"ce4bhs12rcd13ifvqhvg","pricing_plan_id":"cebpf4jnsgd1na2vs0mg"},{"bike_id":"36aeed49-da71-4106-9676-9768d0b45ee4","system_id":"levelo_inurba_marseille","lat":43.27756,"lon":5.3909,"is_reserved":false,"is_disabled":false,"rental_uris":{"android":"levelo://app?vid=36aeed49-da71-4106-9676-9768d0b45ee4","ios":"levelo://app?vid=36aeed49-da71-4106-9676-9768d0b45ee4"},"vehicle_type_id":"4","last_reported":1726571278,"current_range_meters":24000,"station_id":"","pricing_plan_id":"cebpf4jnsgd1na2vs0mg"},{"bike_id":"a16dd1fd-151a-41ac-98e1-94713420db06","system_id":"levelo_inurba_marseille","lat":43.29038,"lon":5.35908,"is_reserved":false,"is_disabled":false,"rental_uris":{"android":"levelo://app?vid=a16dd1fd-151a-41ac-98e1-94713420db06","ios":"levelo://app?vid=a16dd1fd-151a-41ac-98e1-94713420db06"},"vehicle_type_id":"4","last_reported":1726571278,"current_range_meters":28000,"station_id":"ce4bha92rcd13ifvqeg0","pricing_plan_id":"cebpf4jnsgd1na2vs0mg"},{"bike_id":"39ba97b4-0dd2-4dc7-b3be-633ec4452936","system_id":"levelo_inurba_marseille","lat":43.29926,"lon":5.3654,"is_reserved":false,"is_disabled":false,"rental_uris":{"android":"levelo://app?vid=39ba97b4-0dd2-4dc7-b3be-633ec4452936","ios":"levelo://app?vid=39ba97b4-0dd2-4dc7-b3be-633ec4452936"},"vehicle_type_id":"4","last_reported":1726571278,"current_range_meters":12000,"station_id":"ce4bgm92rcd13ifvqbr0","pricing_plan_id":"cebpf4jnsgd1na2vs0mg"},{"bike_id":"3db06956-c59e-445d-a8c3-bbcc00dc4030","system_id":"levelo_inurba_marseille","lat":43.22932,"lon":5.35378,"is_reserved":false,"is_disabled":false,"rental_uris":{"android":"levelo://app?vid=3db06956-c59e-445d-a8c3-bbcc00dc4030","ios":"levelo://app?vid=3db06956-c59e-445d-a8c3-bbcc00dc4030"},"vehicle_type_id":"4","last_reported":1726571278,"current_range_meters":19200,"station_id":"cpo3532slgdg3j2ikp40","pricing_plan_id":"cebpf4jnsgd1na2vs0mg"},{"bike_id":"4794a437-9232-4ded-ada9-c1413dd4f781","system_id":"levelo_inurba_marseille","lat":43.25937,"lon":5.40895,"is_reserved":false,"is_disabled":false,"rental_uris":{"android":"levelo://app?vid=4794a437-9232-4ded-ada9-c1413dd4f781","ios":"levelo://app?vid=4794a437-9232-4ded-ada9-c1413dd4f781"},"vehicle_type_id":"4","last_reported":1726571278,"current_range_meters":37600,"station_id":"ce4bhm92rcd13ifvqglg","pricing_plan_id":"cebpf4jnsgd1na2vs0mg"},{"bike_id":"6a17dbc5-669f-49b8-907a-20140dfc9536","system_id":"levelo_inurba_marseille","lat":43.31344,"lon":5.36706,"is_reserved":false,"is_disabled":false,"rental_uris":{"android":"levelo://app?vid=6a17dbc5-669f-49b8-907a-20140dfc9536","ios":"levelo://app?vid=6a17dbc5-669f-49b8-907a-20140dfc9536"},"vehicle_type_id":"4","last_reported":1726571278,"current_range_meters":38800,"station_id":"ce4bgr92rcd13ifvqc6g","pricing_plan_id":"cebpf4jnsgd1na2vs0mg"},{"bike_id":"e4ff2716-efaa-4292-b77b-693be63bb373","system_id":"levelo_inurba_marseille","lat":43.23199,"lon":5.35552,"is_reserved":false,"is_disabled":false,"rental_uris":{"android":"levelo://app?vid=e4ff2716-efaa-4292-b77b-693be63bb373","ios":"levelo://app?vid=e4ff2716-efaa-4292-b77b-693be63bb373"},"vehicle_type_id":"4","last_reported":1726571278,"current_range_meters":36800,"station_id":"ce4bhu92rcd13ifvqi70","pricing_plan_id":"cebpf4jnsgd1na2vs0mg"},{"bike_id":"53b3d481-1eb6-4835-8542-14432fea4de8","system_id":"levelo_inurba_marseille","lat":43.33026,"lon":5.3903,"is_reserved":false,"is_disabled":false,"rental_uris":{"android":"levelo://app?vid=53b3d481-1eb6-4835-8542-14432fea4de8","ios":"levelo://app?vid=53b3d481-1eb6-4835-8542-14432fea4de8"},"vehicle_type_id":"4","last_reported":1726571278,"current_range_meters":39200,"station_id":"ce4bhr92rcd13ifvqhrg","pricing_plan_id":"cebpf4jnsgd1na2vs0mg"},{"bike_id":"9ff17fa9-e34e-497c-b6c4-0fe62a198728","system_id":"levelo_inurba_marseille","lat":43.23966,"lon":5.36632,"is_reserved":false,"is_disabled":false,"rental_uris":{"android":"levelo://app?vid=9ff17fa9-e34e-497c-b6c4-0fe62a198728","ios":"levelo://app?vid=9ff17fa9-e34e-497c-b6c4-0fe62a198728"},"vehicle_type_id":"4","last_reported":1726571278,"current_range_meters":39200,"station_id":"ce4bhi12rcd13ifvqfp0","pricing_plan_id":"cebpf4jnsgd1na2vs0mg"},