{"last_updated":1730535094,"ttl":60,"version":"2.2","data":{"bikes":[{"bike_id":"0c6602e3-5aca-43f3-be0a-a038da8eb8c2","system_id":"levelo_inurba_marseille","lat":43.24179,"lon":5.39741,"is_reserved":false,"is_disabled":false,"rental_uris":{"android":"levelo://app?vid=0c6602e3-5aca-43f3-be0a-a038da8eb8c2","ios":"levelo://app?vid=0c6602e3-5aca-43f3-be0a-a038da8eb8c2"},"vehicle_type_id":"4","last_reported":1730535095,"current_range_meters":12400,"station_id":"ce4bhn12rcd13ifvqgpg","pricing_plan_id":"cebpf4jnsgd1na2vs0mg"},{"bike_id":"1100e5a9-b924-4d01-8a4c-246bee3d586b","system_id":"levelo_inurba_marseille","lat":43.24696,"lon":5.41512,"is_reserved":false,"is_disabled":false,"rental_uris":{"android":"levelo://app?vid=1100e5a9-b924-4d01-8a4c-246bee3d586b","ios":"levelo://app?vid=1100e5a9-b924-4d01-8a4c-246bee3d586b"},"vehicle_type_id":"4","last_reported":1730535095,"current_range_meters":4800,"station_id":"","pricing_plan_id":"cebpf4jnsgd1na2vs0mg"},{"bike_id":"48f687da-824f-4872-94b4-66dc956b9a16","system_id":"levelo_inurba_marseille","lat":43.31275,"lon":5.4017,"is_reserved":false,"is_disabled":false,"rental_uris":{"android":"levelo://app?vid=48f687da-824f-4872-94b4-66dc956b9a16","ios":"levelo://app?vid=48f687da-824f-4872-94b4-66dc956b9a16"},"vehicle_type_id":"4","last_reported":1730535095,"current_range_meters":27600,"station_id":"ce4bh092rcd13ifvqd30","pricing_plan_id":"cebpf4jnsgd1na2vs0mg"},{"bike_id":"8edb629f-9edb-4e6d-8453-3a06eb0fc1e0","system_id":"levelo_inurba_marseille","lat":43.24669,"lon":5.38169,"is_reserved":false,"is_disabled":false,"rental_uris":{"android":"levelo://app?vid=8edb629f-9edb-4e6d-8453-3a06eb0fc1e0","ios":"levelo://app?vid=8edb629f-9edb-4e6d-8453-3a06eb0fc1e0"},"vehicle_type_id":"4","last_reported":1730535095,"current_range_meters":29600,"station_id":"ce4bhih2rcd13ifvqfr0","pricing_plan_id":"cebpf4jnsgd1na2vs0mg"},{"bike_id":"fb29093b-f2cf-4386-a4f0-84965008c68b","system_id":"levelo_inurba_marseille","lat":43.31119,"lon":5.37765,"is_reserved":false,"is_disabled":false,"rental_uris":{"android":"levelo://app?vid=fb29093b-f2cf-4386-a4f0-84965008c68b","ios":"levelo://app?vid=fb29093b-f2cf-4386-a4f0-84965008c68b"},"vehicle_type_id":"4","last_reported":1730535095,"current_range_meters":34800,"station_id":"ce4bgt92rcd13ifvqcg0","pricing_plan_id":"cebpf4jnsgd1na2vs0mg"},{"bike_id":"496dc57b-9c4f-44b8-bde7-1e38c94bc5d8","system_id":"levelo_inurba_marseille","lat":43.25862,"lon":5.39906,"is_reserved":false,"is_disabled":false,"rental_uris":{"android":"levelo://app?vid=496dc57b-9c4f-44b8-bde7-1e38c94bc5d8","ios":"levelo://app?vid=496dc57b-9c4f-44b8-bde7-1e38c94bc5d8"},"vehicle_type_id":"4","last_reported":1730535095,"current_range_meters":30000,"station_id":"ce4bhl92rcd13ifvqghg","pricing_plan_id":"cebpf4jnsgd1na2vs0mg"},{"bike_id":"53361ed5-44e3-4331-b1db-d839ce43605d","system_id":"levelo_inurba_marseille","lat":43.32656,"lon":5.40986,"is_reserved":false,"is_disabled":false,"rental_uris":{"android":"levelo://app?vid=53361ed5-44e3-4331-b1db-d839ce43605d","ios":"levelo://app?vid=53361ed5-44e3-4331-b1db-d839ce43605d"},"vehicle_type_id":"4","last_reported":1730535095,"current_range_meters":8800,"station_id":"ce4bhpp2rcd13ifvqhgg","pricing_plan_id":"cebpf4jnsgd1na2vs0mg"},{"bike_id":"8682c02d-b75e-4986-bf40-c0b0cf6578e7","system_id":"levelo_inurba_marseille","lat":43.32105,"lon":5.36778,"is_reserved":false,"is_disabled":false,"rental_uris":{"android":"levelo://app?vid=8682c02d-b75e-4986-bf40-c0b0cf6578e7","ios":"levelo://app?vid=8682c02d-b75e-4986-bf40-c0b0cf6578e7"},"vehicle_type_id":"4","last_reported":1730535095,"current_range_meters":38400,"station_id":"ce4bhrh2rcd13ifvqhug","pricing_plan_id":"cebpf4jnsgd1na2vs0mg"},{"bike_id":"dbd026cc-4570-4761-bfa1-68dae00b3a97","system_id":"levelo_inurba_marseille","lat":43.30542,"lon":5.36553,"is_reserved":false,"is_disabled":false,"rental_uris":{"android":"levelo://app?vid=dbd026cc-4570-4761-bfa1-68dae00b3a97","ios":"levelo://app?vid=dbd026cc-4570-4761-bfa1-68dae00b3a97"},"vehicle_type_id":"4","last_reported":1730535095,"current_range_meters":37600,"station_id":"ce4bgs12rcd13ifvqcag","pricing_plan_id":"cebpf4jnsgd1na2vs0mg"},{"bike_id":"53a75884-854d-49c5-8435-314d0a0ce3f0","system_id":"levelo_inurba_marseille","lat":43.3043,"lon":5.38896,"is_reserved":false,"is_disabled":false,"rental_uris":{"android":"levelo://app?vid=53a75884-854d-49c5-8435-314d0a0ce3f0","ios":"levelo://app?vid=53a75884-854d-49c5-8435-314d0a0ce3f0"},"vehicle_type_id":"4","last_reported":1730535095,"current_range_meters":38000,"station_id":"ce4bgk12rcd13ifvqbi0","pricing_plan_id":"cebpf4jnsgd1na2vs0mg"},{"bike_id":"e4750462-1b38-40ef-8446-3a53ba5ee8d3","system_id":"levelo_inurba_marseille","lat":43.30092,"lon":5.39072,"is_reserved":false,"is_disabled":false,"rental_uris":{"android":"levelo://app?vid=e4750462-1b38-40ef-8446-3a53ba5ee8d3","ios":"levelo://app?vid=e4750462-1b38-40ef-8446-3a53ba5ee8d3"},"vehicle_type_id":"4","last_reported":1730535095,"current_range_meters":28400,"station_id":"ce4bh192rcd13ifvqdb0","pricing_plan_id":"cebpf4jnsgd1na2vs0mg"},{"bike_id":"ae2ccb33-795f-44d2-a6c0-9c58090a88ce","system_id":"levelo_inurba_marseille","lat":43.24383,"lon":5.37053,"is_reserved":false,"is_disabled":false,"rental_uris":{"android":"levelo://app?vid=ae2ccb33-795f-44d2-a6c0-9c58090a88ce","ios":"levelo://app?vid=ae2ccb33-795f-44d2-a6c0-9c58090a88ce"},"vehicle_type_id":"4","last_reported":1730535095,"current_range_meters":32400,"station_id":"ce4bhhh2rcd13ifvqfk0","pricing_plan_id":"cebpf4jnsgd1na2vs0mg"},{"bike_id":"da4b1b9f-a552-4935-bde7-5d2e3f226f86","system_id":"levelo_inurba_marseille","lat":43.29555,"lon":5.42288,"is_reserved":false,"is_disabled":false,"rental_uris":{"android":"levelo://app?vid=da4b1b9f-a552-4935-bde7-5d2e3f226f86","ios":"levelo://app?vid=da4b1b9f-a552-4935-bde7-5d2e3f226f86"},"vehicle_type_id":"4","last_reported":1730535095,"current_range_meters":38800,"station_id":"ce4bhph2rcd13ifvqhdg","pricing_plan_id":"cebpf4jnsgd1na2vs0mg"},{"bike_id":"b46f1536-9668-4958-9926-bdb7af8ef666","system_id":"levelo_inurba_marseille","lat":43.31877,"lon":5.4074,"is_reserved":false,"is_disabled":false,"rental_uris":{"android":"levelo://app?vid=b46f1536-9668-4958-9926-bdb7af8ef666","ios":"levelo://app?vid=b46f1536-9668-4958-9926-bdb7af8ef666"},"vehicle_type_id":"4","last_reported":1730535095,"current_range_meters":37600,"station_id":"ce4bhq12rcd13ifvqhig","pricing_plan_id":"cebpf4jnsgd1na2vs0mg"},{"bike_id":"01247e72-d93d-44bb-a492-b9bb7634f5bf","system_id":"levelo_inurba_marseille","lat":43.31168,"lon":5.38712,"is_reserved":false,"is_disabled":false,"rental_uris":{"android":"levelo://app?vid=01247e72-d93d-44bb-a492-b9bb7634f5bf","ios":"levelo://app?vid=01247e72-d93d-44bb-a492-b9bb7634f5bf"},"vehicle_type_id":"4","last_reported":1730535095,"current_range_meters":37600,"station_id":"ce4bgv12rcd13ifvqcp0","pricing_plan_id":"cebpf4jnsgd1na2vs0mg"},{"bike_id":"fb7f8183-7447-4baa-b80d-313056d35dd4","system_id":"levelo_inurba_marseille","lat":43.25729,"lon":5.41107,"is_reserved":false,"is_disabled":false,"rental_uris":{"android":"levelo://app?vid=fb7f8183-7447-4baa-b80d-313056d35dd4","ios":"levelo://app?vid=fb7f8183-7447-4baa-b80d-313056d35dd4"},"vehicle_type_id":"4","last_reported":1730535095,"current_range_meters":38400,"station_id":"ce4bhkp2rcd13ifvqgd0","pricing_plan_id":"cebpf4jnsgd1na2vs0mg"},{"bike_id":"62a01b41-421a-4dd3-8d6d-c5a21c22ce3e","system_id":"levelo_inurba_marseille","lat":43.27561,"lon":5.38429,"is_reserved":false,"is_disabled":false,"rental_uris":{"android":"levelo://app?vid=62a01b41-421a-4dd3-8d6d-c5a21c22ce3e","ios":"levelo://app?vid=62a01b41-421a-4dd3-8d6d-c5a21c22ce3e"},"vehicle_type_id":"4","last_reported":1730535095,"current_range_meters":28400,"station_id":"ce4bhh92rcd13ifvqfi0","pricing_plan_id":"cebpf4jnsgd1na2vs0mg"},{"bike_id":"512c4bd5-3edb-49b7-a54a-bbe327a08aa0","system_id":"levelo_inurba_marseille","lat":43.25729,"lon":5.41099,"is_reserved":false,"is_disabled":false,"rental_uris":{"android":"levelo://app?vid=512c4bd5-3edb-49b7-a54a-bbe327a08aa0","ios":"levelo://app?vid=512c4bd5-3edb-49b7-a54a-bbe327a08aa0"},"vehicle_type_id":"4","last_reported":1730535095,"current_range_meters":22800,"station_id":"ce4bhkp2rcd13ifvqgd0","pricing_plan_id":"cebpf4jnsgd1na2vs0mg"},{"bike_id":"a4627486-a087-47d1-bdea-e9476cd49986","system_id":"levelo_inurba_marseille","lat":43.23196,"lon":5.3555,"is_reserved":false,"is_disabled":false,"rental_uris":{"android":"levelo://app?vid=a4627486-a087-47d1-bdea-e9476cd49986","ios":"levelo://app?vid=a4627486-a087-47d1-bdea-e9476cd49986"},"vehicle_type_id":"4","last_reported":1730535095,"current_range_meters":28000,"station_id":"ce4bhu92rcd13ifvqi70","pricing_plan_id":"cebpf4jnsgd1na2vs0mg"},{"bike_id":"6f77ad84-d1e9-4926-90a4-095eb3e8ffcb","system_id":"levelo_inurba_marseille","lat":43.31167,"lon":5.38717,"is_reserved":false,"is_disabled":false,"rental_uris":{"android":"levelo://app?vid=6f77ad84-d1e9-4926-90a4-095eb3e8ffcb","ios":"levelo://app?vid=6f77ad84-d1e9-4926-90a4-095eb3e8ffcb"},"vehicle_type_id":"4","last_reported":1730535095,"current_range_meters":25200,"station_id":"ce4bgv12rcd13ifvqcp0","pricing_plan_id":"cebpf4jnsgd1na2vs0mg"},{"bike_id":"509a9bdc-ca48-4855-8040-748bb9b3087b","system_id":"levelo_inurba_marseille","lat":43.25934,"lon":5.409,"is_reserved":false,"is_disabled":false,"rental_uris":{"android":"levelo://app?vid=509a9bdc-ca48-4855-8040-748bb9b3087b","ios":"levelo://app?vid=509a9bdc-ca48-4855-8040-748bb9b3087b"},"vehicle_type_id":"4","last_reported":1730535095,"current_range_meters":22000,"station_id":"ce4bhm92rcd13ifvqglg","pricing_plan_id":"cebpf4jnsgd1na2vs0mg"},{"bike_id":"437e4bd3-fd16-4385-bde5-eb0551d338b8","system_id":"levelo_inurba_marseille","lat":43.25002,"lon":5.38922,"is_reserved":false,"is_disabled":false,"rental_uris":{"android":"levelo://app?vid=437e4bd3-fd16-4385-bde5-eb0551d338b8","ios":"levelo://app?vid=437e4bd3-fd16-4385-bde5-eb0551d338b8"},"vehicle_type_id":"4","last_reported":1730535095,"current_range_meters":17200,"station_id":"ce4bhgp2rcd13ifvqfd0","pricing_plan_id":"cebpf4jnsgd1na2vs0mg"},{"bike_id":"c6b919ac-729f-4bb3-8ae8-188bdfc3cd3a","system_id":"levelo_inurba_marseille","lat":43.27177,"lon":5.4099,"is_reserved":false,"is_disabled":false,"rental_uris":{"android":"levelo://app?vid=c6b919ac-729f-4bb3-8ae8-188bdfc3cd3a","ios":"levelo://app?vid=c6b919ac-729f-4bb3-8ae8-188bdfc3cd3a"},"vehicle_type_id":"4","last_reported":1730535095,"current_range_meters":29600,"station_id":"ce4bhl12rcd13ifvqgf0","pricing_plan_id":"cebpf4jnsgd1na2vs0mg"},{"bike_id":"afcf058f-7c8d-4d4b-aef1-f8b80ff55cb5","system_id":"levelo_inurba_marseille","lat":43.303,"lon":5.36907,"is_reserved":false,"is_disabled":false,"rental_uris":{"android":"levelo://app?vid=afcf058f-7c8d-4d4b-aef1-f8b80ff55cb5","ios":"levelo://app?vid=afcf058f-7c8d-4d4b-aef1-f8b80ff55cb5"},"vehicle_type_id":"4","last_reported":1730535095,"current_range_meters":38800,"station_id":"ce4bgqh2rcd13ifvqc5g","pricing_plan_id":"cebpf4jnsgd1na2vs0mg"},{"bike_id":"3a758925-ff45-4c49-b4ee-de6c8fbb558b","system_id":"levelo_inurba_marseille","lat":43.25114,"lon":5.4033,"is_reserved":false,"is_disabled":false,"rental_uris":{"android":"levelo://app?vid=3a758925-ff45-4c49-b4ee-de6c8fbb558b","ios":"levelo://app?vid=3a758925-ff45-4c49-b4ee-de6c8fbb558b"},"vehicle_type_id":"4","last_reported":1730535095,"current_range_meters":4000,"station_id":"ce4bhlh2rcd13ifvqgig","pricing_plan_id":"cebpf4jnsgd1na2vs0mg"},{"bike_id":"efbe383f-83c6-4df5-ac1f-ffa8f2e0197b","system_id":"levelo_inurba_marseille","lat":43.31333,"lon":5.39704,"is_reserved":false,"is_disabled":false,"rental_uris":{"android":"levelo://app?vid=efbe383f-83c6-4df5-ac1f-ffa8f2e0197b","ios":"levelo://app?vid=efbe383f-83c6-4df5-ac1f-ffa8f2e0197b"},"vehicle_type_id":"4","last_reported":1730535095,"current_range_meters":5600,"station_id":"ce4bgvp2rcd13ifvqcu0","pricing_plan_id":"cebpf4jnsgd1na2vs0mg"},{"bike_id":"6aee0ce1-c7a0-45e8-a515-069ca31b3763","system_id":"levelo_inurba_marseille","lat":43.25733,"lon":5.41107,"is_reserved":false,"is_disabled":false,"rental_uris":{"android":"levelo://app?vid=6aee0ce1-c7a0-45e8-a515-069ca31b3763","ios":"levelo://app?vid=6aee0ce1-c7a0-45e8-a515-069ca31b3763"},"vehicle_type_id":"4","last_reported":1730535095,"current_range_meters":38400,"station_id":"ce4bhkp2rcd13ifvqgd0","pricing_plan_id":"cebpf4jnsgd1na2vs0mg"},{"bike_id":"1586e445-a9a1-4791-922c-55fb02dcbcb9","system_id":"levelo_inurba_marseille","lat":43.308023,"lon":5.435257,"is_reserved":false,"is_disabled":false,"rental_uris":{"android":"levelo://app?vid=1586e445-a9a1-4791-922c-55fb02dcbcb9","ios":"levelo://app?vid=1586e445-a9a1-4791-922c-55fb02dcbcb9"},"vehicle_type_id":"4","last_reported":1730535095,"current_range_meters":38400,"station_id":"ce4bhph2rcd13ifvqheg","pricing_plan_id":"cebpf4jnsgd1na2vs0mg"},{"bike_id":"c368d0bc-b01f-4385-a5cb-f8e1caa1eaf3","system_id":"levelo_inurba_marseille","lat":43.30431,"lon":5.39743,"is_reserved":false,"is_disabled":false,"rental_uris":{"android":"levelo://app?vid=c368d0bc-b01f-4385-a5cb-f8e1caa1eaf3","ios":"levelo://app?vid=c368d0bc-b01f-4385-a5cb-f8e1caa1eaf3"},"vehicle_type_id":"4","last_reported":1730535095,"current_range_meters":31200,"station_id":"ce4bh092rcd13ifvqd20","pricing_plan_id":"cebpf4jnsgd1na2vs0mg"},{"bike_id":"09975cdf-abcd-414e-a4e4-7a0e2a69d702","system_id":"levelo_inurba_marseille","lat":43.30207,"lon":5.39462,"is_reserved":false,"is_disabled":false,"rental_uris":{"android":"levelo://app?vid=09975cdf-abcd-414e-a4e4-7a0e2a69d702","ios":"levelo://app?vid=09975cdf-abcd-414e-a4e4-7a0e2a69d702"},"vehicle_type_id":"4","last_reported":1730535095,"current_range_meters":34000,"station_id":"ce4bh0p2rcd13ifvqd70","pricing_plan_id":"cebpf4jnsgd1na2vs0mg"},{"bike_id":"d2896018-51ec-47f9-bd36-7737b82f546d","system_id":"levelo_inurba_marseille","lat":43.31492,"lon":5.37303,"is_reserved":false,"is_disabled":false,"rental_uris":{"android":"levelo://app?vid=d2896018-51ec-47f9-bd36-7737b82f546d","ios":"levelo://app?vid=d2896018-51ec-47f9-bd36-7737b82f546d"},"vehicle_type_id":"4","last_reported":1730535095,"current_range_meters":38000,"station_id":"ce4bgt12rcd13ifvqcd0","pricing_plan_id":"cebpf4jnsgd1na2vs0mg"},{"bike_id":"f6f5ff48-73d0-4007-85dc-6b447c53b499","system_id":"levelo_inurba_marseille","lat":43.296393,"lon":5.377009,"is_reserved":false,"is_disabled":false,"rental_uris":{"android":"levelo://app?vid=f6f5ff48-73d0-4007-85dc-6b447c53b499","ios":"levelo://app?vid=f6f5ff48-73d0-4007-85dc-6b447c53b499"},"vehicle_type_id":"4","last_reported":1730535095,"current_range_meters":35600,"station_id":"ce4bgi92rcd13ifvqb90","pricing_plan_id":"cebpf4jnsgd1na2vs0mg"},{"bike_id":"9b50e853-0c2f-402a-9edc-493d94c176f6","system_id":"levelo_inurba_marseille","lat":43.29574,"lon":5.37507,"is_reserved":false,"is_disabled":false,"rental_uris":{"android":"levelo://app?vid=9b50e853-0c2f-402a-9edc-493d94c176f6","ios":"levelo://app?vid=9b50e853-0c2f-402a-9edc-493d94c176f6"},"vehicle_type_id":"4","last_reported":1730535095,"current_range_meters":25600,"station_id":"ce4bgh92rcd13ifvqb50","pricing_plan_id":"cebpf4jnsgd1na2vs0mg"},{"bike_id":"4f0de445-15e8-4d4f-b6cb-dd85cf93ce95","system_id":"levelo_inurba_marseille","lat":43.2984,"lon":5.36272,"is_reserved":false,"is_disabled":false,"rental_uris":{"android":"levelo://app?vid=4f0de445-15e8-4d4f-b6cb-dd85cf93ce95","ios":"levelo://app?vid=4f0de445-15e8-4d4f-b6cb-dd85cf93ce95"},"vehicle_type_id":"4","last_reported":1730535095,"current_range_meters":39200,"station_id":"ce4bgpp2rcd13ifvqc3g","pricing_plan_id":"cebpf4jnsgd1na2vs0mg"},{"bike_id":"299e3efd-4d92-44c1-bd7d-f404d4de5970","system_id":"levelo_inurba_marseille","lat":43.2957,"lon":5.37526,"is_reserved":false,"is_disabled":false,"rental_uris":{"android":"levelo://app?vid=299e3efd-4d92-44c1-bd7d-f404d4de5970","ios":"levelo://app?vid=299e3efd-4d92-44c1-bd7d-f404d4de5970"},"vehicle_type_id":"4","last_reported":1730535095,"current_range_meters":39200,"station_id":"ce4bgh92rcd13ifvqb50","pricing_plan_id":"cebpf4jnsgd1na2vs0mg"},{"bike_id":"edca092e-20e6-4b3a-92ed-c251139159af","system_id":"levelo_inurba_marseille","lat":43.30408,"lon":5.39764,"is_reserved":false,"is_disabled":false,"rental_uris":{"android":"levelo://app?vid=edca092e-20e6-4b3a-92ed-c251139159af","ios":"levelo://app?vid=edca092e-20e6-4b3a-92ed-c251139159af"},"vehicle_type_id":"4","last_reported":1730535095,"current_range_meters":36400,"station_id":"ce4bh092rcd13ifvqd20","pricing_plan_id":"cebpf4jnsgd1na2vs0mg"},{"bike_id":"35899c9a-01eb-4f85-bc4b-c14d5912c2f3","system_id":"levelo_inurba_marseille","lat":43.30131,"lon":5.39862,"is_reserved":false,"is_disabled":false,"rental_uris":{"android":"levelo://app?vid=35899c9a-01eb-4f85-bc4b-c14d5912c2f3","ios":"levelo://app?vid=35899c9a-01eb-4f85-bc4b-c14d5912c2f3"},"vehicle_type_id":"4","last_reported":1730535095,"current_range_meters":34800,"station_id":"ce4bh0h2rcd13ifvqd40","pricing_plan_id":"cebpf4jnsgd1na2vs0mg"},{"bike_id":"dda0e212-4309-4695-9f60-11cac500acd1","system_id":"levelo_inurba_marseille","lat":43.30435,"lon":5.38905,"is_reserved":false,"is_disabled":false,"rental_uris":{"android":"levelo://app?vid=dda0e212-4309-4695-9f60-11cac500acd1","ios":"levelo://app?vid=dda0e212-4309-4695-9f60-11cac500acd1"},"vehicle_type_id":"4","last_reported":1730535095,"current_range_meters":37600,"station_id":"ce4bgk12rcd13ifvqbi0","pricing_plan_id":"cebpf4jnsgd1na2vs0mg"},{"bike_id":"baf8c7ce-3a6e-4c06-82d2-9b1054b6dc5b","system_id":"levelo_inurba_marseille","lat":43.31076,"lon":5.38376,"is_reserved":false,"is_disabled":false,"rental_uris":{"android":"levelo://app?vid=baf8c7ce-3a6e-4c06-82d2-9b1054b6dc5b","ios":"levelo://app?vid=baf8c7ce-3a6e-4c06-82d2-9b1054b6dc5b"},"vehicle_type_id":"4","last_reported":1730535095,"current_range_meters":25600,"station_id":"ce4bgv92rcd13ifvqcr0","pricing_plan_id":"cebpf4jnsgd1na2vs0mg"},{"bike_id":"5a520c49-8f1e-4ff9-9e7c-7a0873dee110","system_id":"levelo_inurba_marseille","lat":43.28454,"lon":5.3588,"is_reserved":false,"is_disabled":false,"rental_uris":{"android":"levelo://app?vid=5a520c49-8f1e-4ff9-9e7c-7a0873dee110","ios":"levelo://app?vid=5a520c49-8f1e-4ff9-9e7c-7a0873dee110"},"vehicle_type_id":"4","last_reported":1730535095,"current_range_meters":3200,"station_id":"ce4bhah2rcd13ifvqei0","pricing_plan_id":"cebpf4jnsgd1na2vs0mg"},{"bike_id":"4109850f-6033-4b57-af3f-cfd0f5a4e9a0","system_id":"levelo_inurba_marseille","lat":43.282649,"lon":5.350787,"is_reserved":false,"is_disabled":false,"rental_uris":{"android":"levelo://app?vid=4109850f-6033-4b57-af3f-cfd0f5a4e9a0","ios":"levelo://app?vid=4109850f-6033-4b57-af3f-cfd0f5a4e9a0"},"vehicle_type_id":"4","last_reported":1730535095,"current_range_meters":34000,"station_id":"ce4bhbp2rcd13ifvqerg","pricing_plan_id":"cebpf4jnsgd1na2vs0mg"},{"bike_id":"0101f80a-f8f4-44bc-955f-cd8a22de3709","system_id":"levelo_inurba_marseille","lat":43.3078,"lon":5.37663,"is_reserved":false,"is_disabled":false,"rental_uris":{"android":"levelo://app?vid=0101f80a-f8f4-44bc-955f-cd8a22de3709","ios":"levelo://app?vid=0101f80a-f8f4-44bc-955f-cd8a22de3709"},"vehicle_type_id":"4","last_reported":1730535095,"current_range_meters":38800,"station_id":"ce4bgv92rcd13ifvqcq0","pricing_plan_id":"cebpf4jnsgd1na2vs0mg"},{"bike_id":"8ac4f741-2911-42d6-a00a-51cf057a7d47","system_id":"levelo_inurba_marseille","lat":43.27494,"lon":5.42451,"is_reserved":false,"is_disabled":false,"rental_uris":{"android":"levelo://app?vid=8ac4f741-2911-42d6-a00a-51cf057a7d47","ios":"levelo://app?vid=8ac4f741-2911-42d6-a00a-51cf057a7d47"},"vehicle_type_id":"4","last_reported":1730535095,"current_range_meters":38000,"station_id":"ce4bhn92rcd13ifvqgrg","pricing_plan_id":"cebpf4jnsgd1na2vs0mg"},{"bike_id":"1fb673db-cdb4-4577-bbb1-5a1baeff033c","system_id":"levelo_inurba_marseille","lat":43.31167,"lon":5.38726,"is_reserved":false,"is_disabled":false,"rental_uris":{"android":"levelo://app?vid=1fb673db-cdb4-4577-bbb1-5a1baeff033c","ios":"levelo://app?vid=1fb673db-cdb4-4577-bbb1-5a1baeff033c"},"vehicle_type_id":"4","last_reported":1730535095,"current_range_meters":33600,"station_id":"ce4bgv12rcd13ifvqcp0","pricing_plan_id":"cebpf4jnsgd1na2vs0mg"},{"bike_id":"ae1ea399-3b98-4978-9ac6-e0026993047b","system_id":"levelo_inurba_marseille","lat":43.23151,"lon":5.43713,"is_reserved":false,"is_disabled":false,"rental_uris":{"android":"levelo://app?vid=ae1ea399-3b98-4978-9ac6-e0026993047b","ios":"levelo://app?vid=ae1ea399-3b98-4978-9ac6-e0026993047b"},"vehicle_type_id":"4","last_reported":1730535095,"current_range_meters":24800,"station_id":"ce4bhmp2rcd13ifvqgog","pricing_plan_id":"cebpf4jnsgd1na2vs0mg"},{"bike_id":"dccc613c-7c9d-44fc-9625-47ccbc365073","system_id":"levelo_inurba_marseille","lat":43.27487,"lon":5.4246,"is_reserved":false,"is_disabled":false,"rental_uris":{"android":"levelo://app?vid=dccc613c-7c9d-44fc-9625-47ccbc365073","ios":"levelo://app?vid=dccc613c-7c9d-44fc-9625-47ccbc365073"},"vehicle_type_id":"4","last_reported":1730535095,"current_range_meters":36400,"station_id":"ce4bhn92rcd13ifvqgrg","pricing_plan_id":"cebpf4jnsgd1na2vs0mg"},{"bike_id":"adfaff32-5e7d-44dd-a6ad-3322d753e148","system_id":"levelo_inurba_marseille","lat":43.287062,"lon":5.399862,"is_reserved":false,"is_disabled":false,"rental_uris":{"android":"levelo://app?vid=adfaff32-5e7d-44dd-a6ad-3322d753e148","ios":"levelo://app?vid=adfaff32-5e7d-44dd-a6ad-3322d753e148"},"vehicle_type_id":"4","last_reported":1730535095,"current_range_meters":16000,"station_id":"ce4bho92rcd13ifvqh3g","pricing_plan_id":"cebpf4jnsgd1na2vs0mg"},{"bike_id":"33c513c1-0c30-413c-9d3b-35dd29a13d6f","system_id":"levelo_inurba_marseille","lat":43.31698,"lon":5.40469,"is_reserved":false,"is_disabled":false,"rental_uris":{"android":"levelo://app?vid=33c513c1-0c30-413c-9d3b-35dd29a13d6f","ios":"levelo://app?vid=33c513c1-0c30-413c-9d3b-35dd29a13d6f"},"vehicle_type_id":"4","last_reported":1730535095,"current_range_meters":40000,"station_id":"ce4bh012rcd13ifvqd00","pricing_plan_id":"cebpf4jnsgd1na2vs0mg"},{"bike_id":"90f0cabd-ec2c-4869-a68e-3fa606f04d51","system_id":"levelo_inurba_marseille","lat":43.28842,"lon":5.39309,"is_reserved":false,"is_disabled":false,"rental_uris":{"android":"levelo://app?vid=90f0cabd-ec2c-4869-a68e-3fa606f04d51","ios":"levelo://app?vid=90f0cabd-ec2c-4869-a68e-3fa606f04d51"},"vehicle_type_id":"4","last_reported":1730535095,"current_range_meters":38800,"station_id":"ce4bh2p2rcd13ifvqdi0","pricing_plan_id":"cebpf4jnsgd1na2vs0mg"},{"bike_id":"ef71a38e-b485-4656-9d28-cdd95fa91cf3","system_id":"levelo_inurba_marseille","lat":43.26556,"lon":5.39019,"is_reserved":false,"is_disabled":false,"rental_uris":{"android":"levelo://app?vid=ef71a38e-b485-4656-9d28-cdd95fa91cf3","ios":"levelo://app?vid=ef71a38e-b485-4656-9d28-cdd95fa91cf3"},"vehicle_type_id":"4","last_reported":1730535095,"current_range_meters":38000,"station_id":"ce4bhe12rcd13ifvqf30","pricing_plan_id":"cebpf4jnsgd1na2vs0mg"},{"bike_id":"ba46dae7-0370-4bb5-8fd9-aede5d6b0507","system_id":"levelo_inurba_marseille","lat":43.30428,"lon":5.38892,"is_reserved":false,"is_disabled":false,"rental_uris":{"android":"levelo://app?vid=ba46dae7-0370-4bb5-8fd9-aede5d6b0507","ios":"levelo://app?vid=ba46dae7-0370-4bb5-8fd9-aede5d6b0507"},"vehicle_type_id":"4","last_reported":1730535095,"current_range_meters":38800,"station_id":"ce4bgk12rcd13ifvqbi0","pricing_plan_id":"cebpf4jnsgd1na2vs0mg"},{"bike_id":"cdd05299-4bda-4d93-b7aa-87ec00718ef1","system_id":"levelo_inurba_marseille","lat":43.28575,"lon":5.39503,"is_reserved":false,"is_disabled":false,"rental_uris":{"android":"levelo://app?vid=cdd05299-4bda-4d93-b7aa-87ec00718ef1","ios":"levelo://app?vid=cdd05299-4bda-4d93-b7aa-87ec00718ef1"},"vehicle_type_id":"4","last_reported":1730535095,"current_range_meters":34800,"station_id":"ce4bh292rcd13ifvqdg0","pricing_plan_id":"cebpf4jnsgd1na2vs0mg"},{"bike_id":"d21e1bab-835f-458c-a7f7-73b2ff730af8","system_id":"levelo_inurba_marseille","lat":43.290649,"lon":5.372165,"is_reserved":false,"is_disabled":false,"rental_uris":{"android":"levelo://app?vid=d21e1bab-835f-458c-a7f7-73b2ff730af8","ios":"levelo://app?vid=d21e1bab-835f-458c-a7f7-73b2ff730af8"},"vehicle_type_id":"4","last_reported":1730535095,"current_range_meters":25200,"station_id":"ce4bh5p2rcd13ifvqe4g","pricing_plan_id":"cebpf4jnsgd1na2vs0mg"},{"bike_id":"7d801467-fce3-48f2-9da4-5e00c903cc12","system_id":"levelo_inurba_marseille","lat":43.23189,"lon":5.39979,"is_reserved":false,"is_disabled":false,"rental_uris":{"android":"levelo://app?vid=7d801467-fce3-48f2-9da4-5e00c903cc12","ios":"levelo://app?vid=7d801467-fce3-48f2-9da4-5e00c903cc12"},"vehicle_type_id":"4","last_reported":1730535095,"current_range_meters":4800,"station_id":"ce4bhn12rcd13ifvqgqg","pricing_plan_id":"cebpf4jnsgd1na2vs0mg"},{"bike_id":"af0f958e-34c3-444c-927f-1763ff36aafb","system_id":"levelo_inurba_marseille","lat":43.30434,"lon":5.38893,"is_reserved":false,"is_disabled":false,"rental_uris":{"android":"levelo://app?vid=af0f958e-34c3-444c-927f-1763ff36aafb","ios":"levelo://app?vid=af0f958e-34c3-444c-927f-1763ff36aafb"},"vehicle_type_id":"4","last_reported":1730535095,"current_range_meters":15200,"station_id":"ce4bgk12rcd13ifvqbi0","pricing_plan_id":"cebpf4jnsgd1na2vs0mg"},{"bike_id":"5a84c97e-f31d-4406-92af-5271994087b0","system_id":"levelo_inurba_marseille","lat":43.28406,"lon":5.37517,"is_reserved":false,"is_disabled":false,"rental_uris":{"android":"levelo://app?vid=5a84c97e-f31d-4406-92af-5271994087b0","ios":"levelo://app?vid=5a84c97e-f31d-4406-92af-5271994087b0"},"vehicle_type_id":"4","last_reported":1730535095,"current_range_meters":17600,"station_id":"ce4bh412rcd13ifvqds0","pricing_plan_id":"cebpf4jnsgd1na2vs0mg"},{"bike_id":"7dc1c1ed-2472-4dd8-84f9-9b00a0c2baff","system_id":"levelo_inurba_marseille","lat":43.29554,"lon":5.42282,"is_reserved":false,"is_disabled":false,"rental_uris":{"android":"levelo://app?vid=7dc1c1ed-2472-4dd8-84f9-9b00a0c2baff","ios":"levelo://app?vid=7dc1c1ed-2472-4dd8-84f9-9b00a0c2baff"},"vehicle_type_id":"4","last_reported":1730535095,"current_range_meters":37600,"station_id":"ce4bhph2rcd13ifvqhdg","pricing_plan_id":"cebpf4jnsgd1na2vs0mg"},{"bike_id":"d03b0bcf-4ef9-4b60-8e2b-77dd24b806f4","system_id":"levelo_inurba_marseille","lat":43.28613,"lon":5.35106,"is_reserved":false,"is_disabled":false,"rental_uris":{"android":"levelo://app?vid=d03b0bcf-4ef9-4b60-8e2b-77dd24b806f4","ios":"levelo://app?vid=d03b0bcf-4ef9-4b60-8e2b-77dd24b806f4"},"vehicle_type_id":"4","last_reported":1730535095,"current_range_meters":28000,"station_id":"ce4bhch2rcd13ifvqeug","pricing_plan_id":"cebpf4jnsgd1na2vs0mg"},{"bike_id":"ba57a119-f9b5-45ec-a6d0-a52e287ee306","system_id":"levelo_inurba_marseille","lat":43.30901,"lon":5.36866,"is_reserved":false,"is_disabled":false,"rental_uris":{"android":"levelo://app?vid=ba57a119-f9b5-45ec-a6d0-a52e287ee306","ios":"levelo://app?vid=ba57a119-f9b5-45ec-a6d0-a52e287ee306"},"vehicle_type_id":"4","last_reported":1730535095,"current_range_meters":37600,"station_id":"ce4bgn92rcd13ifvqbvg","pricing_plan_id":"cebpf4jnsgd1na2vs0mg"},{"bike_id":"3e298234-f57f-4eba-8e7a-4b84891b1fba","system_id":"levelo_inurba_marseille","lat":43.30593,"lon":5.39352,"is_reserved":false,"is_disabled":false,"rental_uris":{"android":"levelo://app?vid=3e298234-f57f-4eba-8e7a-4b84891b1fba","ios":"levelo://app?vid=3e298234-f57f-4eba-8e7a-4b84891b1fba"},"vehicle_type_id":"4","last_reported":1730535095,"current_range_meters":38000,"station_id":"ce4bh0p2rcd13ifvqd80","pricing_plan_id":"cebpf4jnsgd1na2vs0mg"},{"bike_id":"4dd74b80-423d-4a82-8b5a-fef5ebd97f46","system_id":"levelo_inurba_marseille","lat":43.24393,"lon":5.37053,"is_reserved":false,"is_disabled":false,"rental_uris":{"android":"levelo://app?vid=4dd74b80-423d-4a82-8b5a-fef5ebd97f46","ios":"levelo://app?vid=4dd74b80-423d-4a82-8b5a-fef5ebd97f46"},"vehicle_type_id":"4","last_reported":1730535095,"current_range_meters":23200,"station_id":"ce4bhhh2rcd13ifvqfk0","pricing_plan_id":"cebpf4jnsgd1na2vs0mg"},{"bike_id":"9938ebcd-9900-4f33-ae62-087d07b91466","system_id":"levelo_inurba_marseille","lat":43.25728,"lon":5.41113,"is_reserved":false,"is_disabled":false,"rental_uris":{"android":"levelo://app?vid=9938ebcd-9900-4f33-ae62-087d07b91466","ios":"levelo://app?vid=9938ebcd-9900-4f33-ae62-087d07b91466"},"vehicle_type_id":"4","last_reported":1730535095,"current_range_meters":38800,"station_id":"ce4bhkp2rcd13ifvqgd0","pricing_plan_id":"cebpf4jnsgd1na2vs0mg"},{"bike_id":"9d4d7888-e57c-4697-8fc3-2691f4062dff","system_id":"levelo_inurba_marseille","lat":43.2857,"lon":5.395,"is_reserved":false,"is_disabled":false,"rental_uris":{"android":"levelo://app?vid=9d4d7888-e57c-4697-8fc3-2691f4062dff","ios":"levelo://app?vid=9d4d7888-e57c-4697-8fc3-2691f4062dff"},"vehicle_type_id":"4","last_reported":1730535095,"current_range_meters":27600,"station_id":"ce4bh292rcd13ifvqdg0","pricing_plan_id":"cebpf4jnsgd1na2vs0mg"},{"bike_id":"e960ac30-070e-494a-a9c1-effafcd9c6f4","system_id":"levelo_inurba_marseille","lat":43.29459,"lon":5.39596,"is_reserved":false,"is_disabled":false,"rental_uris":{"android":"levelo://app?vid=e960ac30-070e-494a-a9c1-effafcd9c6f4","ios":"levelo://app?vid=e960ac30-070e-494a-a9c1-effafcd9c6f4"},"vehicle_type_id":"4","last_reported":1730535095,"current_range_meters":8800,"station_id":"","pricing_plan_id":"cebpf4jnsgd1na2vs0mg"},{"bike_id":"e0bb0bf6-b6d3-48bd-a1ae-730dc47848d5","system_id":"levelo_inurba_marseille","lat":43.30467,"lon":5.37907,"is_reserved":false,"is_disabled":false,"rental_uris":{"android":"levelo://app?vid=e0bb0bf6-b6d3-48bd-a1ae-730dc47848d5","ios":"levelo://app?vid=e0bb0bf6-b6d3-48bd-a1ae-730dc47848d5"},"vehicle_type_id":"4","last_reported":1730535095,"current_range_meters":17600,"station_id":"ce4bgup2rcd13ifvqcn0","pricing_plan_id":"cebpf4jnsgd1na2vs0mg"},{"bike_id":"a35b17f7-012c-4f42-b09f-20abe952f1de","system_id":"levelo_inurba_marseille","lat":43.27309,"lon":5.39115,"is_reserved":false,"is_disabled":false,"rental_uris":{"android":"levelo://app?vid=a35b17f7-012c-4f42-b09f-20abe952f1de","ios":"levelo://app?vid=a35b17f7-012c-4f42-b09f-20abe952f1de"},"vehicle_type_id":"4","last_reported":1730535095,"current_range_meters":38800,"station_id":"ce4bhgp2rcd13ifvqfe0","pricing_plan_id":"cebpf4jnsgd1na2vs0mg"},{"bike_id":"55b0a0a4-4571-4e2d-ab9b-dd105f74c299","system_id":"levelo_inurba_marseille","lat":43.30548,"lon":5.36706,"is_reserved":false,"is_disabled":false,"rental_uris":{"android":"levelo://app?vid=55b0a0a4-4571-4e2d-ab9b-dd105f74c299","ios":"levelo://app?vid=55b0a0a4-4571-4e2d-ab9b-dd105f74c299"},"vehicle_type_id":"4","last_reported":1730535095,"current_range_meters":31200,"station_id":"ce4bgrp2rcd13ifvqc9g","pricing_plan_id":"cebpf4jnsgd1na2vs0mg"},{"bike_id":"4f207157-0a3f-446e-a706-7d73dc0c6f39","system_id":"levelo_inurba_marseille","lat":43.31181,"lon":5.38712,"is_reserved":false,"is_disabled":false,"rental_uris":{"android":"levelo://app?vid=4f207157-0a3f-446e-a706-7d73dc0c6f39","ios":"levelo://app?vid=4f207157-0a3f-446e-a706-7d73dc0c6f39"},"vehicle_type_id":"4","last_reported":1730535095,"current_range_meters":38000,"station_id":"ce4bgv12rcd13ifvqcp0","pricing_plan_id":"cebpf4jnsgd1na2vs0mg"},{"bike_id":"0f1edd7c-d6f8-489f-97c4-a27688e09786","system_id":"levelo_inurba_marseille","lat":43.25859,"lon":5.39907,"is_reserved":false,"is_disabled":false,"rental_uris":{"android":"levelo://app?vid=0f1edd7c-d6f8-489f-97c4-a27688e09786","ios":"levelo://app?vid=0f1edd7c-d6f8-489f-97c4-a27688e09786"},"vehicle_type_id":"4","last_reported":1730535095,"current_range_meters":29600,"station_id":"ce4bhl92rcd13ifvqghg","pricing_plan_id":"cebpf4jnsgd1na2vs0mg"},{"bike_id":"42890dc6-02c7-4ea9-9f5a-99ce200c07cf","system_id":"levelo_inurba_marseille","lat":43.30206,"lon":5.39461,"is_reserved":false,"is_disabled":false,"rental_uris":{"android":"levelo://app?vid=42890dc6-02c7-4ea9-9f5a-99ce200c07cf","ios":"levelo://app?vid=42890dc6-02c7-4ea9-9f5a-99ce200c07cf"},"vehicle_type_id":"4","last_reported":1730535095,"current_range_meters":36400,"station_id":"ce4bh0p2rcd13ifvqd70","pricing_plan_id":"cebpf4jnsgd1na2vs0mg"},{"bike_id":"cd9c51c3-66f1-4423-a637-2a576f24f89d","system_id":"levelo_inurba_marseille","lat":43.27068,"lon":5.42274,"is_reserved":false,"is_disabled":false,"rental_uris":{"android":"levelo://app?vid=cd9c51c3-66f1-4423-a637-2a576f24f89d","ios":"levelo://app?vid=cd9c51c3-66f1-4423-a637-2a576f24f89d"},"vehicle_type_id":"4","last_reported":1730535095,"current_range_meters":11600,"station_id":"ce4bhk92rcd13ifvqgb0","pricing_plan_id":"cebpf4jnsgd1na2vs0mg"},{"bike_id":"4fb399d0-8f17-42d9-ba12-7bd558cecaf9","system_id":"levelo_inurba_marseille","lat":43.32051,"lon":5.41545,"is_reserved":false,"is_disabled":false,"rental_uris":{"android":"levelo://app?vid=4fb399d0-8f17-42d9-ba12-7bd558cecaf9","ios":"levelo://app?vid=4fb399d0-8f17-42d9-ba12-7bd558cecaf9"},"vehicle_type_id":"4","last_reported":1730535095,"current_range_meters":27600,"station_id":"ce4bhq92rcd13ifvqhkg","pricing_plan_id":"cebpf4jnsgd1na2vs0mg"},{"bike_id":"ca2f85fe-525a-48c9-95b5-53b5b61ca1b9","system_id":"levelo_inurba_marseille","lat":43.304349,"lon":5.388882,"is_reserved":false,"is_disabled":false,"rental_uris":{"android":"levelo://app?vid=ca2f85fe-525a-48c9-95b5-53b5b61ca1b9","ios":"levelo://app?vid=ca2f85fe-525a-48c9-95b5-53b5b61ca1b9"},"vehicle_type_id":"4","last_reported":1730535095,"current_range_meters":38800,"station_id":"ce4bgk12rcd13ifvqbi0","pricing_plan_id":"cebpf4jnsgd1na2vs0mg"},{"bike_id":"d69eef29-33f1-400b-9dbd-e583b4f600d8","system_id":"levelo_inurba_marseille","lat":43.24645,"lon":5.38903,"is_reserved":false,"is_disabled":false,"rental_uris":{"android":"levelo://app?vid=d69eef29-33f1-400b-9dbd-e583b4f600d8","ios":"levelo://app?vid=d69eef29-33f1-400b-9dbd-e583b4f600d8"},"vehicle_type_id":"4","last_reported":1730535095,"current_range_meters":39200,"station_id":"ce4bhg12rcd13ifvqf60","pricing_plan_id":"cebpf4jnsgd1na2vs0mg"},{"bike_id":"bd4e2b20-1aa1-479f-bd96-ad4e0572a62c","system_id":"levelo_inurba_marseille","lat":43.32479,"lon":5.36575,"is_reserved":false,"is_disabled":false,"rental_uris":{"android":"levelo://app?vid=bd4e2b20-1aa1-479f-bd96-ad4e0572a62c","ios":"levelo://app?vid=bd4e2b20-1aa1-479f-bd96-ad4e0572a62c"},"vehicle_type_id":"4","last_reported":1730535095,"current_range_meters":26000,"station_id":"ce4bhs12rcd13ifvqhvg","pricing_plan_id":"cebpf4jnsgd1na2vs0mg"},{"bike_id":"e515cc14-ec45-4493-a6ef-e8658b9cbc95","system_id":"levelo_inurba_marseille","lat":43.26203,"lon":5.37932,"is_reserved":false,"is_disabled":false,"rental_uris":{"android":"levelo://app?vid=e515cc14-ec45-4493-a6ef-e8658b9cbc95","ios":"levelo://app?vid=e515cc14-ec45-4493-a6ef-e8658b9cbc95"},"vehicle_type_id":"4","last_reported":1730535095,"current_range_meters":38800,"station_id":"ce4bhjp2rcd13ifvqg90","pricing_plan_id":"cebpf4jnsgd1na2vs0mg"},{"bike_id":"503ab4c8-8a1c-49fa-ae53-025c0cb50e87","system_id":"levelo_inurba_marseille","lat":43.30781,"lon":5.37648,"is_reserved":false,"is_disabled":false,"rental_uris":{"android":"levelo://app?vid=503ab4c8-8a1c-49fa-ae53-025c0cb50e87","ios":"levelo://app?vid=503ab4c8-8a1c-49fa-ae53-025c0cb50e87"},"vehicle_type_id":"4","last_reported":1730535095,"current_range_meters":38000,"station_id":"ce4bgv92rcd13ifvqcq0","pricing_plan_id":"cebpf4jnsgd1na2vs0mg"},{"bike_id":"2749a0d0-f853-40f1-94a4-905f9c1a5e39","system_id":"levelo_inurba_marseille","lat":43.28713,"lon":5.37949,"is_reserved":false,"is_disabled":false,"rental_uris":{"android":"levelo://app?vid=2749a0d0-f853-40f1-94a4-905f9c1a5e39","ios":"levelo://app?vid=2749a0d0-f853-40f1-94a4-905f9c1a5e39"},"vehicle_type_id":"4","last_reported":1730535095,"current_range_meters":38000,"station_id":"ce4bh9p2rcd13ifvqec0","pricing_plan_id":"cebpf4jnsgd1na2vs0mg"},{"bike_id":"66047545-0fb8-424f-9043-6c30d457954a","system_id":"levelo_inurba_marseille","lat":43.30926,"lon":5.40152,"is_reserved":false,"is_disabled":false,"rental_uris":{"android":"levelo://app?vid=66047545-0fb8-424f-9043-6c30d457954a","ios":"levelo://app?vid=66047545-0fb8-424f-9043-6c30d457954a"},"vehicle_type_id":"4","last_reported":1730535095,"current_range_meters":10800,"station_id":"ce4bgvp2rcd13ifvqct0","pricing_plan_id":"cebpf4jnsgd1na2vs0mg"},{"bike_id":"fce750cb-a798-44bd-9f6b-b11316d988eb","system_id":"levelo_inurba_marseille","lat":43.27046,"lon":5.40268,"is_reserved":false,"is_disabled":false,"rental_uris":{"android":"levelo://app?vid=fce750cb-a798-44bd-9f6b-b11316d988eb","ios":"levelo://app?vid=fce750cb-a798-44bd-9f6b-b11316d988eb"},"vehicle_type_id":"4","last_reported":1730535095,"current_range_meters":20000,"station_id":"ce4bhk92rcd13ifvqgc0","pricing_plan_id":"cebpf4jnsgd1na2vs0mg"},{"bike_id":"fa03f601-156c-48df-b927-5328e9229f1e","system_id":"levelo_inurba_marseille","lat":43.310723,"lon":5.38262,"is_reserved":false,"is_disabled":false,"rental_uris":{"android":"levelo://app?vid=fa03f601-156c-48df-b927-5328e9229f1e","ios":"levelo://app?vid=fa03f601-156c-48df-b927-5328e9229f1e"},"vehicle_type_id":"4","last_reported":1730535095,"current_range_meters":32400,"station_id":"ce4bgv92rcd13ifvqcr0","pricing_plan_id":"cebpf4jnsgd1na2vs0mg"},{"bike_id":"245b4e38-7d8f-4725-9697-1642283430f4","system_id":"levelo_inurba_marseille","lat":43.28945,"lon":5.3962,"is_reserved":false,"is_disabled":false,"rental_uris":{"android":"levelo://app?vid=245b4e38-7d8f-4725-9697-1642283430f4","ios":"levelo://app?vid=245b4e38-7d8f-4725-9697-1642283430f4"},"vehicle_type_id":"4","last_reported":1730535095,"current_range_meters":11600,"station_id":"ce4bh3h2rcd13ifvqdn0","pricing_plan_id":"cebpf4jnsgd1na2vs0mg"},{"bike_id":"f5b1e407-3225-4a1b-a796-f9d7ee942750","system_id":"levelo_inurba_marseille","lat":43.31527,"lon":5.38037,"is_reserved":false,"is_disabled":false,"rental_uris":{"android":"levelo://app?vid=f5b1e407-3225-4a1b-a796-f9d7ee942750","ios":"levelo://app?vid=f5b1e407-3225-4a1b-a796-f9d7ee942750"},"vehicle_type_id":"4","last_reported":1730535095,"current_range_meters":38800,"station_id":"ce4bhsp2rcd13ifvqi50","pricing_plan_id":"cebpf4jnsgd1na2vs0mg"},{"bike_id":"658dacf4-7ef3-4634-8126-9bbd88e5a6eb","system_id":"levelo_inurba_marseille","lat":43.23196,"lon":5.35544,"is_reserved":false,"is_disabled":false,"rental_uris":{"android":"levelo://app?vid=658dacf4-7ef3-4634-8126-9bbd88e5a6eb","ios":"levelo://app?vid=658dacf4-7ef3-4634-8126-9bbd88e5a6eb"},"vehicle_type_id":"4","last_reported":1730535095,"current_range_meters":20000,"station_id":"ce4bhu92rcd13ifvqi70","pricing_plan_id":"cebpf4jnsgd1na2vs0mg"},{"bike_id":"60e43d56-bbd7-49d9-b00f-8f0987dc2224","system_id":"levelo_inurba_marseille","lat":43.28839,"lon":5.39317,"is_reserved":false,"is_disabled":false,"rental_uris":{"android":"levelo://app?vid=60e43d56-bbd7-49d9-b00f-8f0987dc2224","ios":"levelo://app?vid=60e43d56-bbd7-49d9-b00f-8f0987dc2224"},"vehicle_type_id":"4","last_reported":1730535095,"current_range_meters":34800,"station_id":"ce4bh2p2rcd13ifvqdi0","pricing_plan_id":"cebpf4jnsgd1na2vs0mg"},{"bike_id":"b98cfd7f-acdf-400e-bf8f-9132b0f74693","system_id":"levelo_inurba_marseille","lat":43.28104,"lon":5.37843,"is_reserved":false,"is_disabled":false,"rental_uris":{"android":"levelo://app?vid=b98cfd7f-acdf-400e-bf8f-9132b0f74693","ios":"levelo://app?vid=b98cfd7f-acdf-400e-bf8f-9132b0f74693"},"vehicle_type_id":"4","last_reported":1730535095,"current_range_meters":27200,"station_id":"ce4bha12rcd13ifvqee0","pricing_plan_id":"cebpf4jnsgd1na2vs0mg"},{"bike_id":"e62e38a9-284c-4b15-bfe8-8b214b98f04b","system_id":"levelo_inurba_marseille","lat":43.23053,"lon":5.35496,"is_reserved":false,"is_disabled":false,"rental_uris":{"android":"levelo://app?vid=e62e38a9-284c-4b15-bfe8-8b214b98f04b","ios":"levelo://app?vid=e62e38a9-284c-4b15-bfe8-8b214b98f04b"},"vehicle_type_id":"4","last_reported":1730535095,"current_range_meters":23200,"station_id":"cpo3342slgdg3j2ifvpg","pricing_plan_id":"cebpf4jnsgd1na2vs0mg"},{"bike_id":"dc94b757-67d6-4deb-a551-c1abf5329566","system_id":"levelo_inurba_marseille","lat":43.28489,"lon":5.38548,"is_reserved":false,"is_disabled":false,"rental_uris":{"android":"levelo://app?vid=dc94b757-67d6-4deb-a551-c1abf5329566","ios":"levelo://app?vid=dc94b757-67d6-4deb-a551-c1abf5329566"},"vehicle_type_id":"4","last_reported":1730535095,"current_range_meters":6800,"station_id":"ce4bh8p2rcd13ifvqeb0","pricing_plan_id":"cebpf4jnsgd1na2vs0mg"},{"bike_id":"4eb7a39b-7732-4901-8b76-36d37cfbe821","system_id":"levelo_inurba_marseille","lat":43.30156,"lon":5.38081,"is_reserved":false,"is_disabled":false,"rental_uris":{"android":"levelo://app?vid=4eb7a39b-7732-4901-8b76-36d37cfbe821","ios":"levelo://app?vid=4eb7a39b-7732-4901-8b76-36d37cfbe821"},"vehicle_type_id":"4","last_reported":1730535095,"current_range_meters":19200,"station_id":"ce4bgjp2rcd13ifvqbh0","pricing_plan_id":"cebpf4jnsgd1na2vs0mg"},{"bike_id":"aad83483-aaa8-43f3-b586-ce82558627fc","system_id":"levelo_inurba_marseille","lat":43.30307,"lon":5.39214,"is_reserved":false,"is_disabled":false,"rental_uris":{"android":"levelo://app?vid=aad83483-aaa8-43f3-b586-ce82558627fc","ios":"levelo://app?vid=aad83483-aaa8-43f3-b586-ce82558627fc"},"vehicle_type_id":"4","last_reported":1730535095,"current_range_meters":36400,"station_id":"ce4bgkh2rcd13ifvqbk0","pricing_plan_id":"cebpf4jnsgd1na2vs0mg"},{"bike_id":"284faaa3-21e1-4483-8e3c-8ce4eb4e219e","system_id":"levelo_inurba_marseille","lat":43.31756,"lon":5.3903,"is_reserved":false,"is_disabled":false,"rental_uris":{"android":"levelo://app?vid=284faaa3-21e1-4483-8e3c-8ce4eb4e219e","ios":"levelo://app?vid=284faaa3-21e1-4483-8e3c-8ce4eb4e219e"},"vehicle_type_id":"4","last_reported":1730535095,"current_range_meters":18800,"station_id":"ce4bhqp2rcd13ifvqhng","pricing_plan_id":"cebpf4jnsgd1na2vs0mg"},{"bike_id":"c26eeef8-a0b8-4f07-9f71-c1559be85236","system_id":"levelo_inurba_marseille","lat":43.25729,"lon":5.41109,"is_reserved":false,"is_disabled":false,"rental_uris":{"android":"levelo://app?vid=c26eeef8-a0b8-4f07-9f71-c1559be85236","ios":"levelo://app?vid=c26eeef8-a0b8-4f07-9f71-c1559be85236"},"vehicle_type_id":"4","last_reported":1730535095,"current_range_meters":38400,"station_id":"ce4bhkp2rcd13ifvqgd0","pricing_plan_id":"cebpf4jnsgd1na2vs0mg"},{"bike_id":"c7096b37-5860-433a-958f-04dab67c2479","system_id":"levelo_inurba_marseille","lat":43.255005,"lon":5.376514,"is_reserved":false,"is_disabled":false,"rental_uris":{"android":"levelo://app?vid=c7096b37-5860-433a-958f-04dab67c2479","ios":"levelo://app?vid=c7096b37-5860-433a-958f-04dab67c2479"},"vehicle_type_id":"4","last_reported":1730535095,"current_range_meters":35600,"station_id":"ce4bhh12rcd13ifvqff0","pricing_plan_id":"cebpf4jnsgd1na2vs0mg"},{"bike_id":"a79b3df7-4053-41ab-917d-fe2f09e9503c","system_id":"levelo_inurba_marseille","lat":43.30152,"lon":5.38085,"is_reserved":false,"is_disabled":false,"rental_uris":{"android":"levelo://app?vid=a79b3df7-4053-41ab-917d-fe2f09e9503c","ios":"levelo://app?vid=a79b3df7-4053-41ab-917d-fe2f09e9503c"},"vehicle_type_id":"4","last_reported":1730535095,"current_range_meters":6800,"station_id":"ce4bgjp2rcd13ifvqbh0","pricing_plan_id":"cebpf4jnsgd1na2vs0mg"},{"bike_id":"b0d0f0bb-42ff-4ebf-8686-64832137c359","system_id":"levelo_inurba_marseille","lat":43.290266,"lon":5.381365,"is_reserved":false,"is_disabled":false,"rental_uris":{"android":"levelo://app?vid=b0d0f0bb-42ff-4ebf-8686-64832137c359","ios":"levelo://app?vid=b0d0f0bb-42ff-4ebf-8686-64832137c359"},"vehicle_type_id":"4","last_reported":1730535095,"current_range_meters":33600,"station_id":"ce4bh4p2rcd13ifvqe1g","pricing_plan_id":"cebpf4jnsgd1na2vs0mg"},{"bike_id":"b890158d-4cc0-42ea-b1b1-cf934d08cc8a","system_id":"levelo_inurba_marseille","lat":43.32365,"lon":5.38881,"is_reserved":false,"is_disabled":false,"rental_uris":{"android":"levelo://app?vid=b890158d-4cc0-42ea-b1b1-cf934d08cc8a","ios":"levelo://app?vid=b890158d-4cc0-42ea-b1b1-cf934d08cc8a"},"vehicle_type_id":"4","last_reported":1730535095,"current_range_meters":28400,"station_id":"ce4bhqp2rcd13ifvqhog","pricing_plan_id":"cebpf4jnsgd1na2vs0mg"},{"bike_id":"9f50d1b5-a97d-4395-b8db-d8674099c25e","system_id":"levelo_inurba_marseille","lat":43.29982,"lon":5.3719,"is_reserved":false,"is_disabled":false,"rental_uris":{"android":"levelo://app?vid=9f50d1b5-a97d-4395-b8db-d8674099c25e","ios":"levelo://app?vid=9f50d1b5-a97d-4395-b8db-d8674099c25e"},"vehicle_type_id":"4","last_reported":1730535095,"current_range_meters":31200,"station_id":"ce4bgr92rcd13ifvqc7g","pricing_plan_id":"cebpf4jnsgd1na2vs0mg"},{"bike_id":"887d3f15-9262-4464-a567-0c0c5d22959d","system_id":"levelo_inurba_marseille","lat":43.303,"lon":5.36908,"is_reserved":false,"is_disabled":false,"rental_uris":{"android":"levelo://app?vid=887d3f15-9262-4464-a567-0c0c5d22959d","ios":"levelo://app?vid=887d3f15-9262-4464-a567-0c0c5d22959d"},"vehicle_type_id":"4","last_reported":1730535095,"current_range_meters":30400,"station_id":"ce4bgqh2rcd13ifvqc5g","pricing_plan_id":"cebpf4jnsgd1na2vs0mg"},{"bike_id":"13204629-6f37-4fdc-ae71-efb691ec9cf2","system_id":"levelo_inurba_marseille","lat":43.27177,"lon":5.4099,"is_reserved":false,"is_disabled":false,"rental_uris":{"android":"levelo://app?vid=13204629-6f37-4fdc-ae71-efb691ec9cf2","ios":"levelo://app?vid=13204629-6f37-4fdc-ae71-efb691ec9cf2"},"vehicle_type_id":"4","last_reported":1730535095,"current_range_meters":38000,"station_id":"ce4bhl12rcd13ifvqgf0","pricing_plan_id":"cebpf4jnsgd1na2vs0mg"},{"bike_id":"6a5cb283-33f1-4bd1-86d1-7432bbe10b16","system_id":"levelo_inurba_marseille","lat":43.301438,"lon":5.380898,"is_reserved":false,"is_disabled":false,"rental_uris":{"android":"levelo://app?vid=6a5cb283-33f1-4bd1-86d1-7432bbe10b16","ios":"levelo://app?vid=6a5cb283-33f1-4bd1-86d1-7432bbe10b16"},"vehicle_type_id":"4","last_reported":1730535095,"current_range_meters":35600,"station_id":"ce4bgjp2rcd13ifvqbh0","pricing_plan_id":"cebpf4jnsgd1na2vs0mg"},{"bike_id":"8268eafd-86cc-417b-b00e-7735474716a6","system_id":"levelo_inurba_marseille","lat":43.25001,"lon":5.3893,"is_reserved":false,"is_disabled":false,"rental_uris":{"android":"levelo://app?vid=8268eafd-86cc-417b-b00e-7735474716a6","ios":"levelo://app?vid=8268eafd-86cc-417b-b00e-7735474716a6"},"vehicle_type_id":"4","last_reported":1730535095,"current_range_meters":16000,"station_id":"ce4bhgp2rcd13ifvqfd0","pricing_plan_id":"cebpf4jnsgd1na2vs0mg"},{"bike_id":"ed4b265d-1d35-4b1e-a20f-83de00489890","system_id":"levelo_inurba_marseille","lat":43.29014,"lon":5.38145,"is_reserved":false,"is_disabled":false,"rental_uris":{"android":"levelo://app?vid=ed4b265d-1d35-4b1e-a20f-83de00489890","ios":"levelo://app?vid=ed4b265d-1d35-4b1e-a20f-83de00489890"},"vehicle_type_id":"4","last_reported":1730535095,"current_range_meters":37600,"station_id":"ce4bh4p2rcd13ifvqe1g","pricing_plan_id":"cebpf4jnsgd1na2vs0mg"},{"bike_id":"bfab254b-dda0-49c5-ae2e-902568de5a52","system_id":"levelo_inurba_marseille","lat":43.25105,"lon":5.40321,"is_reserved":false,"is_disabled":false,"rental_uris":{"android":"levelo://app?vid=bfab254b-dda0-49c5-ae2e-902568de5a52","ios":"levelo://app?vid=bfab254b-dda0-49c5-ae2e-902568de5a52"},"vehicle_type_id":"4","last_reported":1730535095,"current_range_meters":8000,"station_id":"ce4bhlh2rcd13ifvqgig","pricing_plan_id":"cebpf4jnsgd1na2vs0mg"},{"bike_id":"f51e880f-c981-4797-8719-e2c7bbca8ec7","system_id":"levelo_inurba_marseille","lat":43.30464,"lon":5.37899,"is_reserved":false,"is_disabled":false,"rental_uris":{"android":"levelo://app?vid=f51e880f-c981-4797-8719-e2c7bbca8ec7","ios":"levelo://app?vid=f51e880f-c981-4797-8719-e2c7bbca8ec7"},"vehicle_type_id":"4","last_reported":1730535095,"current_range_meters":32000,"station_id":"ce4bgup2rcd13ifvqcn0","pricing_plan_id":"cebpf4jnsgd1na2vs0mg"},{"bike_id":"9dc4bbff-21ca-407b-985c-c70214b6bc8c","system_id":"levelo_inurba_marseille","lat":43.32486,"lon":5.3657,"is_reserved":false,"is_disabled":false,"rental_uris":{"android":"levelo://app?vid=9dc4bbff-21ca-407b-985c-c70214b6bc8c","ios":"levelo://app?vid=9dc4bbff-21ca-407b-985c-c70214b6bc8c"},"vehicle_type_id":"4","last_reported":1730535095,"current_range_meters":38000,"station_id":"ce4bhs12rcd13ifvqhvg","pricing_plan_id":"cebpf4jnsgd1na2vs0mg"},{"bike_id":"040cbf3b-eb93-4917-afe1-b0b87610e589","system_id":"levelo_inurba_marseille","lat":43.31115,"lon":5.37768,"is_reserved":false,"is_disabled":false,"rental_uris":{"android":"levelo://app?vid=040cbf3b-eb93-4917-afe1-b0b87610e589","ios":"levelo://app?vid=040cbf3b-eb93-4917-afe1-b0b87610e589"},"vehicle_type_id":"4","last_reported":1730535095,"current_range_meters":36400,"station_id":"ce4bgt92rcd13ifvqcg0","pricing_plan_id":"cebpf4jnsgd1na2vs0mg"},{"bike_id":"b9dae35d-f9f9-4405-947e-479a57dd0f89","system_id":"levelo_inurba_marseille","lat":43.28855,"lon":5.35852,"is_reserved":false,"is_disabled":false,"rental_uris":{"android":"levelo://app?vid=b9dae35d-f9f9-4405-947e-479a57dd0f89","ios":"levelo://app?vid=b9dae35d-f9f9-4405-947e-479a57dd0f89"},"vehicle_type_id":"4","last_reported":1730535095,"current_range_meters":37600,"station_id":"ce4bhb12rcd13ifvqem0","pricing_plan_id":"cebpf4jnsgd1na2vs0mg"},{"bike_id":"379b04d9-20e2-4f2f-a080-e8290f8e87e1","system_id":"levelo_inurba_marseille","lat":43.31274,"lon":5.40173,"is_reserved":false,"is_disabled":false,"rental_uris":{"android":"levelo://app?vid=379b04d9-20e2-4f2f-a080-e8290f8e87e1","ios":"levelo://app?vid=379b04d9-20e2-4f2f-a080-e8290f8e87e1"},"vehicle_type_id":"4","last_reported":1730535095,"current_range_meters":38800,"station_id":"ce4bh092rcd13ifvqd30","pricing_plan_id":"cebpf4jnsgd1na2vs0mg"},{"bike_id":"a5418d75-797e-442a-993a-386d44bdd68d","system_id":"levelo_inurba_marseille","lat":43.24665,"lon":5.38167,"is_reserved":false,"is_disabled":false,"rental_uris":{"android":"levelo://app?vid=a5418d75-797e-442a-993a-386d44bdd68d","ios":"levelo://app?vid=a5418d75-797e-442a-993a-386d44bdd68d"},"vehicle_type_id":"4","last_reported":1730535095,"current_range_meters":12800,"station_id":"ce4bhih2rcd13ifvqfr0","pricing_plan_id":"cebpf4jnsgd1na2vs0mg"},{"bike_id":"909bd7d2-5cd4-43c6-93d4-f592794fc7af","system_id":"levelo_inurba_marseille","lat":43.30541,"lon":5.36712,"is_reserved":false,"is_disabled":false,"rental_uris":{"android":"levelo://app?vid=909bd7d2-5cd4-43c6-93d4-f592794fc7af","ios":"levelo://app?vid=909bd7d2-5cd4-43c6-93d4-f592794fc7af"},"vehicle_type_id":"4","last_reported":1730535095,"current_range_meters":7200,"station_id":"ce4bgrp2rcd13ifvqc9g","pricing_plan_id":"cebpf4jnsgd1na2vs0mg"},{"bike_id":"91f7493f-832e-4490-ab02-f3bd3a59805d","system_id":"levelo_inurba_marseille","lat":43.28465,"lon":5.35889,"is_reserved":false,"is_disabled":false,"rental_uris":{"android":"levelo://app?vid=91f7493f-832e-4490-ab02-f3bd3a59805d","ios":"levelo://app?vid=91f7493f-832e-4490-ab02-f3bd3a59805d"},"vehicle_type_id":"4","last_reported":1730535095,"current_range_meters":38800,"station_id":"ce4bhah2rcd13ifvqei0","pricing_plan_id":"cebpf4jnsgd1na2vs0mg"},{"bike_id":"02230dac-ebce-4aa4-9174-db473244d1bc","system_id":"levelo_inurba_marseille","lat":43.3302,"lon":5.39046,"is_reserved":false,"is_disabled":false,"rental_uris":{"android":"levelo://app?vid=02230dac-ebce-4aa4-9174-db473244d1bc","ios":"levelo://app?vid=02230dac-ebce-4aa4-9174-db473244d1bc"},"vehicle_type_id":"4","last_reported":1730535095,"current_range_meters":38800,"station_id":"ce4bhr92rcd13ifvqhrg","pricing_plan_id":"cebpf4jnsgd1na2vs0mg"},{"bike_id":"2d7de978-fe7a-4748-bce2-9b270b74d3a7","system_id":"levelo_inurba_marseille","lat":43.28094,"lon":5.37849,"is_reserved":false,"is_disabled":false,"rental_uris":{"android":"levelo://app?vid=2d7de978-fe7a-4748-bce2-9b270b74d3a7","ios":"levelo://app?vid=2d7de978-fe7a-4748-bce2-9b270b74d3a7"},"vehicle_type_id":"4","last_reported":1730535095,"current_range_meters":37600,"station_id":"ce4bha12rcd13ifvqee0","pricing_plan_id":"cebpf4jnsgd1na2vs0mg"},{"bike_id":"64f2c005-032c-4707-acd0-06377d52b98a","system_id":"levelo_inurba_marseille","lat":43.31703,"lon":5.37759,"is_reserved":false,"is_disabled":false,"rental_uris":{"android":"levelo://app?vid=64f2c005-032c-4707-acd0-06377d52b98a","ios":"levelo://app?vid=64f2c005-032c-4707-acd0-06377d52b98a"},"vehicle_type_id":"4","last_reported":1730535095,"current_range_meters":15200,"station_id":"ce4bgth2rcd13ifvqch0","pricing_plan_id":"cebpf4jnsgd1na2vs0mg"},{"bike_id":"89f4e217-f3e8-49bc-98ee-4cb53f505767","system_id":"levelo_inurba_marseille","lat":43.3189,"lon":5.40737,"is_reserved":false,"is_disabled":false,"rental_uris":{"android":"levelo://app?vid=89f4e217-f3e8-49bc-98ee-4cb53f505767","ios":"levelo://app?vid=89f4e217-f3e8-49bc-98ee-4cb53f505767"},"vehicle_type_id":"4","last_reported":1730535095,"current_range_meters":37600,"station_id":"ce4bhq12rcd13ifvqhig","pricing_plan_id":"cebpf4jnsgd1na2vs0mg"},{"bike_id":"f0365e39-da4f-4fcd-a178-7855790154f7","system_id":"levelo_inurba_marseille","lat":43.30138,"lon":5.37414,"is_reserved":false,"is_disabled":false,"rental_uris":{"android":"levelo://app?vid=f0365e39-da4f-4fcd-a178-7855790154f7","ios":"levelo://app?vid=f0365e39-da4f-4fcd-a178-7855790154f7"},"vehicle_type_id":"4","last_reported":1730535095,"current_range_meters":38800,"station_id":"ce4bgs92rcd13ifvqcc0","pricing_plan_id":"cebpf4jnsgd1na2vs0mg"},{"bike_id":"5d49116d-9ac2-4fe3-b140-1c8daccc859c","system_id":"levelo_inurba_marseille","lat":43.302779,"lon":5.377014,"is_reserved":false,"is_disabled":false,"rental_uris":{"android":"levelo://app?vid=5d49116d-9ac2-4fe3-b140-1c8daccc859c","ios":"levelo://app?vid=5d49116d-9ac2-4fe3-b140-1c8daccc859c"},"vehicle_type_id":"4","last_reported":1730535095,"current_range_meters":38800,"station_id":"ce4bguh2rcd13ifvqcj0","pricing_plan_id":"cebpf4jnsgd1na2vs0mg"},{"bike_id":"15097f61-a1d7-4b0b-80aa-883f8eebec37","system_id":"levelo_inurba_marseille","lat":43.30604,"lon":5.3935,"is_reserved":false,"is_disabled":false,"rental_uris":{"android":"levelo://app?vid=15097f61-a1d7-4b0b-80aa-883f8eebec37","ios":"levelo://app?vid=15097f61-a1d7-4b0b-80aa-883f8eebec37"},"vehicle_type_id":"4","last_reported":1730535095,"current_range_meters":38800,"station_id":"ce4bh0p2rcd13ifvqd80","pricing_plan_id":"cebpf4jnsgd1na2vs0mg"},{"bike_id":"b2362997-f37b-4511-b744-2795bb584636","system_id":"levelo_inurba_marseille","lat":43.28102,"lon":5.37848,"is_reserved":false,"is_disabled":false,"rental_uris":{"android":"levelo://app?vid=b2362997-f37b-4511-b744-2795bb584636","ios":"levelo://app?vid=b2362997-f37b-4511-b744-2795bb584636"},"vehicle_type_id":"4","last_reported":1730535095,"current_range_meters":32400,"station_id":"ce4bha12rcd13ifvqee0","pricing_plan_id":"cebpf4jnsgd1na2vs0mg"},{"bike_id":"9a669e9a-9212-4c69-b672-3c715ab74ea4","system_id":"levelo_inurba_marseille","lat":43.31693,"lon":5.40463,"is_reserved":false,"is_disabled":false,"rental_uris":{"android":"levelo://app?vid=9a669e9a-9212-4c69-b672-3c715ab74ea4","ios":"levelo://app?vid=9a669e9a-9212-4c69-b672-3c715ab74ea4"},"vehicle_type_id":"4","last_reported":1730535095,"current_range_meters":33200,"station_id":"ce4bh012rcd13ifvqd00","pricing_plan_id":"cebpf4jnsgd1na2vs0mg"},{"bike_id":"5d8e5259-4a2a-4dfc-867a-89ff0f505038","system_id":"levelo_inurba_marseille","lat":43.28413,"lon":5.34991,"is_reserved":false,"is_disabled":false,"rental_uris":{"android":"levelo://app?vid=5d8e5259-4a2a-4dfc-867a-89ff0f505038","ios":"levelo://app?vid=5d8e5259-4a2a-4dfc-867a-89ff0f505038"},"vehicle_type_id":"4","last_reported":1730535095,"current_range_meters":38800,"station_id":"ce4bhbh2rcd13ifvqepg","pricing_plan_id":"cebpf4jnsgd1na2vs0mg"},{"bike_id":"f7fc6701-fd62-4b48-bbdb-a453dbb89c2a","system_id":"levelo_inurba_marseille","lat":43.29052,"lon":5.35913,"is_reserved":false,"is_disabled":false,"rental_uris":{"android":"levelo://app?vid=f7fc6701-fd62-4b48-bbdb-a453dbb89c2a","ios":"levelo://app?vid=f7fc6701-fd62-4b48-bbdb-a453dbb89c2a"},"vehicle_type_id":"4","last_reported":1730535095,"current_range_meters":17200,"station_id":"ce4bha92rcd13ifvqeg0","pricing_plan_id":"cebpf4jnsgd1na2vs0mg"},{"bike_id":"ca406605-0c34-42ba-a8b0-95cfa271a2ef","system_id":"levelo_inurba_marseille","lat":43.29253,"lon":5.40903,"is_reserved":false,"is_disabled":false,"rental_uris":{"android":"levelo://app?vid=ca406605-0c34-42ba-a8b0-95cfa271a2ef","ios":"levelo://app?vid=ca406605-0c34-42ba-a8b0-95cfa271a2ef"},"vehicle_type_id":"4","last_reported":1730535095,"current_range_meters":16400,"station_id":"ce4bh192rcd13ifvqdc0","pricing_plan_id":"cebpf4jnsgd1na2vs0mg"},{"bike_id":"5fb5fa84-352d-40ff-b332-81dccc5738c9","system_id":"levelo_inurba_marseille","lat":43.28866,"lon":5.35835,"is_reserved":false,"is_disabled":false,"rental_uris":{"android":"levelo://app?vid=5fb5fa84-352d-40ff-b332-81dccc5738c9","ios":"levelo://app?vid=5fb5fa84-352d-40ff-b332-81dccc5738c9"},"vehicle_type_id":"4","last_reported":1730535095,"current_range_meters":38000,"station_id":"ce4bhb12rcd13ifvqem0","pricing_plan_id":"cebpf4jnsgd1na2vs0mg"},{"bike_id":"25efdd14-e5a3-4f02-a8ea-e62e3c219fa3","system_id":"levelo_inurba_marseille","lat":43.28151,"lon":5.42653,"is_reserved":false,"is_disabled":false,"rental_uris":{"android":"levelo://app?vid=25efdd14-e5a3-4f02-a8ea-e62e3c219fa3","ios":"levelo://app?vid=25efdd14-e5a3-4f02-a8ea-e62e3c219fa3"},"vehicle_type_id":"4","last_reported":1730535095,"current_range_meters":39200,"station_id":"ce4bhnh2rcd13ifvqgug","pricing_plan_id":"cebpf4jnsgd1na2vs0mg"},{"bike_id":"a7539dfc-e8ec-47cd-8dbc-d48543cf053d","system_id":"levelo_inurba_marseille","lat":43.30531,"lon":5.36551,"is_reserved":false,"is_disabled":false,"rental_uris":{"android":"levelo://app?vid=a7539dfc-e8ec-47cd-8dbc-d48543cf053d","ios":"levelo://app?vid=a7539dfc-e8ec-47cd-8dbc-d48543cf053d"},"vehicle_type_id":"4","last_reported":1730535095,"current_range_meters":39200,"station_id":"ce4bgs12rcd13ifvqcag","pricing_plan_id":"cebpf4jnsgd1na2vs0mg"},{"bike_id":"32c6f570-953a-4135-8460-fdfba34fd3fb","system_id":"levelo_inurba_marseille","lat":43.29021,"lon":5.39981,"is_reserved":false,"is_disabled":false,"rental_uris":{"android":"levelo://app?vid=32c6f570-953a-4135-8460-fdfba34fd3fb","ios":"levelo://app?vid=32c6f570-953a-4135-8460-fdfba34fd3fb"},"vehicle_type_id":"4","last_reported":1730535095,"current_range_meters":27600,"station_id":"ce4bh392rcd13ifvqdm0","pricing_plan_id":"cebpf4jnsgd1na2vs0mg"},{"bike_id":"18402065-9e87-476b-95ad-30853de181a0","system_id":"levelo_inurba_marseille","lat":43.32447,"lon":5.45563,"is_reserved":false,"is_disabled":false,"rental_uris":{"android":"levelo://app?vid=18402065-9e87-476b-95ad-30853de181a0","ios":"levelo://app?vid=18402065-9e87-476b-95ad-30853de181a0"},"vehicle_type_id":"4","last_reported":1730535095,"current_range_meters":8400,"station_id":"","pricing_plan_id":"cebpf4jnsgd1na2vs0mg"},{"bike_id":"daa06bdf-9afa-4656-b035-46fdac193f34","system_id":"levelo_inurba_marseille","lat":43.27957,"lon":5.38695,"is_reserved":false,"is_disabled":false,"rental_uris":{"android":"levelo://app?vid=daa06bdf-9afa-4656-b035-46fdac193f34","ios":"levelo://app?vid=daa06bdf-9afa-4656-b035-46fdac193f34"},"vehicle_type_id":"4","last_reported":1730535095,"current_range_meters":38800,"station_id":"ce4bhg12rcd13ifvqf80","pricing_plan_id":"cebpf4jnsgd1na2vs0mg"},{"bike_id":"e9c03243-d163-4603-a333-c01b319b9f50","system_id":"levelo_inurba_marseille","lat":43.26212,"lon":5.37441,"is_reserved":false,"is_disabled":false,"rental_uris":{"android":"levelo://app?vid=e9c03243-d163-4603-a333-c01b319b9f50","ios":"levelo://app?vid=e9c03243-d163-4603-a333-c01b319b9f50"},"vehicle_type_id":"4","last_reported":1730535095,"current_range_meters":34000,"station_id":"ce4bhgp2rcd13ifvqfc0","pricing_plan_id":"cebpf4jnsgd1na2vs0mg"},{"bike_id":"711fc037-1485-48d1-a756-6d4246ae9cd4","system_id":"levelo_inurba_marseille","lat":43.24652,"lon":5.38902,"is_reserved":false,"is_disabled":false,"rental_uris":{"android":"levelo://app?vid=711fc037-1485-48d1-a756-6d4246ae9cd4","ios":"levelo://app?vid=711fc037-1485-48d1-a756-6d4246ae9cd4"},"vehicle_type_id":"4","last_reported":1730535095,"current_range_meters":4000,"station_id":"ce4bhg12rcd13ifvqf60","pricing_plan_id":"cebpf4jnsgd1na2vs0mg"},{"bike_id":"2ffbdae3-e85f-44b2-a4bb-faf11b8d59ee","system_id":"levelo_inurba_marseille","lat":43.28262,"lon":5.35076,"is_reserved":false,"is_disabled":false,"rental_uris":{"android":"levelo://app?vid=2ffbdae3-e85f-44b2-a4bb-faf11b8d59ee","ios":"levelo://app?vid=2ffbdae3-e85f-44b2-a4bb-faf11b8d59ee"},"vehicle_type_id":"4","last_reported":1730535095,"current_range_meters":25600,"station_id":"ce4bhbp2rcd13ifvqerg","pricing_plan_id":"cebpf4jnsgd1na2vs0mg"},{"bike_id":"dff5bc59-e5df-4238-8f28-e24fbf4edb05","system_id":"levelo_inurba_marseille","lat":43.299718,"lon":5.384896,"is_reserved":false,"is_disabled":false,"rental_uris":{"android":"levelo://app?vid=dff5bc59-e5df-4238-8f28-e24fbf4edb05","ios":"levelo://app?vid=dff5bc59-e5df-4238-8f28-e24fbf4edb05"},"vehicle_type_id":"4","last_reported":1730535095,"current_range_meters":24400,"station_id":"ce4bgj92rcd13ifvqbd0","pricing_plan_id":"cebpf4jnsgd1na2vs0mg"},{"bike_id":"e7d2d590-173c-47e5-a164-68db5b6e9fe4","system_id":"levelo_inurba_marseille","lat":43.30547,"lon":5.36694,"is_reserved":false,"is_disabled":false,"rental_uris":{"android":"levelo://app?vid=e7d2d590-173c-47e5-a164-68db5b6e9fe4","ios":"levelo://app?vid=e7d2d590-173c-47e5-a164-68db5b6e9fe4"},"vehicle_type_id":"4","last_reported":1730535095,"current_range_meters":38000,"station_id":"ce4bgrp2rcd13ifvqc9g","pricing_plan_id":"cebpf4jnsgd1na2vs0mg"},{"bike_id":"0b622252-69a0-4321-9ba0-4f6ef943b22b","system_id":"levelo_inurba_marseille","lat":43.23151,"lon":5.43712,"is_reserved":false,"is_disabled":false,"rental_uris":{"android":"levelo://app?vid=0b622252-69a0-4321-9ba0-4f6ef943b22b","ios":"levelo://app?vid=0b622252-69a0-4321-9ba0-4f6ef943b22b"},"vehicle_type_id":"4","last_reported":1730535095,"current_range_meters":3600,"station_id":"ce4bhmp2rcd13ifvqgog","pricing_plan_id":"cebpf4jnsgd1na2vs0mg"},{"bike_id":"460f8dbf-5c74-4538-b47c-2be4684064c4","system_id":"levelo_inurba_marseille","lat":43.24386,"lon":5.37062,"is_reserved":false,"is_disabled":false,"rental_uris":{"android":"levelo://app?vid=460f8dbf-5c74-4538-b47c-2be4684064c4","ios":"levelo://app?vid=460f8dbf-5c74-4538-b47c-2be4684064c4"},"vehicle_type_id":"4","last_reported":1730535095,"current_range_meters":39200,"station_id":"ce4bhhh2rcd13ifvqfk0","pricing_plan_id":"cebpf4jnsgd1na2vs0mg"},{"bike_id":"4fa38293-21db-4908-a002-6c1d0874c60f","system_id":"levelo_inurba_marseille","lat":43.30428,"lon":5.39749,"is_reserved":false,"is_disabled":false,"rental_uris":{"android":"levelo://app?vid=4fa38293-21db-4908-a002-6c1d0874c60f","ios":"levelo://app?vid=4fa38293-21db-4908-a002-6c1d0874c60f"},"vehicle_type_id":"4","last_reported":1730535095,"current_range_meters":37600,"station_id":"ce4bh092rcd13ifvqd20","pricing_plan_id":"cebpf4jnsgd1na2vs0mg"},{"bike_id":"066cefe5-49fb-43b7-9f8c-e6d0d5af28cc","system_id":"levelo_inurba_marseille","lat":43.29278,"lon":5.36848,"is_reserved":false,"is_disabled":false,"rental_uris":{"android":"levelo://app?vid=066cefe5-49fb-43b7-9f8c-e6d0d5af28cc","ios":"levelo://app?vid=066cefe5-49fb-43b7-9f8c-e6d0d5af28cc"},"vehicle_type_id":"4","last_reported":1730535095,"current_range_meters":36400,"station_id":"ce4bhbp2rcd13ifvqesg","pricing_plan_id":"cebpf4jnsgd1na2vs0mg"},{"bike_id":"ef30c907-9b95-4f0a-99f1-0cbd098879ad","system_id":"levelo_inurba_marseille","lat":43.2857,"lon":5.39515,"is_reserved":false,"is_disabled":false,"rental_uris":{"android":"levelo://app?vid=ef30c907-9b95-4f0a-99f1-0cbd098879ad","ios":"levelo://app?vid=ef30c907-9b95-4f0a-99f1-0cbd098879ad"},"vehicle_type_id":"4","last_reported":1730535095,"current_range_meters":37600,"station_id":"ce4bh292rcd13ifvqdg0","pricing_plan_id":"cebpf4jnsgd1na2vs0mg"},{"bike_id":"c7019752-4dca-4431-81b4-dbcd310fd9f0","system_id":"levelo_inurba_marseille","lat":43.30524,"lon":5.36718,"is_reserved":false,"is_disabled":false,"rental_uris":{"android":"levelo://app?vid=c7019752-4dca-4431-81b4-dbcd310fd9f0","ios":"levelo://app?vid=c7019752-4dca-4431-81b4-dbcd310fd9f0"},"vehicle_type_id":"4","last_reported":1730535095,"current_range_meters":20400,"station_id":"ce4bgrp2rcd13ifvqc9g","pricing_plan_id":"cebpf4jnsgd1na2vs0mg"},{"bike_id":"e930848a-d14d-4f9a-9332-714a180b0a90","system_id":"levelo_inurba_marseille","lat":43.29033,"lon":5.39972,"is_reserved":false,"is_disabled":false,"rental_uris":{"android":"levelo://app?vid=e930848a-d14d-4f9a-9332-714a180b0a90","ios":"levelo://app?vid=e930848a-d14d-4f9a-9332-714a180b0a90"},"vehicle_type_id":"4","last_reported":1730535095,"current_range_meters":31200,"station_id":"ce4bh392rcd13ifvqdm0","pricing_plan_id":"cebpf4jnsgd1na2vs0mg"},{"bike_id":"ed9cc6a3-f7cf-44f3-953b-9f03e6c52b9a","system_id":"levelo_inurba_marseille","lat":43.28571,"lon":5.39506,"is_reserved":false,"is_disabled":false,"rental_uris":{"android":"levelo://app?vid=ed9cc6a3-f7cf-44f3-953b-9f03e6c52b9a","ios":"levelo://app?vid=ed9cc6a3-f7cf-44f3-953b-9f03e6c52b9a"},"vehicle_type_id":"4","last_reported":1730535095,"current_range_meters":38800,"station_id":"ce4bh292rcd13ifvqdg0","pricing_plan_id":"cebpf4jnsgd1na2vs0mg"},{"bike_id":"c464d67e-1a73-40bd-b8bb-ad08b05c10b4","system_id":"levelo_inurba_marseille","lat":43.31278,"lon":5.40177,"is_reserved":false,"is_disabled":false,"rental_uris":{"android":"levelo://app?vid=c464d67e-1a73-40bd-b8bb-ad08b05c10b4","ios":"levelo://app?vid=c464d67e-1a73-40bd-b8bb-ad08b05c10b4"},"vehicle_type_id":"4","last_reported":1730535095,"current_range_meters":8400,"station_id":"ce4bh092rcd13ifvqd30","pricing_plan_id":"cebpf4jnsgd1na2vs0mg"},{"bike_id":"dd146168-981e-408f-b3fe-7656f2b9a9b9","system_id":"levelo_inurba_marseille","lat":43.30928,"lon":5.40144,"is_reserved":false,"is_disabled":false,"rental_uris":{"android":"levelo://app?vid=dd146168-981e-408f-b3fe-7656f2b9a9b9","ios":"levelo://app?vid=dd146168-981e-408f-b3fe-7656f2b9a9b9"},"vehicle_type_id":"4","last_reported":1730535095,"current_range_meters":38800,"station_id":"ce4bgvp2rcd13ifvqct0","pricing_plan_id":"cebpf4jnsgd1na2vs0mg"},{"bike_id":"039a64d6-5e87-4141-81e3-2e1ffc1e11a5","system_id":"levelo_inurba_marseille","lat":43.27991,"lon":5.40019,"is_reserved":false,"is_disabled":false,"rental_uris":{"android":"levelo://app?vid=039a64d6-5e87-4141-81e3-2e1ffc1e11a5","ios":"levelo://app?vid=039a64d6-5e87-4141-81e3-2e1ffc1e11a5"},"vehicle_type_id":"4","last_reported":1730535095,"current_range_meters":38800,"station_id":"ce4bho92rcd13ifvqh4g","pricing_plan_id":"cebpf4jnsgd1na2vs0mg"},{"bike_id":"21ff1bff-f285-482f-b9d5-5da60c9f151d","system_id":"levelo_inurba_marseille","lat":43.32481,"lon":5.3657,"is_reserved":false,"is_disabled":false,"rental_uris":{"android":"levelo://app?vid=21ff1bff-f285-482f-b9d5-5da60c9f151d","ios":"levelo://app?vid=21ff1bff-f285-482f-b9d5-5da60c9f151d"},"vehicle_type_id":"4","last_reported":1730535095,"current_range_meters":34000,"station_id":"ce4bhs12rcd13ifvqhvg","pricing_plan_id":"cebpf4jnsgd1na2vs0mg"},{"bike_id":"a9a6908f-e016-4463-a289-1b8cb17b4191","system_id":"levelo_inurba_marseille","lat":43.29277,"lon":5.36847,"is_reserved":false,"is_disabled":false,"rental_uris":{"android":"levelo://app?vid=a9a6908f-e016-4463-a289-1b8cb17b4191","ios":"levelo://app?vid=a9a6908f-e016-4463-a289-1b8cb17b4191"},"vehicle_type_id":"4","last_reported":1730535095,"current_range_meters":38800,"station_id":"ce4bhbp2rcd13ifvqesg","pricing_plan_id":"cebpf4jnsgd1na2vs0mg"},{"bike_id":"05a1b52d-ed51-46c3-9c46-ad7ff8006470","system_id":"levelo_inurba_marseille","lat":43.2467,"lon":5.38169,"is_reserved":false,"is_disabled":false,"rental_uris":{"android":"levelo://app?vid=05a1b52d-ed51-46c3-9c46-ad7ff8006470","ios":"levelo://app?vid=05a1b52d-ed51-46c3-9c46-ad7ff8006470"},"vehicle_type_id":"4","last_reported":1730535095,"current_range_meters":38800,"station_id":"ce4bhih2rcd13ifvqfr0","pricing_plan_id":"cebpf4jnsgd1na2vs0mg"},{"bike_id":"e0fba0ae-03f6-485d-b43f-9360922b602f","system_id":"levelo_inurba_marseille","lat":43.29965,"lon":5.38498,"is_reserved":false,"is_disabled":false,"rental_uris":{"android":"levelo://app?vid=e0fba0ae-03f6-485d-b43f-9360922b602f","ios":"levelo://app?vid=e0fba0ae-03f6-485d-b43f-9360922b602f"},"vehicle_type_id":"4","last_reported":1730535095,"current_range_meters":27600,"station_id":"ce4bgj92rcd13ifvqbd0","pricing_plan_id":"cebpf4jnsgd1na2vs0mg"},{"bike_id":"b18f9999-3088-4ef8-9376-9cfecad69475","system_id":"levelo_inurba_marseille","lat":43.30783,"lon":5.37653,"is_reserved":false,"is_disabled":false,"rental_uris":{"android":"levelo://app?vid=b18f9999-3088-4ef8-9376-9cfecad69475","ios":"levelo://app?vid=b18f9999-3088-4ef8-9376-9cfecad69475"},"vehicle_type_id":"4","last_reported":1730535095,"current_range_meters":20000,"station_id":"ce4bgv92rcd13ifvqcq0","pricing_plan_id":"cebpf4jnsgd1na2vs0mg"},{"bike_id":"2e684b18-333e-4ee3-b75d-d815b8c0e660","system_id":"levelo_inurba_marseille","lat":43.29249,"lon":5.40903,"is_reserved":false,"is_disabled":false,"rental_uris":{"android":"levelo://app?vid=2e684b18-333e-4ee3-b75d-d815b8c0e660","ios":"levelo://app?vid=2e684b18-333e-4ee3-b75d-d815b8c0e660"},"vehicle_type_id":"4","last_reported":1730535095,"current_range_meters":38800,"station_id":"ce4bh192rcd13ifvqdc0","pricing_plan_id":"cebpf4jnsgd1na2vs0mg"},{"bike_id":"d61fa55a-d805-4f16-aadf-773cc1d5bef1","system_id":"levelo_inurba_marseille","lat":43.27321,"lon":5.39098,"is_reserved":false,"is_disabled":false,"rental_uris":{"android":"levelo://app?vid=d61fa55a-d805-4f16-aadf-773cc1d5bef1","ios":"levelo://app?vid=d61fa55a-d805-4f16-aadf-773cc1d5bef1"},"vehicle_type_id":"4","last_reported":1730535095,"current_range_meters":38400,"station_id":"ce4bhgp2rcd13ifvqfe0","pricing_plan_id":"cebpf4jnsgd1na2vs0mg"},{"bike_id":"89f9b078-381e-4f1b-943b-461fcea88c01","system_id":"levelo_inurba_marseille","lat":43.28722,"lon":5.39995,"is_reserved":false,"is_disabled":false,"rental_uris":{"android":"levelo://app?vid=89f9b078-381e-4f1b-943b-461fcea88c01","ios":"levelo://app?vid=89f9b078-381e-4f1b-943b-461fcea88c01"},"vehicle_type_id":"4","last_reported":1730535095,"current_range_meters":38000,"station_id":"ce4bho92rcd13ifvqh3g","pricing_plan_id":"cebpf4jnsgd1na2vs0mg"},{"bike_id":"8096177b-5481-43c4-9ad0-8378e8bbb67c","system_id":"levelo_inurba_marseille","lat":43.26552,"lon":5.37285,"is_reserved":false,"is_disabled":false,"rental_uris":{"android":"levelo://app?vid=8096177b-5481-43c4-9ad0-8378e8bbb67c","ios":"levelo://app?vid=8096177b-5481-43c4-9ad0-8378e8bbb67c"},"vehicle_type_id":"4","last_reported":1730535095,"current_range_meters":38800,"station_id":"ce4bhg12rcd13ifvqf70","pricing_plan_id":"cebpf4jnsgd1na2vs0mg"},{"bike_id":"3e774943-d4aa-471b-a041-87e0abbf5d55","system_id":"levelo_inurba_marseille","lat":43.27182,"lon":5.40987,"is_reserved":false,"is_disabled":false,"rental_uris":{"android":"levelo://app?vid=3e774943-d4aa-471b-a041-87e0abbf5d55","ios":"levelo://app?vid=3e774943-d4aa-471b-a041-87e0abbf5d55"},"vehicle_type_id":"4","last_reported":1730535095,"current_range_meters":9600,"station_id":"ce4bhl12rcd13ifvqgf0","pricing_plan_id":"cebpf4jnsgd1na2vs0mg"},{"bike_id":"c7e7c0b0-5966-4107-8d4c-f58ccc4d9394","system_id":"levelo_inurba_marseille","lat":43.30808,"lon":5.38157,"is_reserved":false,"is_disabled":false,"rental_uris":{"android":"levelo://app?vid=c7e7c0b0-5966-4107-8d4c-f58ccc4d9394","ios":"levelo://app?vid=c7e7c0b0-5966-4107-8d4c-f58ccc4d9394"},"vehicle_type_id":"4","last_reported":1730535095,"current_range_meters":24800,"station_id":"ce4bgt12rcd13ifvqce0","pricing_plan_id":"cebpf4jnsgd1na2vs0mg"},{"bike_id":"ef10497a-439b-4c81-9e9b-6c7dcb7e5450","system_id":"levelo_inurba_marseille","lat":43.28707,"lon":5.40003,"is_reserved":false,"is_disabled":false,"rental_uris":{"android":"levelo://app?vid=ef10497a-439b-4c81-9e9b-6c7dcb7e5450","ios":"levelo://app?vid=ef10497a-439b-4c81-9e9b-6c7dcb7e5450"},"vehicle_type_id":"4","last_reported":1730535095,"current_range_meters":36800,"station_id":"ce4bho92rcd13ifvqh3g","pricing_plan_id":"cebpf4jnsgd1na2vs0mg"},{"bike_id":"fcc7a8c3-cb80-40e7-ba5f-c133f0182200","system_id":"levelo_inurba_marseille","lat":43.2738,"lon":5.36261,"is_reserved":false,"is_disabled":false,"rental_uris":{"android":"levelo://app?vid=fcc7a8c3-cb80-40e7-ba5f-c133f0182200","ios":"levelo://app?vid=fcc7a8c3-cb80-40e7-ba5f-c133f0182200"},"vehicle_type_id":"4","last_reported":1730535095,"current_range_meters":37600,"station_id":"ce4bhbh2rcd13ifvqeo0","pricing_plan_id":"cebpf4jnsgd1na2vs0mg"},{"bike_id":"ad3e9952-3f50-44d8-a74e-6763bc2ff022","system_id":"levelo_inurba_marseille","lat":43.26205,"lon":5.37448,"is_reserved":false,"is_disabled":false,"rental_uris":{"android":"levelo://app?vid=ad3e9952-3f50-44d8-a74e-6763bc2ff022","ios":"levelo://app?vid=ad3e9952-3f50-44d8-a74e-6763bc2ff022"},"vehicle_type_id":"4","last_reported":1730535095,"current_range_meters":33200,"station_id":"ce4bhgp2rcd13ifvqfc0","pricing_plan_id":"cebpf4jnsgd1na2vs0mg"},{"bike_id":"9c510165-3fd2-45d1-85c8-68b221c6f474","system_id":"levelo_inurba_marseille","lat":43.23966,"lon":5.36642,"is_reserved":false,"is_disabled":false,"rental_uris":{"android":"levelo://app?vid=9c510165-3fd2-45d1-85c8-68b221c6f474","ios":"levelo://app?vid=9c510165-3fd2-45d1-85c8-68b221c6f474"},"vehicle_type_id":"4","last_reported":1730535095,"current_range_meters":38800,"station_id":"ce4bhi12rcd13ifvqfp0","pricing_plan_id":"cebpf4jnsgd1na2vs0mg"},{"bike_id":"7c954142-ac60-4cc4-bcad-d1345a3230b3","system_id":"levelo_inurba_marseille","lat":43.29967,"lon":5.38502,"is_reserved":false,"is_disabled":false,"rental_uris":{"android":"levelo://app?vid=7c954142-ac60-4cc4-bcad-d1345a3230b3","ios":"levelo://app?vid=7c954142-ac60-4cc4-bcad-d1345a3230b3"},"vehicle_type_id":"4","last_reported":1730535095,"current_range_meters":36400,"station_id":"ce4bgj92rcd13ifvqbd0","pricing_plan_id":"cebpf4jnsgd1na2vs0mg"},{"bike_id":"a31b90d3-f7c5-446c-be47-2ec33dcd4b2f","system_id":"levelo_inurba_marseille","lat":43.28606,"lon":5.35112,"is_reserved":false,"is_disabled":false,"rental_uris":{"android":"levelo://app?vid=a31b90d3-f7c5-446c-be47-2ec33dcd4b2f","ios":"levelo://app?vid=a31b90d3-f7c5-446c-be47-2ec33dcd4b2f"},"vehicle_type_id":"4","last_reported":1730535095,"current_range_meters":14800,"station_id":"ce4bhch2rcd13ifvqeug","pricing_plan_id":"cebpf4jnsgd1na2vs0mg"},{"bike_id":"37aa487a-5469-49f9-8cdc-b55b700abe2b","system_id":"levelo_inurba_marseille","lat":43.30312,"lon":5.36902,"is_reserved":false,"is_disabled":false,"rental_uris":{"android":"levelo://app?vid=37aa487a-5469-49f9-8cdc-b55b700abe2b","ios":"levelo://app?vid=37aa487a-5469-49f9-8cdc-b55b700abe2b"},"vehicle_type_id":"4","last_reported":1730535095,"current_range_meters":32800,"station_id":"ce4bgqh2rcd13ifvqc5g","pricing_plan_id":"cebpf4jnsgd1na2vs0mg"},{"bike_id":"4aca9276-a75c-423e-b263-5d8176dc7d7b","system_id":"levelo_inurba_marseille","lat":43.30925,"lon":5.40145,"is_reserved":false,"is_disabled":false,"rental_uris":{"android":"levelo://app?vid=4aca9276-a75c-423e-b263-5d8176dc7d7b","ios":"levelo://app?vid=4aca9276-a75c-423e-b263-5d8176dc7d7b"},"vehicle_type_id":"4","last_reported":1730535095,"current_range_meters":12400,"station_id":"ce4bgvp2rcd13ifvqct0","pricing_plan_id":"cebpf4jnsgd1na2vs0mg"},{"bike_id":"b2b9258c-b097-4dc5-8960-f8e623787420","system_id":"levelo_inurba_marseille","lat":43.30086,"lon":5.39082,"is_reserved":false,"is_disabled":false,"rental_uris":{"android":"levelo://app?vid=b2b9258c-b097-4dc5-8960-f8e623787420","ios":"levelo://app?vid=b2b9258c-b097-4dc5-8960-f8e623787420"},"vehicle_type_id":"4","last_reported":1730535095,"current_range_meters":12400,"station_id":"ce4bh192rcd13ifvqdb0","pricing_plan_id":"cebpf4jnsgd1na2vs0mg"},{"bike_id":"8c67d340-801d-46e5-b910-2f8aff3ff078","system_id":"levelo_inurba_marseille","lat":43.33339,"lon":5.37054,"is_reserved":false,"is_disabled":false,"rental_uris":{"android":"levelo://app?vid=8c67d340-801d-46e5-b910-2f8aff3ff078","ios":"levelo://app?vid=8c67d340-801d-46e5-b910-2f8aff3ff078"},"vehicle_type_id":"4","last_reported":1730535095,"current_range_meters":10800,"station_id":"","pricing_plan_id":"cebpf4jnsgd1na2vs0mg"},{"bike_id":"83356032-baeb-401a-bdff-8adddb83ed12","system_id":"levelo_inurba_marseille","lat":43.23193,"lon":5.35548,"is_reserved":false,"is_disabled":false,"rental_uris":{"android":"levelo://app?vid=83356032-baeb-401a-bdff-8adddb83ed12","ios":"levelo://app?vid=83356032-baeb-401a-bdff-8adddb83ed12"},"vehicle_type_id":"4","last_reported":1730535095,"current_range_meters":37600,"station_id":"ce4bhu92rcd13ifvqi70","pricing_plan_id":"cebpf4jnsgd1na2vs0mg"},{"bike_id":"af963c11-4218-4474-b8e9-bbb749cadb90","system_id":"levelo_inurba_marseille","lat":43.302056,"lon":5.3946,"is_reserved":false,"is_disabled":false,"rental_uris":{"android":"levelo://app?vid=af963c11-4218-4474-b8e9-bbb749cadb90","ios":"levelo://app?vid=af963c11-4218-4474-b8e9-bbb749cadb90"},"vehicle_type_id":"4","last_reported":1730535095,"current_range_meters":19600,"station_id":"ce4bh0p2rcd13ifvqd70","pricing_plan_id":"cebpf4jnsgd1na2vs0mg"},{"bike_id":"c51bdb8d-15a4-4391-9581-03faab0332bb","system_id":"levelo_inurba_marseille","lat":43.28465,"lon":5.35886,"is_reserved":false,"is_disabled":false,"rental_uris":{"android":"levelo://app?vid=c51bdb8d-15a4-4391-9581-03faab0332bb","ios":"levelo://app?vid=c51bdb8d-15a4-4391-9581-03faab0332bb"},"vehicle_type_id":"4","last_reported":1730535095,"current_range_meters":19200,"station_id":"ce4bhah2rcd13ifvqei0","pricing_plan_id":"cebpf4jnsgd1na2vs0mg"},{"bike_id":"d6989496-6ec0-4cb1-9a34-254c176dcde3","system_id":"levelo_inurba_marseille","lat":43.27916,"lon":5.39586,"is_reserved":false,"is_disabled":false,"rental_uris":{"android":"levelo://app?vid=d6989496-6ec0-4cb1-9a34-254c176dcde3","ios":"levelo://app?vid=d6989496-6ec0-4cb1-9a34-254c176dcde3"},"vehicle_type_id":"4","last_reported":1730535095,"current_range_meters":20400,"station_id":"ce4bhf92rcd13ifvqf40","pricing_plan_id":"cebpf4jnsgd1na2vs0mg"},{"bike_id":"df63b9c4-e15c-4263-a5c8-6ddf8c81a210","system_id":"levelo_inurba_marseille","lat":43.26052,"lon":5.39401,"is_reserved":false,"is_disabled":false,"rental_uris":{"android":"levelo://app?vid=df63b9c4-e15c-4263-a5c8-6ddf8c81a210","ios":"levelo://app?vid=df63b9c4-e15c-4263-a5c8-6ddf8c81a210"},"vehicle_type_id":"4","last_reported":1730535095,"current_range_meters":39200,"station_id":"ce4bhh92rcd13ifvqfj0","pricing_plan_id":"cebpf4jnsgd1na2vs0mg"},{"bike_id":"69a0d18e-0381-4102-9fad-3f8c57fc1228","system_id":"levelo_inurba_marseille","lat":43.23069,"lon":5.35492,"is_reserved":false,"is_disabled":false,"rental_uris":{"android":"levelo://app?vid=69a0d18e-0381-4102-9fad-3f8c57fc1228","ios":"levelo://app?vid=69a0d18e-0381-4102-9fad-3f8c57fc1228"},"vehicle_type_id":"4","last_reported":1730535095,"current_range_meters":38000,"station_id":"cpo3342slgdg3j2ifvpg","pricing_plan_id":"cebpf4jnsgd1na2vs0mg"},{"bike_id":"07d0df56-f8bc-46e6-871c-8e071fb175e5","system_id":"levelo_inurba_marseille","lat":43.23196,"lon":5.35552,"is_reserved":false,"is_disabled":false,"rental_uris":{"android":"levelo://app?vid=07d0df56-f8bc-46e6-871c-8e071fb175e5","ios":"levelo://app?vid=07d0df56-f8bc-46e6-871c-8e071fb175e5"},"vehicle_type_id":"4","last_reported":1730535095,"current_range_meters":37600,"station_id":"ce4bhu92rcd13ifvqi70","pricing_plan_id":"cebpf4jnsgd1na2vs0mg"},{"bike_id":"c6d704cc-1501-4613-b3b5-a7b0324f07a3","system_id":"levelo_inurba_marseille","lat":43.29498,"lon":5.37969,"is_reserved":false,"is_disabled":false,"rental_uris":{"android":"levelo://app?vid=c6d704cc-1501-4613-b3b5-a7b0324f07a3","ios":"levelo://app?vid=c6d704cc-1501-4613-b3b5-a7b0324f07a3"},"vehicle_type_id":"4","last_reported":1730535095,"current_range_meters":36800,"station_id":"ce4bh4p2rcd13ifvqe0g","pricing_plan_id":"cebpf4jnsgd1na2vs0mg"},{"bike_id":"19e6008c-0743-45ac-b4bf-fc683ef0e14c","system_id":"levelo_inurba_marseille","lat":43.25721,"lon":5.41112,"is_reserved":false,"is_disabled":false,"rental_uris":{"android":"levelo://app?vid=19e6008c-0743-45ac-b4bf-fc683ef0e14c","ios":"levelo://app?vid=19e6008c-0743-45ac-b4bf-fc683ef0e14c"},"vehicle_type_id":"4","last_reported":1730535095,"current_range_meters":26800,"station_id":"ce4bhkp2rcd13ifvqgd0","pricing_plan_id":"cebpf4jnsgd1na2vs0mg"},{"bike_id":"ab8829f0-c8a7-44a4-9d60-322dda417b22","system_id":"levelo_inurba_marseille","lat":43.30441,"lon":5.39747,"is_reserved":false,"is_disabled":false,"rental_uris":{"android":"levelo://app?vid=ab8829f0-c8a7-44a4-9d60-322dda417b22","ios":"levelo://app?vid=ab8829f0-c8a7-44a4-9d60-322dda417b22"},"vehicle_type_id":"4","last_reported":1730535095,"current_range_meters":36800,"station_id":"ce4bh092rcd13ifvqd20","pricing_plan_id":"cebpf4jnsgd1na2vs0mg"},{"bike_id":"55b4d402-cd88-41c4-94f3-0c54ee939bb0","system_id":"levelo_inurba_marseille","lat":43.25866,"lon":5.399,"is_reserved":false,"is_disabled":false,"rental_uris":{"android":"levelo://app?vid=55b4d402-cd88-41c4-94f3-0c54ee939bb0","ios":"levelo://app?vid=55b4d402-cd88-41c4-94f3-0c54ee939bb0"},"vehicle_type_id":"4","last_reported":1730535095,"current_range_meters":19200,"station_id":"ce4bhl92rcd13ifvqghg","pricing_plan_id":"cebpf4jnsgd1na2vs0mg"},{"bike_id":"9dbd59d9-8696-4c35-8f8b-1be0b8000368","system_id":"levelo_inurba_marseille","lat":43.24074,"lon":5.3776,"is_reserved":false,"is_disabled":false,"rental_uris":{"android":"levelo://app?vid=9dbd59d9-8696-4c35-8f8b-1be0b8000368","ios":"levelo://app?vid=9dbd59d9-8696-4c35-8f8b-1be0b8000368"},"vehicle_type_id":"4","last_reported":1730535095,"current_range_meters":38800,"station_id":"ce4bhnp2rcd13ifvqgvg","pricing_plan_id":"cebpf4jnsgd1na2vs0mg"},{"bike_id":"da5c884d-cbc9-48d6-9f78-034621a79c11","system_id":"levelo_inurba_marseille","lat":43.288496,"lon":5.358475,"is_reserved":false,"is_disabled":false,"rental_uris":{"android":"levelo://app?vid=da5c884d-cbc9-48d6-9f78-034621a79c11","ios":"levelo://app?vid=da5c884d-cbc9-48d6-9f78-034621a79c11"},"vehicle_type_id":"4","last_reported":1730535095,"current_range_meters":23200,"station_id":"ce4bhb12rcd13ifvqem0","pricing_plan_id":"cebpf4jnsgd1na2vs0mg"},{"bike_id":"5b1e2d2d-097b-4803-9d98-a9e4053ecb72","system_id":"levelo_inurba_marseille","lat":43.30131,"lon":5.38795,"is_reserved":false,"is_disabled":false,"rental_uris":{"android":"levelo://app?vid=5b1e2d2d-097b-4803-9d98-a9e4053ecb72","ios":"levelo://app?vid=5b1e2d2d-097b-4803-9d98-a9e4053ecb72"},"vehicle_type_id":"4","last_reported":1730535095,"current_range_meters":32800,"station_id":"ce4bghh2rcd13ifvqb60","pricing_plan_id":"cebpf4jnsgd1na2vs0mg"},{"bike_id":"c14abbb4-4d06-46c3-8367-d2701001bce7","system_id":"levelo_inurba_marseille","lat":43.30295,"lon":5.36903,"is_reserved":false,"is_disabled":false,"rental_uris":{"android":"levelo://app?vid=c14abbb4-4d06-46c3-8367-d2701001bce7","ios":"levelo://app?vid=c14abbb4-4d06-46c3-8367-d2701001bce7"},"vehicle_type_id":"4","last_reported":1730535095,"current_range_meters":32000,"station_id":"ce4bgqh2rcd13ifvqc5g","pricing_plan_id":"cebpf4jnsgd1na2vs0mg"},{"bike_id":"11c750a2-d7b5-480d-8e51-6aba667e5991","system_id":"levelo_inurba_marseille","lat":43.31721,"lon":5.42406,"is_reserved":false,"is_disabled":false,"rental_uris":{"android":"levelo://app?vid=11c750a2-d7b5-480d-8e51-6aba667e5991","ios":"levelo://app?vid=11c750a2-d7b5-480d-8e51-6aba667e5991"},"vehicle_type_id":"4","last_reported":1730535095,"current_range_meters":38800,"station_id":"ce4bhp92rcd13ifvqhbg","pricing_plan_id":"cebpf4jnsgd1na2vs0mg"},{"bike_id":"b35737c6-49ec-46a6-98b7-a66d9ca0bf72","system_id":"levelo_inurba_marseille","lat":43.29512,"lon":5.39049,"is_reserved":false,"is_disabled":false,"rental_uris":{"android":"levelo://app?vid=b35737c6-49ec-46a6-98b7-a66d9ca0bf72","ios":"levelo://app?vid=b35737c6-49ec-46a6-98b7-a66d9ca0bf72"},"vehicle_type_id":"4","last_reported":1730535095,"current_range_meters":38000,"station_id":"ce4bh3p2rcd13ifvqdp0","pricing_plan_id":"cebpf4jnsgd1na2vs0mg"},{"bike_id":"2903c013-e181-4ebd-9b78-e8fc99700e6a","system_id":"levelo_inurba_marseille","lat":43.29678,"lon":5.37292,"is_reserved":false,"is_disabled":false,"rental_uris":{"android":"levelo://app?vid=2903c013-e181-4ebd-9b78-e8fc99700e6a","ios":"levelo://app?vid=2903c013-e181-4ebd-9b78-e8fc99700e6a"},"vehicle_type_id":"4","last_reported":1730535095,"current_range_meters":38800,"station_id":"ce4bgk12rcd13ifvqbj0","pricing_plan_id":"cebpf4jnsgd1na2vs0mg"},{"bike_id":"0180bcde-9c85-4250-aed6-ae51c598caef","system_id":"levelo_inurba_marseille","lat":43.28851,"lon":5.358573,"is_reserved":false,"is_disabled":false,"rental_uris":{"android":"levelo://app?vid=0180bcde-9c85-4250-aed6-ae51c598caef","ios":"levelo://app?vid=0180bcde-9c85-4250-aed6-ae51c598caef"},"vehicle_type_id":"4","last_reported":1730535095,"current_range_meters":37600,"station_id":"ce4bhb12rcd13ifvqem0","pricing_plan_id":"cebpf4jnsgd1na2vs0mg"},{"bike_id":"e316822c-24ef-41b5-8cad-fd80a2dd02f9","system_id":"levelo_inurba_marseille","lat":43.31086,"lon":5.38371,"is_reserved":false,"is_disabled":false,"rental_uris":{"android":"levelo://app?vid=e316822c-24ef-41b5-8cad-fd80a2dd02f9","ios":"levelo://app?vid=e316822c-24ef-41b5-8cad-fd80a2dd02f9"},"vehicle_type_id":"4","last_reported":1730535095,"current_range_meters":23200,"station_id":"ce4bgv92rcd13ifvqcr0","pricing_plan_id":"cebpf4jnsgd1na2vs0mg"},{"bike_id":"10ff0e75-6443-4419-b59b-5c0fc7db1fb9","system_id":"levelo_inurba_marseille","lat":43.30535,"lon":5.36697,"is_reserved":false,"is_disabled":false,"rental_uris":{"android":"levelo://app?vid=10ff0e75-6443-4419-b59b-5c0fc7db1fb9","ios":"levelo://app?vid=10ff0e75-6443-4419-b59b-5c0fc7db1fb9"},"vehicle_type_id":"4","last_reported":1730535095,"current_range_meters":38800,"station_id":"ce4bgrp2rcd13ifvqc9g","pricing_plan_id":"cebpf4jnsgd1na2vs0mg"},{"bike_id":"536b3b96-b168-48a9-900f-a9bfebbd46ad","system_id":"levelo_inurba_marseille","lat":43.29195,"lon":5.35804,"is_reserved":false,"is_disabled":false,"rental_uris":{"android":"levelo://app?vid=536b3b96-b168-48a9-900f-a9bfebbd46ad","ios":"levelo://app?vid=536b3b96-b168-48a9-900f-a9bfebbd46ad"},"vehicle_type_id":"4","last_reported":1730535095,"current_range_meters":38000,"station_id":"ce4bhb12rcd13ifvqel0","pricing_plan_id":"cebpf4jnsgd1na2vs0mg"},{"bike_id":"367151e3-d9d1-496e-afc3-1d3ad14f98c6","system_id":"levelo_inurba_marseille","lat":43.32361,"lon":5.38894,"is_reserved":false,"is_disabled":false,"rental_uris":{"android":"levelo://app?vid=367151e3-d9d1-496e-afc3-1d3ad14f98c6","ios":"levelo://app?vid=367151e3-d9d1-496e-afc3-1d3ad14f98c6"},"vehicle_type_id":"4","last_reported":1730535095,"current_range_meters":33200,"station_id":"ce4bhqp2rcd13ifvqhog","pricing_plan_id":"cebpf4jnsgd1na2vs0mg"},{"bike_id":"70f4385c-6b37-4d0d-8049-f1a6bce30f9f","system_id":"levelo_inurba_marseille","lat":43.284541,"lon":5.358984,"is_reserved":false,"is_disabled":false,"rental_uris":{"android":"levelo://app?vid=70f4385c-6b37-4d0d-8049-f1a6bce30f9f","ios":"levelo://app?vid=70f4385c-6b37-4d0d-8049-f1a6bce30f9f"},"vehicle_type_id":"4","last_reported":1730535095,"current_range_meters":38000,"station_id":"ce4bhah2rcd13ifvqei0","pricing_plan_id":"cebpf4jnsgd1na2vs0mg"},{"bike_id":"95d1a7ff-d4ab-47df-8e80-0214147486da","system_id":"levelo_inurba_marseille","lat":43.29787,"lon":5.39353,"is_reserved":false,"is_disabled":false,"rental_uris":{"android":"levelo://app?vid=95d1a7ff-d4ab-47df-8e80-0214147486da","ios":"levelo://app?vid=95d1a7ff-d4ab-47df-8e80-0214147486da"},"vehicle_type_id":"4","last_reported":1730535095,"current_range_meters":20400,"station_id":"chh1huq6cuj3fo74tm60","pricing_plan_id":"cebpf4jnsgd1na2vs0mg"},{"bike_id":"daf144e9-19b3-4722-9ae1-2fdb90fcc256","system_id":"levelo_inurba_marseille","lat":43.30934,"lon":5.40147,"is_reserved":false,"is_disabled":false,"rental_uris":{"android":"levelo://app?vid=daf144e9-19b3-4722-9ae1-2fdb90fcc256","ios":"levelo://app?vid=daf144e9-19b3-4722-9ae1-2fdb90fcc256"},"vehicle_type_id":"4","last_reported":1730535095,"current_range_meters":8000,"station_id":"ce4bgvp2rcd13ifvqct0","pricing_plan_id":"cebpf4jnsgd1na2vs0mg"},{"bike_id":"dfe320a2-29f8-4816-98fb-5f3fe9260eaf","system_id":"levelo_inurba_marseille","lat":43.28153,"lon":5.42646,"is_reserved":false,"is_disabled":false,"rental_uris":{"android":"levelo://app?vid=dfe320a2-29f8-4816-98fb-5f3fe9260eaf","ios":"levelo://app?vid=dfe320a2-29f8-4816-98fb-5f3fe9260eaf"},"vehicle_type_id":"4","last_reported":1730535095,"current_range_meters":26800,"station_id":"ce4bhnh2rcd13ifvqgug","pricing_plan_id":"cebpf4jnsgd1na2vs0mg"},{"bike_id":"184be8ec-fbf1-42f9-9d0b-336d167638cd","system_id":"levelo_inurba_marseille","lat":43.27809,"lon":5.40714,"is_reserved":false,"is_disabled":false,"rental_uris":{"android":"levelo://app?vid=184be8ec-fbf1-42f9-9d0b-336d167638cd","ios":"levelo://app?vid=184be8ec-fbf1-42f9-9d0b-336d167638cd"},"vehicle_type_id":"4","last_reported":1730535095,"current_range_meters":36800,"station_id":"ce4bhnh2rcd13ifvqgtg","pricing_plan_id":"cebpf4jnsgd1na2vs0mg"},{"bike_id":"31438b49-3f30-4c70-b7cc-3940fa88b5ae","system_id":"levelo_inurba_marseille","lat":43.30156,"lon":5.38082,"is_reserved":false,"is_disabled":false,"rental_uris":{"android":"levelo://app?vid=31438b49-3f30-4c70-b7cc-3940fa88b5ae","ios":"levelo://app?vid=31438b49-3f30-4c70-b7cc-3940fa88b5ae"},"vehicle_type_id":"4","last_reported":1730535095,"current_range_meters":10800,"station_id":"ce4bgjp2rcd13ifvqbh0","pricing_plan_id":"cebpf4jnsgd1na2vs0mg"},{"bike_id":"e380af21-a9ce-4fa0-8ec7-026ab3ce71e8","system_id":"levelo_inurba_marseille","lat":43.3044,"lon":5.39748,"is_reserved":false,"is_disabled":false,"rental_uris":{"android":"levelo://app?vid=e380af21-a9ce-4fa0-8ec7-026ab3ce71e8","ios":"levelo://app?vid=e380af21-a9ce-4fa0-8ec7-026ab3ce71e8"},"vehicle_type_id":"4","last_reported":1730535095,"current_range_meters":36800,"station_id":"ce4bh092rcd13ifvqd20","pricing_plan_id":"cebpf4jnsgd1na2vs0mg"},{"bike_id":"f8fe032d-85f5-447e-a12f-4e0a63195622","system_id":"levelo_inurba_marseille","lat":43.26556,"lon":5.39008,"is_reserved":false,"is_disabled":false,"rental_uris":{"android":"levelo://app?vid=f8fe032d-85f5-447e-a12f-4e0a63195622","ios":"levelo://app?vid=f8fe032d-85f5-447e-a12f-4e0a63195622"},"vehicle_type_id":"4","last_reported":1730535095,"current_range_meters":38800,"station_id":"ce4bhe12rcd13ifvqf30","pricing_plan_id":"cebpf4jnsgd1na2vs0mg"},{"bike_id":"13e33eb4-4047-42db-bde6-bdaecc8f2346","system_id":"levelo_inurba_marseille","lat":43.29517,"lon":5.39402,"is_reserved":false,"is_disabled":false,"rental_uris":{"android":"levelo://app?vid=13e33eb4-4047-42db-bde6-bdaecc8f2346","ios":"levelo://app?vid=13e33eb4-4047-42db-bde6-bdaecc8f2346"},"vehicle_type_id":"4","last_reported":1730535095,"current_range_meters":33200,"station_id":"ce4bh292rcd13ifvqdf0","pricing_plan_id":"cebpf4jnsgd1na2vs0mg"},{"bike_id":"57d18951-2001-4003-92d2-aa5cb684af8c","system_id":"levelo_inurba_marseille","lat":43.2711,"lon":5.39446,"is_reserved":false,"is_disabled":false,"rental_uris":{"android":"levelo://app?vid=57d18951-2001-4003-92d2-aa5cb684af8c","ios":"levelo://app?vid=57d18951-2001-4003-92d2-aa5cb684af8c"},"vehicle_type_id":"4","last_reported":1730535095,"current_range_meters":18000,"station_id":"","pricing_plan_id":"cebpf4jnsgd1na2vs0mg"},{"bike_id":"381ec629-1aa8-4c1e-aa5f-80c357699a57","system_id":"levelo_inurba_marseille","lat":43.30087,"lon":5.39089,"is_reserved":false,"is_disabled":false,"rental_uris":{"android":"levelo://app?vid=381ec629-1aa8-4c1e-aa5f-80c357699a57","ios":"levelo://app?vid=381ec629-1aa8-4c1e-aa5f-80c357699a57"},"vehicle_type_id":"4","last_reported":1730535095,"current_range_meters":20000,"station_id":"ce4bh192rcd13ifvqdb0","pricing_plan_id":"cebpf4jnsgd1na2vs0mg"},{"bike_id":"5c27b960-6461-4f9d-887b-b61a1549abaa","system_id":"levelo_inurba_marseille","lat":43.25113,"lon":5.40322,"is_reserved":false,"is_disabled":false,"rental_uris":{"android":"levelo://app?vid=5c27b960-6461-4f9d-887b-b61a1549abaa","ios":"levelo://app?vid=5c27b960-6461-4f9d-887b-b61a1549abaa"},"vehicle_type_id":"4","last_reported":1730535095,"current_range_meters":4000,"station_id":"ce4bhlh2rcd13ifvqgig","pricing_plan_id":"cebpf4jnsgd1na2vs0mg"},{"bike_id":"2875d132-b86c-4530-91db-97c0e35f7115","system_id":"levelo_inurba_marseille","lat":43.23191,"lon":5.39979,"is_reserved":false,"is_disabled":false,"rental_uris":{"android":"levelo://app?vid=2875d132-b86c-4530-91db-97c0e35f7115","ios":"levelo://app?vid=2875d132-b86c-4530-91db-97c0e35f7115"},"vehicle_type_id":"4","last_reported":1730535095,"current_range_meters":38800,"station_id":"ce4bhn12rcd13ifvqgqg","pricing_plan_id":"cebpf4jnsgd1na2vs0mg"},{"bike_id":"d2060e85-22b1-4e7c-bb98-594e7acf358f","system_id":"levelo_inurba_marseille","lat":43.270935,"lon":5.389085,"is_reserved":false,"is_disabled":false,"rental_uris":{"android":"levelo://app?vid=d2060e85-22b1-4e7c-bb98-594e7acf358f","ios":"levelo://app?vid=d2060e85-22b1-4e7c-bb98-594e7acf358f"},"vehicle_type_id":"4","last_reported":1730535095,"current_range_meters":17600,"station_id":"ce4bh392rcd13ifvqdm0","pricing_plan_id":"cebpf4jnsgd1na2vs0mg"},{"bike_id":"bd9da8da-0e62-42e0-b8e3-48974947ce73","system_id":"levelo_inurba_marseille","lat":43.27816,"lon":5.40712,"is_reserved":false,"is_disabled":false,"rental_uris":{"android":"levelo://app?vid=bd9da8da-0e62-42e0-b8e3-48974947ce73","ios":"levelo://app?vid=bd9da8da-0e62-42e0-b8e3-48974947ce73"},"vehicle_type_id":"4","last_reported":1730535095,"current_range_meters":37600,"station_id":"ce4bhnh2rcd13ifvqgtg","pricing_plan_id":"cebpf4jnsgd1na2vs0mg"},{"bike_id":"e48c7427-c457-47fd-a7c9-877ffa802ed2","system_id":"levelo_inurba_marseille","lat":43.29294,"lon":5.37451,"is_reserved":false,"is_disabled":false,"rental_uris":{"android":"levelo://app?vid=e48c7427-c457-47fd-a7c9-877ffa802ed2","ios":"levelo://app?vid=e48c7427-c457-47fd-a7c9-877ffa802ed2"},"vehicle_type_id":"4","last_reported":1730535095,"current_range_meters":38800,"station_id":"ce4bgi12rcd13ifvqb70","pricing_plan_id":"cebpf4jnsgd1na2vs0mg"},{"bike_id":"b27b6b18-d801-4b0b-a4e3-bc55bc4a9aed","system_id":"levelo_inurba_marseille","lat":43.25727,"lon":5.41108,"is_reserved":false,"is_disabled":false,"rental_uris":{"android":"levelo://app?vid=b27b6b18-d801-4b0b-a4e3-bc55bc4a9aed","ios":"levelo://app?vid=b27b6b18-d801-4b0b-a4e3-bc55bc4a9aed"},"vehicle_type_id":"4","last_reported":1730535095,"current_range_meters":38800,"station_id":"ce4bhkp2rcd13ifvqgd0","pricing_plan_id":"cebpf4jnsgd1na2vs0mg"},{"bike_id":"f82cfb4f-c90d-4c29-b56c-0e4ee19bcf61","system_id":"levelo_inurba_marseille","lat":43.25114,"lon":5.40321,"is_reserved":false,"is_disabled":false,"rental_uris":{"android":"levelo://app?vid=f82cfb4f-c90d-4c29-b56c-0e4ee19bcf61","ios":"levelo://app?vid=f82cfb4f-c90d-4c29-b56c-0e4ee19bcf61"},"vehicle_type_id":"4","last_reported":1730535095,"current_range_meters":33200,"station_id":"ce4bhlh2rcd13ifvqgig","pricing_plan_id":"cebpf4jnsgd1na2vs0mg"},{"bike_id":"9dc03996-e494-461d-a2e6-0cceab572c73","system_id":"levelo_inurba_marseille","lat":43.30431,"lon":5.39748,"is_reserved":false,"is_disabled":false,"rental_uris":{"android":"levelo://app?vid=9dc03996-e494-461d-a2e6-0cceab572c73","ios":"levelo://app?vid=9dc03996-e494-461d-a2e6-0cceab572c73"},"vehicle_type_id":"4","last_reported":1730535095,"current_range_meters":38400,"station_id":"ce4bh092rcd13ifvqd20","pricing_plan_id":"cebpf4jnsgd1na2vs0mg"},{"bike_id":"639bb546-5a14-42d0-a97f-a7a60c11c0e2","system_id":"levelo_inurba_marseille","lat":43.30811,"lon":5.38148,"is_reserved":false,"is_disabled":false,"rental_uris":{"android":"levelo://app?vid=639bb546-5a14-42d0-a97f-a7a60c11c0e2","ios":"levelo://app?vid=639bb546-5a14-42d0-a97f-a7a60c11c0e2"},"vehicle_type_id":"4","last_reported":1730535095,"current_range_meters":37600,"station_id":"ce4bgt12rcd13ifvqce0","pricing_plan_id":"cebpf4jnsgd1na2vs0mg"},{"bike_id":"b5141bc9-9d88-4bb1-b22f-04de0c14c40d","system_id":"levelo_inurba_marseille","lat":43.29625,"lon":5.37173,"is_reserved":false,"is_disabled":false,"rental_uris":{"android":"levelo://app?vid=b5141bc9-9d88-4bb1-b22f-04de0c14c40d","ios":"levelo://app?vid=b5141bc9-9d88-4bb1-b22f-04de0c14c40d"},"vehicle_type_id":"4","last_reported":1730535095,"current_range_meters":38000,"station_id":"ce4bgnh2rcd13ifvqc0g","pricing_plan_id":"cebpf4jnsgd1na2vs0mg"},{"bike_id":"94279a57-03c0-47b7-abe3-7226e86fd3b0","system_id":"levelo_inurba_marseille","lat":43.276097,"lon":5.36113,"is_reserved":false,"is_disabled":false,"rental_uris":{"android":"levelo://app?vid=94279a57-03c0-47b7-abe3-7226e86fd3b0","ios":"levelo://app?vid=94279a57-03c0-47b7-abe3-7226e86fd3b0"},"vehicle_type_id":"4","last_reported":1730535095,"current_range_meters":20800,"station_id":"ce4bgj92rcd13ifvqbe0","pricing_plan_id":"cebpf4jnsgd1na2vs0mg"},{"bike_id":"9b9589cf-76fa-4cdb-8783-c39aeaeda1d9","system_id":"levelo_inurba_marseille","lat":43.29974,"lon":5.38478,"is_reserved":false,"is_disabled":false,"rental_uris":{"android":"levelo://app?vid=9b9589cf-76fa-4cdb-8783-c39aeaeda1d9","ios":"levelo://app?vid=9b9589cf-76fa-4cdb-8783-c39aeaeda1d9"},"vehicle_type_id":"4","last_reported":1730535095,"current_range_meters":32800,"station_id":"ce4bgj92rcd13ifvqbd0","pricing_plan_id":"cebpf4jnsgd1na2vs0mg"},{"bike_id":"5ba96efd-c7f6-4c98-a13a-ac0276d3d2f3","system_id":"levelo_inurba_marseille","lat":43.31682,"lon":5.37592,"is_reserved":false,"is_disabled":false,"rental_uris":{"android":"levelo://app?vid=5ba96efd-c7f6-4c98-a13a-ac0276d3d2f3","ios":"levelo://app?vid=5ba96efd-c7f6-4c98-a13a-ac0276d3d2f3"},"vehicle_type_id":"4","last_reported":1730535095,"current_range_meters":31200,"station_id":"","pricing_plan_id":"cebpf4jnsgd1na2vs0mg"},{"bike_id":"1bd5b08a-eda8-4406-8254-7f9d0b12de51","system_id":"levelo_inurba_marseille","lat":43.31328,"lon":5.39701,"is_reserved":false,"is_disabled":false,"rental_uris":{"android":"levelo://app?vid=1bd5b08a-eda8-4406-8254-7f9d0b12de51","ios":"levelo://app?vid=1bd5b08a-eda8-4406-8254-7f9d0b12de51"},"vehicle_type_id":"4","last_reported":1730535095,"current_range_meters":38800,"station_id":"ce4bgvp2rcd13ifvqcu0","pricing_plan_id":"cebpf4jnsgd1na2vs0mg"},{"bike_id":"5ba8e5a8-09bf-412b-b182-000192a6d1f7","system_id":"levelo_inurba_marseille","lat":43.33022,"lon":5.39049,"is_reserved":false,"is_disabled":false,"rental_uris":{"android":"levelo://app?vid=5ba8e5a8-09bf-412b-b182-000192a6d1f7","ios":"levelo://app?vid=5ba8e5a8-09bf-412b-b182-000192a6d1f7"},"vehicle_type_id":"4","last_reported":1730535095,"current_range_meters":22800,"station_id":"ce4bhr92rcd13ifvqhrg","pricing_plan_id":"cebpf4jnsgd1na2vs0mg"},{"bike_id":"16b3fb65-f37b-4d13-a3ce-e47f10333d42","system_id":"levelo_inurba_marseille","lat":43.29611,"lon":5.37721,"is_reserved":false,"is_disabled":false,"rental_uris":{"android":"levelo://app?vid=16b3fb65-f37b-4d13-a3ce-e47f10333d42","ios":"levelo://app?vid=16b3fb65-f37b-4d13-a3ce-e47f10333d42"},"vehicle_type_id":"4","last_reported":1730535095,"current_range_meters":37600,"station_id":"ce4bgi92rcd13ifvqb90","pricing_plan_id":"cebpf4jnsgd1na2vs0mg"},{"bike_id":"5c376746-8bb7-4b9e-8a0c-32e43ca63f0b","system_id":"levelo_inurba_marseille","lat":43.28266,"lon":5.35084,"is_reserved":false,"is_disabled":false,"rental_uris":{"android":"levelo://app?vid=5c376746-8bb7-4b9e-8a0c-32e43ca63f0b","ios":"levelo://app?vid=5c376746-8bb7-4b9e-8a0c-32e43ca63f0b"},"vehicle_type_id":"4","last_reported":1730535095,"current_range_meters":26000,"station_id":"ce4bhbp2rcd13ifvqerg","pricing_plan_id":"cebpf4jnsgd1na2vs0mg"},{"bike_id":"57e9c9c3-2402-4987-9c1e-fefa68c11d56","system_id":"levelo_inurba_marseille","lat":43.27322,"lon":5.39083,"is_reserved":false,"is_disabled":false,"rental_uris":{"android":"levelo://app?vid=57e9c9c3-2402-4987-9c1e-fefa68c11d56","ios":"levelo://app?vid=57e9c9c3-2402-4987-9c1e-fefa68c11d56"},"vehicle_type_id":"4","last_reported":1730535095,"current_range_meters":36800,"station_id":"ce4bhgp2rcd13ifvqfe0","pricing_plan_id":"cebpf4jnsgd1na2vs0mg"},{"bike_id":"1f35312e-f2aa-4f2a-9e88-8e78d750b7f1","system_id":"levelo_inurba_marseille","lat":43.28477,"lon":5.38424,"is_reserved":false,"is_disabled":false,"rental_uris":{"android":"levelo://app?vid=1f35312e-f2aa-4f2a-9e88-8e78d750b7f1","ios":"levelo://app?vid=1f35312e-f2aa-4f2a-9e88-8e78d750b7f1"},