{"last_updated":1748445006,"ttl":60,"version":"2.2","data":{"bikes":[{"bike_id":"55d42eeb-6b71-4987-a0f2-3d758b10d43e","system_id":"levelo_inurba_marseille","lat":43.33771,"lon":5.37424,"is_reserved":false,"is_disabled":true,"rental_uris":{"android":"levelo://app?vid=55d42eeb-6b71-4987-a0f2-3d758b10d43e","ios":"levelo://app?vid=55d42eeb-6b71-4987-a0f2-3d758b10d43e"},"vehicle_type_id":"4","last_reported":1748445006,"current_range_meters":0,"station_id":"","pricing_plan_id":"cebpf4jnsgd1na2vs0mg"},{"bike_id":"b7fe4621-b706-42f0-9085-4811142f84e8","system_id":"levelo_inurba_marseille","lat":43.337499,"lon":5.374469,"is_reserved":false,"is_disabled":true,"rental_uris":{"android":"levelo://app?vid=b7fe4621-b706-42f0-9085-4811142f84e8","ios":"levelo://app?vid=b7fe4621-b706-42f0-9085-4811142f84e8"},"vehicle_type_id":"4","last_reported":1748445006,"current_range_meters":0,"station_id":"","pricing_plan_id":"cebpf4jnsgd1na2vs0mg"},{"bike_id":"ad402f0f-3192-410c-afac-8cf064a40c6d","system_id":"levelo_inurba_marseille","lat":43.337444,"lon":5.374475,"is_reserved":false,"is_disabled":true,"rental_uris":{"android":"levelo://app?vid=ad402f0f-3192-410c-afac-8cf064a40c6d","ios":"levelo://app?vid=ad402f0f-3192-410c-afac-8cf064a40c6d"},"vehicle_type_id":"4","last_reported":1748445006,"current_range_meters":0,"station_id":"","pricing_plan_id":"cebpf4jnsgd1na2vs0mg"},{"bike_id":"0bef0415-ce51-40f5-8a31-e3d1218996d8","system_id":"levelo_inurba_marseille","lat":43.2894,"lon":5.35751,"is_reserved":false,"is_disabled":true,"rental_uris":{"android":"levelo://app?vid=0bef0415-ce51-40f5-8a31-e3d1218996d8","ios":"levelo://app?vid=0bef0415-ce51-40f5-8a31-e3d1218996d8"},"vehicle_type_id":"4","last_reported":1748445006,"current_range_meters":0,"station_id":"","pricing_plan_id":"cebpf4jnsgd1na2vs0mg"},{"bike_id":"80dc1064-d63f-4a22-ad21-d8abd70986c0","system_id":"levelo_inurba_marseille","lat":43.33773,"lon":5.37484,"is_reserved":false,"is_disabled":true,"rental_uris":{"android":"levelo://app?vid=80dc1064-d63f-4a22-ad21-d8abd70986c0","ios":"levelo://app?vid=80dc1064-d63f-4a22-ad21-d8abd70986c0"},"vehicle_type_id":"4","last_reported":1748445006,"current_range_meters":0,"station_id":"","pricing_plan_id":"cebpf4jnsgd1na2vs0mg"},{"bike_id":"e082a7e3-9601-48a8-99c3-8e25f2736751","system_id":"levelo_inurba_marseille","lat":43.2497,"lon":5.38204,"is_reserved":false,"is_disabled":true,"rental_uris":{"android":"levelo://app?vid=e082a7e3-9601-48a8-99c3-8e25f2736751","ios":"levelo://app?vid=e082a7e3-9601-48a8-99c3-8e25f2736751"},"vehicle_type_id":"4","last_reported":1748445006,"current_range_meters":0,"station_id":"","pricing_plan_id":"cebpf4jnsgd1na2vs0mg"},{"bike_id":"2fd7e160-685c-4858-b57b-dcaef27a8e94","system_id":"levelo_inurba_marseille","lat":43.230331,"lon":5.401847,"is_reserved":false,"is_disabled":true,"rental_uris":{"android":"levelo://app?vid=2fd7e160-685c-4858-b57b-dcaef27a8e94","ios":"levelo://app?vid=2fd7e160-685c-4858-b57b-dcaef27a8e94"},"vehicle_type_id":"4","last_reported":1748445006,"current_range_meters":0,"station_id":"","pricing_plan_id":"cebpf4jnsgd1na2vs0mg"},{"bike_id":"9e5f3546-15f8-4862-add8-0611b99194c2","system_id":"levelo_inurba_marseille","lat":43.301384,"lon":5.387823,"is_reserved":false,"is_disabled":true,"rental_uris":{"android":"levelo://app?vid=9e5f3546-15f8-4862-add8-0611b99194c2","ios":"levelo://app?vid=9e5f3546-15f8-4862-add8-0611b99194c2"},"vehicle_type_id":"4","last_reported":1748445006,"current_range_meters":0,"station_id":"ce4bghh2rcd13ifvqb60","pricing_plan_id":"cebpf4jnsgd1na2vs0mg"},{"bike_id":"5f06fec3-ffc0-42c9-ae59-fe87b02665b6","system_id":"levelo_inurba_marseille","lat":43.29976,"lon":5.38494,"is_reserved":false,"is_disabled":true,"rental_uris":{"android":"levelo://app?vid=5f06fec3-ffc0-42c9-ae59-fe87b02665b6","ios":"levelo://app?vid=5f06fec3-ffc0-42c9-ae59-fe87b02665b6"},"vehicle_type_id":"4","last_reported":1748445006,"current_range_meters":0,"station_id":"ce4bgj92rcd13ifvqbd0","pricing_plan_id":"cebpf4jnsgd1na2vs0mg"},{"bike_id":"d730f7b7-5786-49f9-80ec-76263428af58","system_id":"levelo_inurba_marseille","lat":43.27612,"lon":5.36128,"is_reserved":false,"is_disabled":true,"rental_uris":{"android":"levelo://app?vid=d730f7b7-5786-49f9-80ec-76263428af58","ios":"levelo://app?vid=d730f7b7-5786-49f9-80ec-76263428af58"},"vehicle_type_id":"4","last_reported":1748445006,"current_range_meters":0,"station_id":"ce4bgj92rcd13ifvqbe0","pricing_plan_id":"cebpf4jnsgd1na2vs0mg"},{"bike_id":"95193604-b784-458b-9a4a-81a2e0b44654","system_id":"levelo_inurba_marseille","lat":43.30141,"lon":5.37413,"is_reserved":false,"is_disabled":true,"rental_uris":{"android":"levelo://app?vid=95193604-b784-458b-9a4a-81a2e0b44654","ios":"levelo://app?vid=95193604-b784-458b-9a4a-81a2e0b44654"},"vehicle_type_id":"4","last_reported":1748445006,"current_range_meters":0,"station_id":"ce4bgs92rcd13ifvqcc0","pricing_plan_id":"cebpf4jnsgd1na2vs0mg"},{"bike_id":"edf3792f-21d0-4d10-9c03-4fc0b8ad8d43","system_id":"levelo_inurba_marseille","lat":43.31071,"lon":5.38358,"is_reserved":false,"is_disabled":true,"rental_uris":{"android":"levelo://app?vid=edf3792f-21d0-4d10-9c03-4fc0b8ad8d43","ios":"levelo://app?vid=edf3792f-21d0-4d10-9c03-4fc0b8ad8d43"},"vehicle_type_id":"4","last_reported":1748445006,"current_range_meters":0,"station_id":"ce4bgv92rcd13ifvqcr0","pricing_plan_id":"cebpf4jnsgd1na2vs0mg"},{"bike_id":"93c0ffde-da29-456b-a050-d48814e302ae","system_id":"levelo_inurba_marseille","lat":43.28688,"lon":5.38687,"is_reserved":false,"is_disabled":true,"rental_uris":{"android":"levelo://app?vid=93c0ffde-da29-456b-a050-d48814e302ae","ios":"levelo://app?vid=93c0ffde-da29-456b-a050-d48814e302ae"},"vehicle_type_id":"4","last_reported":1748445006,"current_range_meters":0,"station_id":"ce4bh492rcd13ifvqdug","pricing_plan_id":"cebpf4jnsgd1na2vs0mg"},{"bike_id":"38a5bbff-c5c0-48b0-bbb6-8c7b10d015fd","system_id":"levelo_inurba_marseille","lat":43.29097,"lon":5.38146,"is_reserved":false,"is_disabled":true,"rental_uris":{"android":"levelo://app?vid=38a5bbff-c5c0-48b0-bbb6-8c7b10d015fd","ios":"levelo://app?vid=38a5bbff-c5c0-48b0-bbb6-8c7b10d015fd"},"vehicle_type_id":"4","last_reported":1748445006,"current_range_meters":0,"station_id":"ce4bh512rcd13ifvqe2g","pricing_plan_id":"cebpf4jnsgd1na2vs0mg"},{"bike_id":"8ab40b83-6f51-46dc-91cd-226258d76367","system_id":"levelo_inurba_marseille","lat":43.29193,"lon":5.35815,"is_reserved":false,"is_disabled":true,"rental_uris":{"android":"levelo://app?vid=8ab40b83-6f51-46dc-91cd-226258d76367","ios":"levelo://app?vid=8ab40b83-6f51-46dc-91cd-226258d76367"},"vehicle_type_id":"4","last_reported":1748445006,"current_range_meters":0,"station_id":"ce4bhb12rcd13ifvqel0","pricing_plan_id":"cebpf4jnsgd1na2vs0mg"},{"bike_id":"e41d88a7-49c3-4cf8-ba93-0b779b987315","system_id":"levelo_inurba_marseille","lat":43.28263,"lon":5.35059,"is_reserved":false,"is_disabled":true,"rental_uris":{"android":"levelo://app?vid=e41d88a7-49c3-4cf8-ba93-0b779b987315","ios":"levelo://app?vid=e41d88a7-49c3-4cf8-ba93-0b779b987315"},"vehicle_type_id":"4","last_reported":1748445006,"current_range_meters":0,"station_id":"ce4bhbp2rcd13ifvqerg","pricing_plan_id":"cebpf4jnsgd1na2vs0mg"},{"bike_id":"a063ca7b-6017-4ba9-b79f-47730af6af5d","system_id":"levelo_inurba_marseille","lat":43.28614,"lon":5.35105,"is_reserved":false,"is_disabled":true,"rental_uris":{"android":"levelo://app?vid=a063ca7b-6017-4ba9-b79f-47730af6af5d","ios":"levelo://app?vid=a063ca7b-6017-4ba9-b79f-47730af6af5d"},"vehicle_type_id":"4","last_reported":1748445006,"current_range_meters":0,"station_id":"ce4bhch2rcd13ifvqeug","pricing_plan_id":"cebpf4jnsgd1na2vs0mg"},{"bike_id":"29b49b84-013a-4698-8ea2-210024e9f5bd","system_id":"levelo_inurba_marseille","lat":43.27941,"lon":5.39614,"is_reserved":false,"is_disabled":true,"rental_uris":{"android":"levelo://app?vid=29b49b84-013a-4698-8ea2-210024e9f5bd","ios":"levelo://app?vid=29b49b84-013a-4698-8ea2-210024e9f5bd"},"vehicle_type_id":"4","last_reported":1748445006,"current_range_meters":0,"station_id":"ce4bhf92rcd13ifvqf40","pricing_plan_id":"cebpf4jnsgd1na2vs0mg"},{"bike_id":"bc32d789-43b0-41cd-8679-0abdc5d9be35","system_id":"levelo_inurba_marseille","lat":43.27977,"lon":5.38735,"is_reserved":false,"is_disabled":true,"rental_uris":{"android":"levelo://app?vid=bc32d789-43b0-41cd-8679-0abdc5d9be35","ios":"levelo://app?vid=bc32d789-43b0-41cd-8679-0abdc5d9be35"},"vehicle_type_id":"4","last_reported":1748445006,"current_range_meters":0,"station_id":"ce4bhg12rcd13ifvqf80","pricing_plan_id":"cebpf4jnsgd1na2vs0mg"},{"bike_id":"ebd50461-a8cb-47a3-a91c-7e0cf357c2b9","system_id":"levelo_inurba_marseille","lat":43.27665,"lon":5.38896,"is_reserved":false,"is_disabled":true,"rental_uris":{"android":"levelo://app?vid=ebd50461-a8cb-47a3-a91c-7e0cf357c2b9","ios":"levelo://app?vid=ebd50461-a8cb-47a3-a91c-7e0cf357c2b9"},"vehicle_type_id":"4","last_reported":1748445006,"current_range_meters":0,"station_id":"ce4bhi12rcd13ifvqfo0","pricing_plan_id":"cebpf4jnsgd1na2vs0mg"},{"bike_id":"b847332c-3ca5-47e8-a078-15213f23b924","system_id":"levelo_inurba_marseille","lat":43.24661,"lon":5.38129,"is_reserved":false,"is_disabled":true,"rental_uris":{"android":"levelo://app?vid=b847332c-3ca5-47e8-a078-15213f23b924","ios":"levelo://app?vid=b847332c-3ca5-47e8-a078-15213f23b924"},"vehicle_type_id":"4","last_reported":1748445006,"current_range_meters":0,"station_id":"ce4bhih2rcd13ifvqfr0","pricing_plan_id":"cebpf4jnsgd1na2vs0mg"},{"bike_id":"b0c26597-74d6-4435-8ef0-3370ac41033d","system_id":"levelo_inurba_marseille","lat":43.25117,"lon":5.40318,"is_reserved":false,"is_disabled":true,"rental_uris":{"android":"levelo://app?vid=b0c26597-74d6-4435-8ef0-3370ac41033d","ios":"levelo://app?vid=b0c26597-74d6-4435-8ef0-3370ac41033d"},"vehicle_type_id":"4","last_reported":1748445006,"current_range_meters":0,"station_id":"ce4bhlh2rcd13ifvqgig","pricing_plan_id":"cebpf4jnsgd1na2vs0mg"},{"bike_id":"4c7ba8ed-8869-4edd-9109-b22182e42e93","system_id":"levelo_inurba_marseille","lat":43.23176,"lon":5.39985,"is_reserved":false,"is_disabled":true,"rental_uris":{"android":"levelo://app?vid=4c7ba8ed-8869-4edd-9109-b22182e42e93","ios":"levelo://app?vid=4c7ba8ed-8869-4edd-9109-b22182e42e93"},"vehicle_type_id":"4","last_reported":1748445006,"current_range_meters":0,"station_id":"ce4bhn12rcd13ifvqgqg","pricing_plan_id":"cebpf4jnsgd1na2vs0mg"},{"bike_id":"e2669a70-01a8-4548-84fd-6c178c48b2e0","system_id":"levelo_inurba_marseille","lat":43.27952,"lon":5.4104,"is_reserved":false,"is_disabled":true,"rental_uris":{"android":"levelo://app?vid=e2669a70-01a8-4548-84fd-6c178c48b2e0","ios":"levelo://app?vid=e2669a70-01a8-4548-84fd-6c178c48b2e0"},"vehicle_type_id":"4","last_reported":1748445006,"current_range_meters":0,"station_id":"ce4bhnp2rcd13ifvqh0g","pricing_plan_id":"cebpf4jnsgd1na2vs0mg"},{"bike_id":"e498dc2d-689b-4e5b-846a-7db93446cbd2","system_id":"levelo_inurba_marseille","lat":43.27993,"lon":5.41658,"is_reserved":false,"is_disabled":true,"rental_uris":{"android":"levelo://app?vid=e498dc2d-689b-4e5b-846a-7db93446cbd2","ios":"levelo://app?vid=e498dc2d-689b-4e5b-846a-7db93446cbd2"},"vehicle_type_id":"4","last_reported":1748445006,"current_range_meters":0,"station_id":"ce4bho12rcd13ifvqh1g","pricing_plan_id":"cebpf4jnsgd1na2vs0mg"},{"bike_id":"92da849b-05e6-4ff9-9497-7387cd774393","system_id":"levelo_inurba_marseille","lat":43.27993,"lon":5.40006,"is_reserved":false,"is_disabled":true,"rental_uris":{"android":"levelo://app?vid=92da849b-05e6-4ff9-9497-7387cd774393","ios":"levelo://app?vid=92da849b-05e6-4ff9-9497-7387cd774393"},"vehicle_type_id":"4","last_reported":1748445006,"current_range_meters":0,"station_id":"ce4bho92rcd13ifvqh4g","pricing_plan_id":"cebpf4jnsgd1na2vs0mg"},{"bike_id":"a63080ed-4ecd-4704-b675-515543c32834","system_id":"levelo_inurba_marseille","lat":43.284,"lon":5.37517,"is_reserved":false,"is_disabled":true,"rental_uris":{"android":"levelo://app?vid=a63080ed-4ecd-4704-b675-515543c32834","ios":"levelo://app?vid=a63080ed-4ecd-4704-b675-515543c32834"},"vehicle_type_id":"4","last_reported":1748445006,"current_range_meters":400,"station_id":"","pricing_plan_id":"cebpf4jnsgd1na2vs0mg"},{"bike_id":"9c135680-911b-4840-8586-0118a43842f4","system_id":"levelo_inurba_marseille","lat":43.30951,"lon":5.39029,"is_reserved":false,"is_disabled":true,"rental_uris":{"android":"levelo://app?vid=9c135680-911b-4840-8586-0118a43842f4","ios":"levelo://app?vid=9c135680-911b-4840-8586-0118a43842f4"},"vehicle_type_id":"4","last_reported":1748445006,"current_range_meters":400,"station_id":"ce4bgup2rcd13ifvqco0","pricing_plan_id":"cebpf4jnsgd1na2vs0mg"},{"bike_id":"be7d0c17-3742-4f4b-a68e-dd7874aae2e9","system_id":"levelo_inurba_marseille","lat":43.28354,"lon":5.38106,"is_reserved":false,"is_disabled":true,"rental_uris":{"android":"levelo://app?vid=be7d0c17-3742-4f4b-a68e-dd7874aae2e9","ios":"levelo://app?vid=be7d0c17-3742-4f4b-a68e-dd7874aae2e9"},"vehicle_type_id":"4","last_reported":1748445006,"current_range_meters":400,"station_id":"ce4bh412rcd13ifvqdr0","pricing_plan_id":"cebpf4jnsgd1na2vs0mg"},{"bike_id":"a6b71691-e3d1-408f-950c-987e3cf45a2f","system_id":"levelo_inurba_marseille","lat":43.291674,"lon":5.371517,"is_reserved":false,"is_disabled":true,"rental_uris":{"android":"levelo://app?vid=a6b71691-e3d1-408f-950c-987e3cf45a2f","ios":"levelo://app?vid=a6b71691-e3d1-408f-950c-987e3cf45a2f"},"vehicle_type_id":"4","last_reported":1748445006,"current_range_meters":400,"station_id":"ce4bha92rcd13ifvqeh0","pricing_plan_id":"cebpf4jnsgd1na2vs0mg"},{"bike_id":"119c8b16-ee6c-4cc1-94f6-50c226e3b967","system_id":"levelo_inurba_marseille","lat":43.26569,"lon":5.39018,"is_reserved":false,"is_disabled":true,"rental_uris":{"android":"levelo://app?vid=119c8b16-ee6c-4cc1-94f6-50c226e3b967","ios":"levelo://app?vid=119c8b16-ee6c-4cc1-94f6-50c226e3b967"},"vehicle_type_id":"4","last_reported":1748445006,"current_range_meters":400,"station_id":"ce4bhe12rcd13ifvqf30","pricing_plan_id":"cebpf4jnsgd1na2vs0mg"},{"bike_id":"ef7bc444-0836-4a76-8aaa-1dac9ba606dc","system_id":"levelo_inurba_marseille","lat":43.29262,"lon":5.37624,"is_reserved":false,"is_disabled":true,"rental_uris":{"android":"levelo://app?vid=ef7bc444-0836-4a76-8aaa-1dac9ba606dc","ios":"levelo://app?vid=ef7bc444-0836-4a76-8aaa-1dac9ba606dc"},"vehicle_type_id":"4","last_reported":1748445006,"current_range_meters":800,"station_id":"ce4bgi12rcd13ifvqb80","pricing_plan_id":"cebpf4jnsgd1na2vs0mg"},{"bike_id":"07a3fc5a-3438-434f-b2c4-7e9d2861f6b6","system_id":"levelo_inurba_marseille","lat":43.304338,"lon":5.397515,"is_reserved":false,"is_disabled":true,"rental_uris":{"android":"levelo://app?vid=07a3fc5a-3438-434f-b2c4-7e9d2861f6b6","ios":"levelo://app?vid=07a3fc5a-3438-434f-b2c4-7e9d2861f6b6"},"vehicle_type_id":"4","last_reported":1748445006,"current_range_meters":800,"station_id":"ce4bh092rcd13ifvqd20","pricing_plan_id":"cebpf4jnsgd1na2vs0mg"},{"bike_id":"b05f947b-3b36-4fea-8bf5-2a53b0bda487","system_id":"levelo_inurba_marseille","lat":43.28269,"lon":5.35059,"is_reserved":false,"is_disabled":true,"rental_uris":{"android":"levelo://app?vid=b05f947b-3b36-4fea-8bf5-2a53b0bda487","ios":"levelo://app?vid=b05f947b-3b36-4fea-8bf5-2a53b0bda487"},"vehicle_type_id":"4","last_reported":1748445006,"current_range_meters":800,"station_id":"ce4bhbp2rcd13ifvqerg","pricing_plan_id":"cebpf4jnsgd1na2vs0mg"},{"bike_id":"83ad6cb1-98e4-454b-8f52-ab5e98e7505b","system_id":"levelo_inurba_marseille","lat":43.26029,"lon":5.37565,"is_reserved":false,"is_disabled":true,"rental_uris":{"android":"levelo://app?vid=83ad6cb1-98e4-454b-8f52-ab5e98e7505b","ios":"levelo://app?vid=83ad6cb1-98e4-454b-8f52-ab5e98e7505b"},"vehicle_type_id":"4","last_reported":1748445006,"current_range_meters":800,"station_id":"ce4bhgh2rcd13ifvqfa0","pricing_plan_id":"cebpf4jnsgd1na2vs0mg"},{"bike_id":"d64f556b-942b-44a0-94ce-3eeb3bfe47a7","system_id":"levelo_inurba_marseille","lat":43.26225,"lon":5.40468,"is_reserved":false,"is_disabled":true,"rental_uris":{"android":"levelo://app?vid=d64f556b-942b-44a0-94ce-3eeb3bfe47a7","ios":"levelo://app?vid=d64f556b-942b-44a0-94ce-3eeb3bfe47a7"},"vehicle_type_id":"4","last_reported":1748445006,"current_range_meters":800,"station_id":"ce4bhmh2rcd13ifvqgmg","pricing_plan_id":"cebpf4jnsgd1na2vs0mg"},{"bike_id":"e6092083-5057-4d08-9d34-84b87a56b33a","system_id":"levelo_inurba_marseille","lat":43.27814,"lon":5.40717,"is_reserved":false,"is_disabled":true,"rental_uris":{"android":"levelo://app?vid=e6092083-5057-4d08-9d34-84b87a56b33a","ios":"levelo://app?vid=e6092083-5057-4d08-9d34-84b87a56b33a"},"vehicle_type_id":"4","last_reported":1748445006,"current_range_meters":800,"station_id":"ce4bhnh2rcd13ifvqgtg","pricing_plan_id":"cebpf4jnsgd1na2vs0mg"},{"bike_id":"c4aaf1c5-1404-4d11-aa78-6614d466803b","system_id":"levelo_inurba_marseille","lat":43.29711,"lon":5.36609,"is_reserved":false,"is_disabled":true,"rental_uris":{"android":"levelo://app?vid=c4aaf1c5-1404-4d11-aa78-6614d466803b","ios":"levelo://app?vid=c4aaf1c5-1404-4d11-aa78-6614d466803b"},"vehicle_type_id":"4","last_reported":1748445006,"current_range_meters":1200,"station_id":"ce4bgn12rcd13ifvqbt0","pricing_plan_id":"cebpf4jnsgd1na2vs0mg"},{"bike_id":"28039afb-2331-4b14-97ac-5030afe00ca3","system_id":"levelo_inurba_marseille","lat":43.292002,"lon":5.357926,"is_reserved":false,"is_disabled":true,"rental_uris":{"android":"levelo://app?vid=28039afb-2331-4b14-97ac-5030afe00ca3","ios":"levelo://app?vid=28039afb-2331-4b14-97ac-5030afe00ca3"},"vehicle_type_id":"4","last_reported":1748445006,"current_range_meters":1200,"station_id":"ce4bhb12rcd13ifvqel0","pricing_plan_id":"cebpf4jnsgd1na2vs0mg"},{"bike_id":"e8cab2d0-d91b-49e5-9265-504af7b4be5d","system_id":"levelo_inurba_marseille","lat":43.27381,"lon":5.36258,"is_reserved":false,"is_disabled":true,"rental_uris":{"android":"levelo://app?vid=e8cab2d0-d91b-49e5-9265-504af7b4be5d","ios":"levelo://app?vid=e8cab2d0-d91b-49e5-9265-504af7b4be5d"},"vehicle_type_id":"4","last_reported":1748445006,"current_range_meters":1200,"station_id":"ce4bhbh2rcd13ifvqeo0","pricing_plan_id":"cebpf4jnsgd1na2vs0mg"},{"bike_id":"8523b367-999e-4203-b91a-42fa0d3126fc","system_id":"levelo_inurba_marseille","lat":43.26026,"lon":5.37555,"is_reserved":false,"is_disabled":true,"rental_uris":{"android":"levelo://app?vid=8523b367-999e-4203-b91a-42fa0d3126fc","ios":"levelo://app?vid=8523b367-999e-4203-b91a-42fa0d3126fc"},"vehicle_type_id":"4","last_reported":1748445006,"current_range_meters":1200,"station_id":"ce4bhgh2rcd13ifvqfa0","pricing_plan_id":"cebpf4jnsgd1na2vs0mg"},{"bike_id":"6d7f948c-ed7f-42ff-a89d-6533b7d762ae","system_id":"levelo_inurba_marseille","lat":43.25491,"lon":5.3765,"is_reserved":false,"is_disabled":true,"rental_uris":{"android":"levelo://app?vid=6d7f948c-ed7f-42ff-a89d-6533b7d762ae","ios":"levelo://app?vid=6d7f948c-ed7f-42ff-a89d-6533b7d762ae"},"vehicle_type_id":"4","last_reported":1748445006,"current_range_meters":1200,"station_id":"ce4bhh12rcd13ifvqff0","pricing_plan_id":"cebpf4jnsgd1na2vs0mg"},{"bike_id":"5d560bcc-fb28-44f1-bf6a-29dc16dc6775","system_id":"levelo_inurba_marseille","lat":43.27917,"lon":5.39599,"is_reserved":false,"is_disabled":true,"rental_uris":{"android":"levelo://app?vid=5d560bcc-fb28-44f1-bf6a-29dc16dc6775","ios":"levelo://app?vid=5d560bcc-fb28-44f1-bf6a-29dc16dc6775"},"vehicle_type_id":"4","last_reported":1748445006,"current_range_meters":1600,"station_id":"ce4bhf92rcd13ifvqf40","pricing_plan_id":"cebpf4jnsgd1na2vs0mg"},{"bike_id":"c38df460-52f8-4d6c-bdf4-8ed6186a7145","system_id":"levelo_inurba_marseille","lat":43.29533,"lon":5.39045,"is_reserved":false,"is_disabled":true,"rental_uris":{"android":"levelo://app?vid=c38df460-52f8-4d6c-bdf4-8ed6186a7145","ios":"levelo://app?vid=c38df460-52f8-4d6c-bdf4-8ed6186a7145"},"vehicle_type_id":"4","last_reported":1748445006,"current_range_meters":2000,"station_id":"ce4bh3p2rcd13ifvqdp0","pricing_plan_id":"cebpf4jnsgd1na2vs0mg"},{"bike_id":"41ecf4ca-52e7-4395-b933-ca6bfd636fda","system_id":"levelo_inurba_marseille","lat":43.30305,"lon":5.36905,"is_reserved":false,"is_disabled":false,"rental_uris":{"android":"levelo://app?vid=41ecf4ca-52e7-4395-b933-ca6bfd636fda","ios":"levelo://app?vid=41ecf4ca-52e7-4395-b933-ca6bfd636fda"},"vehicle_type_id":"4","last_reported":1748445006,"current_range_meters":2800,"station_id":"ce4bgqh2rcd13ifvqc5g","pricing_plan_id":"cebpf4jnsgd1na2vs0mg"},{"bike_id":"dd0729de-64cc-406f-8ab2-e2331a91487c","system_id":"levelo_inurba_marseille","lat":43.2811,"lon":5.37837,"is_reserved":false,"is_disabled":false,"rental_uris":{"android":"levelo://app?vid=dd0729de-64cc-406f-8ab2-e2331a91487c","ios":"levelo://app?vid=dd0729de-64cc-406f-8ab2-e2331a91487c"},"vehicle_type_id":"4","last_reported":1748445006,"current_range_meters":2800,"station_id":"ce4bha12rcd13ifvqee0","pricing_plan_id":"cebpf4jnsgd1na2vs0mg"},{"bike_id":"d6c807a5-3088-4aa5-9cd0-a8690249430a","system_id":"levelo_inurba_marseille","lat":43.262,"lon":5.37927,"is_reserved":false,"is_disabled":false,"rental_uris":{"android":"levelo://app?vid=d6c807a5-3088-4aa5-9cd0-a8690249430a","ios":"levelo://app?vid=d6c807a5-3088-4aa5-9cd0-a8690249430a"},"vehicle_type_id":"4","last_reported":1748445006,"current_range_meters":2800,"station_id":"ce4bhjp2rcd13ifvqg90","pricing_plan_id":"cebpf4jnsgd1na2vs0mg"},{"bike_id":"f0846e54-c673-4791-9a93-4f761be83e55","system_id":"levelo_inurba_marseille","lat":43.27936,"lon":5.41048,"is_reserved":false,"is_disabled":false,"rental_uris":{"android":"levelo://app?vid=f0846e54-c673-4791-9a93-4f761be83e55","ios":"levelo://app?vid=f0846e54-c673-4791-9a93-4f761be83e55"},"vehicle_type_id":"4","last_reported":1748445006,"current_range_meters":2800,"station_id":"ce4bhnp2rcd13ifvqh0g","pricing_plan_id":"cebpf4jnsgd1na2vs0mg"},{"bike_id":"4773fa4b-d35b-46c4-8779-11da8973cf4f","system_id":"levelo_inurba_marseille","lat":43.254969,"lon":5.37649,"is_reserved":false,"is_disabled":false,"rental_uris":{"android":"levelo://app?vid=4773fa4b-d35b-46c4-8779-11da8973cf4f","ios":"levelo://app?vid=4773fa4b-d35b-46c4-8779-11da8973cf4f"},"vehicle_type_id":"4","last_reported":1748445006,"current_range_meters":3200,"station_id":"","pricing_plan_id":"cebpf4jnsgd1na2vs0mg"},{"bike_id":"b1c57d60-60f6-4180-b88b-6e6219caea17","system_id":"levelo_inurba_marseille","lat":43.28354,"lon":5.38107,"is_reserved":false,"is_disabled":false,"rental_uris":{"android":"levelo://app?vid=b1c57d60-60f6-4180-b88b-6e6219caea17","ios":"levelo://app?vid=b1c57d60-60f6-4180-b88b-6e6219caea17"},"vehicle_type_id":"4","last_reported":1748445006,"current_range_meters":3200,"station_id":"ce4bh412rcd13ifvqdr0","pricing_plan_id":"cebpf4jnsgd1na2vs0mg"},{"bike_id":"8aa7b4d4-6021-4eb3-a246-98a09c007b67","system_id":"levelo_inurba_marseille","lat":43.24803,"lon":5.37442,"is_reserved":false,"is_disabled":false,"rental_uris":{"android":"levelo://app?vid=8aa7b4d4-6021-4eb3-a246-98a09c007b67","ios":"levelo://app?vid=8aa7b4d4-6021-4eb3-a246-98a09c007b67"},"vehicle_type_id":"4","last_reported":1748445006,"current_range_meters":3200,"station_id":"ce4bhgh2rcd13ifvqfb0","pricing_plan_id":"cebpf4jnsgd1na2vs0mg"},{"bike_id":"8273b59a-5e4b-4ade-9043-3e42b61db4c9","system_id":"levelo_inurba_marseille","lat":43.25498,"lon":5.37652,"is_reserved":false,"is_disabled":true,"rental_uris":{"android":"levelo://app?vid=8273b59a-5e4b-4ade-9043-3e42b61db4c9","ios":"levelo://app?vid=8273b59a-5e4b-4ade-9043-3e42b61db4c9"},"vehicle_type_id":"4","last_reported":1748445006,"current_range_meters":3200,"station_id":"ce4bhh12rcd13ifvqff0","pricing_plan_id":"cebpf4jnsgd1na2vs0mg"},{"bike_id":"f4c45e95-54cf-46e5-83c5-d89c27c9a69c","system_id":"levelo_inurba_marseille","lat":43.272945,"lon":5.415768,"is_reserved":false,"is_disabled":false,"rental_uris":{"android":"levelo://app?vid=f4c45e95-54cf-46e5-83c5-d89c27c9a69c","ios":"levelo://app?vid=f4c45e95-54cf-46e5-83c5-d89c27c9a69c"},"vehicle_type_id":"4","last_reported":1748445006,"current_range_meters":3600,"station_id":"","pricing_plan_id":"cebpf4jnsgd1na2vs0mg"},{"bike_id":"ca9abb25-c5a8-4fd3-b70d-b8f11b4aabc2","system_id":"levelo_inurba_marseille","lat":43.282514,"lon":5.381393,"is_reserved":false,"is_disabled":false,"rental_uris":{"android":"levelo://app?vid=ca9abb25-c5a8-4fd3-b70d-b8f11b4aabc2","ios":"levelo://app?vid=ca9abb25-c5a8-4fd3-b70d-b8f11b4aabc2"},"vehicle_type_id":"4","last_reported":1748445006,"current_range_meters":3600,"station_id":"","pricing_plan_id":"cebpf4jnsgd1na2vs0mg"},{"bike_id":"d00dc40e-9f9d-4a16-8b51-03e3ce95de6d","system_id":"levelo_inurba_marseille","lat":43.30544,"lon":5.36545,"is_reserved":false,"is_disabled":false,"rental_uris":{"android":"levelo://app?vid=d00dc40e-9f9d-4a16-8b51-03e3ce95de6d","ios":"levelo://app?vid=d00dc40e-9f9d-4a16-8b51-03e3ce95de6d"},"vehicle_type_id":"4","last_reported":1748445006,"current_range_meters":3600,"station_id":"ce4bgs12rcd13ifvqcag","pricing_plan_id":"cebpf4jnsgd1na2vs0mg"},{"bike_id":"4ff1d346-16af-4a7b-a8e7-a24391b92124","system_id":"levelo_inurba_marseille","lat":43.3054,"lon":5.36532,"is_reserved":false,"is_disabled":false,"rental_uris":{"android":"levelo://app?vid=4ff1d346-16af-4a7b-a8e7-a24391b92124","ios":"levelo://app?vid=4ff1d346-16af-4a7b-a8e7-a24391b92124"},"vehicle_type_id":"4","last_reported":1748445006,"current_range_meters":3600,"station_id":"ce4bgs12rcd13ifvqcag","pricing_plan_id":"cebpf4jnsgd1na2vs0mg"},{"bike_id":"690e81ed-3673-49f1-a5aa-11f91bc4f3c3","system_id":"levelo_inurba_marseille","lat":43.29187,"lon":5.39321,"is_reserved":false,"is_disabled":false,"rental_uris":{"android":"levelo://app?vid=690e81ed-3673-49f1-a5aa-11f91bc4f3c3","ios":"levelo://app?vid=690e81ed-3673-49f1-a5aa-11f91bc4f3c3"},"vehicle_type_id":"4","last_reported":1748445006,"current_range_meters":3600,"station_id":"ce4bh192rcd13ifvqdd0","pricing_plan_id":"cebpf4jnsgd1na2vs0mg"},{"bike_id":"3507b8f6-0749-4df2-8e40-cc88841bc127","system_id":"levelo_inurba_marseille","lat":43.25122,"lon":5.40335,"is_reserved":false,"is_disabled":false,"rental_uris":{"android":"levelo://app?vid=3507b8f6-0749-4df2-8e40-cc88841bc127","ios":"levelo://app?vid=3507b8f6-0749-4df2-8e40-cc88841bc127"},"vehicle_type_id":"4","last_reported":1748445006,"current_range_meters":3600,"station_id":"ce4bhlh2rcd13ifvqgig","pricing_plan_id":"cebpf4jnsgd1na2vs0mg"},{"bike_id":"0035fda9-e9d6-49c8-8dbd-15df782f4c54","system_id":"levelo_inurba_marseille","lat":43.27615,"lon":5.36108,"is_reserved":false,"is_disabled":false,"rental_uris":{"android":"levelo://app?vid=0035fda9-e9d6-49c8-8dbd-15df782f4c54","ios":"levelo://app?vid=0035fda9-e9d6-49c8-8dbd-15df782f4c54"},"vehicle_type_id":"4","last_reported":1748445006,"current_range_meters":4000,"station_id":"ce4bgj92rcd13ifvqbe0","pricing_plan_id":"cebpf4jnsgd1na2vs0mg"},{"bike_id":"cb0c4f0b-0423-4a9c-8747-06bead5e544a","system_id":"levelo_inurba_marseille","lat":43.29713,"lon":5.36625,"is_reserved":false,"is_disabled":false,"rental_uris":{"android":"levelo://app?vid=cb0c4f0b-0423-4a9c-8747-06bead5e544a","ios":"levelo://app?vid=cb0c4f0b-0423-4a9c-8747-06bead5e544a"},"vehicle_type_id":"4","last_reported":1748445006,"current_range_meters":4000,"station_id":"ce4bgn12rcd13ifvqbt0","pricing_plan_id":"cebpf4jnsgd1na2vs0mg"},{"bike_id":"0daf9f2c-e594-4c90-9c16-7e0d7f03fcba","system_id":"levelo_inurba_marseille","lat":43.27208,"lon":5.39184,"is_reserved":false,"is_disabled":true,"rental_uris":{"android":"levelo://app?vid=0daf9f2c-e594-4c90-9c16-7e0d7f03fcba","ios":"levelo://app?vid=0daf9f2c-e594-4c90-9c16-7e0d7f03fcba"},"vehicle_type_id":"4","last_reported":1748445006,"current_range_meters":4000,"station_id":"ce4bhhp2rcd13ifvqfm0","pricing_plan_id":"cebpf4jnsgd1na2vs0mg"},{"bike_id":"57ee0f63-8ab5-401c-92a1-46743d38645d","system_id":"levelo_inurba_marseille","lat":43.26978,"lon":5.40254,"is_reserved":false,"is_disabled":false,"rental_uris":{"android":"levelo://app?vid=57ee0f63-8ab5-401c-92a1-46743d38645d","ios":"levelo://app?vid=57ee0f63-8ab5-401c-92a1-46743d38645d"},"vehicle_type_id":"4","last_reported":1748445006,"current_range_meters":4000,"station_id":"cjm6bp8fraef2m0cb0m0","pricing_plan_id":"cebpf4jnsgd1na2vs0mg"},{"bike_id":"1326ca86-6637-42bd-813e-5ceee25453d9","system_id":"levelo_inurba_marseille","lat":43.26565,"lon":5.38595,"is_reserved":false,"is_disabled":false,"rental_uris":{"android":"levelo://app?vid=1326ca86-6637-42bd-813e-5ceee25453d9","ios":"levelo://app?vid=1326ca86-6637-42bd-813e-5ceee25453d9"},"vehicle_type_id":"4","last_reported":1748445006,"current_range_meters":4400,"station_id":"","pricing_plan_id":"cebpf4jnsgd1na2vs0mg"},{"bike_id":"946517ad-5b08-4b28-b1b0-93ea2f8c9cf4","system_id":"levelo_inurba_marseille","lat":43.29465,"lon":5.37967,"is_reserved":false,"is_disabled":false,"rental_uris":{"android":"levelo://app?vid=946517ad-5b08-4b28-b1b0-93ea2f8c9cf4","ios":"levelo://app?vid=946517ad-5b08-4b28-b1b0-93ea2f8c9cf4"},"vehicle_type_id":"4","last_reported":1748445006,"current_range_meters":4400,"station_id":"","pricing_plan_id":"cebpf4jnsgd1na2vs0mg"},{"bike_id":"c8bd7d3d-de87-4c47-9a7c-ac2aff16339a","system_id":"levelo_inurba_marseille","lat":43.30092,"lon":5.39072,"is_reserved":false,"is_disabled":true,"rental_uris":{"android":"levelo://app?vid=c8bd7d3d-de87-4c47-9a7c-ac2aff16339a","ios":"levelo://app?vid=c8bd7d3d-de87-4c47-9a7c-ac2aff16339a"},"vehicle_type_id":"4","last_reported":1748445006,"current_range_meters":4400,"station_id":"ce4bh192rcd13ifvqdb0","pricing_plan_id":"cebpf4jnsgd1na2vs0mg"},{"bike_id":"0d595390-c35b-417e-8db6-5f8dfc60e818","system_id":"levelo_inurba_marseille","lat":43.28265,"lon":5.35066,"is_reserved":false,"is_disabled":false,"rental_uris":{"android":"levelo://app?vid=0d595390-c35b-417e-8db6-5f8dfc60e818","ios":"levelo://app?vid=0d595390-c35b-417e-8db6-5f8dfc60e818"},"vehicle_type_id":"4","last_reported":1748445006,"current_range_meters":4400,"station_id":"ce4bhbp2rcd13ifvqerg","pricing_plan_id":"cebpf4jnsgd1na2vs0mg"},{"bike_id":"a2c866aa-27e0-4d85-bc41-3ee703448478","system_id":"levelo_inurba_marseille","lat":43.32113,"lon":5.36771,"is_reserved":false,"is_disabled":false,"rental_uris":{"android":"levelo://app?vid=a2c866aa-27e0-4d85-bc41-3ee703448478","ios":"levelo://app?vid=a2c866aa-27e0-4d85-bc41-3ee703448478"},"vehicle_type_id":"4","last_reported":1748445006,"current_range_meters":4400,"station_id":"ce4bhrh2rcd13ifvqhug","pricing_plan_id":"cebpf4jnsgd1na2vs0mg"},{"bike_id":"3dcb201d-de81-4b3c-b43b-0dd0cfb79b79","system_id":"levelo_inurba_marseille","lat":43.28098,"lon":5.38926,"is_reserved":false,"is_disabled":false,"rental_uris":{"android":"levelo://app?vid=3dcb201d-de81-4b3c-b43b-0dd0cfb79b79","ios":"levelo://app?vid=3dcb201d-de81-4b3c-b43b-0dd0cfb79b79"},"vehicle_type_id":"4","last_reported":1748445006,"current_range_meters":4800,"station_id":"","pricing_plan_id":"cebpf4jnsgd1na2vs0mg"},{"bike_id":"da21e4bb-69f1-43c2-b81f-a15625675e36","system_id":"levelo_inurba_marseille","lat":43.30883,"lon":5.39653,"is_reserved":false,"is_disabled":false,"rental_uris":{"android":"levelo://app?vid=da21e4bb-69f1-43c2-b81f-a15625675e36","ios":"levelo://app?vid=da21e4bb-69f1-43c2-b81f-a15625675e36"},"vehicle_type_id":"4","last_reported":1748445006,"current_range_meters":4800,"station_id":"ce4bh012rcd13ifvqcv0","pricing_plan_id":"cebpf4jnsgd1na2vs0mg"},{"bike_id":"7e8da8ec-d58d-4362-bf8d-4d122a9dd597","system_id":"levelo_inurba_marseille","lat":43.28404,"lon":5.37517,"is_reserved":false,"is_disabled":false,"rental_uris":{"android":"levelo://app?vid=7e8da8ec-d58d-4362-bf8d-4d122a9dd597","ios":"levelo://app?vid=7e8da8ec-d58d-4362-bf8d-4d122a9dd597"},"vehicle_type_id":"4","last_reported":1748445006,"current_range_meters":4800,"station_id":"ce4bh412rcd13ifvqds0","pricing_plan_id":"cebpf4jnsgd1na2vs0mg"},{"bike_id":"db4b9c6c-48a2-4d06-833e-750fe7b89164","system_id":"levelo_inurba_marseille","lat":43.273758,"lon":5.362594,"is_reserved":false,"is_disabled":false,"rental_uris":{"android":"levelo://app?vid=db4b9c6c-48a2-4d06-833e-750fe7b89164","ios":"levelo://app?vid=db4b9c6c-48a2-4d06-833e-750fe7b89164"},"vehicle_type_id":"4","last_reported":1748445006,"current_range_meters":4800,"station_id":"ce4bhbh2rcd13ifvqeo0","pricing_plan_id":"cebpf4jnsgd1na2vs0mg"},{"bike_id":"9eba8eb4-e40d-454f-afc9-c14fb921e89f","system_id":"levelo_inurba_marseille","lat":43.273733,"lon":5.362577,"is_reserved":false,"is_disabled":false,"rental_uris":{"android":"levelo://app?vid=9eba8eb4-e40d-454f-afc9-c14fb921e89f","ios":"levelo://app?vid=9eba8eb4-e40d-454f-afc9-c14fb921e89f"},"vehicle_type_id":"4","last_reported":1748445006,"current_range_meters":4800,"station_id":"ce4bhbh2rcd13ifvqeo0","pricing_plan_id":"cebpf4jnsgd1na2vs0mg"},{"bike_id":"3f79abc7-2016-4ee9-b28c-854710b5f96f","system_id":"levelo_inurba_marseille","lat":43.2797,"lon":5.38708,"is_reserved":false,"is_disabled":false,"rental_uris":{"android":"levelo://app?vid=3f79abc7-2016-4ee9-b28c-854710b5f96f","ios":"levelo://app?vid=3f79abc7-2016-4ee9-b28c-854710b5f96f"},"vehicle_type_id":"4","last_reported":1748445006,"current_range_meters":4800,"station_id":"ce4bhg12rcd13ifvqf80","pricing_plan_id":"cebpf4jnsgd1na2vs0mg"},{"bike_id":"93603e99-eaae-4c6a-a61a-b27f086b95f9","system_id":"levelo_inurba_marseille","lat":43.25122,"lon":5.40313,"is_reserved":false,"is_disabled":false,"rental_uris":{"android":"levelo://app?vid=93603e99-eaae-4c6a-a61a-b27f086b95f9","ios":"levelo://app?vid=93603e99-eaae-4c6a-a61a-b27f086b95f9"},"vehicle_type_id":"4","last_reported":1748445006,"current_range_meters":4800,"station_id":"ce4bhlh2rcd13ifvqgig","pricing_plan_id":"cebpf4jnsgd1na2vs0mg"},{"bike_id":"ebf232a6-9261-4c0c-996a-fdee0a9a02e7","system_id":"levelo_inurba_marseille","lat":43.2511,"lon":5.40325,"is_reserved":false,"is_disabled":false,"rental_uris":{"android":"levelo://app?vid=ebf232a6-9261-4c0c-996a-fdee0a9a02e7","ios":"levelo://app?vid=ebf232a6-9261-4c0c-996a-fdee0a9a02e7"},"vehicle_type_id":"4","last_reported":1748445006,"current_range_meters":4800,"station_id":"ce4bhlh2rcd13ifvqgig","pricing_plan_id":"cebpf4jnsgd1na2vs0mg"},{"bike_id":"d2184027-2a2b-4703-a29c-e5de7f490c7c","system_id":"levelo_inurba_marseille","lat":43.31751,"lon":5.3901,"is_reserved":false,"is_disabled":false,"rental_uris":{"android":"levelo://app?vid=d2184027-2a2b-4703-a29c-e5de7f490c7c","ios":"levelo://app?vid=d2184027-2a2b-4703-a29c-e5de7f490c7c"},"vehicle_type_id":"4","last_reported":1748445006,"current_range_meters":4800,"station_id":"ce4bhqp2rcd13ifvqhng","pricing_plan_id":"cebpf4jnsgd1na2vs0mg"},{"bike_id":"fbc814ac-643e-41a5-8ce3-3ccaa9c7f46e","system_id":"levelo_inurba_marseille","lat":43.30458,"lon":5.37901,"is_reserved":false,"is_disabled":false,"rental_uris":{"android":"levelo://app?vid=fbc814ac-643e-41a5-8ce3-3ccaa9c7f46e","ios":"levelo://app?vid=fbc814ac-643e-41a5-8ce3-3ccaa9c7f46e"},"vehicle_type_id":"4","last_reported":1748445006,"current_range_meters":5600,"station_id":"ce4bgup2rcd13ifvqcn0","pricing_plan_id":"cebpf4jnsgd1na2vs0mg"},{"bike_id":"bd0a34a6-6bbe-49d0-93d5-1ff5c6a0e5fb","system_id":"levelo_inurba_marseille","lat":43.23179,"lon":5.39992,"is_reserved":false,"is_disabled":false,"rental_uris":{"android":"levelo://app?vid=bd0a34a6-6bbe-49d0-93d5-1ff5c6a0e5fb","ios":"levelo://app?vid=bd0a34a6-6bbe-49d0-93d5-1ff5c6a0e5fb"},"vehicle_type_id":"4","last_reported":1748445006,"current_range_meters":5600,"station_id":"ce4bhn12rcd13ifvqgqg","pricing_plan_id":"cebpf4jnsgd1na2vs0mg"},{"bike_id":"3b3f20fb-be76-498a-a9f5-ae1aa0fc1802","system_id":"levelo_inurba_marseille","lat":43.27996,"lon":5.4167,"is_reserved":false,"is_disabled":false,"rental_uris":{"android":"levelo://app?vid=3b3f20fb-be76-498a-a9f5-ae1aa0fc1802","ios":"levelo://app?vid=3b3f20fb-be76-498a-a9f5-ae1aa0fc1802"},"vehicle_type_id":"4","last_reported":1748445006,"current_range_meters":5600,"station_id":"ce4bho12rcd13ifvqh1g","pricing_plan_id":"cebpf4jnsgd1na2vs0mg"},{"bike_id":"76f95a77-7fc7-4140-b235-34d483f9f244","system_id":"levelo_inurba_marseille","lat":43.30533,"lon":5.36544,"is_reserved":false,"is_disabled":false,"rental_uris":{"android":"levelo://app?vid=76f95a77-7fc7-4140-b235-34d483f9f244","ios":"levelo://app?vid=76f95a77-7fc7-4140-b235-34d483f9f244"},"vehicle_type_id":"4","last_reported":1748445006,"current_range_meters":6000,"station_id":"ce4bgs12rcd13ifvqcag","pricing_plan_id":"cebpf4jnsgd1na2vs0mg"},{"bike_id":"b70b4645-2d61-4b24-b1d8-9880d595b053","system_id":"levelo_inurba_marseille","lat":43.29199,"lon":5.35809,"is_reserved":false,"is_disabled":false,"rental_uris":{"android":"levelo://app?vid=b70b4645-2d61-4b24-b1d8-9880d595b053","ios":"levelo://app?vid=b70b4645-2d61-4b24-b1d8-9880d595b053"},"vehicle_type_id":"4","last_reported":1748445006,"current_range_meters":6000,"station_id":"ce4bhb12rcd13ifvqel0","pricing_plan_id":"cebpf4jnsgd1na2vs0mg"},{"bike_id":"26b6c9b2-98c1-48d0-8440-94b13dc89df7","system_id":"levelo_inurba_marseille","lat":43.2715,"lon":5.40989,"is_reserved":false,"is_disabled":false,"rental_uris":{"android":"levelo://app?vid=26b6c9b2-98c1-48d0-8440-94b13dc89df7","ios":"levelo://app?vid=26b6c9b2-98c1-48d0-8440-94b13dc89df7"},"vehicle_type_id":"4","last_reported":1748445006,"current_range_meters":6400,"station_id":"ce4bhl12rcd13ifvqgf0","pricing_plan_id":"cebpf4jnsgd1na2vs0mg"},{"bike_id":"303a1d58-796b-45c5-b946-1eb2b3d2cd9f","system_id":"levelo_inurba_marseille","lat":43.28001,"lon":5.41666,"is_reserved":false,"is_disabled":false,"rental_uris":{"android":"levelo://app?vid=303a1d58-796b-45c5-b946-1eb2b3d2cd9f","ios":"levelo://app?vid=303a1d58-796b-45c5-b946-1eb2b3d2cd9f"},"vehicle_type_id":"4","last_reported":1748445006,"current_range_meters":6400,"station_id":"ce4bho12rcd13ifvqh1g","pricing_plan_id":"cebpf4jnsgd1na2vs0mg"},{"bike_id":"b5a00c36-3c6a-495c-bc30-40e2427ab5af","system_id":"levelo_inurba_marseille","lat":43.30536,"lon":5.36529,"is_reserved":false,"is_disabled":false,"rental_uris":{"android":"levelo://app?vid=b5a00c36-3c6a-495c-bc30-40e2427ab5af","ios":"levelo://app?vid=b5a00c36-3c6a-495c-bc30-40e2427ab5af"},"vehicle_type_id":"4","last_reported":1748445006,"current_range_meters":6800,"station_id":"ce4bgs12rcd13ifvqcag","pricing_plan_id":"cebpf4jnsgd1na2vs0mg"},{"bike_id":"cb5cfe05-5ad9-4ad2-a1fb-b9401d4f3b6e","system_id":"levelo_inurba_marseille","lat":43.2904,"lon":5.37573,"is_reserved":false,"is_disabled":false,"rental_uris":{"android":"levelo://app?vid=cb5cfe05-5ad9-4ad2-a1fb-b9401d4f3b6e","ios":"levelo://app?vid=cb5cfe05-5ad9-4ad2-a1fb-b9401d4f3b6e"},"vehicle_type_id":"4","last_reported":1748445006,"current_range_meters":6800,"station_id":"ce4bh692rcd13ifvqe90","pricing_plan_id":"cebpf4jnsgd1na2vs0mg"},{"bike_id":"671e01df-c792-45ac-b30e-01d6f9b73b99","system_id":"levelo_inurba_marseille","lat":43.28951,"lon":5.36652,"is_reserved":false,"is_disabled":false,"rental_uris":{"android":"levelo://app?vid=671e01df-c792-45ac-b30e-01d6f9b73b99","ios":"levelo://app?vid=671e01df-c792-45ac-b30e-01d6f9b73b99"},"vehicle_type_id":"4","last_reported":1748445006,"current_range_meters":6800,"station_id":"ce4bhap2rcd13ifvqek0","pricing_plan_id":"cebpf4jnsgd1na2vs0mg"},{"bike_id":"fdcb608c-c3e9-46f2-86ce-592aea33711a","system_id":"levelo_inurba_marseille","lat":43.26562,"lon":5.37306,"is_reserved":false,"is_disabled":false,"rental_uris":{"android":"levelo://app?vid=fdcb608c-c3e9-46f2-86ce-592aea33711a","ios":"levelo://app?vid=fdcb608c-c3e9-46f2-86ce-592aea33711a"},"vehicle_type_id":"4","last_reported":1748445006,"current_range_meters":6800,"station_id":"ce4bhg12rcd13ifvqf70","pricing_plan_id":"cebpf4jnsgd1na2vs0mg"},{"bike_id":"a647d0c8-5a3e-49cc-970d-8a88883bb22e","system_id":"levelo_inurba_marseille","lat":43.278574,"lon":5.388349,"is_reserved":false,"is_disabled":false,"rental_uris":{"android":"levelo://app?vid=a647d0c8-5a3e-49cc-970d-8a88883bb22e","ios":"levelo://app?vid=a647d0c8-5a3e-49cc-970d-8a88883bb22e"},"vehicle_type_id":"4","last_reported":1748445006,"current_range_meters":6800,"station_id":"ce4bhg12rcd13ifvqf80","pricing_plan_id":"cebpf4jnsgd1na2vs0mg"},{"bike_id":"794cb743-ce01-4ff7-8745-87d2f2f06c17","system_id":"levelo_inurba_marseille","lat":43.239716,"lon":5.366297,"is_reserved":false,"is_disabled":false,"rental_uris":{"android":"levelo://app?vid=794cb743-ce01-4ff7-8745-87d2f2f06c17","ios":"levelo://app?vid=794cb743-ce01-4ff7-8745-87d2f2f06c17"},"vehicle_type_id":"4","last_reported":1748445006,"current_range_meters":6800,"station_id":"ce4bhi12rcd13ifvqfp0","pricing_plan_id":"cebpf4jnsgd1na2vs0mg"},{"bike_id":"5cb19ab7-72ab-4ab6-9032-728f3ec287b0","system_id":"levelo_inurba_marseille","lat":43.25121,"lon":5.40339,"is_reserved":false,"is_disabled":false,"rental_uris":{"android":"levelo://app?vid=5cb19ab7-72ab-4ab6-9032-728f3ec287b0","ios":"levelo://app?vid=5cb19ab7-72ab-4ab6-9032-728f3ec287b0"},"vehicle_type_id":"4","last_reported":1748445006,"current_range_meters":6800,"station_id":"ce4bhlh2rcd13ifvqgig","pricing_plan_id":"cebpf4jnsgd1na2vs0mg"},{"bike_id":"bddf3ead-2b99-490c-ae2a-a6caf87d2bda","system_id":"levelo_inurba_marseille","lat":43.31226,"lon":5.36833,"is_reserved":false,"is_disabled":false,"rental_uris":{"android":"levelo://app?vid=bddf3ead-2b99-490c-ae2a-a6caf87d2bda","ios":"levelo://app?vid=bddf3ead-2b99-490c-ae2a-a6caf87d2bda"},"vehicle_type_id":"4","last_reported":1748445006,"current_range_meters":7200,"station_id":"ce4bgl92rcd13ifvqbq0","pricing_plan_id":"cebpf4jnsgd1na2vs0mg"},{"bike_id":"e825b1a8-712e-4c98-92bb-1a8eec401e97","system_id":"levelo_inurba_marseille","lat":43.27382,"lon":5.36259,"is_reserved":false,"is_disabled":false,"rental_uris":{"android":"levelo://app?vid=e825b1a8-712e-4c98-92bb-1a8eec401e97","ios":"levelo://app?vid=e825b1a8-712e-4c98-92bb-1a8eec401e97"},"vehicle_type_id":"4","last_reported":1748445006,"current_range_meters":7200,"station_id":"ce4bhbh2rcd13ifvqeo0","pricing_plan_id":"cebpf4jnsgd1na2vs0mg"},{"bike_id":"927b2a08-d94d-4f57-b322-aeb6689f5e14","system_id":"levelo_inurba_marseille","lat":43.28411,"lon":5.34991,"is_reserved":false,"is_disabled":false,"rental_uris":{"android":"levelo://app?vid=927b2a08-d94d-4f57-b322-aeb6689f5e14","ios":"levelo://app?vid=927b2a08-d94d-4f57-b322-aeb6689f5e14"},"vehicle_type_id":"4","last_reported":1748445006,"current_range_meters":7200,"station_id":"ce4bhbh2rcd13ifvqepg","pricing_plan_id":"cebpf4jnsgd1na2vs0mg"},{"bike_id":"eecfd891-7b00-44f0-8dc9-85a11787cad5","system_id":"levelo_inurba_marseille","lat":43.28429,"lon":5.34996,"is_reserved":false,"is_disabled":false,"rental_uris":{"android":"levelo://app?vid=eecfd891-7b00-44f0-8dc9-85a11787cad5","ios":"levelo://app?vid=eecfd891-7b00-44f0-8dc9-85a11787cad5"},"vehicle_type_id":"4","last_reported":1748445006,"current_range_meters":7200,"station_id":"ce4bhbh2rcd13ifvqepg","pricing_plan_id":"cebpf4jnsgd1na2vs0mg"},{"bike_id":"d05857a3-90ad-414b-8dfe-b0a4d1370a2b","system_id":"levelo_inurba_marseille","lat":43.27316,"lon":5.39077,"is_reserved":false,"is_disabled":false,"rental_uris":{"android":"levelo://app?vid=d05857a3-90ad-414b-8dfe-b0a4d1370a2b","ios":"levelo://app?vid=d05857a3-90ad-414b-8dfe-b0a4d1370a2b"},"vehicle_type_id":"4","last_reported":1748445006,"current_range_meters":7200,"station_id":"ce4bhgp2rcd13ifvqfe0","pricing_plan_id":"cebpf4jnsgd1na2vs0mg"},{"bike_id":"3bcd0f26-78a9-4617-b9d3-ddfb58ed4b67","system_id":"levelo_inurba_marseille","lat":43.27943,"lon":5.41051,"is_reserved":false,"is_disabled":false,"rental_uris":{"android":"levelo://app?vid=3bcd0f26-78a9-4617-b9d3-ddfb58ed4b67","ios":"levelo://app?vid=3bcd0f26-78a9-4617-b9d3-ddfb58ed4b67"},"vehicle_type_id":"4","last_reported":1748445006,"current_range_meters":7200,"station_id":"ce4bhnp2rcd13ifvqh0g","pricing_plan_id":"cebpf4jnsgd1na2vs0mg"},{"bike_id":"71624964-7fb7-4254-a259-ff9c5269297b","system_id":"levelo_inurba_marseille","lat":43.33025,"lon":5.39063,"is_reserved":false,"is_disabled":false,"rental_uris":{"android":"levelo://app?vid=71624964-7fb7-4254-a259-ff9c5269297b","ios":"levelo://app?vid=71624964-7fb7-4254-a259-ff9c5269297b"},"vehicle_type_id":"4","last_reported":1748445006,"current_range_meters":7200,"station_id":"ce4bhr92rcd13ifvqhrg","pricing_plan_id":"cebpf4jnsgd1na2vs0mg"},{"bike_id":"dcdc1887-0509-4ea1-9003-2b7013bab46e","system_id":"levelo_inurba_marseille","lat":43.31527,"lon":5.38036,"is_reserved":false,"is_disabled":false,"rental_uris":{"android":"levelo://app?vid=dcdc1887-0509-4ea1-9003-2b7013bab46e","ios":"levelo://app?vid=dcdc1887-0509-4ea1-9003-2b7013bab46e"},"vehicle_type_id":"4","last_reported":1748445006,"current_range_meters":7200,"station_id":"ce4bhsp2rcd13ifvqi50","pricing_plan_id":"cebpf4jnsgd1na2vs0mg"},{"bike_id":"5241608e-ec0b-4834-a657-79c6fe244f7d","system_id":"levelo_inurba_marseille","lat":43.23194,"lon":5.35551,"is_reserved":false,"is_disabled":false,"rental_uris":{"android":"levelo://app?vid=5241608e-ec0b-4834-a657-79c6fe244f7d","ios":"levelo://app?vid=5241608e-ec0b-4834-a657-79c6fe244f7d"},"vehicle_type_id":"4","last_reported":1748445006,"current_range_meters":7200,"station_id":"ce4bhu92rcd13ifvqi70","pricing_plan_id":"cebpf4jnsgd1na2vs0mg"},{"bike_id":"87b395fb-0dfd-464d-b68d-3afc622e0d48","system_id":"levelo_inurba_marseille","lat":43.29543,"lon":5.39475,"is_reserved":false,"is_disabled":false,"rental_uris":{"android":"levelo://app?vid=87b395fb-0dfd-464d-b68d-3afc622e0d48","ios":"levelo://app?vid=87b395fb-0dfd-464d-b68d-3afc622e0d48"},"vehicle_type_id":"4","last_reported":1748445006,"current_range_meters":8000,"station_id":"","pricing_plan_id":"cebpf4jnsgd1na2vs0mg"},{"bike_id":"a5f90b1e-a09e-40ad-8d54-7442721c8689","system_id":"levelo_inurba_marseille","lat":43.24625,"lon":5.392903,"is_reserved":false,"is_disabled":false,"rental_uris":{"android":"levelo://app?vid=a5f90b1e-a09e-40ad-8d54-7442721c8689","ios":"levelo://app?vid=a5f90b1e-a09e-40ad-8d54-7442721c8689"},"vehicle_type_id":"4","last_reported":1748445006,"current_range_meters":8000,"station_id":"","pricing_plan_id":"cebpf4jnsgd1na2vs0mg"},{"bike_id":"1fa8f687-b5eb-4531-a7ea-4a9a7643e93c","system_id":"levelo_inurba_marseille","lat":43.28426,"lon":5.37558,"is_reserved":false,"is_disabled":false,"rental_uris":{"android":"levelo://app?vid=1fa8f687-b5eb-4531-a7ea-4a9a7643e93c","ios":"levelo://app?vid=1fa8f687-b5eb-4531-a7ea-4a9a7643e93c"},"vehicle_type_id":"4","last_reported":1748445006,"current_range_meters":8000,"station_id":"","pricing_plan_id":"cebpf4jnsgd1na2vs0mg"},{"bike_id":"1a9deaa6-5b0b-41ea-a3a0-9c49f0de8473","system_id":"levelo_inurba_marseille","lat":43.293257,"lon":5.411594,"is_reserved":false,"is_disabled":false,"rental_uris":{"android":"levelo://app?vid=1a9deaa6-5b0b-41ea-a3a0-9c49f0de8473","ios":"levelo://app?vid=1a9deaa6-5b0b-41ea-a3a0-9c49f0de8473"},"vehicle_type_id":"4","last_reported":1748445006,"current_range_meters":8000,"station_id":"","pricing_plan_id":"cebpf4jnsgd1na2vs0mg"},{"bike_id":"f84a4c21-455f-46c4-9b01-3de5458dac7d","system_id":"levelo_inurba_marseille","lat":43.30549,"lon":5.36543,"is_reserved":false,"is_disabled":false,"rental_uris":{"android":"levelo://app?vid=f84a4c21-455f-46c4-9b01-3de5458dac7d","ios":"levelo://app?vid=f84a4c21-455f-46c4-9b01-3de5458dac7d"},"vehicle_type_id":"4","last_reported":1748445006,"current_range_meters":8000,"station_id":"ce4bgs12rcd13ifvqcag","pricing_plan_id":"cebpf4jnsgd1na2vs0mg"},{"bike_id":"5ec170d5-e348-473d-9a0e-cc93478e5fa2","system_id":"levelo_inurba_marseille","lat":43.31331,"lon":5.39689,"is_reserved":false,"is_disabled":false,"rental_uris":{"android":"levelo://app?vid=5ec170d5-e348-473d-9a0e-cc93478e5fa2","ios":"levelo://app?vid=5ec170d5-e348-473d-9a0e-cc93478e5fa2"},"vehicle_type_id":"4","last_reported":1748445006,"current_range_meters":8000,"station_id":"ce4bgvp2rcd13ifvqcu0","pricing_plan_id":"cebpf4jnsgd1na2vs0mg"},{"bike_id":"0179083d-088a-4a35-8dd7-e7427e737676","system_id":"levelo_inurba_marseille","lat":43.28623,"lon":5.35116,"is_reserved":false,"is_disabled":false,"rental_uris":{"android":"levelo://app?vid=0179083d-088a-4a35-8dd7-e7427e737676","ios":"levelo://app?vid=0179083d-088a-4a35-8dd7-e7427e737676"},"vehicle_type_id":"4","last_reported":1748445006,"current_range_meters":8000,"station_id":"ce4bhch2rcd13ifvqeug","pricing_plan_id":"cebpf4jnsgd1na2vs0mg"},{"bike_id":"87809b7b-9f08-4192-98f3-33530e4005f1","system_id":"levelo_inurba_marseille","lat":43.279145,"lon":5.410251,"is_reserved":false,"is_disabled":false,"rental_uris":{"android":"levelo://app?vid=87809b7b-9f08-4192-98f3-33530e4005f1","ios":"levelo://app?vid=87809b7b-9f08-4192-98f3-33530e4005f1"},"vehicle_type_id":"4","last_reported":1748445006,"current_range_meters":8000,"station_id":"ce4bhnh2rcd13ifvqgtg","pricing_plan_id":"cebpf4jnsgd1na2vs0mg"},{"bike_id":"ab17a199-645f-44d0-bdd2-4d00a9b390ea","system_id":"levelo_inurba_marseille","lat":43.324859,"lon":5.365864,"is_reserved":false,"is_disabled":false,"rental_uris":{"android":"levelo://app?vid=ab17a199-645f-44d0-bdd2-4d00a9b390ea","ios":"levelo://app?vid=ab17a199-645f-44d0-bdd2-4d00a9b390ea"},"vehicle_type_id":"4","last_reported":1748445006,"current_range_meters":8000,"station_id":"ce4bhs12rcd13ifvqhvg","pricing_plan_id":"cebpf4jnsgd1na2vs0mg"},{"bike_id":"0beb764b-75db-4f90-8d66-0060a9f26663","system_id":"levelo_inurba_marseille","lat":43.26577,"lon":5.4035,"is_reserved":false,"is_disabled":false,"rental_uris":{"android":"levelo://app?vid=0beb764b-75db-4f90-8d66-0060a9f26663","ios":"levelo://app?vid=0beb764b-75db-4f90-8d66-0060a9f26663"},"vehicle_type_id":"4","last_reported":1748445006,"current_range_meters":8400,"station_id":"","pricing_plan_id":"cebpf4jnsgd1na2vs0mg"},{"bike_id":"3b51ceed-62ee-4230-93ff-e17c9955750f","system_id":"levelo_inurba_marseille","lat":43.305426,"lon":5.365539,"is_reserved":false,"is_disabled":false,"rental_uris":{"android":"levelo://app?vid=3b51ceed-62ee-4230-93ff-e17c9955750f","ios":"levelo://app?vid=3b51ceed-62ee-4230-93ff-e17c9955750f"},"vehicle_type_id":"4","last_reported":1748445006,"current_range_meters":8400,"station_id":"ce4bgs12rcd13ifvqcag","pricing_plan_id":"cebpf4jnsgd1na2vs0mg"},{"bike_id":"eb4e40da-f55c-4e69-8f23-05268e94388c","system_id":"levelo_inurba_marseille","lat":43.29573,"lon":5.39986,"is_reserved":false,"is_disabled":false,"rental_uris":{"android":"levelo://app?vid=eb4e40da-f55c-4e69-8f23-05268e94388c","ios":"levelo://app?vid=eb4e40da-f55c-4e69-8f23-05268e94388c"},"vehicle_type_id":"4","last_reported":1748445006,"current_range_meters":8400,"station_id":"ce4bh312rcd13ifvqdj0","pricing_plan_id":"cebpf4jnsgd1na2vs0mg"},{"bike_id":"7ddcdfa6-dfef-4306-a5e4-dedee5a0d019","system_id":"levelo_inurba_marseille","lat":43.29009,"lon":5.35626,"is_reserved":false,"is_disabled":false,"rental_uris":{"android":"levelo://app?vid=7ddcdfa6-dfef-4306-a5e4-dedee5a0d019","ios":"levelo://app?vid=7ddcdfa6-dfef-4306-a5e4-dedee5a0d019"},"vehicle_type_id":"4","last_reported":1748445006,"current_range_meters":8400,"station_id":"ce4bhb92rcd13ifvqen0","pricing_plan_id":"cebpf4jnsgd1na2vs0mg"},{"bike_id":"63db40de-24e6-4269-8c5a-ce35bbd215e6","system_id":"levelo_inurba_marseille","lat":43.27384,"lon":5.36261,"is_reserved":false,"is_disabled":false,"rental_uris":{"android":"levelo://app?vid=63db40de-24e6-4269-8c5a-ce35bbd215e6","ios":"levelo://app?vid=63db40de-24e6-4269-8c5a-ce35bbd215e6"},"vehicle_type_id":"4","last_reported":1748445006,"current_range_meters":8400,"station_id":"ce4bhbh2rcd13ifvqeo0","pricing_plan_id":"cebpf4jnsgd1na2vs0mg"},{"bike_id":"e95016bb-9644-4fc5-b9e7-c2f7bdd5a068","system_id":"levelo_inurba_marseille","lat":43.25504,"lon":5.37652,"is_reserved":false,"is_disabled":false,"rental_uris":{"android":"levelo://app?vid=e95016bb-9644-4fc5-b9e7-c2f7bdd5a068","ios":"levelo://app?vid=e95016bb-9644-4fc5-b9e7-c2f7bdd5a068"},"vehicle_type_id":"4","last_reported":1748445006,"current_range_meters":8400,"station_id":"ce4bhh12rcd13ifvqff0","pricing_plan_id":"cebpf4jnsgd1na2vs0mg"},{"bike_id":"6699da6f-01ee-439c-a616-34f7ed381e60","system_id":"levelo_inurba_marseille","lat":43.28152,"lon":5.4265,"is_reserved":false,"is_disabled":false,"rental_uris":{"android":"levelo://app?vid=6699da6f-01ee-439c-a616-34f7ed381e60","ios":"levelo://app?vid=6699da6f-01ee-439c-a616-34f7ed381e60"},"vehicle_type_id":"4","last_reported":1748445006,"current_range_meters":8400,"station_id":"ce4bhnh2rcd13ifvqgug","pricing_plan_id":"cebpf4jnsgd1na2vs0mg"},{"bike_id":"2acf15bf-7ffb-47bb-8465-2c5c88e7f8bf","system_id":"levelo_inurba_marseille","lat":43.32542,"lon":5.41432,"is_reserved":false,"is_disabled":false,"rental_uris":{"android":"levelo://app?vid=2acf15bf-7ffb-47bb-8465-2c5c88e7f8bf","ios":"levelo://app?vid=2acf15bf-7ffb-47bb-8465-2c5c88e7f8bf"},"vehicle_type_id":"4","last_reported":1748445006,"current_range_meters":8400,"station_id":"ce4bhq12rcd13ifvqhhg","pricing_plan_id":"cebpf4jnsgd1na2vs0mg"},{"bike_id":"3bf549ac-7e1b-48b6-b158-6bb34220759d","system_id":"levelo_inurba_marseille","lat":43.27617,"lon":5.36109,"is_reserved":false,"is_disabled":false,"rental_uris":{"android":"levelo://app?vid=3bf549ac-7e1b-48b6-b158-6bb34220759d","ios":"levelo://app?vid=3bf549ac-7e1b-48b6-b158-6bb34220759d"},"vehicle_type_id":"4","last_reported":1748445006,"current_range_meters":8800,"station_id":"ce4bgj92rcd13ifvqbe0","pricing_plan_id":"cebpf4jnsgd1na2vs0mg"},{"bike_id":"524b402d-83ef-4088-9a8d-5fe7be6e768c","system_id":"levelo_inurba_marseille","lat":43.27621,"lon":5.36119,"is_reserved":false,"is_disabled":false,"rental_uris":{"android":"levelo://app?vid=524b402d-83ef-4088-9a8d-5fe7be6e768c","ios":"levelo://app?vid=524b402d-83ef-4088-9a8d-5fe7be6e768c"},"vehicle_type_id":"4","last_reported":1748445006,"current_range_meters":8800,"station_id":"ce4bgj92rcd13ifvqbe0","pricing_plan_id":"cebpf4jnsgd1na2vs0mg"},{"bike_id":"8c39bcda-3f44-4dbc-8662-6c118ad6d224","system_id":"levelo_inurba_marseille","lat":43.30926,"lon":5.40152,"is_reserved":false,"is_disabled":false,"rental_uris":{"android":"levelo://app?vid=8c39bcda-3f44-4dbc-8662-6c118ad6d224","ios":"levelo://app?vid=8c39bcda-3f44-4dbc-8662-6c118ad6d224"},"vehicle_type_id":"4","last_reported":1748445006,"current_range_meters":8800,"station_id":"ce4bgvp2rcd13ifvqct0","pricing_plan_id":"cebpf4jnsgd1na2vs0mg"},{"bike_id":"8ba7f654-af23-45cd-a93b-3690967e650c","system_id":"levelo_inurba_marseille","lat":43.29073,"lon":5.37168,"is_reserved":false,"is_disabled":false,"rental_uris":{"android":"levelo://app?vid=8ba7f654-af23-45cd-a93b-3690967e650c","ios":"levelo://app?vid=8ba7f654-af23-45cd-a93b-3690967e650c"},"vehicle_type_id":"4","last_reported":1748445006,"current_range_meters":8800,"station_id":"ce4bh5p2rcd13ifvqe4g","pricing_plan_id":"cebpf4jnsgd1na2vs0mg"},{"bike_id":"6d186095-9a4b-4766-a0af-c7b8d419039e","system_id":"levelo_inurba_marseille","lat":43.28431,"lon":5.35013,"is_reserved":false,"is_disabled":false,"rental_uris":{"android":"levelo://app?vid=6d186095-9a4b-4766-a0af-c7b8d419039e","ios":"levelo://app?vid=6d186095-9a4b-4766-a0af-c7b8d419039e"},"vehicle_type_id":"4","last_reported":1748445006,"current_range_meters":8800,"station_id":"ce4bhbh2rcd13ifvqepg","pricing_plan_id":"cebpf4jnsgd1na2vs0mg"},{"bike_id":"aa4eeb3d-8a87-4d70-bbb9-ae22a2e3f103","system_id":"levelo_inurba_marseille","lat":43.28617,"lon":5.35106,"is_reserved":false,"is_disabled":false,"rental_uris":{"android":"levelo://app?vid=aa4eeb3d-8a87-4d70-bbb9-ae22a2e3f103","ios":"levelo://app?vid=aa4eeb3d-8a87-4d70-bbb9-ae22a2e3f103"},"vehicle_type_id":"4","last_reported":1748445006,"current_range_meters":8800,"station_id":"ce4bhch2rcd13ifvqeug","pricing_plan_id":"cebpf4jnsgd1na2vs0mg"},{"bike_id":"bf048c05-562c-42c2-9347-60dc944a093d","system_id":"levelo_inurba_marseille","lat":43.26694,"lon":5.38279,"is_reserved":false,"is_disabled":false,"rental_uris":{"android":"levelo://app?vid=bf048c05-562c-42c2-9347-60dc944a093d","ios":"levelo://app?vid=bf048c05-562c-42c2-9347-60dc944a093d"},"vehicle_type_id":"4","last_reported":1748445006,"current_range_meters":8800,"station_id":"ce4bhg92rcd13ifvqf90","pricing_plan_id":"cebpf4jnsgd1na2vs0mg"},{"bike_id":"beb1813e-1dde-4c03-98c7-da1fcced53c5","system_id":"levelo_inurba_marseille","lat":43.24662,"lon":5.38168,"is_reserved":false,"is_disabled":false,"rental_uris":{"android":"levelo://app?vid=beb1813e-1dde-4c03-98c7-da1fcced53c5","ios":"levelo://app?vid=beb1813e-1dde-4c03-98c7-da1fcced53c5"},"vehicle_type_id":"4","last_reported":1748445006,"current_range_meters":8800,"station_id":"ce4bhih2rcd13ifvqfr0","pricing_plan_id":"cebpf4jnsgd1na2vs0mg"},{"bike_id":"41df906d-49d7-45a7-98ad-fee47f212298","system_id":"levelo_inurba_marseille","lat":43.25582,"lon":5.38229,"is_reserved":false,"is_disabled":false,"rental_uris":{"android":"levelo://app?vid=41df906d-49d7-45a7-98ad-fee47f212298","ios":"levelo://app?vid=41df906d-49d7-45a7-98ad-fee47f212298"},"vehicle_type_id":"4","last_reported":1748445006,"current_range_meters":8800,"station_id":"ce4bhih2rcd13ifvqfs0","pricing_plan_id":"cebpf4jnsgd1na2vs0mg"},{"bike_id":"b80ee325-09b2-4724-993d-4f8d3707c41c","system_id":"levelo_inurba_marseille","lat":43.25862,"lon":5.39902,"is_reserved":false,"is_disabled":false,"rental_uris":{"android":"levelo://app?vid=b80ee325-09b2-4724-993d-4f8d3707c41c","ios":"levelo://app?vid=b80ee325-09b2-4724-993d-4f8d3707c41c"},"vehicle_type_id":"4","last_reported":1748445006,"current_range_meters":8800,"station_id":"ce4bhl92rcd13ifvqghg","pricing_plan_id":"cebpf4jnsgd1na2vs0mg"},{"bike_id":"6404f826-e6aa-468b-a692-4a4f6a02c948","system_id":"levelo_inurba_marseille","lat":43.24162,"lon":5.3642,"is_reserved":false,"is_disabled":false,"rental_uris":{"android":"levelo://app?vid=6404f826-e6aa-468b-a692-4a4f6a02c948","ios":"levelo://app?vid=6404f826-e6aa-468b-a692-4a4f6a02c948"},"vehicle_type_id":"4","last_reported":1748445006,"current_range_meters":8800,"station_id":"cpo36qri1sfpv3e86is0","pricing_plan_id":"cebpf4jnsgd1na2vs0mg"},{"bike_id":"c98963b4-c6fb-469c-bfaa-0a3d1e373178","system_id":"levelo_inurba_marseille","lat":43.24188,"lon":5.36433,"is_reserved":false,"is_disabled":false,"rental_uris":{"android":"levelo://app?vid=c98963b4-c6fb-469c-bfaa-0a3d1e373178","ios":"levelo://app?vid=c98963b4-c6fb-469c-bfaa-0a3d1e373178"},"vehicle_type_id":"4","last_reported":1748445006,"current_range_meters":8800,"station_id":"cpo36qri1sfpv3e86is0","pricing_plan_id":"cebpf4jnsgd1na2vs0mg"},{"bike_id":"60be5fbd-94e9-4ee8-a983-db5ffe474038","system_id":"levelo_inurba_marseille","lat":43.29008,"lon":5.35615,"is_reserved":false,"is_disabled":false,"rental_uris":{"android":"levelo://app?vid=60be5fbd-94e9-4ee8-a983-db5ffe474038","ios":"levelo://app?vid=60be5fbd-94e9-4ee8-a983-db5ffe474038"},"vehicle_type_id":"4","last_reported":1748445006,"current_range_meters":9200,"station_id":"ce4bhb92rcd13ifvqen0","pricing_plan_id":"cebpf4jnsgd1na2vs0mg"},{"bike_id":"6ad96cac-d1d5-4308-a518-8bd40f3da0a0","system_id":"levelo_inurba_marseille","lat":43.26556,"lon":5.37299,"is_reserved":false,"is_disabled":false,"rental_uris":{"android":"levelo://app?vid=6ad96cac-d1d5-4308-a518-8bd40f3da0a0","ios":"levelo://app?vid=6ad96cac-d1d5-4308-a518-8bd40f3da0a0"},"vehicle_type_id":"4","last_reported":1748445006,"current_range_meters":9200,"station_id":"ce4bhg12rcd13ifvqf70","pricing_plan_id":"cebpf4jnsgd1na2vs0mg"},{"bike_id":"4b04b1e6-7ad3-4768-81e4-2f1bdb89d1e3","system_id":"levelo_inurba_marseille","lat":43.25108,"lon":5.40314,"is_reserved":false,"is_disabled":false,"rental_uris":{"android":"levelo://app?vid=4b04b1e6-7ad3-4768-81e4-2f1bdb89d1e3","ios":"levelo://app?vid=4b04b1e6-7ad3-4768-81e4-2f1bdb89d1e3"},"vehicle_type_id":"4","last_reported":1748445006,"current_range_meters":9200,"station_id":"ce4bhlh2rcd13ifvqgig","pricing_plan_id":"cebpf4jnsgd1na2vs0mg"},{"bike_id":"9aab1d3e-0249-4900-8c94-c7d6e71918bc","system_id":"levelo_inurba_marseille","lat":43.24153,"lon":5.36394,"is_reserved":false,"is_disabled":false,"rental_uris":{"android":"levelo://app?vid=9aab1d3e-0249-4900-8c94-c7d6e71918bc","ios":"levelo://app?vid=9aab1d3e-0249-4900-8c94-c7d6e71918bc"},"vehicle_type_id":"4","last_reported":1748445006,"current_range_meters":9200,"station_id":"cpo36qri1sfpv3e86is0","pricing_plan_id":"cebpf4jnsgd1na2vs0mg"},{"bike_id":"6d7cfdcd-f061-4eee-b4e5-78d9b6729328","system_id":"levelo_inurba_marseille","lat":43.32994,"lon":5.43874,"is_reserved":false,"is_disabled":false,"rental_uris":{"android":"levelo://app?vid=6d7cfdcd-f061-4eee-b4e5-78d9b6729328","ios":"levelo://app?vid=6d7cfdcd-f061-4eee-b4e5-78d9b6729328"},"vehicle_type_id":"4","last_reported":1748445006,"current_range_meters":9600,"station_id":"","pricing_plan_id":"cebpf4jnsgd1na2vs0mg"},{"bike_id":"16578a9c-c460-4d38-be25-a20250881a73","system_id":"levelo_inurba_marseille","lat":43.322277,"lon":5.384171,"is_reserved":false,"is_disabled":false,"rental_uris":{"android":"levelo://app?vid=16578a9c-c460-4d38-be25-a20250881a73","ios":"levelo://app?vid=16578a9c-c460-4d38-be25-a20250881a73"},"vehicle_type_id":"4","last_reported":1748445006,"current_range_meters":9600,"station_id":"","pricing_plan_id":"cebpf4jnsgd1na2vs0mg"},{"bike_id":"204b25ef-e45e-4112-a2b1-441aa091458f","system_id":"levelo_inurba_marseille","lat":43.2937,"lon":5.37848,"is_reserved":false,"is_disabled":false,"rental_uris":{"android":"levelo://app?vid=204b25ef-e45e-4112-a2b1-441aa091458f","ios":"levelo://app?vid=204b25ef-e45e-4112-a2b1-441aa091458f"},"vehicle_type_id":"4","last_reported":1748445006,"current_range_meters":9600,"station_id":"ce4bgjh2rcd13ifvqbf0","pricing_plan_id":"cebpf4jnsgd1na2vs0mg"},{"bike_id":"85f71e16-4f74-482c-941a-3e7dbb32bb92","system_id":"levelo_inurba_marseille","lat":43.29369,"lon":5.37859,"is_reserved":false,"is_disabled":false,"rental_uris":{"android":"levelo://app?vid=85f71e16-4f74-482c-941a-3e7dbb32bb92","ios":"levelo://app?vid=85f71e16-4f74-482c-941a-3e7dbb32bb92"},"vehicle_type_id":"4","last_reported":1748445006,"current_range_meters":9600,"station_id":"ce4bgjh2rcd13ifvqbf0","pricing_plan_id":"cebpf4jnsgd1na2vs0mg"},{"bike_id":"6e5a5254-03ba-49d0-b71d-676dd89826e3","system_id":"levelo_inurba_marseille","lat":43.302974,"lon":5.392238,"is_reserved":false,"is_disabled":false,"rental_uris":{"android":"levelo://app?vid=6e5a5254-03ba-49d0-b71d-676dd89826e3","ios":"levelo://app?vid=6e5a5254-03ba-49d0-b71d-676dd89826e3"},"vehicle_type_id":"4","last_reported":1748445006,"current_range_meters":9600,"station_id":"ce4bgkh2rcd13ifvqbk0","pricing_plan_id":"cebpf4jnsgd1na2vs0mg"},{"bike_id":"4bbe83ae-fed8-42b4-9ae6-a4cd9dbce1a4","system_id":"levelo_inurba_marseille","lat":43.28681,"lon":5.38654,"is_reserved":false,"is_disabled":false,"rental_uris":{"android":"levelo://app?vid=4bbe83ae-fed8-42b4-9ae6-a4cd9dbce1a4","ios":"levelo://app?vid=4bbe83ae-fed8-42b4-9ae6-a4cd9dbce1a4"},"vehicle_type_id":"4","last_reported":1748445006,"current_range_meters":9600,"station_id":"ce4bh492rcd13ifvqdug","pricing_plan_id":"cebpf4jnsgd1na2vs0mg"},{"bike_id":"8bb1ee03-1614-4cf4-8bf0-0a8570db7b63","system_id":"levelo_inurba_marseille","lat":43.27386,"lon":5.36257,"is_reserved":false,"is_disabled":false,"rental_uris":{"android":"levelo://app?vid=8bb1ee03-1614-4cf4-8bf0-0a8570db7b63","ios":"levelo://app?vid=8bb1ee03-1614-4cf4-8bf0-0a8570db7b63"},"vehicle_type_id":"4","last_reported":1748445006,"current_range_meters":9600,"station_id":"ce4bhbh2rcd13ifvqeo0","pricing_plan_id":"cebpf4jnsgd1na2vs0mg"},{"bike_id":"650399ea-d060-4119-8eda-f5e15d9a2d68","system_id":"levelo_inurba_marseille","lat":43.27383,"lon":5.36251,"is_reserved":false,"is_disabled":false,"rental_uris":{"android":"levelo://app?vid=650399ea-d060-4119-8eda-f5e15d9a2d68","ios":"levelo://app?vid=650399ea-d060-4119-8eda-f5e15d9a2d68"},"vehicle_type_id":"4","last_reported":1748445006,"current_range_meters":9600,"station_id":"ce4bhbh2rcd13ifvqeo0","pricing_plan_id":"cebpf4jnsgd1na2vs0mg"},{"bike_id":"87db696d-7ed3-4b7c-b3ae-1121e991e97b","system_id":"levelo_inurba_marseille","lat":43.28271,"lon":5.35069,"is_reserved":false,"is_disabled":false,"rental_uris":{"android":"levelo://app?vid=87db696d-7ed3-4b7c-b3ae-1121e991e97b","ios":"levelo://app?vid=87db696d-7ed3-4b7c-b3ae-1121e991e97b"},"vehicle_type_id":"4","last_reported":1748445006,"current_range_meters":9600,"station_id":"ce4bhbp2rcd13ifvqerg","pricing_plan_id":"cebpf4jnsgd1na2vs0mg"},{"bike_id":"899e1268-d43c-4ee2-9675-87d26f2979db","system_id":"levelo_inurba_marseille","lat":43.28622,"lon":5.35095,"is_reserved":false,"is_disabled":false,"rental_uris":{"android":"levelo://app?vid=899e1268-d43c-4ee2-9675-87d26f2979db","ios":"levelo://app?vid=899e1268-d43c-4ee2-9675-87d26f2979db"},"vehicle_type_id":"4","last_reported":1748445006,"current_range_meters":9600,"station_id":"ce4bhch2rcd13ifvqeug","pricing_plan_id":"cebpf4jnsgd1na2vs0mg"},{"bike_id":"a714d696-d878-4d43-bf94-182b76b1ce14","system_id":"levelo_inurba_marseille","lat":43.30463,"lon":5.37913,"is_reserved":false,"is_disabled":false,"rental_uris":{"android":"levelo://app?vid=a714d696-d878-4d43-bf94-182b76b1ce14","ios":"levelo://app?vid=a714d696-d878-4d43-bf94-182b76b1ce14"},"vehicle_type_id":"4","last_reported":1748445006,"current_range_meters":10000,"station_id":"ce4bgup2rcd13ifvqcn0","pricing_plan_id":"cebpf4jnsgd1na2vs0mg"},{"bike_id":"9604f3c8-95ed-4b25-a19a-2abdfce71ef1","system_id":"levelo_inurba_marseille","lat":43.308891,"lon":5.39655,"is_reserved":false,"is_disabled":false,"rental_uris":{"android":"levelo://app?vid=9604f3c8-95ed-4b25-a19a-2abdfce71ef1","ios":"levelo://app?vid=9604f3c8-95ed-4b25-a19a-2abdfce71ef1"},"vehicle_type_id":"4","last_reported":1748445006,"current_range_meters":10000,"station_id":"ce4bh012rcd13ifvqcv0","pricing_plan_id":"cebpf4jnsgd1na2vs0mg"},{"bike_id":"779c888d-bb81-42f6-a81b-157381601163","system_id":"levelo_inurba_marseille","lat":43.27376,"lon":5.36255,"is_reserved":false,"is_disabled":false,"rental_uris":{"android":"levelo://app?vid=779c888d-bb81-42f6-a81b-157381601163","ios":"levelo://app?vid=779c888d-bb81-42f6-a81b-157381601163"},"vehicle_type_id":"4","last_reported":1748445006,"current_range_meters":10000,"station_id":"ce4bhbh2rcd13ifvqeo0","pricing_plan_id":"cebpf4jnsgd1na2vs0mg"},{"bike_id":"c166927f-bfed-4a7f-bb6b-daf56e43b6c4","system_id":"levelo_inurba_marseille","lat":43.27372,"lon":5.3626,"is_reserved":false,"is_disabled":false,"rental_uris":{"android":"levelo://app?vid=c166927f-bfed-4a7f-bb6b-daf56e43b6c4","ios":"levelo://app?vid=c166927f-bfed-4a7f-bb6b-daf56e43b6c4"},"vehicle_type_id":"4","last_reported":1748445006,"current_range_meters":10000,"station_id":"ce4bhbh2rcd13ifvqeo0","pricing_plan_id":"cebpf4jnsgd1na2vs0mg"},{"bike_id":"446aeceb-0aa8-4fb6-9292-f72332d8fcec","system_id":"levelo_inurba_marseille","lat":43.28271,"lon":5.35075,"is_reserved":false,"is_disabled":false,"rental_uris":{"android":"levelo://app?vid=446aeceb-0aa8-4fb6-9292-f72332d8fcec","ios":"levelo://app?vid=446aeceb-0aa8-4fb6-9292-f72332d8fcec"},"vehicle_type_id":"4","last_reported":1748445006,"current_range_meters":10000,"station_id":"ce4bhbp2rcd13ifvqerg","pricing_plan_id":"cebpf4jnsgd1na2vs0mg"},{"bike_id":"779d5338-7716-4546-b3d2-c289c462fe19","system_id":"levelo_inurba_marseille","lat":43.28262,"lon":5.35077,"is_reserved":false,"is_disabled":false,"rental_uris":{"android":"levelo://app?vid=779d5338-7716-4546-b3d2-c289c462fe19","ios":"levelo://app?vid=779d5338-7716-4546-b3d2-c289c462fe19"},"vehicle_type_id":"4","last_reported":1748445006,"current_range_meters":10000,"station_id":"ce4bhbp2rcd13ifvqerg","pricing_plan_id":"cebpf4jnsgd1na2vs0mg"},{"bike_id":"3b6883fc-b1b8-4919-a71b-9e592f7bed7d","system_id":"levelo_inurba_marseille","lat":43.28624,"lon":5.35093,"is_reserved":false,"is_disabled":false,"rental_uris":{"android":"levelo://app?vid=3b6883fc-b1b8-4919-a71b-9e592f7bed7d","ios":"levelo://app?vid=3b6883fc-b1b8-4919-a71b-9e592f7bed7d"},"vehicle_type_id":"4","last_reported":1748445006,"current_range_meters":10000,"station_id":"ce4bhch2rcd13ifvqeug","pricing_plan_id":"cebpf4jnsgd1na2vs0mg"},{"bike_id":"c2790d35-a877-4cba-afc0-1ac3b2758da7","system_id":"levelo_inurba_marseille","lat":43.25511,"lon":5.37674,"is_reserved":false,"is_disabled":false,"rental_uris":{"android":"levelo://app?vid=c2790d35-a877-4cba-afc0-1ac3b2758da7","ios":"levelo://app?vid=c2790d35-a877-4cba-afc0-1ac3b2758da7"},"vehicle_type_id":"4","last_reported":1748445006,"current_range_meters":10000,"station_id":"ce4bhh12rcd13ifvqff0","pricing_plan_id":"cebpf4jnsgd1na2vs0mg"},{"bike_id":"6a694417-653b-4864-bf10-7591d68482f2","system_id":"levelo_inurba_marseille","lat":43.24842,"lon":5.37463,"is_reserved":false,"is_disabled":false,"rental_uris":{"android":"levelo://app?vid=6a694417-653b-4864-bf10-7591d68482f2","ios":"levelo://app?vid=6a694417-653b-4864-bf10-7591d68482f2"},"vehicle_type_id":"4","last_reported":1748445006,"current_range_meters":10800,"station_id":"","pricing_plan_id":"cebpf4jnsgd1na2vs0mg"},{"bike_id":"4d9adbfb-dbb5-46fb-9bdf-1ce561416501","system_id":"levelo_inurba_marseille","lat":43.29904,"lon":5.38154,"is_reserved":false,"is_disabled":false,"rental_uris":{"android":"levelo://app?vid=4d9adbfb-dbb5-46fb-9bdf-1ce561416501","ios":"levelo://app?vid=4d9adbfb-dbb5-46fb-9bdf-1ce561416501"},"vehicle_type_id":"4","last_reported":1748445006,"current_range_meters":10800,"station_id":"ce4bgj12rcd13ifvqbc0","pricing_plan_id":"cebpf4jnsgd1na2vs0mg"},{"bike_id":"2dee158a-1ee3-42d1-b766-77d06c838f7a","system_id":"levelo_inurba_marseille","lat":43.30148,"lon":5.38081,"is_reserved":false,"is_disabled":false,"rental_uris":{"android":"levelo://app?vid=2dee158a-1ee3-42d1-b766-77d06c838f7a","ios":"levelo://app?vid=2dee158a-1ee3-42d1-b766-77d06c838f7a"},"vehicle_type_id":"4","last_reported":1748445006,"current_range_meters":10800,"station_id":"ce4bgjp2rcd13ifvqbh0","pricing_plan_id":"cebpf4jnsgd1na2vs0mg"},{"bike_id":"d1fb5a65-728e-4119-9148-bffd74b0b4e7","system_id":"levelo_inurba_marseille","lat":43.30557,"lon":5.3653,"is_reserved":false,"is_disabled":false,"rental_uris":{"android":"levelo://app?vid=d1fb5a65-728e-4119-9148-bffd74b0b4e7","ios":"levelo://app?vid=d1fb5a65-728e-4119-9148-bffd74b0b4e7"},"vehicle_type_id":"4","last_reported":1748445006,"current_range_meters":10800,"station_id":"ce4bgs12rcd13ifvqcag","pricing_plan_id":"cebpf4jnsgd1na2vs0mg"},{"bike_id":"16bdee30-fdb5-4a25-ae92-3e83b80ee4ba","system_id":"levelo_inurba_marseille","lat":43.29571,"lon":5.39991,"is_reserved":false,"is_disabled":false,"rental_uris":{"android":"levelo://app?vid=16bdee30-fdb5-4a25-ae92-3e83b80ee4ba","ios":"levelo://app?vid=16bdee30-fdb5-4a25-ae92-3e83b80ee4ba"},"vehicle_type_id":"4","last_reported":1748445006,"current_range_meters":10800,"station_id":"ce4bh312rcd13ifvqdj0","pricing_plan_id":"cebpf4jnsgd1na2vs0mg"},{"bike_id":"08ea8800-5cc3-4776-8cf1-9d681af11069","system_id":"levelo_inurba_marseille","lat":43.29208,"lon":5.35806,"is_reserved":false,"is_disabled":false,"rental_uris":{"android":"levelo://app?vid=08ea8800-5cc3-4776-8cf1-9d681af11069","ios":"levelo://app?vid=08ea8800-5cc3-4776-8cf1-9d681af11069"},"vehicle_type_id":"4","last_reported":1748445006,"current_range_meters":10800,"station_id":"ce4bhb12rcd13ifvqel0","pricing_plan_id":"cebpf4jnsgd1na2vs0mg"},{"bike_id":"0268255e-4b7a-4fc8-8caa-c71e9b711915","system_id":"levelo_inurba_marseille","lat":43.27372,"lon":5.36263,"is_reserved":false,"is_disabled":false,"rental_uris":{"android":"levelo://app?vid=0268255e-4b7a-4fc8-8caa-c71e9b711915","ios":"levelo://app?vid=0268255e-4b7a-4fc8-8caa-c71e9b711915"},"vehicle_type_id":"4","last_reported":1748445006,"current_range_meters":10800,"station_id":"ce4bhbh2rcd13ifvqeo0","pricing_plan_id":"cebpf4jnsgd1na2vs0mg"},{"bike_id":"5e703e03-e240-4b49-9f2f-4a5035fe04a6","system_id":"levelo_inurba_marseille","lat":43.273747,"lon":5.362523,"is_reserved":false,"is_disabled":false,"rental_uris":{"android":"levelo://app?vid=5e703e03-e240-4b49-9f2f-4a5035fe04a6","ios":"levelo://app?vid=5e703e03-e240-4b49-9f2f-4a5035fe04a6"},"vehicle_type_id":"4","last_reported":1748445006,"current_range_meters":10800,"station_id":"ce4bhbh2rcd13ifvqeo0","pricing_plan_id":"cebpf4jnsgd1na2vs0mg"},{"bike_id":"ffccf49c-473b-488d-af57-9d599dc227d2","system_id":"levelo_inurba_marseille","lat":43.27902,"lon":5.39598,"is_reserved":false,"is_disabled":false,"rental_uris":{"android":"levelo://app?vid=ffccf49c-473b-488d-af57-9d599dc227d2","ios":"levelo://app?vid=ffccf49c-473b-488d-af57-9d599dc227d2"},"vehicle_type_id":"4","last_reported":1748445006,"current_range_meters":10800,"station_id":"ce4bhf92rcd13ifvqf40","pricing_plan_id":"cebpf4jnsgd1na2vs0mg"},{"bike_id":"292489fd-4ea3-4f79-a7fe-73e043578ddb","system_id":"levelo_inurba_marseille","lat":43.27078,"lon":5.40271,"is_reserved":false,"is_disabled":false,"rental_uris":{"android":"levelo://app?vid=292489fd-4ea3-4f79-a7fe-73e043578ddb","ios":"levelo://app?vid=292489fd-4ea3-4f79-a7fe-73e043578ddb"},"vehicle_type_id":"4","last_reported":1748445006,"current_range_meters":10800,"station_id":"ce4bhk92rcd13ifvqgc0","pricing_plan_id":"cebpf4jnsgd1na2vs0mg"},{"bike_id":"e886fca3-1035-4416-9930-a82ebe7e8dc5","system_id":"levelo_inurba_marseille","lat":43.27179,"lon":5.40996,"is_reserved":false,"is_disabled":false,"rental_uris":{"android":"levelo://app?vid=e886fca3-1035-4416-9930-a82ebe7e8dc5","ios":"levelo://app?vid=e886fca3-1035-4416-9930-a82ebe7e8dc5"},"vehicle_type_id":"4","last_reported":1748445006,"current_range_meters":10800,"station_id":"ce4bhl12rcd13ifvqgf0","pricing_plan_id":"cebpf4jnsgd1na2vs0mg"},{"bike_id":"7fa9b045-946d-4d1e-a6ff-f2f97934336b","system_id":"levelo_inurba_marseille","lat":43.25113,"lon":5.40319,"is_reserved":false,"is_disabled":false,"rental_uris":{"android":"levelo://app?vid=7fa9b045-946d-4d1e-a6ff-f2f97934336b","ios":"levelo://app?vid=7fa9b045-946d-4d1e-a6ff-f2f97934336b"},"vehicle_type_id":"4","last_reported":1748445006,"current_range_meters":10800,"station_id":"ce4bhlh2rcd13ifvqgig","pricing_plan_id":"cebpf4jnsgd1na2vs0mg"},{"bike_id":"1e6e288c-e4d4-426d-9934-6c16dd4ed208","system_id":"levelo_inurba_marseille","lat":43.32117,"lon":5.36746,"is_reserved":false,"is_disabled":false,"rental_uris":{"android":"levelo://app?vid=1e6e288c-e4d4-426d-9934-6c16dd4ed208","ios":"levelo://app?vid=1e6e288c-e4d4-426d-9934-6c16dd4ed208"},"vehicle_type_id":"4","last_reported":1748445006,"current_range_meters":10800,"station_id":"ce4bhrh2rcd13ifvqhug","pricing_plan_id":"cebpf4jnsgd1na2vs0mg"},{"bike_id":"53cf6902-fb29-4b97-b8c8-b2d7c578b064","system_id":"levelo_inurba_marseille","lat":43.28403,"lon":5.37533,"is_reserved":false,"is_disabled":false,"rental_uris":{"android":"levelo://app?vid=53cf6902-fb29-4b97-b8c8-b2d7c578b064","ios":"levelo://app?vid=53cf6902-fb29-4b97-b8c8-b2d7c578b064"},"vehicle_type_id":"4","last_reported":1748445006,"current_range_meters":11200,"station_id":"ce4bh412rcd13ifvqds0","pricing_plan_id":"cebpf4jnsgd1na2vs0mg"},{"bike_id":"6ce74eaa-8724-4662-88e7-98e7eff1bb9e","system_id":"levelo_inurba_marseille","lat":43.27815,"lon":5.40713,"is_reserved":false,"is_disabled":false,"rental_uris":{"android":"levelo://app?vid=6ce74eaa-8724-4662-88e7-98e7eff1bb9e","ios":"levelo://app?vid=6ce74eaa-8724-4662-88e7-98e7eff1bb9e"},"vehicle_type_id":"4","last_reported":1748445006,"current_range_meters":11200,"station_id":"ce4bhnh2rcd13ifvqgtg","pricing_plan_id":"cebpf4jnsgd1na2vs0mg"},{"bike_id":"9c724d30-4ddc-42b8-abe2-bd3f324f9946","system_id":"levelo_inurba_marseille","lat":43.24179,"lon":5.36392,"is_reserved":false,"is_disabled":false,"rental_uris":{"android":"levelo://app?vid=9c724d30-4ddc-42b8-abe2-bd3f324f9946","ios":"levelo://app?vid=9c724d30-4ddc-42b8-abe2-bd3f324f9946"},"vehicle_type_id":"4","last_reported":1748445006,"current_range_meters":11200,"station_id":"cpo36qri1sfpv3e86is0","pricing_plan_id":"cebpf4jnsgd1na2vs0mg"},{"bike_id":"2f650bb1-6027-4191-83d2-16315820a0a7","system_id":"levelo_inurba_marseille","lat":43.29983,"lon":5.37353,"is_reserved":false,"is_disabled":false,"rental_uris":{"android":"levelo://app?vid=2f650bb1-6027-4191-83d2-16315820a0a7","ios":"levelo://app?vid=2f650bb1-6027-4191-83d2-16315820a0a7"},"vehicle_type_id":"4","last_reported":1748445006,"current_range_meters":11600,"station_id":"","pricing_plan_id":"cebpf4jnsgd1na2vs0mg"},{"bike_id":"7e195a62-25bd-4a1b-802d-60a93f1ec90e","system_id":"levelo_inurba_marseille","lat":43.24165,"lon":5.36457,"is_reserved":false,"is_disabled":false,"rental_uris":{"android":"levelo://app?vid=7e195a62-25bd-4a1b-802d-60a93f1ec90e","ios":"levelo://app?vid=7e195a62-25bd-4a1b-802d-60a93f1ec90e"},"vehicle_type_id":"4","last_reported":1748445006,"current_range_meters":11600,"station_id":"","pricing_plan_id":"cebpf4jnsgd1na2vs0mg"},{"bike_id":"c84f8025-f392-4efb-8662-faa8b7ebbd21","system_id":"levelo_inurba_marseille","lat":43.295066,"lon":5.374448,"is_reserved":false,"is_disabled":false,"rental_uris":{"android":"levelo://app?vid=c84f8025-f392-4efb-8662-faa8b7ebbd21","ios":"levelo://app?vid=c84f8025-f392-4efb-8662-faa8b7ebbd21"},"vehicle_type_id":"4","last_reported":1748445006,"current_range_meters":11600,"station_id":"ce4bgh92rcd13ifvqb50","pricing_plan_id":"cebpf4jnsgd1na2vs0mg"},{"bike_id":"ee4e9667-f329-47f6-8b9b-79ee11e1bc73","system_id":"levelo_inurba_marseille","lat":43.29517,"lon":5.37488,"is_reserved":false,"is_disabled":false,"rental_uris":{"android":"levelo://app?vid=ee4e9667-f329-47f6-8b9b-79ee11e1bc73","ios":"levelo://app?vid=ee4e9667-f329-47f6-8b9b-79ee11e1bc73"},"vehicle_type_id":"4","last_reported":1748445006,"current_range_meters":11600,"station_id":"ce4bgkp2rcd13ifvqbmg","pricing_plan_id":"cebpf4jnsgd1na2vs0mg"},{"bike_id":"95f36201-f64e-4397-8185-a35d5cb5197d","system_id":"levelo_inurba_marseille","lat":43.30474,"lon":5.37929,"is_reserved":false,"is_disabled":false,"rental_uris":{"android":"levelo://app?vid=95f36201-f64e-4397-8185-a35d5cb5197d","ios":"levelo://app?vid=95f36201-f64e-4397-8185-a35d5cb5197d"},"vehicle_type_id":"4","last_reported":1748445006,"current_range_meters":11600,"station_id":"ce4bgup2rcd13ifvqcn0","pricing_plan_id":"cebpf4jnsgd1na2vs0mg"},{"bike_id":"3c2d4128-abbb-47bf-a912-623d04e78210","system_id":"levelo_inurba_marseille","lat":43.28034,"lon":5.36961,"is_reserved":false,"is_disabled":false,"rental_uris":{"android":"levelo://app?vid=3c2d4128-abbb-47bf-a912-623d04e78210","ios":"levelo://app?vid=3c2d4128-abbb-47bf-a912-623d04e78210"},"vehicle_type_id":"4","last_reported":1748445006,"current_range_meters":11600,"station_id":"ce4bha12rcd13ifvqef0","pricing_plan_id":"cebpf4jnsgd1na2vs0mg"},{"bike_id":"6999eccf-f62f-4d09-8e6b-b71c58a8c2a0","system_id":"levelo_inurba_marseille","lat":43.29179,"lon":5.3582,"is_reserved":false,"is_disabled":false,"rental_uris":{"android":"levelo://app?vid=6999eccf-f62f-4d09-8e6b-b71c58a8c2a0","ios":"levelo://app?vid=6999eccf-f62f-4d09-8e6b-b71c58a8c2a0"},"vehicle_type_id":"4","last_reported":1748445006,"current_range_meters":11600,"station_id":"ce4bhb12rcd13ifvqel0","pricing_plan_id":"cebpf4jnsgd1na2vs0mg"},{"bike_id":"39fff222-849d-4502-bd15-fdb15fa72a7d","system_id":"levelo_inurba_marseille","lat":43.2861,"lon":5.35107,"is_reserved":false,"is_disabled":false,"rental_uris":{"android":"levelo://app?vid=39fff222-849d-4502-bd15-fdb15fa72a7d","ios":"levelo://app?vid=39fff222-849d-4502-bd15-fdb15fa72a7d"},"vehicle_type_id":"4","last_reported":1748445006,"current_range_meters":11600,"station_id":"ce4bhch2rcd13ifvqeug","pricing_plan_id":"cebpf4jnsgd1na2vs0mg"},{"bike_id":"37b6455a-52b4-489d-b263-6d726e34aeb7","system_id":"levelo_inurba_marseille","lat":43.28616,"lon":5.35108,"is_reserved":false,"is_disabled":false,"rental_uris":{"android":"levelo://app?vid=37b6455a-52b4-489d-b263-6d726e34aeb7","ios":"levelo://app?vid=37b6455a-52b4-489d-b263-6d726e34aeb7"},"vehicle_type_id":"4","last_reported":1748445006,"current_range_meters":11600,"station_id":"ce4bhch2rcd13ifvqeug","pricing_plan_id":"cebpf4jnsgd1na2vs0mg"},{"bike_id":"68d89e31-f5e8-406d-9a6a-28a18baceb70","system_id":"levelo_inurba_marseille","lat":43.27996,"lon":5.41666,"is_reserved":false,"is_disabled":false,"rental_uris":{"android":"levelo://app?vid=68d89e31-f5e8-406d-9a6a-28a18baceb70","ios":"levelo://app?vid=68d89e31-f5e8-406d-9a6a-28a18baceb70"},"vehicle_type_id":"4","last_reported":1748445006,"current_range_meters":11600,"station_id":"ce4bho12rcd13ifvqh1g","pricing_plan_id":"cebpf4jnsgd1na2vs0mg"},{"bike_id":"fdfa7863-9967-4d31-ae32-f03efdd733b9","system_id":"levelo_inurba_marseille","lat":43.33024,"lon":5.39065,"is_reserved":false,"is_disabled":false,"rental_uris":{"android":"levelo://app?vid=fdfa7863-9967-4d31-ae32-f03efdd733b9","ios":"levelo://app?vid=fdfa7863-9967-4d31-ae32-f03efdd733b9"},"vehicle_type_id":"4","last_reported":1748445006,"current_range_meters":11600,"station_id":"ce4bhr92rcd13ifvqhrg","pricing_plan_id":"cebpf4jnsgd1na2vs0mg"},{"bike_id":"08fbb7f0-10de-4946-a42f-890babd1b26f","system_id":"levelo_inurba_marseille","lat":43.27399,"lon":5.36276,"is_reserved":false,"is_disabled":false,"rental_uris":{"android":"levelo://app?vid=08fbb7f0-10de-4946-a42f-890babd1b26f","ios":"levelo://app?vid=08fbb7f0-10de-4946-a42f-890babd1b26f"},"vehicle_type_id":"4","last_reported":1748445006,"current_range_meters":12000,"station_id":"ce4bhbh2rcd13ifvqeo0","pricing_plan_id":"cebpf4jnsgd1na2vs0mg"},{"bike_id":"577f88ab-dc85-4523-ba50-c216615e3670","system_id":"levelo_inurba_marseille","lat":43.27373,"lon":5.36246,"is_reserved":false,"is_disabled":false,"rental_uris":{"android":"levelo://app?vid=577f88ab-dc85-4523-ba50-c216615e3670","ios":"levelo://app?vid=577f88ab-dc85-4523-ba50-c216615e3670"},"vehicle_type_id":"4","last_reported":1748445006,"current_range_meters":12000,"station_id":"ce4bhbh2rcd13ifvqeo0","pricing_plan_id":"cebpf4jnsgd1na2vs0mg"},{"bike_id":"72771742-92c1-4498-9f00-75b8f6e14fe8","system_id":"levelo_inurba_marseille","lat":43.29266,"lon":5.3844,"is_reserved":false,"is_disabled":false,"rental_uris":{"android":"levelo://app?vid=72771742-92c1-4498-9f00-75b8f6e14fe8","ios":"levelo://app?vid=72771742-92c1-4498-9f00-75b8f6e14fe8"},"vehicle_type_id":"4","last_reported":1748445006,"current_range_meters":12400,"station_id":"ce4bh692rcd13ifvqea0","pricing_plan_id":"cebpf4jnsgd1na2vs0mg"},{"bike_id":"9b0a719a-fbc0-4a5e-9037-c71f34fab866","system_id":"levelo_inurba_marseille","lat":43.28404,"lon":5.3499,"is_reserved":false,"is_disabled":false,"rental_uris":{"android":"levelo://app?vid=9b0a719a-fbc0-4a5e-9037-c71f34fab866","ios":"levelo://app?vid=9b0a719a-fbc0-4a5e-9037-c71f34fab866"},"vehicle_type_id":"4","last_reported":1748445006,"current_range_meters":12400,"station_id":"ce4bhbh2rcd13ifvqepg","pricing_plan_id":"cebpf4jnsgd1na2vs0mg"},{"bike_id":"0d8f398a-54f3-4ea8-bcb1-b1b85d98c09d","system_id":"levelo_inurba_marseille","lat":43.28271,"lon":5.35063,"is_reserved":false,"is_disabled":false,"rental_uris":{"android":"levelo://app?vid=0d8f398a-54f3-4ea8-bcb1-b1b85d98c09d","ios":"levelo://app?vid=0d8f398a-54f3-4ea8-bcb1-b1b85d98c09d"},"vehicle_type_id":"4","last_reported":1748445006,"current_range_meters":12400,"station_id":"ce4bhbp2rcd13ifvqerg","pricing_plan_id":"cebpf4jnsgd1na2vs0mg"},{"bike_id":"cb12fb9a-ba8a-4b43-adb7-2a42437e4fed","system_id":"levelo_inurba_marseille","lat":43.29933,"lon":5.36558,"is_reserved":false,"is_disabled":false,"rental_uris":{"android":"levelo://app?vid=cb12fb9a-ba8a-4b43-adb7-2a42437e4fed","ios":"levelo://app?vid=cb12fb9a-ba8a-4b43-adb7-2a42437e4fed"},"vehicle_type_id":"4","last_reported":1748445006,"current_range_meters":12800,"station_id":"ce4bgm92rcd13ifvqbr0","pricing_plan_id":"cebpf4jnsgd1na2vs0mg"},{"bike_id":"f53324a1-7d86-4022-ba3d-105425ae69b4","system_id":"levelo_inurba_marseille","lat":43.30303,"lon":5.36907,"is_reserved":false,"is_disabled":false,"rental_uris":{"android":"levelo://app?vid=f53324a1-7d86-4022-ba3d-105425ae69b4","ios":"levelo://app?vid=f53324a1-7d86-4022-ba3d-105425ae69b4"},"vehicle_type_id":"4","last_reported":1748445006,"current_range_meters":12800,"station_id":"ce4bgqh2rcd13ifvqc5g","pricing_plan_id":"cebpf4jnsgd1na2vs0mg"},{"bike_id":"faa4577c-8e21-4b61-b0fd-d6cf46205cfb","system_id":"levelo_inurba_marseille","lat":43.30286,"lon":5.37696,"is_reserved":false,"is_disabled":false,"rental_uris":{"android":"levelo://app?vid=faa4577c-8e21-4b61-b0fd-d6cf46205cfb","ios":"levelo://app?vid=faa4577c-8e21-4b61-b0fd-d6cf46205cfb"},"vehicle_type_id":"4","last_reported":1748445006,"current_range_meters":12800,"station_id":"ce4bguh2rcd13ifvqcj0","pricing_plan_id":"cebpf4jnsgd1na2vs0mg"},{"bike_id":"57c7b985-ed3e-43d9-8066-0aa9d3be9dbc","system_id":"levelo_inurba_marseille","lat":43.24654,"lon":5.38901,"is_reserved":false,"is_disabled":false,"rental_uris":{"android":"levelo://app?vid=57c7b985-ed3e-43d9-8066-0aa9d3be9dbc","ios":"levelo://app?vid=57c7b985-ed3e-43d9-8066-0aa9d3be9dbc"},"vehicle_type_id":"4","last_reported":1748445006,"current_range_meters":12800,"station_id":"ce4bhg12rcd13ifvqf60","pricing_plan_id":"cebpf4jnsgd1na2vs0mg"},{"bike_id":"e5510727-e28d-4577-9d7a-ede0fe14eff9","system_id":"levelo_inurba_marseille","lat":43.27074,"lon":5.4029,"is_reserved":false,"is_disabled":false,"rental_uris":{"android":"levelo://app?vid=e5510727-e28d-4577-9d7a-ede0fe14eff9","ios":"levelo://app?vid=e5510727-e28d-4577-9d7a-ede0fe14eff9"},"vehicle_type_id":"4","last_reported":1748445006,"current_range_meters":12800,"station_id":"ce4bhk92rcd13ifvqgc0","pricing_plan_id":"cebpf4jnsgd1na2vs0mg"},{"bike_id":"5aa3b789-94ac-4ca2-9ea1-482f615ba9d4","system_id":"levelo_inurba_marseille","lat":43.29897,"lon":5.43672,"is_reserved":false,"is_disabled":false,"rental_uris":{"android":"levelo://app?vid=5aa3b789-94ac-4ca2-9ea1-482f615ba9d4","ios":"levelo://app?vid=5aa3b789-94ac-4ca2-9ea1-482f615ba9d4"},"vehicle_type_id":"4","last_reported":1748445006,"current_range_meters":12800,"station_id":"ce4bhpp2rcd13ifvqhfg","pricing_plan_id":"cebpf4jnsgd1na2vs0mg"},{"bike_id":"a7b28dad-b0e3-4373-84c9-ca1db05de1f6","system_id":"levelo_inurba_marseille","lat":43.3,"lon":5.38393,"is_reserved":false,"is_disabled":false,"rental_uris":{"android":"levelo://app?vid=a7b28dad-b0e3-4373-84c9-ca1db05de1f6","ios":"levelo://app?vid=a7b28dad-b0e3-4373-84c9-ca1db05de1f6"},"vehicle_type_id":"4","last_reported":1748445006,"current_range_meters":13600,"station_id":"","pricing_plan_id":"cebpf4jnsgd1na2vs0mg"},{"bike_id":"a6c9b2b6-285d-4d57-803c-d0bdd4303361","system_id":"levelo_inurba_marseille","lat":43.28563,"lon":5.39496,"is_reserved":false,"is_disabled":false,"rental_uris":{"android":"levelo://app?vid=a6c9b2b6-285d-4d57-803c-d0bdd4303361","ios":"levelo://app?vid=a6c9b2b6-285d-4d57-803c-d0bdd4303361"},"vehicle_type_id":"4","last_reported":1748445006,"current_range_meters":13600,"station_id":"ce4bh292rcd13ifvqdg0","pricing_plan_id":"cebpf4jnsgd1na2vs0mg"},{"bike_id":"16358778-9c20-4d43-9f79-f22659df4b1a","system_id":"levelo_inurba_marseille","lat":43.27396,"lon":5.36268,"is_reserved":false,"is_disabled":false,"rental_uris":{"android":"levelo://app?vid=16358778-9c20-4d43-9f79-f22659df4b1a","ios":"levelo://app?vid=16358778-9c20-4d43-9f79-f22659df4b1a"},"vehicle_type_id":"4","last_reported":1748445006,"current_range_meters":13600,"station_id":"ce4bhbh2rcd13ifvqeo0","pricing_plan_id":"cebpf4jnsgd1na2vs0mg"},{"bike_id":"7e21b4c5-84e6-49b9-999a-4fa6883be7c5","system_id":"levelo_inurba_marseille","lat":43.28416,"lon":5.35002,"is_reserved":false,"is_disabled":false,"rental_uris":{"android":"levelo://app?vid=7e21b4c5-84e6-49b9-999a-4fa6883be7c5","ios":"levelo://app?vid=7e21b4c5-84e6-49b9-999a-4fa6883be7c5"},"vehicle_type_id":"4","last_reported":1748445006,"current_range_meters":13600,"station_id":"ce4bhbh2rcd13ifvqepg","pricing_plan_id":"cebpf4jnsgd1na2vs0mg"},{"bike_id":"c2cd74f2-9fb0-4003-a172-ee049bf4ed25","system_id":"levelo_inurba_marseille","lat":43.27192,"lon":5.40977,"is_reserved":false,"is_disabled":false,"rental_uris":{"android":"levelo://app?vid=c2cd74f2-9fb0-4003-a172-ee049bf4ed25","ios":"levelo://app?vid=c2cd74f2-9fb0-4003-a172-ee049bf4ed25"},"vehicle_type_id":"4","last_reported":1748445006,"current_range_meters":13600,"station_id":"ce4bhl12rcd13ifvqgf0","pricing_plan_id":"cebpf4jnsgd1na2vs0mg"},{"bike_id":"d57a7f0a-c7ea-44a5-8bb6-f541ed0213ac","system_id":"levelo_inurba_marseille","lat":43.32361,"lon":5.38898,"is_reserved":false,"is_disabled":false,"rental_uris":{"android":"levelo://app?vid=d57a7f0a-c7ea-44a5-8bb6-f541ed0213ac","ios":"levelo://app?vid=d57a7f0a-c7ea-44a5-8bb6-f541ed0213ac"},"vehicle_type_id":"4","last_reported":1748445006,"current_range_meters":13600,"station_id":"ce4bhqp2rcd13ifvqhog","pricing_plan_id":"cebpf4jnsgd1na2vs0mg"},{"bike_id":"63616c72-9029-44e6-98de-a040d6b5ecfb","system_id":"levelo_inurba_marseille","lat":43.32142,"lon":5.36756,"is_reserved":false,"is_disabled":false,"rental_uris":{"android":"levelo://app?vid=63616c72-9029-44e6-98de-a040d6b5ecfb","ios":"levelo://app?vid=63616c72-9029-44e6-98de-a040d6b5ecfb"},"vehicle_type_id":"4","last_reported":1748445006,"current_range_meters":14000,"station_id":"","pricing_plan_id":"cebpf4jnsgd1na2vs0mg"},{"bike_id":"56884da0-f397-41d4-b422-a83399580277","system_id":"levelo_inurba_marseille","lat":43.29626,"lon":5.40603,"is_reserved":false,"is_disabled":false,"rental_uris":{"android":"levelo://app?vid=56884da0-f397-41d4-b422-a83399580277","ios":"levelo://app?vid=56884da0-f397-41d4-b422-a83399580277"},"vehicle_type_id":"4","last_reported":1748445006,"current_range_meters":14000,"station_id":"ce4bh0h2rcd13ifvqd60","pricing_plan_id":"cebpf4jnsgd1na2vs0mg"},{"bike_id":"d37f5fc8-d32a-4c99-82f9-9d86990b0d9d","system_id":"levelo_inurba_marseille","lat":43.27382,"lon":5.36251,"is_reserved":false,"is_disabled":false,"rental_uris":{"android":"levelo://app?vid=d37f5fc8-d32a-4c99-82f9-9d86990b0d9d","ios":"levelo://app?vid=d37f5fc8-d32a-4c99-82f9-9d86990b0d9d"},"vehicle_type_id":"4","last_reported":1748445006,"current_range_meters":14000,"station_id":"ce4bhbh2rcd13ifvqeo0","pricing_plan_id":"cebpf4jnsgd1na2vs0mg"},{"bike_id":"57273f77-1325-4799-85be-b061b79829a5","system_id":"levelo_inurba_marseille","lat":43.3237,"lon":5.36728,"is_reserved":false,"is_disabled":false,"rental_uris":{"android":"levelo://app?vid=57273f77-1325-4799-85be-b061b79829a5","ios":"levelo://app?vid=57273f77-1325-4799-85be-b061b79829a5"},"vehicle_type_id":"4","last_reported":1748445006,"current_range_meters":14000,"station_id":"ce4bhsh2rcd13ifvqi2g","pricing_plan_id":"cebpf4jnsgd1na2vs0mg"},{"bike_id":"a7a281d1-f248-498b-8404-73f9b9b8ae74","system_id":"levelo_inurba_marseille","lat":43.27619,"lon":5.36098,"is_reserved":false,"is_disabled":false,"rental_uris":{"android":"levelo://app?vid=a7a281d1-f248-498b-8404-73f9b9b8ae74","ios":"levelo://app?vid=a7a281d1-f248-498b-8404-73f9b9b8ae74"},"vehicle_type_id":"4","last_reported":1748445006,"current_range_meters":14400,"station_id":"ce4bgj92rcd13ifvqbe0","pricing_plan_id":"cebpf4jnsgd1na2vs0mg"},{"bike_id":"58db4cda-55fa-43d1-970d-4be0b25ab973","system_id":"levelo_inurba_marseille","lat":43.312187,"lon":5.368415,"is_reserved":false,"is_disabled":false,"rental_uris":{"android":"levelo://app?vid=58db4cda-55fa-43d1-970d-4be0b25ab973","ios":"levelo://app?vid=58db4cda-55fa-43d1-970d-4be0b25ab973"},"vehicle_type_id":"4","last_reported":1748445006,"current_range_meters":14400,"station_id":"ce4bgl92rcd13ifvqbq0","pricing_plan_id":"cebpf4jnsgd1na2vs0mg"},{"bike_id":"b322af7e-593c-4377-a856-20107ac50ac1","system_id":"levelo_inurba_marseille","lat":43.28936,"lon":5.39636,"is_reserved":false,"is_disabled":false,"rental_uris":{"android":"levelo://app?vid=b322af7e-593c-4377-a856-20107ac50ac1","ios":"levelo://app?vid=b322af7e-593c-4377-a856-20107ac50ac1"},"vehicle_type_id":"4","last_reported":1748445006,"current_range_meters":14400,"station_id":"ce4bh3h2rcd13ifvqdn0","pricing_plan_id":"cebpf4jnsgd1na2vs0mg"},{"bike_id":"886e129a-7417-4eaf-b25e-829518311fc8","system_id":"levelo_inurba_marseille","lat":43.28613,"lon":5.35087,"is_reserved":false,"is_disabled":false,"rental_uris":{"android":"levelo://app?vid=886e129a-7417-4eaf-b25e-829518311fc8","ios":"levelo://app?vid=886e129a-7417-4eaf-b25e-829518311fc8"},"vehicle_type_id":"4","last_reported":1748445006,"current_range_meters":14400,"station_id":"ce4bhch2rcd13ifvqeug","pricing_plan_id":"cebpf4jnsgd1na2vs0mg"},{"bike_id":"b461e6f5-b06c-4095-aa71-7c143aacaad3","system_id":"levelo_inurba_marseille","lat":43.28609,"lon":5.35078,"is_reserved":false,"is_disabled":false,"rental_uris":{"android":"levelo://app?vid=b461e6f5-b06c-4095-aa71-7c143aacaad3","ios":"levelo://app?vid=b461e6f5-b06c-4095-aa71-7c143aacaad3"},"vehicle_type_id":"4","last_reported":1748445006,"current_range_meters":14400,"station_id":"ce4bhch2rcd13ifvqeug","pricing_plan_id":"cebpf4jnsgd1na2vs0mg"},{"bike_id":"c32421ed-ddf4-4edd-af08-47e1fffda6e0","system_id":"levelo_inurba_marseille","lat":43.31198,"lon":5.36831,"is_reserved":false,"is_disabled":false,"rental_uris":{"android":"levelo://app?vid=c32421ed-ddf4-4edd-af08-47e1fffda6e0","ios":"levelo://app?vid=c32421ed-ddf4-4edd-af08-47e1fffda6e0"},"vehicle_type_id":"4","last_reported":1748445006,"current_range_meters":14800,"station_id":"ce4bgl92rcd13ifvqbq0","pricing_plan_id":"cebpf4jnsgd1na2vs0mg"},{"bike_id":"8a4a48d1-d8ca-4ee2-969d-0d60f537320f","system_id":"levelo_inurba_marseille","lat":43.26565,"lon":5.39014,"is_reserved":false,"is_disabled":false,"rental_uris":{"android":"levelo://app?vid=8a4a48d1-d8ca-4ee2-969d-0d60f537320f","ios":"levelo://app?vid=8a4a48d1-d8ca-4ee2-969d-0d60f537320f"},"vehicle_type_id":"4","last_reported":1748445006,"current_range_meters":14800,"station_id":"ce4bhe12rcd13ifvqf30","pricing_plan_id":"cebpf4jnsgd1na2vs0mg"},{"bike_id":"60815888-7c98-4769-b7d4-8cf1272505d8","system_id":"levelo_inurba_marseille","lat":43.231918,"lon":5.399956,"is_reserved":false,"is_disabled":false,"rental_uris":{"android":"levelo://app?vid=60815888-7c98-4769-b7d4-8cf1272505d8","ios":"levelo://app?vid=60815888-7c98-4769-b7d4-8cf1272505d8"},"vehicle_type_id":"4","last_reported":1748445006,"current_range_meters":14800,"station_id":"ce4bhn12rcd13ifvqgqg","pricing_plan_id":"cebpf4jnsgd1na2vs0mg"},{"bike_id":"a28133f5-7ecc-4b7b-b6ec-33ecf4bacc48","system_id":"levelo_inurba_marseille","lat":43.30132,"lon":5.38785,"is_reserved":false,"is_disabled":false,"rental_uris":{"android":"levelo://app?vid=a28133f5-7ecc-4b7b-b6ec-33ecf4bacc48","ios":"levelo://app?vid=a28133f5-7ecc-4b7b-b6ec-33ecf4bacc48"},"vehicle_type_id":"4","last_reported":1748445006,"current_range_meters":15200,"station_id":"ce4bghh2rcd13ifvqb60","pricing_plan_id":"cebpf4jnsgd1na2vs0mg"},{"bike_id":"6f4dc226-a0ce-47f9-ac4c-3343f32641b2","system_id":"levelo_inurba_marseille","lat":43.265593,"lon":5.373282,"is_reserved":false,"is_disabled":false,"rental_uris":{"android":"levelo://app?vid=6f4dc226-a0ce-47f9-ac4c-3343f32641b2","ios":"levelo://app?vid=6f4dc226-a0ce-47f9-ac4c-3343f32641b2"},"vehicle_type_id":"4","last_reported":1748445006,"current_range_meters":15200,"station_id":"ce4bhg12rcd13ifvqf70","pricing_plan_id":"cebpf4jnsgd1na2vs0mg"},{"bike_id":"49378c81-0c0a-4af7-a60d-417b652efeb6","system_id":"levelo_inurba_marseille","lat":43.23174,"lon":5.39986,"is_reserved":false,"is_disabled":false,"rental_uris":{"android":"levelo://app?vid=49378c81-0c0a-4af7-a60d-417b652efeb6","ios":"levelo://app?vid=49378c81-0c0a-4af7-a60d-417b652efeb6"},"vehicle_type_id":"4","last_reported":1748445006,"current_range_meters":15200,"station_id":"ce4bhn12rcd13ifvqgqg","pricing_plan_id":"cebpf4jnsgd1na2vs0mg"},{"bike_id":"460f4f45-1f48-4308-8e22-b56937ac0365","system_id":"levelo_inurba_marseille","lat":43.2794,"lon":5.41051,"is_reserved":false,"is_disabled":false,"rental_uris":{"android":"levelo://app?vid=460f4f45-1f48-4308-8e22-b56937ac0365","ios":"levelo://app?vid=460f4f45-1f48-4308-8e22-b56937ac0365"},"vehicle_type_id":"4","last_reported":1748445006,"current_range_meters":15200,"station_id":"ce4bhnp2rcd13ifvqh0g","pricing_plan_id":"cebpf4jnsgd1na2vs0mg"},{"bike_id":"2323817a-551e-4bfb-a451-aaf1c552edc7","system_id":"levelo_inurba_marseille","lat":43.27377,"lon":5.36251,"is_reserved":false,"is_disabled":false,"rental_uris":{"android":"levelo://app?vid=2323817a-551e-4bfb-a451-aaf1c552edc7","ios":"levelo://app?vid=2323817a-551e-4bfb-a451-aaf1c552edc7"},"vehicle_type_id":"4","last_reported":1748445006,"current_range_meters":16000,"station_id":"ce4bhbh2rcd13ifvqeo0","pricing_plan_id":"cebpf4jnsgd1na2vs0mg"},{"bike_id":"6e0b86ce-8d71-4fef-9af6-0bdca102c122","system_id":"levelo_inurba_marseille","lat":43.28615,"lon":5.35109,"is_reserved":false,"is_disabled":false,"rental_uris":{"android":"levelo://app?vid=6e0b86ce-8d71-4fef-9af6-0bdca102c122","ios":"levelo://app?vid=6e0b86ce-8d71-4fef-9af6-0bdca102c122"},"vehicle_type_id":"4","last_reported":1748445006,"current_range_meters":16000,"station_id":"ce4bhch2rcd13ifvqeug","pricing_plan_id":"cebpf4jnsgd1na2vs0mg"},{"bike_id":"48cd3b03-7394-424c-8b0d-91844a8f135f","system_id":"levelo_inurba_marseille","lat":43.26567,"lon":5.37314,"is_reserved":false,"is_disabled":false,"rental_uris":{"android":"levelo://app?vid=48cd3b03-7394-424c-8b0d-91844a8f135f","ios":"levelo://app?vid=48cd3b03-7394-424c-8b0d-91844a8f135f"},"vehicle_type_id":"4","last_reported":1748445006,"current_range_meters":16000,"station_id":"ce4bhg12rcd13ifvqf70","pricing_plan_id":"cebpf4jnsgd1na2vs0mg"},{"bike_id":"754aed2a-cf54-4467-b6ba-83fa67e5d062","system_id":"levelo_inurba_marseille","lat":43.33026,"lon":5.39047,"is_reserved":false,"is_disabled":false,"rental_uris":{"android":"levelo://app?vid=754aed2a-cf54-4467-b6ba-83fa67e5d062","ios":"levelo://app?vid=754aed2a-cf54-4467-b6ba-83fa67e5d062"},"vehicle_type_id":"4","last_reported":1748445006,"current_range_meters":16000,"station_id":"ce4bhr92rcd13ifvqhrg","pricing_plan_id":"cebpf4jnsgd1na2vs0mg"},{"bike_id":"74596cad-01b8-4827-9b35-ca1f4056673c","system_id":"levelo_inurba_marseille","lat":43.3238,"lon":5.38355,"is_reserved":false,"is_disabled":false,"rental_uris":{"android":"levelo://app?vid=74596cad-01b8-4827-9b35-ca1f4056673c","ios":"levelo://app?vid=74596cad-01b8-4827-9b35-ca1f4056673c"},"vehicle_type_id":"4","last_reported":1748445006,"current_range_meters":16400,"station_id":"","pricing_plan_id":"cebpf4jnsgd1na2vs0mg"},{"bike_id":"a4dbe2a4-c95e-4208-b60e-76a4885ec2dc","system_id":"levelo_inurba_marseille","lat":43.29251,"lon":5.40883,"is_reserved":false,"is_disabled":false,"rental_uris":{"android":"levelo://app?vid=a4dbe2a4-c95e-4208-b60e-76a4885ec2dc","ios":"levelo://app?vid=a4dbe2a4-c95e-4208-b60e-76a4885ec2dc"},"vehicle_type_id":"4","last_reported":1748445006,"current_range_meters":16400,"station_id":"ce4bh192rcd13ifvqdc0","pricing_plan_id":"cebpf4jnsgd1na2vs0mg"},{"bike_id":"0b6eaca1-dc70-467a-9614-856ed26d5b60","system_id":"levelo_inurba_marseille","lat":43.28413,"lon":5.34982,"is_reserved":false,"is_disabled":false,"rental_uris":{"android":"levelo://app?vid=0b6eaca1-dc70-467a-9614-856ed26d5b60","ios":"levelo://app?vid=0b6eaca1-dc70-467a-9614-856ed26d5b60"},"vehicle_type_id":"4","last_reported":1748445006,"current_range_meters":16400,"station_id":"ce4bhbh2rcd13ifvqepg","pricing_plan_id":"cebpf4jnsgd1na2vs0mg"},{"bike_id":"a6c6e685-bf4a-4fcc-8aab-7be142a7146d","system_id":"levelo_inurba_marseille","lat":43.28264,"lon":5.35064,"is_reserved":false,"is_disabled":false,"rental_uris":{"android":"levelo://app?vid=a6c6e685-bf4a-4fcc-8aab-7be142a7146d","ios":"levelo://app?vid=a6c6e685-bf4a-4fcc-8aab-7be142a7146d"},"vehicle_type_id":"4","last_reported":1748445006,"current_range_meters":16400,"station_id":"ce4bhbp2rcd13ifvqerg","pricing_plan_id":"cebpf4jnsgd1na2vs0mg"},{"bike_id":"49207224-19cc-40ba-ad40-915f4813317e","system_id":"levelo_inurba_marseille","lat":43.28627,"lon":5.35075,"is_reserved":false,"is_disabled":false,"rental_uris":{"android":"levelo://app?vid=49207224-19cc-40ba-ad40-915f4813317e","ios":"levelo://app?vid=49207224-19cc-40ba-ad40-915f4813317e"},"vehicle_type_id":"4","last_reported":1748445006,"current_range_meters":16400,"station_id":"ce4bhch2rcd13ifvqeug","pricing_plan_id":"cebpf4jnsgd1na2vs0mg"},{"bike_id":"7c14ccea-c78e-4191-9689-ec1d6b7a9c0e","system_id":"levelo_inurba_marseille","lat":43.23192,"lon":5.35563,"is_reserved":false,"is_disabled":false,"rental_uris":{"android":"levelo://app?vid=7c14ccea-c78e-4191-9689-ec1d6b7a9c0e","ios":"levelo://app?vid=7c14ccea-c78e-4191-9689-ec1d6b7a9c0e"},"vehicle_type_id":"4","last_reported":1748445006,"current_range_meters":16400,"station_id":"ce4bhu92rcd13ifvqi70","pricing_plan_id":"cebpf4jnsgd1na2vs0mg"},