{"last_updated":1762604335,"ttl":60,"version":"2.2","data":{"bikes":[{"bike_id":"4d53fd41-620f-4f41-bff1-6c57579eb4ce","system_id":"levelo_inurba_marseille","lat":43.21745,"lon":5.34605,"is_reserved":false,"is_disabled":false,"rental_uris":{"android":"levelo://app?vid=4d53fd41-620f-4f41-bff1-6c57579eb4ce","ios":"levelo://app?vid=4d53fd41-620f-4f41-bff1-6c57579eb4ce"},"vehicle_type_id":"4","last_reported":1762604335,"current_range_meters":2800,"station_id":"st_cvj6r9ubvosntc0bgbag","pricing_plan_id":"cebpf4jnsgd1na2vs0mg"},{"bike_id":"586b4d48-cb8b-4511-83e2-32f59646f52c","system_id":"levelo_inurba_marseille","lat":43.28566,"lon":5.39503,"is_reserved":false,"is_disabled":false,"rental_uris":{"android":"levelo://app?vid=586b4d48-cb8b-4511-83e2-32f59646f52c","ios":"levelo://app?vid=586b4d48-cb8b-4511-83e2-32f59646f52c"},"vehicle_type_id":"4","last_reported":1762604335,"current_range_meters":2800,"station_id":"ce4bh292rcd13ifvqdg0","pricing_plan_id":"cebpf4jnsgd1na2vs0mg"},{"bike_id":"5379521e-34f2-4dab-b139-ec341564605a","system_id":"levelo_inurba_marseille","lat":43.29024,"lon":5.3813,"is_reserved":false,"is_disabled":false,"rental_uris":{"android":"levelo://app?vid=5379521e-34f2-4dab-b139-ec341564605a","ios":"levelo://app?vid=5379521e-34f2-4dab-b139-ec341564605a"},"vehicle_type_id":"4","last_reported":1762604335,"current_range_meters":2800,"station_id":"ce4bh4p2rcd13ifvqe1g","pricing_plan_id":"cebpf4jnsgd1na2vs0mg"},{"bike_id":"3dafa5bf-105f-47a7-812b-dede9da761cd","system_id":"levelo_inurba_marseille","lat":43.3107,"lon":5.38364,"is_reserved":false,"is_disabled":false,"rental_uris":{"android":"levelo://app?vid=3dafa5bf-105f-47a7-812b-dede9da761cd","ios":"levelo://app?vid=3dafa5bf-105f-47a7-812b-dede9da761cd"},"vehicle_type_id":"4","last_reported":1762604335,"current_range_meters":2800,"station_id":"ce4bgv92rcd13ifvqcr0","pricing_plan_id":"cebpf4jnsgd1na2vs0mg"},{"bike_id":"33a93510-d493-404a-95e2-6447c2872860","system_id":"levelo_inurba_marseille","lat":43.28939,"lon":5.36641,"is_reserved":false,"is_disabled":false,"rental_uris":{"android":"levelo://app?vid=33a93510-d493-404a-95e2-6447c2872860","ios":"levelo://app?vid=33a93510-d493-404a-95e2-6447c2872860"},"vehicle_type_id":"4","last_reported":1762604335,"current_range_meters":3200,"station_id":"ce4bhap2rcd13ifvqek0","pricing_plan_id":"cebpf4jnsgd1na2vs0mg"},{"bike_id":"c4dde4d7-a2df-42a0-a600-988cdd97083f","system_id":"levelo_inurba_marseille","lat":43.2967,"lon":5.37312,"is_reserved":false,"is_disabled":false,"rental_uris":{"android":"levelo://app?vid=c4dde4d7-a2df-42a0-a600-988cdd97083f","ios":"levelo://app?vid=c4dde4d7-a2df-42a0-a600-988cdd97083f"},"vehicle_type_id":"4","last_reported":1762604335,"current_range_meters":3200,"station_id":"ce4bgk12rcd13ifvqbj0","pricing_plan_id":"cebpf4jnsgd1na2vs0mg"},{"bike_id":"a9209167-81d7-40c2-9e2e-d551de1eeaf3","system_id":"levelo_inurba_marseille","lat":43.306528,"lon":5.373538,"is_reserved":false,"is_disabled":false,"rental_uris":{"android":"levelo://app?vid=a9209167-81d7-40c2-9e2e-d551de1eeaf3","ios":"levelo://app?vid=a9209167-81d7-40c2-9e2e-d551de1eeaf3"},"vehicle_type_id":"4","last_reported":1762604335,"current_range_meters":3200,"station_id":"","pricing_plan_id":"cebpf4jnsgd1na2vs0mg"},{"bike_id":"a5c428d4-fa41-432a-97d4-b9a0d06143f0","system_id":"levelo_inurba_marseille","lat":43.29781,"lon":5.39343,"is_reserved":false,"is_disabled":false,"rental_uris":{"android":"levelo://app?vid=a5c428d4-fa41-432a-97d4-b9a0d06143f0","ios":"levelo://app?vid=a5c428d4-fa41-432a-97d4-b9a0d06143f0"},"vehicle_type_id":"4","last_reported":1762604335,"current_range_meters":3600,"station_id":"chh1huq6cuj3fo74tm60","pricing_plan_id":"cebpf4jnsgd1na2vs0mg"},{"bike_id":"3e336408-b613-4336-8768-229ff3349177","system_id":"levelo_inurba_marseille","lat":43.27619,"lon":5.3611,"is_reserved":false,"is_disabled":false,"rental_uris":{"android":"levelo://app?vid=3e336408-b613-4336-8768-229ff3349177","ios":"levelo://app?vid=3e336408-b613-4336-8768-229ff3349177"},"vehicle_type_id":"4","last_reported":1762604335,"current_range_meters":3600,"station_id":"ce4bgj92rcd13ifvqbe0","pricing_plan_id":"cebpf4jnsgd1na2vs0mg"},{"bike_id":"6012a131-2e1d-4e77-9bdd-a19a6cccbb91","system_id":"levelo_inurba_marseille","lat":43.2897,"lon":5.37836,"is_reserved":false,"is_disabled":false,"rental_uris":{"android":"levelo://app?vid=6012a131-2e1d-4e77-9bdd-a19a6cccbb91","ios":"levelo://app?vid=6012a131-2e1d-4e77-9bdd-a19a6cccbb91"},"vehicle_type_id":"4","last_reported":1762604335,"current_range_meters":3600,"station_id":"ce4bh9p2rcd13ifvqed0","pricing_plan_id":"cebpf4jnsgd1na2vs0mg"},{"bike_id":"729bbd7c-3881-4fbe-8274-138f4e4f0b53","system_id":"levelo_inurba_marseille","lat":43.26554,"lon":5.37289,"is_reserved":false,"is_disabled":false,"rental_uris":{"android":"levelo://app?vid=729bbd7c-3881-4fbe-8274-138f4e4f0b53","ios":"levelo://app?vid=729bbd7c-3881-4fbe-8274-138f4e4f0b53"},"vehicle_type_id":"4","last_reported":1762604335,"current_range_meters":3600,"station_id":"ce4bhg12rcd13ifvqf70","pricing_plan_id":"cebpf4jnsgd1na2vs0mg"},{"bike_id":"aa073d3c-91f3-4920-9d1e-90bf82850b1e","system_id":"levelo_inurba_marseille","lat":43.33776,"lon":5.3743,"is_reserved":false,"is_disabled":false,"rental_uris":{"android":"levelo://app?vid=aa073d3c-91f3-4920-9d1e-90bf82850b1e","ios":"levelo://app?vid=aa073d3c-91f3-4920-9d1e-90bf82850b1e"},"vehicle_type_id":"4","last_reported":1762604335,"current_range_meters":3600,"station_id":"","pricing_plan_id":"cebpf4jnsgd1na2vs0mg"},{"bike_id":"6b92cdb1-1f4b-46a5-93de-9ca9052f703e","system_id":"levelo_inurba_marseille","lat":43.22555,"lon":5.41637,"is_reserved":false,"is_disabled":false,"rental_uris":{"android":"levelo://app?vid=6b92cdb1-1f4b-46a5-93de-9ca9052f703e","ios":"levelo://app?vid=6b92cdb1-1f4b-46a5-93de-9ca9052f703e"},"vehicle_type_id":"4","last_reported":1762604335,"current_range_meters":3600,"station_id":"st_d2o4gvlbi1j2169b742g","pricing_plan_id":"cebpf4jnsgd1na2vs0mg"},{"bike_id":"8b59fda1-8bbe-48d6-ad7d-c8f693b9412a","system_id":"levelo_inurba_marseille","lat":43.31522,"lon":5.3804,"is_reserved":false,"is_disabled":false,"rental_uris":{"android":"levelo://app?vid=8b59fda1-8bbe-48d6-ad7d-c8f693b9412a","ios":"levelo://app?vid=8b59fda1-8bbe-48d6-ad7d-c8f693b9412a"},"vehicle_type_id":"4","last_reported":1762604335,"current_range_meters":4000,"station_id":"ce4bhsp2rcd13ifvqi50","pricing_plan_id":"cebpf4jnsgd1na2vs0mg"},{"bike_id":"f6ca3376-6c37-4f5b-8212-007c073cf046","system_id":"levelo_inurba_marseille","lat":43.225537,"lon":5.416236,"is_reserved":false,"is_disabled":true,"rental_uris":{"android":"levelo://app?vid=f6ca3376-6c37-4f5b-8212-007c073cf046","ios":"levelo://app?vid=f6ca3376-6c37-4f5b-8212-007c073cf046"},"vehicle_type_id":"4","last_reported":1762604335,"current_range_meters":4400,"station_id":"st_d2o4gvlbi1j2169b742g","pricing_plan_id":"cebpf4jnsgd1na2vs0mg"},{"bike_id":"bc9a55eb-c20b-454d-9da8-0f1718438310","system_id":"levelo_inurba_marseille","lat":43.30809,"lon":5.43535,"is_reserved":false,"is_disabled":true,"rental_uris":{"android":"levelo://app?vid=bc9a55eb-c20b-454d-9da8-0f1718438310","ios":"levelo://app?vid=bc9a55eb-c20b-454d-9da8-0f1718438310"},"vehicle_type_id":"4","last_reported":1762604335,"current_range_meters":4400,"station_id":"","pricing_plan_id":"cebpf4jnsgd1na2vs0mg"},{"bike_id":"e740f04f-7c51-4c72-9dc2-b13e96d66d2c","system_id":"levelo_inurba_marseille","lat":43.29018,"lon":5.38139,"is_reserved":false,"is_disabled":false,"rental_uris":{"android":"levelo://app?vid=e740f04f-7c51-4c72-9dc2-b13e96d66d2c","ios":"levelo://app?vid=e740f04f-7c51-4c72-9dc2-b13e96d66d2c"},"vehicle_type_id":"4","last_reported":1762604335,"current_range_meters":4400,"station_id":"ce4bh4p2rcd13ifvqe1g","pricing_plan_id":"cebpf4jnsgd1na2vs0mg"},{"bike_id":"18789798-0a34-45f1-9be0-d2ad7e27046f","system_id":"levelo_inurba_marseille","lat":43.2795,"lon":5.41033,"is_reserved":false,"is_disabled":true,"rental_uris":{"android":"levelo://app?vid=18789798-0a34-45f1-9be0-d2ad7e27046f","ios":"levelo://app?vid=18789798-0a34-45f1-9be0-d2ad7e27046f"},"vehicle_type_id":"4","last_reported":1762604335,"current_range_meters":4400,"station_id":"ce4bhnp2rcd13ifvqh0g","pricing_plan_id":"cebpf4jnsgd1na2vs0mg"},{"bike_id":"ae30267b-7abf-4f82-ae4d-8ab9016d44bf","system_id":"levelo_inurba_marseille","lat":43.287141,"lon":5.379375,"is_reserved":false,"is_disabled":false,"rental_uris":{"android":"levelo://app?vid=ae30267b-7abf-4f82-ae4d-8ab9016d44bf","ios":"levelo://app?vid=ae30267b-7abf-4f82-ae4d-8ab9016d44bf"},"vehicle_type_id":"4","last_reported":1762604335,"current_range_meters":4400,"station_id":"ce4bh9p2rcd13ifvqec0","pricing_plan_id":"cebpf4jnsgd1na2vs0mg"},{"bike_id":"32c4054d-c111-4f1c-b188-9138aed42210","system_id":"levelo_inurba_marseille","lat":43.3193,"lon":5.41625,"is_reserved":false,"is_disabled":false,"rental_uris":{"android":"levelo://app?vid=32c4054d-c111-4f1c-b188-9138aed42210","ios":"levelo://app?vid=32c4054d-c111-4f1c-b188-9138aed42210"},"vehicle_type_id":"4","last_reported":1762604335,"current_range_meters":4800,"station_id":"","pricing_plan_id":"cebpf4jnsgd1na2vs0mg"},{"bike_id":"59b31ef2-3fe3-46e5-b5a5-685f264695ce","system_id":"levelo_inurba_marseille","lat":43.28469,"lon":5.484,"is_reserved":false,"is_disabled":false,"rental_uris":{"android":"levelo://app?vid=59b31ef2-3fe3-46e5-b5a5-685f264695ce","ios":"levelo://app?vid=59b31ef2-3fe3-46e5-b5a5-685f264695ce"},"vehicle_type_id":"4","last_reported":1762604335,"current_range_meters":4800,"station_id":"","pricing_plan_id":"cebpf4jnsgd1na2vs0mg"},{"bike_id":"53a2c477-9e29-429e-b7f0-8ad392c9806c","system_id":"levelo_inurba_marseille","lat":43.295657,"lon":5.399732,"is_reserved":false,"is_disabled":false,"rental_uris":{"android":"levelo://app?vid=53a2c477-9e29-429e-b7f0-8ad392c9806c","ios":"levelo://app?vid=53a2c477-9e29-429e-b7f0-8ad392c9806c"},"vehicle_type_id":"4","last_reported":1762604335,"current_range_meters":4800,"station_id":"ce4bh312rcd13ifvqdj0","pricing_plan_id":"cebpf4jnsgd1na2vs0mg"},{"bike_id":"ab3a4d6b-b442-44b9-8f02-c1c222f445ba","system_id":"levelo_inurba_marseille","lat":43.27496,"lon":5.39281,"is_reserved":false,"is_disabled":false,"rental_uris":{"android":"levelo://app?vid=ab3a4d6b-b442-44b9-8f02-c1c222f445ba","ios":"levelo://app?vid=ab3a4d6b-b442-44b9-8f02-c1c222f445ba"},"vehicle_type_id":"4","last_reported":1762604335,"current_range_meters":5600,"station_id":"","pricing_plan_id":"cebpf4jnsgd1na2vs0mg"},{"bike_id":"abba2111-ed9d-414c-9e3f-7cacdbdf5ff0","system_id":"levelo_inurba_marseille","lat":43.28672,"lon":5.38655,"is_reserved":false,"is_disabled":false,"rental_uris":{"android":"levelo://app?vid=abba2111-ed9d-414c-9e3f-7cacdbdf5ff0","ios":"levelo://app?vid=abba2111-ed9d-414c-9e3f-7cacdbdf5ff0"},"vehicle_type_id":"4","last_reported":1762604335,"current_range_meters":5600,"station_id":"ce4bh492rcd13ifvqdug","pricing_plan_id":"cebpf4jnsgd1na2vs0mg"},{"bike_id":"07cb0ffb-0cbb-463f-a77f-faa264949bd1","system_id":"levelo_inurba_marseille","lat":43.25573,"lon":5.38248,"is_reserved":false,"is_disabled":false,"rental_uris":{"android":"levelo://app?vid=07cb0ffb-0cbb-463f-a77f-faa264949bd1","ios":"levelo://app?vid=07cb0ffb-0cbb-463f-a77f-faa264949bd1"},"vehicle_type_id":"4","last_reported":1762604335,"current_range_meters":5600,"station_id":"ce4bhih2rcd13ifvqfs0","pricing_plan_id":"cebpf4jnsgd1na2vs0mg"},{"bike_id":"55be38c0-22db-4f29-93c7-355d14395288","system_id":"levelo_inurba_marseille","lat":43.28101,"lon":5.37836,"is_reserved":false,"is_disabled":false,"rental_uris":{"android":"levelo://app?vid=55be38c0-22db-4f29-93c7-355d14395288","ios":"levelo://app?vid=55be38c0-22db-4f29-93c7-355d14395288"},"vehicle_type_id":"4","last_reported":1762604335,"current_range_meters":5600,"station_id":"ce4bha12rcd13ifvqee0","pricing_plan_id":"cebpf4jnsgd1na2vs0mg"},{"bike_id":"aadcc842-9ea8-479f-80b9-b1073b44c602","system_id":"levelo_inurba_marseille","lat":43.28001,"lon":5.41664,"is_reserved":false,"is_disabled":false,"rental_uris":{"android":"levelo://app?vid=aadcc842-9ea8-479f-80b9-b1073b44c602","ios":"levelo://app?vid=aadcc842-9ea8-479f-80b9-b1073b44c602"},"vehicle_type_id":"4","last_reported":1762604335,"current_range_meters":6000,"station_id":"ce4bho12rcd13ifvqh1g","pricing_plan_id":"cebpf4jnsgd1na2vs0mg"},{"bike_id":"2b6d1ec8-4702-451d-ac8d-e07a345f971d","system_id":"levelo_inurba_marseille","lat":43.295747,"lon":5.375128,"is_reserved":false,"is_disabled":false,"rental_uris":{"android":"levelo://app?vid=2b6d1ec8-4702-451d-ac8d-e07a345f971d","ios":"levelo://app?vid=2b6d1ec8-4702-451d-ac8d-e07a345f971d"},"vehicle_type_id":"4","last_reported":1762604335,"current_range_meters":6000,"station_id":"","pricing_plan_id":"cebpf4jnsgd1na2vs0mg"},{"bike_id":"db01f4f7-6419-4ed7-afa4-7fa72315ea79","system_id":"levelo_inurba_marseille","lat":43.25914,"lon":5.40898,"is_reserved":false,"is_disabled":false,"rental_uris":{"android":"levelo://app?vid=db01f4f7-6419-4ed7-afa4-7fa72315ea79","ios":"levelo://app?vid=db01f4f7-6419-4ed7-afa4-7fa72315ea79"},"vehicle_type_id":"4","last_reported":1762604335,"current_range_meters":6000,"station_id":"ce4bhm92rcd13ifvqglg","pricing_plan_id":"cebpf4jnsgd1na2vs0mg"},{"bike_id":"05c639a2-6660-40ed-a12f-85b485fe188e","system_id":"levelo_inurba_marseille","lat":43.292237,"lon":5.357829,"is_reserved":false,"is_disabled":false,"rental_uris":{"android":"levelo://app?vid=05c639a2-6660-40ed-a12f-85b485fe188e","ios":"levelo://app?vid=05c639a2-6660-40ed-a12f-85b485fe188e"},"vehicle_type_id":"4","last_reported":1762604335,"current_range_meters":6400,"station_id":"ce4bhb12rcd13ifvqel0","pricing_plan_id":"cebpf4jnsgd1na2vs0mg"},{"bike_id":"ef2fe57e-ecba-4765-96d3-8349654ec56e","system_id":"levelo_inurba_marseille","lat":43.32931,"lon":5.36405,"is_reserved":false,"is_disabled":false,"rental_uris":{"android":"levelo://app?vid=ef2fe57e-ecba-4765-96d3-8349654ec56e","ios":"levelo://app?vid=ef2fe57e-ecba-4765-96d3-8349654ec56e"},"vehicle_type_id":"4","last_reported":1762604335,"current_range_meters":6400,"station_id":"","pricing_plan_id":"cebpf4jnsgd1na2vs0mg"},{"bike_id":"88d66fe8-e002-44e5-a044-892c4e831f9b","system_id":"levelo_inurba_marseille","lat":43.29922,"lon":5.36544,"is_reserved":false,"is_disabled":false,"rental_uris":{"android":"levelo://app?vid=88d66fe8-e002-44e5-a044-892c4e831f9b","ios":"levelo://app?vid=88d66fe8-e002-44e5-a044-892c4e831f9b"},"vehicle_type_id":"4","last_reported":1762604335,"current_range_meters":6400,"station_id":"ce4bgm92rcd13ifvqbr0","pricing_plan_id":"cebpf4jnsgd1na2vs0mg"},{"bike_id":"9cd0492f-6883-48ef-94b7-79e3e1d9e64f","system_id":"levelo_inurba_marseille","lat":43.284818,"lon":5.384154,"is_reserved":false,"is_disabled":false,"rental_uris":{"android":"levelo://app?vid=9cd0492f-6883-48ef-94b7-79e3e1d9e64f","ios":"levelo://app?vid=9cd0492f-6883-48ef-94b7-79e3e1d9e64f"},"vehicle_type_id":"4","last_reported":1762604335,"current_range_meters":6400,"station_id":"st_d2m6c4gdas8pm72e190g","pricing_plan_id":"cebpf4jnsgd1na2vs0mg"},{"bike_id":"62b597ad-0183-45ab-83ea-6b1f25540269","system_id":"levelo_inurba_marseille","lat":43.32749,"lon":5.45203,"is_reserved":false,"is_disabled":true,"rental_uris":{"android":"levelo://app?vid=62b597ad-0183-45ab-83ea-6b1f25540269","ios":"levelo://app?vid=62b597ad-0183-45ab-83ea-6b1f25540269"},"vehicle_type_id":"4","last_reported":1762604335,"current_range_meters":6400,"station_id":"","pricing_plan_id":"cebpf4jnsgd1na2vs0mg"},{"bike_id":"29286810-4e00-47d2-931c-f00791dac858","system_id":"levelo_inurba_marseille","lat":43.28773,"lon":5.38429,"is_reserved":false,"is_disabled":false,"rental_uris":{"android":"levelo://app?vid=29286810-4e00-47d2-931c-f00791dac858","ios":"levelo://app?vid=29286810-4e00-47d2-931c-f00791dac858"},"vehicle_type_id":"4","last_reported":1762604335,"current_range_meters":6400,"station_id":"","pricing_plan_id":"cebpf4jnsgd1na2vs0mg"},{"bike_id":"d6a85310-e0f4-46c0-9209-a280f8ddd7c4","system_id":"levelo_inurba_marseille","lat":43.31224,"lon":5.368471,"is_reserved":false,"is_disabled":false,"rental_uris":{"android":"levelo://app?vid=d6a85310-e0f4-46c0-9209-a280f8ddd7c4","ios":"levelo://app?vid=d6a85310-e0f4-46c0-9209-a280f8ddd7c4"},"vehicle_type_id":"4","last_reported":1762604335,"current_range_meters":6400,"station_id":"ce4bgl92rcd13ifvqbq0","pricing_plan_id":"cebpf4jnsgd1na2vs0mg"},{"bike_id":"eb24abaa-42f8-4aa2-877a-ad1372d28e2a","system_id":"levelo_inurba_marseille","lat":43.21188,"lon":5.35083,"is_reserved":false,"is_disabled":false,"rental_uris":{"android":"levelo://app?vid=eb24abaa-42f8-4aa2-877a-ad1372d28e2a","ios":"levelo://app?vid=eb24abaa-42f8-4aa2-877a-ad1372d28e2a"},"vehicle_type_id":"4","last_reported":1762604335,"current_range_meters":6800,"station_id":"st_cvj6sg6p6f1abm77japg","pricing_plan_id":"cebpf4jnsgd1na2vs0mg"},{"bike_id":"3d1a1313-f29e-4572-805f-f02b3d431d76","system_id":"levelo_inurba_marseille","lat":43.317103,"lon":5.377634,"is_reserved":false,"is_disabled":false,"rental_uris":{"android":"levelo://app?vid=3d1a1313-f29e-4572-805f-f02b3d431d76","ios":"levelo://app?vid=3d1a1313-f29e-4572-805f-f02b3d431d76"},"vehicle_type_id":"4","last_reported":1762604335,"current_range_meters":6800,"station_id":"ce4bgth2rcd13ifvqch0","pricing_plan_id":"cebpf4jnsgd1na2vs0mg"},{"bike_id":"5f015800-cea0-47ed-8246-a9c37c658060","system_id":"levelo_inurba_marseille","lat":43.23062,"lon":5.3549,"is_reserved":false,"is_disabled":false,"rental_uris":{"android":"levelo://app?vid=5f015800-cea0-47ed-8246-a9c37c658060","ios":"levelo://app?vid=5f015800-cea0-47ed-8246-a9c37c658060"},"vehicle_type_id":"4","last_reported":1762604335,"current_range_meters":6800,"station_id":"cpo3342slgdg3j2ifvpg","pricing_plan_id":"cebpf4jnsgd1na2vs0mg"},{"bike_id":"711b5184-06a1-46c6-b1ad-270408b914a4","system_id":"levelo_inurba_marseille","lat":43.30001,"lon":5.40979,"is_reserved":false,"is_disabled":false,"rental_uris":{"android":"levelo://app?vid=711b5184-06a1-46c6-b1ad-270408b914a4","ios":"levelo://app?vid=711b5184-06a1-46c6-b1ad-270408b914a4"},"vehicle_type_id":"4","last_reported":1762604335,"current_range_meters":7200,"station_id":"","pricing_plan_id":"cebpf4jnsgd1na2vs0mg"},{"bike_id":"6580beb2-f281-473f-9ef4-7b331653ef2e","system_id":"levelo_inurba_marseille","lat":43.29106,"lon":5.40773,"is_reserved":false,"is_disabled":false,"rental_uris":{"android":"levelo://app?vid=6580beb2-f281-473f-9ef4-7b331653ef2e","ios":"levelo://app?vid=6580beb2-f281-473f-9ef4-7b331653ef2e"},"vehicle_type_id":"4","last_reported":1762604335,"current_range_meters":7200,"station_id":"","pricing_plan_id":"cebpf4jnsgd1na2vs0mg"},{"bike_id":"9f606681-1ec4-4c1d-8331-48eb5c23d4b7","system_id":"levelo_inurba_marseille","lat":43.28265,"lon":5.35062,"is_reserved":false,"is_disabled":false,"rental_uris":{"android":"levelo://app?vid=9f606681-1ec4-4c1d-8331-48eb5c23d4b7","ios":"levelo://app?vid=9f606681-1ec4-4c1d-8331-48eb5c23d4b7"},"vehicle_type_id":"4","last_reported":1762604335,"current_range_meters":7200,"station_id":"ce4bhbp2rcd13ifvqerg","pricing_plan_id":"cebpf4jnsgd1na2vs0mg"},{"bike_id":"c687f5b8-73fc-4bba-bdba-8dae557f7ae6","system_id":"levelo_inurba_marseille","lat":43.27376,"lon":5.36257,"is_reserved":false,"is_disabled":true,"rental_uris":{"android":"levelo://app?vid=c687f5b8-73fc-4bba-bdba-8dae557f7ae6","ios":"levelo://app?vid=c687f5b8-73fc-4bba-bdba-8dae557f7ae6"},"vehicle_type_id":"4","last_reported":1762604335,"current_range_meters":8000,"station_id":"ce4bhbh2rcd13ifvqeo0","pricing_plan_id":"cebpf4jnsgd1na2vs0mg"},{"bike_id":"0364892c-2d04-4e32-9dc5-fc14fa7e5bb3","system_id":"levelo_inurba_marseille","lat":43.27172,"lon":5.4099,"is_reserved":false,"is_disabled":false,"rental_uris":{"android":"levelo://app?vid=0364892c-2d04-4e32-9dc5-fc14fa7e5bb3","ios":"levelo://app?vid=0364892c-2d04-4e32-9dc5-fc14fa7e5bb3"},"vehicle_type_id":"4","last_reported":1762604335,"current_range_meters":8000,"station_id":"ce4bhl12rcd13ifvqgf0","pricing_plan_id":"cebpf4jnsgd1na2vs0mg"},{"bike_id":"34c14480-831b-41a9-b30b-a1e8f994a110","system_id":"levelo_inurba_marseille","lat":43.30808,"lon":5.37148,"is_reserved":false,"is_disabled":false,"rental_uris":{"android":"levelo://app?vid=34c14480-831b-41a9-b30b-a1e8f994a110","ios":"levelo://app?vid=34c14480-831b-41a9-b30b-a1e8f994a110"},"vehicle_type_id":"4","last_reported":1762604335,"current_range_meters":8000,"station_id":"","pricing_plan_id":"cebpf4jnsgd1na2vs0mg"},{"bike_id":"3a63bafd-3229-486b-bd38-f6705dafb00b","system_id":"levelo_inurba_marseille","lat":43.291926,"lon":5.393157,"is_reserved":false,"is_disabled":false,"rental_uris":{"android":"levelo://app?vid=3a63bafd-3229-486b-bd38-f6705dafb00b","ios":"levelo://app?vid=3a63bafd-3229-486b-bd38-f6705dafb00b"},"vehicle_type_id":"4","last_reported":1762604335,"current_range_meters":8000,"station_id":"ce4bh192rcd13ifvqdd0","pricing_plan_id":"cebpf4jnsgd1na2vs0mg"},{"bike_id":"900a44b4-5b7a-426c-8937-9915fa286279","system_id":"levelo_inurba_marseille","lat":43.22548,"lon":5.41654,"is_reserved":false,"is_disabled":false,"rental_uris":{"android":"levelo://app?vid=900a44b4-5b7a-426c-8937-9915fa286279","ios":"levelo://app?vid=900a44b4-5b7a-426c-8937-9915fa286279"},"vehicle_type_id":"4","last_reported":1762604335,"current_range_meters":8000,"station_id":"st_d2o4gvlbi1j2169b742g","pricing_plan_id":"cebpf4jnsgd1na2vs0mg"},{"bike_id":"920b88e3-d95e-413c-8af5-9e8e85ef2dca","system_id":"levelo_inurba_marseille","lat":43.28619,"lon":5.35103,"is_reserved":false,"is_disabled":false,"rental_uris":{"android":"levelo://app?vid=920b88e3-d95e-413c-8af5-9e8e85ef2dca","ios":"levelo://app?vid=920b88e3-d95e-413c-8af5-9e8e85ef2dca"},"vehicle_type_id":"4","last_reported":1762604335,"current_range_meters":8000,"station_id":"ce4bhch2rcd13ifvqeug","pricing_plan_id":"cebpf4jnsgd1na2vs0mg"},{"bike_id":"5bee8f0f-57fe-4257-a72a-04a4967570b5","system_id":"levelo_inurba_marseille","lat":43.30034,"lon":5.37742,"is_reserved":false,"is_disabled":false,"rental_uris":{"android":"levelo://app?vid=5bee8f0f-57fe-4257-a72a-04a4967570b5","ios":"levelo://app?vid=5bee8f0f-57fe-4257-a72a-04a4967570b5"},"vehicle_type_id":"4","last_reported":1762604335,"current_range_meters":8000,"station_id":"","pricing_plan_id":"cebpf4jnsgd1na2vs0mg"},{"bike_id":"d9bec264-6625-47c1-a013-84d9071a363b","system_id":"levelo_inurba_marseille","lat":43.29524,"lon":5.38543,"is_reserved":false,"is_disabled":false,"rental_uris":{"android":"levelo://app?vid=d9bec264-6625-47c1-a013-84d9071a363b","ios":"levelo://app?vid=d9bec264-6625-47c1-a013-84d9071a363b"},"vehicle_type_id":"4","last_reported":1762604335,"current_range_meters":8400,"station_id":"ce4bgih2rcd13ifvqba0","pricing_plan_id":"cebpf4jnsgd1na2vs0mg"},{"bike_id":"7c392732-2900-41fd-8c6d-e5b49cdf67b5","system_id":"levelo_inurba_marseille","lat":43.29719,"lon":5.38261,"is_reserved":false,"is_disabled":false,"rental_uris":{"android":"levelo://app?vid=7c392732-2900-41fd-8c6d-e5b49cdf67b5","ios":"levelo://app?vid=7c392732-2900-41fd-8c6d-e5b49cdf67b5"},"vehicle_type_id":"4","last_reported":1762604335,"current_range_meters":8400,"station_id":"","pricing_plan_id":"cebpf4jnsgd1na2vs0mg"},{"bike_id":"bc039d18-7e72-458f-bafa-32939dfbb741","system_id":"levelo_inurba_marseille","lat":43.22551,"lon":5.41642,"is_reserved":false,"is_disabled":false,"rental_uris":{"android":"levelo://app?vid=bc039d18-7e72-458f-bafa-32939dfbb741","ios":"levelo://app?vid=bc039d18-7e72-458f-bafa-32939dfbb741"},"vehicle_type_id":"4","last_reported":1762604335,"current_range_meters":8400,"station_id":"st_d2o4gvlbi1j2169b742g","pricing_plan_id":"cebpf4jnsgd1na2vs0mg"},{"bike_id":"78bd5f74-b07f-4aac-b566-26ecec6fd5df","system_id":"levelo_inurba_marseille","lat":43.3071,"lon":5.38021,"is_reserved":false,"is_disabled":false,"rental_uris":{"android":"levelo://app?vid=78bd5f74-b07f-4aac-b566-26ecec6fd5df","ios":"levelo://app?vid=78bd5f74-b07f-4aac-b566-26ecec6fd5df"},"vehicle_type_id":"4","last_reported":1762604335,"current_range_meters":8400,"station_id":"","pricing_plan_id":"cebpf4jnsgd1na2vs0mg"},{"bike_id":"ffb57375-ccd5-460e-bffe-7928f75d8ad9","system_id":"levelo_inurba_marseille","lat":43.30287,"lon":5.39216,"is_reserved":false,"is_disabled":false,"rental_uris":{"android":"levelo://app?vid=ffb57375-ccd5-460e-bffe-7928f75d8ad9","ios":"levelo://app?vid=ffb57375-ccd5-460e-bffe-7928f75d8ad9"},"vehicle_type_id":"4","last_reported":1762604335,"current_range_meters":8400,"station_id":"ce4bgkh2rcd13ifvqbk0","pricing_plan_id":"cebpf4jnsgd1na2vs0mg"},{"bike_id":"5c17ed12-8897-4f84-bbfc-85419a7f8038","system_id":"levelo_inurba_marseille","lat":43.2706,"lon":5.39451,"is_reserved":false,"is_disabled":false,"rental_uris":{"android":"levelo://app?vid=5c17ed12-8897-4f84-bbfc-85419a7f8038","ios":"levelo://app?vid=5c17ed12-8897-4f84-bbfc-85419a7f8038"},"vehicle_type_id":"4","last_reported":1762604335,"current_range_meters":8800,"station_id":"","pricing_plan_id":"cebpf4jnsgd1na2vs0mg"},{"bike_id":"a0ea519d-554f-42a0-93a3-d4c181552c78","system_id":"levelo_inurba_marseille","lat":43.31271,"lon":5.37752,"is_reserved":false,"is_disabled":false,"rental_uris":{"android":"levelo://app?vid=a0ea519d-554f-42a0-93a3-d4c181552c78","ios":"levelo://app?vid=a0ea519d-554f-42a0-93a3-d4c181552c78"},"vehicle_type_id":"4","last_reported":1762604335,"current_range_meters":9200,"station_id":"","pricing_plan_id":"cebpf4jnsgd1na2vs0mg"},{"bike_id":"e29dcacd-c5cb-4908-af39-1ab6b3c10bce","system_id":"levelo_inurba_marseille","lat":43.280994,"lon":5.378402,"is_reserved":false,"is_disabled":false,"rental_uris":{"android":"levelo://app?vid=e29dcacd-c5cb-4908-af39-1ab6b3c10bce","ios":"levelo://app?vid=e29dcacd-c5cb-4908-af39-1ab6b3c10bce"},"vehicle_type_id":"4","last_reported":1762604335,"current_range_meters":9200,"station_id":"ce4bha12rcd13ifvqee0","pricing_plan_id":"cebpf4jnsgd1na2vs0mg"},{"bike_id":"3a6b939b-8483-4a00-8652-d825cdd856d7","system_id":"levelo_inurba_marseille","lat":43.22543,"lon":5.4164,"is_reserved":false,"is_disabled":false,"rental_uris":{"android":"levelo://app?vid=3a6b939b-8483-4a00-8652-d825cdd856d7","ios":"levelo://app?vid=3a6b939b-8483-4a00-8652-d825cdd856d7"},"vehicle_type_id":"4","last_reported":1762604335,"current_range_meters":9200,"station_id":"st_d2o4gvlbi1j2169b742g","pricing_plan_id":"cebpf4jnsgd1na2vs0mg"},{"bike_id":"c563cfba-5317-4808-88d8-c5ea7e7469eb","system_id":"levelo_inurba_marseille","lat":43.21184,"lon":5.35073,"is_reserved":false,"is_disabled":false,"rental_uris":{"android":"levelo://app?vid=c563cfba-5317-4808-88d8-c5ea7e7469eb","ios":"levelo://app?vid=c563cfba-5317-4808-88d8-c5ea7e7469eb"},"vehicle_type_id":"4","last_reported":1762604335,"current_range_meters":9200,"station_id":"st_cvj6sg6p6f1abm77japg","pricing_plan_id":"cebpf4jnsgd1na2vs0mg"},{"bike_id":"22918fb7-a391-4f35-8c21-8eb60e2ab03f","system_id":"levelo_inurba_marseille","lat":43.22547,"lon":5.41644,"is_reserved":false,"is_disabled":false,"rental_uris":{"android":"levelo://app?vid=22918fb7-a391-4f35-8c21-8eb60e2ab03f","ios":"levelo://app?vid=22918fb7-a391-4f35-8c21-8eb60e2ab03f"},"vehicle_type_id":"4","last_reported":1762604335,"current_range_meters":9600,"station_id":"st_d2o4gvlbi1j2169b742g","pricing_plan_id":"cebpf4jnsgd1na2vs0mg"},{"bike_id":"3755ccea-3240-4a43-80a4-94341160b307","system_id":"levelo_inurba_marseille","lat":43.29871,"lon":5.38949,"is_reserved":false,"is_disabled":false,"rental_uris":{"android":"levelo://app?vid=3755ccea-3240-4a43-80a4-94341160b307","ios":"levelo://app?vid=3755ccea-3240-4a43-80a4-94341160b307"},"vehicle_type_id":"4","last_reported":1762604335,"current_range_meters":9600,"station_id":"ce4bh392rcd13ifvqdl0","pricing_plan_id":"cebpf4jnsgd1na2vs0mg"},{"bike_id":"e757b43b-ee76-40e2-8872-ef0bc02cc621","system_id":"levelo_inurba_marseille","lat":43.2174,"lon":5.346,"is_reserved":false,"is_disabled":false,"rental_uris":{"android":"levelo://app?vid=e757b43b-ee76-40e2-8872-ef0bc02cc621","ios":"levelo://app?vid=e757b43b-ee76-40e2-8872-ef0bc02cc621"},"vehicle_type_id":"4","last_reported":1762604335,"current_range_meters":9600,"station_id":"st_cvj6r9ubvosntc0bgbag","pricing_plan_id":"cebpf4jnsgd1na2vs0mg"},{"bike_id":"78541c09-c923-4f85-b960-a0eef90d423b","system_id":"levelo_inurba_marseille","lat":43.21194,"lon":5.35065,"is_reserved":false,"is_disabled":false,"rental_uris":{"android":"levelo://app?vid=78541c09-c923-4f85-b960-a0eef90d423b","ios":"levelo://app?vid=78541c09-c923-4f85-b960-a0eef90d423b"},"vehicle_type_id":"4","last_reported":1762604335,"current_range_meters":9600,"station_id":"st_cvj6sg6p6f1abm77japg","pricing_plan_id":"cebpf4jnsgd1na2vs0mg"},{"bike_id":"c46b5646-6e7f-42af-9bab-6f9f0da08f9a","system_id":"levelo_inurba_marseille","lat":43.29935,"lon":5.36567,"is_reserved":false,"is_disabled":false,"rental_uris":{"android":"levelo://app?vid=c46b5646-6e7f-42af-9bab-6f9f0da08f9a","ios":"levelo://app?vid=c46b5646-6e7f-42af-9bab-6f9f0da08f9a"},"vehicle_type_id":"4","last_reported":1762604335,"current_range_meters":9600,"station_id":"ce4bgm92rcd13ifvqbr0","pricing_plan_id":"cebpf4jnsgd1na2vs0mg"},{"bike_id":"310115a0-7bf2-4a4a-9d53-56bf6918e4d0","system_id":"levelo_inurba_marseille","lat":43.28475,"lon":5.4841,"is_reserved":false,"is_disabled":false,"rental_uris":{"android":"levelo://app?vid=310115a0-7bf2-4a4a-9d53-56bf6918e4d0","ios":"levelo://app?vid=310115a0-7bf2-4a4a-9d53-56bf6918e4d0"},"vehicle_type_id":"4","last_reported":1762604335,"current_range_meters":10000,"station_id":"st_d3svhcjqgbts73a3dn0g","pricing_plan_id":"cebpf4jnsgd1na2vs0mg"},{"bike_id":"4548bfb3-06f4-4b10-aaa4-465cca5b7e05","system_id":"levelo_inurba_marseille","lat":43.28528,"lon":5.44128,"is_reserved":false,"is_disabled":false,"rental_uris":{"android":"levelo://app?vid=4548bfb3-06f4-4b10-aaa4-465cca5b7e05","ios":"levelo://app?vid=4548bfb3-06f4-4b10-aaa4-465cca5b7e05"},"vehicle_type_id":"4","last_reported":1762604335,"current_range_meters":10000,"station_id":"st_d3j3df2ikq2c7380ej80","pricing_plan_id":"cebpf4jnsgd1na2vs0mg"},{"bike_id":"b4a19494-fbf2-4028-b05f-23ef9c122dc9","system_id":"levelo_inurba_marseille","lat":43.23133,"lon":5.43724,"is_reserved":false,"is_disabled":false,"rental_uris":{"android":"levelo://app?vid=b4a19494-fbf2-4028-b05f-23ef9c122dc9","ios":"levelo://app?vid=b4a19494-fbf2-4028-b05f-23ef9c122dc9"},"vehicle_type_id":"4","last_reported":1762604335,"current_range_meters":10000,"station_id":"ce4bhmp2rcd13ifvqgog","pricing_plan_id":"cebpf4jnsgd1na2vs0mg"},{"bike_id":"676f9b84-4eb4-49d4-bb45-1c4cb446cd66","system_id":"levelo_inurba_marseille","lat":43.33025,"lon":5.39046,"is_reserved":false,"is_disabled":false,"rental_uris":{"android":"levelo://app?vid=676f9b84-4eb4-49d4-bb45-1c4cb446cd66","ios":"levelo://app?vid=676f9b84-4eb4-49d4-bb45-1c4cb446cd66"},"vehicle_type_id":"4","last_reported":1762604335,"current_range_meters":10000,"station_id":"ce4bhr92rcd13ifvqhrg","pricing_plan_id":"cebpf4jnsgd1na2vs0mg"},{"bike_id":"9af0687b-3e79-4e11-b844-dd239618aeba","system_id":"levelo_inurba_marseille","lat":43.28861,"lon":5.42518,"is_reserved":false,"is_disabled":false,"rental_uris":{"android":"levelo://app?vid=9af0687b-3e79-4e11-b844-dd239618aeba","ios":"levelo://app?vid=9af0687b-3e79-4e11-b844-dd239618aeba"},"vehicle_type_id":"4","last_reported":1762604335,"current_range_meters":10000,"station_id":"st_d3b462108ojc7389ooeg","pricing_plan_id":"cebpf4jnsgd1na2vs0mg"},{"bike_id":"03c15660-6f71-438b-afaf-604e23d7986a","system_id":"levelo_inurba_marseille","lat":43.30188,"lon":5.366036,"is_reserved":false,"is_disabled":false,"rental_uris":{"android":"levelo://app?vid=03c15660-6f71-438b-afaf-604e23d7986a","ios":"levelo://app?vid=03c15660-6f71-438b-afaf-604e23d7986a"},"vehicle_type_id":"4","last_reported":1762604335,"current_range_meters":10000,"station_id":"ce4bgrh2rcd13ifvqc8g","pricing_plan_id":"cebpf4jnsgd1na2vs0mg"},{"bike_id":"765e6612-2deb-434c-9a1d-9d6414af7497","system_id":"levelo_inurba_marseille","lat":43.25508,"lon":5.3765,"is_reserved":false,"is_disabled":false,"rental_uris":{"android":"levelo://app?vid=765e6612-2deb-434c-9a1d-9d6414af7497","ios":"levelo://app?vid=765e6612-2deb-434c-9a1d-9d6414af7497"},"vehicle_type_id":"4","last_reported":1762604335,"current_range_meters":10000,"station_id":"ce4bhh12rcd13ifvqff0","pricing_plan_id":"cebpf4jnsgd1na2vs0mg"},{"bike_id":"382f597e-181c-4839-b1de-04339df9aa55","system_id":"levelo_inurba_marseille","lat":43.26759,"lon":5.4033,"is_reserved":false,"is_disabled":true,"rental_uris":{"android":"levelo://app?vid=382f597e-181c-4839-b1de-04339df9aa55","ios":"levelo://app?vid=382f597e-181c-4839-b1de-04339df9aa55"},"vehicle_type_id":"4","last_reported":1762604335,"current_range_meters":10800,"station_id":"ce501612rcd8frsf0b60","pricing_plan_id":"cebpf4jnsgd1na2vs0mg"},{"bike_id":"6c2bffa3-116b-4a44-bfd3-2c4c802487e2","system_id":"levelo_inurba_marseille","lat":43.28416,"lon":5.34979,"is_reserved":false,"is_disabled":false,"rental_uris":{"android":"levelo://app?vid=6c2bffa3-116b-4a44-bfd3-2c4c802487e2","ios":"levelo://app?vid=6c2bffa3-116b-4a44-bfd3-2c4c802487e2"},"vehicle_type_id":"4","last_reported":1762604335,"current_range_meters":10800,"station_id":"ce4bhbh2rcd13ifvqepg","pricing_plan_id":"cebpf4jnsgd1na2vs0mg"},{"bike_id":"8f7ca0cb-d088-4e21-9662-2ab4874d81ef","system_id":"levelo_inurba_marseille","lat":43.24664,"lon":5.38174,"is_reserved":false,"is_disabled":true,"rental_uris":{"android":"levelo://app?vid=8f7ca0cb-d088-4e21-9662-2ab4874d81ef","ios":"levelo://app?vid=8f7ca0cb-d088-4e21-9662-2ab4874d81ef"},"vehicle_type_id":"4","last_reported":1762604335,"current_range_meters":10800,"station_id":"ce4bhih2rcd13ifvqfr0","pricing_plan_id":"cebpf4jnsgd1na2vs0mg"},{"bike_id":"a4a1317f-416b-4b95-ab1a-5f558109d100","system_id":"levelo_inurba_marseille","lat":43.28257,"lon":5.3506,"is_reserved":false,"is_disabled":false,"rental_uris":{"android":"levelo://app?vid=a4a1317f-416b-4b95-ab1a-5f558109d100","ios":"levelo://app?vid=a4a1317f-416b-4b95-ab1a-5f558109d100"},"vehicle_type_id":"4","last_reported":1762604335,"current_range_meters":10800,"station_id":"ce4bhbp2rcd13ifvqerg","pricing_plan_id":"cebpf4jnsgd1na2vs0mg"},{"bike_id":"9f43e5a0-85ce-4aaf-8abc-2426e114187d","system_id":"levelo_inurba_marseille","lat":43.28569,"lon":5.39496,"is_reserved":false,"is_disabled":false,"rental_uris":{"android":"levelo://app?vid=9f43e5a0-85ce-4aaf-8abc-2426e114187d","ios":"levelo://app?vid=9f43e5a0-85ce-4aaf-8abc-2426e114187d"},"vehicle_type_id":"4","last_reported":1762604335,"current_range_meters":10800,"station_id":"ce4bh292rcd13ifvqdg0","pricing_plan_id":"cebpf4jnsgd1na2vs0mg"},{"bike_id":"cb7f5392-ae0a-4ba8-b998-2f6fbc338fe1","system_id":"levelo_inurba_marseille","lat":43.22556,"lon":5.41638,"is_reserved":false,"is_disabled":false,"rental_uris":{"android":"levelo://app?vid=cb7f5392-ae0a-4ba8-b998-2f6fbc338fe1","ios":"levelo://app?vid=cb7f5392-ae0a-4ba8-b998-2f6fbc338fe1"},"vehicle_type_id":"4","last_reported":1762604335,"current_range_meters":11200,"station_id":"st_d2o4gvlbi1j2169b742g","pricing_plan_id":"cebpf4jnsgd1na2vs0mg"},{"bike_id":"81ec2f86-f438-49d2-9a86-2fa3508078b1","system_id":"levelo_inurba_marseille","lat":43.230563,"lon":5.354883,"is_reserved":false,"is_disabled":false,"rental_uris":{"android":"levelo://app?vid=81ec2f86-f438-49d2-9a86-2fa3508078b1","ios":"levelo://app?vid=81ec2f86-f438-49d2-9a86-2fa3508078b1"},"vehicle_type_id":"4","last_reported":1762604335,"current_range_meters":11200,"station_id":"cpo3342slgdg3j2ifvpg","pricing_plan_id":"cebpf4jnsgd1na2vs0mg"},{"bike_id":"3e3ce3a7-c9d6-4ad0-9347-c503ef043e65","system_id":"levelo_inurba_marseille","lat":43.248,"lon":5.3745,"is_reserved":false,"is_disabled":true,"rental_uris":{"android":"levelo://app?vid=3e3ce3a7-c9d6-4ad0-9347-c503ef043e65","ios":"levelo://app?vid=3e3ce3a7-c9d6-4ad0-9347-c503ef043e65"},"vehicle_type_id":"4","last_reported":1762604335,"current_range_meters":11200,"station_id":"ce4bhgh2rcd13ifvqfb0","pricing_plan_id":"cebpf4jnsgd1na2vs0mg"},{"bike_id":"1a23ae65-e901-483b-a54b-fd4caba3c7b7","system_id":"levelo_inurba_marseille","lat":43.21747,"lon":5.34599,"is_reserved":false,"is_disabled":false,"rental_uris":{"android":"levelo://app?vid=1a23ae65-e901-483b-a54b-fd4caba3c7b7","ios":"levelo://app?vid=1a23ae65-e901-483b-a54b-fd4caba3c7b7"},"vehicle_type_id":"4","last_reported":1762604335,"current_range_meters":11200,"station_id":"st_cvj6r9ubvosntc0bgbag","pricing_plan_id":"cebpf4jnsgd1na2vs0mg"},{"bike_id":"450450b4-292b-43cd-8070-7ced99cb2a83","system_id":"levelo_inurba_marseille","lat":43.29245,"lon":5.40918,"is_reserved":false,"is_disabled":false,"rental_uris":{"android":"levelo://app?vid=450450b4-292b-43cd-8070-7ced99cb2a83","ios":"levelo://app?vid=450450b4-292b-43cd-8070-7ced99cb2a83"},"vehicle_type_id":"4","last_reported":1762604335,"current_range_meters":11200,"station_id":"ce4bh192rcd13ifvqdc0","pricing_plan_id":"cebpf4jnsgd1na2vs0mg"},{"bike_id":"1cb3caa2-a6c2-4318-965f-70da959eb0b9","system_id":"levelo_inurba_marseille","lat":43.299334,"lon":5.365638,"is_reserved":false,"is_disabled":false,"rental_uris":{"android":"levelo://app?vid=1cb3caa2-a6c2-4318-965f-70da959eb0b9","ios":"levelo://app?vid=1cb3caa2-a6c2-4318-965f-70da959eb0b9"},"vehicle_type_id":"4","last_reported":1762604335,"current_range_meters":11200,"station_id":"ce4bgm92rcd13ifvqbr0","pricing_plan_id":"cebpf4jnsgd1na2vs0mg"},{"bike_id":"7ad91daf-dfe5-4de3-a719-6e1dd7518e96","system_id":"levelo_inurba_marseille","lat":43.30549,"lon":5.36541,"is_reserved":false,"is_disabled":false,"rental_uris":{"android":"levelo://app?vid=7ad91daf-dfe5-4de3-a719-6e1dd7518e96","ios":"levelo://app?vid=7ad91daf-dfe5-4de3-a719-6e1dd7518e96"},"vehicle_type_id":"4","last_reported":1762604335,"current_range_meters":11200,"station_id":"ce4bgs12rcd13ifvqcag","pricing_plan_id":"cebpf4jnsgd1na2vs0mg"},{"bike_id":"7a7fa84a-a4dc-42b2-87cc-a76bc7fad838","system_id":"levelo_inurba_marseille","lat":43.21751,"lon":5.34601,"is_reserved":false,"is_disabled":false,"rental_uris":{"android":"levelo://app?vid=7a7fa84a-a4dc-42b2-87cc-a76bc7fad838","ios":"levelo://app?vid=7a7fa84a-a4dc-42b2-87cc-a76bc7fad838"},"vehicle_type_id":"4","last_reported":1762604335,"current_range_meters":11200,"station_id":"st_cvj6r9ubvosntc0bgbag","pricing_plan_id":"cebpf4jnsgd1na2vs0mg"},{"bike_id":"7a399f82-0892-45c9-a828-80f939bd334e","system_id":"levelo_inurba_marseille","lat":43.27376,"lon":5.3625,"is_reserved":false,"is_disabled":false,"rental_uris":{"android":"levelo://app?vid=7a399f82-0892-45c9-a828-80f939bd334e","ios":"levelo://app?vid=7a399f82-0892-45c9-a828-80f939bd334e"},"vehicle_type_id":"4","last_reported":1762604335,"current_range_meters":11600,"station_id":"ce4bhbh2rcd13ifvqeo0","pricing_plan_id":"cebpf4jnsgd1na2vs0mg"},{"bike_id":"b98c59d1-12c0-4a03-b198-cf728a9bdad0","system_id":"levelo_inurba_marseille","lat":43.29322,"lon":5.37155,"is_reserved":false,"is_disabled":false,"rental_uris":{"android":"levelo://app?vid=b98c59d1-12c0-4a03-b198-cf728a9bdad0","ios":"levelo://app?vid=b98c59d1-12c0-4a03-b198-cf728a9bdad0"},"vehicle_type_id":"4","last_reported":1762604335,"current_range_meters":11600,"station_id":"","pricing_plan_id":"cebpf4jnsgd1na2vs0mg"},{"bike_id":"83e5792b-73df-4329-a0c6-e2b2234cf76c","system_id":"levelo_inurba_marseille","lat":43.24557,"lon":5.39541,"is_reserved":false,"is_disabled":false,"rental_uris":{"android":"levelo://app?vid=83e5792b-73df-4329-a0c6-e2b2234cf76c","ios":"levelo://app?vid=83e5792b-73df-4329-a0c6-e2b2234cf76c"},"vehicle_type_id":"4","last_reported":1762604335,"current_range_meters":11600,"station_id":"ce4bhlp2rcd13ifvqgjg","pricing_plan_id":"cebpf4jnsgd1na2vs0mg"},{"bike_id":"ec29972e-44a2-482f-b8e7-2629c3245993","system_id":"levelo_inurba_marseille","lat":43.30597,"lon":5.37231,"is_reserved":false,"is_disabled":false,"rental_uris":{"android":"levelo://app?vid=ec29972e-44a2-482f-b8e7-2629c3245993","ios":"levelo://app?vid=ec29972e-44a2-482f-b8e7-2629c3245993"},"vehicle_type_id":"4","last_reported":1762604335,"current_range_meters":11600,"station_id":"ce4bgqh2rcd13ifvqc4g","pricing_plan_id":"cebpf4jnsgd1na2vs0mg"},{"bike_id":"46748178-17b8-4dc8-80b3-39159ff743e0","system_id":"levelo_inurba_marseille","lat":43.300466,"lon":5.383291,"is_reserved":false,"is_disabled":false,"rental_uris":{"android":"levelo://app?vid=46748178-17b8-4dc8-80b3-39159ff743e0","ios":"levelo://app?vid=46748178-17b8-4dc8-80b3-39159ff743e0"},"vehicle_type_id":"4","last_reported":1762604335,"current_range_meters":11600,"station_id":"","pricing_plan_id":"cebpf4jnsgd1na2vs0mg"},{"bike_id":"3b294fa9-3f9f-4381-a2a8-e3592d375a68","system_id":"levelo_inurba_marseille","lat":43.26697,"lon":5.39699,"is_reserved":false,"is_disabled":false,"rental_uris":{"android":"levelo://app?vid=3b294fa9-3f9f-4381-a2a8-e3592d375a68","ios":"levelo://app?vid=3b294fa9-3f9f-4381-a2a8-e3592d375a68"},"vehicle_type_id":"4","last_reported":1762604335,"current_range_meters":11600,"station_id":"","pricing_plan_id":"cebpf4jnsgd1na2vs0mg"},{"bike_id":"4d1b639b-fb1d-44a9-b8e6-24299c5652a3","system_id":"levelo_inurba_marseille","lat":43.2957,"lon":5.3751,"is_reserved":false,"is_disabled":false,"rental_uris":{"android":"levelo://app?vid=4d1b639b-fb1d-44a9-b8e6-24299c5652a3","ios":"levelo://app?vid=4d1b639b-fb1d-44a9-b8e6-24299c5652a3"},"vehicle_type_id":"4","last_reported":1762604335,"current_range_meters":11600,"station_id":"ce4bgh92rcd13ifvqb50","pricing_plan_id":"cebpf4jnsgd1na2vs0mg"},{"bike_id":"6ff95486-ffed-4717-ab87-555580e0ad79","system_id":"levelo_inurba_marseille","lat":43.30473,"lon":5.37908,"is_reserved":false,"is_disabled":false,"rental_uris":{"android":"levelo://app?vid=6ff95486-ffed-4717-ab87-555580e0ad79","ios":"levelo://app?vid=6ff95486-ffed-4717-ab87-555580e0ad79"},"vehicle_type_id":"4","last_reported":1762604335,"current_range_meters":12000,"station_id":"ce4bgup2rcd13ifvqcn0","pricing_plan_id":"cebpf4jnsgd1na2vs0mg"},{"bike_id":"d510b29d-06c6-4a67-8cee-2182097a14e2","system_id":"levelo_inurba_marseille","lat":43.29272,"lon":5.37621,"is_reserved":false,"is_disabled":true,"rental_uris":{"android":"levelo://app?vid=d510b29d-06c6-4a67-8cee-2182097a14e2","ios":"levelo://app?vid=d510b29d-06c6-4a67-8cee-2182097a14e2"},"vehicle_type_id":"4","last_reported":1762604335,"current_range_meters":12000,"station_id":"ce4bgi12rcd13ifvqb80","pricing_plan_id":"cebpf4jnsgd1na2vs0mg"},{"bike_id":"29cf3847-f099-42d5-9c47-7deb0213c3ad","system_id":"levelo_inurba_marseille","lat":43.28055,"lon":5.40847,"is_reserved":false,"is_disabled":false,"rental_uris":{"android":"levelo://app?vid=29cf3847-f099-42d5-9c47-7deb0213c3ad","ios":"levelo://app?vid=29cf3847-f099-42d5-9c47-7deb0213c3ad"},"vehicle_type_id":"4","last_reported":1762604335,"current_range_meters":12000,"station_id":"","pricing_plan_id":"cebpf4jnsgd1na2vs0mg"},{"bike_id":"a4b610ef-5dc5-47fb-9228-87e17fe490d3","system_id":"levelo_inurba_marseille","lat":43.27056,"lon":5.42278,"is_reserved":false,"is_disabled":true,"rental_uris":{"android":"levelo://app?vid=a4b610ef-5dc5-47fb-9228-87e17fe490d3","ios":"levelo://app?vid=a4b610ef-5dc5-47fb-9228-87e17fe490d3"},"vehicle_type_id":"4","last_reported":1762604335,"current_range_meters":12000,"station_id":"ce4bhk92rcd13ifvqgb0","pricing_plan_id":"cebpf4jnsgd1na2vs0mg"},{"bike_id":"4d951e12-d52c-4044-af64-455c15ff121e","system_id":"levelo_inurba_marseille","lat":43.26556,"lon":5.372812,"is_reserved":false,"is_disabled":false,"rental_uris":{"android":"levelo://app?vid=4d951e12-d52c-4044-af64-455c15ff121e","ios":"levelo://app?vid=4d951e12-d52c-4044-af64-455c15ff121e"},"vehicle_type_id":"4","last_reported":1762604335,"current_range_meters":12000,"station_id":"ce4bhg12rcd13ifvqf70","pricing_plan_id":"cebpf4jnsgd1na2vs0mg"},{"bike_id":"e41a25ed-0582-4455-9c00-b8ca5ac4b0cb","system_id":"levelo_inurba_marseille","lat":43.21193,"lon":5.35073,"is_reserved":false,"is_disabled":false,"rental_uris":{"android":"levelo://app?vid=e41a25ed-0582-4455-9c00-b8ca5ac4b0cb","ios":"levelo://app?vid=e41a25ed-0582-4455-9c00-b8ca5ac4b0cb"},"vehicle_type_id":"4","last_reported":1762604335,"current_range_meters":12000,"station_id":"","pricing_plan_id":"cebpf4jnsgd1na2vs0mg"},{"bike_id":"a6b7501c-2365-46c6-9675-a6b1af92b21c","system_id":"levelo_inurba_marseille","lat":43.283517,"lon":5.381046,"is_reserved":false,"is_disabled":false,"rental_uris":{"android":"levelo://app?vid=a6b7501c-2365-46c6-9675-a6b1af92b21c","ios":"levelo://app?vid=a6b7501c-2365-46c6-9675-a6b1af92b21c"},"vehicle_type_id":"4","last_reported":1762604335,"current_range_meters":12400,"station_id":"ce4bh412rcd13ifvqdr0","pricing_plan_id":"cebpf4jnsgd1na2vs0mg"},{"bike_id":"65c6be5e-7566-45a1-99cf-c105e6b5b495","system_id":"levelo_inurba_marseille","lat":43.30165,"lon":5.38084,"is_reserved":false,"is_disabled":false,"rental_uris":{"android":"levelo://app?vid=65c6be5e-7566-45a1-99cf-c105e6b5b495","ios":"levelo://app?vid=65c6be5e-7566-45a1-99cf-c105e6b5b495"},"vehicle_type_id":"4","last_reported":1762604335,"current_range_meters":12400,"station_id":"ce4bgjp2rcd13ifvqbh0","pricing_plan_id":"cebpf4jnsgd1na2vs0mg"},{"bike_id":"08800a7f-3058-4ed0-a60f-c12bee9e25dd","system_id":"levelo_inurba_marseille","lat":43.24642,"lon":5.43128,"is_reserved":false,"is_disabled":false,"rental_uris":{"android":"levelo://app?vid=08800a7f-3058-4ed0-a60f-c12bee9e25dd","ios":"levelo://app?vid=08800a7f-3058-4ed0-a60f-c12bee9e25dd"},"vehicle_type_id":"4","last_reported":1762604335,"current_range_meters":12800,"station_id":"st_d2m6c4gdas8pm72e190g","pricing_plan_id":"cebpf4jnsgd1na2vs0mg"},{"bike_id":"87acae9a-a26a-4c14-babf-59acfdaac5e3","system_id":"levelo_inurba_marseille","lat":43.29931,"lon":5.36552,"is_reserved":false,"is_disabled":false,"rental_uris":{"android":"levelo://app?vid=87acae9a-a26a-4c14-babf-59acfdaac5e3","ios":"levelo://app?vid=87acae9a-a26a-4c14-babf-59acfdaac5e3"},"vehicle_type_id":"4","last_reported":1762604335,"current_range_meters":12800,"station_id":"ce4bgm92rcd13ifvqbr0","pricing_plan_id":"cebpf4jnsgd1na2vs0mg"},{"bike_id":"05304b88-08bd-4258-888f-ad77e8550455","system_id":"levelo_inurba_marseille","lat":43.28031,"lon":5.36947,"is_reserved":false,"is_disabled":false,"rental_uris":{"android":"levelo://app?vid=05304b88-08bd-4258-888f-ad77e8550455","ios":"levelo://app?vid=05304b88-08bd-4258-888f-ad77e8550455"},"vehicle_type_id":"4","last_reported":1762604335,"current_range_meters":12800,"station_id":"ce4bha12rcd13ifvqef0","pricing_plan_id":"cebpf4jnsgd1na2vs0mg"},{"bike_id":"e213f44d-fb04-4530-a1f0-1f1374a7091b","system_id":"levelo_inurba_marseille","lat":43.31755,"lon":5.39016,"is_reserved":false,"is_disabled":false,"rental_uris":{"android":"levelo://app?vid=e213f44d-fb04-4530-a1f0-1f1374a7091b","ios":"levelo://app?vid=e213f44d-fb04-4530-a1f0-1f1374a7091b"},"vehicle_type_id":"4","last_reported":1762604335,"current_range_meters":12800,"station_id":"ce4bhqp2rcd13ifvqhng","pricing_plan_id":"cebpf4jnsgd1na2vs0mg"},{"bike_id":"49c2deb4-4975-4030-a65e-a2230fb584f8","system_id":"levelo_inurba_marseille","lat":43.30143,"lon":5.374224,"is_reserved":false,"is_disabled":false,"rental_uris":{"android":"levelo://app?vid=49c2deb4-4975-4030-a65e-a2230fb584f8","ios":"levelo://app?vid=49c2deb4-4975-4030-a65e-a2230fb584f8"},"vehicle_type_id":"4","last_reported":1762604335,"current_range_meters":12800,"station_id":"ce4bgs92rcd13ifvqcc0","pricing_plan_id":"cebpf4jnsgd1na2vs0mg"},{"bike_id":"37c699ea-01cc-4207-b92f-d1d36c13237b","system_id":"levelo_inurba_marseille","lat":43.294505,"lon":5.376393,"is_reserved":false,"is_disabled":false,"rental_uris":{"android":"levelo://app?vid=37c699ea-01cc-4207-b92f-d1d36c13237b","ios":"levelo://app?vid=37c699ea-01cc-4207-b92f-d1d36c13237b"},"vehicle_type_id":"4","last_reported":1762604335,"current_range_meters":12800,"station_id":"ce4bgk12rcd13ifvqbj0","pricing_plan_id":"cebpf4jnsgd1na2vs0mg"},{"bike_id":"c63eb345-bfea-4e01-a2d5-4f3fcc26a575","system_id":"levelo_inurba_marseille","lat":43.29917,"lon":5.38161,"is_reserved":false,"is_disabled":false,"rental_uris":{"android":"levelo://app?vid=c63eb345-bfea-4e01-a2d5-4f3fcc26a575","ios":"levelo://app?vid=c63eb345-bfea-4e01-a2d5-4f3fcc26a575"},"vehicle_type_id":"4","last_reported":1762604335,"current_range_meters":13600,"station_id":"ce4bgj12rcd13ifvqbc0","pricing_plan_id":"cebpf4jnsgd1na2vs0mg"},{"bike_id":"d6b9ebb1-17c6-4df6-bdc7-aced6114808a","system_id":"levelo_inurba_marseille","lat":43.292788,"lon":5.368499,"is_reserved":false,"is_disabled":false,"rental_uris":{"android":"levelo://app?vid=d6b9ebb1-17c6-4df6-bdc7-aced6114808a","ios":"levelo://app?vid=d6b9ebb1-17c6-4df6-bdc7-aced6114808a"},"vehicle_type_id":"4","last_reported":1762604335,"current_range_meters":13600,"station_id":"ce4bhbp2rcd13ifvqesg","pricing_plan_id":"cebpf4jnsgd1na2vs0mg"},{"bike_id":"25d84604-4dc3-4b6f-81a1-a91cae63f8b4","system_id":"levelo_inurba_marseille","lat":43.21193,"lon":5.35082,"is_reserved":false,"is_disabled":false,"rental_uris":{"android":"levelo://app?vid=25d84604-4dc3-4b6f-81a1-a91cae63f8b4","ios":"levelo://app?vid=25d84604-4dc3-4b6f-81a1-a91cae63f8b4"},"vehicle_type_id":"4","last_reported":1762604335,"current_range_meters":13600,"station_id":"st_cvj6sg6p6f1abm77japg","pricing_plan_id":"cebpf4jnsgd1na2vs0mg"},{"bike_id":"690158bc-3922-439f-adda-2ff0caeb7100","system_id":"levelo_inurba_marseille","lat":43.29019,"lon":5.38132,"is_reserved":false,"is_disabled":false,"rental_uris":{"android":"levelo://app?vid=690158bc-3922-439f-adda-2ff0caeb7100","ios":"levelo://app?vid=690158bc-3922-439f-adda-2ff0caeb7100"},"vehicle_type_id":"4","last_reported":1762604335,"current_range_meters":14000,"station_id":"ce4bh4p2rcd13ifvqe1g","pricing_plan_id":"cebpf4jnsgd1na2vs0mg"},{"bike_id":"6ba0f1d1-5706-4a14-b89f-505a4c6aa756","system_id":"levelo_inurba_marseille","lat":43.29477,"lon":5.4332,"is_reserved":false,"is_disabled":false,"rental_uris":{"android":"levelo://app?vid=6ba0f1d1-5706-4a14-b89f-505a4c6aa756","ios":"levelo://app?vid=6ba0f1d1-5706-4a14-b89f-505a4c6aa756"},"vehicle_type_id":"4","last_reported":1762604335,"current_range_meters":14000,"station_id":"st_d3j5ugp08ojc73fj9d10","pricing_plan_id":"cebpf4jnsgd1na2vs0mg"},{"bike_id":"a9488770-4b18-4a1b-8591-4933a75965bc","system_id":"levelo_inurba_marseille","lat":43.28693,"lon":5.37389,"is_reserved":false,"is_disabled":false,"rental_uris":{"android":"levelo://app?vid=a9488770-4b18-4a1b-8591-4933a75965bc","ios":"levelo://app?vid=a9488770-4b18-4a1b-8591-4933a75965bc"},"vehicle_type_id":"4","last_reported":1762604335,"current_range_meters":14000,"station_id":"ce4bh3p2rcd13ifvqdq0","pricing_plan_id":"cebpf4jnsgd1na2vs0mg"},{"bike_id":"188ee9a4-4424-479c-b66e-2d027092307b","system_id":"levelo_inurba_marseille","lat":43.29848,"lon":5.36274,"is_reserved":false,"is_disabled":false,"rental_uris":{"android":"levelo://app?vid=188ee9a4-4424-479c-b66e-2d027092307b","ios":"levelo://app?vid=188ee9a4-4424-479c-b66e-2d027092307b"},"vehicle_type_id":"4","last_reported":1762604335,"current_range_meters":14000,"station_id":"ce4bgpp2rcd13ifvqc3g","pricing_plan_id":"cebpf4jnsgd1na2vs0mg"},{"bike_id":"6434f102-c47d-49fe-868e-a8445078ae98","system_id":"levelo_inurba_marseille","lat":43.231483,"lon":5.437261,"is_reserved":false,"is_disabled":false,"rental_uris":{"android":"levelo://app?vid=6434f102-c47d-49fe-868e-a8445078ae98","ios":"levelo://app?vid=6434f102-c47d-49fe-868e-a8445078ae98"},"vehicle_type_id":"4","last_reported":1762604335,"current_range_meters":14400,"station_id":"ce4bhmp2rcd13ifvqgog","pricing_plan_id":"cebpf4jnsgd1na2vs0mg"},{"bike_id":"ca06630c-cd58-47fd-a4f0-6635c015d1a3","system_id":"levelo_inurba_marseille","lat":43.301514,"lon":5.380906,"is_reserved":false,"is_disabled":false,"rental_uris":{"android":"levelo://app?vid=ca06630c-cd58-47fd-a4f0-6635c015d1a3","ios":"levelo://app?vid=ca06630c-cd58-47fd-a4f0-6635c015d1a3"},"vehicle_type_id":"4","last_reported":1762604335,"current_range_meters":14400,"station_id":"ce4bgjp2rcd13ifvqbh0","pricing_plan_id":"cebpf4jnsgd1na2vs0mg"},{"bike_id":"d2991a60-dcfa-4252-8f9d-bfff4b1dc433","system_id":"levelo_inurba_marseille","lat":43.31062,"lon":5.37142,"is_reserved":false,"is_disabled":false,"rental_uris":{"android":"levelo://app?vid=d2991a60-dcfa-4252-8f9d-bfff4b1dc433","ios":"levelo://app?vid=d2991a60-dcfa-4252-8f9d-bfff4b1dc433"},"vehicle_type_id":"4","last_reported":1762604335,"current_range_meters":14400,"station_id":"","pricing_plan_id":"cebpf4jnsgd1na2vs0mg"},{"bike_id":"4bce02cb-bdba-488a-a39f-eae80d4c7da8","system_id":"levelo_inurba_marseille","lat":43.2821,"lon":5.39075,"is_reserved":false,"is_disabled":true,"rental_uris":{"android":"levelo://app?vid=4bce02cb-bdba-488a-a39f-eae80d4c7da8","ios":"levelo://app?vid=4bce02cb-bdba-488a-a39f-eae80d4c7da8"},"vehicle_type_id":"4","last_reported":1762604335,"current_range_meters":14400,"station_id":"ce4bhn92rcd13ifvqgsg","pricing_plan_id":"cebpf4jnsgd1na2vs0mg"},{"bike_id":"94a1f44b-324e-462e-8660-7e80beb4057b","system_id":"levelo_inurba_marseille","lat":43.24949,"lon":5.40484,"is_reserved":false,"is_disabled":false,"rental_uris":{"android":"levelo://app?vid=94a1f44b-324e-462e-8660-7e80beb4057b","ios":"levelo://app?vid=94a1f44b-324e-462e-8660-7e80beb4057b"},"vehicle_type_id":"4","last_reported":1762604335,"current_range_meters":14800,"station_id":"st_d2ngiaodas8pm72gd1h0","pricing_plan_id":"cebpf4jnsgd1na2vs0mg"},{"bike_id":"b13bb49d-a489-4f99-85d6-3889dbde73c5","system_id":"levelo_inurba_marseille","lat":43.30143,"lon":5.38083,"is_reserved":false,"is_disabled":false,"rental_uris":{"android":"levelo://app?vid=b13bb49d-a489-4f99-85d6-3889dbde73c5","ios":"levelo://app?vid=b13bb49d-a489-4f99-85d6-3889dbde73c5"},"vehicle_type_id":"4","last_reported":1762604335,"current_range_meters":14800,"station_id":"ce4bgjp2rcd13ifvqbh0","pricing_plan_id":"cebpf4jnsgd1na2vs0mg"},{"bike_id":"5e168817-60e0-4ec0-a0d2-cdc6e845f267","system_id":"levelo_inurba_marseille","lat":43.29,"lon":5.35633,"is_reserved":false,"is_disabled":false,"rental_uris":{"android":"levelo://app?vid=5e168817-60e0-4ec0-a0d2-cdc6e845f267","ios":"levelo://app?vid=5e168817-60e0-4ec0-a0d2-cdc6e845f267"},"vehicle_type_id":"4","last_reported":1762604335,"current_range_meters":14800,"station_id":"ce4bhb92rcd13ifvqen0","pricing_plan_id":"cebpf4jnsgd1na2vs0mg"},{"bike_id":"ec811d3c-66cc-4bf2-b50c-97b9c074de64","system_id":"levelo_inurba_marseille","lat":43.21182,"lon":5.35086,"is_reserved":false,"is_disabled":false,"rental_uris":{"android":"levelo://app?vid=ec811d3c-66cc-4bf2-b50c-97b9c074de64","ios":"levelo://app?vid=ec811d3c-66cc-4bf2-b50c-97b9c074de64"},"vehicle_type_id":"4","last_reported":1762604335,"current_range_meters":15200,"station_id":"st_cvj6sg6p6f1abm77japg","pricing_plan_id":"cebpf4jnsgd1na2vs0mg"},{"bike_id":"3439a8cb-8214-4321-b614-d69fa7098072","system_id":"levelo_inurba_marseille","lat":43.31257,"lon":5.39004,"is_reserved":false,"is_disabled":false,"rental_uris":{"android":"levelo://app?vid=3439a8cb-8214-4321-b614-d69fa7098072","ios":"levelo://app?vid=3439a8cb-8214-4321-b614-d69fa7098072"},"vehicle_type_id":"4","last_reported":1762604335,"current_range_meters":15200,"station_id":"","pricing_plan_id":"cebpf4jnsgd1na2vs0mg"},{"bike_id":"67b819b2-7b95-41f1-9a05-3ecf6a200d9b","system_id":"levelo_inurba_marseille","lat":43.26227,"lon":5.40452,"is_reserved":false,"is_disabled":false,"rental_uris":{"android":"levelo://app?vid=67b819b2-7b95-41f1-9a05-3ecf6a200d9b","ios":"levelo://app?vid=67b819b2-7b95-41f1-9a05-3ecf6a200d9b"},"vehicle_type_id":"4","last_reported":1762604335,"current_range_meters":15200,"station_id":"ce4bhmh2rcd13ifvqgmg","pricing_plan_id":"cebpf4jnsgd1na2vs0mg"},{"bike_id":"560c0ff6-22ba-440e-93cd-acce4f7a65cf","system_id":"levelo_inurba_marseille","lat":43.29972,"lon":5.38494,"is_reserved":false,"is_disabled":false,"rental_uris":{"android":"levelo://app?vid=560c0ff6-22ba-440e-93cd-acce4f7a65cf","ios":"levelo://app?vid=560c0ff6-22ba-440e-93cd-acce4f7a65cf"},"vehicle_type_id":"4","last_reported":1762604335,"current_range_meters":15200,"station_id":"ce4bgj92rcd13ifvqbd0","pricing_plan_id":"cebpf4jnsgd1na2vs0mg"},{"bike_id":"60209b82-f1fb-4fee-8b12-f869dd15efef","system_id":"levelo_inurba_marseille","lat":43.22932,"lon":5.35373,"is_reserved":false,"is_disabled":false,"rental_uris":{"android":"levelo://app?vid=60209b82-f1fb-4fee-8b12-f869dd15efef","ios":"levelo://app?vid=60209b82-f1fb-4fee-8b12-f869dd15efef"},"vehicle_type_id":"4","last_reported":1762604335,"current_range_meters":15200,"station_id":"cpo3532slgdg3j2ikp40","pricing_plan_id":"cebpf4jnsgd1na2vs0mg"},{"bike_id":"bbf70108-510c-4f86-9f4b-23e9766d9b05","system_id":"levelo_inurba_marseille","lat":43.30146,"lon":5.3809,"is_reserved":false,"is_disabled":false,"rental_uris":{"android":"levelo://app?vid=bbf70108-510c-4f86-9f4b-23e9766d9b05","ios":"levelo://app?vid=bbf70108-510c-4f86-9f4b-23e9766d9b05"},"vehicle_type_id":"4","last_reported":1762604335,"current_range_meters":15200,"station_id":"ce4bgjp2rcd13ifvqbh0","pricing_plan_id":"cebpf4jnsgd1na2vs0mg"},{"bike_id":"558a3a76-acc4-452e-86a8-a6089c183c2b","system_id":"levelo_inurba_marseille","lat":43.2926,"lon":5.38458,"is_reserved":false,"is_disabled":false,"rental_uris":{"android":"levelo://app?vid=558a3a76-acc4-452e-86a8-a6089c183c2b","ios":"levelo://app?vid=558a3a76-acc4-452e-86a8-a6089c183c2b"},"vehicle_type_id":"4","last_reported":1762604335,"current_range_meters":16000,"station_id":"ce4bh692rcd13ifvqea0","pricing_plan_id":"cebpf4jnsgd1na2vs0mg"},{"bike_id":"6ba2219f-a2ac-440a-9c9a-2acba82d2f89","system_id":"levelo_inurba_marseille","lat":43.29211,"lon":5.36101,"is_reserved":false,"is_disabled":false,"rental_uris":{"android":"levelo://app?vid=6ba2219f-a2ac-440a-9c9a-2acba82d2f89","ios":"levelo://app?vid=6ba2219f-a2ac-440a-9c9a-2acba82d2f89"},"vehicle_type_id":"4","last_reported":1762604335,"current_range_meters":16000,"station_id":"ce4bhbh2rcd13ifvqeqg","pricing_plan_id":"cebpf4jnsgd1na2vs0mg"},{"bike_id":"1cf846ca-66d9-40e1-9a9d-e2e5debebd8c","system_id":"levelo_inurba_marseille","lat":43.24167,"lon":5.36399,"is_reserved":false,"is_disabled":false,"rental_uris":{"android":"levelo://app?vid=1cf846ca-66d9-40e1-9a9d-e2e5debebd8c","ios":"levelo://app?vid=1cf846ca-66d9-40e1-9a9d-e2e5debebd8c"},"vehicle_type_id":"4","last_reported":1762604335,"current_range_meters":16000,"station_id":"cpo36qri1sfpv3e86is0","pricing_plan_id":"cebpf4jnsgd1na2vs0mg"},{"bike_id":"cfe6041c-eeb8-4331-88ac-3d89c3a5f24a","system_id":"levelo_inurba_marseille","lat":43.29852,"lon":5.36269,"is_reserved":false,"is_disabled":false,"rental_uris":{"android":"levelo://app?vid=cfe6041c-eeb8-4331-88ac-3d89c3a5f24a","ios":"levelo://app?vid=cfe6041c-eeb8-4331-88ac-3d89c3a5f24a"},"vehicle_type_id":"4","last_reported":1762604335,"current_range_meters":16000,"station_id":"ce4bgpp2rcd13ifvqc3g","pricing_plan_id":"cebpf4jnsgd1na2vs0mg"},{"bike_id":"8d91d362-d346-4ddf-9e76-24354ea3f444","system_id":"levelo_inurba_marseille","lat":43.25117,"lon":5.40317,"is_reserved":false,"is_disabled":false,"rental_uris":{"android":"levelo://app?vid=8d91d362-d346-4ddf-9e76-24354ea3f444","ios":"levelo://app?vid=8d91d362-d346-4ddf-9e76-24354ea3f444"},"vehicle_type_id":"4","last_reported":1762604335,"current_range_meters":16000,"station_id":"ce4bhlh2rcd13ifvqgig","pricing_plan_id":"cebpf4jnsgd1na2vs0mg"},{"bike_id":"b987b8d4-2e3f-4ae1-bf64-34fe1222c1d8","system_id":"levelo_inurba_marseille","lat":43.28439,"lon":5.39198,"is_reserved":false,"is_disabled":false,"rental_uris":{"android":"levelo://app?vid=b987b8d4-2e3f-4ae1-bf64-34fe1222c1d8","ios":"levelo://app?vid=b987b8d4-2e3f-4ae1-bf64-34fe1222c1d8"},"vehicle_type_id":"4","last_reported":1762604335,"current_range_meters":16000,"station_id":"ce4bhoh2rcd13ifvqh5g","pricing_plan_id":"cebpf4jnsgd1na2vs0mg"},{"bike_id":"7a5828b2-a90a-4374-b8e7-f54c33341944","system_id":"levelo_inurba_marseille","lat":43.29787,"lon":5.3934,"is_reserved":false,"is_disabled":false,"rental_uris":{"android":"levelo://app?vid=7a5828b2-a90a-4374-b8e7-f54c33341944","ios":"levelo://app?vid=7a5828b2-a90a-4374-b8e7-f54c33341944"},"vehicle_type_id":"4","last_reported":1762604335,"current_range_meters":16000,"station_id":"chh1huq6cuj3fo74tm60","pricing_plan_id":"cebpf4jnsgd1na2vs0mg"},{"bike_id":"3156de3d-6e2f-41e6-a3e6-f1e8b85a1cd8","system_id":"levelo_inurba_marseille","lat":43.31364,"lon":5.38491,"is_reserved":false,"is_disabled":false,"rental_uris":{"android":"levelo://app?vid=3156de3d-6e2f-41e6-a3e6-f1e8b85a1cd8","ios":"levelo://app?vid=3156de3d-6e2f-41e6-a3e6-f1e8b85a1cd8"},"vehicle_type_id":"4","last_reported":1762604335,"current_range_meters":16000,"station_id":"ce4bgt92rcd13ifvqcf0","pricing_plan_id":"cebpf4jnsgd1na2vs0mg"},{"bike_id":"2922600f-d584-4950-aefa-70c5fe9180b6","system_id":"levelo_inurba_marseille","lat":43.2924,"lon":5.36147,"is_reserved":false,"is_disabled":false,"rental_uris":{"android":"levelo://app?vid=2922600f-d584-4950-aefa-70c5fe9180b6","ios":"levelo://app?vid=2922600f-d584-4950-aefa-70c5fe9180b6"},"vehicle_type_id":"4","last_reported":1762604335,"current_range_meters":16000,"station_id":"","pricing_plan_id":"cebpf4jnsgd1na2vs0mg"},{"bike_id":"3697a4bb-258f-4388-8aaa-9480bbb7f8e9","system_id":"levelo_inurba_marseille","lat":43.301471,"lon":5.380769,"is_reserved":false,"is_disabled":false,"rental_uris":{"android":"levelo://app?vid=3697a4bb-258f-4388-8aaa-9480bbb7f8e9","ios":"levelo://app?vid=3697a4bb-258f-4388-8aaa-9480bbb7f8e9"},"vehicle_type_id":"4","last_reported":1762604335,"current_range_meters":16400,"station_id":"ce4bgjp2rcd13ifvqbh0","pricing_plan_id":"cebpf4jnsgd1na2vs0mg"},{"bike_id":"53529ee7-fa79-4bfe-8ac3-2ffb63a46b11","system_id":"levelo_inurba_marseille","lat":43.31791,"lon":5.3883,"is_reserved":false,"is_disabled":false,"rental_uris":{"android":"levelo://app?vid=53529ee7-fa79-4bfe-8ac3-2ffb63a46b11","ios":"levelo://app?vid=53529ee7-fa79-4bfe-8ac3-2ffb63a46b11"},"vehicle_type_id":"4","last_reported":1762604335,"current_range_meters":16400,"station_id":"","pricing_plan_id":"cebpf4jnsgd1na2vs0mg"},{"bike_id":"9012bcf8-bb63-442b-8823-1b956a32ae9e","system_id":"levelo_inurba_marseille","lat":43.30126,"lon":5.43114,"is_reserved":false,"is_disabled":false,"rental_uris":{"android":"levelo://app?vid=9012bcf8-bb63-442b-8823-1b956a32ae9e","ios":"levelo://app?vid=9012bcf8-bb63-442b-8823-1b956a32ae9e"},"vehicle_type_id":"4","last_reported":1762604335,"current_range_meters":16400,"station_id":"st_d3js3co5814s73ftftug","pricing_plan_id":"cebpf4jnsgd1na2vs0mg"},{"bike_id":"06b572d6-d95a-4f1a-9a9a-b316897ad6d5","system_id":"levelo_inurba_marseille","lat":43.29545,"lon":5.3752,"is_reserved":false,"is_disabled":false,"rental_uris":{"android":"levelo://app?vid=06b572d6-d95a-4f1a-9a9a-b316897ad6d5","ios":"levelo://app?vid=06b572d6-d95a-4f1a-9a9a-b316897ad6d5"},"vehicle_type_id":"4","last_reported":1762604335,"current_range_meters":16400,"station_id":"ce4bgkp2rcd13ifvqbmg","pricing_plan_id":"cebpf4jnsgd1na2vs0mg"},{"bike_id":"7f6f58d1-1081-45f2-b828-3d7c95ff1220","system_id":"levelo_inurba_marseille","lat":43.29016,"lon":5.3864,"is_reserved":false,"is_disabled":false,"rental_uris":{"android":"levelo://app?vid=7f6f58d1-1081-45f2-b828-3d7c95ff1220","ios":"levelo://app?vid=7f6f58d1-1081-45f2-b828-3d7c95ff1220"},"vehicle_type_id":"4","last_reported":1762604335,"current_range_meters":16400,"station_id":"ce4bh4p2rcd13ifvqe0g","pricing_plan_id":"cebpf4jnsgd1na2vs0mg"},{"bike_id":"0d19685c-d8ed-4f09-869e-2399acd227b3","system_id":"levelo_inurba_marseille","lat":43.25329,"lon":5.4217,"is_reserved":false,"is_disabled":false,"rental_uris":{"android":"levelo://app?vid=0d19685c-d8ed-4f09-869e-2399acd227b3","ios":"levelo://app?vid=0d19685c-d8ed-4f09-869e-2399acd227b3"},"vehicle_type_id":"4","last_reported":1762604335,"current_range_meters":16400,"station_id":"st_d2m65c5bi1j21697t3ng","pricing_plan_id":"cebpf4jnsgd1na2vs0mg"},{"bike_id":"21dcb4e2-bef4-415f-aa59-cd0b9e2cb07b","system_id":"levelo_inurba_marseille","lat":43.22786,"lon":5.43526,"is_reserved":false,"is_disabled":false,"rental_uris":{"android":"levelo://app?vid=21dcb4e2-bef4-415f-aa59-cd0b9e2cb07b","ios":"levelo://app?vid=21dcb4e2-bef4-415f-aa59-cd0b9e2cb07b"},"vehicle_type_id":"4","last_reported":1762604335,"current_range_meters":16400,"station_id":"","pricing_plan_id":"cebpf4jnsgd1na2vs0mg"},{"bike_id":"51e6d7b0-91b0-4bd9-b192-0e26a10d9bb4","system_id":"levelo_inurba_marseille","lat":43.27201,"lon":5.39186,"is_reserved":false,"is_disabled":false,"rental_uris":{"android":"levelo://app?vid=51e6d7b0-91b0-4bd9-b192-0e26a10d9bb4","ios":"levelo://app?vid=51e6d7b0-91b0-4bd9-b192-0e26a10d9bb4"},"vehicle_type_id":"4","last_reported":1762604335,"current_range_meters":16800,"station_id":"ce4bhhp2rcd13ifvqfm0","pricing_plan_id":"cebpf4jnsgd1na2vs0mg"},{"bike_id":"afcbe91b-b38f-422d-8851-1cdbd8412b4b","system_id":"levelo_inurba_marseille","lat":43.29785,"lon":5.39348,"is_reserved":false,"is_disabled":false,"rental_uris":{"android":"levelo://app?vid=afcbe91b-b38f-422d-8851-1cdbd8412b4b","ios":"levelo://app?vid=afcbe91b-b38f-422d-8851-1cdbd8412b4b"},"vehicle_type_id":"4","last_reported":1762604335,"current_range_meters":16800,"station_id":"chh1huq6cuj3fo74tm60","pricing_plan_id":"cebpf4jnsgd1na2vs0mg"},{"bike_id":"c73c5513-728d-4700-9395-e31e4399cd51","system_id":"levelo_inurba_marseille","lat":43.29203,"lon":5.40309,"is_reserved":false,"is_disabled":false,"rental_uris":{"android":"levelo://app?vid=c73c5513-728d-4700-9395-e31e4399cd51","ios":"levelo://app?vid=c73c5513-728d-4700-9395-e31e4399cd51"},"vehicle_type_id":"4","last_reported":1762604335,"current_range_meters":16800,"station_id":"","pricing_plan_id":"cebpf4jnsgd1na2vs0mg"},{"bike_id":"15db09df-59b0-446a-87c5-e354a3319258","system_id":"levelo_inurba_marseille","lat":43.28482,"lon":5.48391,"is_reserved":false,"is_disabled":false,"rental_uris":{"android":"levelo://app?vid=15db09df-59b0-446a-87c5-e354a3319258","ios":"levelo://app?vid=15db09df-59b0-446a-87c5-e354a3319258"},"vehicle_type_id":"4","last_reported":1762604335,"current_range_meters":16800,"station_id":"","pricing_plan_id":"cebpf4jnsgd1na2vs0mg"},{"bike_id":"d9406ae0-a7d7-4070-8130-6f1d39eec4aa","system_id":"levelo_inurba_marseille","lat":43.28606,"lon":5.37065,"is_reserved":false,"is_disabled":false,"rental_uris":{"android":"levelo://app?vid=d9406ae0-a7d7-4070-8130-6f1d39eec4aa","ios":"levelo://app?vid=d9406ae0-a7d7-4070-8130-6f1d39eec4aa"},"vehicle_type_id":"4","last_reported":1762604335,"current_range_meters":16800,"station_id":"ce4bht12rcd13ifvqi60","pricing_plan_id":"cebpf4jnsgd1na2vs0mg"},{"bike_id":"95c2a582-1eba-4ebc-bdda-a353604dc20d","system_id":"levelo_inurba_marseille","lat":43.31251,"lon":5.36839,"is_reserved":false,"is_disabled":false,"rental_uris":{"android":"levelo://app?vid=95c2a582-1eba-4ebc-bdda-a353604dc20d","ios":"levelo://app?vid=95c2a582-1eba-4ebc-bdda-a353604dc20d"},"vehicle_type_id":"4","last_reported":1762604335,"current_range_meters":16800,"station_id":"ce4bgl92rcd13ifvqbq0","pricing_plan_id":"cebpf4jnsgd1na2vs0mg"},{"bike_id":"099d54dc-1153-468f-a2db-9faf8a27aefd","system_id":"levelo_inurba_marseille","lat":43.29609,"lon":5.37732,"is_reserved":false,"is_disabled":false,"rental_uris":{"android":"levelo://app?vid=099d54dc-1153-468f-a2db-9faf8a27aefd","ios":"levelo://app?vid=099d54dc-1153-468f-a2db-9faf8a27aefd"},"vehicle_type_id":"4","last_reported":1762604335,"current_range_meters":16800,"station_id":"","pricing_plan_id":"cebpf4jnsgd1na2vs0mg"},{"bike_id":"bae643e7-2e56-4389-a05c-67c5de87ad14","system_id":"levelo_inurba_marseille","lat":43.22938,"lon":5.35391,"is_reserved":false,"is_disabled":false,"rental_uris":{"android":"levelo://app?vid=bae643e7-2e56-4389-a05c-67c5de87ad14","ios":"levelo://app?vid=bae643e7-2e56-4389-a05c-67c5de87ad14"},"vehicle_type_id":"4","last_reported":1762604335,"current_range_meters":16800,"station_id":"cpo3532slgdg3j2ikp40","pricing_plan_id":"cebpf4jnsgd1na2vs0mg"},{"bike_id":"cf78c577-f784-4054-9298-4eadfd68926b","system_id":"levelo_inurba_marseille","lat":43.31168,"lon":5.3937,"is_reserved":false,"is_disabled":false,"rental_uris":{"android":"levelo://app?vid=cf78c577-f784-4054-9298-4eadfd68926b","ios":"levelo://app?vid=cf78c577-f784-4054-9298-4eadfd68926b"},"vehicle_type_id":"4","last_reported":1762604335,"current_range_meters":16800,"station_id":"","pricing_plan_id":"cebpf4jnsgd1na2vs0mg"},{"bike_id":"74cba10c-2dd7-4dde-a0ef-ae5572b8050a","system_id":"levelo_inurba_marseille","lat":43.299191,"lon":5.37469,"is_reserved":false,"is_disabled":false,"rental_uris":{"android":"levelo://app?vid=74cba10c-2dd7-4dde-a0ef-ae5572b8050a","ios":"levelo://app?vid=74cba10c-2dd7-4dde-a0ef-ae5572b8050a"},"vehicle_type_id":"4","last_reported":1762604335,"current_range_meters":16800,"station_id":"ce4bgjh2rcd13ifvqbg0","pricing_plan_id":"cebpf4jnsgd1na2vs0mg"},{"bike_id":"e483595c-ec48-4101-a8ac-1a84c12bd25e","system_id":"levelo_inurba_marseille","lat":43.24645,"lon":5.38893,"is_reserved":false,"is_disabled":false,"rental_uris":{"android":"levelo://app?vid=e483595c-ec48-4101-a8ac-1a84c12bd25e","ios":"levelo://app?vid=e483595c-ec48-4101-a8ac-1a84c12bd25e"},"vehicle_type_id":"4","last_reported":1762604335,"current_range_meters":16800,"station_id":"ce4bhg12rcd13ifvqf60","pricing_plan_id":"cebpf4jnsgd1na2vs0mg"},{"bike_id":"d2ef9a00-ad73-4e5e-9533-9638c554f803","system_id":"levelo_inurba_marseille","lat":43.25023,"lon":5.38895,"is_reserved":false,"is_disabled":false,"rental_uris":{"android":"levelo://app?vid=d2ef9a00-ad73-4e5e-9533-9638c554f803","ios":"levelo://app?vid=d2ef9a00-ad73-4e5e-9533-9638c554f803"},"vehicle_type_id":"4","last_reported":1762604335,"current_range_meters":17200,"station_id":"ce4bhgp2rcd13ifvqfd0","pricing_plan_id":"cebpf4jnsgd1na2vs0mg"},{"bike_id":"8582a586-3912-4818-9249-459b3c95239d","system_id":"levelo_inurba_marseille","lat":43.23123,"lon":5.43741,"is_reserved":false,"is_disabled":false,"rental_uris":{"android":"levelo://app?vid=8582a586-3912-4818-9249-459b3c95239d","ios":"levelo://app?vid=8582a586-3912-4818-9249-459b3c95239d"},"vehicle_type_id":"4","last_reported":1762604335,"current_range_meters":17200,"station_id":"ce4bhmp2rcd13ifvqgog","pricing_plan_id":"cebpf4jnsgd1na2vs0mg"},{"bike_id":"2fb7e599-67d9-4248-a320-dd2be3039c5f","system_id":"levelo_inurba_marseille","lat":43.29758,"lon":5.39004,"is_reserved":false,"is_disabled":false,"rental_uris":{"android":"levelo://app?vid=2fb7e599-67d9-4248-a320-dd2be3039c5f","ios":"levelo://app?vid=2fb7e599-67d9-4248-a320-dd2be3039c5f"},"vehicle_type_id":"4","last_reported":1762604335,"current_range_meters":17200,"station_id":"","pricing_plan_id":"cebpf4jnsgd1na2vs0mg"},{"bike_id":"1a85bd73-f6c9-483d-ac28-5d95b6775d78","system_id":"levelo_inurba_marseille","lat":43.28709,"lon":5.37956,"is_reserved":false,"is_disabled":true,"rental_uris":{"android":"levelo://app?vid=1a85bd73-f6c9-483d-ac28-5d95b6775d78","ios":"levelo://app?vid=1a85bd73-f6c9-483d-ac28-5d95b6775d78"},"vehicle_type_id":"4","last_reported":1762604335,"current_range_meters":17200,"station_id":"ce4bh9p2rcd13ifvqec0","pricing_plan_id":"cebpf4jnsgd1na2vs0mg"},{"bike_id":"ba73af9b-5ffe-45e9-839c-238f83678032","system_id":"levelo_inurba_marseille","lat":43.2885,"lon":5.35853,"is_reserved":false,"is_disabled":false,"rental_uris":{"android":"levelo://app?vid=ba73af9b-5ffe-45e9-839c-238f83678032","ios":"levelo://app?vid=ba73af9b-5ffe-45e9-839c-238f83678032"},"vehicle_type_id":"4","last_reported":1762604335,"current_range_meters":17200,"station_id":"ce4bhb12rcd13ifvqem0","pricing_plan_id":"cebpf4jnsgd1na2vs0mg"},{"bike_id":"639e2119-feb2-41ef-a04a-8097682df0bb","system_id":"levelo_inurba_marseille","lat":43.31476,"lon":5.37304,"is_reserved":false,"is_disabled":false,"rental_uris":{"android":"levelo://app?vid=639e2119-feb2-41ef-a04a-8097682df0bb","ios":"levelo://app?vid=639e2119-feb2-41ef-a04a-8097682df0bb"},"vehicle_type_id":"4","last_reported":1762604335,"current_range_meters":17200,"station_id":"ce4bgt12rcd13ifvqcd0","pricing_plan_id":"cebpf4jnsgd1na2vs0mg"},{"bike_id":"ac1012d0-7872-4c6e-85e6-fc8eaff39396","system_id":"levelo_inurba_marseille","lat":43.28463,"lon":5.35882,"is_reserved":false,"is_disabled":true,"rental_uris":{"android":"levelo://app?vid=ac1012d0-7872-4c6e-85e6-fc8eaff39396","ios":"levelo://app?vid=ac1012d0-7872-4c6e-85e6-fc8eaff39396"},"vehicle_type_id":"4","last_reported":1762604335,"current_range_meters":17200,"station_id":"ce4bhah2rcd13ifvqei0","pricing_plan_id":"cebpf4jnsgd1na2vs0mg"},{"bike_id":"e374f4d6-676c-4d62-af2d-1f0734c48172","system_id":"levelo_inurba_marseille","lat":43.29477,"lon":5.43336,"is_reserved":false,"is_disabled":false,"rental_uris":{"android":"levelo://app?vid=e374f4d6-676c-4d62-af2d-1f0734c48172","ios":"levelo://app?vid=e374f4d6-676c-4d62-af2d-1f0734c48172"},"vehicle_type_id":"4","last_reported":1762604335,"current_range_meters":17600,"station_id":"st_d3j5ugp08ojc73fj9d10","pricing_plan_id":"cebpf4jnsgd1na2vs0mg"},{"bike_id":"b3fb18d2-1785-4e3b-adaa-d139aa7621ef","system_id":"levelo_inurba_marseille","lat":43.270557,"lon":5.402579,"is_reserved":false,"is_disabled":false,"rental_uris":{"android":"levelo://app?vid=b3fb18d2-1785-4e3b-adaa-d139aa7621ef","ios":"levelo://app?vid=b3fb18d2-1785-4e3b-adaa-d139aa7621ef"},"vehicle_type_id":"4","last_reported":1762604335,"current_range_meters":17600,"station_id":"ce4bhk92rcd13ifvqgc0","pricing_plan_id":"cebpf4jnsgd1na2vs0mg"},{"bike_id":"cb486d76-bc1d-4ff6-9b59-8e132fb8a8b0","system_id":"levelo_inurba_marseille","lat":43.269413,"lon":5.40255,"is_reserved":false,"is_disabled":false,"rental_uris":{"android":"levelo://app?vid=cb486d76-bc1d-4ff6-9b59-8e132fb8a8b0","ios":"levelo://app?vid=cb486d76-bc1d-4ff6-9b59-8e132fb8a8b0"},"vehicle_type_id":"4","last_reported":1762604335,"current_range_meters":17600,"station_id":"cjm6bp8fraef2m0cb0m0","pricing_plan_id":"cebpf4jnsgd1na2vs0mg"},{"bike_id":"b86fecea-8bac-448f-bdcd-c5f07a75c760","system_id":"levelo_inurba_marseille","lat":43.21743,"lon":5.34608,"is_reserved":false,"is_disabled":false,"rental_uris":{"android":"levelo://app?vid=b86fecea-8bac-448f-bdcd-c5f07a75c760","ios":"levelo://app?vid=b86fecea-8bac-448f-bdcd-c5f07a75c760"},"vehicle_type_id":"4","last_reported":1762604335,"current_range_meters":17600,"station_id":"st_cvj6r9ubvosntc0bgbag","pricing_plan_id":"cebpf4jnsgd1na2vs0mg"},{"bike_id":"20419e9b-f15b-48a7-8991-ce0ca6ef3309","system_id":"levelo_inurba_marseille","lat":43.31488,"lon":5.37316,"is_reserved":false,"is_disabled":false,"rental_uris":{"android":"levelo://app?vid=20419e9b-f15b-48a7-8991-ce0ca6ef3309","ios":"levelo://app?vid=20419e9b-f15b-48a7-8991-ce0ca6ef3309"},"vehicle_type_id":"4","last_reported":1762604335,"current_range_meters":18000,"station_id":"ce4bgt12rcd13ifvqcd0","pricing_plan_id":"cebpf4jnsgd1na2vs0mg"},{"bike_id":"e1d2ac3e-a5c1-45dd-a71e-8ef6269474fa","system_id":"levelo_inurba_marseille","lat":43.29846,"lon":5.386,"is_reserved":false,"is_disabled":false,"rental_uris":{"android":"levelo://app?vid=e1d2ac3e-a5c1-45dd-a71e-8ef6269474fa","ios":"levelo://app?vid=e1d2ac3e-a5c1-45dd-a71e-8ef6269474fa"},"vehicle_type_id":"4","last_reported":1762604335,"current_range_meters":18000,"station_id":"","pricing_plan_id":"cebpf4jnsgd1na2vs0mg"},{"bike_id":"795dcb60-15e2-473d-8357-7eaddd3fe0e0","system_id":"levelo_inurba_marseille","lat":43.25569,"lon":5.38248,"is_reserved":false,"is_disabled":false,"rental_uris":{"android":"levelo://app?vid=795dcb60-15e2-473d-8357-7eaddd3fe0e0","ios":"levelo://app?vid=795dcb60-15e2-473d-8357-7eaddd3fe0e0"},"vehicle_type_id":"4","last_reported":1762604335,"current_range_meters":18000,"station_id":"ce4bhih2rcd13ifvqfs0","pricing_plan_id":"cebpf4jnsgd1na2vs0mg"},{"bike_id":"5ca7e156-456f-4551-95d1-e6d848f54d66","system_id":"levelo_inurba_marseille","lat":43.30384,"lon":5.42486,"is_reserved":false,"is_disabled":false,"rental_uris":{"android":"levelo://app?vid=5ca7e156-456f-4551-95d1-e6d848f54d66","ios":"levelo://app?vid=5ca7e156-456f-4551-95d1-e6d848f54d66"},"vehicle_type_id":"4","last_reported":1762604335,"current_range_meters":18000,"station_id":"ce4bhoh2rcd13ifvqh6g","pricing_plan_id":"cebpf4jnsgd1na2vs0mg"},{"bike_id":"f0b5ed94-a11c-400a-8308-32cf663997b6","system_id":"levelo_inurba_marseille","lat":43.28722,"lon":5.36098,"is_reserved":false,"is_disabled":false,"rental_uris":{"android":"levelo://app?vid=f0b5ed94-a11c-400a-8308-32cf663997b6","ios":"levelo://app?vid=f0b5ed94-a11c-400a-8308-32cf663997b6"},"vehicle_type_id":"4","last_reported":1762604335,"current_range_meters":18000,"station_id":"cki0cbj6b192h4jlfktg","pricing_plan_id":"cebpf4jnsgd1na2vs0mg"},{"bike_id":"9fe92171-ab1a-4556-a4f8-3a460b8aa3d4","system_id":"levelo_inurba_marseille","lat":43.31363,"lon":5.385,"is_reserved":false,"is_disabled":false,"rental_uris":{"android":"levelo://app?vid=9fe92171-ab1a-4556-a4f8-3a460b8aa3d4","ios":"levelo://app?vid=9fe92171-ab1a-4556-a4f8-3a460b8aa3d4"},"vehicle_type_id":"4","last_reported":1762604335,"current_range_meters":18000,"station_id":"ce4bgt92rcd13ifvqcf0","pricing_plan_id":"cebpf4jnsgd1na2vs0mg"},{"bike_id":"37a171af-25ec-4d47-8bd2-314720bba587","system_id":"levelo_inurba_marseille","lat":43.217711,"lon":5.345973,"is_reserved":false,"is_disabled":false,"rental_uris":{"android":"levelo://app?vid=37a171af-25ec-4d47-8bd2-314720bba587","ios":"levelo://app?vid=37a171af-25ec-4d47-8bd2-314720bba587"},"vehicle_type_id":"4","last_reported":1762604335,"current_range_meters":18000,"station_id":"","pricing_plan_id":"cebpf4jnsgd1na2vs0mg"},{"bike_id":"e5e237e7-fde8-4a52-b074-02a8a61e9b4b","system_id":"levelo_inurba_marseille","lat":43.31489,"lon":5.37302,"is_reserved":false,"is_disabled":false,"rental_uris":{"android":"levelo://app?vid=e5e237e7-fde8-4a52-b074-02a8a61e9b4b","ios":"levelo://app?vid=e5e237e7-fde8-4a52-b074-02a8a61e9b4b"},"vehicle_type_id":"4","last_reported":1762604335,"current_range_meters":18000,"station_id":"ce4bgt12rcd13ifvqcd0","pricing_plan_id":"cebpf4jnsgd1na2vs0mg"},{"bike_id":"07a45692-c485-40fe-a2fa-8a4aea90b388","system_id":"levelo_inurba_marseille","lat":43.30119,"lon":5.38056,"is_reserved":false,"is_disabled":false,"rental_uris":{"android":"levelo://app?vid=07a45692-c485-40fe-a2fa-8a4aea90b388","ios":"levelo://app?vid=07a45692-c485-40fe-a2fa-8a4aea90b388"},"vehicle_type_id":"4","last_reported":1762604335,"current_range_meters":18000,"station_id":"ce4bgjp2rcd13ifvqbh0","pricing_plan_id":"cebpf4jnsgd1na2vs0mg"},{"bike_id":"d8a2355e-a776-4b85-8a3e-22368796688d","system_id":"levelo_inurba_marseille","lat":43.30799,"lon":5.36839,"is_reserved":false,"is_disabled":false,"rental_uris":{"android":"levelo://app?vid=d8a2355e-a776-4b85-8a3e-22368796688d","ios":"levelo://app?vid=d8a2355e-a776-4b85-8a3e-22368796688d"},"vehicle_type_id":"4","last_reported":1762604335,"current_range_meters":18000,"station_id":"","pricing_plan_id":"cebpf4jnsgd1na2vs0mg"},{"bike_id":"3585dd0d-06ba-43cf-a48a-a08f0c0af516","system_id":"levelo_inurba_marseille","lat":43.27366,"lon":5.36269,"is_reserved":false,"is_disabled":false,"rental_uris":{"android":"levelo://app?vid=3585dd0d-06ba-43cf-a48a-a08f0c0af516","ios":"levelo://app?vid=3585dd0d-06ba-43cf-a48a-a08f0c0af516"},"vehicle_type_id":"4","last_reported":1762604335,"current_range_meters":18800,"station_id":"ce4bhbh2rcd13ifvqeo0","pricing_plan_id":"cebpf4jnsgd1na2vs0mg"},{"bike_id":"bfa86130-c8c2-4288-b4ee-2605301a6159","system_id":"levelo_inurba_marseille","lat":43.305345,"lon":5.365583,"is_reserved":false,"is_disabled":false,"rental_uris":{"android":"levelo://app?vid=bfa86130-c8c2-4288-b4ee-2605301a6159","ios":"levelo://app?vid=bfa86130-c8c2-4288-b4ee-2605301a6159"},"vehicle_type_id":"4","last_reported":1762604335,"current_range_meters":18800,"station_id":"ce4bgs12rcd13ifvqcag","pricing_plan_id":"cebpf4jnsgd1na2vs0mg"},{"bike_id":"51ba70f7-722d-4117-830c-538d1caa8ddb","system_id":"levelo_inurba_marseille","lat":43.298441,"lon":5.362796,"is_reserved":false,"is_disabled":false,"rental_uris":{"android":"levelo://app?vid=51ba70f7-722d-4117-830c-538d1caa8ddb","ios":"levelo://app?vid=51ba70f7-722d-4117-830c-538d1caa8ddb"},"vehicle_type_id":"4","last_reported":1762604335,"current_range_meters":18800,"station_id":"ce4bgpp2rcd13ifvqc3g","pricing_plan_id":"cebpf4jnsgd1na2vs0mg"},{"bike_id":"f0a5793b-fc70-435f-801d-60aa052fac42","system_id":"levelo_inurba_marseille","lat":43.295747,"lon":5.375254,"is_reserved":false,"is_disabled":false,"rental_uris":{"android":"levelo://app?vid=f0a5793b-fc70-435f-801d-60aa052fac42","ios":"levelo://app?vid=f0a5793b-fc70-435f-801d-60aa052fac42"},"vehicle_type_id":"4","last_reported":1762604335,"current_range_meters":18800,"station_id":"ce4bgh92rcd13ifvqb50","pricing_plan_id":"cebpf4jnsgd1na2vs0mg"},{"bike_id":"8cdd3983-e96e-4e5e-9f5d-7bcbf6815701","system_id":"levelo_inurba_marseille","lat":43.21747,"lon":5.34604,"is_reserved":false,"is_disabled":false,"rental_uris":{"android":"levelo://app?vid=8cdd3983-e96e-4e5e-9f5d-7bcbf6815701","ios":"levelo://app?vid=8cdd3983-e96e-4e5e-9f5d-7bcbf6815701"},"vehicle_type_id":"4","last_reported":1762604335,"current_range_meters":18800,"station_id":"st_cvj6r9ubvosntc0bgbag","pricing_plan_id":"cebpf4jnsgd1na2vs0mg"},{"bike_id":"996fb7ea-b560-42e2-8013-7c6ef26dd422","system_id":"levelo_inurba_marseille","lat":43.30506,"lon":5.3711,"is_reserved":false,"is_disabled":false,"rental_uris":{"android":"levelo://app?vid=996fb7ea-b560-42e2-8013-7c6ef26dd422","ios":"levelo://app?vid=996fb7ea-b560-42e2-8013-7c6ef26dd422"},"vehicle_type_id":"4","last_reported":1762604335,"current_range_meters":19200,"station_id":"","pricing_plan_id":"cebpf4jnsgd1na2vs0mg"},{"bike_id":"424f1d37-74b3-4487-8510-d62435ffdce3","system_id":"levelo_inurba_marseille","lat":43.30795,"lon":5.37646,"is_reserved":false,"is_disabled":false,"rental_uris":{"android":"levelo://app?vid=424f1d37-74b3-4487-8510-d62435ffdce3","ios":"levelo://app?vid=424f1d37-74b3-4487-8510-d62435ffdce3"},"vehicle_type_id":"4","last_reported":1762604335,"current_range_meters":19200,"station_id":"ce4bgv92rcd13ifvqcq0","pricing_plan_id":"cebpf4jnsgd1na2vs0mg"},{"bike_id":"f4b3610c-ddfd-461d-9ea3-633c91510343","system_id":"levelo_inurba_marseille","lat":43.24629,"lon":5.43146,"is_reserved":false,"is_disabled":false,"rental_uris":{"android":"levelo://app?vid=f4b3610c-ddfd-461d-9ea3-633c91510343","ios":"levelo://app?vid=f4b3610c-ddfd-461d-9ea3-633c91510343"},"vehicle_type_id":"4","last_reported":1762604335,"current_range_meters":19200,"station_id":"st_d2m6c4gdas8pm72e190g","pricing_plan_id":"cebpf4jnsgd1na2vs0mg"},{"bike_id":"adc728c4-7d88-468c-be89-220c19218372","system_id":"levelo_inurba_marseille","lat":43.30967,"lon":5.38369,"is_reserved":false,"is_disabled":false,"rental_uris":{"android":"levelo://app?vid=adc728c4-7d88-468c-be89-220c19218372","ios":"levelo://app?vid=adc728c4-7d88-468c-be89-220c19218372"},"vehicle_type_id":"4","last_reported":1762604335,"current_range_meters":19200,"station_id":"","pricing_plan_id":"cebpf4jnsgd1na2vs0mg"},{"bike_id":"4674d9f4-3d44-468c-a3d6-5f45963b3858","system_id":"levelo_inurba_marseille","lat":43.21193,"lon":5.35074,"is_reserved":false,"is_disabled":false,"rental_uris":{"android":"levelo://app?vid=4674d9f4-3d44-468c-a3d6-5f45963b3858","ios":"levelo://app?vid=4674d9f4-3d44-468c-a3d6-5f45963b3858"},"vehicle_type_id":"4","last_reported":1762604335,"current_range_meters":19200,"station_id":"st_cvj6sg6p6f1abm77japg","pricing_plan_id":"cebpf4jnsgd1na2vs0mg"},{"bike_id":"345285ad-10a7-49ef-b97f-7faa01587ccf","system_id":"levelo_inurba_marseille","lat":43.24616,"lon":5.43167,"is_reserved":false,"is_disabled":false,"rental_uris":{"android":"levelo://app?vid=345285ad-10a7-49ef-b97f-7faa01587ccf","ios":"levelo://app?vid=345285ad-10a7-49ef-b97f-7faa01587ccf"},"vehicle_type_id":"4","last_reported":1762604335,"current_range_meters":19200,"station_id":"st_d2m6c4gdas8pm72e190g","pricing_plan_id":"cebpf4jnsgd1na2vs0mg"},{"bike_id":"f6bab9cf-4e89-4a3a-9ffa-06e0ab328d12","system_id":"levelo_inurba_marseille","lat":43.2902,"lon":5.38129,"is_reserved":false,"is_disabled":false,"rental_uris":{"android":"levelo://app?vid=f6bab9cf-4e89-4a3a-9ffa-06e0ab328d12","ios":"levelo://app?vid=f6bab9cf-4e89-4a3a-9ffa-06e0ab328d12"},"vehicle_type_id":"4","last_reported":1762604335,"current_range_meters":19200,"station_id":"ce4bh4p2rcd13ifvqe1g","pricing_plan_id":"cebpf4jnsgd1na2vs0mg"},{"bike_id":"3fd95134-3ed7-4fd0-9793-bc954e2e42ea","system_id":"levelo_inurba_marseille","lat":43.284341,"lon":5.375058,"is_reserved":false,"is_disabled":true,"rental_uris":{"android":"levelo://app?vid=3fd95134-3ed7-4fd0-9793-bc954e2e42ea","ios":"levelo://app?vid=3fd95134-3ed7-4fd0-9793-bc954e2e42ea"},"vehicle_type_id":"4","last_reported":1762604335,"current_range_meters":19200,"station_id":"ce4bh412rcd13ifvqds0","pricing_plan_id":"cebpf4jnsgd1na2vs0mg"},{"bike_id":"1fab51a3-eef6-4053-9db2-fae92aa0e463","system_id":"levelo_inurba_marseille","lat":43.24073,"lon":5.37764,"is_reserved":false,"is_disabled":false,"rental_uris":{"android":"levelo://app?vid=1fab51a3-eef6-4053-9db2-fae92aa0e463","ios":"levelo://app?vid=1fab51a3-eef6-4053-9db2-fae92aa0e463"},"vehicle_type_id":"4","last_reported":1762604335,"current_range_meters":19200,"station_id":"ce4bhnp2rcd13ifvqgvg","pricing_plan_id":"cebpf4jnsgd1na2vs0mg"},{"bike_id":"6e7d5eb4-ff05-4a68-85e4-3a6e51d61536","system_id":"levelo_inurba_marseille","lat":43.211939,"lon":5.350704,"is_reserved":false,"is_disabled":false,"rental_uris":{"android":"levelo://app?vid=6e7d5eb4-ff05-4a68-85e4-3a6e51d61536","ios":"levelo://app?vid=6e7d5eb4-ff05-4a68-85e4-3a6e51d61536"},"vehicle_type_id":"4","last_reported":1762604335,"current_range_meters":19200,"station_id":"st_cvj6r9ubvosntc0bgbag","pricing_plan_id":"cebpf4jnsgd1na2vs0mg"},{"bike_id":"87892e5c-fd28-4bab-8e25-44a09951ff38","system_id":"levelo_inurba_marseille","lat":43.24663,"lon":5.3816,"is_reserved":false,"is_disabled":false,"rental_uris":{"android":"levelo://app?vid=87892e5c-fd28-4bab-8e25-44a09951ff38","ios":"levelo://app?vid=87892e5c-fd28-4bab-8e25-44a09951ff38"},"vehicle_type_id":"4","last_reported":1762604335,"current_range_meters":19200,"station_id":"ce4bhih2rcd13ifvqfr0","pricing_plan_id":"cebpf4jnsgd1na2vs0mg"},{"bike_id":"6c3d7b65-20a3-4437-8ca5-afc20225effe","system_id":"levelo_inurba_marseille","lat":43.293094,"lon":5.371777,"is_reserved":false,"is_disabled":false,"rental_uris":{"android":"levelo://app?vid=6c3d7b65-20a3-4437-8ca5-afc20225effe","ios":"levelo://app?vid=6c3d7b65-20a3-4437-8ca5-afc20225effe"},"vehicle_type_id":"4","last_reported":1762604335,"current_range_meters":19200,"station_id":"ce4bgh92rcd13ifvqb40","pricing_plan_id":"cebpf4jnsgd1na2vs0mg"},{"bike_id":"8878b239-fd23-4ffc-919a-1488d7bf26df","system_id":"levelo_inurba_marseille","lat":43.26953,"lon":5.38953,"is_reserved":false,"is_disabled":false,"rental_uris":{"android":"levelo://app?vid=8878b239-fd23-4ffc-919a-1488d7bf26df","ios":"levelo://app?vid=8878b239-fd23-4ffc-919a-1488d7bf26df"},"vehicle_type_id":"4","last_reported":1762604335,"current_range_meters":19200,"station_id":"ce4bhhh2rcd13ifvqfl0","pricing_plan_id":"cebpf4jnsgd1na2vs0mg"},{"bike_id":"d2b00182-3cd1-4f66-891c-50f6eb216e7d","system_id":"levelo_inurba_marseille","lat":43.25865,"lon":5.39898,"is_reserved":false,"is_disabled":false,"rental_uris":{"android":"levelo://app?vid=d2b00182-3cd1-4f66-891c-50f6eb216e7d","ios":"levelo://app?vid=d2b00182-3cd1-4f66-891c-50f6eb216e7d"},"vehicle_type_id":"4","last_reported":1762604335,"current_range_meters":19200,"station_id":"ce4bhl92rcd13ifvqghg","pricing_plan_id":"cebpf4jnsgd1na2vs0mg"},{"bike_id":"45da4fa5-ca83-4276-9049-29a4c146e094","system_id":"levelo_inurba_marseille","lat":43.25497,"lon":5.37683,"is_reserved":false,"is_disabled":false,"rental_uris":{"android":"levelo://app?vid=45da4fa5-ca83-4276-9049-29a4c146e094","ios":"levelo://app?vid=45da4fa5-ca83-4276-9049-29a4c146e094"},"vehicle_type_id":"4","last_reported":1762604335,"current_range_meters":19200,"station_id":"ce4bhh12rcd13ifvqff0","pricing_plan_id":"cebpf4jnsgd1na2vs0mg"},{"bike_id":"f4631bc2-f6ef-4dfb-bc8e-46a4d590fb08","system_id":"levelo_inurba_marseille","lat":43.24075,"lon":5.37747,"is_reserved":false,"is_disabled":false,"rental_uris":{"android":"levelo://app?vid=f4631bc2-f6ef-4dfb-bc8e-46a4d590fb08","ios":"levelo://app?vid=f4631bc2-f6ef-4dfb-bc8e-46a4d590fb08"},"vehicle_type_id":"4","last_reported":1762604335,"current_range_meters":19200,"station_id":"ce4bhnp2rcd13ifvqgvg","pricing_plan_id":"cebpf4jnsgd1na2vs0mg"},{"bike_id":"8a02208e-294e-4e29-b873-5152ecc70a10","system_id":"levelo_inurba_marseille","lat":43.22567,"lon":5.41636,"is_reserved":false,"is_disabled":false,"rental_uris":{"android":"levelo://app?vid=8a02208e-294e-4e29-b873-5152ecc70a10","ios":"levelo://app?vid=8a02208e-294e-4e29-b873-5152ecc70a10"},"vehicle_type_id":"4","last_reported":1762604335,"current_range_meters":19200,"station_id":"st_d2o4gvlbi1j2169b742g","pricing_plan_id":"cebpf4jnsgd1na2vs0mg"},{"bike_id":"c59a4c0b-541a-4cf4-ae18-597390d77672","system_id":"levelo_inurba_marseille","lat":43.24067,"lon":5.37754,"is_reserved":false,"is_disabled":false,"rental_uris":{"android":"levelo://app?vid=c59a4c0b-541a-4cf4-ae18-597390d77672","ios":"levelo://app?vid=c59a4c0b-541a-4cf4-ae18-597390d77672"},"vehicle_type_id":"4","last_reported":1762604335,"current_range_meters":19200,"station_id":"ce4bhnp2rcd13ifvqgvg","pricing_plan_id":"cebpf4jnsgd1na2vs0mg"},{"bike_id":"5f51530e-ad6d-4525-9dbe-df8ccdff7435","system_id":"levelo_inurba_marseille","lat":43.316111,"lon":5.38199,"is_reserved":false,"is_disabled":false,"rental_uris":{"android":"levelo://app?vid=5f51530e-ad6d-4525-9dbe-df8ccdff7435","ios":"levelo://app?vid=5f51530e-ad6d-4525-9dbe-df8ccdff7435"},"vehicle_type_id":"4","last_reported":1762604335,"current_range_meters":19200,"station_id":"","pricing_plan_id":"cebpf4jnsgd1na2vs0mg"},{"bike_id":"c20140d9-42e7-4f8a-af33-0379b6c3bab1","system_id":"levelo_inurba_marseille","lat":43.24055,"lon":5.37773,"is_reserved":false,"is_disabled":false,"rental_uris":{"android":"levelo://app?vid=c20140d9-42e7-4f8a-af33-0379b6c3bab1","ios":"levelo://app?vid=c20140d9-42e7-4f8a-af33-0379b6c3bab1"},"vehicle_type_id":"4","last_reported":1762604335,"current_range_meters":19600,"station_id":"ce4bhnp2rcd13ifvqgvg","pricing_plan_id":"cebpf4jnsgd1na2vs0mg"},{"bike_id":"edbab5ea-5fbf-43f9-9998-2230b6aa2905","system_id":"levelo_inurba_marseille","lat":43.2848,"lon":5.38425,"is_reserved":false,"is_disabled":false,"rental_uris":{"android":"levelo://app?vid=edbab5ea-5fbf-43f9-9998-2230b6aa2905","ios":"levelo://app?vid=edbab5ea-5fbf-43f9-9998-2230b6aa2905"},"vehicle_type_id":"4","last_reported":1762604335,"current_range_meters":19600,"station_id":"","pricing_plan_id":"cebpf4jnsgd1na2vs0mg"},{"bike_id":"f114550f-0e97-467f-a15f-491fe7ea5021","system_id":"levelo_inurba_marseille","lat":43.292994,"lon":5.371737,"is_reserved":false,"is_disabled":true,"rental_uris":{"android":"levelo://app?vid=f114550f-0e97-467f-a15f-491fe7ea5021","ios":"levelo://app?vid=f114550f-0e97-467f-a15f-491fe7ea5021"},"vehicle_type_id":"4","last_reported":1762604335,"current_range_meters":19600,"station_id":"ce4bgh92rcd13ifvqb40","pricing_plan_id":"cebpf4jnsgd1na2vs0mg"},{"bike_id":"b998add9-5229-481d-ab9e-4c5246b7b4e4","system_id":"levelo_inurba_marseille","lat":43.23186,"lon":5.39991,"is_reserved":false,"is_disabled":false,"rental_uris":{"android":"levelo://app?vid=b998add9-5229-481d-ab9e-4c5246b7b4e4","ios":"levelo://app?vid=b998add9-5229-481d-ab9e-4c5246b7b4e4"},"vehicle_type_id":"4","last_reported":1762604335,"current_range_meters":19600,"station_id":"ce4bhn12rcd13ifvqgqg","pricing_plan_id":"cebpf4jnsgd1na2vs0mg"},{"bike_id":"a5a51bf9-9908-420d-8212-6ef8d2db5d39","system_id":"levelo_inurba_marseille","lat":43.273835,"lon":5.362583,"is_reserved":false,"is_disabled":false,"rental_uris":{"android":"levelo://app?vid=a5a51bf9-9908-420d-8212-6ef8d2db5d39","ios":"levelo://app?vid=a5a51bf9-9908-420d-8212-6ef8d2db5d39"},"vehicle_type_id":"4","last_reported":1762604335,"current_range_meters":19600,"station_id":"ce4bhbh2rcd13ifvqeo0","pricing_plan_id":"cebpf4jnsgd1na2vs0mg"},{"bike_id":"0624675e-eee0-4321-99e1-32672173e901","system_id":"levelo_inurba_marseille","lat":43.24152,"lon":5.36408,"is_reserved":false,"is_disabled":false,"rental_uris":{"android":"levelo://app?vid=0624675e-eee0-4321-99e1-32672173e901","ios":"levelo://app?vid=0624675e-eee0-4321-99e1-32672173e901"},"vehicle_type_id":"4","last_reported":1762604335,"current_range_meters":19600,"station_id":"cpo36qri1sfpv3e86is0","pricing_plan_id":"cebpf4jnsgd1na2vs0mg"},{"bike_id":"46547bda-1f80-4ae8-b053-c232c2a69d09","system_id":"levelo_inurba_marseille","lat":43.29272,"lon":5.40117,"is_reserved":false,"is_disabled":false,"rental_uris":{"android":"levelo://app?vid=46547bda-1f80-4ae8-b053-c232c2a69d09","ios":"levelo://app?vid=46547bda-1f80-4ae8-b053-c232c2a69d09"},"vehicle_type_id":"4","last_reported":1762604335,"current_range_meters":19600,"station_id":"ce4bh312rcd13ifvqdk0","pricing_plan_id":"cebpf4jnsgd1na2vs0mg"},{"bike_id":"503498f9-94e1-4646-a638-e31a13f180be","system_id":"levelo_inurba_marseille","lat":43.29585,"lon":5.36735,"is_reserved":false,"is_disabled":false,"rental_uris":{"android":"levelo://app?vid=503498f9-94e1-4646-a638-e31a13f180be","ios":"levelo://app?vid=503498f9-94e1-4646-a638-e31a13f180be"},"vehicle_type_id":"4","last_reported":1762604335,"current_range_meters":19600,"station_id":"ce4bgph2rcd13ifvqc2g","pricing_plan_id":"cebpf4jnsgd1na2vs0mg"},{"bike_id":"c792c17e-e8c7-4d59-8123-9f60a1223ebc","system_id":"levelo_inurba_marseille","lat":43.28859,"lon":5.35844,"is_reserved":false,"is_disabled":false,"rental_uris":{"android":"levelo://app?vid=c792c17e-e8c7-4d59-8123-9f60a1223ebc","ios":"levelo://app?vid=c792c17e-e8c7-4d59-8123-9f60a1223ebc"},"vehicle_type_id":"4","last_reported":1762604335,"current_range_meters":19600,"station_id":"ce4bhb12rcd13ifvqem0","pricing_plan_id":"cebpf4jnsgd1na2vs0mg"},{"bike_id":"1acb33f3-8213-40fe-944c-e135d34695db","system_id":"levelo_inurba_marseille","lat":43.286,"lon":5.39372,"is_reserved":false,"is_disabled":false,"rental_uris":{"android":"levelo://app?vid=1acb33f3-8213-40fe-944c-e135d34695db","ios":"levelo://app?vid=1acb33f3-8213-40fe-944c-e135d34695db"},"vehicle_type_id":"4","last_reported":1762604335,"current_range_meters":19600,"station_id":"","pricing_plan_id":"cebpf4jnsgd1na2vs0mg"},{"bike_id":"9ab30062-ed48-4d4d-a9e4-89ab35260600","system_id":"levelo_inurba_marseille","lat":43.24666,"lon":5.38154,"is_reserved":false,"is_disabled":false,"rental_uris":{"android":"levelo://app?vid=9ab30062-ed48-4d4d-a9e4-89ab35260600","ios":"levelo://app?vid=9ab30062-ed48-4d4d-a9e4-89ab35260600"},"vehicle_type_id":"4","last_reported":1762604335,"current_range_meters":20000,"station_id":"ce4bhih2rcd13ifvqfr0","pricing_plan_id":"cebpf4jnsgd1na2vs0mg"},{"bike_id":"18c5213b-c6ad-4470-810c-170c1ad4d217","system_id":"levelo_inurba_marseille","lat":43.21748,"lon":5.34599,"is_reserved":false,"is_disabled":false,"rental_uris":{"android":"levelo://app?vid=18c5213b-c6ad-4470-810c-170c1ad4d217","ios":"levelo://app?vid=18c5213b-c6ad-4470-810c-170c1ad4d217"},"vehicle_type_id":"4","last_reported":1762604335,"current_range_meters":20000,"station_id":"st_cvj6r9ubvosntc0bgbag","pricing_plan_id":"cebpf4jnsgd1na2vs0mg"},{"bike_id":"fee4f445-bba8-4be4-a3da-4decf51271b2","system_id":"levelo_inurba_marseille","lat":43.31836,"lon":5.40719,"is_reserved":false,"is_disabled":false,"rental_uris":{"android":"levelo://app?vid=fee4f445-bba8-4be4-a3da-4decf51271b2","ios":"levelo://app?vid=fee4f445-bba8-4be4-a3da-4decf51271b2"},"vehicle_type_id":"4","last_reported":1762604335,"current_range_meters":20000,"station_id":"","pricing_plan_id":"cebpf4jnsgd1na2vs0mg"},{"bike_id":"a0e54e31-a279-4abc-9e71-e56764854bff","system_id":"levelo_inurba_marseille","lat":43.27367,"lon":5.36281,"is_reserved":false,"is_disabled":false,"rental_uris":{"android":"levelo://app?vid=a0e54e31-a279-4abc-9e71-e56764854bff","ios":"levelo://app?vid=a0e54e31-a279-4abc-9e71-e56764854bff"},"vehicle_type_id":"4","last_reported":1762604335,"current_range_meters":20000,"station_id":"ce4bhbh2rcd13ifvqeo0","pricing_plan_id":"cebpf4jnsgd1na2vs0mg"},{"bike_id":"704b4370-f76d-4a66-a073-797e4191974e","system_id":"levelo_inurba_marseille","lat":43.28613,"lon":5.35106,"is_reserved":false,"is_disabled":false,"rental_uris":{"android":"levelo://app?vid=704b4370-f76d-4a66-a073-797e4191974e","ios":"levelo://app?vid=704b4370-f76d-4a66-a073-797e4191974e"},"vehicle_type_id":"4","last_reported":1762604335,"current_range_meters":20000,"station_id":"ce4bhch2rcd13ifvqeug","pricing_plan_id":"cebpf4jnsgd1na2vs0mg"},{"bike_id":"e8b6d1b2-9aeb-4db2-a322-897007e252db","system_id":"levelo_inurba_marseille","lat":43.3005,"lon":5.36631,"is_reserved":false,"is_disabled":false,"rental_uris":{"android":"levelo://app?vid=e8b6d1b2-9aeb-4db2-a322-897007e252db","ios":"levelo://app?vid=e8b6d1b2-9aeb-4db2-a322-897007e252db"},"vehicle_type_id":"4","last_reported":1762604335,"current_range_meters":20000,"station_id":"","pricing_plan_id":"cebpf4jnsgd1na2vs0mg"},{"bike_id":"da3bbc05-9617-4150-83d0-10b053fb4d14","system_id":"levelo_inurba_marseille","lat":43.30133,"lon":5.37419,"is_reserved":false,"is_disabled":false,"rental_uris":{"android":"levelo://app?vid=da3bbc05-9617-4150-83d0-10b053fb4d14","ios":"levelo://app?vid=da3bbc05-9617-4150-83d0-10b053fb4d14"},"vehicle_type_id":"4","last_reported":1762604335,"current_range_meters":20000,"station_id":"ce4bgs92rcd13ifvqcc0","pricing_plan_id":"cebpf4jnsgd1na2vs0mg"},{"bike_id":"d960de7a-5ef1-4dee-ac7c-401f4c178df2","system_id":"levelo_inurba_marseille","lat":43.28605,"lon":5.37075,"is_reserved":false,"is_disabled":false,"rental_uris":{"android":"levelo://app?vid=d960de7a-5ef1-4dee-ac7c-401f4c178df2","ios":"levelo://app?vid=d960de7a-5ef1-4dee-ac7c-401f4c178df2"},"vehicle_type_id":"4","last_reported":1762604335,"current_range_meters":20000,"station_id":"ce4bht12rcd13ifvqi60","pricing_plan_id":"cebpf4jnsgd1na2vs0mg"},{"bike_id":"e0e77179-3fe8-48ed-b656-391268700d44","system_id":"levelo_inurba_marseille","lat":43.30131,"lon":5.38782,"is_reserved":false,"is_disabled":false,"rental_uris":{"android":"levelo://app?vid=e0e77179-3fe8-48ed-b656-391268700d44","ios":"levelo://app?vid=e0e77179-3fe8-48ed-b656-391268700d44"},"vehicle_type_id":"4","last_reported":1762604335,"current_range_meters":20000,"station_id":"ce4bghh2rcd13ifvqb60","pricing_plan_id":"cebpf4jnsgd1na2vs0mg"},{"bike_id":"aee9b602-481e-422e-a60c-fa08b448319c","system_id":"levelo_inurba_marseille","lat":43.33024,"lon":5.39034,"is_reserved":false,"is_disabled":false,"rental_uris":{"android":"levelo://app?vid=aee9b602-481e-422e-a60c-fa08b448319c","ios":"levelo://app?vid=aee9b602-481e-422e-a60c-fa08b448319c"},"vehicle_type_id":"4","last_reported":1762604335,"current_range_meters":20000,"station_id":"ce4bhr92rcd13ifvqhrg","pricing_plan_id":"cebpf4jnsgd1na2vs0mg"},{"bike_id":"e9738884-8494-471f-b581-c7c553bcd58e","system_id":"levelo_inurba_marseille","lat":43.29847,"lon":5.36275,"is_reserved":false,"is_disabled":false,"rental_uris":{"android":"levelo://app?vid=e9738884-8494-471f-b581-c7c553bcd58e","ios":"levelo://app?vid=e9738884-8494-471f-b581-c7c553bcd58e"},"vehicle_type_id":"4","last_reported":1762604335,"current_range_meters":20400,"station_id":"ce4bgpp2rcd13ifvqc3g","pricing_plan_id":"cebpf4jnsgd1na2vs0mg"},{"bike_id":"ec6340f8-7727-41b8-813c-c4fa4f858f84","system_id":"levelo_inurba_marseille","lat":43.301517,"lon":5.380844,"is_reserved":false,"is_disabled":false,"rental_uris":{"android":"levelo://app?vid=ec6340f8-7727-41b8-813c-c4fa4f858f84","ios":"levelo://app?vid=ec6340f8-7727-41b8-813c-c4fa4f858f84"},"vehicle_type_id":"4","last_reported":1762604335,"current_range_meters":20400,"station_id":"ce4bgjp2rcd13ifvqbh0","pricing_plan_id":"cebpf4jnsgd1na2vs0mg"},{"bike_id":"2b077b78-5a8c-42b8-afe3-a4166193f769","system_id":"levelo_inurba_marseille","lat":43.301226,"lon":5.431099,"is_reserved":false,"is_disabled":false,"rental_uris":{"android":"levelo://app?vid=2b077b78-5a8c-42b8-afe3-a4166193f769","ios":"levelo://app?vid=2b077b78-5a8c-42b8-afe3-a4166193f769"},"vehicle_type_id":"4","last_reported":1762604335,"current_range_meters":20400,"station_id":"st_d3js3co5814s73ftftug","pricing_plan_id":"cebpf4jnsgd1na2vs0mg"},