{"last_updated":1744816264,"ttl":60,"version":"2.2","data":{"bikes":[{"bike_id":"b2d45f36-0a7b-472e-b1fd-c8b46b0024fb","system_id":"levelo_inurba_marseille","lat":43.28697,"lon":5.39985,"is_reserved":false,"is_disabled":false,"rental_uris":{"android":"levelo://app?vid=b2d45f36-0a7b-472e-b1fd-c8b46b0024fb","ios":"levelo://app?vid=b2d45f36-0a7b-472e-b1fd-c8b46b0024fb"},"vehicle_type_id":"4","last_reported":1744816265,"current_range_meters":4000,"station_id":"ce4bho92rcd13ifvqh3g","pricing_plan_id":"cebpf4jnsgd1na2vs0mg"},{"bike_id":"c39162ed-7565-40ba-a953-42de5f892549","system_id":"levelo_inurba_marseille","lat":43.29538,"lon":5.38542,"is_reserved":false,"is_disabled":false,"rental_uris":{"android":"levelo://app?vid=c39162ed-7565-40ba-a953-42de5f892549","ios":"levelo://app?vid=c39162ed-7565-40ba-a953-42de5f892549"},"vehicle_type_id":"4","last_reported":1744816265,"current_range_meters":4400,"station_id":"ce4bgih2rcd13ifvqba0","pricing_plan_id":"cebpf4jnsgd1na2vs0mg"},{"bike_id":"61be9122-f656-47be-94ab-0c0227f8c14a","system_id":"levelo_inurba_marseille","lat":43.27954,"lon":5.41038,"is_reserved":false,"is_disabled":false,"rental_uris":{"android":"levelo://app?vid=61be9122-f656-47be-94ab-0c0227f8c14a","ios":"levelo://app?vid=61be9122-f656-47be-94ab-0c0227f8c14a"},"vehicle_type_id":"4","last_reported":1744816265,"current_range_meters":4800,"station_id":"ce4bhnp2rcd13ifvqh0g","pricing_plan_id":"cebpf4jnsgd1na2vs0mg"},{"bike_id":"c273cedc-5337-4dec-91b4-1636fd7d09ad","system_id":"levelo_inurba_marseille","lat":43.31416,"lon":5.3759,"is_reserved":false,"is_disabled":false,"rental_uris":{"android":"levelo://app?vid=c273cedc-5337-4dec-91b4-1636fd7d09ad","ios":"levelo://app?vid=c273cedc-5337-4dec-91b4-1636fd7d09ad"},"vehicle_type_id":"4","last_reported":1744816265,"current_range_meters":5600,"station_id":"","pricing_plan_id":"cebpf4jnsgd1na2vs0mg"},{"bike_id":"409e5017-b56e-40ca-874c-c30a98f6a2c5","system_id":"levelo_inurba_marseille","lat":43.28853,"lon":5.39311,"is_reserved":false,"is_disabled":false,"rental_uris":{"android":"levelo://app?vid=409e5017-b56e-40ca-874c-c30a98f6a2c5","ios":"levelo://app?vid=409e5017-b56e-40ca-874c-c30a98f6a2c5"},"vehicle_type_id":"4","last_reported":1744816265,"current_range_meters":6000,"station_id":"ce4bh2p2rcd13ifvqdi0","pricing_plan_id":"cebpf4jnsgd1na2vs0mg"},{"bike_id":"27a55245-8dd2-4f1a-af63-95a9d7b71690","system_id":"levelo_inurba_marseille","lat":43.31074,"lon":5.37858,"is_reserved":false,"is_disabled":false,"rental_uris":{"android":"levelo://app?vid=27a55245-8dd2-4f1a-af63-95a9d7b71690","ios":"levelo://app?vid=27a55245-8dd2-4f1a-af63-95a9d7b71690"},"vehicle_type_id":"4","last_reported":1744816265,"current_range_meters":6400,"station_id":"","pricing_plan_id":"cebpf4jnsgd1na2vs0mg"},{"bike_id":"60c45f66-30a2-4a8c-9b1b-e164cdf3eb82","system_id":"levelo_inurba_marseille","lat":43.30152,"lon":5.38095,"is_reserved":false,"is_disabled":false,"rental_uris":{"android":"levelo://app?vid=60c45f66-30a2-4a8c-9b1b-e164cdf3eb82","ios":"levelo://app?vid=60c45f66-30a2-4a8c-9b1b-e164cdf3eb82"},"vehicle_type_id":"4","last_reported":1744816265,"current_range_meters":6400,"station_id":"ce4bgjp2rcd13ifvqbh0","pricing_plan_id":"cebpf4jnsgd1na2vs0mg"},{"bike_id":"1143766b-8738-40dc-bacd-f3a296b1d79f","system_id":"levelo_inurba_marseille","lat":43.29526,"lon":5.39058,"is_reserved":false,"is_disabled":false,"rental_uris":{"android":"levelo://app?vid=1143766b-8738-40dc-bacd-f3a296b1d79f","ios":"levelo://app?vid=1143766b-8738-40dc-bacd-f3a296b1d79f"},"vehicle_type_id":"4","last_reported":1744816265,"current_range_meters":6400,"station_id":"ce4bh3p2rcd13ifvqdp0","pricing_plan_id":"cebpf4jnsgd1na2vs0mg"},{"bike_id":"eaf6328d-11b9-490d-8905-351ca208c8af","system_id":"levelo_inurba_marseille","lat":43.28477,"lon":5.3843,"is_reserved":false,"is_disabled":false,"rental_uris":{"android":"levelo://app?vid=eaf6328d-11b9-490d-8905-351ca208c8af","ios":"levelo://app?vid=eaf6328d-11b9-490d-8905-351ca208c8af"},"vehicle_type_id":"4","last_reported":1744816265,"current_range_meters":6800,"station_id":"ce4bh512rcd13ifvqe3g","pricing_plan_id":"cebpf4jnsgd1na2vs0mg"},{"bike_id":"a0636e31-c89e-4ae1-aea4-880988d0da0e","system_id":"levelo_inurba_marseille","lat":43.29557,"lon":5.42288,"is_reserved":false,"is_disabled":false,"rental_uris":{"android":"levelo://app?vid=a0636e31-c89e-4ae1-aea4-880988d0da0e","ios":"levelo://app?vid=a0636e31-c89e-4ae1-aea4-880988d0da0e"},"vehicle_type_id":"4","last_reported":1744816265,"current_range_meters":6800,"station_id":"ce4bhph2rcd13ifvqhdg","pricing_plan_id":"cebpf4jnsgd1na2vs0mg"},{"bike_id":"b146160c-5340-4991-9225-f12e90324c04","system_id":"levelo_inurba_marseille","lat":43.29937,"lon":5.3649,"is_reserved":false,"is_disabled":false,"rental_uris":{"android":"levelo://app?vid=b146160c-5340-4991-9225-f12e90324c04","ios":"levelo://app?vid=b146160c-5340-4991-9225-f12e90324c04"},"vehicle_type_id":"4","last_reported":1744816265,"current_range_meters":6800,"station_id":"ce4bgm92rcd13ifvqbr0","pricing_plan_id":"cebpf4jnsgd1na2vs0mg"},{"bike_id":"b7ab99ba-94bb-4274-aca7-e6131d0e5ab1","system_id":"levelo_inurba_marseille","lat":43.24175,"lon":5.36406,"is_reserved":false,"is_disabled":false,"rental_uris":{"android":"levelo://app?vid=b7ab99ba-94bb-4274-aca7-e6131d0e5ab1","ios":"levelo://app?vid=b7ab99ba-94bb-4274-aca7-e6131d0e5ab1"},"vehicle_type_id":"4","last_reported":1744816265,"current_range_meters":7200,"station_id":"cpo36qri1sfpv3e86is0","pricing_plan_id":"cebpf4jnsgd1na2vs0mg"},{"bike_id":"25e230f4-e34c-445f-87cd-877f61101b31","system_id":"levelo_inurba_marseille","lat":43.31286,"lon":5.36886,"is_reserved":false,"is_disabled":false,"rental_uris":{"android":"levelo://app?vid=25e230f4-e34c-445f-87cd-877f61101b31","ios":"levelo://app?vid=25e230f4-e34c-445f-87cd-877f61101b31"},"vehicle_type_id":"4","last_reported":1744816265,"current_range_meters":7200,"station_id":"ce4bgl92rcd13ifvqbq0","pricing_plan_id":"cebpf4jnsgd1na2vs0mg"},{"bike_id":"f3389a1b-2719-4af7-8855-0abf17cd038d","system_id":"levelo_inurba_marseille","lat":43.23147,"lon":5.43717,"is_reserved":false,"is_disabled":false,"rental_uris":{"android":"levelo://app?vid=f3389a1b-2719-4af7-8855-0abf17cd038d","ios":"levelo://app?vid=f3389a1b-2719-4af7-8855-0abf17cd038d"},"vehicle_type_id":"4","last_reported":1744816265,"current_range_meters":8000,"station_id":"ce4bhmp2rcd13ifvqgog","pricing_plan_id":"cebpf4jnsgd1na2vs0mg"},{"bike_id":"575d3280-f1b1-4d58-9871-ee2b1e88b486","system_id":"levelo_inurba_marseille","lat":43.26807,"lon":5.40257,"is_reserved":false,"is_disabled":false,"rental_uris":{"android":"levelo://app?vid=575d3280-f1b1-4d58-9871-ee2b1e88b486","ios":"levelo://app?vid=575d3280-f1b1-4d58-9871-ee2b1e88b486"},"vehicle_type_id":"4","last_reported":1744816265,"current_range_meters":8400,"station_id":"ce501612rcd8frsf0b60","pricing_plan_id":"cebpf4jnsgd1na2vs0mg"},{"bike_id":"0b6615ca-d4c4-4780-90d6-a9785ed39f0e","system_id":"levelo_inurba_marseille","lat":43.269992,"lon":5.393028,"is_reserved":false,"is_disabled":false,"rental_uris":{"android":"levelo://app?vid=0b6615ca-d4c4-4780-90d6-a9785ed39f0e","ios":"levelo://app?vid=0b6615ca-d4c4-4780-90d6-a9785ed39f0e"},"vehicle_type_id":"4","last_reported":1744816265,"current_range_meters":8400,"station_id":"cjm6bp8fraef2m0cb0m0","pricing_plan_id":"cebpf4jnsgd1na2vs0mg"},{"bike_id":"376f754b-7bba-4962-babe-b49b1468281c","system_id":"levelo_inurba_marseille","lat":43.30921,"lon":5.40148,"is_reserved":false,"is_disabled":true,"rental_uris":{"android":"levelo://app?vid=376f754b-7bba-4962-babe-b49b1468281c","ios":"levelo://app?vid=376f754b-7bba-4962-babe-b49b1468281c"},"vehicle_type_id":"4","last_reported":1744816265,"current_range_meters":8400,"station_id":"ce4bgvp2rcd13ifvqct0","pricing_plan_id":"cebpf4jnsgd1na2vs0mg"},{"bike_id":"f443cfdb-db2e-4f4b-a88d-615075e28818","system_id":"levelo_inurba_marseille","lat":43.30552,"lon":5.36545,"is_reserved":false,"is_disabled":false,"rental_uris":{"android":"levelo://app?vid=f443cfdb-db2e-4f4b-a88d-615075e28818","ios":"levelo://app?vid=f443cfdb-db2e-4f4b-a88d-615075e28818"},"vehicle_type_id":"4","last_reported":1744816265,"current_range_meters":8800,"station_id":"ce4bgs12rcd13ifvqcag","pricing_plan_id":"cebpf4jnsgd1na2vs0mg"},{"bike_id":"c5dd7479-a2d3-42e0-8f4b-5c847ca5f7cc","system_id":"levelo_inurba_marseille","lat":43.24804,"lon":5.37446,"is_reserved":false,"is_disabled":false,"rental_uris":{"android":"levelo://app?vid=c5dd7479-a2d3-42e0-8f4b-5c847ca5f7cc","ios":"levelo://app?vid=c5dd7479-a2d3-42e0-8f4b-5c847ca5f7cc"},"vehicle_type_id":"4","last_reported":1744816265,"current_range_meters":8800,"station_id":"ce4bhgh2rcd13ifvqfb0","pricing_plan_id":"cebpf4jnsgd1na2vs0mg"},{"bike_id":"a99bbcaf-7b08-448a-a597-c957f19745f2","system_id":"levelo_inurba_marseille","lat":43.29262,"lon":5.38428,"is_reserved":false,"is_disabled":false,"rental_uris":{"android":"levelo://app?vid=a99bbcaf-7b08-448a-a597-c957f19745f2","ios":"levelo://app?vid=a99bbcaf-7b08-448a-a597-c957f19745f2"},"vehicle_type_id":"4","last_reported":1744816265,"current_range_meters":8800,"station_id":"ce4bh692rcd13ifvqea0","pricing_plan_id":"cebpf4jnsgd1na2vs0mg"},{"bike_id":"2797dcdb-c4e1-48b2-82d6-5677d371fa39","system_id":"levelo_inurba_marseille","lat":43.24192,"lon":5.36405,"is_reserved":false,"is_disabled":false,"rental_uris":{"android":"levelo://app?vid=2797dcdb-c4e1-48b2-82d6-5677d371fa39","ios":"levelo://app?vid=2797dcdb-c4e1-48b2-82d6-5677d371fa39"},"vehicle_type_id":"4","last_reported":1744816265,"current_range_meters":8800,"station_id":"cpo36qri1sfpv3e86is0","pricing_plan_id":"cebpf4jnsgd1na2vs0mg"},{"bike_id":"0e71401f-211e-41d3-b544-82fb663532e4","system_id":"levelo_inurba_marseille","lat":43.32458,"lon":5.36593,"is_reserved":false,"is_disabled":false,"rental_uris":{"android":"levelo://app?vid=0e71401f-211e-41d3-b544-82fb663532e4","ios":"levelo://app?vid=0e71401f-211e-41d3-b544-82fb663532e4"},"vehicle_type_id":"4","last_reported":1744816265,"current_range_meters":8800,"station_id":"ce4bhs12rcd13ifvqhvg","pricing_plan_id":"cebpf4jnsgd1na2vs0mg"},{"bike_id":"f9ce9565-3c06-45a5-a09b-c93917a98f53","system_id":"levelo_inurba_marseille","lat":43.3055,"lon":5.36532,"is_reserved":false,"is_disabled":false,"rental_uris":{"android":"levelo://app?vid=f9ce9565-3c06-45a5-a09b-c93917a98f53","ios":"levelo://app?vid=f9ce9565-3c06-45a5-a09b-c93917a98f53"},"vehicle_type_id":"4","last_reported":1744816265,"current_range_meters":8800,"station_id":"ce4bgs12rcd13ifvqcag","pricing_plan_id":"cebpf4jnsgd1na2vs0mg"},{"bike_id":"93bf955c-9109-4a0d-8ca3-d1daf84e4da4","system_id":"levelo_inurba_marseille","lat":43.29421,"lon":5.38631,"is_reserved":false,"is_disabled":false,"rental_uris":{"android":"levelo://app?vid=93bf955c-9109-4a0d-8ca3-d1daf84e4da4","ios":"levelo://app?vid=93bf955c-9109-4a0d-8ca3-d1daf84e4da4"},"vehicle_type_id":"4","last_reported":1744816265,"current_range_meters":9200,"station_id":"ce4bh2h2rcd13ifvqdh0","pricing_plan_id":"cebpf4jnsgd1na2vs0mg"},{"bike_id":"45c6b552-68fd-454d-84d3-cf79221aaee4","system_id":"levelo_inurba_marseille","lat":43.29851,"lon":5.40899,"is_reserved":false,"is_disabled":false,"rental_uris":{"android":"levelo://app?vid=45c6b552-68fd-454d-84d3-cf79221aaee4","ios":"levelo://app?vid=45c6b552-68fd-454d-84d3-cf79221aaee4"},"vehicle_type_id":"4","last_reported":1744816265,"current_range_meters":9600,"station_id":"","pricing_plan_id":"cebpf4jnsgd1na2vs0mg"},{"bike_id":"1c0c17d4-38c5-4a1c-8a19-a752fa5d90ed","system_id":"levelo_inurba_marseille","lat":43.23182,"lon":5.39986,"is_reserved":false,"is_disabled":false,"rental_uris":{"android":"levelo://app?vid=1c0c17d4-38c5-4a1c-8a19-a752fa5d90ed","ios":"levelo://app?vid=1c0c17d4-38c5-4a1c-8a19-a752fa5d90ed"},"vehicle_type_id":"4","last_reported":1744816265,"current_range_meters":9600,"station_id":"ce4bhn12rcd13ifvqgqg","pricing_plan_id":"cebpf4jnsgd1na2vs0mg"},{"bike_id":"acb4a7ae-0a25-49b2-bb8f-595369dfa626","system_id":"levelo_inurba_marseille","lat":43.265189,"lon":5.395155,"is_reserved":false,"is_disabled":false,"rental_uris":{"android":"levelo://app?vid=acb4a7ae-0a25-49b2-bb8f-595369dfa626","ios":"levelo://app?vid=acb4a7ae-0a25-49b2-bb8f-595369dfa626"},"vehicle_type_id":"4","last_reported":1744816265,"current_range_meters":9600,"station_id":"ce4bhnh2rcd13ifvqgtg","pricing_plan_id":"cebpf4jnsgd1na2vs0mg"},{"bike_id":"7eacb872-0584-4b06-8fad-feb612d3799a","system_id":"levelo_inurba_marseille","lat":43.298,"lon":5.38082,"is_reserved":false,"is_disabled":false,"rental_uris":{"android":"levelo://app?vid=7eacb872-0584-4b06-8fad-feb612d3799a","ios":"levelo://app?vid=7eacb872-0584-4b06-8fad-feb612d3799a"},"vehicle_type_id":"4","last_reported":1744816265,"current_range_meters":10000,"station_id":"ce4bgip2rcd13ifvqbb0","pricing_plan_id":"cebpf4jnsgd1na2vs0mg"},{"bike_id":"46ff7be5-bc64-4dfe-89be-8de3b74a45c8","system_id":"levelo_inurba_marseille","lat":43.29775,"lon":5.3808,"is_reserved":false,"is_disabled":false,"rental_uris":{"android":"levelo://app?vid=46ff7be5-bc64-4dfe-89be-8de3b74a45c8","ios":"levelo://app?vid=46ff7be5-bc64-4dfe-89be-8de3b74a45c8"},"vehicle_type_id":"4","last_reported":1744816265,"current_range_meters":10000,"station_id":"ce4bgip2rcd13ifvqbb0","pricing_plan_id":"cebpf4jnsgd1na2vs0mg"},{"bike_id":"eeec4aa3-87e9-4496-be2e-938ceb91cf85","system_id":"levelo_inurba_marseille","lat":43.29303,"lon":5.37219,"is_reserved":false,"is_disabled":true,"rental_uris":{"android":"levelo://app?vid=eeec4aa3-87e9-4496-be2e-938ceb91cf85","ios":"levelo://app?vid=eeec4aa3-87e9-4496-be2e-938ceb91cf85"},"vehicle_type_id":"4","last_reported":1744816265,"current_range_meters":10800,"station_id":"ce4bgh92rcd13ifvqb40","pricing_plan_id":"cebpf4jnsgd1na2vs0mg"},{"bike_id":"ae669bac-ccfa-4f88-b834-b0199f708b96","system_id":"levelo_inurba_marseille","lat":43.28829,"lon":5.35826,"is_reserved":false,"is_disabled":false,"rental_uris":{"android":"levelo://app?vid=ae669bac-ccfa-4f88-b834-b0199f708b96","ios":"levelo://app?vid=ae669bac-ccfa-4f88-b834-b0199f708b96"},"vehicle_type_id":"4","last_reported":1744816265,"current_range_meters":10800,"station_id":"ce4bhb12rcd13ifvqem0","pricing_plan_id":"cebpf4jnsgd1na2vs0mg"},{"bike_id":"e8412f40-a8dc-44ee-bbc2-e01b1cf2ab9a","system_id":"levelo_inurba_marseille","lat":43.27869,"lon":5.39176,"is_reserved":false,"is_disabled":false,"rental_uris":{"android":"levelo://app?vid=e8412f40-a8dc-44ee-bbc2-e01b1cf2ab9a","ios":"levelo://app?vid=e8412f40-a8dc-44ee-bbc2-e01b1cf2ab9a"},"vehicle_type_id":"4","last_reported":1744816265,"current_range_meters":11200,"station_id":"ce4bhjp2rcd13ifvqga0","pricing_plan_id":"cebpf4jnsgd1na2vs0mg"},{"bike_id":"561936ef-54e4-4d15-b2a7-dfd018b9e12e","system_id":"levelo_inurba_marseille","lat":43.29838,"lon":5.40292,"is_reserved":false,"is_disabled":false,"rental_uris":{"android":"levelo://app?vid=561936ef-54e4-4d15-b2a7-dfd018b9e12e","ios":"levelo://app?vid=561936ef-54e4-4d15-b2a7-dfd018b9e12e"},"vehicle_type_id":"4","last_reported":1744816265,"current_range_meters":11200,"station_id":"","pricing_plan_id":"cebpf4jnsgd1na2vs0mg"},{"bike_id":"730df8ab-b078-4369-bf02-60852fbd2369","system_id":"levelo_inurba_marseille","lat":43.30589,"lon":5.39339,"is_reserved":false,"is_disabled":false,"rental_uris":{"android":"levelo://app?vid=730df8ab-b078-4369-bf02-60852fbd2369","ios":"levelo://app?vid=730df8ab-b078-4369-bf02-60852fbd2369"},"vehicle_type_id":"4","last_reported":1744816265,"current_range_meters":11200,"station_id":"ce4bh0p2rcd13ifvqd80","pricing_plan_id":"cebpf4jnsgd1na2vs0mg"},{"bike_id":"77e435d7-48c3-48fa-81d0-1b71bd3f253b","system_id":"levelo_inurba_marseille","lat":43.304433,"lon":5.38893,"is_reserved":false,"is_disabled":false,"rental_uris":{"android":"levelo://app?vid=77e435d7-48c3-48fa-81d0-1b71bd3f253b","ios":"levelo://app?vid=77e435d7-48c3-48fa-81d0-1b71bd3f253b"},"vehicle_type_id":"4","last_reported":1744816265,"current_range_meters":10800,"station_id":"ce4bgk12rcd13ifvqbi0","pricing_plan_id":"cebpf4jnsgd1na2vs0mg"},{"bike_id":"5ae0ec0f-589b-4a01-89e4-84d635e5266b","system_id":"levelo_inurba_marseille","lat":43.29292,"lon":5.36851,"is_reserved":false,"is_disabled":false,"rental_uris":{"android":"levelo://app?vid=5ae0ec0f-589b-4a01-89e4-84d635e5266b","ios":"levelo://app?vid=5ae0ec0f-589b-4a01-89e4-84d635e5266b"},"vehicle_type_id":"4","last_reported":1744816265,"current_range_meters":11600,"station_id":"ce4bhbp2rcd13ifvqesg","pricing_plan_id":"cebpf4jnsgd1na2vs0mg"},{"bike_id":"5311e38b-f9c4-4026-9d9d-ae2a38e7b2cb","system_id":"levelo_inurba_marseille","lat":43.29729,"lon":5.37689,"is_reserved":false,"is_disabled":false,"rental_uris":{"android":"levelo://app?vid=5311e38b-f9c4-4026-9d9d-ae2a38e7b2cb","ios":"levelo://app?vid=5311e38b-f9c4-4026-9d9d-ae2a38e7b2cb"},"vehicle_type_id":"4","last_reported":1744816265,"current_range_meters":12000,"station_id":"ce4bgkh2rcd13ifvqbl0","pricing_plan_id":"cebpf4jnsgd1na2vs0mg"},{"bike_id":"030ce7df-e01e-4601-a5d8-a8b800e48537","system_id":"levelo_inurba_marseille","lat":43.31078,"lon":5.38361,"is_reserved":false,"is_disabled":false,"rental_uris":{"android":"levelo://app?vid=030ce7df-e01e-4601-a5d8-a8b800e48537","ios":"levelo://app?vid=030ce7df-e01e-4601-a5d8-a8b800e48537"},"vehicle_type_id":"4","last_reported":1744816265,"current_range_meters":12400,"station_id":"ce4bgv92rcd13ifvqcr0","pricing_plan_id":"cebpf4jnsgd1na2vs0mg"},{"bike_id":"dffb4758-7271-4ea8-9d2e-2bb47ff42666","system_id":"levelo_inurba_marseille","lat":43.27365,"lon":5.36249,"is_reserved":false,"is_disabled":false,"rental_uris":{"android":"levelo://app?vid=dffb4758-7271-4ea8-9d2e-2bb47ff42666","ios":"levelo://app?vid=dffb4758-7271-4ea8-9d2e-2bb47ff42666"},"vehicle_type_id":"4","last_reported":1744816265,"current_range_meters":12400,"station_id":"ce4bhbh2rcd13ifvqeo0","pricing_plan_id":"cebpf4jnsgd1na2vs0mg"},{"bike_id":"3197aaf0-8f63-40f4-9df7-c01d404b36b4","system_id":"levelo_inurba_marseille","lat":43.29255,"lon":5.38443,"is_reserved":false,"is_disabled":false,"rental_uris":{"android":"levelo://app?vid=3197aaf0-8f63-40f4-9df7-c01d404b36b4","ios":"levelo://app?vid=3197aaf0-8f63-40f4-9df7-c01d404b36b4"},"vehicle_type_id":"4","last_reported":1744816265,"current_range_meters":12400,"station_id":"ce4bh692rcd13ifvqea0","pricing_plan_id":"cebpf4jnsgd1na2vs0mg"},{"bike_id":"834ec9e1-9d50-4bee-85ae-d1db335c55e5","system_id":"levelo_inurba_marseille","lat":43.31887,"lon":5.36841,"is_reserved":false,"is_disabled":false,"rental_uris":{"android":"levelo://app?vid=834ec9e1-9d50-4bee-85ae-d1db335c55e5","ios":"levelo://app?vid=834ec9e1-9d50-4bee-85ae-d1db335c55e5"},"vehicle_type_id":"4","last_reported":1744816265,"current_range_meters":12800,"station_id":"","pricing_plan_id":"cebpf4jnsgd1na2vs0mg"},{"bike_id":"2fbdd3d1-f9a7-487c-a3c2-0dde6ee4c766","system_id":"levelo_inurba_marseille","lat":43.28001,"lon":5.40004,"is_reserved":false,"is_disabled":false,"rental_uris":{"android":"levelo://app?vid=2fbdd3d1-f9a7-487c-a3c2-0dde6ee4c766","ios":"levelo://app?vid=2fbdd3d1-f9a7-487c-a3c2-0dde6ee4c766"},"vehicle_type_id":"4","last_reported":1744816265,"current_range_meters":12400,"station_id":"ce4bho92rcd13ifvqh4g","pricing_plan_id":"cebpf4jnsgd1na2vs0mg"},{"bike_id":"86f0f969-14d4-444c-9207-77c866d8dd52","system_id":"levelo_inurba_marseille","lat":43.28153,"lon":5.42644,"is_reserved":false,"is_disabled":false,"rental_uris":{"android":"levelo://app?vid=86f0f969-14d4-444c-9207-77c866d8dd52","ios":"levelo://app?vid=86f0f969-14d4-444c-9207-77c866d8dd52"},"vehicle_type_id":"4","last_reported":1744816265,"current_range_meters":12800,"station_id":"ce4bhnh2rcd13ifvqgug","pricing_plan_id":"cebpf4jnsgd1na2vs0mg"},{"bike_id":"b4bba65f-7d2a-4966-8355-1ad7d975f76c","system_id":"levelo_inurba_marseille","lat":43.29921,"lon":5.374698,"is_reserved":false,"is_disabled":false,"rental_uris":{"android":"levelo://app?vid=b4bba65f-7d2a-4966-8355-1ad7d975f76c","ios":"levelo://app?vid=b4bba65f-7d2a-4966-8355-1ad7d975f76c"},"vehicle_type_id":"4","last_reported":1744816265,"current_range_meters":13600,"station_id":"ce4bgjh2rcd13ifvqbg0","pricing_plan_id":"cebpf4jnsgd1na2vs0mg"},{"bike_id":"90aab251-1ff9-4010-ba90-86de6b1ffc35","system_id":"levelo_inurba_marseille","lat":43.23169,"lon":5.43693,"is_reserved":false,"is_disabled":false,"rental_uris":{"android":"levelo://app?vid=90aab251-1ff9-4010-ba90-86de6b1ffc35","ios":"levelo://app?vid=90aab251-1ff9-4010-ba90-86de6b1ffc35"},"vehicle_type_id":"4","last_reported":1744816265,"current_range_meters":13600,"station_id":"ce4bhmp2rcd13ifvqgog","pricing_plan_id":"cebpf4jnsgd1na2vs0mg"},{"bike_id":"846e6ffc-48fc-4c91-90ff-066c1a3a201b","system_id":"levelo_inurba_marseille","lat":43.29976,"lon":5.38526,"is_reserved":false,"is_disabled":false,"rental_uris":{"android":"levelo://app?vid=846e6ffc-48fc-4c91-90ff-066c1a3a201b","ios":"levelo://app?vid=846e6ffc-48fc-4c91-90ff-066c1a3a201b"},"vehicle_type_id":"4","last_reported":1744816265,"current_range_meters":14000,"station_id":"ce4bgj92rcd13ifvqbd0","pricing_plan_id":"cebpf4jnsgd1na2vs0mg"},{"bike_id":"b37478c9-c9d1-4921-942f-50c7a856681e","system_id":"levelo_inurba_marseille","lat":43.27061,"lon":5.40276,"is_reserved":false,"is_disabled":false,"rental_uris":{"android":"levelo://app?vid=b37478c9-c9d1-4921-942f-50c7a856681e","ios":"levelo://app?vid=b37478c9-c9d1-4921-942f-50c7a856681e"},"vehicle_type_id":"4","last_reported":1744816265,"current_range_meters":14000,"station_id":"ce4bhk92rcd13ifvqgc0","pricing_plan_id":"cebpf4jnsgd1na2vs0mg"},{"bike_id":"b4255793-2dcb-4836-a46c-008ccea68673","system_id":"levelo_inurba_marseille","lat":43.28406,"lon":5.37526,"is_reserved":false,"is_disabled":false,"rental_uris":{"android":"levelo://app?vid=b4255793-2dcb-4836-a46c-008ccea68673","ios":"levelo://app?vid=b4255793-2dcb-4836-a46c-008ccea68673"},"vehicle_type_id":"4","last_reported":1744816265,"current_range_meters":14000,"station_id":"ce4bh412rcd13ifvqds0","pricing_plan_id":"cebpf4jnsgd1na2vs0mg"},{"bike_id":"4328369a-71e3-42f0-af9b-b3d103933d00","system_id":"levelo_inurba_marseille","lat":43.33622,"lon":5.40981,"is_reserved":false,"is_disabled":false,"rental_uris":{"android":"levelo://app?vid=4328369a-71e3-42f0-af9b-b3d103933d00","ios":"levelo://app?vid=4328369a-71e3-42f0-af9b-b3d103933d00"},"vehicle_type_id":"4","last_reported":1744816265,"current_range_meters":14400,"station_id":"ce4bhqh2rcd13ifvqhmg","pricing_plan_id":"cebpf4jnsgd1na2vs0mg"},{"bike_id":"8ece13d7-e6aa-4d06-88de-c3e6a1495859","system_id":"levelo_inurba_marseille","lat":43.298947,"lon":5.38151,"is_reserved":false,"is_disabled":false,"rental_uris":{"android":"levelo://app?vid=8ece13d7-e6aa-4d06-88de-c3e6a1495859","ios":"levelo://app?vid=8ece13d7-e6aa-4d06-88de-c3e6a1495859"},"vehicle_type_id":"4","last_reported":1744816265,"current_range_meters":14400,"station_id":"ce4bgj12rcd13ifvqbc0","pricing_plan_id":"cebpf4jnsgd1na2vs0mg"},{"bike_id":"e671135f-6e8d-4f7d-b793-34acac25fdfc","system_id":"levelo_inurba_marseille","lat":43.32341,"lon":5.36713,"is_reserved":false,"is_disabled":false,"rental_uris":{"android":"levelo://app?vid=e671135f-6e8d-4f7d-b793-34acac25fdfc","ios":"levelo://app?vid=e671135f-6e8d-4f7d-b793-34acac25fdfc"},"vehicle_type_id":"4","last_reported":1744816265,"current_range_meters":14400,"station_id":"ce4bhsh2rcd13ifvqi2g","pricing_plan_id":"cebpf4jnsgd1na2vs0mg"},{"bike_id":"eef0f7e9-3fd3-478d-8d05-1e689878276c","system_id":"levelo_inurba_marseille","lat":43.27999,"lon":5.40026,"is_reserved":false,"is_disabled":false,"rental_uris":{"android":"levelo://app?vid=eef0f7e9-3fd3-478d-8d05-1e689878276c","ios":"levelo://app?vid=eef0f7e9-3fd3-478d-8d05-1e689878276c"},"vehicle_type_id":"4","last_reported":1744816265,"current_range_meters":14400,"station_id":"ce4bho92rcd13ifvqh4g","pricing_plan_id":"cebpf4jnsgd1na2vs0mg"},{"bike_id":"7feb4729-42fd-470d-9dd7-7f0363fdf83d","system_id":"levelo_inurba_marseille","lat":43.27935,"lon":5.39595,"is_reserved":false,"is_disabled":false,"rental_uris":{"android":"levelo://app?vid=7feb4729-42fd-470d-9dd7-7f0363fdf83d","ios":"levelo://app?vid=7feb4729-42fd-470d-9dd7-7f0363fdf83d"},"vehicle_type_id":"4","last_reported":1744816265,"current_range_meters":14400,"station_id":"ce4bhf92rcd13ifvqf40","pricing_plan_id":"cebpf4jnsgd1na2vs0mg"},{"bike_id":"93be371e-f079-4065-9c94-f1bd2172cfd1","system_id":"levelo_inurba_marseille","lat":43.286037,"lon":5.370693,"is_reserved":false,"is_disabled":false,"rental_uris":{"android":"levelo://app?vid=93be371e-f079-4065-9c94-f1bd2172cfd1","ios":"levelo://app?vid=93be371e-f079-4065-9c94-f1bd2172cfd1"},"vehicle_type_id":"4","last_reported":1744816265,"current_range_meters":14800,"station_id":"ce4bht12rcd13ifvqi60","pricing_plan_id":"cebpf4jnsgd1na2vs0mg"},{"bike_id":"dda27a58-e2ca-4fce-a851-41cf6185682c","system_id":"levelo_inurba_marseille","lat":43.30333,"lon":5.37741,"is_reserved":false,"is_disabled":false,"rental_uris":{"android":"levelo://app?vid=dda27a58-e2ca-4fce-a851-41cf6185682c","ios":"levelo://app?vid=dda27a58-e2ca-4fce-a851-41cf6185682c"},"vehicle_type_id":"4","last_reported":1744816265,"current_range_meters":14800,"station_id":"ce4bguh2rcd13ifvqcj0","pricing_plan_id":"cebpf4jnsgd1na2vs0mg"},{"bike_id":"1085d5f0-5329-433c-98af-ac30dbeae1ed","system_id":"levelo_inurba_marseille","lat":43.2978,"lon":5.39328,"is_reserved":false,"is_disabled":false,"rental_uris":{"android":"levelo://app?vid=1085d5f0-5329-433c-98af-ac30dbeae1ed","ios":"levelo://app?vid=1085d5f0-5329-433c-98af-ac30dbeae1ed"},"vehicle_type_id":"4","last_reported":1744816265,"current_range_meters":14800,"station_id":"chh1huq6cuj3fo74tm60","pricing_plan_id":"cebpf4jnsgd1na2vs0mg"},{"bike_id":"8c0bd00b-dc66-465d-b759-a3f4d1b24bf8","system_id":"levelo_inurba_marseille","lat":43.286102,"lon":5.370657,"is_reserved":false,"is_disabled":false,"rental_uris":{"android":"levelo://app?vid=8c0bd00b-dc66-465d-b759-a3f4d1b24bf8","ios":"levelo://app?vid=8c0bd00b-dc66-465d-b759-a3f4d1b24bf8"},"vehicle_type_id":"4","last_reported":1744816265,"current_range_meters":14800,"station_id":"ce4bht12rcd13ifvqi60","pricing_plan_id":"cebpf4jnsgd1na2vs0mg"},{"bike_id":"2be2e8c5-ff49-4a5a-963a-4bbeabb11512","system_id":"levelo_inurba_marseille","lat":43.30735,"lon":5.42447,"is_reserved":false,"is_disabled":false,"rental_uris":{"android":"levelo://app?vid=2be2e8c5-ff49-4a5a-963a-4bbeabb11512","ios":"levelo://app?vid=2be2e8c5-ff49-4a5a-963a-4bbeabb11512"},"vehicle_type_id":"4","last_reported":1744816265,"current_range_meters":14800,"station_id":"st_cvj6ca6bvosntc0bfgr0","pricing_plan_id":"cebpf4jnsgd1na2vs0mg"},{"bike_id":"bb4c7007-6ffb-4d6f-bebc-e65ec0473f32","system_id":"levelo_inurba_marseille","lat":43.31284,"lon":5.36881,"is_reserved":false,"is_disabled":false,"rental_uris":{"android":"levelo://app?vid=bb4c7007-6ffb-4d6f-bebc-e65ec0473f32","ios":"levelo://app?vid=bb4c7007-6ffb-4d6f-bebc-e65ec0473f32"},"vehicle_type_id":"4","last_reported":1744816265,"current_range_meters":14800,"station_id":"ce4bgl92rcd13ifvqbq0","pricing_plan_id":"cebpf4jnsgd1na2vs0mg"},{"bike_id":"6bf5a380-400e-4cd6-bc1e-356afac9ee45","system_id":"levelo_inurba_marseille","lat":43.24216,"lon":5.36392,"is_reserved":false,"is_disabled":false,"rental_uris":{"android":"levelo://app?vid=6bf5a380-400e-4cd6-bc1e-356afac9ee45","ios":"levelo://app?vid=6bf5a380-400e-4cd6-bc1e-356afac9ee45"},"vehicle_type_id":"4","last_reported":1744816265,"current_range_meters":15200,"station_id":"cpo36qri1sfpv3e86is0","pricing_plan_id":"cebpf4jnsgd1na2vs0mg"},{"bike_id":"88a0cb80-a51d-46bc-8228-c9a9fb028348","system_id":"levelo_inurba_marseille","lat":43.25655,"lon":5.4201,"is_reserved":false,"is_disabled":false,"rental_uris":{"android":"levelo://app?vid=88a0cb80-a51d-46bc-8228-c9a9fb028348","ios":"levelo://app?vid=88a0cb80-a51d-46bc-8228-c9a9fb028348"},"vehicle_type_id":"4","last_reported":1744816265,"current_range_meters":15200,"station_id":"","pricing_plan_id":"cebpf4jnsgd1na2vs0mg"},{"bike_id":"5a8c65b3-4f7e-4fdc-b179-6f9302b5f965","system_id":"levelo_inurba_marseille","lat":43.29575,"lon":5.37519,"is_reserved":false,"is_disabled":false,"rental_uris":{"android":"levelo://app?vid=5a8c65b3-4f7e-4fdc-b179-6f9302b5f965","ios":"levelo://app?vid=5a8c65b3-4f7e-4fdc-b179-6f9302b5f965"},"vehicle_type_id":"4","last_reported":1744816265,"current_range_meters":15200,"station_id":"ce4bgh92rcd13ifvqb50","pricing_plan_id":"cebpf4jnsgd1na2vs0mg"},{"bike_id":"4b9b1e69-af86-4122-8d46-0d52505b1cab","system_id":"levelo_inurba_marseille","lat":43.27506,"lon":5.42496,"is_reserved":false,"is_disabled":false,"rental_uris":{"android":"levelo://app?vid=4b9b1e69-af86-4122-8d46-0d52505b1cab","ios":"levelo://app?vid=4b9b1e69-af86-4122-8d46-0d52505b1cab"},"vehicle_type_id":"4","last_reported":1744816265,"current_range_meters":15200,"station_id":"ce4bhn92rcd13ifvqgrg","pricing_plan_id":"cebpf4jnsgd1na2vs0mg"},{"bike_id":"b3b46771-28bb-4ab0-8738-ba4ddfc44db4","system_id":"levelo_inurba_marseille","lat":43.29317,"lon":5.37172,"is_reserved":false,"is_disabled":false,"rental_uris":{"android":"levelo://app?vid=b3b46771-28bb-4ab0-8738-ba4ddfc44db4","ios":"levelo://app?vid=b3b46771-28bb-4ab0-8738-ba4ddfc44db4"},"vehicle_type_id":"4","last_reported":1744816265,"current_range_meters":15200,"station_id":"ce4bgh92rcd13ifvqb40","pricing_plan_id":"cebpf4jnsgd1na2vs0mg"},{"bike_id":"4ac24d1f-df13-408c-867a-7794d6847c26","system_id":"levelo_inurba_marseille","lat":43.307372,"lon":5.42446,"is_reserved":false,"is_disabled":false,"rental_uris":{"android":"levelo://app?vid=4ac24d1f-df13-408c-867a-7794d6847c26","ios":"levelo://app?vid=4ac24d1f-df13-408c-867a-7794d6847c26"},"vehicle_type_id":"4","last_reported":1744816265,"current_range_meters":16000,"station_id":"st_cvj6ca6bvosntc0bfgr0","pricing_plan_id":"cebpf4jnsgd1na2vs0mg"},{"bike_id":"675d80cb-1fd3-4e80-a95c-d73accac4772","system_id":"levelo_inurba_marseille","lat":43.30209,"lon":5.39462,"is_reserved":false,"is_disabled":false,"rental_uris":{"android":"levelo://app?vid=675d80cb-1fd3-4e80-a95c-d73accac4772","ios":"levelo://app?vid=675d80cb-1fd3-4e80-a95c-d73accac4772"},"vehicle_type_id":"4","last_reported":1744816265,"current_range_meters":16000,"station_id":"ce4bh0p2rcd13ifvqd70","pricing_plan_id":"cebpf4jnsgd1na2vs0mg"},{"bike_id":"f462d1c0-a98e-4d8b-b578-9a1b5c4d74d9","system_id":"levelo_inurba_marseille","lat":43.29561,"lon":5.42303,"is_reserved":false,"is_disabled":false,"rental_uris":{"android":"levelo://app?vid=f462d1c0-a98e-4d8b-b578-9a1b5c4d74d9","ios":"levelo://app?vid=f462d1c0-a98e-4d8b-b578-9a1b5c4d74d9"},"vehicle_type_id":"4","last_reported":1744816265,"current_range_meters":16400,"station_id":"ce4bhph2rcd13ifvqhdg","pricing_plan_id":"cebpf4jnsgd1na2vs0mg"},{"bike_id":"10a05b79-c3d5-4be7-a18b-8140be240501","system_id":"levelo_inurba_marseille","lat":43.29604,"lon":5.38121,"is_reserved":false,"is_disabled":false,"rental_uris":{"android":"levelo://app?vid=10a05b79-c3d5-4be7-a18b-8140be240501","ios":"levelo://app?vid=10a05b79-c3d5-4be7-a18b-8140be240501"},"vehicle_type_id":"4","last_reported":1744816265,"current_range_meters":16400,"station_id":"ce4bgl12rcd13ifvqbo0","pricing_plan_id":"cebpf4jnsgd1na2vs0mg"},{"bike_id":"c31c0ecc-e896-4522-8f59-f94ab8194ac3","system_id":"levelo_inurba_marseille","lat":43.31693,"lon":5.40458,"is_reserved":false,"is_disabled":false,"rental_uris":{"android":"levelo://app?vid=c31c0ecc-e896-4522-8f59-f94ab8194ac3","ios":"levelo://app?vid=c31c0ecc-e896-4522-8f59-f94ab8194ac3"},"vehicle_type_id":"4","last_reported":1744816265,"current_range_meters":16400,"station_id":"ce4bh012rcd13ifvqd00","pricing_plan_id":"cebpf4jnsgd1na2vs0mg"},{"bike_id":"6d808110-2d8c-4565-a3c5-2c4f66ab2217","system_id":"levelo_inurba_marseille","lat":43.29732,"lon":5.37688,"is_reserved":false,"is_disabled":false,"rental_uris":{"android":"levelo://app?vid=6d808110-2d8c-4565-a3c5-2c4f66ab2217","ios":"levelo://app?vid=6d808110-2d8c-4565-a3c5-2c4f66ab2217"},"vehicle_type_id":"4","last_reported":1744816265,"current_range_meters":16400,"station_id":"ce4bgkh2rcd13ifvqbl0","pricing_plan_id":"cebpf4jnsgd1na2vs0mg"},{"bike_id":"7128bbff-6ba3-4ed8-91da-4b49e73786e4","system_id":"levelo_inurba_marseille","lat":43.283544,"lon":5.380988,"is_reserved":false,"is_disabled":false,"rental_uris":{"android":"levelo://app?vid=7128bbff-6ba3-4ed8-91da-4b49e73786e4","ios":"levelo://app?vid=7128bbff-6ba3-4ed8-91da-4b49e73786e4"},"vehicle_type_id":"4","last_reported":1744816265,"current_range_meters":16400,"station_id":"ce4bh412rcd13ifvqdr0","pricing_plan_id":"cebpf4jnsgd1na2vs0mg"},{"bike_id":"6c753cfd-e2a2-46b2-a74f-cf2c42d3ccc5","system_id":"levelo_inurba_marseille","lat":43.30514,"lon":5.37924,"is_reserved":false,"is_disabled":false,"rental_uris":{"android":"levelo://app?vid=6c753cfd-e2a2-46b2-a74f-cf2c42d3ccc5","ios":"levelo://app?vid=6c753cfd-e2a2-46b2-a74f-cf2c42d3ccc5"},"vehicle_type_id":"4","last_reported":1744816265,"current_range_meters":16400,"station_id":"ce4bgup2rcd13ifvqcn0","pricing_plan_id":"cebpf4jnsgd1na2vs0mg"},{"bike_id":"970a4b57-ac2b-4ad4-bc8a-239431db997e","system_id":"levelo_inurba_marseille","lat":43.26943,"lon":5.40244,"is_reserved":false,"is_disabled":false,"rental_uris":{"android":"levelo://app?vid=970a4b57-ac2b-4ad4-bc8a-239431db997e","ios":"levelo://app?vid=970a4b57-ac2b-4ad4-bc8a-239431db997e"},"vehicle_type_id":"4","last_reported":1744816265,"current_range_meters":16400,"station_id":"cjm6bp8fraef2m0cb0m0","pricing_plan_id":"cebpf4jnsgd1na2vs0mg"},{"bike_id":"db5c936f-7fbf-4330-9fcd-395818b2db0c","system_id":"levelo_inurba_marseille","lat":43.241544,"lon":5.378957,"is_reserved":false,"is_disabled":false,"rental_uris":{"android":"levelo://app?vid=db5c936f-7fbf-4330-9fcd-395818b2db0c","ios":"levelo://app?vid=db5c936f-7fbf-4330-9fcd-395818b2db0c"},"vehicle_type_id":"4","last_reported":1744816265,"current_range_meters":16400,"station_id":"ce4bhnp2rcd13ifvqgvg","pricing_plan_id":"cebpf4jnsgd1na2vs0mg"},{"bike_id":"a246ebc2-98d6-4431-9ab2-2edb7dfa35b0","system_id":"levelo_inurba_marseille","lat":43.29791,"lon":5.40404,"is_reserved":false,"is_disabled":false,"rental_uris":{"android":"levelo://app?vid=a246ebc2-98d6-4431-9ab2-2edb7dfa35b0","ios":"levelo://app?vid=a246ebc2-98d6-4431-9ab2-2edb7dfa35b0"},"vehicle_type_id":"4","last_reported":1744816265,"current_range_meters":16400,"station_id":"ce4bh112rcd13ifvqd90","pricing_plan_id":"cebpf4jnsgd1na2vs0mg"},{"bike_id":"26bc1efd-34e0-4a8a-87b5-0f2c5a5e3760","system_id":"levelo_inurba_marseille","lat":43.3131,"lon":5.40162,"is_reserved":false,"is_disabled":false,"rental_uris":{"android":"levelo://app?vid=26bc1efd-34e0-4a8a-87b5-0f2c5a5e3760","ios":"levelo://app?vid=26bc1efd-34e0-4a8a-87b5-0f2c5a5e3760"},"vehicle_type_id":"4","last_reported":1744816265,"current_range_meters":16400,"station_id":"ce4bh092rcd13ifvqd30","pricing_plan_id":"cebpf4jnsgd1na2vs0mg"},{"bike_id":"b6b4fba7-65bd-4354-9ef8-9be346fbbc8a","system_id":"levelo_inurba_marseille","lat":43.30304,"lon":5.37731,"is_reserved":false,"is_disabled":false,"rental_uris":{"android":"levelo://app?vid=b6b4fba7-65bd-4354-9ef8-9be346fbbc8a","ios":"levelo://app?vid=b6b4fba7-65bd-4354-9ef8-9be346fbbc8a"},"vehicle_type_id":"4","last_reported":1744816265,"current_range_meters":16800,"station_id":"ce4bguh2rcd13ifvqcj0","pricing_plan_id":"cebpf4jnsgd1na2vs0mg"},{"bike_id":"da2251a7-2b2b-4dd1-8be8-8f047831f0e4","system_id":"levelo_inurba_marseille","lat":43.30315,"lon":5.39203,"is_reserved":false,"is_disabled":true,"rental_uris":{"android":"levelo://app?vid=da2251a7-2b2b-4dd1-8be8-8f047831f0e4","ios":"levelo://app?vid=da2251a7-2b2b-4dd1-8be8-8f047831f0e4"},"vehicle_type_id":"4","last_reported":1744816265,"current_range_meters":16800,"station_id":"ce4bgkh2rcd13ifvqbk0","pricing_plan_id":"cebpf4jnsgd1na2vs0mg"},{"bike_id":"57406be6-c0b4-4691-8abf-3f6842e4ec81","system_id":"levelo_inurba_marseille","lat":43.28477,"lon":5.39201,"is_reserved":false,"is_disabled":true,"rental_uris":{"android":"levelo://app?vid=57406be6-c0b4-4691-8abf-3f6842e4ec81","ios":"levelo://app?vid=57406be6-c0b4-4691-8abf-3f6842e4ec81"},"vehicle_type_id":"4","last_reported":1744816265,"current_range_meters":16800,"station_id":"ce4bhoh2rcd13ifvqh5g","pricing_plan_id":"cebpf4jnsgd1na2vs0mg"},{"bike_id":"b453c917-0db1-40bd-ad8a-e14424b609f7","system_id":"levelo_inurba_marseille","lat":43.27062,"lon":5.40282,"is_reserved":false,"is_disabled":false,"rental_uris":{"android":"levelo://app?vid=b453c917-0db1-40bd-ad8a-e14424b609f7","ios":"levelo://app?vid=b453c917-0db1-40bd-ad8a-e14424b609f7"},"vehicle_type_id":"4","last_reported":1744816265,"current_range_meters":17200,"station_id":"ce4bhk92rcd13ifvqgc0","pricing_plan_id":"cebpf4jnsgd1na2vs0mg"},{"bike_id":"3369f7bc-af4b-44b9-aec1-c2bceb4a7e3d","system_id":"levelo_inurba_marseille","lat":43.295745,"lon":5.375155,"is_reserved":false,"is_disabled":false,"rental_uris":{"android":"levelo://app?vid=3369f7bc-af4b-44b9-aec1-c2bceb4a7e3d","ios":"levelo://app?vid=3369f7bc-af4b-44b9-aec1-c2bceb4a7e3d"},"vehicle_type_id":"4","last_reported":1744816265,"current_range_meters":17200,"station_id":"ce4bgh92rcd13ifvqb50","pricing_plan_id":"cebpf4jnsgd1na2vs0mg"},{"bike_id":"8c95c56e-fd38-4747-b8d7-85ddf29bba6c","system_id":"levelo_inurba_marseille","lat":43.29825,"lon":5.38108,"is_reserved":false,"is_disabled":false,"rental_uris":{"android":"levelo://app?vid=8c95c56e-fd38-4747-b8d7-85ddf29bba6c","ios":"levelo://app?vid=8c95c56e-fd38-4747-b8d7-85ddf29bba6c"},"vehicle_type_id":"4","last_reported":1744816265,"current_range_meters":17600,"station_id":"ce4bgip2rcd13ifvqbb0","pricing_plan_id":"cebpf4jnsgd1na2vs0mg"},{"bike_id":"182b0849-c1c2-4e02-a196-85df37bf5057","system_id":"levelo_inurba_marseille","lat":43.25604,"lon":5.38234,"is_reserved":false,"is_disabled":false,"rental_uris":{"android":"levelo://app?vid=182b0849-c1c2-4e02-a196-85df37bf5057","ios":"levelo://app?vid=182b0849-c1c2-4e02-a196-85df37bf5057"},"vehicle_type_id":"4","last_reported":1744816265,"current_range_meters":17600,"station_id":"ce4bhih2rcd13ifvqfs0","pricing_plan_id":"cebpf4jnsgd1na2vs0mg"},{"bike_id":"da0699e6-fffb-42fd-bda2-fa249cfedfd8","system_id":"levelo_inurba_marseille","lat":43.31491,"lon":5.37302,"is_reserved":false,"is_disabled":false,"rental_uris":{"android":"levelo://app?vid=da0699e6-fffb-42fd-bda2-fa249cfedfd8","ios":"levelo://app?vid=da0699e6-fffb-42fd-bda2-fa249cfedfd8"},"vehicle_type_id":"4","last_reported":1744816265,"current_range_meters":18000,"station_id":"ce4bgt12rcd13ifvqcd0","pricing_plan_id":"cebpf4jnsgd1na2vs0mg"},{"bike_id":"9f3a5dd8-a360-4b18-82ad-d26b0a34023d","system_id":"levelo_inurba_marseille","lat":43.30556,"lon":5.36546,"is_reserved":false,"is_disabled":false,"rental_uris":{"android":"levelo://app?vid=9f3a5dd8-a360-4b18-82ad-d26b0a34023d","ios":"levelo://app?vid=9f3a5dd8-a360-4b18-82ad-d26b0a34023d"},"vehicle_type_id":"4","last_reported":1744816265,"current_range_meters":18000,"station_id":"ce4bgs12rcd13ifvqcag","pricing_plan_id":"cebpf4jnsgd1na2vs0mg"},{"bike_id":"2d03e3c2-09e4-4978-8dbc-31228f7e9fd5","system_id":"levelo_inurba_marseille","lat":43.25585,"lon":5.38227,"is_reserved":false,"is_disabled":false,"rental_uris":{"android":"levelo://app?vid=2d03e3c2-09e4-4978-8dbc-31228f7e9fd5","ios":"levelo://app?vid=2d03e3c2-09e4-4978-8dbc-31228f7e9fd5"},"vehicle_type_id":"4","last_reported":1744816265,"current_range_meters":18000,"station_id":"ce4bhih2rcd13ifvqfs0","pricing_plan_id":"cebpf4jnsgd1na2vs0mg"},{"bike_id":"d2ec3b6a-258e-419a-8e50-c0a020fc9c40","system_id":"levelo_inurba_marseille","lat":43.297191,"lon":5.376943,"is_reserved":false,"is_disabled":false,"rental_uris":{"android":"levelo://app?vid=d2ec3b6a-258e-419a-8e50-c0a020fc9c40","ios":"levelo://app?vid=d2ec3b6a-258e-419a-8e50-c0a020fc9c40"},"vehicle_type_id":"4","last_reported":1744816265,"current_range_meters":18800,"station_id":"ce4bgkh2rcd13ifvqbl0","pricing_plan_id":"cebpf4jnsgd1na2vs0mg"},{"bike_id":"5e438ae3-f489-48de-88fa-2a8017d6f5d4","system_id":"levelo_inurba_marseille","lat":43.30154,"lon":5.3809,"is_reserved":false,"is_disabled":false,"rental_uris":{"android":"levelo://app?vid=5e438ae3-f489-48de-88fa-2a8017d6f5d4","ios":"levelo://app?vid=5e438ae3-f489-48de-88fa-2a8017d6f5d4"},"vehicle_type_id":"4","last_reported":1744816265,"current_range_meters":18800,"station_id":"ce4bgjp2rcd13ifvqbh0","pricing_plan_id":"cebpf4jnsgd1na2vs0mg"},{"bike_id":"a0ddb0a5-f7f0-4281-aa27-9e82747cc573","system_id":"levelo_inurba_marseille","lat":43.33751,"lon":5.37483,"is_reserved":false,"is_disabled":false,"rental_uris":{"android":"levelo://app?vid=a0ddb0a5-f7f0-4281-aa27-9e82747cc573","ios":"levelo://app?vid=a0ddb0a5-f7f0-4281-aa27-9e82747cc573"},"vehicle_type_id":"4","last_reported":1744816265,"current_range_meters":18800,"station_id":"","pricing_plan_id":"cebpf4jnsgd1na2vs0mg"},{"bike_id":"8bc01458-e04d-4e1e-9f4f-473a9ad28594","system_id":"levelo_inurba_marseille","lat":43.27946,"lon":5.39608,"is_reserved":false,"is_disabled":false,"rental_uris":{"android":"levelo://app?vid=8bc01458-e04d-4e1e-9f4f-473a9ad28594","ios":"levelo://app?vid=8bc01458-e04d-4e1e-9f4f-473a9ad28594"},"vehicle_type_id":"4","last_reported":1744816265,"current_range_meters":19200,"station_id":"ce4bhf92rcd13ifvqf40","pricing_plan_id":"cebpf4jnsgd1na2vs0mg"},{"bike_id":"cb2339f4-0371-4078-a89b-835123189f9a","system_id":"levelo_inurba_marseille","lat":43.25751,"lon":5.41136,"is_reserved":false,"is_disabled":false,"rental_uris":{"android":"levelo://app?vid=cb2339f4-0371-4078-a89b-835123189f9a","ios":"levelo://app?vid=cb2339f4-0371-4078-a89b-835123189f9a"},"vehicle_type_id":"4","last_reported":1744816265,"current_range_meters":19200,"station_id":"","pricing_plan_id":"cebpf4jnsgd1na2vs0mg"},{"bike_id":"ece9e347-25ef-4162-a00b-9d4b5aaf8acd","system_id":"levelo_inurba_marseille","lat":43.24181,"lon":5.39724,"is_reserved":false,"is_disabled":false,"rental_uris":{"android":"levelo://app?vid=ece9e347-25ef-4162-a00b-9d4b5aaf8acd","ios":"levelo://app?vid=ece9e347-25ef-4162-a00b-9d4b5aaf8acd"},"vehicle_type_id":"4","last_reported":1744816265,"current_range_meters":19200,"station_id":"ce4bhn12rcd13ifvqgpg","pricing_plan_id":"cebpf4jnsgd1na2vs0mg"},{"bike_id":"75d9cbc4-105c-493c-b674-ddcda681a534","system_id":"levelo_inurba_marseille","lat":43.27078,"lon":5.40284,"is_reserved":false,"is_disabled":false,"rental_uris":{"android":"levelo://app?vid=75d9cbc4-105c-493c-b674-ddcda681a534","ios":"levelo://app?vid=75d9cbc4-105c-493c-b674-ddcda681a534"},"vehicle_type_id":"4","last_reported":1744816265,"current_range_meters":19200,"station_id":"ce4bhk92rcd13ifvqgc0","pricing_plan_id":"cebpf4jnsgd1na2vs0mg"},{"bike_id":"f9294aff-5b6f-4d62-9db7-b7bdca4ffaf5","system_id":"levelo_inurba_marseille","lat":43.32537,"lon":5.41451,"is_reserved":false,"is_disabled":false,"rental_uris":{"android":"levelo://app?vid=f9294aff-5b6f-4d62-9db7-b7bdca4ffaf5","ios":"levelo://app?vid=f9294aff-5b6f-4d62-9db7-b7bdca4ffaf5"},"vehicle_type_id":"4","last_reported":1744816265,"current_range_meters":19200,"station_id":"ce4bhq12rcd13ifvqhhg","pricing_plan_id":"cebpf4jnsgd1na2vs0mg"},{"bike_id":"439c6cb6-7b03-4e89-b858-34cc7d6863ae","system_id":"levelo_inurba_marseille","lat":43.31255,"lon":5.36928,"is_reserved":false,"is_disabled":false,"rental_uris":{"android":"levelo://app?vid=439c6cb6-7b03-4e89-b858-34cc7d6863ae","ios":"levelo://app?vid=439c6cb6-7b03-4e89-b858-34cc7d6863ae"},"vehicle_type_id":"4","last_reported":1744816265,"current_range_meters":19200,"station_id":"ce4bgl92rcd13ifvqbq0","pricing_plan_id":"cebpf4jnsgd1na2vs0mg"},{"bike_id":"f8ca688b-8d89-46b7-9110-baed5a9ba379","system_id":"levelo_inurba_marseille","lat":43.31134,"lon":5.37055,"is_reserved":false,"is_disabled":false,"rental_uris":{"android":"levelo://app?vid=f8ca688b-8d89-46b7-9110-baed5a9ba379","ios":"levelo://app?vid=f8ca688b-8d89-46b7-9110-baed5a9ba379"},"vehicle_type_id":"4","last_reported":1744816265,"current_range_meters":19600,"station_id":"","pricing_plan_id":"cebpf4jnsgd1na2vs0mg"},{"bike_id":"7a646f77-c728-420f-bf42-9a37eccc4037","system_id":"levelo_inurba_marseille","lat":43.23066,"lon":5.35494,"is_reserved":false,"is_disabled":false,"rental_uris":{"android":"levelo://app?vid=7a646f77-c728-420f-bf42-9a37eccc4037","ios":"levelo://app?vid=7a646f77-c728-420f-bf42-9a37eccc4037"},"vehicle_type_id":"4","last_reported":1744816265,"current_range_meters":19600,"station_id":"cpo3342slgdg3j2ifvpg","pricing_plan_id":"cebpf4jnsgd1na2vs0mg"},{"bike_id":"dda116ff-b1f2-4720-9cc4-eb1f30161ff5","system_id":"levelo_inurba_marseille","lat":43.27852,"lon":5.39211,"is_reserved":false,"is_disabled":false,"rental_uris":{"android":"levelo://app?vid=dda116ff-b1f2-4720-9cc4-eb1f30161ff5","ios":"levelo://app?vid=dda116ff-b1f2-4720-9cc4-eb1f30161ff5"},"vehicle_type_id":"4","last_reported":1744816265,"current_range_meters":19600,"station_id":"ce4bhjp2rcd13ifvqga0","pricing_plan_id":"cebpf4jnsgd1na2vs0mg"},{"bike_id":"b4474c08-8250-4375-ac11-75a425941bad","system_id":"levelo_inurba_marseille","lat":43.29379,"lon":5.37857,"is_reserved":false,"is_disabled":false,"rental_uris":{"android":"levelo://app?vid=b4474c08-8250-4375-ac11-75a425941bad","ios":"levelo://app?vid=b4474c08-8250-4375-ac11-75a425941bad"},"vehicle_type_id":"4","last_reported":1744816265,"current_range_meters":19200,"station_id":"ce4bgjh2rcd13ifvqbf0","pricing_plan_id":"cebpf4jnsgd1na2vs0mg"},{"bike_id":"d46b2e48-9179-435a-9682-3a6a1ec18d25","system_id":"levelo_inurba_marseille","lat":43.2871,"lon":5.40015,"is_reserved":false,"is_disabled":false,"rental_uris":{"android":"levelo://app?vid=d46b2e48-9179-435a-9682-3a6a1ec18d25","ios":"levelo://app?vid=d46b2e48-9179-435a-9682-3a6a1ec18d25"},"vehicle_type_id":"4","last_reported":1744816265,"current_range_meters":19600,"station_id":"ce4bho92rcd13ifvqh3g","pricing_plan_id":"cebpf4jnsgd1na2vs0mg"},{"bike_id":"af8aa001-7f73-471e-987b-3e247ec3c791","system_id":"levelo_inurba_marseille","lat":43.28109,"lon":5.37844,"is_reserved":false,"is_disabled":false,"rental_uris":{"android":"levelo://app?vid=af8aa001-7f73-471e-987b-3e247ec3c791","ios":"levelo://app?vid=af8aa001-7f73-471e-987b-3e247ec3c791"},"vehicle_type_id":"4","last_reported":1744816265,"current_range_meters":19600,"station_id":"ce4bha12rcd13ifvqee0","pricing_plan_id":"cebpf4jnsgd1na2vs0mg"},{"bike_id":"d750596a-6ac6-4755-84cc-45acd4464f3d","system_id":"levelo_inurba_marseille","lat":43.24391,"lon":5.37076,"is_reserved":false,"is_disabled":false,"rental_uris":{"android":"levelo://app?vid=d750596a-6ac6-4755-84cc-45acd4464f3d","ios":"levelo://app?vid=d750596a-6ac6-4755-84cc-45acd4464f3d"},"vehicle_type_id":"4","last_reported":1744816265,"current_range_meters":20000,"station_id":"ce4bhhh2rcd13ifvqfk0","pricing_plan_id":"cebpf4jnsgd1na2vs0mg"},{"bike_id":"8e6b1563-3f66-4db7-aac9-950740ca4a0c","system_id":"levelo_inurba_marseille","lat":43.28676,"lon":5.36345,"is_reserved":false,"is_disabled":false,"rental_uris":{"android":"levelo://app?vid=8e6b1563-3f66-4db7-aac9-950740ca4a0c","ios":"levelo://app?vid=8e6b1563-3f66-4db7-aac9-950740ca4a0c"},"vehicle_type_id":"4","last_reported":1744816265,"current_range_meters":20000,"station_id":"ce4bhah2rcd13ifvqej0","pricing_plan_id":"cebpf4jnsgd1na2vs0mg"},{"bike_id":"4ad257bc-c5ac-4a59-9ab0-465b5a04b4c1","system_id":"levelo_inurba_marseille","lat":43.29029,"lon":5.38649,"is_reserved":false,"is_disabled":false,"rental_uris":{"android":"levelo://app?vid=4ad257bc-c5ac-4a59-9ab0-465b5a04b4c1","ios":"levelo://app?vid=4ad257bc-c5ac-4a59-9ab0-465b5a04b4c1"},"vehicle_type_id":"4","last_reported":1744816265,"current_range_meters":20000,"station_id":"ce4bh4p2rcd13ifvqe0g","pricing_plan_id":"cebpf4jnsgd1na2vs0mg"},{"bike_id":"a698e6fe-68fe-4b74-800e-582c43813e2f","system_id":"levelo_inurba_marseille","lat":43.28098,"lon":5.378526,"is_reserved":false,"is_disabled":false,"rental_uris":{"android":"levelo://app?vid=a698e6fe-68fe-4b74-800e-582c43813e2f","ios":"levelo://app?vid=a698e6fe-68fe-4b74-800e-582c43813e2f"},"vehicle_type_id":"4","last_reported":1744816265,"current_range_meters":20000,"station_id":"ce4bha12rcd13ifvqee0","pricing_plan_id":"cebpf4jnsgd1na2vs0mg"},{"bike_id":"e09b4c34-6357-43c3-84ad-0a95a8ec10e5","system_id":"levelo_inurba_marseille","lat":43.22502,"lon":5.34786,"is_reserved":false,"is_disabled":false,"rental_uris":{"android":"levelo://app?vid=e09b4c34-6357-43c3-84ad-0a95a8ec10e5","ios":"levelo://app?vid=e09b4c34-6357-43c3-84ad-0a95a8ec10e5"},"vehicle_type_id":"4","last_reported":1744816265,"current_range_meters":20400,"station_id":"st_cvj5dfep6f1abm77gieg","pricing_plan_id":"cebpf4jnsgd1na2vs0mg"},{"bike_id":"08f4dcee-7656-4957-9022-f13783bb2667","system_id":"levelo_inurba_marseille","lat":43.29701,"lon":5.37243,"is_reserved":false,"is_disabled":false,"rental_uris":{"android":"levelo://app?vid=08f4dcee-7656-4957-9022-f13783bb2667","ios":"levelo://app?vid=08f4dcee-7656-4957-9022-f13783bb2667"},"vehicle_type_id":"4","last_reported":1744816265,"current_range_meters":20400,"station_id":"ce4bgk12rcd13ifvqbj0","pricing_plan_id":"cebpf4jnsgd1na2vs0mg"},{"bike_id":"ccb7a8e4-757c-4e6f-90e3-f97fac7da5b7","system_id":"levelo_inurba_marseille","lat":43.29269,"lon":5.38434,"is_reserved":false,"is_disabled":false,"rental_uris":{"android":"levelo://app?vid=ccb7a8e4-757c-4e6f-90e3-f97fac7da5b7","ios":"levelo://app?vid=ccb7a8e4-757c-4e6f-90e3-f97fac7da5b7"},"vehicle_type_id":"4","last_reported":1744816265,"current_range_meters":20400,"station_id":"ce4bh692rcd13ifvqea0","pricing_plan_id":"cebpf4jnsgd1na2vs0mg"},{"bike_id":"7b9fa4b0-e3bd-494b-a2dd-352fc674b297","system_id":"levelo_inurba_marseille","lat":43.29632,"lon":5.37715,"is_reserved":false,"is_disabled":false,"rental_uris":{"android":"levelo://app?vid=7b9fa4b0-e3bd-494b-a2dd-352fc674b297","ios":"levelo://app?vid=7b9fa4b0-e3bd-494b-a2dd-352fc674b297"},"vehicle_type_id":"4","last_reported":1744816265,"current_range_meters":20000,"station_id":"ce4bgi92rcd13ifvqb90","pricing_plan_id":"cebpf4jnsgd1na2vs0mg"},{"bike_id":"6f2360da-5688-4f6a-8ebd-9e32ee7c678f","system_id":"levelo_inurba_marseille","lat":43.316888,"lon":5.404762,"is_reserved":false,"is_disabled":false,"rental_uris":{"android":"levelo://app?vid=6f2360da-5688-4f6a-8ebd-9e32ee7c678f","ios":"levelo://app?vid=6f2360da-5688-4f6a-8ebd-9e32ee7c678f"},"vehicle_type_id":"4","last_reported":1744816265,"current_range_meters":20400,"station_id":"ce4bh012rcd13ifvqd00","pricing_plan_id":"cebpf4jnsgd1na2vs0mg"},{"bike_id":"d87b0062-8eb4-4f68-a858-d6abd43b6efa","system_id":"levelo_inurba_marseille","lat":43.29054,"lon":5.40002,"is_reserved":false,"is_disabled":false,"rental_uris":{"android":"levelo://app?vid=d87b0062-8eb4-4f68-a858-d6abd43b6efa","ios":"levelo://app?vid=d87b0062-8eb4-4f68-a858-d6abd43b6efa"},"vehicle_type_id":"4","last_reported":1744816265,"current_range_meters":20800,"station_id":"ce4bh392rcd13ifvqdm0","pricing_plan_id":"cebpf4jnsgd1na2vs0mg"},{"bike_id":"d39e5537-c00a-4bf8-9f22-53966b448679","system_id":"levelo_inurba_marseille","lat":43.29567,"lon":5.42274,"is_reserved":false,"is_disabled":false,"rental_uris":{"android":"levelo://app?vid=d39e5537-c00a-4bf8-9f22-53966b448679","ios":"levelo://app?vid=d39e5537-c00a-4bf8-9f22-53966b448679"},"vehicle_type_id":"4","last_reported":1744816265,"current_range_meters":20800,"station_id":"ce4bhph2rcd13ifvqhdg","pricing_plan_id":"cebpf4jnsgd1na2vs0mg"},{"bike_id":"1a64a36b-28a2-4030-a7bb-7da4fb32c6a8","system_id":"levelo_inurba_marseille","lat":43.31711,"lon":5.37731,"is_reserved":false,"is_disabled":false,"rental_uris":{"android":"levelo://app?vid=1a64a36b-28a2-4030-a7bb-7da4fb32c6a8","ios":"levelo://app?vid=1a64a36b-28a2-4030-a7bb-7da4fb32c6a8"},"vehicle_type_id":"4","last_reported":1744816265,"current_range_meters":20800,"station_id":"ce4bgth2rcd13ifvqch0","pricing_plan_id":"cebpf4jnsgd1na2vs0mg"},{"bike_id":"2984cec8-23de-4a73-97a3-c0829eb8b5c7","system_id":"levelo_inurba_marseille","lat":43.27921,"lon":5.39595,"is_reserved":false,"is_disabled":false,"rental_uris":{"android":"levelo://app?vid=2984cec8-23de-4a73-97a3-c0829eb8b5c7","ios":"levelo://app?vid=2984cec8-23de-4a73-97a3-c0829eb8b5c7"},"vehicle_type_id":"4","last_reported":1744816265,"current_range_meters":20800,"station_id":"ce4bhf92rcd13ifvqf40","pricing_plan_id":"cebpf4jnsgd1na2vs0mg"},{"bike_id":"ec9462a2-f109-49bd-8ded-f87f8d5cd752","system_id":"levelo_inurba_marseille","lat":43.25003,"lon":5.38922,"is_reserved":false,"is_disabled":false,"rental_uris":{"android":"levelo://app?vid=ec9462a2-f109-49bd-8ded-f87f8d5cd752","ios":"levelo://app?vid=ec9462a2-f109-49bd-8ded-f87f8d5cd752"},"vehicle_type_id":"4","last_reported":1744816265,"current_range_meters":20800,"station_id":"ce4bhgp2rcd13ifvqfd0","pricing_plan_id":"cebpf4jnsgd1na2vs0mg"},{"bike_id":"f530fa23-d206-4d17-82da-19fe4e3f34bf","system_id":"levelo_inurba_marseille","lat":43.290284,"lon":5.38647,"is_reserved":false,"is_disabled":false,"rental_uris":{"android":"levelo://app?vid=f530fa23-d206-4d17-82da-19fe4e3f34bf","ios":"levelo://app?vid=f530fa23-d206-4d17-82da-19fe4e3f34bf"},"vehicle_type_id":"4","last_reported":1744816265,"current_range_meters":20800,"station_id":"ce4bh4p2rcd13ifvqe0g","pricing_plan_id":"cebpf4jnsgd1na2vs0mg"},{"bike_id":"6163a5bc-9d06-489d-969f-5e490886d399","system_id":"levelo_inurba_marseille","lat":43.273067,"lon":5.39075,"is_reserved":false,"is_disabled":false,"rental_uris":{"android":"levelo://app?vid=6163a5bc-9d06-489d-969f-5e490886d399","ios":"levelo://app?vid=6163a5bc-9d06-489d-969f-5e490886d399"},"vehicle_type_id":"4","last_reported":1744816265,"current_range_meters":20800,"station_id":"ce4bhgp2rcd13ifvqfe0","pricing_plan_id":"cebpf4jnsgd1na2vs0mg"},{"bike_id":"5dcdba20-c421-403e-9fc9-2e0f516a830a","system_id":"levelo_inurba_marseille","lat":43.30355,"lon":5.37736,"is_reserved":false,"is_disabled":false,"rental_uris":{"android":"levelo://app?vid=5dcdba20-c421-403e-9fc9-2e0f516a830a","ios":"levelo://app?vid=5dcdba20-c421-403e-9fc9-2e0f516a830a"},"vehicle_type_id":"4","last_reported":1744816265,"current_range_meters":21600,"station_id":"ce4bguh2rcd13ifvqcj0","pricing_plan_id":"cebpf4jnsgd1na2vs0mg"},{"bike_id":"78f68681-70d6-4c9c-a664-15da65fd6e87","system_id":"levelo_inurba_marseille","lat":43.29246,"lon":5.40906,"is_reserved":false,"is_disabled":false,"rental_uris":{"android":"levelo://app?vid=78f68681-70d6-4c9c-a664-15da65fd6e87","ios":"levelo://app?vid=78f68681-70d6-4c9c-a664-15da65fd6e87"},"vehicle_type_id":"4","last_reported":1744816265,"current_range_meters":21600,"station_id":"ce4bh192rcd13ifvqdc0","pricing_plan_id":"cebpf4jnsgd1na2vs0mg"},{"bike_id":"00677f2a-2310-4179-88a1-0dbe2aa6309b","system_id":"levelo_inurba_marseille","lat":43.29074,"lon":5.37166,"is_reserved":false,"is_disabled":false,"rental_uris":{"android":"levelo://app?vid=00677f2a-2310-4179-88a1-0dbe2aa6309b","ios":"levelo://app?vid=00677f2a-2310-4179-88a1-0dbe2aa6309b"},"vehicle_type_id":"4","last_reported":1744816265,"current_range_meters":21600,"station_id":"ce4bh5p2rcd13ifvqe4g","pricing_plan_id":"cebpf4jnsgd1na2vs0mg"},{"bike_id":"f49c4e21-3368-4dd3-b8d1-f136aaf28dbc","system_id":"levelo_inurba_marseille","lat":43.31241,"lon":5.36919,"is_reserved":false,"is_disabled":false,"rental_uris":{"android":"levelo://app?vid=f49c4e21-3368-4dd3-b8d1-f136aaf28dbc","ios":"levelo://app?vid=f49c4e21-3368-4dd3-b8d1-f136aaf28dbc"},"vehicle_type_id":"4","last_reported":1744816265,"current_range_meters":22000,"station_id":"ce4bgl92rcd13ifvqbq0","pricing_plan_id":"cebpf4jnsgd1na2vs0mg"},{"bike_id":"59eaa5be-729f-4913-a23a-c932fcb9f900","system_id":"levelo_inurba_marseille","lat":43.3031,"lon":5.36898,"is_reserved":false,"is_disabled":false,"rental_uris":{"android":"levelo://app?vid=59eaa5be-729f-4913-a23a-c932fcb9f900","ios":"levelo://app?vid=59eaa5be-729f-4913-a23a-c932fcb9f900"},"vehicle_type_id":"4","last_reported":1744816265,"current_range_meters":22000,"station_id":"ce4bgqh2rcd13ifvqc5g","pricing_plan_id":"cebpf4jnsgd1na2vs0mg"},{"bike_id":"d173482c-33fe-4e3f-b3dc-50194ba6dd74","system_id":"levelo_inurba_marseille","lat":43.24196,"lon":5.39755,"is_reserved":false,"is_disabled":false,"rental_uris":{"android":"levelo://app?vid=d173482c-33fe-4e3f-b3dc-50194ba6dd74","ios":"levelo://app?vid=d173482c-33fe-4e3f-b3dc-50194ba6dd74"},"vehicle_type_id":"4","last_reported":1744816265,"current_range_meters":22000,"station_id":"ce4bhn12rcd13ifvqgpg","pricing_plan_id":"cebpf4jnsgd1na2vs0mg"},{"bike_id":"8fd2cdd0-07d7-4c01-add2-10309aca4136","system_id":"levelo_inurba_marseille","lat":43.267169,"lon":5.394645,"is_reserved":false,"is_disabled":true,"rental_uris":{"android":"levelo://app?vid=8fd2cdd0-07d7-4c01-add2-10309aca4136","ios":"levelo://app?vid=8fd2cdd0-07d7-4c01-add2-10309aca4136"},"vehicle_type_id":"4","last_reported":1744816265,"current_range_meters":22000,"station_id":"","pricing_plan_id":"cebpf4jnsgd1na2vs0mg"},{"bike_id":"0c2e97a9-1e3f-48ce-9c8f-fb64db72d21b","system_id":"levelo_inurba_marseille","lat":43.29555,"lon":5.38517,"is_reserved":false,"is_disabled":false,"rental_uris":{"android":"levelo://app?vid=0c2e97a9-1e3f-48ce-9c8f-fb64db72d21b","ios":"levelo://app?vid=0c2e97a9-1e3f-48ce-9c8f-fb64db72d21b"},"vehicle_type_id":"4","last_reported":1744816265,"current_range_meters":22000,"station_id":"ce4bgih2rcd13ifvqba0","pricing_plan_id":"cebpf4jnsgd1na2vs0mg"},{"bike_id":"95cb4257-47a7-43ca-9e16-7d5e93c960cc","system_id":"levelo_inurba_marseille","lat":43.31256,"lon":5.36774,"is_reserved":false,"is_disabled":false,"rental_uris":{"android":"levelo://app?vid=95cb4257-47a7-43ca-9e16-7d5e93c960cc","ios":"levelo://app?vid=95cb4257-47a7-43ca-9e16-7d5e93c960cc"},"vehicle_type_id":"4","last_reported":1744816265,"current_range_meters":22000,"station_id":"ce4bgl92rcd13ifvqbq0","pricing_plan_id":"cebpf4jnsgd1na2vs0mg"},{"bike_id":"abb2de47-ed6b-4551-aa9e-ba4f01a38449","system_id":"levelo_inurba_marseille","lat":43.30465,"lon":5.37918,"is_reserved":false,"is_disabled":false,"rental_uris":{"android":"levelo://app?vid=abb2de47-ed6b-4551-aa9e-ba4f01a38449","ios":"levelo://app?vid=abb2de47-ed6b-4551-aa9e-ba4f01a38449"},"vehicle_type_id":"4","last_reported":1744816265,"current_range_meters":22000,"station_id":"ce4bgup2rcd13ifvqcn0","pricing_plan_id":"cebpf4jnsgd1na2vs0mg"},{"bike_id":"fd5a6075-bf25-4fce-998b-3ea43a88ccb5","system_id":"levelo_inurba_marseille","lat":43.31274,"lon":5.40165,"is_reserved":false,"is_disabled":false,"rental_uris":{"android":"levelo://app?vid=fd5a6075-bf25-4fce-998b-3ea43a88ccb5","ios":"levelo://app?vid=fd5a6075-bf25-4fce-998b-3ea43a88ccb5"},"vehicle_type_id":"4","last_reported":1744816265,"current_range_meters":22000,"station_id":"ce4bh092rcd13ifvqd30","pricing_plan_id":"cebpf4jnsgd1na2vs0mg"},{"bike_id":"e1754e8b-bcb5-4644-844b-455aaa0dcae2","system_id":"levelo_inurba_marseille","lat":43.30146,"lon":5.38765,"is_reserved":false,"is_disabled":false,"rental_uris":{"android":"levelo://app?vid=e1754e8b-bcb5-4644-844b-455aaa0dcae2","ios":"levelo://app?vid=e1754e8b-bcb5-4644-844b-455aaa0dcae2"},"vehicle_type_id":"4","last_reported":1744816265,"current_range_meters":21600,"station_id":"ce4bghh2rcd13ifvqb60","pricing_plan_id":"cebpf4jnsgd1na2vs0mg"},{"bike_id":"20e13665-04b2-4e44-8830-962eacafddd2","system_id":"levelo_inurba_marseille","lat":43.26208,"lon":5.37441,"is_reserved":false,"is_disabled":false,"rental_uris":{"android":"levelo://app?vid=20e13665-04b2-4e44-8830-962eacafddd2","ios":"levelo://app?vid=20e13665-04b2-4e44-8830-962eacafddd2"},"vehicle_type_id":"4","last_reported":1744816265,"current_range_meters":22400,"station_id":"ce4bhgp2rcd13ifvqfc0","pricing_plan_id":"cebpf4jnsgd1na2vs0mg"},{"bike_id":"41fb0398-f2fe-4abb-ae37-a38f47615ea9","system_id":"levelo_inurba_marseille","lat":43.32346,"lon":5.36758,"is_reserved":false,"is_disabled":false,"rental_uris":{"android":"levelo://app?vid=41fb0398-f2fe-4abb-ae37-a38f47615ea9","ios":"levelo://app?vid=41fb0398-f2fe-4abb-ae37-a38f47615ea9"},"vehicle_type_id":"4","last_reported":1744816265,"current_range_meters":22400,"station_id":"ce4bhsh2rcd13ifvqi2g","pricing_plan_id":"cebpf4jnsgd1na2vs0mg"},{"bike_id":"6b25c985-766f-4506-85f5-cbe4c5c089d4","system_id":"levelo_inurba_marseille","lat":43.2956,"lon":5.37514,"is_reserved":false,"is_disabled":false,"rental_uris":{"android":"levelo://app?vid=6b25c985-766f-4506-85f5-cbe4c5c089d4","ios":"levelo://app?vid=6b25c985-766f-4506-85f5-cbe4c5c089d4"},"vehicle_type_id":"4","last_reported":1744816265,"current_range_meters":22400,"station_id":"ce4bgh92rcd13ifvqb50","pricing_plan_id":"cebpf4jnsgd1na2vs0mg"},{"bike_id":"04fb422e-0aec-4205-8e11-f392462c55c3","system_id":"levelo_inurba_marseille","lat":43.26795,"lon":5.40255,"is_reserved":false,"is_disabled":false,"rental_uris":{"android":"levelo://app?vid=04fb422e-0aec-4205-8e11-f392462c55c3","ios":"levelo://app?vid=04fb422e-0aec-4205-8e11-f392462c55c3"},"vehicle_type_id":"4","last_reported":1744816265,"current_range_meters":22400,"station_id":"ce501612rcd8frsf0b60","pricing_plan_id":"cebpf4jnsgd1na2vs0mg"},{"bike_id":"272ea20a-4c31-4d01-a01c-10f418156f2e","system_id":"levelo_inurba_marseille","lat":43.23156,"lon":5.43707,"is_reserved":false,"is_disabled":false,"rental_uris":{"android":"levelo://app?vid=272ea20a-4c31-4d01-a01c-10f418156f2e","ios":"levelo://app?vid=272ea20a-4c31-4d01-a01c-10f418156f2e"},"vehicle_type_id":"4","last_reported":1744816265,"current_range_meters":22400,"station_id":"ce4bhmp2rcd13ifvqgog","pricing_plan_id":"cebpf4jnsgd1na2vs0mg"},{"bike_id":"0f1f7a77-09e0-4e89-93d1-8f66b799b48e","system_id":"levelo_inurba_marseille","lat":43.29286,"lon":5.36833,"is_reserved":false,"is_disabled":false,"rental_uris":{"android":"levelo://app?vid=0f1f7a77-09e0-4e89-93d1-8f66b799b48e","ios":"levelo://app?vid=0f1f7a77-09e0-4e89-93d1-8f66b799b48e"},"vehicle_type_id":"4","last_reported":1744816265,"current_range_meters":22800,"station_id":"ce4bhbp2rcd13ifvqesg","pricing_plan_id":"cebpf4jnsgd1na2vs0mg"},{"bike_id":"5c9c0bb7-1ad4-4457-b88d-83abed81f559","system_id":"levelo_inurba_marseille","lat":43.29901,"lon":5.38137,"is_reserved":false,"is_disabled":false,"rental_uris":{"android":"levelo://app?vid=5c9c0bb7-1ad4-4457-b88d-83abed81f559","ios":"levelo://app?vid=5c9c0bb7-1ad4-4457-b88d-83abed81f559"},"vehicle_type_id":"4","last_reported":1744816265,"current_range_meters":22800,"station_id":"ce4bgj12rcd13ifvqbc0","pricing_plan_id":"cebpf4jnsgd1na2vs0mg"},{"bike_id":"8934c9ff-b955-4903-b5d2-c595dc711b7c","system_id":"levelo_inurba_marseille","lat":43.29587,"lon":5.39989,"is_reserved":false,"is_disabled":true,"rental_uris":{"android":"levelo://app?vid=8934c9ff-b955-4903-b5d2-c595dc711b7c","ios":"levelo://app?vid=8934c9ff-b955-4903-b5d2-c595dc711b7c"},"vehicle_type_id":"4","last_reported":1744816265,"current_range_meters":22800,"station_id":"ce4bh312rcd13ifvqdj0","pricing_plan_id":"cebpf4jnsgd1na2vs0mg"},{"bike_id":"4ab43c8f-2442-44d2-844d-0e2cb5bfba0c","system_id":"levelo_inurba_marseille","lat":43.30583,"lon":5.36539,"is_reserved":false,"is_disabled":false,"rental_uris":{"android":"levelo://app?vid=4ab43c8f-2442-44d2-844d-0e2cb5bfba0c","ios":"levelo://app?vid=4ab43c8f-2442-44d2-844d-0e2cb5bfba0c"},"vehicle_type_id":"4","last_reported":1744816265,"current_range_meters":22800,"station_id":"ce4bgs12rcd13ifvqcag","pricing_plan_id":"cebpf4jnsgd1na2vs0mg"},{"bike_id":"ed8407f7-4e42-4d25-b902-ef1c6cb83a12","system_id":"levelo_inurba_marseille","lat":43.2419,"lon":5.36414,"is_reserved":false,"is_disabled":false,"rental_uris":{"android":"levelo://app?vid=ed8407f7-4e42-4d25-b902-ef1c6cb83a12","ios":"levelo://app?vid=ed8407f7-4e42-4d25-b902-ef1c6cb83a12"},"vehicle_type_id":"4","last_reported":1744816265,"current_range_meters":22800,"station_id":"cpo36qri1sfpv3e86is0","pricing_plan_id":"cebpf4jnsgd1na2vs0mg"},{"bike_id":"c73ab921-dd9a-4810-95bf-f34353c47ee8","system_id":"levelo_inurba_marseille","lat":43.303,"lon":5.37724,"is_reserved":false,"is_disabled":false,"rental_uris":{"android":"levelo://app?vid=c73ab921-dd9a-4810-95bf-f34353c47ee8","ios":"levelo://app?vid=c73ab921-dd9a-4810-95bf-f34353c47ee8"},"vehicle_type_id":"4","last_reported":1744816265,"current_range_meters":22800,"station_id":"ce4bguh2rcd13ifvqcj0","pricing_plan_id":"cebpf4jnsgd1na2vs0mg"},{"bike_id":"b9dfa66f-a7c2-4ca7-9d02-83955605dbd9","system_id":"levelo_inurba_marseille","lat":43.30442,"lon":5.389,"is_reserved":false,"is_disabled":false,"rental_uris":{"android":"levelo://app?vid=b9dfa66f-a7c2-4ca7-9d02-83955605dbd9","ios":"levelo://app?vid=b9dfa66f-a7c2-4ca7-9d02-83955605dbd9"},"vehicle_type_id":"4","last_reported":1744816265,"current_range_meters":22800,"station_id":"ce4bgk12rcd13ifvqbi0","pricing_plan_id":"cebpf4jnsgd1na2vs0mg"},{"bike_id":"e493ecd6-d681-4a3e-9df6-6f186c335fea","system_id":"levelo_inurba_marseille","lat":43.30604,"lon":5.37222,"is_reserved":false,"is_disabled":false,"rental_uris":{"android":"levelo://app?vid=e493ecd6-d681-4a3e-9df6-6f186c335fea","ios":"levelo://app?vid=e493ecd6-d681-4a3e-9df6-6f186c335fea"},"vehicle_type_id":"4","last_reported":1744816265,"current_range_meters":23200,"station_id":"ce4bgqh2rcd13ifvqc4g","pricing_plan_id":"cebpf4jnsgd1na2vs0mg"},{"bike_id":"9b32d9b0-b425-4d34-812f-0c610ee31565","system_id":"levelo_inurba_marseille","lat":43.302079,"lon":5.394593,"is_reserved":false,"is_disabled":true,"rental_uris":{"android":"levelo://app?vid=9b32d9b0-b425-4d34-812f-0c610ee31565","ios":"levelo://app?vid=9b32d9b0-b425-4d34-812f-0c610ee31565"},"vehicle_type_id":"4","last_reported":1744816265,"current_range_meters":23200,"station_id":"ce4bh0p2rcd13ifvqd70","pricing_plan_id":"cebpf4jnsgd1na2vs0mg"},{"bike_id":"327df600-16a2-4306-a905-98ad19fbb263","system_id":"levelo_inurba_marseille","lat":43.2963,"lon":5.38028,"is_reserved":false,"is_disabled":false,"rental_uris":{"android":"levelo://app?vid=327df600-16a2-4306-a905-98ad19fbb263","ios":"levelo://app?vid=327df600-16a2-4306-a905-98ad19fbb263"},"vehicle_type_id":"4","last_reported":1744816265,"current_range_meters":23200,"station_id":"","pricing_plan_id":"cebpf4jnsgd1na2vs0mg"},{"bike_id":"789c3822-56ca-4769-bcd4-8845bdea2fda","system_id":"levelo_inurba_marseille","lat":43.2417,"lon":5.36391,"is_reserved":false,"is_disabled":false,"rental_uris":{"android":"levelo://app?vid=789c3822-56ca-4769-bcd4-8845bdea2fda","ios":"levelo://app?vid=789c3822-56ca-4769-bcd4-8845bdea2fda"},"vehicle_type_id":"4","last_reported":1744816265,"current_range_meters":23200,"station_id":"cpo36qri1sfpv3e86is0","pricing_plan_id":"cebpf4jnsgd1na2vs0mg"},{"bike_id":"7eb8853e-3665-40f5-8308-1299f0674652","system_id":"levelo_inurba_marseille","lat":43.30394,"lon":5.42478,"is_reserved":false,"is_disabled":false,"rental_uris":{"android":"levelo://app?vid=7eb8853e-3665-40f5-8308-1299f0674652","ios":"levelo://app?vid=7eb8853e-3665-40f5-8308-1299f0674652"},"vehicle_type_id":"4","last_reported":1744816265,"current_range_meters":23200,"station_id":"ce4bghh2rcd13ifvqb60","pricing_plan_id":"cebpf4jnsgd1na2vs0mg"},{"bike_id":"bc140d56-5426-4329-8de2-925ded4c3ae5","system_id":"levelo_inurba_marseille","lat":43.30552,"lon":5.36738,"is_reserved":false,"is_disabled":false,"rental_uris":{"android":"levelo://app?vid=bc140d56-5426-4329-8de2-925ded4c3ae5","ios":"levelo://app?vid=bc140d56-5426-4329-8de2-925ded4c3ae5"},"vehicle_type_id":"4","last_reported":1744816265,"current_range_meters":24000,"station_id":"ce4bgrp2rcd13ifvqc9g","pricing_plan_id":"cebpf4jnsgd1na2vs0mg"},{"bike_id":"451a10a5-6e0a-4b9b-b0d7-d69dae22de5a","system_id":"levelo_inurba_marseille","lat":43.30853,"lon":5.39664,"is_reserved":false,"is_disabled":false,"rental_uris":{"android":"levelo://app?vid=451a10a5-6e0a-4b9b-b0d7-d69dae22de5a","ios":"levelo://app?vid=451a10a5-6e0a-4b9b-b0d7-d69dae22de5a"},"vehicle_type_id":"4","last_reported":1744816265,"current_range_meters":23200,"station_id":"ce4bh012rcd13ifvqcv0","pricing_plan_id":"cebpf4jnsgd1na2vs0mg"},{"bike_id":"6987086d-342c-4778-a3c5-6158834407f6","system_id":"levelo_inurba_marseille","lat":43.298469,"lon":5.402628,"is_reserved":false,"is_disabled":false,"rental_uris":{"android":"levelo://app?vid=6987086d-342c-4778-a3c5-6158834407f6","ios":"levelo://app?vid=6987086d-342c-4778-a3c5-6158834407f6"},"vehicle_type_id":"4","last_reported":1744816265,"current_range_meters":23200,"station_id":"ce4bh112rcd13ifvqd90","pricing_plan_id":"cebpf4jnsgd1na2vs0mg"},{"bike_id":"5e6be620-a3d0-49c3-9ff0-b85332cde817","system_id":"levelo_inurba_marseille","lat":43.239652,"lon":5.366299,"is_reserved":false,"is_disabled":false,"rental_uris":{"android":"levelo://app?vid=5e6be620-a3d0-49c3-9ff0-b85332cde817","ios":"levelo://app?vid=5e6be620-a3d0-49c3-9ff0-b85332cde817"},"vehicle_type_id":"4","last_reported":1744816265,"current_range_meters":23200,"station_id":"ce4bhu92rcd13ifvqi70","pricing_plan_id":"cebpf4jnsgd1na2vs0mg"},{"bike_id":"8d631704-7df1-4c86-bc42-234be877196a","system_id":"levelo_inurba_marseille","lat":43.30524,"lon":5.36531,"is_reserved":false,"is_disabled":false,"rental_uris":{"android":"levelo://app?vid=8d631704-7df1-4c86-bc42-234be877196a","ios":"levelo://app?vid=8d631704-7df1-4c86-bc42-234be877196a"},"vehicle_type_id":"4","last_reported":1744816265,"current_range_meters":24000,"station_id":"ce4bgs12rcd13ifvqcag","pricing_plan_id":"cebpf4jnsgd1na2vs0mg"},{"bike_id":"ec89c210-3c21-4708-958a-dedc8c3e7ca2","system_id":"levelo_inurba_marseille","lat":43.30546,"lon":5.36533,"is_reserved":false,"is_disabled":false,"rental_uris":{"android":"levelo://app?vid=ec89c210-3c21-4708-958a-dedc8c3e7ca2","ios":"levelo://app?vid=ec89c210-3c21-4708-958a-dedc8c3e7ca2"},"vehicle_type_id":"4","last_reported":1744816265,"current_range_meters":24000,"station_id":"ce4bgs12rcd13ifvqcag","pricing_plan_id":"cebpf4jnsgd1na2vs0mg"},{"bike_id":"7ed91d22-3d5b-4254-83bf-64eb2a7d5481","system_id":"levelo_inurba_marseille","lat":43.22501,"lon":5.34777,"is_reserved":false,"is_disabled":false,"rental_uris":{"android":"levelo://app?vid=7ed91d22-3d5b-4254-83bf-64eb2a7d5481","ios":"levelo://app?vid=7ed91d22-3d5b-4254-83bf-64eb2a7d5481"},"vehicle_type_id":"4","last_reported":1744816265,"current_range_meters":24000,"station_id":"","pricing_plan_id":"cebpf4jnsgd1na2vs0mg"},{"bike_id":"5c50ae30-5f77-4243-86fb-00e2d7606f9b","system_id":"levelo_inurba_marseille","lat":43.29816,"lon":5.3811,"is_reserved":false,"is_disabled":false,"rental_uris":{"android":"levelo://app?vid=5c50ae30-5f77-4243-86fb-00e2d7606f9b","ios":"levelo://app?vid=5c50ae30-5f77-4243-86fb-00e2d7606f9b"},"vehicle_type_id":"4","last_reported":1744816265,"current_range_meters":24000,"station_id":"ce4bgip2rcd13ifvqbb0","pricing_plan_id":"cebpf4jnsgd1na2vs0mg"},{"bike_id":"4c19127d-2cf5-4d3c-a744-3a716ad5552e","system_id":"levelo_inurba_marseille","lat":43.260268,"lon":5.376153,"is_reserved":false,"is_disabled":false,"rental_uris":{"android":"levelo://app?vid=4c19127d-2cf5-4d3c-a744-3a716ad5552e","ios":"levelo://app?vid=4c19127d-2cf5-4d3c-a744-3a716ad5552e"},"vehicle_type_id":"4","last_reported":1744816265,"current_range_meters":23200,"station_id":"ce4bhgh2rcd13ifvqfa0","pricing_plan_id":"cebpf4jnsgd1na2vs0mg"},{"bike_id":"efa8f913-87c0-496c-8c40-335b871b79e6","system_id":"levelo_inurba_marseille","lat":43.28111,"lon":5.37855,"is_reserved":false,"is_disabled":false,"rental_uris":{"android":"levelo://app?vid=efa8f913-87c0-496c-8c40-335b871b79e6","ios":"levelo://app?vid=efa8f913-87c0-496c-8c40-335b871b79e6"},"vehicle_type_id":"4","last_reported":1744816265,"current_range_meters":24000,"station_id":"ce4bha12rcd13ifvqee0","pricing_plan_id":"cebpf4jnsgd1na2vs0mg"},{"bike_id":"2d94ed43-5644-4e24-a254-01c8094a35f0","system_id":"levelo_inurba_marseille","lat":43.27066,"lon":5.40261,"is_reserved":false,"is_disabled":false,"rental_uris":{"android":"levelo://app?vid=2d94ed43-5644-4e24-a254-01c8094a35f0","ios":"levelo://app?vid=2d94ed43-5644-4e24-a254-01c8094a35f0"},"vehicle_type_id":"4","last_reported":1744816265,"current_range_meters":24000,"station_id":"ce4bhk92rcd13ifvqgc0","pricing_plan_id":"cebpf4jnsgd1na2vs0mg"},{"bike_id":"33efbe4e-e642-4271-be29-4926b421ca5b","system_id":"levelo_inurba_marseille","lat":43.24159,"lon":5.36398,"is_reserved":false,"is_disabled":false,"rental_uris":{"android":"levelo://app?vid=33efbe4e-e642-4271-be29-4926b421ca5b","ios":"levelo://app?vid=33efbe4e-e642-4271-be29-4926b421ca5b"},"vehicle_type_id":"4","last_reported":1744816265,"current_range_meters":24000,"station_id":"cpo36qri1sfpv3e86is0","pricing_plan_id":"cebpf4jnsgd1na2vs0mg"},{"bike_id":"e181e564-f0a0-49de-86b2-576d5f576598","system_id":"levelo_inurba_marseille","lat":43.25872,"lon":5.39895,"is_reserved":false,"is_disabled":false,"rental_uris":{"android":"levelo://app?vid=e181e564-f0a0-49de-86b2-576d5f576598","ios":"levelo://app?vid=e181e564-f0a0-49de-86b2-576d5f576598"},"vehicle_type_id":"4","last_reported":1744816265,"current_range_meters":24000,"station_id":"ce4bhl92rcd13ifvqghg","pricing_plan_id":"cebpf4jnsgd1na2vs0mg"},{"bike_id":"3d999bdc-1f29-44e8-a2e4-0bf05be8a990","system_id":"levelo_inurba_marseille","lat":43.32485,"lon":5.36592,"is_reserved":false,"is_disabled":false,"rental_uris":{"android":"levelo://app?vid=3d999bdc-1f29-44e8-a2e4-0bf05be8a990","ios":"levelo://app?vid=3d999bdc-1f29-44e8-a2e4-0bf05be8a990"},"vehicle_type_id":"4","last_reported":1744816265,"current_range_meters":24400,"station_id":"ce4bhs12rcd13ifvqhvg","pricing_plan_id":"cebpf4jnsgd1na2vs0mg"},{"bike_id":"da9385be-9753-44ca-a738-f49ae91fe80c","system_id":"levelo_inurba_marseille","lat":43.29092,"lon":5.38143,"is_reserved":false,"is_disabled":false,"rental_uris":{"android":"levelo://app?vid=da9385be-9753-44ca-a738-f49ae91fe80c","ios":"levelo://app?vid=da9385be-9753-44ca-a738-f49ae91fe80c"},"vehicle_type_id":"4","last_reported":1744816265,"current_range_meters":24400,"station_id":"ce4bh512rcd13ifvqe2g","pricing_plan_id":"cebpf4jnsgd1na2vs0mg"},{"bike_id":"68342d9f-f0b6-47e7-b690-b27078e67a77","system_id":"levelo_inurba_marseille","lat":43.24175,"lon":5.36395,"is_reserved":false,"is_disabled":false,"rental_uris":{"android":"levelo://app?vid=68342d9f-f0b6-47e7-b690-b27078e67a77","ios":"levelo://app?vid=68342d9f-f0b6-47e7-b690-b27078e67a77"},"vehicle_type_id":"4","last_reported":1744816265,"current_range_meters":24400,"station_id":"cpo36qri1sfpv3e86is0","pricing_plan_id":"cebpf4jnsgd1na2vs0mg"},{"bike_id":"2a3df68e-728a-4b9c-bbc2-4259a4448e26","system_id":"levelo_inurba_marseille","lat":43.27987,"lon":5.40032,"is_reserved":false,"is_disabled":false,"rental_uris":{"android":"levelo://app?vid=2a3df68e-728a-4b9c-bbc2-4259a4448e26","ios":"levelo://app?vid=2a3df68e-728a-4b9c-bbc2-4259a4448e26"},"vehicle_type_id":"4","last_reported":1744816265,"current_range_meters":24400,"station_id":"ce4bho92rcd13ifvqh4g","pricing_plan_id":"cebpf4jnsgd1na2vs0mg"},{"bike_id":"0e62d582-15cd-44a8-8324-4750a5da6088","system_id":"levelo_inurba_marseille","lat":43.28941,"lon":5.39642,"is_reserved":false,"is_disabled":false,"rental_uris":{"android":"levelo://app?vid=0e62d582-15cd-44a8-8324-4750a5da6088","ios":"levelo://app?vid=0e62d582-15cd-44a8-8324-4750a5da6088"},"vehicle_type_id":"4","last_reported":1744816265,"current_range_meters":24000,"station_id":"ce4bh3h2rcd13ifvqdn0","pricing_plan_id":"cebpf4jnsgd1na2vs0mg"},{"bike_id":"89f52e97-869e-41c6-9753-303cbb680b63","system_id":"levelo_inurba_marseille","lat":43.295317,"lon":5.385479,"is_reserved":false,"is_disabled":false,"rental_uris":{"android":"levelo://app?vid=89f52e97-869e-41c6-9753-303cbb680b63","ios":"levelo://app?vid=89f52e97-869e-41c6-9753-303cbb680b63"},"vehicle_type_id":"4","last_reported":1744816265,"current_range_meters":24400,"station_id":"ce4bgih2rcd13ifvqba0","pricing_plan_id":"cebpf4jnsgd1na2vs0mg"},{"bike_id":"947a1f76-2990-4771-b373-54d6c124ae51","system_id":"levelo_inurba_marseille","lat":43.29813,"lon":5.40403,"is_reserved":false,"is_disabled":false,"rental_uris":{"android":"levelo://app?vid=947a1f76-2990-4771-b373-54d6c124ae51","ios":"levelo://app?vid=947a1f76-2990-4771-b373-54d6c124ae51"},"vehicle_type_id":"4","last_reported":1744816265,"current_range_meters":24800,"station_id":"ce4bh112rcd13ifvqd90","pricing_plan_id":"cebpf4jnsgd1na2vs0mg"},{"bike_id":"3d03a228-5dff-430f-942d-e5ceaa114072","system_id":"levelo_inurba_marseille","lat":43.29271,"lon":5.3762,"is_reserved":false,"is_disabled":false,"rental_uris":{"android":"levelo://app?vid=3d03a228-5dff-430f-942d-e5ceaa114072","ios":"levelo://app?vid=3d03a228-5dff-430f-942d-e5ceaa114072"},"vehicle_type_id":"4","last_reported":1744816265,"current_range_meters":24800,"station_id":"ce4bgi12rcd13ifvqb80","pricing_plan_id":"cebpf4jnsgd1na2vs0mg"},{"bike_id":"873bcab6-b973-48ed-b129-34762c209441","system_id":"levelo_inurba_marseille","lat":43.31489,"lon":5.37297,"is_reserved":false,"is_disabled":false,"rental_uris":{"android":"levelo://app?vid=873bcab6-b973-48ed-b129-34762c209441","ios":"levelo://app?vid=873bcab6-b973-48ed-b129-34762c209441"},"vehicle_type_id":"4","last_reported":1744816265,"current_range_meters":24800,"station_id":"ce4bgt12rcd13ifvqcd0","pricing_plan_id":"cebpf4jnsgd1na2vs0mg"},{"bike_id":"748ce7be-303b-4e02-8a76-47e344a3d081","system_id":"levelo_inurba_marseille","lat":43.30159,"lon":5.38093,"is_reserved":false,"is_disabled":false,"rental_uris":{"android":"levelo://app?vid=748ce7be-303b-4e02-8a76-47e344a3d081","ios":"levelo://app?vid=748ce7be-303b-4e02-8a76-47e344a3d081"},"vehicle_type_id":"4","last_reported":1744816265,"current_range_meters":24800,"station_id":"ce4bgjp2rcd13ifvqbh0","pricing_plan_id":"cebpf4jnsgd1na2vs0mg"},{"bike_id":"50942032-0a92-46b4-af35-4f352cc42e7a","system_id":"levelo_inurba_marseille","lat":43.30928,"lon":5.36953,"is_reserved":false,"is_disabled":false,"rental_uris":{"android":"levelo://app?vid=50942032-0a92-46b4-af35-4f352cc42e7a","ios":"levelo://app?vid=50942032-0a92-46b4-af35-4f352cc42e7a"},"vehicle_type_id":"4","last_reported":1744816265,"current_range_meters":24800,"station_id":"","pricing_plan_id":"cebpf4jnsgd1na2vs0mg"},{"bike_id":"bb156f5e-e61f-4ea1-b62d-4053f36ea9ad","system_id":"levelo_inurba_marseille","lat":43.27071,"lon":5.42279,"is_reserved":false,"is_disabled":false,"rental_uris":{"android":"levelo://app?vid=bb156f5e-e61f-4ea1-b62d-4053f36ea9ad","ios":"levelo://app?vid=bb156f5e-e61f-4ea1-b62d-4053f36ea9ad"},"vehicle_type_id":"4","last_reported":1744816265,"current_range_meters":24400,"station_id":"ce4bhk92rcd13ifvqgb0","pricing_plan_id":"cebpf4jnsgd1na2vs0mg"},{"bike_id":"8c0be09f-1a08-4f03-adf3-9ab53d05b7e1","system_id":"levelo_inurba_marseille","lat":43.30439,"lon":5.41276,"is_reserved":false,"is_disabled":true,"rental_uris":{"android":"levelo://app?vid=8c0be09f-1a08-4f03-adf3-9ab53d05b7e1","ios":"levelo://app?vid=8c0be09f-1a08-4f03-adf3-9ab53d05b7e1"},"vehicle_type_id":"4","last_reported":1744816265,"current_range_meters":24800,"station_id":"ce4bhop2rcd13ifvqh8g","pricing_plan_id":"cebpf4jnsgd1na2vs0mg"},{"bike_id":"f9d3fbe6-73e5-424e-af02-f446d5b07152","system_id":"levelo_inurba_marseille","lat":43.2181,"lon":5.34615,"is_reserved":false,"is_disabled":false,"rental_uris":{"android":"levelo://app?vid=f9d3fbe6-73e5-424e-af02-f446d5b07152","ios":"levelo://app?vid=f9d3fbe6-73e5-424e-af02-f446d5b07152"},"vehicle_type_id":"4","last_reported":1744816265,"current_range_meters":24800,"station_id":"st_cvj6r9ubvosntc0bgbag","pricing_plan_id":"cebpf4jnsgd1na2vs0mg"},{"bike_id":"831a4537-6201-4ed0-864c-c6f639c19a24","system_id":"levelo_inurba_marseille","lat":43.32447,"lon":5.36538,"is_reserved":false,"is_disabled":false,"rental_uris":{"android":"levelo://app?vid=831a4537-6201-4ed0-864c-c6f639c19a24","ios":"levelo://app?vid=831a4537-6201-4ed0-864c-c6f639c19a24"},"vehicle_type_id":"4","last_reported":1744816265,"current_range_meters":24800,"station_id":"ce4bhs12rcd13ifvqhvg","pricing_plan_id":"cebpf4jnsgd1na2vs0mg"},{"bike_id":"c305c827-8b59-4e6c-91de-4d8a3fcbcac2","system_id":"levelo_inurba_marseille","lat":43.241665,"lon":5.36399,"is_reserved":false,"is_disabled":false,"rental_uris":{"android":"levelo://app?vid=c305c827-8b59-4e6c-91de-4d8a3fcbcac2","ios":"levelo://app?vid=c305c827-8b59-4e6c-91de-4d8a3fcbcac2"},"vehicle_type_id":"4","last_reported":1744816265,"current_range_meters":24800,"station_id":"cpo36qri1sfpv3e86is0","pricing_plan_id":"cebpf4jnsgd1na2vs0mg"},{"bike_id":"3c9b2525-0ba5-462f-bbcb-3e391ef7072a","system_id":"levelo_inurba_marseille","lat":43.29907,"lon":5.37481,"is_reserved":false,"is_disabled":false,"rental_uris":{"android":"levelo://app?vid=3c9b2525-0ba5-462f-bbcb-3e391ef7072a","ios":"levelo://app?vid=3c9b2525-0ba5-462f-bbcb-3e391ef7072a"},"vehicle_type_id":"4","last_reported":1744816265,"current_range_meters":25200,"station_id":"ce4bgjh2rcd13ifvqbg0","pricing_plan_id":"cebpf4jnsgd1na2vs0mg"},{"bike_id":"c292ce06-3065-4f08-89c5-72ba03ee342f","system_id":"levelo_inurba_marseille","lat":43.27425,"lon":5.39414,"is_reserved":false,"is_disabled":false,"rental_uris":{"android":"levelo://app?vid=c292ce06-3065-4f08-89c5-72ba03ee342f","ios":"levelo://app?vid=c292ce06-3065-4f08-89c5-72ba03ee342f"},"vehicle_type_id":"4","last_reported":1744816265,"current_range_meters":25200,"station_id":"ce4bhdp2rcd13ifvqf20","pricing_plan_id":"cebpf4jnsgd1na2vs0mg"},{"bike_id":"9ff5a7ef-d1e0-4ae6-9224-c69447f908f9","system_id":"levelo_inurba_marseille","lat":43.29889,"lon":5.36263,"is_reserved":false,"is_disabled":false,"rental_uris":{"android":"levelo://app?vid=9ff5a7ef-d1e0-4ae6-9224-c69447f908f9","ios":"levelo://app?vid=9ff5a7ef-d1e0-4ae6-9224-c69447f908f9"},"vehicle_type_id":"4","last_reported":1744816265,"current_range_meters":25200,"station_id":"","pricing_plan_id":"cebpf4jnsgd1na2vs0mg"},{"bike_id":"04cd718a-739b-4f09-8fdf-74e445452766","system_id":"levelo_inurba_marseille","lat":43.31496,"lon":5.37283,"is_reserved":false,"is_disabled":false,"rental_uris":{"android":"levelo://app?vid=04cd718a-739b-4f09-8fdf-74e445452766","ios":"levelo://app?vid=04cd718a-739b-4f09-8fdf-74e445452766"},"vehicle_type_id":"4","last_reported":1744816265,"current_range_meters":25200,"station_id":"ce4bgt12rcd13ifvqcd0","pricing_plan_id":"cebpf4jnsgd1na2vs0mg"},{"bike_id":"b0487ad7-b525-4c48-a103-705afe5b3c0f","system_id":"levelo_inurba_marseille","lat":43.3018,"lon":5.38077,"is_reserved":false,"is_disabled":false,"rental_uris":{"android":"levelo://app?vid=b0487ad7-b525-4c48-a103-705afe5b3c0f","ios":"levelo://app?vid=b0487ad7-b525-4c48-a103-705afe5b3c0f"},"vehicle_type_id":"4","last_reported":1744816265,"current_range_meters":25200,"station_id":"ce4bgjp2rcd13ifvqbh0","pricing_plan_id":"cebpf4jnsgd1na2vs0mg"},{"bike_id":"4b997f7a-36da-47a0-b609-c2add0e7c137","system_id":"levelo_inurba_marseille","lat":43.2862,"lon":5.37057,"is_reserved":false,"is_disabled":false,"rental_uris":{"android":"levelo://app?vid=4b997f7a-36da-47a0-b609-c2add0e7c137","ios":"levelo://app?vid=4b997f7a-36da-47a0-b609-c2add0e7c137"},"vehicle_type_id":"4","last_reported":1744816265,"current_range_meters":25200,"station_id":"ce4bht12rcd13ifvqi60","pricing_plan_id":"cebpf4jnsgd1na2vs0mg"},{"bike_id":"1b7d9bdd-eebb-4b87-9ea2-b24ab5c729c5","system_id":"levelo_inurba_marseille","lat":43.29902,"lon":5.38136,"is_reserved":false,"is_disabled":false,"rental_uris":{"android":"levelo://app?vid=1b7d9bdd-eebb-4b87-9ea2-b24ab5c729c5","ios":"levelo://app?vid=1b7d9bdd-eebb-4b87-9ea2-b24ab5c729c5"},"vehicle_type_id":"4","last_reported":1744816265,"current_range_meters":25200,"station_id":"ce4bgj12rcd13ifvqbc0","pricing_plan_id":"cebpf4jnsgd1na2vs0mg"},{"bike_id":"4f7bc508-0505-44fd-ba44-fccc64589167","system_id":"levelo_inurba_marseille","lat":43.24169,"lon":5.39721,"is_reserved":false,"is_disabled":false,"rental_uris":{"android":"levelo://app?vid=4f7bc508-0505-44fd-ba44-fccc64589167","ios":"levelo://app?vid=4f7bc508-0505-44fd-ba44-fccc64589167"},"vehicle_type_id":"4","last_reported":1744816265,"current_range_meters":25200,"station_id":"ce4bhn12rcd13ifvqgpg","pricing_plan_id":"cebpf4jnsgd1na2vs0mg"},{"bike_id":"39cdcda5-1688-4ef8-a8ba-562ba29d65b6","system_id":"levelo_inurba_marseille","lat":43.27917,"lon":5.3959,"is_reserved":false,"is_disabled":false,"rental_uris":{"android":"levelo://app?vid=39cdcda5-1688-4ef8-a8ba-562ba29d65b6","ios":"levelo://app?vid=39cdcda5-1688-4ef8-a8ba-562ba29d65b6"},"vehicle_type_id":"4","last_reported":1744816265,"current_range_meters":25200,"station_id":"ce4bhf92rcd13ifvqf40","pricing_plan_id":"cebpf4jnsgd1na2vs0mg"},{"bike_id":"0d7b590a-94b5-44b4-a3e5-4bf21f177c93","system_id":"levelo_inurba_marseille","lat":43.28356,"lon":5.38091,"is_reserved":false,"is_disabled":false,"rental_uris":{"android":"levelo://app?vid=0d7b590a-94b5-44b4-a3e5-4bf21f177c93","ios":"levelo://app?vid=0d7b590a-94b5-44b4-a3e5-4bf21f177c93"},"vehicle_type_id":"4","last_reported":1744816265,"current_range_meters":25600,"station_id":"ce4bh412rcd13ifvqdr0","pricing_plan_id":"cebpf4jnsgd1na2vs0mg"},{"bike_id":"059bcd6e-9622-4c44-beee-30c34313ee6e","system_id":"levelo_inurba_marseille","lat":43.29527,"lon":5.37494,"is_reserved":false,"is_disabled":false,"rental_uris":{"android":"levelo://app?vid=059bcd6e-9622-4c44-beee-30c34313ee6e","ios":"levelo://app?vid=059bcd6e-9622-4c44-beee-30c34313ee6e"},"vehicle_type_id":"4","last_reported":1744816265,"current_range_meters":25600,"station_id":"ce4bgkp2rcd13ifvqbmg","pricing_plan_id":"cebpf4jnsgd1na2vs0mg"},{"bike_id":"b58db4fe-417f-47ef-b6bf-43e86c5ef397","system_id":"levelo_inurba_marseille","lat":43.26836,"lon":5.4025,"is_reserved":false,"is_disabled":false,"rental_uris":{"android":"levelo://app?vid=b58db4fe-417f-47ef-b6bf-43e86c5ef397","ios":"levelo://app?vid=b58db4fe-417f-47ef-b6bf-43e86c5ef397"},"vehicle_type_id":"4","last_reported":1744816265,"current_range_meters":25600,"station_id":"ce501612rcd8frsf0b60","pricing_plan_id":"cebpf4jnsgd1na2vs0mg"},{"bike_id":"94c9894d-3c2d-4f37-b8e5-4a8fbbd9742f","system_id":"levelo_inurba_marseille","lat":43.276343,"lon":5.426555,"is_reserved":false,"is_disabled":false,"rental_uris":{"android":"levelo://app?vid=94c9894d-3c2d-4f37-b8e5-4a8fbbd9742f","ios":"levelo://app?vid=94c9894d-3c2d-4f37-b8e5-4a8fbbd9742f"},"vehicle_type_id":"4","last_reported":1744816265,"current_range_meters":25600,"station_id":"","pricing_plan_id":"cebpf4jnsgd1na2vs0mg"},{"bike_id":"98094f1c-b8af-4175-808e-8acbc1f39d96","system_id":"levelo_inurba_marseille","lat":43.27896,"lon":5.38002,"is_reserved":false,"is_disabled":false,"rental_uris":{"android":"levelo://app?vid=98094f1c-b8af-4175-808e-8acbc1f39d96","ios":"levelo://app?vid=98094f1c-b8af-4175-808e-8acbc1f39d96"},"vehicle_type_id":"4","last_reported":1744816265,"current_range_meters":25600,"station_id":"ce4bhf92rcd13ifvqf50","pricing_plan_id":"cebpf4jnsgd1na2vs0mg"},{"bike_id":"367ad2e5-8746-4a8a-bd13-fdfea2afdd3f","system_id":"levelo_inurba_marseille","lat":43.28105,"lon":5.37825,"is_reserved":false,"is_disabled":false,"rental_uris":{"android":"levelo://app?vid=367ad2e5-8746-4a8a-bd13-fdfea2afdd3f","ios":"levelo://app?vid=367ad2e5-8746-4a8a-bd13-fdfea2afdd3f"},"vehicle_type_id":"4","last_reported":1744816265,"current_range_meters":25600,"station_id":"ce4bha12rcd13ifvqee0","pricing_plan_id":"cebpf4jnsgd1na2vs0mg"},{"bike_id":"f94e5356-6031-4dab-af19-24ad8e4b30a1","system_id":"levelo_inurba_marseille","lat":43.30549,"lon":5.36545,"is_reserved":false,"is_disabled":false,"rental_uris":{"android":"levelo://app?vid=f94e5356-6031-4dab-af19-24ad8e4b30a1","ios":"levelo://app?vid=f94e5356-6031-4dab-af19-24ad8e4b30a1"},"vehicle_type_id":"4","last_reported":1744816265,"current_range_meters":25600,"station_id":"ce4bgs12rcd13ifvqcag","pricing_plan_id":"cebpf4jnsgd1na2vs0mg"},{"bike_id":"f9653653-58f6-4fdd-8ddf-d9e24a4f8674","system_id":"levelo_inurba_marseille","lat":43.2482,"lon":5.37477,"is_reserved":false,"is_disabled":false,"rental_uris":{"android":"levelo://app?vid=f9653653-58f6-4fdd-8ddf-d9e24a4f8674","ios":"levelo://app?vid=f9653653-58f6-4fdd-8ddf-d9e24a4f8674"},"vehicle_type_id":"4","last_reported":1744816265,"current_range_meters":25600,"station_id":"ce4bhgh2rcd13ifvqfb0","pricing_plan_id":"cebpf4jnsgd1na2vs0mg"},{"bike_id":"0a0f370f-fdd7-4e06-ad19-0aa0e844850f","system_id":"levelo_inurba_marseille","lat":43.27923,"lon":5.39579,"is_reserved":false,"is_disabled":false,"rental_uris":{"android":"levelo://app?vid=0a0f370f-fdd7-4e06-ad19-0aa0e844850f","ios":"levelo://app?vid=0a0f370f-fdd7-4e06-ad19-0aa0e844850f"},"vehicle_type_id":"4","last_reported":1744816265,"current_range_meters":25600,"station_id":"ce4bhf92rcd13ifvqf40","pricing_plan_id":"cebpf4jnsgd1na2vs0mg"},{"bike_id":"94008746-efb7-4e05-bbae-a9d848563424","system_id":"levelo_inurba_marseille","lat":43.292856,"lon":5.401145,"is_reserved":false,"is_disabled":false,"rental_uris":{"android":"levelo://app?vid=94008746-efb7-4e05-bbae-a9d848563424","ios":"levelo://app?vid=94008746-efb7-4e05-bbae-a9d848563424"},"vehicle_type_id":"4","last_reported":1744816265,"current_range_meters":25600,"station_id":"ce4bh312rcd13ifvqdk0","pricing_plan_id":"cebpf4jnsgd1na2vs0mg"},{"bike_id":"db3f61c8-5340-4682-8118-fc423fbe004d","system_id":"levelo_inurba_marseille","lat":43.28994,"lon":5.35604,"is_reserved":false,"is_disabled":false,"rental_uris":{"android":"levelo://app?vid=db3f61c8-5340-4682-8118-fc423fbe004d","ios":"levelo://app?vid=db3f61c8-5340-4682-8118-fc423fbe004d"},"vehicle_type_id":"4","last_reported":1744816265,"current_range_meters":25600,"station_id":"ce4bhb92rcd13ifvqen0","pricing_plan_id":"cebpf4jnsgd1na2vs0mg"},{"bike_id":"2a8804da-e65e-4085-acca-f4569c2d6885","system_id":"levelo_inurba_marseille","lat":43.30548,"lon":5.36549,"is_reserved":false,"is_disabled":false,"rental_uris":{"android":"levelo://app?vid=2a8804da-e65e-4085-acca-f4569c2d6885","ios":"levelo://app?vid=2a8804da-e65e-4085-acca-f4569c2d6885"},"vehicle_type_id":"4","last_reported":1744816265,"current_range_meters":25600,"station_id":"ce4bgs12rcd13ifvqcag","pricing_plan_id":"cebpf4jnsgd1na2vs0mg"},{"bike_id":"d1a2b493-7d30-4a9c-a02b-dfad0b4f73f7","system_id":"levelo_inurba_marseille","lat":43.24828,"lon":5.37481,"is_reserved":false,"is_disabled":false,"rental_uris":{"android":"levelo://app?vid=d1a2b493-7d30-4a9c-a02b-dfad0b4f73f7","ios":"levelo://app?vid=d1a2b493-7d30-4a9c-a02b-dfad0b4f73f7"},"vehicle_type_id":"4","last_reported":1744816265,"current_range_meters":25600,"station_id":"ce4bhgh2rcd13ifvqfb0","pricing_plan_id":"cebpf4jnsgd1na2vs0mg"},{"bike_id":"3c863c1e-5703-459e-86f2-3e252f5541e4","system_id":"levelo_inurba_marseille","lat":43.29422,"lon":5.38599,"is_reserved":false,"is_disabled":true,"rental_uris":{"android":"levelo://app?vid=3c863c1e-5703-459e-86f2-3e252f5541e4","ios":"levelo://app?vid=3c863c1e-5703-459e-86f2-3e252f5541e4"},"vehicle_type_id":"4","last_reported":1744816265,"current_range_meters":26000,"station_id":"ce4bh2h2rcd13ifvqdh0","pricing_plan_id":"cebpf4jnsgd1na2vs0mg"},{"bike_id":"6060f656-2c57-4e03-bff9-ca39d583b338","system_id":"levelo_inurba_marseille","lat":43.32341,"lon":5.40622,"is_reserved":false,"is_disabled":false,"rental_uris":{"android":"levelo://app?vid=6060f656-2c57-4e03-bff9-ca39d583b338","ios":"levelo://app?vid=6060f656-2c57-4e03-bff9-ca39d583b338"},"vehicle_type_id":"4","last_reported":1744816265,"current_range_meters":26000,"station_id":"ce4bhq92rcd13ifvqhjg","pricing_plan_id":"cebpf4jnsgd1na2vs0mg"},{"bike_id":"29f42d10-4742-49ce-945b-5557aaa9ad76","system_id":"levelo_inurba_marseille","lat":43.29274,"lon":5.37616,"is_reserved":false,"is_disabled":false,"rental_uris":{"android":"levelo://app?vid=29f42d10-4742-49ce-945b-5557aaa9ad76","ios":"levelo://app?vid=29f42d10-4742-49ce-945b-5557aaa9ad76"},"vehicle_type_id":"4","last_reported":1744816265,"current_range_meters":26000,"station_id":"ce4bgi12rcd13ifvqb80","pricing_plan_id":"cebpf4jnsgd1na2vs0mg"},{"bike_id":"d46b5742-b094-4b76-9de5-dfa32a88bb64","system_id":"levelo_inurba_marseille","lat":43.2846,"lon":5.35882,"is_reserved":false,"is_disabled":false,"rental_uris":{"android":"levelo://app?vid=d46b5742-b094-4b76-9de5-dfa32a88bb64","ios":"levelo://app?vid=d46b5742-b094-4b76-9de5-dfa32a88bb64"},"vehicle_type_id":"4","last_reported":1744816265,"current_range_meters":25600,"station_id":"ce4bhah2rcd13ifvqei0","pricing_plan_id":"cebpf4jnsgd1na2vs0mg"},{"bike_id":"80bac1fe-218c-4068-937c-4aa733df023f","system_id":"levelo_inurba_marseille","lat":43.28631,"lon":5.36981,"is_reserved":false,"is_disabled":false,"rental_uris":{"android":"levelo://app?vid=80bac1fe-218c-4068-937c-4aa733df023f","ios":"levelo://app?vid=80bac1fe-218c-4068-937c-4aa733df023f"},"vehicle_type_id":"4","last_reported":1744816265,"current_range_meters":26000,"station_id":"ce4bht12rcd13ifvqi60","pricing_plan_id":"cebpf4jnsgd1na2vs0mg"},{"bike_id":"2c6371e6-8d81-4a46-9bd8-ab892b10605a","system_id":"levelo_inurba_marseille","lat":43.25864,"lon":5.39898,"is_reserved":false,"is_disabled":false,"rental_uris":{"android":"levelo://app?vid=2c6371e6-8d81-4a46-9bd8-ab892b10605a","ios":"levelo://app?vid=2c6371e6-8d81-4a46-9bd8-ab892b10605a"},"vehicle_type_id":"4","last_reported":1744816265,"current_range_meters":26800,"station_id":"ce4bhl92rcd13ifvqghg","pricing_plan_id":"cebpf4jnsgd1na2vs0mg"},{"bike_id":"91aa591a-3e56-4092-a295-ecb6aebe69eb","system_id":"levelo_inurba_marseille","lat":43.22502,"lon":5.34778,"is_reserved":false,"is_disabled":false,"rental_uris":{"android":"levelo://app?vid=91aa591a-3e56-4092-a295-ecb6aebe69eb","ios":"levelo://app?vid=91aa591a-3e56-4092-a295-ecb6aebe69eb"},"vehicle_type_id":"4","last_reported":1744816265,"current_range_meters":26800,"station_id":"st_cvj5dfep6f1abm77gieg","pricing_plan_id":"cebpf4jnsgd1na2vs0mg"},{"bike_id":"0cda677c-f9b1-4344-ad19-90d423790047","system_id":"levelo_inurba_marseille","lat":43.26564,"lon":5.39008,"is_reserved":false,"is_disabled":false,"rental_uris":{"android":"levelo://app?vid=0cda677c-f9b1-4344-ad19-90d423790047","ios":"levelo://app?vid=0cda677c-f9b1-4344-ad19-90d423790047"},"vehicle_type_id":"4","last_reported":1744816265,"current_range_meters":26800,"station_id":"ce4bhe12rcd13ifvqf30","pricing_plan_id":"cebpf4jnsgd1na2vs0mg"},{"bike_id":"aea2afb6-112e-4c3a-968a-5eb5aa77e9be","system_id":"levelo_inurba_marseille","lat":43.21202,"lon":5.3508,"is_reserved":false,"is_disabled":false,"rental_uris":{"android":"levelo://app?vid=aea2afb6-112e-4c3a-968a-5eb5aa77e9be","ios":"levelo://app?vid=aea2afb6-112e-4c3a-968a-5eb5aa77e9be"},"vehicle_type_id":"4","last_reported":1744816265,"current_range_meters":26800,"station_id":"st_cvj6sg6p6f1abm77japg","pricing_plan_id":"cebpf4jnsgd1na2vs0mg"},{"bike_id":"d0576403-99c8-41ca-8f04-6b5d16b13ea2","system_id":"levelo_inurba_marseille","lat":43.24128,"lon":5.37773,"is_reserved":false,"is_disabled":false,"rental_uris":{"android":"levelo://app?vid=d0576403-99c8-41ca-8f04-6b5d16b13ea2","ios":"levelo://app?vid=d0576403-99c8-41ca-8f04-6b5d16b13ea2"},"vehicle_type_id":"4","last_reported":1744816265,"current_range_meters":26800,"station_id":"","pricing_plan_id":"cebpf4jnsgd1na2vs0mg"},{"bike_id":"d491d995-a93b-41c9-bd08-3250493cd80a","system_id":"levelo_inurba_marseille","lat":43.30164,"lon":5.38084,"is_reserved":false,"is_disabled":false,"rental_uris":{"android":"levelo://app?vid=d491d995-a93b-41c9-bd08-3250493cd80a","ios":"levelo://app?vid=d491d995-a93b-41c9-bd08-3250493cd80a"},"vehicle_type_id":"4","last_reported":1744816265,"current_range_meters":26800,"station_id":"ce4bgjp2rcd13ifvqbh0","pricing_plan_id":"cebpf4jnsgd1na2vs0mg"},{"bike_id":"05278820-4c9b-4ad5-a8a2-1ac74366d198","system_id":"levelo_inurba_marseille","lat":43.3029,"lon":5.37693,"is_reserved":false,"is_disabled":false,"rental_uris":{"android":"levelo://app?vid=05278820-4c9b-4ad5-a8a2-1ac74366d198","ios":"levelo://app?vid=05278820-4c9b-4ad5-a8a2-1ac74366d198"},"vehicle_type_id":"4","last_reported":1744816265,"current_range_meters":26800,"station_id":"ce4bguh2rcd13ifvqcj0","pricing_plan_id":"cebpf4jnsgd1na2vs0mg"},{"bike_id":"ac863349-1db1-42e7-a53e-e1043a20cf45","system_id":"levelo_inurba_marseille","lat":43.2952,"lon":5.39046,"is_reserved":false,"is_disabled":false,"rental_uris":{"android":"levelo://app?vid=ac863349-1db1-42e7-a53e-e1043a20cf45","ios":"levelo://app?vid=ac863349-1db1-42e7-a53e-e1043a20cf45"},"vehicle_type_id":"4","last_reported":1744816265,"current_range_meters":26800,"station_id":"ce4bh3p2rcd13ifvqdp0","pricing_plan_id":"cebpf4jnsgd1na2vs0mg"},{"bike_id":"45e67e7e-413a-4a94-a2c6-4cc00479c9da","system_id":"levelo_inurba_marseille","lat":43.29886,"lon":5.39736,"is_reserved":false,"is_disabled":false,"rental_uris":{"android":"levelo://app?vid=45e67e7e-413a-4a94-a2c6-4cc00479c9da","ios":"levelo://app?vid=45e67e7e-413a-4a94-a2c6-4cc00479c9da"},"vehicle_type_id":"4","last_reported":1744816265,"current_range_meters":26000,"station_id":"ce4bh0h2rcd13ifvqd50","pricing_plan_id":"cebpf4jnsgd1na2vs0mg"},{"bike_id":"d748b7d0-cff5-4db2-aca9-07dd81e18393","system_id":"levelo_inurba_marseille","lat":43.292,"lon":5.35812,"is_reserved":false,"is_disabled":false,"rental_uris":{"android":"levelo://app?vid=d748b7d0-cff5-4db2-aca9-07dd81e18393","ios":"levelo://app?vid=d748b7d0-cff5-4db2-aca9-07dd81e18393"},"vehicle_type_id":"4","last_reported":1744816265,"current_range_meters":26800,"station_id":"ce4bhb12rcd13ifvqel0","pricing_plan_id":"cebpf4jnsgd1na2vs0mg"},{"bike_id":"532963c4-36d6-4595-b3ff-eb9b797f9912","system_id":"levelo_inurba_marseille","lat":43.32046,"lon":5.36794,"is_reserved":false,"is_disabled":false,"rental_uris":{"android":"levelo://app?vid=532963c4-36d6-4595-b3ff-eb9b797f9912","ios":"levelo://app?vid=532963c4-36d6-4595-b3ff-eb9b797f9912"},"vehicle_type_id":"4","last_reported":1744816265,"current_range_meters":27200,"station_id":"","pricing_plan_id":"cebpf4jnsgd1na2vs0mg"},{"bike_id":"2b934c6b-88ce-49d4-95b0-d1e1c5e7cfc8","system_id":"levelo_inurba_marseille","lat":43.2707,"lon":5.40263,"is_reserved":false,"is_disabled":false,"rental_uris":{"android":"levelo://app?vid=2b934c6b-88ce-49d4-95b0-d1e1c5e7cfc8","ios":"levelo://app?vid=2b934c6b-88ce-49d4-95b0-d1e1c5e7cfc8"},"vehicle_type_id":"4","last_reported":1744816265,"current_range_meters":27200,"station_id":"ce4bhk92rcd13ifvqgc0","pricing_plan_id":"cebpf4jnsgd1na2vs0mg"},{"bike_id":"c9a60889-e791-42f2-9b72-2914d465bbcf","system_id":"levelo_inurba_marseille","lat":43.27053,"lon":5.40258,"is_reserved":false,"is_disabled":false,"rental_uris":{"android":"levelo://app?vid=c9a60889-e791-42f2-9b72-2914d465bbcf","ios":"levelo://app?vid=c9a60889-e791-42f2-9b72-2914d465bbcf"},"vehicle_type_id":"4","last_reported":1744816265,"current_range_meters":27200,"station_id":"ce4bhk92rcd13ifvqgc0","pricing_plan_id":"cebpf4jnsgd1na2vs0mg"},{"bike_id":"43dcc338-1728-4fb8-bb1d-981f1dba8cb3","system_id":"levelo_inurba_marseille","lat":43.30418,"lon":5.41277,"is_reserved":false,"is_disabled":false,"rental_uris":{"android":"levelo://app?vid=43dcc338-1728-4fb8-bb1d-981f1dba8cb3","ios":"levelo://app?vid=43dcc338-1728-4fb8-bb1d-981f1dba8cb3"},"vehicle_type_id":"4","last_reported":1744816265,"current_range_meters":27200,"station_id":"ce4bhop2rcd13ifvqh8g","pricing_plan_id":"cebpf4jnsgd1na2vs0mg"},{"bike_id":"9eb6738d-486c-4d0a-88f4-70b8d81983d1","system_id":"levelo_inurba_marseille","lat":43.21748,"lon":5.34599,"is_reserved":false,"is_disabled":false,"rental_uris":{"android":"levelo://app?vid=9eb6738d-486c-4d0a-88f4-70b8d81983d1","ios":"levelo://app?vid=9eb6738d-486c-4d0a-88f4-70b8d81983d1"},"vehicle_type_id":"4","last_reported":1744816265,"current_range_meters":27200,"station_id":"st_cvj6r9ubvosntc0bgbag","pricing_plan_id":"cebpf4jnsgd1na2vs0mg"},{"bike_id":"a946869b-c9f8-47ef-ad66-39832f5a0928","system_id":"levelo_inurba_marseille","lat":43.29978,"lon":5.37169,"is_reserved":false,"is_disabled":false,"rental_uris":{"android":"levelo://app?vid=a946869b-c9f8-47ef-ad66-39832f5a0928","ios":"levelo://app?vid=a946869b-c9f8-47ef-ad66-39832f5a0928"},"vehicle_type_id":"4","last_reported":1744816265,"current_range_meters":27200,"station_id":"ce4bgr92rcd13ifvqc7g","pricing_plan_id":"cebpf4jnsgd1na2vs0mg"},{"bike_id":"58935632-2c66-4914-92f0-f2a19e703c14","system_id":"levelo_inurba_marseille","lat":43.32365,"lon":5.40623,"is_reserved":false,"is_disabled":false,"rental_uris":{"android":"levelo://app?vid=58935632-2c66-4914-92f0-f2a19e703c14","ios":"levelo://app?vid=58935632-2c66-4914-92f0-f2a19e703c14"},"vehicle_type_id":"4","last_reported":1744816265,"current_range_meters":27600,"station_id":"ce4bhq92rcd13ifvqhjg","pricing_plan_id":"cebpf4jnsgd1na2vs0mg"},