{"last_updated":1737040107,"ttl":60,"version":"2.2","data":{"bikes":[{"bike_id":"733a8b00-e1b0-41b1-8586-81ed6f92baa2","system_id":"levelo_inurba_marseille","lat":43.24545,"lon":5.39525,"is_reserved":false,"is_disabled":false,"rental_uris":{"android":"levelo://app?vid=733a8b00-e1b0-41b1-8586-81ed6f92baa2","ios":"levelo://app?vid=733a8b00-e1b0-41b1-8586-81ed6f92baa2"},"vehicle_type_id":"4","last_reported":1737040107,"current_range_meters":11600,"station_id":"ce4bhlp2rcd13ifvqgjg","pricing_plan_id":"cebpf4jnsgd1na2vs0mg"},{"bike_id":"d40f7d99-0c71-4bde-bdaf-a168781576d1","system_id":"levelo_inurba_marseille","lat":43.30556,"lon":5.36536,"is_reserved":false,"is_disabled":false,"rental_uris":{"android":"levelo://app?vid=d40f7d99-0c71-4bde-bdaf-a168781576d1","ios":"levelo://app?vid=d40f7d99-0c71-4bde-bdaf-a168781576d1"},"vehicle_type_id":"4","last_reported":1737040107,"current_range_meters":28400,"station_id":"ce4bgs12rcd13ifvqcag","pricing_plan_id":"cebpf4jnsgd1na2vs0mg"},{"bike_id":"452c98f5-e0c1-4fd8-9ef5-eb1656e0e828","system_id":"levelo_inurba_marseille","lat":43.32545,"lon":5.41432,"is_reserved":false,"is_disabled":false,"rental_uris":{"android":"levelo://app?vid=452c98f5-e0c1-4fd8-9ef5-eb1656e0e828","ios":"levelo://app?vid=452c98f5-e0c1-4fd8-9ef5-eb1656e0e828"},"vehicle_type_id":"4","last_reported":1737040107,"current_range_meters":30800,"station_id":"ce4bhq12rcd13ifvqhhg","pricing_plan_id":"cebpf4jnsgd1na2vs0mg"},{"bike_id":"72f98536-eab0-4b59-acda-6683a22d53e1","system_id":"levelo_inurba_marseille","lat":43.29016,"lon":5.35609,"is_reserved":false,"is_disabled":false,"rental_uris":{"android":"levelo://app?vid=72f98536-eab0-4b59-acda-6683a22d53e1","ios":"levelo://app?vid=72f98536-eab0-4b59-acda-6683a22d53e1"},"vehicle_type_id":"4","last_reported":1737040107,"current_range_meters":38800,"station_id":"ce4bhb92rcd13ifvqen0","pricing_plan_id":"cebpf4jnsgd1na2vs0mg"},{"bike_id":"a39c946b-f215-435b-b58f-d6dc4c7b0aaf","system_id":"levelo_inurba_marseille","lat":43.28143,"lon":5.42607,"is_reserved":false,"is_disabled":true,"rental_uris":{"android":"levelo://app?vid=a39c946b-f215-435b-b58f-d6dc4c7b0aaf","ios":"levelo://app?vid=a39c946b-f215-435b-b58f-d6dc4c7b0aaf"},"vehicle_type_id":"4","last_reported":1737040107,"current_range_meters":37600,"station_id":"ce4bhnh2rcd13ifvqgug","pricing_plan_id":"cebpf4jnsgd1na2vs0mg"},{"bike_id":"a9302831-a977-42c7-a552-458f0d4a525a","system_id":"levelo_inurba_marseille","lat":43.29155,"lon":5.38081,"is_reserved":false,"is_disabled":false,"rental_uris":{"android":"levelo://app?vid=a9302831-a977-42c7-a552-458f0d4a525a","ios":"levelo://app?vid=a9302831-a977-42c7-a552-458f0d4a525a"},"vehicle_type_id":"4","last_reported":1737040107,"current_range_meters":32000,"station_id":"","pricing_plan_id":"cebpf4jnsgd1na2vs0mg"},{"bike_id":"231531ce-159c-430d-a73a-34d518b1b8d8","system_id":"levelo_inurba_marseille","lat":43.25916,"lon":5.40846,"is_reserved":false,"is_disabled":false,"rental_uris":{"android":"levelo://app?vid=231531ce-159c-430d-a73a-34d518b1b8d8","ios":"levelo://app?vid=231531ce-159c-430d-a73a-34d518b1b8d8"},"vehicle_type_id":"4","last_reported":1737040107,"current_range_meters":36800,"station_id":"ce4bhm92rcd13ifvqglg","pricing_plan_id":"cebpf4jnsgd1na2vs0mg"},{"bike_id":"25b01166-8b4c-49d6-8386-8f83eb8111f5","system_id":"levelo_inurba_marseille","lat":43.2582,"lon":5.39434,"is_reserved":false,"is_disabled":false,"rental_uris":{"android":"levelo://app?vid=25b01166-8b4c-49d6-8386-8f83eb8111f5","ios":"levelo://app?vid=25b01166-8b4c-49d6-8386-8f83eb8111f5"},"vehicle_type_id":"4","last_reported":1737040107,"current_range_meters":8000,"station_id":"ce4bhip2rcd13ifvqft0","pricing_plan_id":"cebpf4jnsgd1na2vs0mg"},{"bike_id":"65cc2667-4fbc-4fa6-9511-3a67650b843b","system_id":"levelo_inurba_marseille","lat":43.28662,"lon":5.38667,"is_reserved":false,"is_disabled":false,"rental_uris":{"android":"levelo://app?vid=65cc2667-4fbc-4fa6-9511-3a67650b843b","ios":"levelo://app?vid=65cc2667-4fbc-4fa6-9511-3a67650b843b"},"vehicle_type_id":"4","last_reported":1737040107,"current_range_meters":16000,"station_id":"ce4bh492rcd13ifvqdug","pricing_plan_id":"cebpf4jnsgd1na2vs0mg"},{"bike_id":"9db08fb2-5fda-41ba-80d4-04b439cba991","system_id":"levelo_inurba_marseille","lat":43.298,"lon":5.38101,"is_reserved":false,"is_disabled":false,"rental_uris":{"android":"levelo://app?vid=9db08fb2-5fda-41ba-80d4-04b439cba991","ios":"levelo://app?vid=9db08fb2-5fda-41ba-80d4-04b439cba991"},"vehicle_type_id":"4","last_reported":1737040107,"current_range_meters":30800,"station_id":"ce4bgip2rcd13ifvqbb0","pricing_plan_id":"cebpf4jnsgd1na2vs0mg"},{"bike_id":"d10c5460-c50b-4eb6-a1a9-336cf2e4209d","system_id":"levelo_inurba_marseille","lat":43.26802,"lon":5.40246,"is_reserved":false,"is_disabled":false,"rental_uris":{"android":"levelo://app?vid=d10c5460-c50b-4eb6-a1a9-336cf2e4209d","ios":"levelo://app?vid=d10c5460-c50b-4eb6-a1a9-336cf2e4209d"},"vehicle_type_id":"4","last_reported":1737040107,"current_range_meters":38000,"station_id":"ce501612rcd8frsf0b60","pricing_plan_id":"cebpf4jnsgd1na2vs0mg"},{"bike_id":"01638def-7117-4f45-9db3-6a4ea31641a9","system_id":"levelo_inurba_marseille","lat":43.28148,"lon":5.42649,"is_reserved":false,"is_disabled":false,"rental_uris":{"android":"levelo://app?vid=01638def-7117-4f45-9db3-6a4ea31641a9","ios":"levelo://app?vid=01638def-7117-4f45-9db3-6a4ea31641a9"},"vehicle_type_id":"4","last_reported":1737040107,"current_range_meters":34000,"station_id":"ce4bhnh2rcd13ifvqgug","pricing_plan_id":"cebpf4jnsgd1na2vs0mg"},{"bike_id":"6383fb74-1ee1-40a6-bd29-dc827f3599e3","system_id":"levelo_inurba_marseille","lat":43.28967,"lon":5.37835,"is_reserved":false,"is_disabled":false,"rental_uris":{"android":"levelo://app?vid=6383fb74-1ee1-40a6-bd29-dc827f3599e3","ios":"levelo://app?vid=6383fb74-1ee1-40a6-bd29-dc827f3599e3"},"vehicle_type_id":"4","last_reported":1737040107,"current_range_meters":28000,"station_id":"ce4bh9p2rcd13ifvqed0","pricing_plan_id":"cebpf4jnsgd1na2vs0mg"},{"bike_id":"b9d506f3-d5fd-4d37-904a-7c52215a265a","system_id":"levelo_inurba_marseille","lat":43.24177,"lon":5.39734,"is_reserved":false,"is_disabled":false,"rental_uris":{"android":"levelo://app?vid=b9d506f3-d5fd-4d37-904a-7c52215a265a","ios":"levelo://app?vid=b9d506f3-d5fd-4d37-904a-7c52215a265a"},"vehicle_type_id":"4","last_reported":1737040107,"current_range_meters":28800,"station_id":"ce4bhn12rcd13ifvqgpg","pricing_plan_id":"cebpf4jnsgd1na2vs0mg"},{"bike_id":"f79b9b7a-24a7-4ca5-bd4e-06e05a70669b","system_id":"levelo_inurba_marseille","lat":43.28996,"lon":5.35608,"is_reserved":false,"is_disabled":false,"rental_uris":{"android":"levelo://app?vid=f79b9b7a-24a7-4ca5-bd4e-06e05a70669b","ios":"levelo://app?vid=f79b9b7a-24a7-4ca5-bd4e-06e05a70669b"},"vehicle_type_id":"4","last_reported":1737040107,"current_range_meters":32000,"station_id":"ce4bhb92rcd13ifvqen0","pricing_plan_id":"cebpf4jnsgd1na2vs0mg"},{"bike_id":"6b0f640d-8733-463e-9163-ced3fa26014a","system_id":"levelo_inurba_marseille","lat":43.28353,"lon":5.38114,"is_reserved":false,"is_disabled":false,"rental_uris":{"android":"levelo://app?vid=6b0f640d-8733-463e-9163-ced3fa26014a","ios":"levelo://app?vid=6b0f640d-8733-463e-9163-ced3fa26014a"},"vehicle_type_id":"4","last_reported":1737040107,"current_range_meters":22400,"station_id":"ce4bh412rcd13ifvqdr0","pricing_plan_id":"cebpf4jnsgd1na2vs0mg"},{"bike_id":"c4fc9679-1008-473b-9e9b-26f1ed62312e","system_id":"levelo_inurba_marseille","lat":43.22949,"lon":5.35395,"is_reserved":false,"is_disabled":false,"rental_uris":{"android":"levelo://app?vid=c4fc9679-1008-473b-9e9b-26f1ed62312e","ios":"levelo://app?vid=c4fc9679-1008-473b-9e9b-26f1ed62312e"},"vehicle_type_id":"4","last_reported":1737040107,"current_range_meters":23200,"station_id":"cpo3532slgdg3j2ikp40","pricing_plan_id":"cebpf4jnsgd1na2vs0mg"},{"bike_id":"fe67188a-1916-443a-acf8-6efb1f8f6d0b","system_id":"levelo_inurba_marseille","lat":43.28271,"lon":5.35072,"is_reserved":false,"is_disabled":false,"rental_uris":{"android":"levelo://app?vid=fe67188a-1916-443a-acf8-6efb1f8f6d0b","ios":"levelo://app?vid=fe67188a-1916-443a-acf8-6efb1f8f6d0b"},"vehicle_type_id":"4","last_reported":1737040107,"current_range_meters":39200,"station_id":"ce4bhbp2rcd13ifvqerg","pricing_plan_id":"cebpf4jnsgd1na2vs0mg"},{"bike_id":"0e842b39-329d-48e2-b781-7e3babc96cf4","system_id":"levelo_inurba_marseille","lat":43.22941,"lon":5.35385,"is_reserved":false,"is_disabled":false,"rental_uris":{"android":"levelo://app?vid=0e842b39-329d-48e2-b781-7e3babc96cf4","ios":"levelo://app?vid=0e842b39-329d-48e2-b781-7e3babc96cf4"},"vehicle_type_id":"4","last_reported":1737040107,"current_range_meters":14800,"station_id":"cpo3532slgdg3j2ikp40","pricing_plan_id":"cebpf4jnsgd1na2vs0mg"},{"bike_id":"b18fcc78-3e5b-4e0c-9530-6d2970808fcb","system_id":"levelo_inurba_marseille","lat":43.29193,"lon":5.39334,"is_reserved":false,"is_disabled":false,"rental_uris":{"android":"levelo://app?vid=b18fcc78-3e5b-4e0c-9530-6d2970808fcb","ios":"levelo://app?vid=b18fcc78-3e5b-4e0c-9530-6d2970808fcb"},"vehicle_type_id":"4","last_reported":1737040107,"current_range_meters":14400,"station_id":"ce4bh192rcd13ifvqdd0","pricing_plan_id":"cebpf4jnsgd1na2vs0mg"},{"bike_id":"2e7c58f0-f87f-443e-8de0-f219f58aa275","system_id":"levelo_inurba_marseille","lat":43.29843,"lon":5.36223,"is_reserved":false,"is_disabled":false,"rental_uris":{"android":"levelo://app?vid=2e7c58f0-f87f-443e-8de0-f219f58aa275","ios":"levelo://app?vid=2e7c58f0-f87f-443e-8de0-f219f58aa275"},"vehicle_type_id":"4","last_reported":1737040107,"current_range_meters":11600,"station_id":"ce4bgpp2rcd13ifvqc3g","pricing_plan_id":"cebpf4jnsgd1na2vs0mg"},{"bike_id":"99edffd1-a5ba-4759-befa-f12a00faec89","system_id":"levelo_inurba_marseille","lat":43.28561,"lon":5.39479,"is_reserved":false,"is_disabled":true,"rental_uris":{"android":"levelo://app?vid=99edffd1-a5ba-4759-befa-f12a00faec89","ios":"levelo://app?vid=99edffd1-a5ba-4759-befa-f12a00faec89"},"vehicle_type_id":"4","last_reported":1737040107,"current_range_meters":14800,"station_id":"ce4bh292rcd13ifvqdg0","pricing_plan_id":"cebpf4jnsgd1na2vs0mg"},{"bike_id":"c6fb15eb-b907-4aea-a37b-3905d3a05afd","system_id":"levelo_inurba_marseille","lat":43.30997,"lon":5.388229,"is_reserved":false,"is_disabled":true,"rental_uris":{"android":"levelo://app?vid=c6fb15eb-b907-4aea-a37b-3905d3a05afd","ios":"levelo://app?vid=c6fb15eb-b907-4aea-a37b-3905d3a05afd"},"vehicle_type_id":"4","last_reported":1737040107,"current_range_meters":800,"station_id":"ce4bgup2rcd13ifvqco0","pricing_plan_id":"cebpf4jnsgd1na2vs0mg"},{"bike_id":"c8012773-7d99-408d-a9a4-24a301001d61","system_id":"levelo_inurba_marseille","lat":43.24543,"lon":5.39533,"is_reserved":false,"is_disabled":false,"rental_uris":{"android":"levelo://app?vid=c8012773-7d99-408d-a9a4-24a301001d61","ios":"levelo://app?vid=c8012773-7d99-408d-a9a4-24a301001d61"},"vehicle_type_id":"4","last_reported":1737040107,"current_range_meters":19600,"station_id":"ce4bhlp2rcd13ifvqgjg","pricing_plan_id":"cebpf4jnsgd1na2vs0mg"},{"bike_id":"65a397c1-07b1-4480-be0a-2ce730712cf5","system_id":"levelo_inurba_marseille","lat":43.27173,"lon":5.40996,"is_reserved":false,"is_disabled":false,"rental_uris":{"android":"levelo://app?vid=65a397c1-07b1-4480-be0a-2ce730712cf5","ios":"levelo://app?vid=65a397c1-07b1-4480-be0a-2ce730712cf5"},"vehicle_type_id":"4","last_reported":1737040107,"current_range_meters":27600,"station_id":"ce4bhl12rcd13ifvqgf0","pricing_plan_id":"cebpf4jnsgd1na2vs0mg"},{"bike_id":"2c6abab3-1db4-422b-bf4f-c61f4d281d48","system_id":"levelo_inurba_marseille","lat":43.30313,"lon":5.36898,"is_reserved":false,"is_disabled":false,"rental_uris":{"android":"levelo://app?vid=2c6abab3-1db4-422b-bf4f-c61f4d281d48","ios":"levelo://app?vid=2c6abab3-1db4-422b-bf4f-c61f4d281d48"},"vehicle_type_id":"4","last_reported":1737040107,"current_range_meters":16800,"station_id":"ce4bgqh2rcd13ifvqc5g","pricing_plan_id":"cebpf4jnsgd1na2vs0mg"},{"bike_id":"21991245-c0ed-460a-96c0-efd1586188d9","system_id":"levelo_inurba_marseille","lat":43.26035,"lon":5.37565,"is_reserved":false,"is_disabled":false,"rental_uris":{"android":"levelo://app?vid=21991245-c0ed-460a-96c0-efd1586188d9","ios":"levelo://app?vid=21991245-c0ed-460a-96c0-efd1586188d9"},"vehicle_type_id":"4","last_reported":1737040107,"current_range_meters":38800,"station_id":"ce4bhgh2rcd13ifvqfa0","pricing_plan_id":"cebpf4jnsgd1na2vs0mg"},{"bike_id":"c5b4e51b-edb6-48e9-b5c1-ba07ffe7287b","system_id":"levelo_inurba_marseille","lat":43.29849,"lon":5.36278,"is_reserved":false,"is_disabled":false,"rental_uris":{"android":"levelo://app?vid=c5b4e51b-edb6-48e9-b5c1-ba07ffe7287b","ios":"levelo://app?vid=c5b4e51b-edb6-48e9-b5c1-ba07ffe7287b"},"vehicle_type_id":"4","last_reported":1737040107,"current_range_meters":39200,"station_id":"ce4bgpp2rcd13ifvqc3g","pricing_plan_id":"cebpf4jnsgd1na2vs0mg"},{"bike_id":"4605789c-d250-4af9-8bff-ede0fe47ab05","system_id":"levelo_inurba_marseille","lat":43.2981,"lon":5.38081,"is_reserved":false,"is_disabled":false,"rental_uris":{"android":"levelo://app?vid=4605789c-d250-4af9-8bff-ede0fe47ab05","ios":"levelo://app?vid=4605789c-d250-4af9-8bff-ede0fe47ab05"},"vehicle_type_id":"4","last_reported":1737040107,"current_range_meters":38800,"station_id":"ce4bgip2rcd13ifvqbb0","pricing_plan_id":"cebpf4jnsgd1na2vs0mg"},{"bike_id":"23841810-efd5-41ac-91fb-ef9485c097a2","system_id":"levelo_inurba_marseille","lat":43.2816,"lon":5.42647,"is_reserved":false,"is_disabled":false,"rental_uris":{"android":"levelo://app?vid=23841810-efd5-41ac-91fb-ef9485c097a2","ios":"levelo://app?vid=23841810-efd5-41ac-91fb-ef9485c097a2"},"vehicle_type_id":"4","last_reported":1737040107,"current_range_meters":22800,"station_id":"ce4bhnh2rcd13ifvqgug","pricing_plan_id":"cebpf4jnsgd1na2vs0mg"},{"bike_id":"9aa7d735-ff03-46f0-a656-1c1c0b059eb5","system_id":"levelo_inurba_marseille","lat":43.29274,"lon":5.3798,"is_reserved":false,"is_disabled":false,"rental_uris":{"android":"levelo://app?vid=9aa7d735-ff03-46f0-a656-1c1c0b059eb5","ios":"levelo://app?vid=9aa7d735-ff03-46f0-a656-1c1c0b059eb5"},"vehicle_type_id":"4","last_reported":1737040107,"current_range_meters":25200,"station_id":"ce4bgqh2rcd13ifvqc5g","pricing_plan_id":"cebpf4jnsgd1na2vs0mg"},{"bike_id":"cd99d4d4-1bee-4035-adb1-c44e14db5620","system_id":"levelo_inurba_marseille","lat":43.29274,"lon":5.36843,"is_reserved":false,"is_disabled":false,"rental_uris":{"android":"levelo://app?vid=cd99d4d4-1bee-4035-adb1-c44e14db5620","ios":"levelo://app?vid=cd99d4d4-1bee-4035-adb1-c44e14db5620"},"vehicle_type_id":"4","last_reported":1737040107,"current_range_meters":7200,"station_id":"ce4bhbp2rcd13ifvqesg","pricing_plan_id":"cebpf4jnsgd1na2vs0mg"},{"bike_id":"5a5dd679-6152-4131-bc9e-c0ece2c67d8d","system_id":"levelo_inurba_marseille","lat":43.25819,"lon":5.39436,"is_reserved":false,"is_disabled":false,"rental_uris":{"android":"levelo://app?vid=5a5dd679-6152-4131-bc9e-c0ece2c67d8d","ios":"levelo://app?vid=5a5dd679-6152-4131-bc9e-c0ece2c67d8d"},"vehicle_type_id":"4","last_reported":1737040107,"current_range_meters":8000,"station_id":"ce4bhip2rcd13ifvqft0","pricing_plan_id":"cebpf4jnsgd1na2vs0mg"},{"bike_id":"5fc1b6c0-8604-47be-9a91-81372cd3e354","system_id":"levelo_inurba_marseille","lat":43.3199,"lon":5.38123,"is_reserved":false,"is_disabled":false,"rental_uris":{"android":"levelo://app?vid=5fc1b6c0-8604-47be-9a91-81372cd3e354","ios":"levelo://app?vid=5fc1b6c0-8604-47be-9a91-81372cd3e354"},"vehicle_type_id":"4","last_reported":1737040107,"current_range_meters":38800,"station_id":"ce4bhr12rcd13ifvqhpg","pricing_plan_id":"cebpf4jnsgd1na2vs0mg"},{"bike_id":"a9d19257-6b35-4541-a04d-c8ba0e569890","system_id":"levelo_inurba_marseille","lat":43.29796,"lon":5.381,"is_reserved":false,"is_disabled":false,"rental_uris":{"android":"levelo://app?vid=a9d19257-6b35-4541-a04d-c8ba0e569890","ios":"levelo://app?vid=a9d19257-6b35-4541-a04d-c8ba0e569890"},"vehicle_type_id":"4","last_reported":1737040107,"current_range_meters":8800,"station_id":"ce4bgip2rcd13ifvqbb0","pricing_plan_id":"cebpf4jnsgd1na2vs0mg"},{"bike_id":"90ed37a9-d123-4ac9-9dc6-c4d9ff1c53ef","system_id":"levelo_inurba_marseille","lat":43.30526,"lon":5.36528,"is_reserved":false,"is_disabled":false,"rental_uris":{"android":"levelo://app?vid=90ed37a9-d123-4ac9-9dc6-c4d9ff1c53ef","ios":"levelo://app?vid=90ed37a9-d123-4ac9-9dc6-c4d9ff1c53ef"},"vehicle_type_id":"4","last_reported":1737040107,"current_range_meters":39200,"station_id":"ce4bgs12rcd13ifvqcag","pricing_plan_id":"cebpf4jnsgd1na2vs0mg"},{"bike_id":"f8bed993-c204-4159-b8e6-9c18e1f2f118","system_id":"levelo_inurba_marseille","lat":43.29522,"lon":5.375,"is_reserved":false,"is_disabled":false,"rental_uris":{"android":"levelo://app?vid=f8bed993-c204-4159-b8e6-9c18e1f2f118","ios":"levelo://app?vid=f8bed993-c204-4159-b8e6-9c18e1f2f118"},"vehicle_type_id":"4","last_reported":1737040107,"current_range_meters":9200,"station_id":"ce4bgkp2rcd13ifvqbmg","pricing_plan_id":"cebpf4jnsgd1na2vs0mg"},{"bike_id":"bef5c741-75bd-4f8f-a849-078d09ab7470","system_id":"levelo_inurba_marseille","lat":43.298944,"lon":5.436644,"is_reserved":false,"is_disabled":false,"rental_uris":{"android":"levelo://app?vid=bef5c741-75bd-4f8f-a849-078d09ab7470","ios":"levelo://app?vid=bef5c741-75bd-4f8f-a849-078d09ab7470"},"vehicle_type_id":"4","last_reported":1737040107,"current_range_meters":38800,"station_id":"ce4bhpp2rcd13ifvqhfg","pricing_plan_id":"cebpf4jnsgd1na2vs0mg"},{"bike_id":"507d7b19-702d-4bfb-8bc8-0fc6d8c1a3a4","system_id":"levelo_inurba_marseille","lat":43.29876,"lon":5.39733,"is_reserved":false,"is_disabled":false,"rental_uris":{"android":"levelo://app?vid=507d7b19-702d-4bfb-8bc8-0fc6d8c1a3a4","ios":"levelo://app?vid=507d7b19-702d-4bfb-8bc8-0fc6d8c1a3a4"},"vehicle_type_id":"4","last_reported":1737040107,"current_range_meters":38800,"station_id":"ce4bh0h2rcd13ifvqd50","pricing_plan_id":"cebpf4jnsgd1na2vs0mg"},{"bike_id":"1f4e6e8d-6c70-4dd6-ba83-165a530688d7","system_id":"levelo_inurba_marseille","lat":43.22939,"lon":5.35388,"is_reserved":false,"is_disabled":false,"rental_uris":{"android":"levelo://app?vid=1f4e6e8d-6c70-4dd6-ba83-165a530688d7","ios":"levelo://app?vid=1f4e6e8d-6c70-4dd6-ba83-165a530688d7"},"vehicle_type_id":"4","last_reported":1737040107,"current_range_meters":24000,"station_id":"cpo3532slgdg3j2ikp40","pricing_plan_id":"cebpf4jnsgd1na2vs0mg"},{"bike_id":"5dc5ff4a-6f97-4551-b16e-6accac849217","system_id":"levelo_inurba_marseille","lat":43.30542,"lon":5.36695,"is_reserved":false,"is_disabled":false,"rental_uris":{"android":"levelo://app?vid=5dc5ff4a-6f97-4551-b16e-6accac849217","ios":"levelo://app?vid=5dc5ff4a-6f97-4551-b16e-6accac849217"},"vehicle_type_id":"4","last_reported":1737040107,"current_range_meters":38000,"station_id":"ce4bgrp2rcd13ifvqc9g","pricing_plan_id":"cebpf4jnsgd1na2vs0mg"},{"bike_id":"5caa6015-5206-4e34-b8b2-40afa0319cce","system_id":"levelo_inurba_marseille","lat":43.24804,"lon":5.37452,"is_reserved":false,"is_disabled":false,"rental_uris":{"android":"levelo://app?vid=5caa6015-5206-4e34-b8b2-40afa0319cce","ios":"levelo://app?vid=5caa6015-5206-4e34-b8b2-40afa0319cce"},"vehicle_type_id":"4","last_reported":1737040107,"current_range_meters":16800,"station_id":"ce4bhgh2rcd13ifvqfb0","pricing_plan_id":"cebpf4jnsgd1na2vs0mg"},{"bike_id":"ae6ec69a-9b0e-43e0-a28d-173f309613ee","system_id":"levelo_inurba_marseille","lat":43.29919,"lon":5.374813,"is_reserved":false,"is_disabled":false,"rental_uris":{"android":"levelo://app?vid=ae6ec69a-9b0e-43e0-a28d-173f309613ee","ios":"levelo://app?vid=ae6ec69a-9b0e-43e0-a28d-173f309613ee"},"vehicle_type_id":"4","last_reported":1737040107,"current_range_meters":27200,"station_id":"ce4bgjh2rcd13ifvqbg0","pricing_plan_id":"cebpf4jnsgd1na2vs0mg"},{"bike_id":"f8bc605a-59b5-4308-b621-2f5d04388785","system_id":"levelo_inurba_marseille","lat":43.2961,"lon":5.37719,"is_reserved":false,"is_disabled":false,"rental_uris":{"android":"levelo://app?vid=f8bc605a-59b5-4308-b621-2f5d04388785","ios":"levelo://app?vid=f8bc605a-59b5-4308-b621-2f5d04388785"},"vehicle_type_id":"4","last_reported":1737040107,"current_range_meters":38000,"station_id":"ce4bgi92rcd13ifvqb90","pricing_plan_id":"cebpf4jnsgd1na2vs0mg"},{"bike_id":"fa53afd0-c3c0-46c2-be7e-d056eb14f6b8","system_id":"levelo_inurba_marseille","lat":43.26071,"lon":5.39399,"is_reserved":false,"is_disabled":false,"rental_uris":{"android":"levelo://app?vid=fa53afd0-c3c0-46c2-be7e-d056eb14f6b8","ios":"levelo://app?vid=fa53afd0-c3c0-46c2-be7e-d056eb14f6b8"},"vehicle_type_id":"4","last_reported":1737040107,"current_range_meters":38800,"station_id":"ce4bhh92rcd13ifvqfj0","pricing_plan_id":"cebpf4jnsgd1na2vs0mg"},{"bike_id":"bf570212-0e3b-4bce-85fa-29c1011cfa2d","system_id":"levelo_inurba_marseille","lat":43.32494,"lon":5.36563,"is_reserved":false,"is_disabled":false,"rental_uris":{"android":"levelo://app?vid=bf570212-0e3b-4bce-85fa-29c1011cfa2d","ios":"levelo://app?vid=bf570212-0e3b-4bce-85fa-29c1011cfa2d"},"vehicle_type_id":"4","last_reported":1737040107,"current_range_meters":32400,"station_id":"ce4bhs12rcd13ifvqhvg","pricing_plan_id":"cebpf4jnsgd1na2vs0mg"},{"bike_id":"e9b44516-60a0-4ed6-819e-437709973ea4","system_id":"levelo_inurba_marseille","lat":43.29613,"lon":5.37149,"is_reserved":false,"is_disabled":false,"rental_uris":{"android":"levelo://app?vid=e9b44516-60a0-4ed6-819e-437709973ea4","ios":"levelo://app?vid=e9b44516-60a0-4ed6-819e-437709973ea4"},"vehicle_type_id":"4","last_reported":1737040107,"current_range_meters":32000,"station_id":"ce4bgnh2rcd13ifvqc0g","pricing_plan_id":"cebpf4jnsgd1na2vs0mg"},{"bike_id":"a78ea674-5088-4f77-b7c2-4fef42cc5598","system_id":"levelo_inurba_marseille","lat":43.29519,"lon":5.37484,"is_reserved":false,"is_disabled":false,"rental_uris":{"android":"levelo://app?vid=a78ea674-5088-4f77-b7c2-4fef42cc5598","ios":"levelo://app?vid=a78ea674-5088-4f77-b7c2-4fef42cc5598"},"vehicle_type_id":"4","last_reported":1737040107,"current_range_meters":23200,"station_id":"ce4bgkp2rcd13ifvqbmg","pricing_plan_id":"cebpf4jnsgd1na2vs0mg"},{"bike_id":"704e28fd-53c9-4d30-925c-0240518ef77b","system_id":"levelo_inurba_marseille","lat":43.27809,"lon":5.40716,"is_reserved":false,"is_disabled":false,"rental_uris":{"android":"levelo://app?vid=704e28fd-53c9-4d30-925c-0240518ef77b","ios":"levelo://app?vid=704e28fd-53c9-4d30-925c-0240518ef77b"},"vehicle_type_id":"4","last_reported":1737040107,"current_range_meters":23200,"station_id":"ce4bhnh2rcd13ifvqgtg","pricing_plan_id":"cebpf4jnsgd1na2vs0mg"},{"bike_id":"155dbf4b-d6fe-46aa-9097-9994452a5158","system_id":"levelo_inurba_marseille","lat":43.23082,"lon":5.355,"is_reserved":false,"is_disabled":false,"rental_uris":{"android":"levelo://app?vid=155dbf4b-d6fe-46aa-9097-9994452a5158","ios":"levelo://app?vid=155dbf4b-d6fe-46aa-9097-9994452a5158"},"vehicle_type_id":"4","last_reported":1737040107,"current_range_meters":8800,"station_id":"cpo3342slgdg3j2ifvpg","pricing_plan_id":"cebpf4jnsgd1na2vs0mg"},{"bike_id":"80bc6287-ce2b-4ae4-b9d5-67d3150daa6d","system_id":"levelo_inurba_marseille","lat":43.2718,"lon":5.40982,"is_reserved":false,"is_disabled":false,"rental_uris":{"android":"levelo://app?vid=80bc6287-ce2b-4ae4-b9d5-67d3150daa6d","ios":"levelo://app?vid=80bc6287-ce2b-4ae4-b9d5-67d3150daa6d"},"vehicle_type_id":"4","last_reported":1737040107,"current_range_meters":28400,"station_id":"ce4bhl12rcd13ifvqgf0","pricing_plan_id":"cebpf4jnsgd1na2vs0mg"},{"bike_id":"98342f93-7bf2-4304-817a-494cc685e2f4","system_id":"levelo_inurba_marseille","lat":43.33732,"lon":5.39184,"is_reserved":false,"is_disabled":false,"rental_uris":{"android":"levelo://app?vid=98342f93-7bf2-4304-817a-494cc685e2f4","ios":"levelo://app?vid=98342f93-7bf2-4304-817a-494cc685e2f4"},"vehicle_type_id":"4","last_reported":1737040107,"current_range_meters":38800,"station_id":"ce4bhr92rcd13ifvqhsg","pricing_plan_id":"cebpf4jnsgd1na2vs0mg"},{"bike_id":"0e148415-5fb7-4b85-bd8d-2efc964f268e","system_id":"levelo_inurba_marseille","lat":43.33734,"lon":5.39184,"is_reserved":false,"is_disabled":false,"rental_uris":{"android":"levelo://app?vid=0e148415-5fb7-4b85-bd8d-2efc964f268e","ios":"levelo://app?vid=0e148415-5fb7-4b85-bd8d-2efc964f268e"},"vehicle_type_id":"4","last_reported":1737040107,"current_range_meters":38000,"station_id":"ce4bhr92rcd13ifvqhsg","pricing_plan_id":"cebpf4jnsgd1na2vs0mg"},{"bike_id":"b5f30258-5ae8-4337-8b7b-bc959cdf13dd","system_id":"levelo_inurba_marseille","lat":43.31081,"lon":5.38358,"is_reserved":false,"is_disabled":false,"rental_uris":{"android":"levelo://app?vid=b5f30258-5ae8-4337-8b7b-bc959cdf13dd","ios":"levelo://app?vid=b5f30258-5ae8-4337-8b7b-bc959cdf13dd"},"vehicle_type_id":"4","last_reported":1737040107,"current_range_meters":36000,"station_id":"ce4bgv92rcd13ifvqcr0","pricing_plan_id":"cebpf4jnsgd1na2vs0mg"},{"bike_id":"a1523aca-b8dd-40c8-94a3-4928a8f4de36","system_id":"levelo_inurba_marseille","lat":43.29561,"lon":5.39968,"is_reserved":false,"is_disabled":false,"rental_uris":{"android":"levelo://app?vid=a1523aca-b8dd-40c8-94a3-4928a8f4de36","ios":"levelo://app?vid=a1523aca-b8dd-40c8-94a3-4928a8f4de36"},"vehicle_type_id":"4","last_reported":1737040107,"current_range_meters":6800,"station_id":"ce4bh312rcd13ifvqdj0","pricing_plan_id":"cebpf4jnsgd1na2vs0mg"},{"bike_id":"160c4de7-7f2e-4ddd-89ef-4765ad4546e8","system_id":"levelo_inurba_marseille","lat":43.29003,"lon":5.35595,"is_reserved":false,"is_disabled":false,"rental_uris":{"android":"levelo://app?vid=160c4de7-7f2e-4ddd-89ef-4765ad4546e8","ios":"levelo://app?vid=160c4de7-7f2e-4ddd-89ef-4765ad4546e8"},"vehicle_type_id":"4","last_reported":1737040107,"current_range_meters":37600,"station_id":"ce4bhb92rcd13ifvqen0","pricing_plan_id":"cebpf4jnsgd1na2vs0mg"},{"bike_id":"9076a999-5ecc-4480-8347-02eee4fb0f90","system_id":"levelo_inurba_marseille","lat":43.30422,"lon":5.39756,"is_reserved":false,"is_disabled":false,"rental_uris":{"android":"levelo://app?vid=9076a999-5ecc-4480-8347-02eee4fb0f90","ios":"levelo://app?vid=9076a999-5ecc-4480-8347-02eee4fb0f90"},"vehicle_type_id":"4","last_reported":1737040107,"current_range_meters":36800,"station_id":"ce4bh092rcd13ifvqd20","pricing_plan_id":"cebpf4jnsgd1na2vs0mg"},{"bike_id":"1f149e26-9d4e-4970-96ec-1b76430b914b","system_id":"levelo_inurba_marseille","lat":43.24409,"lon":5.3705,"is_reserved":false,"is_disabled":false,"rental_uris":{"android":"levelo://app?vid=1f149e26-9d4e-4970-96ec-1b76430b914b","ios":"levelo://app?vid=1f149e26-9d4e-4970-96ec-1b76430b914b"},"vehicle_type_id":"4","last_reported":1737040107,"current_range_meters":38800,"station_id":"ce4bhhh2rcd13ifvqfk0","pricing_plan_id":"cebpf4jnsgd1na2vs0mg"},{"bike_id":"baf753fc-dc54-426d-a32c-0f27b8c91385","system_id":"levelo_inurba_marseille","lat":43.26783,"lon":5.39418,"is_reserved":false,"is_disabled":false,"rental_uris":{"android":"levelo://app?vid=baf753fc-dc54-426d-a32c-0f27b8c91385","ios":"levelo://app?vid=baf753fc-dc54-426d-a32c-0f27b8c91385"},"vehicle_type_id":"4","last_reported":1737040107,"current_range_meters":7200,"station_id":"ce4bhh12rcd13ifvqfg0","pricing_plan_id":"cebpf4jnsgd1na2vs0mg"},{"bike_id":"76b11e59-8729-43b1-bbd0-394b62bc4f6d","system_id":"levelo_inurba_marseille","lat":43.34151,"lon":5.40908,"is_reserved":false,"is_disabled":false,"rental_uris":{"android":"levelo://app?vid=76b11e59-8729-43b1-bbd0-394b62bc4f6d","ios":"levelo://app?vid=76b11e59-8729-43b1-bbd0-394b62bc4f6d"},"vehicle_type_id":"4","last_reported":1737040107,"current_range_meters":30400,"station_id":"ce4bhqh2rcd13ifvqhlg","pricing_plan_id":"cebpf4jnsgd1na2vs0mg"},{"bike_id":"4d67d339-e8e1-4f5a-8086-1d6e90a5223c","system_id":"levelo_inurba_marseille","lat":43.31433,"lon":5.37594,"is_reserved":false,"is_disabled":false,"rental_uris":{"android":"levelo://app?vid=4d67d339-e8e1-4f5a-8086-1d6e90a5223c","ios":"levelo://app?vid=4d67d339-e8e1-4f5a-8086-1d6e90a5223c"},"vehicle_type_id":"4","last_reported":1737040107,"current_range_meters":38800,"station_id":"","pricing_plan_id":"cebpf4jnsgd1na2vs0mg"},{"bike_id":"0148a48f-03ab-43ce-bd0f-98296f178387","system_id":"levelo_inurba_marseille","lat":43.29796,"lon":5.38092,"is_reserved":false,"is_disabled":false,"rental_uris":{"android":"levelo://app?vid=0148a48f-03ab-43ce-bd0f-98296f178387","ios":"levelo://app?vid=0148a48f-03ab-43ce-bd0f-98296f178387"},"vehicle_type_id":"4","last_reported":1737040107,"current_range_meters":38000,"station_id":"ce4bgip2rcd13ifvqbb0","pricing_plan_id":"cebpf4jnsgd1na2vs0mg"},{"bike_id":"2c839bfc-228b-4afd-9c45-0e54b8f36672","system_id":"levelo_inurba_marseille","lat":43.246494,"lon":5.38902,"is_reserved":false,"is_disabled":false,"rental_uris":{"android":"levelo://app?vid=2c839bfc-228b-4afd-9c45-0e54b8f36672","ios":"levelo://app?vid=2c839bfc-228b-4afd-9c45-0e54b8f36672"},"vehicle_type_id":"4","last_reported":1737040107,"current_range_meters":38800,"station_id":"ce4bhg12rcd13ifvqf60","pricing_plan_id":"cebpf4jnsgd1na2vs0mg"},{"bike_id":"b1ddeadc-31f1-42f9-9a80-512818b293b3","system_id":"levelo_inurba_marseille","lat":43.29418,"lon":5.38615,"is_reserved":false,"is_disabled":false,"rental_uris":{"android":"levelo://app?vid=b1ddeadc-31f1-42f9-9a80-512818b293b3","ios":"levelo://app?vid=b1ddeadc-31f1-42f9-9a80-512818b293b3"},"vehicle_type_id":"4","last_reported":1737040107,"current_range_meters":8800,"station_id":"ce4bh2h2rcd13ifvqdh0","pricing_plan_id":"cebpf4jnsgd1na2vs0mg"},{"bike_id":"707ed4b6-32ec-456f-af9b-99b730072abe","system_id":"levelo_inurba_marseille","lat":43.29558,"lon":5.37482,"is_reserved":false,"is_disabled":false,"rental_uris":{"android":"levelo://app?vid=707ed4b6-32ec-456f-af9b-99b730072abe","ios":"levelo://app?vid=707ed4b6-32ec-456f-af9b-99b730072abe"},"vehicle_type_id":"4","last_reported":1737040107,"current_range_meters":22400,"station_id":"ce4bgh92rcd13ifvqb50","pricing_plan_id":"cebpf4jnsgd1na2vs0mg"},{"bike_id":"15e41896-9686-461f-add3-091f60afd267","system_id":"levelo_inurba_marseille","lat":43.28282,"lon":5.3507,"is_reserved":false,"is_disabled":false,"rental_uris":{"android":"levelo://app?vid=15e41896-9686-461f-add3-091f60afd267","ios":"levelo://app?vid=15e41896-9686-461f-add3-091f60afd267"},"vehicle_type_id":"4","last_reported":1737040107,"current_range_meters":38800,"station_id":"ce4bhbp2rcd13ifvqerg","pricing_plan_id":"cebpf4jnsgd1na2vs0mg"},{"bike_id":"2766686f-7696-4a1d-bceb-e3abea7dd924","system_id":"levelo_inurba_marseille","lat":43.3124,"lon":5.36854,"is_reserved":false,"is_disabled":false,"rental_uris":{"android":"levelo://app?vid=2766686f-7696-4a1d-bceb-e3abea7dd924","ios":"levelo://app?vid=2766686f-7696-4a1d-bceb-e3abea7dd924"},"vehicle_type_id":"4","last_reported":1737040107,"current_range_meters":32800,"station_id":"ce4bgl92rcd13ifvqbq0","pricing_plan_id":"cebpf4jnsgd1na2vs0mg"},{"bike_id":"8f6c01b1-ce75-4918-b18d-9006fdafea84","system_id":"levelo_inurba_marseille","lat":43.25103,"lon":5.4032,"is_reserved":false,"is_disabled":false,"rental_uris":{"android":"levelo://app?vid=8f6c01b1-ce75-4918-b18d-9006fdafea84","ios":"levelo://app?vid=8f6c01b1-ce75-4918-b18d-9006fdafea84"},"vehicle_type_id":"4","last_reported":1737040107,"current_range_meters":14400,"station_id":"ce4bhlh2rcd13ifvqgig","pricing_plan_id":"cebpf4jnsgd1na2vs0mg"},{"bike_id":"f4f3ad72-e766-46a7-b785-6ef16be6bbc3","system_id":"levelo_inurba_marseille","lat":43.31339,"lon":5.36703,"is_reserved":false,"is_disabled":false,"rental_uris":{"android":"levelo://app?vid=f4f3ad72-e766-46a7-b785-6ef16be6bbc3","ios":"levelo://app?vid=f4f3ad72-e766-46a7-b785-6ef16be6bbc3"},"vehicle_type_id":"4","last_reported":1737040107,"current_range_meters":3600,"station_id":"ce4bgr92rcd13ifvqc6g","pricing_plan_id":"cebpf4jnsgd1na2vs0mg"},{"bike_id":"a15980ac-c225-4e68-8982-6cc8c4cbfd79","system_id":"levelo_inurba_marseille","lat":43.231957,"lon":5.355647,"is_reserved":false,"is_disabled":false,"rental_uris":{"android":"levelo://app?vid=a15980ac-c225-4e68-8982-6cc8c4cbfd79","ios":"levelo://app?vid=a15980ac-c225-4e68-8982-6cc8c4cbfd79"},"vehicle_type_id":"4","last_reported":1737040107,"current_range_meters":38800,"station_id":"ce4bhu92rcd13ifvqi70","pricing_plan_id":"cebpf4jnsgd1na2vs0mg"},{"bike_id":"390ab92d-b8c8-4fa3-a463-67c40cf8a73a","system_id":"levelo_inurba_marseille","lat":43.27199,"lon":5.40998,"is_reserved":false,"is_disabled":false,"rental_uris":{"android":"levelo://app?vid=390ab92d-b8c8-4fa3-a463-67c40cf8a73a","ios":"levelo://app?vid=390ab92d-b8c8-4fa3-a463-67c40cf8a73a"},"vehicle_type_id":"4","last_reported":1737040107,"current_range_meters":38800,"station_id":"ce4bhl12rcd13ifvqgf0","pricing_plan_id":"cebpf4jnsgd1na2vs0mg"},{"bike_id":"344bd4d4-3a8a-47e1-aaad-a2c9867ce43b","system_id":"levelo_inurba_marseille","lat":43.273751,"lon":5.362554,"is_reserved":false,"is_disabled":false,"rental_uris":{"android":"levelo://app?vid=344bd4d4-3a8a-47e1-aaad-a2c9867ce43b","ios":"levelo://app?vid=344bd4d4-3a8a-47e1-aaad-a2c9867ce43b"},"vehicle_type_id":"4","last_reported":1737040107,"current_range_meters":39200,"station_id":"ce4bhbh2rcd13ifvqeo0","pricing_plan_id":"cebpf4jnsgd1na2vs0mg"},{"bike_id":"d90ee4ec-2958-4e67-bcea-4f5f624860f0","system_id":"levelo_inurba_marseille","lat":43.27323,"lon":5.39069,"is_reserved":false,"is_disabled":false,"rental_uris":{"android":"levelo://app?vid=d90ee4ec-2958-4e67-bcea-4f5f624860f0","ios":"levelo://app?vid=d90ee4ec-2958-4e67-bcea-4f5f624860f0"},"vehicle_type_id":"4","last_reported":1737040107,"current_range_meters":37600,"station_id":"ce4bhgp2rcd13ifvqfe0","pricing_plan_id":"cebpf4jnsgd1na2vs0mg"},{"bike_id":"0fa75195-ca6f-4470-9a59-3f578924b033","system_id":"levelo_inurba_marseille","lat":43.274313,"lon":5.394103,"is_reserved":false,"is_disabled":false,"rental_uris":{"android":"levelo://app?vid=0fa75195-ca6f-4470-9a59-3f578924b033","ios":"levelo://app?vid=0fa75195-ca6f-4470-9a59-3f578924b033"},"vehicle_type_id":"4","last_reported":1737040107,"current_range_meters":39200,"station_id":"ce4bhdp2rcd13ifvqf20","pricing_plan_id":"cebpf4jnsgd1na2vs0mg"},{"bike_id":"c01aceb6-e57c-4a59-b035-4de377c0bc83","system_id":"levelo_inurba_marseille","lat":43.30812,"lon":5.38129,"is_reserved":false,"is_disabled":false,"rental_uris":{"android":"levelo://app?vid=c01aceb6-e57c-4a59-b035-4de377c0bc83","ios":"levelo://app?vid=c01aceb6-e57c-4a59-b035-4de377c0bc83"},"vehicle_type_id":"4","last_reported":1737040107,"current_range_meters":36400,"station_id":"ce4bgt12rcd13ifvqce0","pricing_plan_id":"cebpf4jnsgd1na2vs0mg"},{"bike_id":"54ee1132-bfd8-47ca-b326-15c9b0bf5d42","system_id":"levelo_inurba_marseille","lat":43.305478,"lon":5.365607,"is_reserved":false,"is_disabled":false,"rental_uris":{"android":"levelo://app?vid=54ee1132-bfd8-47ca-b326-15c9b0bf5d42","ios":"levelo://app?vid=54ee1132-bfd8-47ca-b326-15c9b0bf5d42"},"vehicle_type_id":"4","last_reported":1737040107,"current_range_meters":22800,"station_id":"ce4bgs12rcd13ifvqcag","pricing_plan_id":"cebpf4jnsgd1na2vs0mg"},{"bike_id":"7ca16fbe-7403-4ad7-b55e-853058e0317d","system_id":"levelo_inurba_marseille","lat":43.30544,"lon":5.3672,"is_reserved":false,"is_disabled":false,"rental_uris":{"android":"levelo://app?vid=7ca16fbe-7403-4ad7-b55e-853058e0317d","ios":"levelo://app?vid=7ca16fbe-7403-4ad7-b55e-853058e0317d"},"vehicle_type_id":"4","last_reported":1737040107,"current_range_meters":37600,"station_id":"ce4bgrp2rcd13ifvqc9g","pricing_plan_id":"cebpf4jnsgd1na2vs0mg"},{"bike_id":"51bb6953-dea8-4e82-96bf-52696267905f","system_id":"levelo_inurba_marseille","lat":43.23077,"lon":5.3549,"is_reserved":false,"is_disabled":false,"rental_uris":{"android":"levelo://app?vid=51bb6953-dea8-4e82-96bf-52696267905f","ios":"levelo://app?vid=51bb6953-dea8-4e82-96bf-52696267905f"},"vehicle_type_id":"4","last_reported":1737040107,"current_range_meters":37600,"station_id":"cpo3342slgdg3j2ifvpg","pricing_plan_id":"cebpf4jnsgd1na2vs0mg"},{"bike_id":"9be957d2-26d1-49a4-9f85-b06ee3432064","system_id":"levelo_inurba_marseille","lat":43.33713,"lon":5.39189,"is_reserved":false,"is_disabled":false,"rental_uris":{"android":"levelo://app?vid=9be957d2-26d1-49a4-9f85-b06ee3432064","ios":"levelo://app?vid=9be957d2-26d1-49a4-9f85-b06ee3432064"},"vehicle_type_id":"4","last_reported":1737040107,"current_range_meters":33600,"station_id":"ce4bhr92rcd13ifvqhsg","pricing_plan_id":"cebpf4jnsgd1na2vs0mg"},{"bike_id":"43be8b2e-95c7-4bfc-b572-8790831c05f1","system_id":"levelo_inurba_marseille","lat":43.23969,"lon":5.36631,"is_reserved":false,"is_disabled":false,"rental_uris":{"android":"levelo://app?vid=43be8b2e-95c7-4bfc-b572-8790831c05f1","ios":"levelo://app?vid=43be8b2e-95c7-4bfc-b572-8790831c05f1"},"vehicle_type_id":"4","last_reported":1737040107,"current_range_meters":30000,"station_id":"ce4bhi12rcd13ifvqfp0","pricing_plan_id":"cebpf4jnsgd1na2vs0mg"},{"bike_id":"3bea599d-9d1d-4ce1-a78c-b94821d3e8a3","system_id":"levelo_inurba_marseille","lat":43.25021,"lon":5.38927,"is_reserved":false,"is_disabled":false,"rental_uris":{"android":"levelo://app?vid=3bea599d-9d1d-4ce1-a78c-b94821d3e8a3","ios":"levelo://app?vid=3bea599d-9d1d-4ce1-a78c-b94821d3e8a3"},"vehicle_type_id":"4","last_reported":1737040107,"current_range_meters":36400,"station_id":"ce4bhgp2rcd13ifvqfd0","pricing_plan_id":"cebpf4jnsgd1na2vs0mg"},{"bike_id":"8e2010c2-e7e3-425c-9b1d-139fd4978763","system_id":"levelo_inurba_marseille","lat":43.31424,"lon":5.36688,"is_reserved":false,"is_disabled":false,"rental_uris":{"android":"levelo://app?vid=8e2010c2-e7e3-425c-9b1d-139fd4978763","ios":"levelo://app?vid=8e2010c2-e7e3-425c-9b1d-139fd4978763"},"vehicle_type_id":"4","last_reported":1737040107,"current_range_meters":37600,"station_id":"ce4bgr92rcd13ifvqc6g","pricing_plan_id":"cebpf4jnsgd1na2vs0mg"},{"bike_id":"c72f0241-b8c1-44da-8744-7ccc8e668d26","system_id":"levelo_inurba_marseille","lat":43.24831,"lon":5.37427,"is_reserved":false,"is_disabled":false,"rental_uris":{"android":"levelo://app?vid=c72f0241-b8c1-44da-8744-7ccc8e668d26","ios":"levelo://app?vid=c72f0241-b8c1-44da-8744-7ccc8e668d26"},"vehicle_type_id":"4","last_reported":1737040107,"current_range_meters":34800,"station_id":"ce4bhgh2rcd13ifvqfb0","pricing_plan_id":"cebpf4jnsgd1na2vs0mg"},{"bike_id":"36e34a58-3562-4291-bd21-dcf0cdb62cdf","system_id":"levelo_inurba_marseille","lat":43.27827,"lon":5.40713,"is_reserved":false,"is_disabled":false,"rental_uris":{"android":"levelo://app?vid=36e34a58-3562-4291-bd21-dcf0cdb62cdf","ios":"levelo://app?vid=36e34a58-3562-4291-bd21-dcf0cdb62cdf"},"vehicle_type_id":"4","last_reported":1737040107,"current_range_meters":9200,"station_id":"ce4bhnh2rcd13ifvqgtg","pricing_plan_id":"cebpf4jnsgd1na2vs0mg"},{"bike_id":"1b826428-7b9b-4476-aff5-2d78b28b890c","system_id":"levelo_inurba_marseille","lat":43.27366,"lon":5.3623,"is_reserved":false,"is_disabled":false,"rental_uris":{"android":"levelo://app?vid=1b826428-7b9b-4476-aff5-2d78b28b890c","ios":"levelo://app?vid=1b826428-7b9b-4476-aff5-2d78b28b890c"},"vehicle_type_id":"4","last_reported":1737040107,"current_range_meters":38800,"station_id":"ce4bhbh2rcd13ifvqeo0","pricing_plan_id":"cebpf4jnsgd1na2vs0mg"},{"bike_id":"18a4e803-9fed-490d-8b8f-cfa50d31713a","system_id":"levelo_inurba_marseille","lat":43.26064,"lon":5.39397,"is_reserved":false,"is_disabled":false,"rental_uris":{"android":"levelo://app?vid=18a4e803-9fed-490d-8b8f-cfa50d31713a","ios":"levelo://app?vid=18a4e803-9fed-490d-8b8f-cfa50d31713a"},"vehicle_type_id":"4","last_reported":1737040107,"current_range_meters":15200,"station_id":"ce4bhh92rcd13ifvqfj0","pricing_plan_id":"cebpf4jnsgd1na2vs0mg"},{"bike_id":"9d480c55-de04-4898-9e93-4ee423ce5034","system_id":"levelo_inurba_marseille","lat":43.23979,"lon":5.36623,"is_reserved":false,"is_disabled":false,"rental_uris":{"android":"levelo://app?vid=9d480c55-de04-4898-9e93-4ee423ce5034","ios":"levelo://app?vid=9d480c55-de04-4898-9e93-4ee423ce5034"},"vehicle_type_id":"4","last_reported":1737040107,"current_range_meters":4000,"station_id":"ce4bhi12rcd13ifvqfp0","pricing_plan_id":"cebpf4jnsgd1na2vs0mg"},{"bike_id":"2b9ec76b-d41b-40c2-957a-cdb91e08f05a","system_id":"levelo_inurba_marseille","lat":43.28972,"lon":5.37853,"is_reserved":false,"is_disabled":false,"rental_uris":{"android":"levelo://app?vid=2b9ec76b-d41b-40c2-957a-cdb91e08f05a","ios":"levelo://app?vid=2b9ec76b-d41b-40c2-957a-cdb91e08f05a"},"vehicle_type_id":"4","last_reported":1737040107,"current_range_meters":39200,"station_id":"ce4bh9p2rcd13ifvqed0","pricing_plan_id":"cebpf4jnsgd1na2vs0mg"},{"bike_id":"9d98ca00-1e7f-4cc0-8c28-13b153bd2fd6","system_id":"levelo_inurba_marseille","lat":43.25126,"lon":5.40322,"is_reserved":false,"is_disabled":false,"rental_uris":{"android":"levelo://app?vid=9d98ca00-1e7f-4cc0-8c28-13b153bd2fd6","ios":"levelo://app?vid=9d98ca00-1e7f-4cc0-8c28-13b153bd2fd6"},"vehicle_type_id":"4","last_reported":1737040107,"current_range_meters":16400,"station_id":"ce4bhlh2rcd13ifvqgig","pricing_plan_id":"cebpf4jnsgd1na2vs0mg"},{"bike_id":"4b2a9951-e9c3-48e0-8b22-f77f1838dfc7","system_id":"levelo_inurba_marseille","lat":43.295797,"lon":5.375983,"is_reserved":false,"is_disabled":false,"rental_uris":{"android":"levelo://app?vid=4b2a9951-e9c3-48e0-8b22-f77f1838dfc7","ios":"levelo://app?vid=4b2a9951-e9c3-48e0-8b22-f77f1838dfc7"},"vehicle_type_id":"4","last_reported":1737040107,"current_range_meters":16400,"station_id":"","pricing_plan_id":"cebpf4jnsgd1na2vs0mg"},{"bike_id":"ab83fd1f-7636-46a9-be6f-714c723379d6","system_id":"levelo_inurba_marseille","lat":43.31323,"lon":5.397,"is_reserved":false,"is_disabled":false,"rental_uris":{"android":"levelo://app?vid=ab83fd1f-7636-46a9-be6f-714c723379d6","ios":"levelo://app?vid=ab83fd1f-7636-46a9-be6f-714c723379d6"},"vehicle_type_id":"4","last_reported":1737040107,"current_range_meters":38800,"station_id":"ce4bgvp2rcd13ifvqcu0","pricing_plan_id":"cebpf4jnsgd1na2vs0mg"},{"bike_id":"227e2104-9342-467a-bb13-dc81a29065f7","system_id":"levelo_inurba_marseille","lat":43.28494,"lon":5.38963,"is_reserved":false,"is_disabled":false,"rental_uris":{"android":"levelo://app?vid=227e2104-9342-467a-bb13-dc81a29065f7","ios":"levelo://app?vid=227e2104-9342-467a-bb13-dc81a29065f7"},"vehicle_type_id":"4","last_reported":1737040107,"current_range_meters":30000,"station_id":"","pricing_plan_id":"cebpf4jnsgd1na2vs0mg"},{"bike_id":"b2632576-d2f4-4f91-975b-2a6e65937421","system_id":"levelo_inurba_marseille","lat":43.25085,"lon":5.39521,"is_reserved":false,"is_disabled":false,"rental_uris":{"android":"levelo://app?vid=b2632576-d2f4-4f91-975b-2a6e65937421","ios":"levelo://app?vid=b2632576-d2f4-4f91-975b-2a6e65937421"},"vehicle_type_id":"4","last_reported":1737040107,"current_range_meters":33600,"station_id":"ce4bhm12rcd13ifvqgkg","pricing_plan_id":"cebpf4jnsgd1na2vs0mg"},{"bike_id":"e8af7b2f-b208-43fa-830b-2e893bd05ce1","system_id":"levelo_inurba_marseille","lat":43.30415,"lon":5.41284,"is_reserved":false,"is_disabled":false,"rental_uris":{"android":"levelo://app?vid=e8af7b2f-b208-43fa-830b-2e893bd05ce1","ios":"levelo://app?vid=e8af7b2f-b208-43fa-830b-2e893bd05ce1"},"vehicle_type_id":"4","last_reported":1737040107,"current_range_meters":24400,"station_id":"ce4bhop2rcd13ifvqh8g","pricing_plan_id":"cebpf4jnsgd1na2vs0mg"},{"bike_id":"a99c8052-dbe4-4227-9c5c-5b048c4e36eb","system_id":"levelo_inurba_marseille","lat":43.29198,"lon":5.35814,"is_reserved":false,"is_disabled":false,"rental_uris":{"android":"levelo://app?vid=a99c8052-dbe4-4227-9c5c-5b048c4e36eb","ios":"levelo://app?vid=a99c8052-dbe4-4227-9c5c-5b048c4e36eb"},"vehicle_type_id":"4","last_reported":1737040107,"current_range_meters":5600,"station_id":"ce4bhb12rcd13ifvqel0","pricing_plan_id":"cebpf4jnsgd1na2vs0mg"},{"bike_id":"5685b1ca-51df-4b0c-81b2-5fc50125a990","system_id":"levelo_inurba_marseille","lat":43.29577,"lon":5.37512,"is_reserved":false,"is_disabled":false,"rental_uris":{"android":"levelo://app?vid=5685b1ca-51df-4b0c-81b2-5fc50125a990","ios":"levelo://app?vid=5685b1ca-51df-4b0c-81b2-5fc50125a990"},"vehicle_type_id":"4","last_reported":1737040107,"current_range_meters":28800,"station_id":"ce4bgh92rcd13ifvqb50","pricing_plan_id":"cebpf4jnsgd1na2vs0mg"},{"bike_id":"93af35ad-738e-40e4-afcb-6d3589d7e732","system_id":"levelo_inurba_marseille","lat":43.2315,"lon":5.43701,"is_reserved":false,"is_disabled":false,"rental_uris":{"android":"levelo://app?vid=93af35ad-738e-40e4-afcb-6d3589d7e732","ios":"levelo://app?vid=93af35ad-738e-40e4-afcb-6d3589d7e732"},"vehicle_type_id":"4","last_reported":1737040107,"current_range_meters":22800,"station_id":"ce4bhmp2rcd13ifvqgog","pricing_plan_id":"cebpf4jnsgd1na2vs0mg"},{"bike_id":"d1b53a96-266e-4b04-a3ed-285008bed597","system_id":"levelo_inurba_marseille","lat":43.25919,"lon":5.40864,"is_reserved":false,"is_disabled":false,"rental_uris":{"android":"levelo://app?vid=d1b53a96-266e-4b04-a3ed-285008bed597","ios":"levelo://app?vid=d1b53a96-266e-4b04-a3ed-285008bed597"},"vehicle_type_id":"4","last_reported":1737040107,"current_range_meters":30800,"station_id":"ce4bhm92rcd13ifvqglg","pricing_plan_id":"cebpf4jnsgd1na2vs0mg"},{"bike_id":"73d347f9-612e-4d3c-99bb-840c5d9eeb88","system_id":"levelo_inurba_marseille","lat":43.28722,"lon":5.36085,"is_reserved":false,"is_disabled":false,"rental_uris":{"android":"levelo://app?vid=73d347f9-612e-4d3c-99bb-840c5d9eeb88","ios":"levelo://app?vid=73d347f9-612e-4d3c-99bb-840c5d9eeb88"},"vehicle_type_id":"4","last_reported":1737040107,"current_range_meters":29600,"station_id":"cki0cbj6b192h4jlfktg","pricing_plan_id":"cebpf4jnsgd1na2vs0mg"},{"bike_id":"cd61c03b-d4f0-48f7-b777-75cd85668d7f","system_id":"levelo_inurba_marseille","lat":43.3136,"lon":5.36676,"is_reserved":false,"is_disabled":false,"rental_uris":{"android":"levelo://app?vid=cd61c03b-d4f0-48f7-b777-75cd85668d7f","ios":"levelo://app?vid=cd61c03b-d4f0-48f7-b777-75cd85668d7f"},"vehicle_type_id":"4","last_reported":1737040107,"current_range_meters":14000,"station_id":"ce4bgr92rcd13ifvqc6g","pricing_plan_id":"cebpf4jnsgd1na2vs0mg"},{"bike_id":"af21ee5b-f7eb-47bd-9d98-3e2b3e6fd530","system_id":"levelo_inurba_marseille","lat":43.319923,"lon":5.381568,"is_reserved":false,"is_disabled":false,"rental_uris":{"android":"levelo://app?vid=af21ee5b-f7eb-47bd-9d98-3e2b3e6fd530","ios":"levelo://app?vid=af21ee5b-f7eb-47bd-9d98-3e2b3e6fd530"},"vehicle_type_id":"4","last_reported":1737040107,"current_range_meters":38800,"station_id":"ce4bhr12rcd13ifvqhpg","pricing_plan_id":"cebpf4jnsgd1na2vs0mg"},{"bike_id":"88601246-06df-4be5-a673-7eb26d5a62f0","system_id":"levelo_inurba_marseille","lat":43.30149,"lon":5.37418,"is_reserved":false,"is_disabled":false,"rental_uris":{"android":"levelo://app?vid=88601246-06df-4be5-a673-7eb26d5a62f0","ios":"levelo://app?vid=88601246-06df-4be5-a673-7eb26d5a62f0"},"vehicle_type_id":"4","last_reported":1737040107,"current_range_meters":25200,"station_id":"ce4bgs92rcd13ifvqcc0","pricing_plan_id":"cebpf4jnsgd1na2vs0mg"},{"bike_id":"e5e3ac40-280b-4393-8bdb-194e23925377","system_id":"levelo_inurba_marseille","lat":43.28153,"lon":5.42647,"is_reserved":false,"is_disabled":false,"rental_uris":{"android":"levelo://app?vid=e5e3ac40-280b-4393-8bdb-194e23925377","ios":"levelo://app?vid=e5e3ac40-280b-4393-8bdb-194e23925377"},"vehicle_type_id":"4","last_reported":1737040107,"current_range_meters":25600,"station_id":"ce4bhnh2rcd13ifvqgug","pricing_plan_id":"cebpf4jnsgd1na2vs0mg"},{"bike_id":"1c5dee46-9296-4ff0-86e0-56f1d3de6cd3","system_id":"levelo_inurba_marseille","lat":43.29838,"lon":5.36258,"is_reserved":false,"is_disabled":false,"rental_uris":{"android":"levelo://app?vid=1c5dee46-9296-4ff0-86e0-56f1d3de6cd3","ios":"levelo://app?vid=1c5dee46-9296-4ff0-86e0-56f1d3de6cd3"},"vehicle_type_id":"4","last_reported":1737040107,"current_range_meters":12400,"station_id":"ce4bgpp2rcd13ifvqc3g","pricing_plan_id":"cebpf4jnsgd1na2vs0mg"},{"bike_id":"a09a941d-cd7f-4a74-ae80-30df2fc74a04","system_id":"levelo_inurba_marseille","lat":43.27179,"lon":5.40992,"is_reserved":false,"is_disabled":false,"rental_uris":{"android":"levelo://app?vid=a09a941d-cd7f-4a74-ae80-30df2fc74a04","ios":"levelo://app?vid=a09a941d-cd7f-4a74-ae80-30df2fc74a04"},"vehicle_type_id":"4","last_reported":1737040107,"current_range_meters":38800,"station_id":"ce4bhl12rcd13ifvqgf0","pricing_plan_id":"cebpf4jnsgd1na2vs0mg"},{"bike_id":"4121f9d5-b138-4a51-9809-f2a903161b1a","system_id":"levelo_inurba_marseille","lat":43.29536,"lon":5.37505,"is_reserved":false,"is_disabled":false,"rental_uris":{"android":"levelo://app?vid=4121f9d5-b138-4a51-9809-f2a903161b1a","ios":"levelo://app?vid=4121f9d5-b138-4a51-9809-f2a903161b1a"},"vehicle_type_id":"4","last_reported":1737040107,"current_range_meters":38000,"station_id":"ce4bgkp2rcd13ifvqbmg","pricing_plan_id":"cebpf4jnsgd1na2vs0mg"},{"bike_id":"a4b779dc-e9f6-42d9-b786-46a4421bfccd","system_id":"levelo_inurba_marseille","lat":43.30595,"lon":5.37194,"is_reserved":false,"is_disabled":false,"rental_uris":{"android":"levelo://app?vid=a4b779dc-e9f6-42d9-b786-46a4421bfccd","ios":"levelo://app?vid=a4b779dc-e9f6-42d9-b786-46a4421bfccd"},"vehicle_type_id":"4","last_reported":1737040107,"current_range_meters":28800,"station_id":"ce4bgqh2rcd13ifvqc4g","pricing_plan_id":"cebpf4jnsgd1na2vs0mg"},{"bike_id":"f574eb7d-a119-41a3-864a-a48df8b6c663","system_id":"levelo_inurba_marseille","lat":43.29978,"lon":5.38493,"is_reserved":false,"is_disabled":false,"rental_uris":{"android":"levelo://app?vid=f574eb7d-a119-41a3-864a-a48df8b6c663","ios":"levelo://app?vid=f574eb7d-a119-41a3-864a-a48df8b6c663"},"vehicle_type_id":"4","last_reported":1737040107,"current_range_meters":34000,"station_id":"ce4bgj92rcd13ifvqbd0","pricing_plan_id":"cebpf4jnsgd1na2vs0mg"},{"bike_id":"8e22980f-b3a4-4dfb-bf69-e371eb868ca9","system_id":"levelo_inurba_marseille","lat":43.28155,"lon":5.42647,"is_reserved":false,"is_disabled":false,"rental_uris":{"android":"levelo://app?vid=8e22980f-b3a4-4dfb-bf69-e371eb868ca9","ios":"levelo://app?vid=8e22980f-b3a4-4dfb-bf69-e371eb868ca9"},"vehicle_type_id":"4","last_reported":1737040107,"current_range_meters":4800,"station_id":"ce4bhnh2rcd13ifvqgug","pricing_plan_id":"cebpf4jnsgd1na2vs0mg"},{"bike_id":"1e3e261a-d767-4ffd-953e-d4aa9f38b17b","system_id":"levelo_inurba_marseille","lat":43.27813,"lon":5.40713,"is_reserved":false,"is_disabled":false,"rental_uris":{"android":"levelo://app?vid=1e3e261a-d767-4ffd-953e-d4aa9f38b17b","ios":"levelo://app?vid=1e3e261a-d767-4ffd-953e-d4aa9f38b17b"},"vehicle_type_id":"4","last_reported":1737040107,"current_range_meters":35200,"station_id":"ce4bhnh2rcd13ifvqgtg","pricing_plan_id":"cebpf4jnsgd1na2vs0mg"},{"bike_id":"8ac2bc2f-01f2-46f8-adc6-12e15431a1e7","system_id":"levelo_inurba_marseille","lat":43.29799,"lon":5.404,"is_reserved":false,"is_disabled":false,"rental_uris":{"android":"levelo://app?vid=8ac2bc2f-01f2-46f8-adc6-12e15431a1e7","ios":"levelo://app?vid=8ac2bc2f-01f2-46f8-adc6-12e15431a1e7"},"vehicle_type_id":"4","last_reported":1737040107,"current_range_meters":38800,"station_id":"ce4bh112rcd13ifvqd90","pricing_plan_id":"cebpf4jnsgd1na2vs0mg"},{"bike_id":"fb02b012-cf2b-4292-b08f-702d3861108d","system_id":"levelo_inurba_marseille","lat":43.29981,"lon":5.37175,"is_reserved":false,"is_disabled":false,"rental_uris":{"android":"levelo://app?vid=fb02b012-cf2b-4292-b08f-702d3861108d","ios":"levelo://app?vid=fb02b012-cf2b-4292-b08f-702d3861108d"},"vehicle_type_id":"4","last_reported":1737040107,"current_range_meters":38800,"station_id":"ce4bgr92rcd13ifvqc7g","pricing_plan_id":"cebpf4jnsgd1na2vs0mg"},{"bike_id":"7a26b63c-652f-4d2d-8353-1a9dfb4e945a","system_id":"levelo_inurba_marseille","lat":43.33733,"lon":5.39177,"is_reserved":false,"is_disabled":false,"rental_uris":{"android":"levelo://app?vid=7a26b63c-652f-4d2d-8353-1a9dfb4e945a","ios":"levelo://app?vid=7a26b63c-652f-4d2d-8353-1a9dfb4e945a"},"vehicle_type_id":"4","last_reported":1737040107,"current_range_meters":38800,"station_id":"ce4bhr92rcd13ifvqhsg","pricing_plan_id":"cebpf4jnsgd1na2vs0mg"},{"bike_id":"6816f2cb-ba75-43f5-8f74-1ecf534e9e80","system_id":"levelo_inurba_marseille","lat":43.30572,"lon":5.3653,"is_reserved":false,"is_disabled":false,"rental_uris":{"android":"levelo://app?vid=6816f2cb-ba75-43f5-8f74-1ecf534e9e80","ios":"levelo://app?vid=6816f2cb-ba75-43f5-8f74-1ecf534e9e80"},"vehicle_type_id":"4","last_reported":1737040107,"current_range_meters":33200,"station_id":"ce4bgs12rcd13ifvqcag","pricing_plan_id":"cebpf4jnsgd1na2vs0mg"},{"bike_id":"8ab529c5-0c54-40b5-96ac-0bbb4c91817f","system_id":"levelo_inurba_marseille","lat":43.26789,"lon":5.39418,"is_reserved":false,"is_disabled":false,"rental_uris":{"android":"levelo://app?vid=8ab529c5-0c54-40b5-96ac-0bbb4c91817f","ios":"levelo://app?vid=8ab529c5-0c54-40b5-96ac-0bbb4c91817f"},"vehicle_type_id":"4","last_reported":1737040107,"current_range_meters":23200,"station_id":"ce4bhh12rcd13ifvqfg0","pricing_plan_id":"cebpf4jnsgd1na2vs0mg"},{"bike_id":"56b8e9bc-f750-4815-bc98-9098414d16db","system_id":"levelo_inurba_marseille","lat":43.23206,"lon":5.35559,"is_reserved":false,"is_disabled":true,"rental_uris":{"android":"levelo://app?vid=56b8e9bc-f750-4815-bc98-9098414d16db","ios":"levelo://app?vid=56b8e9bc-f750-4815-bc98-9098414d16db"},"vehicle_type_id":"4","last_reported":1737040107,"current_range_meters":0,"station_id":"ce4bhu92rcd13ifvqi70","pricing_plan_id":"cebpf4jnsgd1na2vs0mg"},{"bike_id":"8e700017-39de-4ec6-9703-f1cb4ac2aa4d","system_id":"levelo_inurba_marseille","lat":43.29625,"lon":5.37709,"is_reserved":false,"is_disabled":false,"rental_uris":{"android":"levelo://app?vid=8e700017-39de-4ec6-9703-f1cb4ac2aa4d","ios":"levelo://app?vid=8e700017-39de-4ec6-9703-f1cb4ac2aa4d"},"vehicle_type_id":"4","last_reported":1737040107,"current_range_meters":36400,"station_id":"ce4bgi92rcd13ifvqb90","pricing_plan_id":"cebpf4jnsgd1na2vs0mg"},{"bike_id":"143b929e-8cd1-4b75-b749-a27c88917e39","system_id":"levelo_inurba_marseille","lat":43.26038,"lon":5.37549,"is_reserved":false,"is_disabled":false,"rental_uris":{"android":"levelo://app?vid=143b929e-8cd1-4b75-b749-a27c88917e39","ios":"levelo://app?vid=143b929e-8cd1-4b75-b749-a27c88917e39"},"vehicle_type_id":"4","last_reported":1737040107,"current_range_meters":33200,"station_id":"ce4bhgh2rcd13ifvqfa0","pricing_plan_id":"cebpf4jnsgd1na2vs0mg"},{"bike_id":"d7a710b0-adff-4c5c-bf44-f4013363962c","system_id":"levelo_inurba_marseille","lat":43.24694,"lon":5.39435,"is_reserved":false,"is_disabled":false,"rental_uris":{"android":"levelo://app?vid=d7a710b0-adff-4c5c-bf44-f4013363962c","ios":"levelo://app?vid=d7a710b0-adff-4c5c-bf44-f4013363962c"},"vehicle_type_id":"4","last_reported":1737040107,"current_range_meters":39200,"station_id":"","pricing_plan_id":"cebpf4jnsgd1na2vs0mg"},{"bike_id":"5b5b9902-6477-4816-81ea-170089f5c9a8","system_id":"levelo_inurba_marseille","lat":43.29251,"lon":5.40904,"is_reserved":false,"is_disabled":false,"rental_uris":{"android":"levelo://app?vid=5b5b9902-6477-4816-81ea-170089f5c9a8","ios":"levelo://app?vid=5b5b9902-6477-4816-81ea-170089f5c9a8"},"vehicle_type_id":"4","last_reported":1737040107,"current_range_meters":39200,"station_id":"ce4bh192rcd13ifvqdc0","pricing_plan_id":"cebpf4jnsgd1na2vs0mg"},{"bike_id":"0670b4f0-1f45-4258-9a91-28f01f5ea4c3","system_id":"levelo_inurba_marseille","lat":43.28165,"lon":5.42628,"is_reserved":false,"is_disabled":false,"rental_uris":{"android":"levelo://app?vid=0670b4f0-1f45-4258-9a91-28f01f5ea4c3","ios":"levelo://app?vid=0670b4f0-1f45-4258-9a91-28f01f5ea4c3"},"vehicle_type_id":"4","last_reported":1737040107,"current_range_meters":12000,"station_id":"ce4bhnh2rcd13ifvqgug","pricing_plan_id":"cebpf4jnsgd1na2vs0mg"},{"bike_id":"4cb2a067-413b-4b1e-ac7d-3376dcfd5b87","system_id":"levelo_inurba_marseille","lat":43.32489,"lon":5.36572,"is_reserved":false,"is_disabled":false,"rental_uris":{"android":"levelo://app?vid=4cb2a067-413b-4b1e-ac7d-3376dcfd5b87","ios":"levelo://app?vid=4cb2a067-413b-4b1e-ac7d-3376dcfd5b87"},"vehicle_type_id":"4","last_reported":1737040107,"current_range_meters":36800,"station_id":"ce4bhs12rcd13ifvqhvg","pricing_plan_id":"cebpf4jnsgd1na2vs0mg"},{"bike_id":"760d9807-dbe0-4840-96e2-5a7fd0686216","system_id":"levelo_inurba_marseille","lat":43.29037,"lon":5.37553,"is_reserved":false,"is_disabled":false,"rental_uris":{"android":"levelo://app?vid=760d9807-dbe0-4840-96e2-5a7fd0686216","ios":"levelo://app?vid=760d9807-dbe0-4840-96e2-5a7fd0686216"},"vehicle_type_id":"4","last_reported":1737040107,"current_range_meters":27600,"station_id":"ce4bh692rcd13ifvqe90","pricing_plan_id":"cebpf4jnsgd1na2vs0mg"},{"bike_id":"fd07f8e0-3a97-494f-8bae-4a1f3cf368a8","system_id":"levelo_inurba_marseille","lat":43.30889,"lon":5.37178,"is_reserved":false,"is_disabled":false,"rental_uris":{"android":"levelo://app?vid=fd07f8e0-3a97-494f-8bae-4a1f3cf368a8","ios":"levelo://app?vid=fd07f8e0-3a97-494f-8bae-4a1f3cf368a8"},"vehicle_type_id":"4","last_reported":1737040107,"current_range_meters":25200,"station_id":"ce4bguh2rcd13ifvqckg","pricing_plan_id":"cebpf4jnsgd1na2vs0mg"},{"bike_id":"2e70836a-a10f-4618-953a-21e9a7e8b8d7","system_id":"levelo_inurba_marseille","lat":43.2841,"lon":5.375,"is_reserved":false,"is_disabled":false,"rental_uris":{"android":"levelo://app?vid=2e70836a-a10f-4618-953a-21e9a7e8b8d7","ios":"levelo://app?vid=2e70836a-a10f-4618-953a-21e9a7e8b8d7"},"vehicle_type_id":"4","last_reported":1737040107,"current_range_meters":30000,"station_id":"ce4bh412rcd13ifvqds0","pricing_plan_id":"cebpf4jnsgd1na2vs0mg"},{"bike_id":"995c884a-0499-46b1-9a44-bb0a781664c5","system_id":"levelo_inurba_marseille","lat":43.25918,"lon":5.40857,"is_reserved":false,"is_disabled":false,"rental_uris":{"android":"levelo://app?vid=995c884a-0499-46b1-9a44-bb0a781664c5","ios":"levelo://app?vid=995c884a-0499-46b1-9a44-bb0a781664c5"},"vehicle_type_id":"4","last_reported":1737040107,"current_range_meters":38800,"station_id":"ce4bhm92rcd13ifvqglg","pricing_plan_id":"cebpf4jnsgd1na2vs0mg"},{"bike_id":"22465212-93af-4e0b-b803-6ee82bba56d5","system_id":"levelo_inurba_marseille","lat":43.33768,"lon":5.37466,"is_reserved":false,"is_disabled":false,"rental_uris":{"android":"levelo://app?vid=22465212-93af-4e0b-b803-6ee82bba56d5","ios":"levelo://app?vid=22465212-93af-4e0b-b803-6ee82bba56d5"},"vehicle_type_id":"4","last_reported":1737040107,"current_range_meters":32800,"station_id":"","pricing_plan_id":"cebpf4jnsgd1na2vs0mg"},{"bike_id":"a7788fb4-2a9d-4143-a89d-e4dfd84651ab","system_id":"levelo_inurba_marseille","lat":43.29317,"lon":5.40221,"is_reserved":false,"is_disabled":false,"rental_uris":{"android":"levelo://app?vid=a7788fb4-2a9d-4143-a89d-e4dfd84651ab","ios":"levelo://app?vid=a7788fb4-2a9d-4143-a89d-e4dfd84651ab"},"vehicle_type_id":"4","last_reported":1737040107,"current_range_meters":13600,"station_id":"","pricing_plan_id":"cebpf4jnsgd1na2vs0mg"},{"bike_id":"fc705563-96e6-45d0-adb3-8588f3962dd4","system_id":"levelo_inurba_marseille","lat":43.323657,"lon":5.388854,"is_reserved":false,"is_disabled":false,"rental_uris":{"android":"levelo://app?vid=fc705563-96e6-45d0-adb3-8588f3962dd4","ios":"levelo://app?vid=fc705563-96e6-45d0-adb3-8588f3962dd4"},"vehicle_type_id":"4","last_reported":1737040107,"current_range_meters":32800,"station_id":"ce4bhqp2rcd13ifvqhog","pricing_plan_id":"cebpf4jnsgd1na2vs0mg"},{"bike_id":"8ea1e7e9-0f2a-4dd7-89ec-43af818b1ec4","system_id":"levelo_inurba_marseille","lat":43.31896,"lon":5.40733,"is_reserved":false,"is_disabled":false,"rental_uris":{"android":"levelo://app?vid=8ea1e7e9-0f2a-4dd7-89ec-43af818b1ec4","ios":"levelo://app?vid=8ea1e7e9-0f2a-4dd7-89ec-43af818b1ec4"},"vehicle_type_id":"4","last_reported":1737040107,"current_range_meters":9600,"station_id":"ce4bhq12rcd13ifvqhig","pricing_plan_id":"cebpf4jnsgd1na2vs0mg"},{"bike_id":"ff1203e1-2670-4454-8987-a4509c5375b2","system_id":"levelo_inurba_marseille","lat":43.29793,"lon":5.38097,"is_reserved":false,"is_disabled":false,"rental_uris":{"android":"levelo://app?vid=ff1203e1-2670-4454-8987-a4509c5375b2","ios":"levelo://app?vid=ff1203e1-2670-4454-8987-a4509c5375b2"},"vehicle_type_id":"4","last_reported":1737040107,"current_range_meters":36000,"station_id":"ce4bgip2rcd13ifvqbb0","pricing_plan_id":"cebpf4jnsgd1na2vs0mg"},{"bike_id":"0c74b65d-6a6b-4f50-a23b-6454b7a923c5","system_id":"levelo_inurba_marseille","lat":43.305473,"lon":5.367201,"is_reserved":false,"is_disabled":false,"rental_uris":{"android":"levelo://app?vid=0c74b65d-6a6b-4f50-a23b-6454b7a923c5","ios":"levelo://app?vid=0c74b65d-6a6b-4f50-a23b-6454b7a923c5"},"vehicle_type_id":"4","last_reported":1737040107,"current_range_meters":27600,"station_id":"ce4bgrp2rcd13ifvqc9g","pricing_plan_id":"cebpf4jnsgd1na2vs0mg"},{"bike_id":"620f5798-de92-438d-b848-c5c91a98dd52","system_id":"levelo_inurba_marseille","lat":43.27375,"lon":5.36266,"is_reserved":false,"is_disabled":false,"rental_uris":{"android":"levelo://app?vid=620f5798-de92-438d-b848-c5c91a98dd52","ios":"levelo://app?vid=620f5798-de92-438d-b848-c5c91a98dd52"},"vehicle_type_id":"4","last_reported":1737040107,"current_range_meters":25200,"station_id":"ce4bhbh2rcd13ifvqeo0","pricing_plan_id":"cebpf4jnsgd1na2vs0mg"},{"bike_id":"917148ce-4c9d-450a-97ee-d2deee4d50c3","system_id":"levelo_inurba_marseille","lat":43.32513,"lon":5.36572,"is_reserved":false,"is_disabled":false,"rental_uris":{"android":"levelo://app?vid=917148ce-4c9d-450a-97ee-d2deee4d50c3","ios":"levelo://app?vid=917148ce-4c9d-450a-97ee-d2deee4d50c3"},"vehicle_type_id":"4","last_reported":1737040107,"current_range_meters":10800,"station_id":"ce4bhs12rcd13ifvqhvg","pricing_plan_id":"cebpf4jnsgd1na2vs0mg"},{"bike_id":"0b3f2499-8d66-4218-ac7b-2507294ac24c","system_id":"levelo_inurba_marseille","lat":43.29808,"lon":5.38114,"is_reserved":false,"is_disabled":false,"rental_uris":{"android":"levelo://app?vid=0b3f2499-8d66-4218-ac7b-2507294ac24c","ios":"levelo://app?vid=0b3f2499-8d66-4218-ac7b-2507294ac24c"},"vehicle_type_id":"4","last_reported":1737040107,"current_range_meters":33600,"station_id":"ce4bgip2rcd13ifvqbb0","pricing_plan_id":"cebpf4jnsgd1na2vs0mg"},{"bike_id":"5f73b1c5-bb2a-4fac-9eb7-14c830fab3ce","system_id":"levelo_inurba_marseille","lat":43.29847,"lon":5.36254,"is_reserved":false,"is_disabled":false,"rental_uris":{"android":"levelo://app?vid=5f73b1c5-bb2a-4fac-9eb7-14c830fab3ce","ios":"levelo://app?vid=5f73b1c5-bb2a-4fac-9eb7-14c830fab3ce"},"vehicle_type_id":"4","last_reported":1737040107,"current_range_meters":30800,"station_id":"ce4bgpp2rcd13ifvqc3g","pricing_plan_id":"cebpf4jnsgd1na2vs0mg"},{"bike_id":"682d97cf-1eff-43a1-8fde-21607297becd","system_id":"levelo_inurba_marseille","lat":43.267935,"lon":5.394135,"is_reserved":false,"is_disabled":false,"rental_uris":{"android":"levelo://app?vid=682d97cf-1eff-43a1-8fde-21607297becd","ios":"levelo://app?vid=682d97cf-1eff-43a1-8fde-21607297becd"},"vehicle_type_id":"4","last_reported":1737040107,"current_range_meters":36400,"station_id":"ce4bhh12rcd13ifvqfg0","pricing_plan_id":"cebpf4jnsgd1na2vs0mg"},{"bike_id":"986679c3-9a01-44e2-9999-994917f7617e","system_id":"levelo_inurba_marseille","lat":43.29366,"lon":5.37848,"is_reserved":false,"is_disabled":false,"rental_uris":{"android":"levelo://app?vid=986679c3-9a01-44e2-9999-994917f7617e","ios":"levelo://app?vid=986679c3-9a01-44e2-9999-994917f7617e"},"vehicle_type_id":"4","last_reported":1737040107,"current_range_meters":25200,"station_id":"ce4bgjh2rcd13ifvqbf0","pricing_plan_id":"cebpf4jnsgd1na2vs0mg"},{"bike_id":"6a7366d7-ed8c-4629-bf0c-70c2abcda36d","system_id":"levelo_inurba_marseille","lat":43.23194,"lon":5.3555,"is_reserved":false,"is_disabled":false,"rental_uris":{"android":"levelo://app?vid=6a7366d7-ed8c-4629-bf0c-70c2abcda36d","ios":"levelo://app?vid=6a7366d7-ed8c-4629-bf0c-70c2abcda36d"},"vehicle_type_id":"4","last_reported":1737040107,"current_range_meters":10800,"station_id":"ce4bhu92rcd13ifvqi70","pricing_plan_id":"cebpf4jnsgd1na2vs0mg"},{"bike_id":"1e53d647-df95-46d5-9a1e-85641c128b40","system_id":"levelo_inurba_marseille","lat":43.24822,"lon":5.37439,"is_reserved":false,"is_disabled":true,"rental_uris":{"android":"levelo://app?vid=1e53d647-df95-46d5-9a1e-85641c128b40","ios":"levelo://app?vid=1e53d647-df95-46d5-9a1e-85641c128b40"},"vehicle_type_id":"4","last_reported":1737040107,"current_range_meters":0,"station_id":"ce4bhgh2rcd13ifvqfb0","pricing_plan_id":"cebpf4jnsgd1na2vs0mg"},{"bike_id":"2d7f3353-743b-41e1-85f2-e32181d4ae48","system_id":"levelo_inurba_marseille","lat":43.320011,"lon":5.381571,"is_reserved":false,"is_disabled":false,"rental_uris":{"android":"levelo://app?vid=2d7f3353-743b-41e1-85f2-e32181d4ae48","ios":"levelo://app?vid=2d7f3353-743b-41e1-85f2-e32181d4ae48"},"vehicle_type_id":"4","last_reported":1737040107,"current_range_meters":32800,"station_id":"ce4bhr12rcd13ifvqhpg","pricing_plan_id":"cebpf4jnsgd1na2vs0mg"},{"bike_id":"573076c8-1172-47e5-b129-cb987286e5ee","system_id":"levelo_inurba_marseille","lat":43.27814,"lon":5.40714,"is_reserved":false,"is_disabled":false,"rental_uris":{"android":"levelo://app?vid=573076c8-1172-47e5-b129-cb987286e5ee","ios":"levelo://app?vid=573076c8-1172-47e5-b129-cb987286e5ee"},"vehicle_type_id":"4","last_reported":1737040107,"current_range_meters":3600,"station_id":"ce4bhnh2rcd13ifvqgtg","pricing_plan_id":"cebpf4jnsgd1na2vs0mg"},{"bike_id":"8b3a17e8-1f77-4ac6-8b9d-ced6664d4658","system_id":"levelo_inurba_marseille","lat":43.28939,"lon":5.3664,"is_reserved":false,"is_disabled":false,"rental_uris":{"android":"levelo://app?vid=8b3a17e8-1f77-4ac6-8b9d-ced6664d4658","ios":"levelo://app?vid=8b3a17e8-1f77-4ac6-8b9d-ced6664d4658"},"vehicle_type_id":"4","last_reported":1737040107,"current_range_meters":31200,"station_id":"ce4bhap2rcd13ifvqek0","pricing_plan_id":"cebpf4jnsgd1na2vs0mg"},{"bike_id":"a547529f-b5a2-472b-ba47-638711c52fef","system_id":"levelo_inurba_marseille","lat":43.32047,"lon":5.41549,"is_reserved":false,"is_disabled":false,"rental_uris":{"android":"levelo://app?vid=a547529f-b5a2-472b-ba47-638711c52fef","ios":"levelo://app?vid=a547529f-b5a2-472b-ba47-638711c52fef"},"vehicle_type_id":"4","last_reported":1737040107,"current_range_meters":39200,"station_id":"ce4bhq92rcd13ifvqhkg","pricing_plan_id":"cebpf4jnsgd1na2vs0mg"},{"bike_id":"855a2268-02f8-4307-894d-f57dfd10b4c1","system_id":"levelo_inurba_marseille","lat":43.33055,"lon":5.39029,"is_reserved":false,"is_disabled":false,"rental_uris":{"android":"levelo://app?vid=855a2268-02f8-4307-894d-f57dfd10b4c1","ios":"levelo://app?vid=855a2268-02f8-4307-894d-f57dfd10b4c1"},"vehicle_type_id":"4","last_reported":1737040107,"current_range_meters":39200,"station_id":"ce4bhr92rcd13ifvqhrg","pricing_plan_id":"cebpf4jnsgd1na2vs0mg"},{"bike_id":"bcfe17a5-801a-4c93-a1ed-bb78aa678c01","system_id":"levelo_inurba_marseille","lat":43.27208,"lon":5.39173,"is_reserved":false,"is_disabled":false,"rental_uris":{"android":"levelo://app?vid=bcfe17a5-801a-4c93-a1ed-bb78aa678c01","ios":"levelo://app?vid=bcfe17a5-801a-4c93-a1ed-bb78aa678c01"},"vehicle_type_id":"4","last_reported":1737040107,"current_range_meters":35200,"station_id":"ce4bhhp2rcd13ifvqfm0","pricing_plan_id":"cebpf4jnsgd1na2vs0mg"},{"bike_id":"b583689d-4b3b-4fec-a4c3-0358dd755494","system_id":"levelo_inurba_marseille","lat":43.26682,"lon":5.38272,"is_reserved":false,"is_disabled":false,"rental_uris":{"android":"levelo://app?vid=b583689d-4b3b-4fec-a4c3-0358dd755494","ios":"levelo://app?vid=b583689d-4b3b-4fec-a4c3-0358dd755494"},"vehicle_type_id":"4","last_reported":1737040107,"current_range_meters":36800,"station_id":"ce4bhg92rcd13ifvqf90","pricing_plan_id":"cebpf4jnsgd1na2vs0mg"},{"bike_id":"ae09a98a-a061-49c4-9853-cef76f50459a","system_id":"levelo_inurba_marseille","lat":43.28411,"lon":5.34979,"is_reserved":false,"is_disabled":false,"rental_uris":{"android":"levelo://app?vid=ae09a98a-a061-49c4-9853-cef76f50459a","ios":"levelo://app?vid=ae09a98a-a061-49c4-9853-cef76f50459a"},"vehicle_type_id":"4","last_reported":1737040107,"current_range_meters":36000,"station_id":"ce4bhbh2rcd13ifvqepg","pricing_plan_id":"cebpf4jnsgd1na2vs0mg"},{"bike_id":"42213499-420d-459f-9169-18b1018708cd","system_id":"levelo_inurba_marseille","lat":43.29808,"lon":5.38094,"is_reserved":false,"is_disabled":false,"rental_uris":{"android":"levelo://app?vid=42213499-420d-459f-9169-18b1018708cd","ios":"levelo://app?vid=42213499-420d-459f-9169-18b1018708cd"},"vehicle_type_id":"4","last_reported":1737040107,"current_range_meters":38400,"station_id":"ce4bgip2rcd13ifvqbb0","pricing_plan_id":"cebpf4jnsgd1na2vs0mg"},{"bike_id":"b497c916-9aea-4c6a-9311-baac9aad116d","system_id":"levelo_inurba_marseille","lat":43.29527,"lon":5.39018,"is_reserved":false,"is_disabled":false,"rental_uris":{"android":"levelo://app?vid=b497c916-9aea-4c6a-9311-baac9aad116d","ios":"levelo://app?vid=b497c916-9aea-4c6a-9311-baac9aad116d"},"vehicle_type_id":"4","last_reported":1737040107,"current_range_meters":10000,"station_id":"ce4bh3p2rcd13ifvqdp0","pricing_plan_id":"cebpf4jnsgd1na2vs0mg"},{"bike_id":"5d42a98e-bef8-43af-946e-751274f82d4c","system_id":"levelo_inurba_marseille","lat":43.23665,"lon":5.43602,"is_reserved":false,"is_disabled":true,"rental_uris":{"android":"levelo://app?vid=5d42a98e-bef8-43af-946e-751274f82d4c","ios":"levelo://app?vid=5d42a98e-bef8-43af-946e-751274f82d4c"},"vehicle_type_id":"4","last_reported":1737040107,"current_range_meters":31200,"station_id":"","pricing_plan_id":"cebpf4jnsgd1na2vs0mg"},{"bike_id":"1855d1a7-4c73-4137-87da-84506750b21b","system_id":"levelo_inurba_marseille","lat":43.29526,"lon":5.38545,"is_reserved":false,"is_disabled":false,"rental_uris":{"android":"levelo://app?vid=1855d1a7-4c73-4137-87da-84506750b21b","ios":"levelo://app?vid=1855d1a7-4c73-4137-87da-84506750b21b"},"vehicle_type_id":"4","last_reported":1737040107,"current_range_meters":38400,"station_id":"ce4bgih2rcd13ifvqba0","pricing_plan_id":"cebpf4jnsgd1na2vs0mg"},{"bike_id":"6bb0c2df-6198-4645-b80a-340391eb447c","system_id":"levelo_inurba_marseille","lat":43.28167,"lon":5.42645,"is_reserved":false,"is_disabled":false,"rental_uris":{"android":"levelo://app?vid=6bb0c2df-6198-4645-b80a-340391eb447c","ios":"levelo://app?vid=6bb0c2df-6198-4645-b80a-340391eb447c"},"vehicle_type_id":"4","last_reported":1737040107,"current_range_meters":30000,"station_id":"ce4bhnh2rcd13ifvqgug","pricing_plan_id":"cebpf4jnsgd1na2vs0mg"},{"bike_id":"6c02ae22-4e33-4b73-a0d5-7fa499611cc2","system_id":"levelo_inurba_marseille","lat":43.231545,"lon":5.43705,"is_reserved":false,"is_disabled":false,"rental_uris":{"android":"levelo://app?vid=6c02ae22-4e33-4b73-a0d5-7fa499611cc2","ios":"levelo://app?vid=6c02ae22-4e33-4b73-a0d5-7fa499611cc2"},"vehicle_type_id":"4","last_reported":1737040107,"current_range_meters":34000,"station_id":"ce4bhmp2rcd13ifvqgog","pricing_plan_id":"cebpf4jnsgd1na2vs0mg"},{"bike_id":"4137730b-0c74-47b1-8e82-8b885638cb61","system_id":"levelo_inurba_marseille","lat":43.28,"lon":5.41663,"is_reserved":false,"is_disabled":false,"rental_uris":{"android":"levelo://app?vid=4137730b-0c74-47b1-8e82-8b885638cb61","ios":"levelo://app?vid=4137730b-0c74-47b1-8e82-8b885638cb61"},"vehicle_type_id":"4","last_reported":1737040107,"current_range_meters":25600,"station_id":"ce4bho12rcd13ifvqh1g","pricing_plan_id":"cebpf4jnsgd1na2vs0mg"},{"bike_id":"f3000f12-d78d-46d5-99ca-8a4e13f94f9e","system_id":"levelo_inurba_marseille","lat":43.25495,"lon":5.37655,"is_reserved":false,"is_disabled":false,"rental_uris":{"android":"levelo://app?vid=f3000f12-d78d-46d5-99ca-8a4e13f94f9e","ios":"levelo://app?vid=f3000f12-d78d-46d5-99ca-8a4e13f94f9e"},"vehicle_type_id":"4","last_reported":1737040107,"current_range_meters":38800,"station_id":"ce4bhh12rcd13ifvqff0","pricing_plan_id":"cebpf4jnsgd1na2vs0mg"},{"bike_id":"6df388d1-acb4-4a60-9041-5ac07b54f585","system_id":"levelo_inurba_marseille","lat":43.2815,"lon":5.42643,"is_reserved":false,"is_disabled":false,"rental_uris":{"android":"levelo://app?vid=6df388d1-acb4-4a60-9041-5ac07b54f585","ios":"levelo://app?vid=6df388d1-acb4-4a60-9041-5ac07b54f585"},"vehicle_type_id":"4","last_reported":1737040107,"current_range_meters":28800,"station_id":"ce4bhnh2rcd13ifvqgug","pricing_plan_id":"cebpf4jnsgd1na2vs0mg"},{"bike_id":"d82bafd6-8993-499b-b696-f406019e092e","system_id":"levelo_inurba_marseille","lat":43.29609,"lon":5.37721,"is_reserved":false,"is_disabled":false,"rental_uris":{"android":"levelo://app?vid=d82bafd6-8993-499b-b696-f406019e092e","ios":"levelo://app?vid=d82bafd6-8993-499b-b696-f406019e092e"},"vehicle_type_id":"4","last_reported":1737040107,"current_range_meters":38800,"station_id":"ce4bgi92rcd13ifvqb90","pricing_plan_id":"cebpf4jnsgd1na2vs0mg"},{"bike_id":"4aaebd02-7520-4bdf-8a3d-2a043915195e","system_id":"levelo_inurba_marseille","lat":43.30557,"lon":5.36532,"is_reserved":false,"is_disabled":false,"rental_uris":{"android":"levelo://app?vid=4aaebd02-7520-4bdf-8a3d-2a043915195e","ios":"levelo://app?vid=4aaebd02-7520-4bdf-8a3d-2a043915195e"},"vehicle_type_id":"4","last_reported":1737040107,"current_range_meters":30400,"station_id":"ce4bgs12rcd13ifvqcag","pricing_plan_id":"cebpf4jnsgd1na2vs0mg"},{"bike_id":"11e426d4-47dd-475e-b24a-0d07c787de2d","system_id":"levelo_inurba_marseille","lat":43.30545,"lon":5.36542,"is_reserved":false,"is_disabled":false,"rental_uris":{"android":"levelo://app?vid=11e426d4-47dd-475e-b24a-0d07c787de2d","ios":"levelo://app?vid=11e426d4-47dd-475e-b24a-0d07c787de2d"},"vehicle_type_id":"4","last_reported":1737040107,"current_range_meters":21600,"station_id":"ce4bgs12rcd13ifvqcag","pricing_plan_id":"cebpf4jnsgd1na2vs0mg"},{"bike_id":"b3221c8e-f1ba-492e-abd8-8295f2b4b273","system_id":"levelo_inurba_marseille","lat":43.306161,"lon":5.372174,"is_reserved":false,"is_disabled":false,"rental_uris":{"android":"levelo://app?vid=b3221c8e-f1ba-492e-abd8-8295f2b4b273","ios":"levelo://app?vid=b3221c8e-f1ba-492e-abd8-8295f2b4b273"},"vehicle_type_id":"4","last_reported":1737040107,"current_range_meters":19600,"station_id":"ce4bgqh2rcd13ifvqc4g","pricing_plan_id":"cebpf4jnsgd1na2vs0mg"},{"bike_id":"e21a33db-4ff7-44b2-a73f-b5c05a38c476","system_id":"levelo_inurba_marseille","lat":43.25501,"lon":5.37668,"is_reserved":false,"is_disabled":false,"rental_uris":{"android":"levelo://app?vid=e21a33db-4ff7-44b2-a73f-b5c05a38c476","ios":"levelo://app?vid=e21a33db-4ff7-44b2-a73f-b5c05a38c476"},"vehicle_type_id":"4","last_reported":1737040107,"current_range_meters":38000,"station_id":"ce4bhh12rcd13ifvqff0","pricing_plan_id":"cebpf4jnsgd1na2vs0mg"},{"bike_id":"b6cc3290-8d97-4a09-b52c-61d9cb4c3b4e","system_id":"levelo_inurba_marseille","lat":43.30544,"lon":5.36725,"is_reserved":false,"is_disabled":false,"rental_uris":{"android":"levelo://app?vid=b6cc3290-8d97-4a09-b52c-61d9cb4c3b4e","ios":"levelo://app?vid=b6cc3290-8d97-4a09-b52c-61d9cb4c3b4e"},"vehicle_type_id":"4","last_reported":1737040107,"current_range_meters":32000,"station_id":"ce4bgrp2rcd13ifvqc9g","pricing_plan_id":"cebpf4jnsgd1na2vs0mg"},{"bike_id":"ea68a76e-b4c6-4be9-ab98-1a2f34b18dea","system_id":"levelo_inurba_marseille","lat":43.24167,"lon":5.39743,"is_reserved":false,"is_disabled":false,"rental_uris":{"android":"levelo://app?vid=ea68a76e-b4c6-4be9-ab98-1a2f34b18dea","ios":"levelo://app?vid=ea68a76e-b4c6-4be9-ab98-1a2f34b18dea"},"vehicle_type_id":"4","last_reported":1737040107,"current_range_meters":19600,"station_id":"ce4bhn12rcd13ifvqgpg","pricing_plan_id":"cebpf4jnsgd1na2vs0mg"},{"bike_id":"deed0929-0128-456e-9f76-6afc5444b63c","system_id":"levelo_inurba_marseille","lat":43.28465,"lon":5.35889,"is_reserved":false,"is_disabled":false,"rental_uris":{"android":"levelo://app?vid=deed0929-0128-456e-9f76-6afc5444b63c","ios":"levelo://app?vid=deed0929-0128-456e-9f76-6afc5444b63c"},"vehicle_type_id":"4","last_reported":1737040107,"current_range_meters":4800,"station_id":"ce4bhah2rcd13ifvqei0","pricing_plan_id":"cebpf4jnsgd1na2vs0mg"},{"bike_id":"37fcce5a-eda9-43e0-af00-e759830257b5","system_id":"levelo_inurba_marseille","lat":43.29423,"lon":5.38627,"is_reserved":false,"is_disabled":true,"rental_uris":{"android":"levelo://app?vid=37fcce5a-eda9-43e0-af00-e759830257b5","ios":"levelo://app?vid=37fcce5a-eda9-43e0-af00-e759830257b5"},"vehicle_type_id":"4","last_reported":1737040107,"current_range_meters":1600,"station_id":"ce4bh2h2rcd13ifvqdh0","pricing_plan_id":"cebpf4jnsgd1na2vs0mg"},{"bike_id":"97159a9c-5862-4f6b-813e-dca01d4b65d5","system_id":"levelo_inurba_marseille","lat":43.26199,"lon":5.37929,"is_reserved":false,"is_disabled":false,"rental_uris":{"android":"levelo://app?vid=97159a9c-5862-4f6b-813e-dca01d4b65d5","ios":"levelo://app?vid=97159a9c-5862-4f6b-813e-dca01d4b65d5"},"vehicle_type_id":"4","last_reported":1737040107,"current_range_meters":22400,"station_id":"ce4bhjp2rcd13ifvqg90","pricing_plan_id":"cebpf4jnsgd1na2vs0mg"},{"bike_id":"b66c8a7c-98ac-480c-a383-f54813a2d5aa","system_id":"levelo_inurba_marseille","lat":43.25807,"lon":5.3941,"is_reserved":false,"is_disabled":false,"rental_uris":{"android":"levelo://app?vid=b66c8a7c-98ac-480c-a383-f54813a2d5aa","ios":"levelo://app?vid=b66c8a7c-98ac-480c-a383-f54813a2d5aa"},"vehicle_type_id":"4","last_reported":1737040107,"current_range_meters":38800,"station_id":"ce4bhip2rcd13ifvqft0","pricing_plan_id":"cebpf4jnsgd1na2vs0mg"},{"bike_id":"e17b6980-3f7c-4d79-b8d3-f4bf7717c3e6","system_id":"levelo_inurba_marseille","lat":43.24682,"lon":5.38201,"is_reserved":false,"is_disabled":false,"rental_uris":{"android":"levelo://app?vid=e17b6980-3f7c-4d79-b8d3-f4bf7717c3e6","ios":"levelo://app?vid=e17b6980-3f7c-4d79-b8d3-f4bf7717c3e6"},"vehicle_type_id":"4","last_reported":1737040107,"current_range_meters":22800,"station_id":"ce4bhih2rcd13ifvqfr0","pricing_plan_id":"cebpf4jnsgd1na2vs0mg"},{"bike_id":"ccfe53f0-8dfd-4f5f-b4c7-b77b106d12b3","system_id":"levelo_inurba_marseille","lat":43.24669,"lon":5.3816,"is_reserved":false,"is_disabled":false,"rental_uris":{"android":"levelo://app?vid=ccfe53f0-8dfd-4f5f-b4c7-b77b106d12b3","ios":"levelo://app?vid=ccfe53f0-8dfd-4f5f-b4c7-b77b106d12b3"},"vehicle_type_id":"4","last_reported":1737040107,"current_range_meters":39200,"station_id":"ce4bhih2rcd13ifvqfr0","pricing_plan_id":"cebpf4jnsgd1na2vs0mg"},{"bike_id":"2c32b8e7-98d2-43a9-bdc8-37a0ffe93a6a","system_id":"levelo_inurba_marseille","lat":43.29981,"lon":5.37172,"is_reserved":false,"is_disabled":false,"rental_uris":{"android":"levelo://app?vid=2c32b8e7-98d2-43a9-bdc8-37a0ffe93a6a","ios":"levelo://app?vid=2c32b8e7-98d2-43a9-bdc8-37a0ffe93a6a"},"vehicle_type_id":"4","last_reported":1737040107,"current_range_meters":30000,"station_id":"ce4bgr92rcd13ifvqc7g","pricing_plan_id":"cebpf4jnsgd1na2vs0mg"},{"bike_id":"c8d43c1f-b3a7-43ba-8c74-73f40023c56d","system_id":"levelo_inurba_marseille","lat":43.27998,"lon":5.40008,"is_reserved":false,"is_disabled":false,"rental_uris":{"android":"levelo://app?vid=c8d43c1f-b3a7-43ba-8c74-73f40023c56d","ios":"levelo://app?vid=c8d43c1f-b3a7-43ba-8c74-73f40023c56d"},"vehicle_type_id":"4","last_reported":1737040107,"current_range_meters":26800,"station_id":"ce4bho92rcd13ifvqh4g","pricing_plan_id":"cebpf4jnsgd1na2vs0mg"},{"bike_id":"be58cd86-0aea-4f13-ac2c-23dcea109651","system_id":"levelo_inurba_marseille","lat":43.24545,"lon":5.39524,"is_reserved":false,"is_disabled":false,"rental_uris":{"android":"levelo://app?vid=be58cd86-0aea-4f13-ac2c-23dcea109651","ios":"levelo://app?vid=be58cd86-0aea-4f13-ac2c-23dcea109651"},"vehicle_type_id":"4","last_reported":1737040107,"current_range_meters":22800,"station_id":"ce4bhlp2rcd13ifvqgjg","pricing_plan_id":"cebpf4jnsgd1na2vs0mg"},{"bike_id":"98c7f46d-51b5-4520-b1da-5976f39fe891","system_id":"levelo_inurba_marseille","lat":43.22945,"lon":5.35349,"is_reserved":false,"is_disabled":false,"rental_uris":{"android":"levelo://app?vid=98c7f46d-51b5-4520-b1da-5976f39fe891","ios":"levelo://app?vid=98c7f46d-51b5-4520-b1da-5976f39fe891"},"vehicle_type_id":"4","last_reported":1737040107,"current_range_meters":21600,"station_id":"cpo3532slgdg3j2ikp40","pricing_plan_id":"cebpf4jnsgd1na2vs0mg"},{"bike_id":"5dedf1d6-7406-4466-b6ef-caab42ea0ddb","system_id":"levelo_inurba_marseille","lat":43.273742,"lon":5.393482,"is_reserved":false,"is_disabled":false,"rental_uris":{"android":"levelo://app?vid=5dedf1d6-7406-4466-b6ef-caab42ea0ddb","ios":"levelo://app?vid=5dedf1d6-7406-4466-b6ef-caab42ea0ddb"},"vehicle_type_id":"4","last_reported":1737040107,"current_range_meters":27600,"station_id":"ce4bhdp2rcd13ifvqf20","pricing_plan_id":"cebpf4jnsgd1na2vs0mg"},{"bike_id":"7bff17cc-1c44-40d8-87ad-42c14976da2f","system_id":"levelo_inurba_marseille","lat":43.305773,"lon":5.381,"is_reserved":false,"is_disabled":false,"rental_uris":{"android":"levelo://app?vid=7bff17cc-1c44-40d8-87ad-42c14976da2f","ios":"levelo://app?vid=7bff17cc-1c44-40d8-87ad-42c14976da2f"},"vehicle_type_id":"4","last_reported":1737040107,"current_range_meters":12400,"station_id":"","pricing_plan_id":"cebpf4jnsgd1na2vs0mg"},{"bike_id":"44721705-52d0-4eba-b0b2-b41ea9586411","system_id":"levelo_inurba_marseille","lat":43.23207,"lon":5.35557,"is_reserved":false,"is_disabled":false,"rental_uris":{"android":"levelo://app?vid=44721705-52d0-4eba-b0b2-b41ea9586411","ios":"levelo://app?vid=44721705-52d0-4eba-b0b2-b41ea9586411"},"vehicle_type_id":"4","last_reported":1737040107,"current_range_meters":34000,"station_id":"ce4bhu92rcd13ifvqi70","pricing_plan_id":"cebpf4jnsgd1na2vs0mg"},{"bike_id":"f30e90f8-83fa-4422-9929-80adde578710","system_id":"levelo_inurba_marseille","lat":43.279347,"lon":5.41038,"is_reserved":false,"is_disabled":false,"rental_uris":{"android":"levelo://app?vid=f30e90f8-83fa-4422-9929-80adde578710","ios":"levelo://app?vid=f30e90f8-83fa-4422-9929-80adde578710"},"vehicle_type_id":"4","last_reported":1737040107,"current_range_meters":37600,"station_id":"ce4bhn92rcd13ifvqgrg","pricing_plan_id":"cebpf4jnsgd1na2vs0mg"},{"bike_id":"d3334c30-4558-4ddc-ae1b-fdd1622dd49f","system_id":"levelo_inurba_marseille","lat":43.30146,"lon":5.37419,"is_reserved":false,"is_disabled":false,"rental_uris":{"android":"levelo://app?vid=d3334c30-4558-4ddc-ae1b-fdd1622dd49f","ios":"levelo://app?vid=d3334c30-4558-4ddc-ae1b-fdd1622dd49f"},"vehicle_type_id":"4","last_reported":1737040107,"current_range_meters":17200,"station_id":"ce4bgs92rcd13ifvqcc0","pricing_plan_id":"cebpf4jnsgd1na2vs0mg"},{"bike_id":"0f983de8-f4f1-481f-9e7f-7fb101ee5718","system_id":"levelo_inurba_marseille","lat":43.25502,"lon":5.37652,"is_reserved":false,"is_disabled":false,"rental_uris":{"android":"levelo://app?vid=0f983de8-f4f1-481f-9e7f-7fb101ee5718","ios":"levelo://app?vid=0f983de8-f4f1-481f-9e7f-7fb101ee5718"},"vehicle_type_id":"4","last_reported":1737040107,"current_range_meters":37600,"station_id":"ce4bhh12rcd13ifvqff0","pricing_plan_id":"cebpf4jnsgd1na2vs0mg"},{"bike_id":"27371fc3-88d5-40e0-8fcb-13c0dd889d55","system_id":"levelo_inurba_marseille","lat":43.25827,"lon":5.39415,"is_reserved":false,"is_disabled":false,"rental_uris":{"android":"levelo://app?vid=27371fc3-88d5-40e0-8fcb-13c0dd889d55","ios":"levelo://app?vid=27371fc3-88d5-40e0-8fcb-13c0dd889d55"},"vehicle_type_id":"4","last_reported":1737040107,"current_range_meters":24800,"station_id":"ce4bhip2rcd13ifvqft0","pricing_plan_id":"cebpf4jnsgd1na2vs0mg"},{"bike_id":"e1f9a0b5-1419-4e67-ab24-a72ee45dfd85","system_id":"levelo_inurba_marseille","lat":43.24169,"lon":5.3639,"is_reserved":false,"is_disabled":false,"rental_uris":{"android":"levelo://app?vid=e1f9a0b5-1419-4e67-ab24-a72ee45dfd85","ios":"levelo://app?vid=e1f9a0b5-1419-4e67-ab24-a72ee45dfd85"},"vehicle_type_id":"4","last_reported":1737040107,"current_range_meters":20800,"station_id":"cpo36qri1sfpv3e86is0","pricing_plan_id":"cebpf4jnsgd1na2vs0mg"},{"bike_id":"431d951d-cbca-4f00-a5ab-f322d98c990f","system_id":"levelo_inurba_marseille","lat":43.28147,"lon":5.42633,"is_reserved":false,"is_disabled":false,"rental_uris":{"android":"levelo://app?vid=431d951d-cbca-4f00-a5ab-f322d98c990f","ios":"levelo://app?vid=431d951d-cbca-4f00-a5ab-f322d98c990f"},"vehicle_type_id":"4","last_reported":1737040107,"current_range_meters":16400,"station_id":"ce4bhnh2rcd13ifvqgug","pricing_plan_id":"cebpf4jnsgd1na2vs0mg"},{"bike_id":"98f32485-af82-43a0-85a8-4750c3cd811c","system_id":"levelo_inurba_marseille","lat":43.2958,"lon":5.37513,"is_reserved":false,"is_disabled":false,"rental_uris":{"android":"levelo://app?vid=98f32485-af82-43a0-85a8-4750c3cd811c","ios":"levelo://app?vid=98f32485-af82-43a0-85a8-4750c3cd811c"},"vehicle_type_id":"4","last_reported":1737040107,"current_range_meters":11600,"station_id":"ce4bgh92rcd13ifvqb50","pricing_plan_id":"cebpf4jnsgd1na2vs0mg"},{"bike_id":"a260603c-b529-486c-ace5-a7ed578de957","system_id":"levelo_inurba_marseille","lat":43.29568,"lon":5.3752,"is_reserved":false,"is_disabled":false,"rental_uris":{"android":"levelo://app?vid=a260603c-b529-486c-ace5-a7ed578de957","ios":"levelo://app?vid=a260603c-b529-486c-ace5-a7ed578de957"},"vehicle_type_id":"4","last_reported":1737040107,"current_range_meters":24000,"station_id":"ce4bgh92rcd13ifvqb50","pricing_plan_id":"cebpf4jnsgd1na2vs0mg"},{"bike_id":"f7a93299-4b31-44c2-976e-82f7878bc418","system_id":"levelo_inurba_marseille","lat":43.25507,"lon":5.37694,"is_reserved":false,"is_disabled":false,"rental_uris":{"android":"levelo://app?vid=f7a93299-4b31-44c2-976e-82f7878bc418","ios":"levelo://app?vid=f7a93299-4b31-44c2-976e-82f7878bc418"},"vehicle_type_id":"4","last_reported":1737040107,"current_range_meters":38800,"station_id":"ce4bhh12rcd13ifvqff0","pricing_plan_id":"cebpf4jnsgd1na2vs0mg"},{"bike_id":"aaa78500-ac6e-4046-86a3-cbcb6ac56b5d","system_id":"levelo_inurba_marseille","lat":43.29898,"lon":5.38835,"is_reserved":false,"is_disabled":false,"rental_uris":{"android":"levelo://app?vid=aaa78500-ac6e-4046-86a3-cbcb6ac56b5d","ios":"levelo://app?vid=aaa78500-ac6e-4046-86a3-cbcb6ac56b5d"},"vehicle_type_id":"4","last_reported":1737040107,"current_range_meters":3600,"station_id":"","pricing_plan_id":"cebpf4jnsgd1na2vs0mg"},{"bike_id":"31f00ed0-b0ca-427a-9039-ac29c940ea2c","system_id":"levelo_inurba_marseille","lat":43.23205,"lon":5.35549,"is_reserved":false,"is_disabled":false,"rental_uris":{"android":"levelo://app?vid=31f00ed0-b0ca-427a-9039-ac29c940ea2c","ios":"levelo://app?vid=31f00ed0-b0ca-427a-9039-ac29c940ea2c"},"vehicle_type_id":"4","last_reported":1737040107,"current_range_meters":18800,"station_id":"ce4bhu92rcd13ifvqi70","pricing_plan_id":"cebpf4jnsgd1na2vs0mg"},{"bike_id":"86810747-adc8-4f84-96e3-3da044e1537c","system_id":"levelo_inurba_marseille","lat":43.27679,"lon":5.38904,"is_reserved":false,"is_disabled":false,"rental_uris":{"android":"levelo://app?vid=86810747-adc8-4f84-96e3-3da044e1537c","ios":"levelo://app?vid=86810747-adc8-4f84-96e3-3da044e1537c"},"vehicle_type_id":"4","last_reported":1737040107,"current_range_meters":8000,"station_id":"ce4bhi12rcd13ifvqfo0","pricing_plan_id":"cebpf4jnsgd1na2vs0mg"},{"bike_id":"8ccdb8e3-5350-4cab-8a81-1bd6181a6c06","system_id":"levelo_inurba_marseille","lat":43.23181,"lon":5.3555,"is_reserved":false,"is_disabled":false,"rental_uris":{"android":"levelo://app?vid=8ccdb8e3-5350-4cab-8a81-1bd6181a6c06","ios":"levelo://app?vid=8ccdb8e3-5350-4cab-8a81-1bd6181a6c06"},"vehicle_type_id":"4","last_reported":1737040107,"current_range_meters":29600,"station_id":"ce4bhu92rcd13ifvqi70","pricing_plan_id":"cebpf4jnsgd1na2vs0mg"},{"bike_id":"f875f9b9-23ee-4b6a-91a6-9cbb562bf1c7","system_id":"levelo_inurba_marseille","lat":43.30426,"lon":5.39752,"is_reserved":false,"is_disabled":false,"rental_uris":{"android":"levelo://app?vid=f875f9b9-23ee-4b6a-91a6-9cbb562bf1c7","ios":"levelo://app?vid=f875f9b9-23ee-4b6a-91a6-9cbb562bf1c7"},"vehicle_type_id":"4","last_reported":1737040107,"current_range_meters":38800,"station_id":"ce4bh092rcd13ifvqd20","pricing_plan_id":"cebpf4jnsgd1na2vs0mg"},{"bike_id":"481dc877-f116-42ef-854c-605d03cb6d5f","system_id":"levelo_inurba_marseille","lat":43.258659,"lon":5.39902,"is_reserved":false,"is_disabled":false,"rental_uris":{"android":"levelo://app?vid=481dc877-f116-42ef-854c-605d03cb6d5f","ios":"levelo://app?vid=481dc877-f116-42ef-854c-605d03cb6d5f"},"vehicle_type_id":"4","last_reported":1737040107,"current_range_meters":38000,"station_id":"ce4bhl92rcd13ifvqghg","pricing_plan_id":"cebpf4jnsgd1na2vs0mg"},{"bike_id":"debf1d68-8b1d-4b6b-9d17-2e6033da6eb8","system_id":"levelo_inurba_marseille","lat":43.3133,"lon":5.397,"is_reserved":false,"is_disabled":false,"rental_uris":{"android":"levelo://app?vid=debf1d68-8b1d-4b6b-9d17-2e6033da6eb8","ios":"levelo://app?vid=debf1d68-8b1d-4b6b-9d17-2e6033da6eb8"},"vehicle_type_id":"4","last_reported":1737040107,"current_range_meters":38800,"station_id":"ce4bgvp2rcd13ifvqcu0","pricing_plan_id":"cebpf4jnsgd1na2vs0mg"},{"bike_id":"500b8658-baf5-4bce-b6fe-d831d0682564","system_id":"levelo_inurba_marseille","lat":43.29627,"lon":5.37174,"is_reserved":false,"is_disabled":false,"rental_uris":{"android":"levelo://app?vid=500b8658-baf5-4bce-b6fe-d831d0682564","ios":"levelo://app?vid=500b8658-baf5-4bce-b6fe-d831d0682564"},"vehicle_type_id":"4","last_reported":1737040107,"current_range_meters":38800,"station_id":"ce4bgnh2rcd13ifvqc0g","pricing_plan_id":"cebpf4jnsgd1na2vs0mg"},{"bike_id":"cf87d7bf-f54c-4b0a-8e3c-2d939f30d535","system_id":"levelo_inurba_marseille","lat":43.34145,"lon":5.40904,"is_reserved":false,"is_disabled":false,"rental_uris":{"android":"levelo://app?vid=cf87d7bf-f54c-4b0a-8e3c-2d939f30d535","ios":"levelo://app?vid=cf87d7bf-f54c-4b0a-8e3c-2d939f30d535"},"vehicle_type_id":"4","last_reported":1737040107,"current_range_meters":39200,"station_id":"ce4bhqh2rcd13ifvqhlg","pricing_plan_id":"cebpf4jnsgd1na2vs0mg"},{"bike_id":"f5863b18-13a1-4c6e-92de-5668ea912ad3","system_id":"levelo_inurba_marseille","lat":43.262238,"lon":5.404494,"is_reserved":false,"is_disabled":true,"rental_uris":{"android":"levelo://app?vid=f5863b18-13a1-4c6e-92de-5668ea912ad3","ios":"levelo://app?vid=f5863b18-13a1-4c6e-92de-5668ea912ad3"},"vehicle_type_id":"4","last_reported":1737040107,"current_range_meters":2000,"station_id":"","pricing_plan_id":"cebpf4jnsgd1na2vs0mg"},{"bike_id":"b8c3f79e-11b2-4d22-b36c-1b5f78512406","system_id":"levelo_inurba_marseille","lat":43.302775,"lon":5.377178,"is_reserved":false,"is_disabled":false,"rental_uris":{"android":"levelo://app?vid=b8c3f79e-11b2-4d22-b36c-1b5f78512406","ios":"levelo://app?vid=b8c3f79e-11b2-4d22-b36c-1b5f78512406"},"vehicle_type_id":"4","last_reported":1737040107,"current_range_meters":35600,"station_id":"ce4bguh2rcd13ifvqcj0","pricing_plan_id":"cebpf4jnsgd1na2vs0mg"},{"bike_id":"a8fad254-19bb-48fe-801d-9e93d4767cef","system_id":"levelo_inurba_marseille","lat":43.314288,"lon":5.374013,"is_reserved":false,"is_disabled":false,"rental_uris":{"android":"levelo://app?vid=a8fad254-19bb-48fe-801d-9e93d4767cef","ios":"levelo://app?vid=a8fad254-19bb-48fe-801d-9e93d4767cef"},"vehicle_type_id":"4","last_reported":1737040107,"current_range_meters":2800,"station_id":"","pricing_plan_id":"cebpf4jnsgd1na2vs0mg"},{"bike_id":"95a70787-da43-4a90-8971-d090331fb546","system_id":"levelo_inurba_marseille","lat":43.25137,"lon":5.4032,"is_reserved":false,"is_disabled":false,"rental_uris":{"android":"levelo://app?vid=95a70787-da43-4a90-8971-d090331fb546","ios":"levelo://app?vid=95a70787-da43-4a90-8971-d090331fb546"},"vehicle_type_id":"4","last_reported":1737040107,"current_range_meters":28000,"station_id":"ce4bhlh2rcd13ifvqgig","pricing_plan_id":"cebpf4jnsgd1na2vs0mg"},{"bike_id":"86cb2ada-7e23-4f4a-aecb-3b2cc4250363","system_id":"levelo_inurba_marseille","lat":43.27944,"lon":5.41052,"is_reserved":false,"is_disabled":false,"rental_uris":{"android":"levelo://app?vid=86cb2ada-7e23-4f4a-aecb-3b2cc4250363","ios":"levelo://app?vid=86cb2ada-7e23-4f4a-aecb-3b2cc4250363"},"vehicle_type_id":"4","last_reported":1737040107,"current_range_meters":30800,"station_id":"ce4bhnp2rcd13ifvqh0g","pricing_plan_id":"cebpf4jnsgd1na2vs0mg"},{"bike_id":"bb92503c-0a51-43be-85b6-1f55eee3d5f9","system_id":"levelo_inurba_marseille","lat":43.27827,"lon":5.40715,"is_reserved":false,"is_disabled":false,"rental_uris":{"android":"levelo://app?vid=bb92503c-0a51-43be-85b6-1f55eee3d5f9","ios":"levelo://app?vid=bb92503c-0a51-43be-85b6-1f55eee3d5f9"},"vehicle_type_id":"4","last_reported":1737040107,"current_range_meters":38800,"station_id":"ce4bhnh2rcd13ifvqgtg","pricing_plan_id":"cebpf4jnsgd1na2vs0mg"},{"bike_id":"7d978599-d0dc-48cb-862a-22f5235cc5a9","system_id":"levelo_inurba_marseille","lat":43.29197,"lon":5.39316,"is_reserved":false,"is_disabled":false,"rental_uris":{"android":"levelo://app?vid=7d978599-d0dc-48cb-862a-22f5235cc5a9","ios":"levelo://app?vid=7d978599-d0dc-48cb-862a-22f5235cc5a9"},"vehicle_type_id":"4","last_reported":1737040107,"current_range_meters":22800,"station_id":"ce4bh192rcd13ifvqdd0","pricing_plan_id":"cebpf4jnsgd1na2vs0mg"},{"bike_id":"75852c26-f4ed-4fdc-8be5-9f74a704c3e4","system_id":"levelo_inurba_marseille","lat":43.24803,"lon":5.37452,"is_reserved":false,"is_disabled":false,"rental_uris":{"android":"levelo://app?vid=75852c26-f4ed-4fdc-8be5-9f74a704c3e4","ios":"levelo://app?vid=75852c26-f4ed-4fdc-8be5-9f74a704c3e4"},"vehicle_type_id":"4","last_reported":1737040107,"current_range_meters":14000,"station_id":"ce4bhgh2rcd13ifvqfb0","pricing_plan_id":"cebpf4jnsgd1na2vs0mg"},{"bike_id":"8be96ee6-b7cb-4308-bbcb-85498848909b","system_id":"levelo_inurba_marseille","lat":43.29373,"lon":5.37854,"is_reserved":false,"is_disabled":false,"rental_uris":{"android":"levelo://app?vid=8be96ee6-b7cb-4308-bbcb-85498848909b","ios":"levelo://app?vid=8be96ee6-b7cb-4308-bbcb-85498848909b"},"vehicle_type_id":"4","last_reported":1737040107,"current_range_meters":38000,"station_id":"ce4bgjh2rcd13ifvqbf0","pricing_plan_id":"cebpf4jnsgd1na2vs0mg"},{"bike_id":"6c6ff06d-68ee-4204-89f0-1816e2e0d3e4","system_id":"levelo_inurba_marseille","lat":43.30943,"lon":5.40134,"is_reserved":false,"is_disabled":false,"rental_uris":{"android":"levelo://app?vid=6c6ff06d-68ee-4204-89f0-1816e2e0d3e4","ios":"levelo://app?vid=6c6ff06d-68ee-4204-89f0-1816e2e0d3e4"},"vehicle_type_id":"4","last_reported":1737040107,"current_range_meters":16000,"station_id":"ce4bgvp2rcd13ifvqct0","pricing_plan_id":"cebpf4jnsgd1na2vs0mg"},{"bike_id":"28e944ec-e61b-44bb-94b5-2092846804bb","system_id":"levelo_inurba_marseille","lat":43.29579,"lon":5.37516,"is_reserved":false,"is_disabled":false,"rental_uris":{"android":"levelo://app?vid=28e944ec-e61b-44bb-94b5-2092846804bb","ios":"levelo://app?vid=28e944ec-e61b-44bb-94b5-2092846804bb"},"vehicle_type_id":"4","last_reported":1737040107,"current_range_meters":38800,"station_id":"ce4bgh92rcd13ifvqb50","pricing_plan_id":"cebpf4jnsgd1na2vs0mg"},{"bike_id":"aba411be-6fc2-4437-9c82-2962dba88110","system_id":"levelo_inurba_marseille","lat":43.29221,"lon":5.36256,"is_reserved":false,"is_disabled":true,"rental_uris":{"android":"levelo://app?vid=aba411be-6fc2-4437-9c82-2962dba88110","ios":"levelo://app?vid=aba411be-6fc2-4437-9c82-2962dba88110"},"vehicle_type_id":"4","last_reported":1737040107,"current_range_meters":1600,"station_id":"ce4bgjh2rcd13ifvqbf0","pricing_plan_id":"cebpf4jnsgd1na2vs0mg"},{"bike_id":"e8faad9d-96e8-44cf-bc22-18559699408c","system_id":"levelo_inurba_marseille","lat":43.30634,"lon":5.40094,"is_reserved":false,"is_disabled":false,"rental_uris":{"android":"levelo://app?vid=e8faad9d-96e8-44cf-bc22-18559699408c","ios":"levelo://app?vid=e8faad9d-96e8-44cf-bc22-18559699408c"},"vehicle_type_id":"4","last_reported":1737040107,"current_range_meters":17200,"station_id":"ce4bh112rcd13ifvqda0","pricing_plan_id":"cebpf4jnsgd1na2vs0mg"},{"bike_id":"b43b6075-66ce-471b-867b-6be5340c6bb8","system_id":"levelo_inurba_marseille","lat":43.29648,"lon":5.40579,"is_reserved":false,"is_disabled":false,"rental_uris":{"android":"levelo://app?vid=b43b6075-66ce-471b-867b-6be5340c6bb8","ios":"levelo://app?vid=b43b6075-66ce-471b-867b-6be5340c6bb8"},"vehicle_type_id":"4","last_reported":1737040107,"current_range_meters":30800,"station_id":"ce4bh0h2rcd13ifvqd60","pricing_plan_id":"cebpf4jnsgd1na2vs0mg"},{"bike_id":"2d72bbd9-ad22-4193-9e3e-1826cb532c67","system_id":"levelo_inurba_marseille","lat":43.33724,"lon":5.39185,"is_reserved":false,"is_disabled":false,"rental_uris":{"android":"levelo://app?vid=2d72bbd9-ad22-4193-9e3e-1826cb532c67","ios":"levelo://app?vid=2d72bbd9-ad22-4193-9e3e-1826cb532c67"},"vehicle_type_id":"4","last_reported":1737040107,"current_range_meters":38800,"station_id":"ce4bhr92rcd13ifvqhsg","pricing_plan_id":"cebpf4jnsgd1na2vs0mg"},{"bike_id":"1cd1658d-dcac-4315-ab2a-ade1a2c34dec","system_id":"levelo_inurba_marseille","lat":43.262054,"lon":5.37917,"is_reserved":false,"is_disabled":false,"rental_uris":{"android":"levelo://app?vid=1cd1658d-dcac-4315-ab2a-ade1a2c34dec","ios":"levelo://app?vid=1cd1658d-dcac-4315-ab2a-ade1a2c34dec"},"vehicle_type_id":"4","last_reported":1737040107,"current_range_meters":38000,"station_id":"ce4bhjp2rcd13ifvqg90","pricing_plan_id":"cebpf4jnsgd1na2vs0mg"},{"bike_id":"0b9e9591-83a5-47dc-8c86-3f02d7512af4","system_id":"levelo_inurba_marseille","lat":43.30353,"lon":5.41871,"is_reserved":false,"is_disabled":false,"rental_uris":{"android":"levelo://app?vid=0b9e9591-83a5-47dc-8c86-3f02d7512af4","ios":"levelo://app?vid=0b9e9591-83a5-47dc-8c86-3f02d7512af4"},"vehicle_type_id":"4","last_reported":1737040107,"current_range_meters":20400,"station_id":"ce4bhop2rcd13ifvqh7g","pricing_plan_id":"cebpf4jnsgd1na2vs0mg"},{"bike_id":"1a636789-099a-44b1-b0d3-7d9dbe77fc02","system_id":"levelo_inurba_marseille","lat":43.27204,"lon":5.39175,"is_reserved":false,"is_disabled":false,"rental_uris":{"android":"levelo://app?vid=1a636789-099a-44b1-b0d3-7d9dbe77fc02","ios":"levelo://app?vid=1a636789-099a-44b1-b0d3-7d9dbe77fc02"},"vehicle_type_id":"4","last_reported":1737040107,"current_range_meters":16000,"station_id":"ce4bhhp2rcd13ifvqfm0","pricing_plan_id":"cebpf4jnsgd1na2vs0mg"},{"bike_id":"c608b4b5-9589-4f7b-a723-697f1c3f2d39","system_id":"levelo_inurba_marseille","lat":43.29635,"lon":5.37176,"is_reserved":false,"is_disabled":false,"rental_uris":{"android":"levelo://app?vid=c608b4b5-9589-4f7b-a723-697f1c3f2d39","ios":"levelo://app?vid=c608b4b5-9589-4f7b-a723-697f1c3f2d39"},"vehicle_type_id":"4","last_reported":1737040107,"current_range_meters":34000,"station_id":"ce4bgnh2rcd13ifvqc0g","pricing_plan_id":"cebpf4jnsgd1na2vs0mg"},{"bike_id":"c903c058-b58f-4261-84de-2d5ce69b4570","system_id":"levelo_inurba_marseille","lat":43.29517,"lon":5.39395,"is_reserved":false,"is_disabled":false,"rental_uris":{"android":"levelo://app?vid=c903c058-b58f-4261-84de-2d5ce69b4570","ios":"levelo://app?vid=c903c058-b58f-4261-84de-2d5ce69b4570"},"vehicle_type_id":"4","last_reported":1737040107,"current_range_meters":38800,"station_id":"ce4bh292rcd13ifvqdf0","pricing_plan_id":"cebpf4jnsgd1na2vs0mg"},{"bike_id":"7aaf2a77-790e-45b8-b2c4-ee771812a148","system_id":"levelo_inurba_marseille","lat":43.2719,"lon":5.39156,"is_reserved":false,"is_disabled":false,"rental_uris":{"android":"levelo://app?vid=7aaf2a77-790e-45b8-b2c4-ee771812a148","ios":"levelo://app?vid=7aaf2a77-790e-45b8-b2c4-ee771812a148"},"vehicle_type_id":"4","last_reported":1737040107,"current_range_meters":38800,"station_id":"ce4bhhp2rcd13ifvqfm0","pricing_plan_id":"cebpf4jnsgd1na2vs0mg"},{"bike_id":"b9ccc5d7-22bc-4f6c-a8ae-9d5886a0a1b7","system_id":"levelo_inurba_marseille","lat":43.25922,"lon":5.40874,"is_reserved":false,"is_disabled":false,"rental_uris":{"android":"levelo://app?vid=b9ccc5d7-22bc-4f6c-a8ae-9d5886a0a1b7","ios":"levelo://app?vid=b9ccc5d7-22bc-4f6c-a8ae-9d5886a0a1b7"},"vehicle_type_id":"4","last_reported":1737040107,"current_range_meters":16000,"station_id":"ce4bhm92rcd13ifvqglg","pricing_plan_id":"cebpf4jnsgd1na2vs0mg"},{"bike_id":"4556c4ba-c1ae-4541-af33-29d39c890399","system_id":"levelo_inurba_marseille","lat":43.29083,"lon":5.37187,"is_reserved":false,"is_disabled":false,"rental_uris":{"android":"levelo://app?vid=4556c4ba-c1ae-4541-af33-29d39c890399","ios":"levelo://app?vid=4556c4ba-c1ae-4541-af33-29d39c890399"},"vehicle_type_id":"4","last_reported":1737040107,"current_range_meters":31200,"station_id":"ce4bh5p2rcd13ifvqe4g","pricing_plan_id":"cebpf4jnsgd1na2vs0mg"},{"bike_id":"8e32d0c6-df7c-4036-b142-1871a4674bba","system_id":"levelo_inurba_marseille","lat":43.32364,"lon":5.38882,"is_reserved":false,"is_disabled":false,"rental_uris":{"android":"levelo://app?vid=8e32d0c6-df7c-4036-b142-1871a4674bba","ios":"levelo://app?vid=8e32d0c6-df7c-4036-b142-1871a4674bba"},"vehicle_type_id":"4","last_reported":1737040107,"current_range_meters":19200,"station_id":"ce4bhqp2rcd13ifvqhog","pricing_plan_id":"cebpf4jnsgd1na2vs0mg"},