{"last_updated":1708395141,"ttl":30,"version":"2.2","data":{"bikes":[{"bike_id":"dd579f94-1c7d-4a43-987b-d3afe4216fe0","system_id":"levelo_inurba_marseille","lat":43.31287,"lon":5.36856,"is_reserved":false,"is_disabled":false,"rental_uris":{"android":"levelo://app?vid=dd579f94-1c7d-4a43-987b-d3afe4216fe0","ios":"levelo://app?vid=dd579f94-1c7d-4a43-987b-d3afe4216fe0"},"vehicle_type_id":"4","last_reported":1708395141,"current_range_meters":6000,"station_id":"ce4bgl92rcd13ifvqbq0","pricing_plan_id":"cebpf4jnsgd1na2vs0mg"},{"bike_id":"60f56b7a-7205-4278-8374-16f2578c1aee","system_id":"levelo_inurba_marseille","lat":43.312203,"lon":5.368549,"is_reserved":false,"is_disabled":false,"rental_uris":{"android":"levelo://app?vid=60f56b7a-7205-4278-8374-16f2578c1aee","ios":"levelo://app?vid=60f56b7a-7205-4278-8374-16f2578c1aee"},"vehicle_type_id":"4","last_reported":1708395141,"current_range_meters":7200,"station_id":"ce4bgl92rcd13ifvqbq0","pricing_plan_id":"cebpf4jnsgd1na2vs0mg"},{"bike_id":"b4128018-8336-41c3-9f08-59b70b531e37","system_id":"levelo_inurba_marseille","lat":43.314811,"lon":5.373103,"is_reserved":false,"is_disabled":false,"rental_uris":{"android":"levelo://app?vid=b4128018-8336-41c3-9f08-59b70b531e37","ios":"levelo://app?vid=b4128018-8336-41c3-9f08-59b70b531e37"},"vehicle_type_id":"4","last_reported":1708395141,"current_range_meters":10400,"station_id":"ce4bgt12rcd13ifvqcd0","pricing_plan_id":"cebpf4jnsgd1na2vs0mg"},{"bike_id":"c44bd517-3a92-416d-9c01-d032681101c8","system_id":"levelo_inurba_marseille","lat":43.314811,"lon":5.373103,"is_reserved":false,"is_disabled":false,"rental_uris":{"android":"levelo://app?vid=c44bd517-3a92-416d-9c01-d032681101c8","ios":"levelo://app?vid=c44bd517-3a92-416d-9c01-d032681101c8"},"vehicle_type_id":"4","last_reported":1708395141,"current_range_meters":30400,"station_id":"ce4bgt12rcd13ifvqcd0","pricing_plan_id":"cebpf4jnsgd1na2vs0mg"},{"bike_id":"5db6ec52-a876-4c9e-9164-e102f37b17f1","system_id":"levelo_inurba_marseille","lat":43.314811,"lon":5.373103,"is_reserved":false,"is_disabled":false,"rental_uris":{"android":"levelo://app?vid=5db6ec52-a876-4c9e-9164-e102f37b17f1","ios":"levelo://app?vid=5db6ec52-a876-4c9e-9164-e102f37b17f1"},"vehicle_type_id":"4","last_reported":1708395141,"current_range_meters":10400,"station_id":"ce4bgt12rcd13ifvqcd0","pricing_plan_id":"cebpf4jnsgd1na2vs0mg"},{"bike_id":"46e8e3a1-5d99-48a0-9ef5-d969f002eb1b","system_id":"levelo_inurba_marseille","lat":43.314811,"lon":5.373103,"is_reserved":false,"is_disabled":false,"rental_uris":{"android":"levelo://app?vid=46e8e3a1-5d99-48a0-9ef5-d969f002eb1b","ios":"levelo://app?vid=46e8e3a1-5d99-48a0-9ef5-d969f002eb1b"},"vehicle_type_id":"4","last_reported":1708395141,"current_range_meters":28400,"station_id":"ce4bgt12rcd13ifvqcd0","pricing_plan_id":"cebpf4jnsgd1na2vs0mg"},{"bike_id":"5d6087bf-e3c2-4bbf-9894-6d385d2ce9e8","system_id":"levelo_inurba_marseille","lat":43.314811,"lon":5.373103,"is_reserved":false,"is_disabled":false,"rental_uris":{"android":"levelo://app?vid=5d6087bf-e3c2-4bbf-9894-6d385d2ce9e8","ios":"levelo://app?vid=5d6087bf-e3c2-4bbf-9894-6d385d2ce9e8"},"vehicle_type_id":"4","last_reported":1708395141,"current_range_meters":21200,"station_id":"ce4bgt12rcd13ifvqcd0","pricing_plan_id":"cebpf4jnsgd1na2vs0mg"},{"bike_id":"77a6bfce-d5af-4448-be44-6a3fe72b94f5","system_id":"levelo_inurba_marseille","lat":43.314811,"lon":5.373103,"is_reserved":false,"is_disabled":false,"rental_uris":{"android":"levelo://app?vid=77a6bfce-d5af-4448-be44-6a3fe72b94f5","ios":"levelo://app?vid=77a6bfce-d5af-4448-be44-6a3fe72b94f5"},"vehicle_type_id":"4","last_reported":1708395141,"current_range_meters":22000,"station_id":"ce4bgt12rcd13ifvqcd0","pricing_plan_id":"cebpf4jnsgd1na2vs0mg"},{"bike_id":"2574247a-8683-40ee-883b-3a8d9319a936","system_id":"levelo_inurba_marseille","lat":43.311125,"lon":5.377624,"is_reserved":false,"is_disabled":false,"rental_uris":{"android":"levelo://app?vid=2574247a-8683-40ee-883b-3a8d9319a936","ios":"levelo://app?vid=2574247a-8683-40ee-883b-3a8d9319a936"},"vehicle_type_id":"4","last_reported":1708395141,"current_range_meters":22400,"station_id":"ce4bgt92rcd13ifvqcg0","pricing_plan_id":"cebpf4jnsgd1na2vs0mg"},{"bike_id":"cdf1dac9-4a74-4e2d-995a-24578c44fc2d","system_id":"levelo_inurba_marseille","lat":43.311125,"lon":5.377624,"is_reserved":false,"is_disabled":false,"rental_uris":{"android":"levelo://app?vid=cdf1dac9-4a74-4e2d-995a-24578c44fc2d","ios":"levelo://app?vid=cdf1dac9-4a74-4e2d-995a-24578c44fc2d"},"vehicle_type_id":"4","last_reported":1708395141,"current_range_meters":5600,"station_id":"ce4bgt92rcd13ifvqcg0","pricing_plan_id":"cebpf4jnsgd1na2vs0mg"},{"bike_id":"b7388452-43cf-4c70-8df6-797be1d24fac","system_id":"levelo_inurba_marseille","lat":43.31116,"lon":5.37774,"is_reserved":false,"is_disabled":false,"rental_uris":{"android":"levelo://app?vid=b7388452-43cf-4c70-8df6-797be1d24fac","ios":"levelo://app?vid=b7388452-43cf-4c70-8df6-797be1d24fac"},"vehicle_type_id":"4","last_reported":1708395141,"current_range_meters":26800,"station_id":"ce4bgt92rcd13ifvqcg0","pricing_plan_id":"cebpf4jnsgd1na2vs0mg"},{"bike_id":"141a7b6e-4902-4345-8dec-09744ac6a91c","system_id":"levelo_inurba_marseille","lat":43.307945,"lon":5.376487,"is_reserved":false,"is_disabled":false,"rental_uris":{"android":"levelo://app?vid=141a7b6e-4902-4345-8dec-09744ac6a91c","ios":"levelo://app?vid=141a7b6e-4902-4345-8dec-09744ac6a91c"},"vehicle_type_id":"4","last_reported":1708395141,"current_range_meters":27600,"station_id":"ce4bgv92rcd13ifvqcq0","pricing_plan_id":"cebpf4jnsgd1na2vs0mg"},{"bike_id":"69303493-bcfc-4ac6-ac53-fac4968ccfa5","system_id":"levelo_inurba_marseille","lat":43.307945,"lon":5.376487,"is_reserved":false,"is_disabled":false,"rental_uris":{"android":"levelo://app?vid=69303493-bcfc-4ac6-ac53-fac4968ccfa5","ios":"levelo://app?vid=69303493-bcfc-4ac6-ac53-fac4968ccfa5"},"vehicle_type_id":"4","last_reported":1708395141,"current_range_meters":24000,"station_id":"ce4bgv92rcd13ifvqcq0","pricing_plan_id":"cebpf4jnsgd1na2vs0mg"},{"bike_id":"58282304-b979-4227-9167-7a7b574dc837","system_id":"levelo_inurba_marseille","lat":43.307945,"lon":5.376487,"is_reserved":false,"is_disabled":false,"rental_uris":{"android":"levelo://app?vid=58282304-b979-4227-9167-7a7b574dc837","ios":"levelo://app?vid=58282304-b979-4227-9167-7a7b574dc837"},"vehicle_type_id":"4","last_reported":1708395141,"current_range_meters":26000,"station_id":"ce4bgv92rcd13ifvqcq0","pricing_plan_id":"cebpf4jnsgd1na2vs0mg"},{"bike_id":"e93332c8-71cb-4a70-a2cb-8dae89f30527","system_id":"levelo_inurba_marseille","lat":43.317075,"lon":5.377367,"is_reserved":false,"is_disabled":false,"rental_uris":{"android":"levelo://app?vid=e93332c8-71cb-4a70-a2cb-8dae89f30527","ios":"levelo://app?vid=e93332c8-71cb-4a70-a2cb-8dae89f30527"},"vehicle_type_id":"4","last_reported":1708395141,"current_range_meters":21200,"station_id":"ce4bgth2rcd13ifvqch0","pricing_plan_id":"cebpf4jnsgd1na2vs0mg"},{"bike_id":"96c16fd5-43bc-4bfd-859b-2d52df90c3e3","system_id":"levelo_inurba_marseille","lat":43.317075,"lon":5.377367,"is_reserved":false,"is_disabled":false,"rental_uris":{"android":"levelo://app?vid=96c16fd5-43bc-4bfd-859b-2d52df90c3e3","ios":"levelo://app?vid=96c16fd5-43bc-4bfd-859b-2d52df90c3e3"},"vehicle_type_id":"4","last_reported":1708395141,"current_range_meters":26400,"station_id":"ce4bgth2rcd13ifvqch0","pricing_plan_id":"cebpf4jnsgd1na2vs0mg"},{"bike_id":"851bb78f-5bb9-4747-b47e-fbb6a43efdfb","system_id":"levelo_inurba_marseille","lat":43.315293,"lon":5.380349,"is_reserved":false,"is_disabled":false,"rental_uris":{"android":"levelo://app?vid=851bb78f-5bb9-4747-b47e-fbb6a43efdfb","ios":"levelo://app?vid=851bb78f-5bb9-4747-b47e-fbb6a43efdfb"},"vehicle_type_id":"4","last_reported":1708395141,"current_range_meters":23200,"station_id":"ce4bhsp2rcd13ifvqi50","pricing_plan_id":"cebpf4jnsgd1na2vs0mg"},{"bike_id":"ba7abea4-7e24-46bb-9b73-93d8ca3e3719","system_id":"levelo_inurba_marseille","lat":43.315293,"lon":5.380349,"is_reserved":false,"is_disabled":false,"rental_uris":{"android":"levelo://app?vid=ba7abea4-7e24-46bb-9b73-93d8ca3e3719","ios":"levelo://app?vid=ba7abea4-7e24-46bb-9b73-93d8ca3e3719"},"vehicle_type_id":"4","last_reported":1708395141,"current_range_meters":30800,"station_id":"ce4bhsp2rcd13ifvqi50","pricing_plan_id":"cebpf4jnsgd1na2vs0mg"},{"bike_id":"14623ca0-3e69-483e-9a41-7be7b88db399","system_id":"levelo_inurba_marseille","lat":43.315293,"lon":5.380349,"is_reserved":false,"is_disabled":false,"rental_uris":{"android":"levelo://app?vid=14623ca0-3e69-483e-9a41-7be7b88db399","ios":"levelo://app?vid=14623ca0-3e69-483e-9a41-7be7b88db399"},"vehicle_type_id":"4","last_reported":1708395141,"current_range_meters":26000,"station_id":"ce4bhsp2rcd13ifvqi50","pricing_plan_id":"cebpf4jnsgd1na2vs0mg"},{"bike_id":"9a77d295-4688-4a19-b73a-bc75cacebcae","system_id":"levelo_inurba_marseille","lat":43.308012,"lon":5.381511,"is_reserved":false,"is_disabled":false,"rental_uris":{"android":"levelo://app?vid=9a77d295-4688-4a19-b73a-bc75cacebcae","ios":"levelo://app?vid=9a77d295-4688-4a19-b73a-bc75cacebcae"},"vehicle_type_id":"4","last_reported":1708395141,"current_range_meters":25200,"station_id":"ce4bgt12rcd13ifvqce0","pricing_plan_id":"cebpf4jnsgd1na2vs0mg"},{"bike_id":"50945769-35d2-4f21-9e60-d8ce3f8699cd","system_id":"levelo_inurba_marseille","lat":43.308012,"lon":5.381511,"is_reserved":false,"is_disabled":false,"rental_uris":{"android":"levelo://app?vid=50945769-35d2-4f21-9e60-d8ce3f8699cd","ios":"levelo://app?vid=50945769-35d2-4f21-9e60-d8ce3f8699cd"},"vehicle_type_id":"4","last_reported":1708395141,"current_range_meters":15200,"station_id":"ce4bgt12rcd13ifvqce0","pricing_plan_id":"cebpf4jnsgd1na2vs0mg"},{"bike_id":"93b55c31-2127-4194-abec-5f6bf8b4ed8f","system_id":"levelo_inurba_marseille","lat":43.308012,"lon":5.381511,"is_reserved":false,"is_disabled":false,"rental_uris":{"android":"levelo://app?vid=93b55c31-2127-4194-abec-5f6bf8b4ed8f","ios":"levelo://app?vid=93b55c31-2127-4194-abec-5f6bf8b4ed8f"},"vehicle_type_id":"4","last_reported":1708395141,"current_range_meters":5200,"station_id":"ce4bgt12rcd13ifvqce0","pricing_plan_id":"cebpf4jnsgd1na2vs0mg"},{"bike_id":"5f3727da-be6d-4245-8b7a-5c108328736b","system_id":"levelo_inurba_marseille","lat":43.32476,"lon":5.36566,"is_reserved":false,"is_disabled":false,"rental_uris":{"android":"levelo://app?vid=5f3727da-be6d-4245-8b7a-5c108328736b","ios":"levelo://app?vid=5f3727da-be6d-4245-8b7a-5c108328736b"},"vehicle_type_id":"4","last_reported":1708395141,"current_range_meters":2400,"station_id":"ce4bhs12rcd13ifvqhvg","pricing_plan_id":"cebpf4jnsgd1na2vs0mg"},{"bike_id":"13ed5772-d318-40c2-a1ab-114038408622","system_id":"levelo_inurba_marseille","lat":43.324771,"lon":5.36557,"is_reserved":false,"is_disabled":false,"rental_uris":{"android":"levelo://app?vid=13ed5772-d318-40c2-a1ab-114038408622","ios":"levelo://app?vid=13ed5772-d318-40c2-a1ab-114038408622"},"vehicle_type_id":"4","last_reported":1708395141,"current_range_meters":29200,"station_id":"ce4bhs12rcd13ifvqhvg","pricing_plan_id":"cebpf4jnsgd1na2vs0mg"},{"bike_id":"a1411f93-559d-4c55-b53d-718f28f579af","system_id":"levelo_inurba_marseille","lat":43.324783,"lon":5.365693,"is_reserved":false,"is_disabled":false,"rental_uris":{"android":"levelo://app?vid=a1411f93-559d-4c55-b53d-718f28f579af","ios":"levelo://app?vid=a1411f93-559d-4c55-b53d-718f28f579af"},"vehicle_type_id":"4","last_reported":1708395141,"current_range_meters":1600,"station_id":"ce4bhs12rcd13ifvqhvg","pricing_plan_id":"cebpf4jnsgd1na2vs0mg"},{"bike_id":"2c6c36c9-7e02-4a23-ad99-472b535677b4","system_id":"levelo_inurba_marseille","lat":43.324771,"lon":5.36557,"is_reserved":false,"is_disabled":false,"rental_uris":{"android":"levelo://app?vid=2c6c36c9-7e02-4a23-ad99-472b535677b4","ios":"levelo://app?vid=2c6c36c9-7e02-4a23-ad99-472b535677b4"},"vehicle_type_id":"4","last_reported":1708395141,"current_range_meters":6800,"station_id":"ce4bhs12rcd13ifvqhvg","pricing_plan_id":"cebpf4jnsgd1na2vs0mg"},{"bike_id":"12b36bd4-2176-4c7e-b0b3-fc74f7095c6a","system_id":"levelo_inurba_marseille","lat":43.324795,"lon":5.365661,"is_reserved":false,"is_disabled":false,"rental_uris":{"android":"levelo://app?vid=12b36bd4-2176-4c7e-b0b3-fc74f7095c6a","ios":"levelo://app?vid=12b36bd4-2176-4c7e-b0b3-fc74f7095c6a"},"vehicle_type_id":"4","last_reported":1708395141,"current_range_meters":0,"station_id":"ce4bhs12rcd13ifvqhvg","pricing_plan_id":"cebpf4jnsgd1na2vs0mg"},{"bike_id":"e5a43df1-97ba-4067-8df7-f3537edbfa4b","system_id":"levelo_inurba_marseille","lat":43.324771,"lon":5.36557,"is_reserved":false,"is_disabled":false,"rental_uris":{"android":"levelo://app?vid=e5a43df1-97ba-4067-8df7-f3537edbfa4b","ios":"levelo://app?vid=e5a43df1-97ba-4067-8df7-f3537edbfa4b"},"vehicle_type_id":"4","last_reported":1708395141,"current_range_meters":0,"station_id":"ce4bhs12rcd13ifvqhvg","pricing_plan_id":"cebpf4jnsgd1na2vs0mg"},{"bike_id":"ab60f61e-1754-4bab-9316-cbca6ab0249d","system_id":"levelo_inurba_marseille","lat":43.324805,"lon":5.365662,"is_reserved":false,"is_disabled":false,"rental_uris":{"android":"levelo://app?vid=ab60f61e-1754-4bab-9316-cbca6ab0249d","ios":"levelo://app?vid=ab60f61e-1754-4bab-9316-cbca6ab0249d"},"vehicle_type_id":"4","last_reported":1708395141,"current_range_meters":14400,"station_id":"ce4bhs12rcd13ifvqhvg","pricing_plan_id":"cebpf4jnsgd1na2vs0mg"},{"bike_id":"4cd60cd3-101b-4a05-9703-76840434a255","system_id":"levelo_inurba_marseille","lat":43.324771,"lon":5.36557,"is_reserved":false,"is_disabled":false,"rental_uris":{"android":"levelo://app?vid=4cd60cd3-101b-4a05-9703-76840434a255","ios":"levelo://app?vid=4cd60cd3-101b-4a05-9703-76840434a255"},"vehicle_type_id":"4","last_reported":1708395141,"current_range_meters":27600,"station_id":"ce4bhs12rcd13ifvqhvg","pricing_plan_id":"cebpf4jnsgd1na2vs0mg"},{"bike_id":"4241c88f-4ed7-4692-b672-5d96e43dcb63","system_id":"levelo_inurba_marseille","lat":43.324771,"lon":5.36557,"is_reserved":false,"is_disabled":false,"rental_uris":{"android":"levelo://app?vid=4241c88f-4ed7-4692-b672-5d96e43dcb63","ios":"levelo://app?vid=4241c88f-4ed7-4692-b672-5d96e43dcb63"},"vehicle_type_id":"4","last_reported":1708395141,"current_range_meters":14000,"station_id":"ce4bhs12rcd13ifvqhvg","pricing_plan_id":"cebpf4jnsgd1na2vs0mg"},{"bike_id":"787b97fd-3045-418a-93db-948f0d624107","system_id":"levelo_inurba_marseille","lat":43.32485,"lon":5.36558,"is_reserved":false,"is_disabled":false,"rental_uris":{"android":"levelo://app?vid=787b97fd-3045-418a-93db-948f0d624107","ios":"levelo://app?vid=787b97fd-3045-418a-93db-948f0d624107"},"vehicle_type_id":"4","last_reported":1708395141,"current_range_meters":20800,"station_id":"ce4bhs12rcd13ifvqhvg","pricing_plan_id":"cebpf4jnsgd1na2vs0mg"},{"bike_id":"617637a0-a74b-48a2-8e03-a476ae74f235","system_id":"levelo_inurba_marseille","lat":43.310688,"lon":5.383544,"is_reserved":false,"is_disabled":false,"rental_uris":{"android":"levelo://app?vid=617637a0-a74b-48a2-8e03-a476ae74f235","ios":"levelo://app?vid=617637a0-a74b-48a2-8e03-a476ae74f235"},"vehicle_type_id":"4","last_reported":1708395141,"current_range_meters":5600,"station_id":"ce4bgv92rcd13ifvqcr0","pricing_plan_id":"cebpf4jnsgd1na2vs0mg"},{"bike_id":"9bbdc390-52ce-4c0d-8224-5c239ec97d72","system_id":"levelo_inurba_marseille","lat":43.310674,"lon":5.383584,"is_reserved":false,"is_disabled":false,"rental_uris":{"android":"levelo://app?vid=9bbdc390-52ce-4c0d-8224-5c239ec97d72","ios":"levelo://app?vid=9bbdc390-52ce-4c0d-8224-5c239ec97d72"},"vehicle_type_id":"4","last_reported":1708395141,"current_range_meters":20800,"station_id":"ce4bgv92rcd13ifvqcr0","pricing_plan_id":"cebpf4jnsgd1na2vs0mg"},{"bike_id":"3c8090e2-d51b-4a38-bb81-5343688bf4a4","system_id":"levelo_inurba_marseille","lat":43.310804,"lon":5.38359,"is_reserved":false,"is_disabled":false,"rental_uris":{"android":"levelo://app?vid=3c8090e2-d51b-4a38-bb81-5343688bf4a4","ios":"levelo://app?vid=3c8090e2-d51b-4a38-bb81-5343688bf4a4"},"vehicle_type_id":"4","last_reported":1708395141,"current_range_meters":25600,"station_id":"ce4bgv92rcd13ifvqcr0","pricing_plan_id":"cebpf4jnsgd1na2vs0mg"},{"bike_id":"e1d7c7bb-a5db-488d-aa18-c67b8ef2cea1","system_id":"levelo_inurba_marseille","lat":43.310804,"lon":5.38359,"is_reserved":false,"is_disabled":false,"rental_uris":{"android":"levelo://app?vid=e1d7c7bb-a5db-488d-aa18-c67b8ef2cea1","ios":"levelo://app?vid=e1d7c7bb-a5db-488d-aa18-c67b8ef2cea1"},"vehicle_type_id":"4","last_reported":1708395141,"current_range_meters":12400,"station_id":"ce4bgv92rcd13ifvqcr0","pricing_plan_id":"cebpf4jnsgd1na2vs0mg"},{"bike_id":"1e0bb3ba-b1ce-40a7-b5dd-ac829cf57060","system_id":"levelo_inurba_marseille","lat":43.310804,"lon":5.38359,"is_reserved":false,"is_disabled":false,"rental_uris":{"android":"levelo://app?vid=1e0bb3ba-b1ce-40a7-b5dd-ac829cf57060","ios":"levelo://app?vid=1e0bb3ba-b1ce-40a7-b5dd-ac829cf57060"},"vehicle_type_id":"4","last_reported":1708395141,"current_range_meters":26000,"station_id":"ce4bgv92rcd13ifvqcr0","pricing_plan_id":"cebpf4jnsgd1na2vs0mg"},{"bike_id":"560b6f24-f3e7-4af3-8d76-60ee43aef603","system_id":"levelo_inurba_marseille","lat":43.302784,"lon":5.377158,"is_reserved":false,"is_disabled":false,"rental_uris":{"android":"levelo://app?vid=560b6f24-f3e7-4af3-8d76-60ee43aef603","ios":"levelo://app?vid=560b6f24-f3e7-4af3-8d76-60ee43aef603"},"vehicle_type_id":"4","last_reported":1708395141,"current_range_meters":6000,"station_id":"ce4bguh2rcd13ifvqcj0","pricing_plan_id":"cebpf4jnsgd1na2vs0mg"},{"bike_id":"9b276ab0-4383-4c4d-91a4-e1f29e012199","system_id":"levelo_inurba_marseille","lat":43.310804,"lon":5.38359,"is_reserved":false,"is_disabled":false,"rental_uris":{"android":"levelo://app?vid=9b276ab0-4383-4c4d-91a4-e1f29e012199","ios":"levelo://app?vid=9b276ab0-4383-4c4d-91a4-e1f29e012199"},"vehicle_type_id":"4","last_reported":1708395141,"current_range_meters":7600,"station_id":"ce4bgv92rcd13ifvqcr0","pricing_plan_id":"cebpf4jnsgd1na2vs0mg"},{"bike_id":"10ac69d4-c3b7-4fbf-886a-0323072de053","system_id":"levelo_inurba_marseille","lat":43.301429,"lon":5.37413,"is_reserved":false,"is_disabled":false,"rental_uris":{"android":"levelo://app?vid=10ac69d4-c3b7-4fbf-886a-0323072de053","ios":"levelo://app?vid=10ac69d4-c3b7-4fbf-886a-0323072de053"},"vehicle_type_id":"4","last_reported":1708395141,"current_range_meters":23600,"station_id":"ce4bgs92rcd13ifvqcc0","pricing_plan_id":"cebpf4jnsgd1na2vs0mg"},{"bike_id":"06d31893-7701-4099-bb12-562f1735bf3e","system_id":"levelo_inurba_marseille","lat":43.30136,"lon":5.374186,"is_reserved":false,"is_disabled":false,"rental_uris":{"android":"levelo://app?vid=06d31893-7701-4099-bb12-562f1735bf3e","ios":"levelo://app?vid=06d31893-7701-4099-bb12-562f1735bf3e"},"vehicle_type_id":"4","last_reported":1708395141,"current_range_meters":30000,"station_id":"ce4bgs92rcd13ifvqcc0","pricing_plan_id":"cebpf4jnsgd1na2vs0mg"},{"bike_id":"66bbdbdc-5867-4c8b-b947-260ef36e2177","system_id":"levelo_inurba_marseille","lat":43.301429,"lon":5.37413,"is_reserved":false,"is_disabled":false,"rental_uris":{"android":"levelo://app?vid=66bbdbdc-5867-4c8b-b947-260ef36e2177","ios":"levelo://app?vid=66bbdbdc-5867-4c8b-b947-260ef36e2177"},"vehicle_type_id":"4","last_reported":1708395141,"current_range_meters":20400,"station_id":"ce4bgs92rcd13ifvqcc0","pricing_plan_id":"cebpf4jnsgd1na2vs0mg"},{"bike_id":"2d97ba72-a2b6-4623-9a8a-535f28fc5ec3","system_id":"levelo_inurba_marseille","lat":43.319961,"lon":5.381503,"is_reserved":false,"is_disabled":false,"rental_uris":{"android":"levelo://app?vid=2d97ba72-a2b6-4623-9a8a-535f28fc5ec3","ios":"levelo://app?vid=2d97ba72-a2b6-4623-9a8a-535f28fc5ec3"},"vehicle_type_id":"4","last_reported":1708395141,"current_range_meters":8800,"station_id":"ce4bhr12rcd13ifvqhpg","pricing_plan_id":"cebpf4jnsgd1na2vs0mg"},{"bike_id":"e8dfff5e-1bb7-477f-8452-42e99fa71ec3","system_id":"levelo_inurba_marseille","lat":43.31998,"lon":5.381513,"is_reserved":false,"is_disabled":false,"rental_uris":{"android":"levelo://app?vid=e8dfff5e-1bb7-477f-8452-42e99fa71ec3","ios":"levelo://app?vid=e8dfff5e-1bb7-477f-8452-42e99fa71ec3"},"vehicle_type_id":"4","last_reported":1708395141,"current_range_meters":19200,"station_id":"ce4bhr12rcd13ifvqhpg","pricing_plan_id":"cebpf4jnsgd1na2vs0mg"},{"bike_id":"326adc9f-1ebd-49f3-9949-adab05bdfb8f","system_id":"levelo_inurba_marseille","lat":43.320001,"lon":5.381512,"is_reserved":false,"is_disabled":false,"rental_uris":{"android":"levelo://app?vid=326adc9f-1ebd-49f3-9949-adab05bdfb8f","ios":"levelo://app?vid=326adc9f-1ebd-49f3-9949-adab05bdfb8f"},"vehicle_type_id":"4","last_reported":1708395141,"current_range_meters":21600,"station_id":"ce4bhr12rcd13ifvqhpg","pricing_plan_id":"cebpf4jnsgd1na2vs0mg"},{"bike_id":"cd691f77-d9b0-4b4f-9184-3718de57d41c","system_id":"levelo_inurba_marseille","lat":43.313571,"lon":5.384829,"is_reserved":false,"is_disabled":false,"rental_uris":{"android":"levelo://app?vid=cd691f77-d9b0-4b4f-9184-3718de57d41c","ios":"levelo://app?vid=cd691f77-d9b0-4b4f-9184-3718de57d41c"},"vehicle_type_id":"4","last_reported":1708395141,"current_range_meters":24800,"station_id":"ce4bgt92rcd13ifvqcf0","pricing_plan_id":"cebpf4jnsgd1na2vs0mg"},{"bike_id":"f8387d48-5c37-46a2-9809-5aa56bf91c54","system_id":"levelo_inurba_marseille","lat":43.313571,"lon":5.384829,"is_reserved":false,"is_disabled":false,"rental_uris":{"android":"levelo://app?vid=f8387d48-5c37-46a2-9809-5aa56bf91c54","ios":"levelo://app?vid=f8387d48-5c37-46a2-9809-5aa56bf91c54"},"vehicle_type_id":"4","last_reported":1708395141,"current_range_meters":3200,"station_id":"ce4bgt92rcd13ifvqcf0","pricing_plan_id":"cebpf4jnsgd1na2vs0mg"},{"bike_id":"0256e02c-9bd1-4bc2-8316-e151c18c4971","system_id":"levelo_inurba_marseille","lat":43.313537,"lon":5.38498,"is_reserved":false,"is_disabled":false,"rental_uris":{"android":"levelo://app?vid=0256e02c-9bd1-4bc2-8316-e151c18c4971","ios":"levelo://app?vid=0256e02c-9bd1-4bc2-8316-e151c18c4971"},"vehicle_type_id":"4","last_reported":1708395141,"current_range_meters":22000,"station_id":"ce4bgt92rcd13ifvqcf0","pricing_plan_id":"cebpf4jnsgd1na2vs0mg"},{"bike_id":"63838351-a6a1-494f-80d2-d6c73201e40e","system_id":"levelo_inurba_marseille","lat":43.31356,"lon":5.38499,"is_reserved":false,"is_disabled":false,"rental_uris":{"android":"levelo://app?vid=63838351-a6a1-494f-80d2-d6c73201e40e","ios":"levelo://app?vid=63838351-a6a1-494f-80d2-d6c73201e40e"},"vehicle_type_id":"4","last_reported":1708395141,"current_range_meters":30800,"station_id":"ce4bgt92rcd13ifvqcf0","pricing_plan_id":"cebpf4jnsgd1na2vs0mg"},{"bike_id":"ff50e078-e8e8-49b3-a916-bfa6802eb5be","system_id":"levelo_inurba_marseille","lat":43.313571,"lon":5.384829,"is_reserved":false,"is_disabled":false,"rental_uris":{"android":"levelo://app?vid=ff50e078-e8e8-49b3-a916-bfa6802eb5be","ios":"levelo://app?vid=ff50e078-e8e8-49b3-a916-bfa6802eb5be"},"vehicle_type_id":"4","last_reported":1708395141,"current_range_meters":25600,"station_id":"ce4bgt92rcd13ifvqcf0","pricing_plan_id":"cebpf4jnsgd1na2vs0mg"},{"bike_id":"fb6930b4-ca3f-4177-ab7d-6c24aab3cf8c","system_id":"levelo_inurba_marseille","lat":43.313571,"lon":5.384829,"is_reserved":false,"is_disabled":false,"rental_uris":{"android":"levelo://app?vid=fb6930b4-ca3f-4177-ab7d-6c24aab3cf8c","ios":"levelo://app?vid=fb6930b4-ca3f-4177-ab7d-6c24aab3cf8c"},"vehicle_type_id":"4","last_reported":1708395141,"current_range_meters":29200,"station_id":"ce4bgt92rcd13ifvqcf0","pricing_plan_id":"cebpf4jnsgd1na2vs0mg"},{"bike_id":"1905feff-740f-4acf-b945-649dbf3c5c7b","system_id":"levelo_inurba_marseille","lat":43.313571,"lon":5.384829,"is_reserved":false,"is_disabled":false,"rental_uris":{"android":"levelo://app?vid=1905feff-740f-4acf-b945-649dbf3c5c7b","ios":"levelo://app?vid=1905feff-740f-4acf-b945-649dbf3c5c7b"},"vehicle_type_id":"4","last_reported":1708395141,"current_range_meters":16800,"station_id":"ce4bgt92rcd13ifvqcf0","pricing_plan_id":"cebpf4jnsgd1na2vs0mg"},{"bike_id":"ab10e15e-1612-41a9-a1f8-1ed40565f54b","system_id":"levelo_inurba_marseille","lat":43.313571,"lon":5.384829,"is_reserved":false,"is_disabled":false,"rental_uris":{"android":"levelo://app?vid=ab10e15e-1612-41a9-a1f8-1ed40565f54b","ios":"levelo://app?vid=ab10e15e-1612-41a9-a1f8-1ed40565f54b"},"vehicle_type_id":"4","last_reported":1708395141,"current_range_meters":29600,"station_id":"ce4bgt92rcd13ifvqcf0","pricing_plan_id":"cebpf4jnsgd1na2vs0mg"},{"bike_id":"b903f51f-1d3c-483d-9652-e20aba8c9d81","system_id":"levelo_inurba_marseille","lat":43.313571,"lon":5.384829,"is_reserved":false,"is_disabled":false,"rental_uris":{"android":"levelo://app?vid=b903f51f-1d3c-483d-9652-e20aba8c9d81","ios":"levelo://app?vid=b903f51f-1d3c-483d-9652-e20aba8c9d81"},"vehicle_type_id":"4","last_reported":1708395141,"current_range_meters":16800,"station_id":"ce4bgt92rcd13ifvqcf0","pricing_plan_id":"cebpf4jnsgd1na2vs0mg"},{"bike_id":"19ea39b3-3cc1-4801-b405-cb06ab4094c6","system_id":"levelo_inurba_marseille","lat":43.299724,"lon":5.371829,"is_reserved":false,"is_disabled":false,"rental_uris":{"android":"levelo://app?vid=19ea39b3-3cc1-4801-b405-cb06ab4094c6","ios":"levelo://app?vid=19ea39b3-3cc1-4801-b405-cb06ab4094c6"},"vehicle_type_id":"4","last_reported":1708395141,"current_range_meters":30000,"station_id":"ce4bgr92rcd13ifvqc7g","pricing_plan_id":"cebpf4jnsgd1na2vs0mg"},{"bike_id":"633c11d0-89d9-4474-b29e-a064b87f2276","system_id":"levelo_inurba_marseille","lat":43.31185,"lon":5.38576,"is_reserved":false,"is_disabled":false,"rental_uris":{"android":"levelo://app?vid=633c11d0-89d9-4474-b29e-a064b87f2276","ios":"levelo://app?vid=633c11d0-89d9-4474-b29e-a064b87f2276"},"vehicle_type_id":"4","last_reported":1708395141,"current_range_meters":11600,"station_id":"","pricing_plan_id":"cebpf4jnsgd1na2vs0mg"},{"bike_id":"b86c2992-7b0a-422b-a9c5-d72d5be1307a","system_id":"levelo_inurba_marseille","lat":43.305364,"lon":5.384119,"is_reserved":false,"is_disabled":false,"rental_uris":{"android":"levelo://app?vid=b86c2992-7b0a-422b-a9c5-d72d5be1307a","ios":"levelo://app?vid=b86c2992-7b0a-422b-a9c5-d72d5be1307a"},"vehicle_type_id":"4","last_reported":1708395141,"current_range_meters":25200,"station_id":"ce4bgg92rcd13ifvqb30","pricing_plan_id":"cebpf4jnsgd1na2vs0mg"},{"bike_id":"8f739cd0-083c-4784-ae71-0c0267c37fd4","system_id":"levelo_inurba_marseille","lat":43.311722,"lon":5.387247,"is_reserved":false,"is_disabled":false,"rental_uris":{"android":"levelo://app?vid=8f739cd0-083c-4784-ae71-0c0267c37fd4","ios":"levelo://app?vid=8f739cd0-083c-4784-ae71-0c0267c37fd4"},"vehicle_type_id":"4","last_reported":1708395141,"current_range_meters":31600,"station_id":"ce4bgv12rcd13ifvqcp0","pricing_plan_id":"cebpf4jnsgd1na2vs0mg"},{"bike_id":"7853d033-42ed-40cd-95b6-d80e81c2c22c","system_id":"levelo_inurba_marseille","lat":43.311722,"lon":5.387247,"is_reserved":false,"is_disabled":false,"rental_uris":{"android":"levelo://app?vid=7853d033-42ed-40cd-95b6-d80e81c2c22c","ios":"levelo://app?vid=7853d033-42ed-40cd-95b6-d80e81c2c22c"},"vehicle_type_id":"4","last_reported":1708395141,"current_range_meters":31600,"station_id":"ce4bgv12rcd13ifvqcp0","pricing_plan_id":"cebpf4jnsgd1na2vs0mg"},{"bike_id":"3571987e-39cf-4d08-8e97-0689cea1def8","system_id":"levelo_inurba_marseille","lat":43.311722,"lon":5.387247,"is_reserved":false,"is_disabled":false,"rental_uris":{"android":"levelo://app?vid=3571987e-39cf-4d08-8e97-0689cea1def8","ios":"levelo://app?vid=3571987e-39cf-4d08-8e97-0689cea1def8"},"vehicle_type_id":"4","last_reported":1708395141,"current_range_meters":400,"station_id":"ce4bgv12rcd13ifvqcp0","pricing_plan_id":"cebpf4jnsgd1na2vs0mg"},{"bike_id":"8a7f90af-495f-4071-8fa0-66c7a414613a","system_id":"levelo_inurba_marseille","lat":43.311722,"lon":5.387247,"is_reserved":false,"is_disabled":false,"rental_uris":{"android":"levelo://app?vid=8a7f90af-495f-4071-8fa0-66c7a414613a","ios":"levelo://app?vid=8a7f90af-495f-4071-8fa0-66c7a414613a"},"vehicle_type_id":"4","last_reported":1708395141,"current_range_meters":400,"station_id":"ce4bgv12rcd13ifvqcp0","pricing_plan_id":"cebpf4jnsgd1na2vs0mg"},{"bike_id":"a5b6aa85-656e-4b76-87c2-65e92f4fcc73","system_id":"levelo_inurba_marseille","lat":43.311722,"lon":5.387247,"is_reserved":false,"is_disabled":false,"rental_uris":{"android":"levelo://app?vid=a5b6aa85-656e-4b76-87c2-65e92f4fcc73","ios":"levelo://app?vid=a5b6aa85-656e-4b76-87c2-65e92f4fcc73"},"vehicle_type_id":"4","last_reported":1708395141,"current_range_meters":26000,"station_id":"ce4bgv12rcd13ifvqcp0","pricing_plan_id":"cebpf4jnsgd1na2vs0mg"},{"bike_id":"2a048a81-190d-4a33-8016-06985ff052ab","system_id":"levelo_inurba_marseille","lat":43.311722,"lon":5.387247,"is_reserved":false,"is_disabled":false,"rental_uris":{"android":"levelo://app?vid=2a048a81-190d-4a33-8016-06985ff052ab","ios":"levelo://app?vid=2a048a81-190d-4a33-8016-06985ff052ab"},"vehicle_type_id":"4","last_reported":1708395141,"current_range_meters":31600,"station_id":"ce4bgv12rcd13ifvqcp0","pricing_plan_id":"cebpf4jnsgd1na2vs0mg"},{"bike_id":"d8eb781c-6731-42c9-81a3-96dcb6b2b8a9","system_id":"levelo_inurba_marseille","lat":43.311722,"lon":5.387247,"is_reserved":false,"is_disabled":false,"rental_uris":{"android":"levelo://app?vid=d8eb781c-6731-42c9-81a3-96dcb6b2b8a9","ios":"levelo://app?vid=d8eb781c-6731-42c9-81a3-96dcb6b2b8a9"},"vehicle_type_id":"4","last_reported":1708395141,"current_range_meters":27600,"station_id":"ce4bgv12rcd13ifvqcp0","pricing_plan_id":"cebpf4jnsgd1na2vs0mg"},{"bike_id":"db7075de-1a49-49cb-868e-aca4dc1f3aaf","system_id":"levelo_inurba_marseille","lat":43.311722,"lon":5.387247,"is_reserved":false,"is_disabled":false,"rental_uris":{"android":"levelo://app?vid=db7075de-1a49-49cb-868e-aca4dc1f3aaf","ios":"levelo://app?vid=db7075de-1a49-49cb-868e-aca4dc1f3aaf"},"vehicle_type_id":"4","last_reported":1708395141,"current_range_meters":28800,"station_id":"ce4bgv12rcd13ifvqcp0","pricing_plan_id":"cebpf4jnsgd1na2vs0mg"},{"bike_id":"f57e8e65-931d-4815-a183-c67d316dce46","system_id":"levelo_inurba_marseille","lat":43.311722,"lon":5.387247,"is_reserved":false,"is_disabled":false,"rental_uris":{"android":"levelo://app?vid=f57e8e65-931d-4815-a183-c67d316dce46","ios":"levelo://app?vid=f57e8e65-931d-4815-a183-c67d316dce46"},"vehicle_type_id":"4","last_reported":1708395141,"current_range_meters":0,"station_id":"ce4bgv12rcd13ifvqcp0","pricing_plan_id":"cebpf4jnsgd1na2vs0mg"},{"bike_id":"59c02530-6aad-4915-b6a5-0a65843b7269","system_id":"levelo_inurba_marseille","lat":43.311722,"lon":5.387247,"is_reserved":false,"is_disabled":false,"rental_uris":{"android":"levelo://app?vid=59c02530-6aad-4915-b6a5-0a65843b7269","ios":"levelo://app?vid=59c02530-6aad-4915-b6a5-0a65843b7269"},"vehicle_type_id":"4","last_reported":1708395141,"current_range_meters":14800,"station_id":"ce4bgv12rcd13ifvqcp0","pricing_plan_id":"cebpf4jnsgd1na2vs0mg"},{"bike_id":"87b9dd3b-d0dd-47e4-b430-d07e769ec461","system_id":"levelo_inurba_marseille","lat":43.297794,"lon":5.370888,"is_reserved":false,"is_disabled":false,"rental_uris":{"android":"levelo://app?vid=87b9dd3b-d0dd-47e4-b430-d07e769ec461","ios":"levelo://app?vid=87b9dd3b-d0dd-47e4-b430-d07e769ec461"},"vehicle_type_id":"4","last_reported":1708395141,"current_range_meters":24400,"station_id":"ce4bgop2rcd13ifvqc1g","pricing_plan_id":"cebpf4jnsgd1na2vs0mg"},{"bike_id":"3abb9479-2707-4d7e-b30c-ba46a05b4b7e","system_id":"levelo_inurba_marseille","lat":43.297794,"lon":5.370888,"is_reserved":false,"is_disabled":false,"rental_uris":{"android":"levelo://app?vid=3abb9479-2707-4d7e-b30c-ba46a05b4b7e","ios":"levelo://app?vid=3abb9479-2707-4d7e-b30c-ba46a05b4b7e"},"vehicle_type_id":"4","last_reported":1708395141,"current_range_meters":31600,"station_id":"ce4bgop2rcd13ifvqc1g","pricing_plan_id":"cebpf4jnsgd1na2vs0mg"},{"bike_id":"e6d33c2b-0d6c-4bf8-9355-0017f7556f91","system_id":"levelo_inurba_marseille","lat":43.297794,"lon":5.370888,"is_reserved":false,"is_disabled":false,"rental_uris":{"android":"levelo://app?vid=e6d33c2b-0d6c-4bf8-9355-0017f7556f91","ios":"levelo://app?vid=e6d33c2b-0d6c-4bf8-9355-0017f7556f91"},"vehicle_type_id":"4","last_reported":1708395141,"current_range_meters":5600,"station_id":"ce4bgop2rcd13ifvqc1g","pricing_plan_id":"cebpf4jnsgd1na2vs0mg"},{"bike_id":"5c031352-0a90-4fd6-a2be-5686641dafa2","system_id":"levelo_inurba_marseille","lat":43.322872,"lon":5.382756,"is_reserved":false,"is_disabled":false,"rental_uris":{"android":"levelo://app?vid=5c031352-0a90-4fd6-a2be-5686641dafa2","ios":"levelo://app?vid=5c031352-0a90-4fd6-a2be-5686641dafa2"},"vehicle_type_id":"4","last_reported":1708395141,"current_range_meters":13600,"station_id":"ce4bhr12rcd13ifvqhqg","pricing_plan_id":"cebpf4jnsgd1na2vs0mg"},{"bike_id":"fce4e9eb-f1db-4840-9573-54454ce3f1d6","system_id":"levelo_inurba_marseille","lat":43.322872,"lon":5.382756,"is_reserved":false,"is_disabled":false,"rental_uris":{"android":"levelo://app?vid=fce4e9eb-f1db-4840-9573-54454ce3f1d6","ios":"levelo://app?vid=fce4e9eb-f1db-4840-9573-54454ce3f1d6"},"vehicle_type_id":"4","last_reported":1708395141,"current_range_meters":24000,"station_id":"ce4bhr12rcd13ifvqhqg","pricing_plan_id":"cebpf4jnsgd1na2vs0mg"},{"bike_id":"9edfbbac-3647-4389-a484-42c4a248ae6c","system_id":"levelo_inurba_marseille","lat":43.322872,"lon":5.382756,"is_reserved":false,"is_disabled":false,"rental_uris":{"android":"levelo://app?vid=9edfbbac-3647-4389-a484-42c4a248ae6c","ios":"levelo://app?vid=9edfbbac-3647-4389-a484-42c4a248ae6c"},"vehicle_type_id":"4","last_reported":1708395141,"current_range_meters":31200,"station_id":"ce4bhr12rcd13ifvqhqg","pricing_plan_id":"cebpf4jnsgd1na2vs0mg"},{"bike_id":"91ab4edd-d149-4ede-888b-4d27f7f91f34","system_id":"levelo_inurba_marseille","lat":43.322872,"lon":5.382756,"is_reserved":false,"is_disabled":false,"rental_uris":{"android":"levelo://app?vid=91ab4edd-d149-4ede-888b-4d27f7f91f34","ios":"levelo://app?vid=91ab4edd-d149-4ede-888b-4d27f7f91f34"},"vehicle_type_id":"4","last_reported":1708395141,"current_range_meters":30000,"station_id":"ce4bhr12rcd13ifvqhqg","pricing_plan_id":"cebpf4jnsgd1na2vs0mg"},{"bike_id":"d026edbc-abfe-4769-8eb1-e1acc923139d","system_id":"levelo_inurba_marseille","lat":43.322916,"lon":5.382739,"is_reserved":false,"is_disabled":false,"rental_uris":{"android":"levelo://app?vid=d026edbc-abfe-4769-8eb1-e1acc923139d","ios":"levelo://app?vid=d026edbc-abfe-4769-8eb1-e1acc923139d"},"vehicle_type_id":"4","last_reported":1708395141,"current_range_meters":25600,"station_id":"ce4bhr12rcd13ifvqhqg","pricing_plan_id":"cebpf4jnsgd1na2vs0mg"},{"bike_id":"362ea395-deee-4ebb-9be6-6e433ed572b4","system_id":"levelo_inurba_marseille","lat":43.297163,"lon":5.365866,"is_reserved":false,"is_disabled":false,"rental_uris":{"android":"levelo://app?vid=362ea395-deee-4ebb-9be6-6e433ed572b4","ios":"levelo://app?vid=362ea395-deee-4ebb-9be6-6e433ed572b4"},"vehicle_type_id":"4","last_reported":1708395141,"current_range_meters":27600,"station_id":"ce4bgn12rcd13ifvqbt0","pricing_plan_id":"cebpf4jnsgd1na2vs0mg"},{"bike_id":"0ade780d-8480-46dd-9a93-4de2886a40ad","system_id":"levelo_inurba_marseille","lat":43.297163,"lon":5.365866,"is_reserved":false,"is_disabled":false,"rental_uris":{"android":"levelo://app?vid=0ade780d-8480-46dd-9a93-4de2886a40ad","ios":"levelo://app?vid=0ade780d-8480-46dd-9a93-4de2886a40ad"},"vehicle_type_id":"4","last_reported":1708395141,"current_range_meters":28000,"station_id":"ce4bgn12rcd13ifvqbt0","pricing_plan_id":"cebpf4jnsgd1na2vs0mg"},{"bike_id":"ae3be08b-57ba-4a17-b3c9-4a45d41fe643","system_id":"levelo_inurba_marseille","lat":43.297163,"lon":5.365866,"is_reserved":false,"is_disabled":false,"rental_uris":{"android":"levelo://app?vid=ae3be08b-57ba-4a17-b3c9-4a45d41fe643","ios":"levelo://app?vid=ae3be08b-57ba-4a17-b3c9-4a45d41fe643"},"vehicle_type_id":"4","last_reported":1708395141,"current_range_meters":23600,"station_id":"ce4bgn12rcd13ifvqbt0","pricing_plan_id":"cebpf4jnsgd1na2vs0mg"},{"bike_id":"add7985a-15aa-4ecf-aefb-9183c2c5c61d","system_id":"levelo_inurba_marseille","lat":43.299605,"lon":5.379147,"is_reserved":false,"is_disabled":false,"rental_uris":{"android":"levelo://app?vid=add7985a-15aa-4ecf-aefb-9183c2c5c61d","ios":"levelo://app?vid=add7985a-15aa-4ecf-aefb-9183c2c5c61d"},"vehicle_type_id":"4","last_reported":1708395141,"current_range_meters":10800,"station_id":"","pricing_plan_id":"cebpf4jnsgd1na2vs0mg"},{"bike_id":"f02a0f6f-66a6-462e-9e55-3dfdd8fe01d9","system_id":"levelo_inurba_marseille","lat":43.329093,"lon":5.367073,"is_reserved":false,"is_disabled":false,"rental_uris":{"android":"levelo://app?vid=f02a0f6f-66a6-462e-9e55-3dfdd8fe01d9","ios":"levelo://app?vid=f02a0f6f-66a6-462e-9e55-3dfdd8fe01d9"},"vehicle_type_id":"4","last_reported":1708395141,"current_range_meters":0,"station_id":"","pricing_plan_id":"cebpf4jnsgd1na2vs0mg"},{"bike_id":"55c74eed-b29f-41ab-bbf8-13b48ec7c72e","system_id":"levelo_inurba_marseille","lat":43.2968,"lon":5.37291,"is_reserved":false,"is_disabled":false,"rental_uris":{"android":"levelo://app?vid=55c74eed-b29f-41ab-bbf8-13b48ec7c72e","ios":"levelo://app?vid=55c74eed-b29f-41ab-bbf8-13b48ec7c72e"},"vehicle_type_id":"4","last_reported":1708395141,"current_range_meters":25200,"station_id":"ce4bgk12rcd13ifvqbj0","pricing_plan_id":"cebpf4jnsgd1na2vs0mg"},{"bike_id":"e0928568-3742-476e-979d-28a8bffe42b5","system_id":"levelo_inurba_marseille","lat":43.2968,"lon":5.37291,"is_reserved":false,"is_disabled":false,"rental_uris":{"android":"levelo://app?vid=e0928568-3742-476e-979d-28a8bffe42b5","ios":"levelo://app?vid=e0928568-3742-476e-979d-28a8bffe42b5"},"vehicle_type_id":"4","last_reported":1708395141,"current_range_meters":29600,"station_id":"ce4bgk12rcd13ifvqbj0","pricing_plan_id":"cebpf4jnsgd1na2vs0mg"},{"bike_id":"5023c349-0d40-4ea1-8c00-795163d1d717","system_id":"levelo_inurba_marseille","lat":43.309589,"lon":5.390258,"is_reserved":false,"is_disabled":false,"rental_uris":{"android":"levelo://app?vid=5023c349-0d40-4ea1-8c00-795163d1d717","ios":"levelo://app?vid=5023c349-0d40-4ea1-8c00-795163d1d717"},"vehicle_type_id":"4","last_reported":1708395141,"current_range_meters":6000,"station_id":"ce4bgup2rcd13ifvqco0","pricing_plan_id":"cebpf4jnsgd1na2vs0mg"},{"bike_id":"f6d13727-3b02-450c-9663-07a98b22fed5","system_id":"levelo_inurba_marseille","lat":43.30949,"lon":5.39043,"is_reserved":false,"is_disabled":false,"rental_uris":{"android":"levelo://app?vid=f6d13727-3b02-450c-9663-07a98b22fed5","ios":"levelo://app?vid=f6d13727-3b02-450c-9663-07a98b22fed5"},"vehicle_type_id":"4","last_reported":1708395141,"current_range_meters":30400,"station_id":"ce4bgup2rcd13ifvqco0","pricing_plan_id":"cebpf4jnsgd1na2vs0mg"},{"bike_id":"f99fe8d7-49cd-4520-bf26-f71aedf8d020","system_id":"levelo_inurba_marseille","lat":43.309522,"lon":5.390446,"is_reserved":false,"is_disabled":false,"rental_uris":{"android":"levelo://app?vid=f99fe8d7-49cd-4520-bf26-f71aedf8d020","ios":"levelo://app?vid=f99fe8d7-49cd-4520-bf26-f71aedf8d020"},"vehicle_type_id":"4","last_reported":1708395141,"current_range_meters":23200,"station_id":"ce4bgup2rcd13ifvqco0","pricing_plan_id":"cebpf4jnsgd1na2vs0mg"},{"bike_id":"916441bb-cb92-4f37-b8a0-768dbff3ea2e","system_id":"levelo_inurba_marseille","lat":43.3095,"lon":5.3905,"is_reserved":false,"is_disabled":false,"rental_uris":{"android":"levelo://app?vid=916441bb-cb92-4f37-b8a0-768dbff3ea2e","ios":"levelo://app?vid=916441bb-cb92-4f37-b8a0-768dbff3ea2e"},"vehicle_type_id":"4","last_reported":1708395141,"current_range_meters":20800,"station_id":"ce4bgup2rcd13ifvqco0","pricing_plan_id":"cebpf4jnsgd1na2vs0mg"},{"bike_id":"bf360b7d-8e8f-4660-beb2-4a17213b8788","system_id":"levelo_inurba_marseille","lat":43.309589,"lon":5.390258,"is_reserved":false,"is_disabled":false,"rental_uris":{"android":"levelo://app?vid=bf360b7d-8e8f-4660-beb2-4a17213b8788","ios":"levelo://app?vid=bf360b7d-8e8f-4660-beb2-4a17213b8788"},"vehicle_type_id":"4","last_reported":1708395141,"current_range_meters":26400,"station_id":"ce4bgup2rcd13ifvqco0","pricing_plan_id":"cebpf4jnsgd1na2vs0mg"},{"bike_id":"e3d6a117-f1c2-4286-b6fc-026747e43e8e","system_id":"levelo_inurba_marseille","lat":43.317557,"lon":5.390173,"is_reserved":false,"is_disabled":false,"rental_uris":{"android":"levelo://app?vid=e3d6a117-f1c2-4286-b6fc-026747e43e8e","ios":"levelo://app?vid=e3d6a117-f1c2-4286-b6fc-026747e43e8e"},"vehicle_type_id":"4","last_reported":1708395141,"current_range_meters":16400,"station_id":"ce4bhqp2rcd13ifvqhng","pricing_plan_id":"cebpf4jnsgd1na2vs0mg"},{"bike_id":"f2666d97-f098-4e8d-948b-6ca5cf2b5347","system_id":"levelo_inurba_marseille","lat":43.317557,"lon":5.390173,"is_reserved":false,"is_disabled":false,"rental_uris":{"android":"levelo://app?vid=f2666d97-f098-4e8d-948b-6ca5cf2b5347","ios":"levelo://app?vid=f2666d97-f098-4e8d-948b-6ca5cf2b5347"},"vehicle_type_id":"4","last_reported":1708395141,"current_range_meters":9200,"station_id":"ce4bhqp2rcd13ifvqhng","pricing_plan_id":"cebpf4jnsgd1na2vs0mg"},{"bike_id":"9006dcf1-17d3-4031-81c2-9e818b61b918","system_id":"levelo_inurba_marseille","lat":43.317557,"lon":5.390173,"is_reserved":false,"is_disabled":false,"rental_uris":{"android":"levelo://app?vid=9006dcf1-17d3-4031-81c2-9e818b61b918","ios":"levelo://app?vid=9006dcf1-17d3-4031-81c2-9e818b61b918"},"vehicle_type_id":"4","last_reported":1708395141,"current_range_meters":31600,"station_id":"ce4bhqp2rcd13ifvqhng","pricing_plan_id":"cebpf4jnsgd1na2vs0mg"},{"bike_id":"01d234d0-e8e0-45f8-b8bb-c81cf3e028da","system_id":"levelo_inurba_marseille","lat":43.317557,"lon":5.390173,"is_reserved":false,"is_disabled":false,"rental_uris":{"android":"levelo://app?vid=01d234d0-e8e0-45f8-b8bb-c81cf3e028da","ios":"levelo://app?vid=01d234d0-e8e0-45f8-b8bb-c81cf3e028da"},"vehicle_type_id":"4","last_reported":1708395141,"current_range_meters":31600,"station_id":"ce4bhqp2rcd13ifvqhng","pricing_plan_id":"cebpf4jnsgd1na2vs0mg"},{"bike_id":"9b115ebf-65a9-47d3-ab52-8c4b12863dc4","system_id":"levelo_inurba_marseille","lat":43.317557,"lon":5.390173,"is_reserved":false,"is_disabled":false,"rental_uris":{"android":"levelo://app?vid=9b115ebf-65a9-47d3-ab52-8c4b12863dc4","ios":"levelo://app?vid=9b115ebf-65a9-47d3-ab52-8c4b12863dc4"},"vehicle_type_id":"4","last_reported":1708395141,"current_range_meters":7200,"station_id":"ce4bhqp2rcd13ifvqhng","pricing_plan_id":"cebpf4jnsgd1na2vs0mg"},{"bike_id":"f4bab2ed-a891-4499-8c4f-a8c7f5752400","system_id":"levelo_inurba_marseille","lat":43.317557,"lon":5.390173,"is_reserved":false,"is_disabled":false,"rental_uris":{"android":"levelo://app?vid=f4bab2ed-a891-4499-8c4f-a8c7f5752400","ios":"levelo://app?vid=f4bab2ed-a891-4499-8c4f-a8c7f5752400"},"vehicle_type_id":"4","last_reported":1708395141,"current_range_meters":27600,"station_id":"ce4bhqp2rcd13ifvqhng","pricing_plan_id":"cebpf4jnsgd1na2vs0mg"},{"bike_id":"a058b8c9-ce73-4233-9ec0-7d21bd3e485a","system_id":"levelo_inurba_marseille","lat":43.317557,"lon":5.390173,"is_reserved":false,"is_disabled":false,"rental_uris":{"android":"levelo://app?vid=a058b8c9-ce73-4233-9ec0-7d21bd3e485a","ios":"levelo://app?vid=a058b8c9-ce73-4233-9ec0-7d21bd3e485a"},"vehicle_type_id":"4","last_reported":1708395141,"current_range_meters":10000,"station_id":"ce4bhqp2rcd13ifvqhng","pricing_plan_id":"cebpf4jnsgd1na2vs0mg"},{"bike_id":"a110b25f-42a3-405b-b04b-a39516e1fe4f","system_id":"levelo_inurba_marseille","lat":43.30443,"lon":5.38883,"is_reserved":false,"is_disabled":false,"rental_uris":{"android":"levelo://app?vid=a110b25f-42a3-405b-b04b-a39516e1fe4f","ios":"levelo://app?vid=a110b25f-42a3-405b-b04b-a39516e1fe4f"},"vehicle_type_id":"4","last_reported":1708395141,"current_range_meters":11200,"station_id":"ce4bgk12rcd13ifvqbi0","pricing_plan_id":"cebpf4jnsgd1na2vs0mg"},{"bike_id":"5cfd6bec-7ce2-49da-895c-dd01473a4c98","system_id":"levelo_inurba_marseille","lat":43.30449,"lon":5.3889,"is_reserved":false,"is_disabled":false,"rental_uris":{"android":"levelo://app?vid=5cfd6bec-7ce2-49da-895c-dd01473a4c98","ios":"levelo://app?vid=5cfd6bec-7ce2-49da-895c-dd01473a4c98"},"vehicle_type_id":"4","last_reported":1708395141,"current_range_meters":31200,"station_id":"ce4bgk12rcd13ifvqbi0","pricing_plan_id":"cebpf4jnsgd1na2vs0mg"},{"bike_id":"b7d82d42-da4d-406a-9639-ec4059e42816","system_id":"levelo_inurba_marseille","lat":43.30439,"lon":5.388893,"is_reserved":false,"is_disabled":false,"rental_uris":{"android":"levelo://app?vid=b7d82d42-da4d-406a-9639-ec4059e42816","ios":"levelo://app?vid=b7d82d42-da4d-406a-9639-ec4059e42816"},"vehicle_type_id":"4","last_reported":1708395141,"current_range_meters":0,"station_id":"ce4bgk12rcd13ifvqbi0","pricing_plan_id":"cebpf4jnsgd1na2vs0mg"},{"bike_id":"6858c2b3-3117-4100-93e9-a696aa89d91d","system_id":"levelo_inurba_marseille","lat":43.304357,"lon":5.388889,"is_reserved":false,"is_disabled":false,"rental_uris":{"android":"levelo://app?vid=6858c2b3-3117-4100-93e9-a696aa89d91d","ios":"levelo://app?vid=6858c2b3-3117-4100-93e9-a696aa89d91d"},"vehicle_type_id":"4","last_reported":1708395141,"current_range_meters":26800,"station_id":"ce4bgk12rcd13ifvqbi0","pricing_plan_id":"cebpf4jnsgd1na2vs0mg"},{"bike_id":"3d80a6b4-456a-4f71-891d-9f1ee12153d5","system_id":"levelo_inurba_marseille","lat":43.304369,"lon":5.388929,"is_reserved":false,"is_disabled":false,"rental_uris":{"android":"levelo://app?vid=3d80a6b4-456a-4f71-891d-9f1ee12153d5","ios":"levelo://app?vid=3d80a6b4-456a-4f71-891d-9f1ee12153d5"},"vehicle_type_id":"4","last_reported":1708395141,"current_range_meters":4000,"station_id":"ce4bgk12rcd13ifvqbi0","pricing_plan_id":"cebpf4jnsgd1na2vs0mg"},{"bike_id":"5dc2f57f-97b1-44af-bbf4-dc3c8a8fa996","system_id":"levelo_inurba_marseille","lat":43.304278,"lon":5.388868,"is_reserved":false,"is_disabled":false,"rental_uris":{"android":"levelo://app?vid=5dc2f57f-97b1-44af-bbf4-dc3c8a8fa996","ios":"levelo://app?vid=5dc2f57f-97b1-44af-bbf4-dc3c8a8fa996"},"vehicle_type_id":"4","last_reported":1708395141,"current_range_meters":26000,"station_id":"ce4bgk12rcd13ifvqbi0","pricing_plan_id":"cebpf4jnsgd1na2vs0mg"},{"bike_id":"9850b0c8-fd40-4553-9418-16c78492a3b8","system_id":"levelo_inurba_marseille","lat":43.30429,"lon":5.38893,"is_reserved":false,"is_disabled":false,"rental_uris":{"android":"levelo://app?vid=9850b0c8-fd40-4553-9418-16c78492a3b8","ios":"levelo://app?vid=9850b0c8-fd40-4553-9418-16c78492a3b8"},"vehicle_type_id":"4","last_reported":1708395141,"current_range_meters":12000,"station_id":"ce4bgk12rcd13ifvqbi0","pricing_plan_id":"cebpf4jnsgd1na2vs0mg"},{"bike_id":"c8e25018-b865-4e4f-984e-a0b3952e93dc","system_id":"levelo_inurba_marseille","lat":43.30434,"lon":5.38898,"is_reserved":false,"is_disabled":false,"rental_uris":{"android":"levelo://app?vid=c8e25018-b865-4e4f-984e-a0b3952e93dc","ios":"levelo://app?vid=c8e25018-b865-4e4f-984e-a0b3952e93dc"},"vehicle_type_id":"4","last_reported":1708395141,"current_range_meters":20000,"station_id":"ce4bgk12rcd13ifvqbi0","pricing_plan_id":"cebpf4jnsgd1na2vs0mg"},{"bike_id":"fef71082-978e-4069-978c-c162adc9347c","system_id":"levelo_inurba_marseille","lat":43.299724,"lon":5.384848,"is_reserved":false,"is_disabled":false,"rental_uris":{"android":"levelo://app?vid=fef71082-978e-4069-978c-c162adc9347c","ios":"levelo://app?vid=fef71082-978e-4069-978c-c162adc9347c"},"vehicle_type_id":"4","last_reported":1708395141,"current_range_meters":28400,"station_id":"ce4bgj92rcd13ifvqbd0","pricing_plan_id":"cebpf4jnsgd1na2vs0mg"},{"bike_id":"d14ee948-4e7b-4dca-a8d6-cf81b8ec0126","system_id":"levelo_inurba_marseille","lat":43.29966,"lon":5.38502,"is_reserved":false,"is_disabled":false,"rental_uris":{"android":"levelo://app?vid=d14ee948-4e7b-4dca-a8d6-cf81b8ec0126","ios":"levelo://app?vid=d14ee948-4e7b-4dca-a8d6-cf81b8ec0126"},"vehicle_type_id":"4","last_reported":1708395141,"current_range_meters":23600,"station_id":"ce4bgj92rcd13ifvqbd0","pricing_plan_id":"cebpf4jnsgd1na2vs0mg"},{"bike_id":"4d6cf0d1-56de-4fc5-bd61-cdf25e86cf12","system_id":"levelo_inurba_marseille","lat":43.32367,"lon":5.388836,"is_reserved":false,"is_disabled":false,"rental_uris":{"android":"levelo://app?vid=4d6cf0d1-56de-4fc5-bd61-cdf25e86cf12","ios":"levelo://app?vid=4d6cf0d1-56de-4fc5-bd61-cdf25e86cf12"},"vehicle_type_id":"4","last_reported":1708395141,"current_range_meters":16400,"station_id":"ce4bhqp2rcd13ifvqhog","pricing_plan_id":"cebpf4jnsgd1na2vs0mg"},{"bike_id":"c9fa3586-8267-45ec-89a4-7814fdccb94a","system_id":"levelo_inurba_marseille","lat":43.32367,"lon":5.388836,"is_reserved":false,"is_disabled":false,"rental_uris":{"android":"levelo://app?vid=c9fa3586-8267-45ec-89a4-7814fdccb94a","ios":"levelo://app?vid=c9fa3586-8267-45ec-89a4-7814fdccb94a"},"vehicle_type_id":"4","last_reported":1708395141,"current_range_meters":8800,"station_id":"ce4bhqp2rcd13ifvqhog","pricing_plan_id":"cebpf4jnsgd1na2vs0mg"},{"bike_id":"14b2adbd-de5e-493a-919f-cb01d90fdaa2","system_id":"levelo_inurba_marseille","lat":43.32367,"lon":5.388836,"is_reserved":false,"is_disabled":false,"rental_uris":{"android":"levelo://app?vid=14b2adbd-de5e-493a-919f-cb01d90fdaa2","ios":"levelo://app?vid=14b2adbd-de5e-493a-919f-cb01d90fdaa2"},"vehicle_type_id":"4","last_reported":1708395141,"current_range_meters":11200,"station_id":"ce4bhqp2rcd13ifvqhog","pricing_plan_id":"cebpf4jnsgd1na2vs0mg"},{"bike_id":"06618661-616f-491d-abb5-bd362d0e1c2a","system_id":"levelo_inurba_marseille","lat":43.32367,"lon":5.388836,"is_reserved":false,"is_disabled":false,"rental_uris":{"android":"levelo://app?vid=06618661-616f-491d-abb5-bd362d0e1c2a","ios":"levelo://app?vid=06618661-616f-491d-abb5-bd362d0e1c2a"},"vehicle_type_id":"4","last_reported":1708395141,"current_range_meters":16400,"station_id":"ce4bhqp2rcd13ifvqhog","pricing_plan_id":"cebpf4jnsgd1na2vs0mg"},{"bike_id":"789cb8e6-825b-4df0-904c-2f0cd4d5b374","system_id":"levelo_inurba_marseille","lat":43.29601,"lon":5.381084,"is_reserved":false,"is_disabled":false,"rental_uris":{"android":"levelo://app?vid=789cb8e6-825b-4df0-904c-2f0cd4d5b374","ios":"levelo://app?vid=789cb8e6-825b-4df0-904c-2f0cd4d5b374"},"vehicle_type_id":"4","last_reported":1708395141,"current_range_meters":3200,"station_id":"ce4bgl12rcd13ifvqbo0","pricing_plan_id":"cebpf4jnsgd1na2vs0mg"},{"bike_id":"42175bf9-ec2e-4e82-9a68-bee8236e09ba","system_id":"levelo_inurba_marseille","lat":43.29596,"lon":5.38108,"is_reserved":false,"is_disabled":false,"rental_uris":{"android":"levelo://app?vid=42175bf9-ec2e-4e82-9a68-bee8236e09ba","ios":"levelo://app?vid=42175bf9-ec2e-4e82-9a68-bee8236e09ba"},"vehicle_type_id":"4","last_reported":1708395141,"current_range_meters":27600,"station_id":"","pricing_plan_id":"cebpf4jnsgd1na2vs0mg"},{"bike_id":"8b740204-1337-47e0-ba48-72f7cb1ed28b","system_id":"levelo_inurba_marseille","lat":43.29598,"lon":5.38115,"is_reserved":false,"is_disabled":false,"rental_uris":{"android":"levelo://app?vid=8b740204-1337-47e0-ba48-72f7cb1ed28b","ios":"levelo://app?vid=8b740204-1337-47e0-ba48-72f7cb1ed28b"},"vehicle_type_id":"4","last_reported":1708395141,"current_range_meters":29200,"station_id":"ce4bgl12rcd13ifvqbo0","pricing_plan_id":"cebpf4jnsgd1na2vs0mg"},{"bike_id":"43b17461-186f-478c-a457-8e950e7a3723","system_id":"levelo_inurba_marseille","lat":43.293249,"lon":5.371578,"is_reserved":false,"is_disabled":false,"rental_uris":{"android":"levelo://app?vid=43b17461-186f-478c-a457-8e950e7a3723","ios":"levelo://app?vid=43b17461-186f-478c-a457-8e950e7a3723"},"vehicle_type_id":"4","last_reported":1708395141,"current_range_meters":0,"station_id":"ce4bgh92rcd13ifvqb40","pricing_plan_id":"cebpf4jnsgd1na2vs0mg"},{"bike_id":"a356a71d-8723-493e-8dd7-0d2f4f5a935a","system_id":"levelo_inurba_marseille","lat":43.31286,"lon":5.39465,"is_reserved":false,"is_disabled":false,"rental_uris":{"android":"levelo://app?vid=a356a71d-8723-493e-8dd7-0d2f4f5a935a","ios":"levelo://app?vid=a356a71d-8723-493e-8dd7-0d2f4f5a935a"},"vehicle_type_id":"4","last_reported":1708395141,"current_range_meters":13200,"station_id":"","pricing_plan_id":"cebpf4jnsgd1na2vs0mg"},{"bike_id":"d2b704f0-f4c1-4518-b646-c1f3882741ae","system_id":"levelo_inurba_marseille","lat":43.293009,"lon":5.374584,"is_reserved":false,"is_disabled":false,"rental_uris":{"android":"levelo://app?vid=d2b704f0-f4c1-4518-b646-c1f3882741ae","ios":"levelo://app?vid=d2b704f0-f4c1-4518-b646-c1f3882741ae"},"vehicle_type_id":"4","last_reported":1708395141,"current_range_meters":20800,"station_id":"ce4bgi12rcd13ifvqb70","pricing_plan_id":"cebpf4jnsgd1na2vs0mg"},{"bike_id":"5d466ae4-2aeb-49d0-9fd4-39cce89e7466","system_id":"levelo_inurba_marseille","lat":43.305994,"lon":5.393687,"is_reserved":false,"is_disabled":false,"rental_uris":{"android":"levelo://app?vid=5d466ae4-2aeb-49d0-9fd4-39cce89e7466","ios":"levelo://app?vid=5d466ae4-2aeb-49d0-9fd4-39cce89e7466"},"vehicle_type_id":"4","last_reported":1708395141,"current_range_meters":10400,"station_id":"ce4bh0p2rcd13ifvqd80","pricing_plan_id":"cebpf4jnsgd1na2vs0mg"},{"bike_id":"13363cc7-7a6b-43e5-ae03-ed659b80f750","system_id":"levelo_inurba_marseille","lat":43.305994,"lon":5.393687,"is_reserved":false,"is_disabled":false,"rental_uris":{"android":"levelo://app?vid=13363cc7-7a6b-43e5-ae03-ed659b80f750","ios":"levelo://app?vid=13363cc7-7a6b-43e5-ae03-ed659b80f750"},"vehicle_type_id":"4","last_reported":1708395141,"current_range_meters":30400,"station_id":"ce4bh0p2rcd13ifvqd80","pricing_plan_id":"cebpf4jnsgd1na2vs0mg"},{"bike_id":"09740826-b9c5-4eeb-b919-a9a6a5760e43","system_id":"levelo_inurba_marseille","lat":43.305994,"lon":5.393687,"is_reserved":false,"is_disabled":false,"rental_uris":{"android":"levelo://app?vid=09740826-b9c5-4eeb-b919-a9a6a5760e43","ios":"levelo://app?vid=09740826-b9c5-4eeb-b919-a9a6a5760e43"},"vehicle_type_id":"4","last_reported":1708395141,"current_range_meters":15200,"station_id":"ce4bh0p2rcd13ifvqd80","pricing_plan_id":"cebpf4jnsgd1na2vs0mg"},{"bike_id":"acf064fe-ab17-43ec-8953-8b845bdefc41","system_id":"levelo_inurba_marseille","lat":43.305994,"lon":5.393687,"is_reserved":false,"is_disabled":false,"rental_uris":{"android":"levelo://app?vid=acf064fe-ab17-43ec-8953-8b845bdefc41","ios":"levelo://app?vid=acf064fe-ab17-43ec-8953-8b845bdefc41"},"vehicle_type_id":"4","last_reported":1708395141,"current_range_meters":31200,"station_id":"ce4bh0p2rcd13ifvqd80","pricing_plan_id":"cebpf4jnsgd1na2vs0mg"},{"bike_id":"2fa67308-77ff-497b-9994-135f8131c83a","system_id":"levelo_inurba_marseille","lat":43.303002,"lon":5.392142,"is_reserved":false,"is_disabled":false,"rental_uris":{"android":"levelo://app?vid=2fa67308-77ff-497b-9994-135f8131c83a","ios":"levelo://app?vid=2fa67308-77ff-497b-9994-135f8131c83a"},"vehicle_type_id":"4","last_reported":1708395141,"current_range_meters":24800,"station_id":"ce4bgkh2rcd13ifvqbk0","pricing_plan_id":"cebpf4jnsgd1na2vs0mg"},{"bike_id":"f1363e5c-a964-4484-a383-11344e88fb32","system_id":"levelo_inurba_marseille","lat":43.303002,"lon":5.392142,"is_reserved":false,"is_disabled":false,"rental_uris":{"android":"levelo://app?vid=f1363e5c-a964-4484-a383-11344e88fb32","ios":"levelo://app?vid=f1363e5c-a964-4484-a383-11344e88fb32"},"vehicle_type_id":"4","last_reported":1708395141,"current_range_meters":16000,"station_id":"ce4bgkh2rcd13ifvqbk0","pricing_plan_id":"cebpf4jnsgd1na2vs0mg"},{"bike_id":"7f4d1554-7035-4dbb-a3b5-6508097fdee8","system_id":"levelo_inurba_marseille","lat":43.292276,"lon":5.360741,"is_reserved":false,"is_disabled":false,"rental_uris":{"android":"levelo://app?vid=7f4d1554-7035-4dbb-a3b5-6508097fdee8","ios":"levelo://app?vid=7f4d1554-7035-4dbb-a3b5-6508097fdee8"},"vehicle_type_id":"4","last_reported":1708395141,"current_range_meters":8800,"station_id":"ce4bhbh2rcd13ifvqeqg","pricing_plan_id":"cebpf4jnsgd1na2vs0mg"},{"bike_id":"f7a81959-4415-435d-a520-d41cd22ed438","system_id":"levelo_inurba_marseille","lat":43.292311,"lon":5.360731,"is_reserved":false,"is_disabled":false,"rental_uris":{"android":"levelo://app?vid=f7a81959-4415-435d-a520-d41cd22ed438","ios":"levelo://app?vid=f7a81959-4415-435d-a520-d41cd22ed438"},"vehicle_type_id":"4","last_reported":1708395141,"current_range_meters":20800,"station_id":"ce4bhbh2rcd13ifvqeqg","pricing_plan_id":"cebpf4jnsgd1na2vs0mg"},{"bike_id":"38e678fc-a604-4448-95f0-758be9a976a8","system_id":"levelo_inurba_marseille","lat":43.292311,"lon":5.360731,"is_reserved":false,"is_disabled":false,"rental_uris":{"android":"levelo://app?vid=38e678fc-a604-4448-95f0-758be9a976a8","ios":"levelo://app?vid=38e678fc-a604-4448-95f0-758be9a976a8"},"vehicle_type_id":"4","last_reported":1708395141,"current_range_meters":9200,"station_id":"ce4bhbh2rcd13ifvqeqg","pricing_plan_id":"cebpf4jnsgd1na2vs0mg"},{"bike_id":"4b27d897-22ea-4e3c-b737-f75584568374","system_id":"levelo_inurba_marseille","lat":43.292311,"lon":5.360731,"is_reserved":false,"is_disabled":false,"rental_uris":{"android":"levelo://app?vid=4b27d897-22ea-4e3c-b737-f75584568374","ios":"levelo://app?vid=4b27d897-22ea-4e3c-b737-f75584568374"},"vehicle_type_id":"4","last_reported":1708395141,"current_range_meters":31600,"station_id":"ce4bhbh2rcd13ifvqeqg","pricing_plan_id":"cebpf4jnsgd1na2vs0mg"},{"bike_id":"5daa5c1d-9385-484d-a521-2b4a15bfdd1c","system_id":"levelo_inurba_marseille","lat":43.292311,"lon":5.360731,"is_reserved":false,"is_disabled":false,"rental_uris":{"android":"levelo://app?vid=5daa5c1d-9385-484d-a521-2b4a15bfdd1c","ios":"levelo://app?vid=5daa5c1d-9385-484d-a521-2b4a15bfdd1c"},"vehicle_type_id":"4","last_reported":1708395141,"current_range_meters":10000,"station_id":"ce4bhbh2rcd13ifvqeqg","pricing_plan_id":"cebpf4jnsgd1na2vs0mg"},{"bike_id":"f9d18a34-de10-46c7-8864-b6235bb7d3b7","system_id":"levelo_inurba_marseille","lat":43.292273,"lon":5.360481,"is_reserved":false,"is_disabled":false,"rental_uris":{"android":"levelo://app?vid=f9d18a34-de10-46c7-8864-b6235bb7d3b7","ios":"levelo://app?vid=f9d18a34-de10-46c7-8864-b6235bb7d3b7"},"vehicle_type_id":"4","last_reported":1708395141,"current_range_meters":20000,"station_id":"ce4bhbh2rcd13ifvqeqg","pricing_plan_id":"cebpf4jnsgd1na2vs0mg"},{"bike_id":"8ac9a789-ac66-4bfc-937c-cf8bf287d8d7","system_id":"levelo_inurba_marseille","lat":43.292311,"lon":5.360731,"is_reserved":false,"is_disabled":false,"rental_uris":{"android":"levelo://app?vid=8ac9a789-ac66-4bfc-937c-cf8bf287d8d7","ios":"levelo://app?vid=8ac9a789-ac66-4bfc-937c-cf8bf287d8d7"},"vehicle_type_id":"4","last_reported":1708395141,"current_range_meters":22800,"station_id":"ce4bhbh2rcd13ifvqeqg","pricing_plan_id":"cebpf4jnsgd1na2vs0mg"},{"bike_id":"c4d7007f-d345-48ee-bfee-ce196a218dc6","system_id":"levelo_inurba_marseille","lat":43.30085,"lon":5.390856,"is_reserved":false,"is_disabled":false,"rental_uris":{"android":"levelo://app?vid=c4d7007f-d345-48ee-bfee-ce196a218dc6","ios":"levelo://app?vid=c4d7007f-d345-48ee-bfee-ce196a218dc6"},"vehicle_type_id":"4","last_reported":1708395141,"current_range_meters":28400,"station_id":"ce4bh192rcd13ifvqdb0","pricing_plan_id":"cebpf4jnsgd1na2vs0mg"},{"bike_id":"6a874ee3-1bee-4588-9433-d9ab2af9fc37","system_id":"levelo_inurba_marseille","lat":43.30085,"lon":5.390856,"is_reserved":false,"is_disabled":false,"rental_uris":{"android":"levelo://app?vid=6a874ee3-1bee-4588-9433-d9ab2af9fc37","ios":"levelo://app?vid=6a874ee3-1bee-4588-9433-d9ab2af9fc37"},"vehicle_type_id":"4","last_reported":1708395141,"current_range_meters":28000,"station_id":"ce4bh192rcd13ifvqdb0","pricing_plan_id":"cebpf4jnsgd1na2vs0mg"},{"bike_id":"d32053c2-016f-4013-bb17-9a396e2a21a4","system_id":"levelo_inurba_marseille","lat":43.29219,"lon":5.36053,"is_reserved":false,"is_disabled":false,"rental_uris":{"android":"levelo://app?vid=d32053c2-016f-4013-bb17-9a396e2a21a4","ios":"levelo://app?vid=d32053c2-016f-4013-bb17-9a396e2a21a4"},"vehicle_type_id":"4","last_reported":1708395141,"current_range_meters":28400,"station_id":"ce4bhbh2rcd13ifvqeqg","pricing_plan_id":"cebpf4jnsgd1na2vs0mg"},{"bike_id":"342c0a99-efcf-4373-a058-c3c73b3ce632","system_id":"levelo_inurba_marseille","lat":43.291671,"lon":5.371575,"is_reserved":false,"is_disabled":false,"rental_uris":{"android":"levelo://app?vid=342c0a99-efcf-4373-a058-c3c73b3ce632","ios":"levelo://app?vid=342c0a99-efcf-4373-a058-c3c73b3ce632"},"vehicle_type_id":"4","last_reported":1708395141,"current_range_meters":6800,"station_id":"ce4bha92rcd13ifvqeh0","pricing_plan_id":"cebpf4jnsgd1na2vs0mg"},{"bike_id":"a8adc832-7e45-4c41-9a91-6120d3fa77b4","system_id":"levelo_inurba_marseille","lat":43.298764,"lon":5.388973,"is_reserved":false,"is_disabled":false,"rental_uris":{"android":"levelo://app?vid=a8adc832-7e45-4c41-9a91-6120d3fa77b4","ios":"levelo://app?vid=a8adc832-7e45-4c41-9a91-6120d3fa77b4"},"vehicle_type_id":"4","last_reported":1708395141,"current_range_meters":31200,"station_id":"ce4bh392rcd13ifvqdl0","pricing_plan_id":"cebpf4jnsgd1na2vs0mg"},{"bike_id":"6a8381fa-beae-4cdb-83bd-acb8b5135a35","system_id":"levelo_inurba_marseille","lat":43.298764,"lon":5.388973,"is_reserved":false,"is_disabled":false,"rental_uris":{"android":"levelo://app?vid=6a8381fa-beae-4cdb-83bd-acb8b5135a35","ios":"levelo://app?vid=6a8381fa-beae-4cdb-83bd-acb8b5135a35"},"vehicle_type_id":"4","last_reported":1708395141,"current_range_meters":13600,"station_id":"ce4bh392rcd13ifvqdl0","pricing_plan_id":"cebpf4jnsgd1na2vs0mg"},{"bike_id":"a5d49166-62fe-41bd-8bee-6062b26689ee","system_id":"levelo_inurba_marseille","lat":43.298764,"lon":5.388973,"is_reserved":false,"is_disabled":false,"rental_uris":{"android":"levelo://app?vid=a5d49166-62fe-41bd-8bee-6062b26689ee","ios":"levelo://app?vid=a5d49166-62fe-41bd-8bee-6062b26689ee"},"vehicle_type_id":"4","last_reported":1708395141,"current_range_meters":17200,"station_id":"ce4bh392rcd13ifvqdl0","pricing_plan_id":"cebpf4jnsgd1na2vs0mg"},{"bike_id":"cf1dad42-8471-4eda-ab3b-76e58dbd7a3c","system_id":"levelo_inurba_marseille","lat":43.298764,"lon":5.388973,"is_reserved":false,"is_disabled":false,"rental_uris":{"android":"levelo://app?vid=cf1dad42-8471-4eda-ab3b-76e58dbd7a3c","ios":"levelo://app?vid=cf1dad42-8471-4eda-ab3b-76e58dbd7a3c"},"vehicle_type_id":"4","last_reported":1708395141,"current_range_meters":7200,"station_id":"ce4bh392rcd13ifvqdl0","pricing_plan_id":"cebpf4jnsgd1na2vs0mg"},{"bike_id":"201f7942-fa88-46be-bbf8-8508d424c311","system_id":"levelo_inurba_marseille","lat":43.30888,"lon":5.39631,"is_reserved":false,"is_disabled":false,"rental_uris":{"android":"levelo://app?vid=201f7942-fa88-46be-bbf8-8508d424c311","ios":"levelo://app?vid=201f7942-fa88-46be-bbf8-8508d424c311"},"vehicle_type_id":"4","last_reported":1708395141,"current_range_meters":22800,"station_id":"ce4bh012rcd13ifvqcv0","pricing_plan_id":"cebpf4jnsgd1na2vs0mg"},{"bike_id":"496762b4-ed93-457c-9ad5-0d07e9426156","system_id":"levelo_inurba_marseille","lat":43.291994,"lon":5.357886,"is_reserved":false,"is_disabled":false,"rental_uris":{"android":"levelo://app?vid=496762b4-ed93-457c-9ad5-0d07e9426156","ios":"levelo://app?vid=496762b4-ed93-457c-9ad5-0d07e9426156"},"vehicle_type_id":"4","last_reported":1708395141,"current_range_meters":22800,"station_id":"ce4bhb12rcd13ifvqel0","pricing_plan_id":"cebpf4jnsgd1na2vs0mg"},{"bike_id":"86ae2794-98a4-4c6c-8dc2-0bd9e685c9e5","system_id":"levelo_inurba_marseille","lat":43.291994,"lon":5.357886,"is_reserved":false,"is_disabled":false,"rental_uris":{"android":"levelo://app?vid=86ae2794-98a4-4c6c-8dc2-0bd9e685c9e5","ios":"levelo://app?vid=86ae2794-98a4-4c6c-8dc2-0bd9e685c9e5"},"vehicle_type_id":"4","last_reported":1708395141,"current_range_meters":29600,"station_id":"ce4bhb12rcd13ifvqel0","pricing_plan_id":"cebpf4jnsgd1na2vs0mg"},{"bike_id":"9d0e2900-ebe6-4cd6-bbea-66e9a86adecf","system_id":"levelo_inurba_marseille","lat":43.308898,"lon":5.39637,"is_reserved":false,"is_disabled":false,"rental_uris":{"android":"levelo://app?vid=9d0e2900-ebe6-4cd6-bbea-66e9a86adecf","ios":"levelo://app?vid=9d0e2900-ebe6-4cd6-bbea-66e9a86adecf"},"vehicle_type_id":"4","last_reported":1708395141,"current_range_meters":400,"station_id":"ce4bh012rcd13ifvqcv0","pricing_plan_id":"cebpf4jnsgd1na2vs0mg"},{"bike_id":"022ad871-0efc-4ba3-b813-6250f276730c","system_id":"levelo_inurba_marseille","lat":43.291994,"lon":5.357886,"is_reserved":false,"is_disabled":false,"rental_uris":{"android":"levelo://app?vid=022ad871-0efc-4ba3-b813-6250f276730c","ios":"levelo://app?vid=022ad871-0efc-4ba3-b813-6250f276730c"},"vehicle_type_id":"4","last_reported":1708395141,"current_range_meters":15600,"station_id":"ce4bhb12rcd13ifvqel0","pricing_plan_id":"cebpf4jnsgd1na2vs0mg"},{"bike_id":"c35b1c73-8760-4c1e-af98-17ca5ba0cbcb","system_id":"levelo_inurba_marseille","lat":43.309038,"lon":5.396546,"is_reserved":false,"is_disabled":false,"rental_uris":{"android":"levelo://app?vid=c35b1c73-8760-4c1e-af98-17ca5ba0cbcb","ios":"levelo://app?vid=c35b1c73-8760-4c1e-af98-17ca5ba0cbcb"},"vehicle_type_id":"4","last_reported":1708395141,"current_range_meters":19600,"station_id":"ce4bh012rcd13ifvqcv0","pricing_plan_id":"cebpf4jnsgd1na2vs0mg"},{"bike_id":"6c4f712b-8037-4932-99eb-53873955d2e5","system_id":"levelo_inurba_marseille","lat":43.291994,"lon":5.357886,"is_reserved":false,"is_disabled":false,"rental_uris":{"android":"levelo://app?vid=6c4f712b-8037-4932-99eb-53873955d2e5","ios":"levelo://app?vid=6c4f712b-8037-4932-99eb-53873955d2e5"},"vehicle_type_id":"4","last_reported":1708395141,"current_range_meters":800,"station_id":"ce4bhb12rcd13ifvqel0","pricing_plan_id":"cebpf4jnsgd1na2vs0mg"},{"bike_id":"daad994f-0a65-4295-abe9-ff94b8d658dc","system_id":"levelo_inurba_marseille","lat":43.308842,"lon":5.396376,"is_reserved":false,"is_disabled":false,"rental_uris":{"android":"levelo://app?vid=daad994f-0a65-4295-abe9-ff94b8d658dc","ios":"levelo://app?vid=daad994f-0a65-4295-abe9-ff94b8d658dc"},"vehicle_type_id":"4","last_reported":1708395141,"current_range_meters":0,"station_id":"ce4bh012rcd13ifvqcv0","pricing_plan_id":"cebpf4jnsgd1na2vs0mg"},{"bike_id":"69e2a507-3c2e-43ca-b148-d34ef2fcf556","system_id":"levelo_inurba_marseille","lat":43.30891,"lon":5.396405,"is_reserved":false,"is_disabled":false,"rental_uris":{"android":"levelo://app?vid=69e2a507-3c2e-43ca-b148-d34ef2fcf556","ios":"levelo://app?vid=69e2a507-3c2e-43ca-b148-d34ef2fcf556"},"vehicle_type_id":"4","last_reported":1708395141,"current_range_meters":10800,"station_id":"ce4bh012rcd13ifvqcv0","pricing_plan_id":"cebpf4jnsgd1na2vs0mg"},{"bike_id":"ab0a9637-9204-474a-93e7-da3d26eaf320","system_id":"levelo_inurba_marseille","lat":43.313291,"lon":5.396838,"is_reserved":false,"is_disabled":false,"rental_uris":{"android":"levelo://app?vid=ab0a9637-9204-474a-93e7-da3d26eaf320","ios":"levelo://app?vid=ab0a9637-9204-474a-93e7-da3d26eaf320"},"vehicle_type_id":"4","last_reported":1708395141,"current_range_meters":25200,"station_id":"ce4bgvp2rcd13ifvqcu0","pricing_plan_id":"cebpf4jnsgd1na2vs0mg"},{"bike_id":"4760f9b1-198f-4f50-ad70-2cad0de1d54a","system_id":"levelo_inurba_marseille","lat":43.309038,"lon":5.396546,"is_reserved":false,"is_disabled":false,"rental_uris":{"android":"levelo://app?vid=4760f9b1-198f-4f50-ad70-2cad0de1d54a","ios":"levelo://app?vid=4760f9b1-198f-4f50-ad70-2cad0de1d54a"},"vehicle_type_id":"4","last_reported":1708395141,"current_range_meters":26000,"station_id":"ce4bh012rcd13ifvqcv0","pricing_plan_id":"cebpf4jnsgd1na2vs0mg"},{"bike_id":"b8a24971-25ad-4674-ae1a-8fdff4dab901","system_id":"levelo_inurba_marseille","lat":43.291994,"lon":5.357886,"is_reserved":false,"is_disabled":false,"rental_uris":{"android":"levelo://app?vid=b8a24971-25ad-4674-ae1a-8fdff4dab901","ios":"levelo://app?vid=b8a24971-25ad-4674-ae1a-8fdff4dab901"},"vehicle_type_id":"4","last_reported":1708395141,"current_range_meters":1200,"station_id":"ce4bhb12rcd13ifvqel0","pricing_plan_id":"cebpf4jnsgd1na2vs0mg"},{"bike_id":"f56ab3ba-0120-4e74-8550-905d7dc0e3d1","system_id":"levelo_inurba_marseille","lat":43.309038,"lon":5.396546,"is_reserved":false,"is_disabled":false,"rental_uris":{"android":"levelo://app?vid=f56ab3ba-0120-4e74-8550-905d7dc0e3d1","ios":"levelo://app?vid=f56ab3ba-0120-4e74-8550-905d7dc0e3d1"},"vehicle_type_id":"4","last_reported":1708395141,"current_range_meters":31600,"station_id":"ce4bh012rcd13ifvqcv0","pricing_plan_id":"cebpf4jnsgd1na2vs0mg"},{"bike_id":"5a103a17-b3af-4569-9d8f-18c76ab68a3e","system_id":"levelo_inurba_marseille","lat":43.309038,"lon":5.396546,"is_reserved":false,"is_disabled":false,"rental_uris":{"android":"levelo://app?vid=5a103a17-b3af-4569-9d8f-18c76ab68a3e","ios":"levelo://app?vid=5a103a17-b3af-4569-9d8f-18c76ab68a3e"},"vehicle_type_id":"4","last_reported":1708395141,"current_range_meters":400,"station_id":"ce4bh012rcd13ifvqcv0","pricing_plan_id":"cebpf4jnsgd1na2vs0mg"},{"bike_id":"c256e8eb-5561-44ca-aa79-c951a04ed417","system_id":"levelo_inurba_marseille","lat":43.309038,"lon":5.396546,"is_reserved":false,"is_disabled":false,"rental_uris":{"android":"levelo://app?vid=c256e8eb-5561-44ca-aa79-c951a04ed417","ios":"levelo://app?vid=c256e8eb-5561-44ca-aa79-c951a04ed417"},"vehicle_type_id":"4","last_reported":1708395141,"current_range_meters":21200,"station_id":"ce4bh012rcd13ifvqcv0","pricing_plan_id":"cebpf4jnsgd1na2vs0mg"},{"bike_id":"9f33d0f2-ce92-4065-a003-d3e306806f1d","system_id":"levelo_inurba_marseille","lat":43.308871,"lon":5.396443,"is_reserved":false,"is_disabled":false,"rental_uris":{"android":"levelo://app?vid=9f33d0f2-ce92-4065-a003-d3e306806f1d","ios":"levelo://app?vid=9f33d0f2-ce92-4065-a003-d3e306806f1d"},"vehicle_type_id":"4","last_reported":1708395141,"current_range_meters":23200,"station_id":"ce4bh012rcd13ifvqcv0","pricing_plan_id":"cebpf4jnsgd1na2vs0mg"},{"bike_id":"cb0639bd-179f-44e0-989b-e3b6a05b75a4","system_id":"levelo_inurba_marseille","lat":43.309038,"lon":5.396546,"is_reserved":false,"is_disabled":false,"rental_uris":{"android":"levelo://app?vid=cb0639bd-179f-44e0-989b-e3b6a05b75a4","ios":"levelo://app?vid=cb0639bd-179f-44e0-989b-e3b6a05b75a4"},"vehicle_type_id":"4","last_reported":1708395141,"current_range_meters":6800,"station_id":"ce4bh012rcd13ifvqcv0","pricing_plan_id":"cebpf4jnsgd1na2vs0mg"},{"bike_id":"459f022d-a2e8-40be-a89b-61f69356a3de","system_id":"levelo_inurba_marseille","lat":43.313291,"lon":5.396838,"is_reserved":false,"is_disabled":false,"rental_uris":{"android":"levelo://app?vid=459f022d-a2e8-40be-a89b-61f69356a3de","ios":"levelo://app?vid=459f022d-a2e8-40be-a89b-61f69356a3de"},"vehicle_type_id":"4","last_reported":1708395141,"current_range_meters":16000,"station_id":"ce4bgvp2rcd13ifvqcu0","pricing_plan_id":"cebpf4jnsgd1na2vs0mg"},{"bike_id":"da367d11-5361-4c10-82f2-f255d1ad2afe","system_id":"levelo_inurba_marseille","lat":43.308859,"lon":5.396471,"is_reserved":false,"is_disabled":false,"rental_uris":{"android":"levelo://app?vid=da367d11-5361-4c10-82f2-f255d1ad2afe","ios":"levelo://app?vid=da367d11-5361-4c10-82f2-f255d1ad2afe"},"vehicle_type_id":"4","last_reported":1708395141,"current_range_meters":6000,"station_id":"ce4bh012rcd13ifvqcv0","pricing_plan_id":"cebpf4jnsgd1na2vs0mg"},{"bike_id":"0363c036-45a3-429e-ad04-d981cdc4b432","system_id":"levelo_inurba_marseille","lat":43.308868,"lon":5.396473,"is_reserved":false,"is_disabled":false,"rental_uris":{"android":"levelo://app?vid=0363c036-45a3-429e-ad04-d981cdc4b432","ios":"levelo://app?vid=0363c036-45a3-429e-ad04-d981cdc4b432"},"vehicle_type_id":"4","last_reported":1708395141,"current_range_meters":24000,"station_id":"ce4bh012rcd13ifvqcv0","pricing_plan_id":"cebpf4jnsgd1na2vs0mg"},{"bike_id":"c5851c0f-3d56-4a61-9402-4308a5c9f91c","system_id":"levelo_inurba_marseille","lat":43.313291,"lon":5.396838,"is_reserved":false,"is_disabled":false,"rental_uris":{"android":"levelo://app?vid=c5851c0f-3d56-4a61-9402-4308a5c9f91c","ios":"levelo://app?vid=c5851c0f-3d56-4a61-9402-4308a5c9f91c"},"vehicle_type_id":"4","last_reported":1708395141,"current_range_meters":24400,"station_id":"ce4bgvp2rcd13ifvqcu0","pricing_plan_id":"cebpf4jnsgd1na2vs0mg"},{"bike_id":"aa267cf0-a8e2-4082-ba2e-7ea6faa77ed2","system_id":"levelo_inurba_marseille","lat":43.30884,"lon":5.39651,"is_reserved":false,"is_disabled":false,"rental_uris":{"android":"levelo://app?vid=aa267cf0-a8e2-4082-ba2e-7ea6faa77ed2","ios":"levelo://app?vid=aa267cf0-a8e2-4082-ba2e-7ea6faa77ed2"},"vehicle_type_id":"4","last_reported":1708395141,"current_range_meters":12400,"station_id":"ce4bh012rcd13ifvqcv0","pricing_plan_id":"cebpf4jnsgd1na2vs0mg"},{"bike_id":"a619fa89-d203-4d0b-b4e8-60a694c73f4d","system_id":"levelo_inurba_marseille","lat":43.313291,"lon":5.396838,"is_reserved":false,"is_disabled":false,"rental_uris":{"android":"levelo://app?vid=a619fa89-d203-4d0b-b4e8-60a694c73f4d","ios":"levelo://app?vid=a619fa89-d203-4d0b-b4e8-60a694c73f4d"},"vehicle_type_id":"4","last_reported":1708395141,"current_range_meters":26000,"station_id":"ce4bgvp2rcd13ifvqcu0","pricing_plan_id":"cebpf4jnsgd1na2vs0mg"},{"bike_id":"3cd5ba5c-ab88-4937-935c-89f0e00fff91","system_id":"levelo_inurba_marseille","lat":43.313291,"lon":5.396838,"is_reserved":false,"is_disabled":false,"rental_uris":{"android":"levelo://app?vid=3cd5ba5c-ab88-4937-935c-89f0e00fff91","ios":"levelo://app?vid=3cd5ba5c-ab88-4937-935c-89f0e00fff91"},"vehicle_type_id":"4","last_reported":1708395141,"current_range_meters":0,"station_id":"ce4bgvp2rcd13ifvqcu0","pricing_plan_id":"cebpf4jnsgd1na2vs0mg"},{"bike_id":"5c2bb1cb-cdf1-4d3e-a120-6a49abc38c4f","system_id":"levelo_inurba_marseille","lat":43.30867,"lon":5.39653,"is_reserved":false,"is_disabled":false,"rental_uris":{"android":"levelo://app?vid=5c2bb1cb-cdf1-4d3e-a120-6a49abc38c4f","ios":"levelo://app?vid=5c2bb1cb-cdf1-4d3e-a120-6a49abc38c4f"},"vehicle_type_id":"4","last_reported":1708395141,"current_range_meters":21600,"station_id":"ce4bh012rcd13ifvqcv0","pricing_plan_id":"cebpf4jnsgd1na2vs0mg"},{"bike_id":"3d03c3fc-bbbe-4f4f-845e-c21932c1a48c","system_id":"levelo_inurba_marseille","lat":43.29074,"lon":5.36611,"is_reserved":false,"is_disabled":false,"rental_uris":{"android":"levelo://app?vid=3d03c3fc-bbbe-4f4f-845e-c21932c1a48c","ios":"levelo://app?vid=3d03c3fc-bbbe-4f4f-845e-c21932c1a48c"},"vehicle_type_id":"4","last_reported":1708395141,"current_range_meters":15200,"station_id":"","pricing_plan_id":"cebpf4jnsgd1na2vs0mg"},{"bike_id":"0d9cf5fb-184d-4354-a8b8-3dcc6ac92401","system_id":"levelo_inurba_marseille","lat":43.290567,"lon":5.371427,"is_reserved":false,"is_disabled":false,"rental_uris":{"android":"levelo://app?vid=0d9cf5fb-184d-4354-a8b8-3dcc6ac92401","ios":"levelo://app?vid=0d9cf5fb-184d-4354-a8b8-3dcc6ac92401"},"vehicle_type_id":"4","last_reported":1708395141,"current_range_meters":27200,"station_id":"ce4bh5p2rcd13ifvqe4g","pricing_plan_id":"cebpf4jnsgd1na2vs0mg"},{"bike_id":"496089c7-353d-4481-ba0a-065883f649b8","system_id":"levelo_inurba_marseille","lat":43.302171,"lon":5.394646,"is_reserved":false,"is_disabled":false,"rental_uris":{"android":"levelo://app?vid=496089c7-353d-4481-ba0a-065883f649b8","ios":"levelo://app?vid=496089c7-353d-4481-ba0a-065883f649b8"},"vehicle_type_id":"4","last_reported":1708395141,"current_range_meters":19600,"station_id":"ce4bh0p2rcd13ifvqd70","pricing_plan_id":"cebpf4jnsgd1na2vs0mg"},{"bike_id":"1a5925eb-b513-44e9-bdb4-da13b640e4e0","system_id":"levelo_inurba_marseille","lat":43.302008,"lon":5.394694,"is_reserved":false,"is_disabled":false,"rental_uris":{"android":"levelo://app?vid=1a5925eb-b513-44e9-bdb4-da13b640e4e0","ios":"levelo://app?vid=1a5925eb-b513-44e9-bdb4-da13b640e4e0"},"vehicle_type_id":"4","last_reported":1708395141,"current_range_meters":29200,"station_id":"ce4bh0p2rcd13ifvqd70","pricing_plan_id":"cebpf4jnsgd1na2vs0mg"},{"bike_id":"113b5df0-06f8-432e-9644-6329de3156dc","system_id":"levelo_inurba_marseille","lat":43.302008,"lon":5.394694,"is_reserved":false,"is_disabled":false,"rental_uris":{"android":"levelo://app?vid=113b5df0-06f8-432e-9644-6329de3156dc","ios":"levelo://app?vid=113b5df0-06f8-432e-9644-6329de3156dc"},"vehicle_type_id":"4","last_reported":1708395141,"current_range_meters":27200,"station_id":"ce4bh0p2rcd13ifvqd70","pricing_plan_id":"cebpf4jnsgd1na2vs0mg"},{"bike_id":"b6cd31dd-281f-45fb-9af6-e06c079793aa","system_id":"levelo_inurba_marseille","lat":43.302032,"lon":5.39459,"is_reserved":false,"is_disabled":false,"rental_uris":{"android":"levelo://app?vid=b6cd31dd-281f-45fb-9af6-e06c079793aa","ios":"levelo://app?vid=b6cd31dd-281f-45fb-9af6-e06c079793aa"},"vehicle_type_id":"4","last_reported":1708395141,"current_range_meters":27200,"station_id":"ce4bh0p2rcd13ifvqd70","pricing_plan_id":"cebpf4jnsgd1na2vs0mg"},{"bike_id":"ddfe9a5e-8d45-4eb0-bf2d-b08104b9e6f3","system_id":"levelo_inurba_marseille","lat":43.30208,"lon":5.39474,"is_reserved":false,"is_disabled":false,"rental_uris":{"android":"levelo://app?vid=ddfe9a5e-8d45-4eb0-bf2d-b08104b9e6f3","ios":"levelo://app?vid=ddfe9a5e-8d45-4eb0-bf2d-b08104b9e6f3"},"vehicle_type_id":"4","last_reported":1708395141,"current_range_meters":4400,"station_id":"ce4bh0p2rcd13ifvqd70","pricing_plan_id":"cebpf4jnsgd1na2vs0mg"},{"bike_id":"e680bc29-0f0d-4cb2-9234-d730de5b9ff5","system_id":"levelo_inurba_marseille","lat":43.302008,"lon":5.394694,"is_reserved":false,"is_disabled":false,"rental_uris":{"android":"levelo://app?vid=e680bc29-0f0d-4cb2-9234-d730de5b9ff5","ios":"levelo://app?vid=e680bc29-0f0d-4cb2-9234-d730de5b9ff5"},"vehicle_type_id":"4","last_reported":1708395141,"current_range_meters":24400,"station_id":"ce4bh0p2rcd13ifvqd70","pricing_plan_id":"cebpf4jnsgd1na2vs0mg"},{"bike_id":"9c7e6b98-a4b4-401e-8f43-02ee1cb7f319","system_id":"levelo_inurba_marseille","lat":43.302008,"lon":5.394694,"is_reserved":false,"is_disabled":false,"rental_uris":{"android":"levelo://app?vid=9c7e6b98-a4b4-401e-8f43-02ee1cb7f319","ios":"levelo://app?vid=9c7e6b98-a4b4-401e-8f43-02ee1cb7f319"},"vehicle_type_id":"4","last_reported":1708395141,"current_range_meters":30400,"station_id":"ce4bh0p2rcd13ifvqd70","pricing_plan_id":"cebpf4jnsgd1na2vs0mg"},{"bike_id":"3554f62c-eace-48ed-829e-b36afdb688b9","system_id":"levelo_inurba_marseille","lat":43.302052,"lon":5.394779,"is_reserved":false,"is_disabled":false,"rental_uris":{"android":"levelo://app?vid=3554f62c-eace-48ed-829e-b36afdb688b9","ios":"levelo://app?vid=3554f62c-eace-48ed-829e-b36afdb688b9"},"vehicle_type_id":"4","last_reported":1708395141,"current_range_meters":25600,"station_id":"ce4bh0p2rcd13ifvqd70","pricing_plan_id":"cebpf4jnsgd1na2vs0mg"},{"bike_id":"5dc83fb2-0629-4ad0-be5e-663f24091090","system_id":"levelo_inurba_marseille","lat":43.290624,"lon":5.359245,"is_reserved":false,"is_disabled":false,"rental_uris":{"android":"levelo://app?vid=5dc83fb2-0629-4ad0-be5e-663f24091090","ios":"levelo://app?vid=5dc83fb2-0629-4ad0-be5e-663f24091090"},"vehicle_type_id":"4","last_reported":1708395141,"current_range_meters":25600,"station_id":"ce4bha92rcd13ifvqeg0","pricing_plan_id":"cebpf4jnsgd1na2vs0mg"},{"bike_id":"c662e9d1-5a66-4b42-822d-fcc8221d0a4e","system_id":"levelo_inurba_marseille","lat":43.290631,"lon":5.359244,"is_reserved":false,"is_disabled":false,"rental_uris":{"android":"levelo://app?vid=c662e9d1-5a66-4b42-822d-fcc8221d0a4e","ios":"levelo://app?vid=c662e9d1-5a66-4b42-822d-fcc8221d0a4e"},"vehicle_type_id":"4","last_reported":1708395141,"current_range_meters":29200,"station_id":"ce4bha92rcd13ifvqeg0","pricing_plan_id":"cebpf4jnsgd1na2vs0mg"},{"bike_id":"a32df588-7861-4d35-8a36-3120498d3b8f","system_id":"levelo_inurba_marseille","lat":43.290631,"lon":5.359244,"is_reserved":false,"is_disabled":false,"rental_uris":{"android":"levelo://app?vid=a32df588-7861-4d35-8a36-3120498d3b8f","ios":"levelo://app?vid=a32df588-7861-4d35-8a36-3120498d3b8f"},"vehicle_type_id":"4","last_reported":1708395141,"current_range_meters":31200,"station_id":"ce4bha92rcd13ifvqeg0","pricing_plan_id":"cebpf4jnsgd1na2vs0mg"},{"bike_id":"5d03cc1e-44e0-4eed-bdba-6983e04ab8f5","system_id":"levelo_inurba_marseille","lat":43.290631,"lon":5.359244,"is_reserved":false,"is_disabled":false,"rental_uris":{"android":"levelo://app?vid=5d03cc1e-44e0-4eed-bdba-6983e04ab8f5","ios":"levelo://app?vid=5d03cc1e-44e0-4eed-bdba-6983e04ab8f5"},"vehicle_type_id":"4","last_reported":1708395141,"current_range_meters":22800,"station_id":"ce4bha92rcd13ifvqeg0","pricing_plan_id":"cebpf4jnsgd1na2vs0mg"},{"bike_id":"f3621e31-2802-4d00-9575-e569e4cadbd9","system_id":"levelo_inurba_marseille","lat":43.290624,"lon":5.359245,"is_reserved":false,"is_disabled":false,"rental_uris":{"android":"levelo://app?vid=f3621e31-2802-4d00-9575-e569e4cadbd9","ios":"levelo://app?vid=f3621e31-2802-4d00-9575-e569e4cadbd9"},"vehicle_type_id":"4","last_reported":1708395141,"current_range_meters":29600,"station_id":"ce4bha92rcd13ifvqeg0","pricing_plan_id":"cebpf4jnsgd1na2vs0mg"},{"bike_id":"9cb81755-54e4-46ac-a6e0-9ac2f7559b2a","system_id":"levelo_inurba_marseille","lat":43.294153,"lon":5.386305,"is_reserved":false,"is_disabled":false,"rental_uris":{"android":"levelo://app?vid=9cb81755-54e4-46ac-a6e0-9ac2f7559b2a","ios":"levelo://app?vid=9cb81755-54e4-46ac-a6e0-9ac2f7559b2a"},"vehicle_type_id":"4","last_reported":1708395141,"current_range_meters":30400,"station_id":"ce4bh2h2rcd13ifvqdh0","pricing_plan_id":"cebpf4jnsgd1na2vs0mg"},{"bike_id":"d5d47f8c-3d8a-464e-86bc-8dfa7522ca40","system_id":"levelo_inurba_marseille","lat":43.290327,"lon":5.375711,"is_reserved":false,"is_disabled":false,"rental_uris":{"android":"levelo://app?vid=d5d47f8c-3d8a-464e-86bc-8dfa7522ca40","ios":"levelo://app?vid=d5d47f8c-3d8a-464e-86bc-8dfa7522ca40"},"vehicle_type_id":"4","last_reported":1708395141,"current_range_meters":18000,"station_id":"ce4bh692rcd13ifvqe90","pricing_plan_id":"cebpf4jnsgd1na2vs0mg"},{"bike_id":"0c7a0d5d-6c59-49e5-877a-8bcd82d44732","system_id":"levelo_inurba_marseille","lat":43.29031,"lon":5.3755,"is_reserved":false,"is_disabled":false,"rental_uris":{"android":"levelo://app?vid=0c7a0d5d-6c59-49e5-877a-8bcd82d44732","ios":"levelo://app?vid=0c7a0d5d-6c59-49e5-877a-8bcd82d44732"},"vehicle_type_id":"4","last_reported":1708395141,"current_range_meters":30400,"station_id":"ce4bh692rcd13ifvqe90","pricing_plan_id":"cebpf4jnsgd1na2vs0mg"},{"bike_id":"432661e7-96fd-4027-8311-a20c94a0b10d","system_id":"levelo_inurba_marseille","lat":43.289184,"lon":5.366408,"is_reserved":false,"is_disabled":false,"rental_uris":{"android":"levelo://app?vid=432661e7-96fd-4027-8311-a20c94a0b10d","ios":"levelo://app?vid=432661e7-96fd-4027-8311-a20c94a0b10d"},"vehicle_type_id":"4","last_reported":1708395141,"current_range_meters":31200,"station_id":"ce4bhap2rcd13ifvqek0","pricing_plan_id":"cebpf4jnsgd1na2vs0mg"},{"bike_id":"ba2ad5c0-8994-43c1-817c-9699909bb27a","system_id":"levelo_inurba_marseille","lat":43.289184,"lon":5.366408,"is_reserved":false,"is_disabled":false,"rental_uris":{"android":"levelo://app?vid=ba2ad5c0-8994-43c1-817c-9699909bb27a","ios":"levelo://app?vid=ba2ad5c0-8994-43c1-817c-9699909bb27a"},"vehicle_type_id":"4","last_reported":1708395141,"current_range_meters":8800,"station_id":"ce4bhap2rcd13ifvqek0","pricing_plan_id":"cebpf4jnsgd1na2vs0mg"},{"bike_id":"7be16c38-c126-4ef6-bb63-caf198488d69","system_id":"levelo_inurba_marseille","lat":43.289184,"lon":5.366408,"is_reserved":false,"is_disabled":false,"rental_uris":{"android":"levelo://app?vid=7be16c38-c126-4ef6-bb63-caf198488d69","ios":"levelo://app?vid=7be16c38-c126-4ef6-bb63-caf198488d69"},"vehicle_type_id":"4","last_reported":1708395141,"current_range_meters":24000,"station_id":"ce4bhap2rcd13ifvqek0","pricing_plan_id":"cebpf4jnsgd1na2vs0mg"},{"bike_id":"c330d24c-5923-4cbc-afee-64809bfbfe80","system_id":"levelo_inurba_marseille","lat":43.289184,"lon":5.366408,"is_reserved":false,"is_disabled":false,"rental_uris":{"android":"levelo://app?vid=c330d24c-5923-4cbc-afee-64809bfbfe80","ios":"levelo://app?vid=c330d24c-5923-4cbc-afee-64809bfbfe80"},"vehicle_type_id":"4","last_reported":1708395141,"current_range_meters":20800,"station_id":"ce4bhap2rcd13ifvqek0","pricing_plan_id":"cebpf4jnsgd1na2vs0mg"},{"bike_id":"6f019a7d-b778-4691-a788-a594b7368705","system_id":"levelo_inurba_marseille","lat":43.289184,"lon":5.366408,"is_reserved":false,"is_disabled":false,"rental_uris":{"android":"levelo://app?vid=6f019a7d-b778-4691-a788-a594b7368705","ios":"levelo://app?vid=6f019a7d-b778-4691-a788-a594b7368705"},"vehicle_type_id":"4","last_reported":1708395141,"current_range_meters":30800,"station_id":"ce4bhap2rcd13ifvqek0","pricing_plan_id":"cebpf4jnsgd1na2vs0mg"},{"bike_id":"928d02b9-9129-451a-819b-290af6119de7","system_id":"levelo_inurba_marseille","lat":43.289184,"lon":5.366408,"is_reserved":false,"is_disabled":false,"rental_uris":{"android":"levelo://app?vid=928d02b9-9129-451a-819b-290af6119de7","ios":"levelo://app?vid=928d02b9-9129-451a-819b-290af6119de7"},"vehicle_type_id":"4","last_reported":1708395141,"current_range_meters":13200,"station_id":"ce4bhap2rcd13ifvqek0","pricing_plan_id":"cebpf4jnsgd1na2vs0mg"},{"bike_id":"3f8382e4-3f83-4df9-802a-b68d482de802","system_id":"levelo_inurba_marseille","lat":43.289184,"lon":5.366408,"is_reserved":false,"is_disabled":false,"rental_uris":{"android":"levelo://app?vid=3f8382e4-3f83-4df9-802a-b68d482de802","ios":"levelo://app?vid=3f8382e4-3f83-4df9-802a-b68d482de802"},"vehicle_type_id":"4","last_reported":1708395141,"current_range_meters":16000,"station_id":"ce4bhap2rcd13ifvqek0","pricing_plan_id":"cebpf4jnsgd1na2vs0mg"},{"bike_id":"1d99a48e-6ac5-45e6-aab6-9e7a6d3f3598","system_id":"levelo_inurba_marseille","lat":43.289184,"lon":5.366408,"is_reserved":false,"is_disabled":false,"rental_uris":{"android":"levelo://app?vid=1d99a48e-6ac5-45e6-aab6-9e7a6d3f3598","ios":"levelo://app?vid=1d99a48e-6ac5-45e6-aab6-9e7a6d3f3598"},"vehicle_type_id":"4","last_reported":1708395141,"current_range_meters":24000,"station_id":"ce4bhap2rcd13ifvqek0","pricing_plan_id":"cebpf4jnsgd1na2vs0mg"},{"bike_id":"a33ca92a-352c-4ec0-a9a8-b8728f3cc3cf","system_id":"levelo_inurba_marseille","lat":43.289468,"lon":5.363719,"is_reserved":false,"is_disabled":false,"rental_uris":{"android":"levelo://app?vid=a33ca92a-352c-4ec0-a9a8-b8728f3cc3cf","ios":"levelo://app?vid=a33ca92a-352c-4ec0-a9a8-b8728f3cc3cf"},"vehicle_type_id":"4","last_reported":1708395141,"current_range_meters":26800,"station_id":"ce4bhc92rcd13ifvqetg","pricing_plan_id":"cebpf4jnsgd1na2vs0mg"},{"bike_id":"73d6d1b3-0fb1-4dda-a310-1d0b519c47a2","system_id":"levelo_inurba_marseille","lat":43.289468,"lon":5.363719,"is_reserved":false,"is_disabled":false,"rental_uris":{"android":"levelo://app?vid=73d6d1b3-0fb1-4dda-a310-1d0b519c47a2","ios":"levelo://app?vid=73d6d1b3-0fb1-4dda-a310-1d0b519c47a2"},"vehicle_type_id":"4","last_reported":1708395141,"current_range_meters":4000,"station_id":"ce4bhc92rcd13ifvqetg","pricing_plan_id":"cebpf4jnsgd1na2vs0mg"},{"bike_id":"2a213f6e-ebaa-4f39-b5a6-e49b725a1e90","system_id":"levelo_inurba_marseille","lat":43.289184,"lon":5.366408,"is_reserved":false,"is_disabled":false,"rental_uris":{"android":"levelo://app?vid=2a213f6e-ebaa-4f39-b5a6-e49b725a1e90","ios":"levelo://app?vid=2a213f6e-ebaa-4f39-b5a6-e49b725a1e90"},"vehicle_type_id":"4","last_reported":1708395141,"current_range_meters":26800,"station_id":"ce4bhap2rcd13ifvqek0","pricing_plan_id":"cebpf4jnsgd1na2vs0mg"},{"bike_id":"4205f57d-942f-4c21-9089-4ab70f47911f","system_id":"levelo_inurba_marseille","lat":43.289468,"lon":5.363719,"is_reserved":false,"is_disabled":false,"rental_uris":{"android":"levelo://app?vid=4205f57d-942f-4c21-9089-4ab70f47911f","ios":"levelo://app?vid=4205f57d-942f-4c21-9089-4ab70f47911f"},"vehicle_type_id":"4","last_reported":1708395141,"current_range_meters":400,"station_id":"ce4bhc92rcd13ifvqetg","pricing_plan_id":"cebpf4jnsgd1na2vs0mg"},{"bike_id":"39fb3a0b-b636-4855-b308-d8301b774522","system_id":"levelo_inurba_marseille","lat":43.289468,"lon":5.363719,"is_reserved":false,"is_disabled":false,"rental_uris":{"android":"levelo://app?vid=39fb3a0b-b636-4855-b308-d8301b774522","ios":"levelo://app?vid=39fb3a0b-b636-4855-b308-d8301b774522"},"vehicle_type_id":"4","last_reported":1708395141,"current_range_meters":26000,"station_id":"ce4bhc92rcd13ifvqetg","pricing_plan_id":"cebpf4jnsgd1na2vs0mg"},{"bike_id":"a0adad83-c911-4527-9595-004dd160d60c","system_id":"levelo_inurba_marseille","lat":43.289184,"lon":5.366408,"is_reserved":false,"is_disabled":false,"rental_uris":{"android":"levelo://app?vid=a0adad83-c911-4527-9595-004dd160d60c","ios":"levelo://app?vid=a0adad83-c911-4527-9595-004dd160d60c"},"vehicle_type_id":"4","last_reported":1708395141,"current_range_meters":30000,"station_id":"ce4bhap2rcd13ifvqek0","pricing_plan_id":"cebpf4jnsgd1na2vs0mg"},{"bike_id":"59a536ae-f8eb-4c3d-a5d3-425b1f774399","system_id":"levelo_inurba_marseille","lat":43.289184,"lon":5.366408,"is_reserved":false,"is_disabled":false,"rental_uris":{"android":"levelo://app?vid=59a536ae-f8eb-4c3d-a5d3-425b1f774399","ios":"levelo://app?vid=59a536ae-f8eb-4c3d-a5d3-425b1f774399"},"vehicle_type_id":"4","last_reported":1708395141,"current_range_meters":22800,"station_id":"ce4bhap2rcd13ifvqek0","pricing_plan_id":"cebpf4jnsgd1na2vs0mg"},{"bike_id":"5ecdddfd-b0ec-422e-b2e0-2b508a4c4140","system_id":"levelo_inurba_marseille","lat":43.289468,"lon":5.363719,"is_reserved":false,"is_disabled":false,"rental_uris":{"android":"levelo://app?vid=5ecdddfd-b0ec-422e-b2e0-2b508a4c4140","ios":"levelo://app?vid=5ecdddfd-b0ec-422e-b2e0-2b508a4c4140"},"vehicle_type_id":"4","last_reported":1708395141,"current_range_meters":31600,"station_id":"ce4bhc92rcd13ifvqetg","pricing_plan_id":"cebpf4jnsgd1na2vs0mg"},{"bike_id":"a6546b50-d234-4f6a-aa1e-f89413b59276","system_id":"levelo_inurba_marseille","lat":43.289468,"lon":5.363719,"is_reserved":false,"is_disabled":false,"rental_uris":{"android":"levelo://app?vid=a6546b50-d234-4f6a-aa1e-f89413b59276","ios":"levelo://app?vid=a6546b50-d234-4f6a-aa1e-f89413b59276"},"vehicle_type_id":"4","last_reported":1708395141,"current_range_meters":5200,"station_id":"ce4bhc92rcd13ifvqetg","pricing_plan_id":"cebpf4jnsgd1na2vs0mg"},{"bike_id":"16f66772-ff6f-4ff1-b4f6-67d25471b367","system_id":"levelo_inurba_marseille","lat":43.291113,"lon":5.379507,"is_reserved":false,"is_disabled":false,"rental_uris":{"android":"levelo://app?vid=16f66772-ff6f-4ff1-b4f6-67d25471b367","ios":"levelo://app?vid=16f66772-ff6f-4ff1-b4f6-67d25471b367"},"vehicle_type_id":"4","last_reported":1708395141,"current_range_meters":13200,"station_id":"","pricing_plan_id":"cebpf4jnsgd1na2vs0mg"},{"bike_id":"7b7676e9-5eed-4d94-955a-14e3604088fd","system_id":"levelo_inurba_marseille","lat":43.30423,"lon":5.39753,"is_reserved":false,"is_disabled":false,"rental_uris":{"android":"levelo://app?vid=7b7676e9-5eed-4d94-955a-14e3604088fd","ios":"levelo://app?vid=7b7676e9-5eed-4d94-955a-14e3604088fd"},"vehicle_type_id":"4","last_reported":1708395141,"current_range_meters":12400,"station_id":"ce4bh092rcd13ifvqd20","pricing_plan_id":"cebpf4jnsgd1na2vs0mg"},{"bike_id":"1dd425e9-d89a-4526-b117-0f5b57a19623","system_id":"levelo_inurba_marseille","lat":43.304274,"lon":5.397513,"is_reserved":false,"is_disabled":false,"rental_uris":{"android":"levelo://app?vid=1dd425e9-d89a-4526-b117-0f5b57a19623","ios":"levelo://app?vid=1dd425e9-d89a-4526-b117-0f5b57a19623"},"vehicle_type_id":"4","last_reported":1708395141,"current_range_meters":27200,"station_id":"ce4bh092rcd13ifvqd20","pricing_plan_id":"cebpf4jnsgd1na2vs0mg"},{"bike_id":"69f23b6b-1b1b-4c1b-8ed9-cf839796284b","system_id":"levelo_inurba_marseille","lat":43.304296,"lon":5.397513,"is_reserved":false,"is_disabled":false,"rental_uris":{"android":"levelo://app?vid=69f23b6b-1b1b-4c1b-8ed9-cf839796284b","ios":"levelo://app?vid=69f23b6b-1b1b-4c1b-8ed9-cf839796284b"},"vehicle_type_id":"4","last_reported":1708395141,"current_range_meters":27200,"station_id":"ce4bh092rcd13ifvqd20","pricing_plan_id":"cebpf4jnsgd1na2vs0mg"},{"bike_id":"6ff16ab2-61d1-4c5d-9cc6-1f9c4599538b","system_id":"levelo_inurba_marseille","lat":43.290104,"lon":5.356111,"is_reserved":false,"is_disabled":false,"rental_uris":{"android":"levelo://app?vid=6ff16ab2-61d1-4c5d-9cc6-1f9c4599538b","ios":"levelo://app?vid=6ff16ab2-61d1-4c5d-9cc6-1f9c4599538b"},"vehicle_type_id":"4","last_reported":1708395141,"current_range_meters":11600,"station_id":"ce4bhb92rcd13ifvqen0","pricing_plan_id":"cebpf4jnsgd1na2vs0mg"},{"bike_id":"64c8a977-e817-4529-bbbf-d54830de4873","system_id":"levelo_inurba_marseille","lat":43.29103,"lon":5.38085,"is_reserved":false,"is_disabled":false,"rental_uris":{"android":"levelo://app?vid=64c8a977-e817-4529-bbbf-d54830de4873","ios":"levelo://app?vid=64c8a977-e817-4529-bbbf-d54830de4873"},"vehicle_type_id":"4","last_reported":1708395141,"current_range_meters":14800,"station_id":"","pricing_plan_id":"cebpf4jnsgd1na2vs0mg"},{"bike_id":"c99665f8-a7e4-43be-af3f-5ad7ea54612e","system_id":"levelo_inurba_marseille","lat":43.2901,"lon":5.35607,"is_reserved":false,"is_disabled":false,"rental_uris":{"android":"levelo://app?vid=c99665f8-a7e4-43be-af3f-5ad7ea54612e","ios":"levelo://app?vid=c99665f8-a7e4-43be-af3f-5ad7ea54612e"},"vehicle_type_id":"4","last_reported":1708395141,"current_range_meters":9200,"station_id":"ce4bhb92rcd13ifvqen0","pricing_plan_id":"cebpf4jnsgd1na2vs0mg"},{"bike_id":"51fcb553-328b-4378-883e-f75dce8ab826","system_id":"levelo_inurba_marseille","lat":43.290103,"lon":5.356114,"is_reserved":false,"is_disabled":false,"rental_uris":{"android":"levelo://app?vid=51fcb553-328b-4378-883e-f75dce8ab826","ios":"levelo://app?vid=51fcb553-328b-4378-883e-f75dce8ab826"},"vehicle_type_id":"4","last_reported":1708395141,"current_range_meters":25200,"station_id":"ce4bhb92rcd13ifvqen0","pricing_plan_id":"cebpf4jnsgd1na2vs0mg"},{"bike_id":"9a9240be-325a-4969-a362-4e84aed35f49","system_id":"levelo_inurba_marseille","lat":43.290104,"lon":5.356111,"is_reserved":false,"is_disabled":false,"rental_uris":{"android":"levelo://app?vid=9a9240be-325a-4969-a362-4e84aed35f49","ios":"levelo://app?vid=9a9240be-325a-4969-a362-4e84aed35f49"},"vehicle_type_id":"4","last_reported":1708395141,"current_range_meters":22400,"station_id":"ce4bhb92rcd13ifvqen0","pricing_plan_id":"cebpf4jnsgd1na2vs0mg"},{"bike_id":"e2fde6be-2cb6-4572-b699-27121c055eea","system_id":"levelo_inurba_marseille","lat":43.29005,"lon":5.35615,"is_reserved":false,"is_disabled":false,"rental_uris":{"android":"levelo://app?vid=e2fde6be-2cb6-4572-b699-27121c055eea","ios":"levelo://app?vid=e2fde6be-2cb6-4572-b699-27121c055eea"},"vehicle_type_id":"4","last_reported":1708395141,"current_range_meters":30000,"station_id":"ce4bhb92rcd13ifvqen0","pricing_plan_id":"cebpf4jnsgd1na2vs0mg"},{"bike_id":"1df3f504-5781-4d50-bc6c-d04624e9c380","system_id":"levelo_inurba_marseille","lat":43.29005,"lon":5.35612,"is_reserved":false,"is_disabled":false,"rental_uris":{"android":"levelo://app?vid=1df3f504-5781-4d50-bc6c-d04624e9c380","ios":"levelo://app?vid=1df3f504-5781-4d50-bc6c-d04624e9c380"},"vehicle_type_id":"4","last_reported":1708395141,"current_range_meters":18800,"station_id":"ce4bhb92rcd13ifvqen0","pricing_plan_id":"cebpf4jnsgd1na2vs0mg"},{"bike_id":"4e1c869c-37a3-40e1-b2da-e575043abfaf","system_id":"levelo_inurba_marseille","lat":43.290055,"lon":5.356085,"is_reserved":false,"is_disabled":false,"rental_uris":{"android":"levelo://app?vid=4e1c869c-37a3-40e1-b2da-e575043abfaf","ios":"levelo://app?vid=4e1c869c-37a3-40e1-b2da-e575043abfaf"},"vehicle_type_id":"4","last_reported":1708395141,"current_range_meters":25200,"station_id":"ce4bhb92rcd13ifvqen0","pricing_plan_id":"cebpf4jnsgd1na2vs0mg"},{"bike_id":"c95ad3f9-ba14-4d47-9a17-91e5a028ceff","system_id":"levelo_inurba_marseille","lat":43.290103,"lon":5.356114,"is_reserved":false,"is_disabled":false,"rental_uris":{"android":"levelo://app?vid=c95ad3f9-ba14-4d47-9a17-91e5a028ceff","ios":"levelo://app?vid=c95ad3f9-ba14-4d47-9a17-91e5a028ceff"},"vehicle_type_id":"4","last_reported":1708395141,"current_range_meters":25200,"station_id":"ce4bhb92rcd13ifvqen0","pricing_plan_id":"cebpf4jnsgd1na2vs0mg"},{"bike_id":"9f48c0a5-b975-43ed-b2b9-63f1785c40b1","system_id":"levelo_inurba_marseille","lat":43.290104,"lon":5.356111,"is_reserved":false,"is_disabled":false,"rental_uris":{"android":"levelo://app?vid=9f48c0a5-b975-43ed-b2b9-63f1785c40b1","ios":"levelo://app?vid=9f48c0a5-b975-43ed-b2b9-63f1785c40b1"},"vehicle_type_id":"4","last_reported":1708395141,"current_range_meters":18400,"station_id":"ce4bhb92rcd13ifvqen0","pricing_plan_id":"cebpf4jnsgd1na2vs0mg"},{"bike_id":"a28d0f7d-ff3d-458a-916a-a0efc1611ef6","system_id":"levelo_inurba_marseille","lat":43.290023,"lon":5.356139,"is_reserved":false,"is_disabled":false,"rental_uris":{"android":"levelo://app?vid=a28d0f7d-ff3d-458a-916a-a0efc1611ef6","ios":"levelo://app?vid=a28d0f7d-ff3d-458a-916a-a0efc1611ef6"},"vehicle_type_id":"4","last_reported":1708395141,"current_range_meters":23600,"station_id":"ce4bhb92rcd13ifvqen0","pricing_plan_id":"cebpf4jnsgd1na2vs0mg"},{"bike_id":"25f54ca1-07f0-4125-a637-8bc8bd0d6f1e","system_id":"levelo_inurba_marseille","lat":43.29003,"lon":5.35607,"is_reserved":false,"is_disabled":false,"rental_uris":{"android":"levelo://app?vid=25f54ca1-07f0-4125-a637-8bc8bd0d6f1e","ios":"levelo://app?vid=25f54ca1-07f0-4125-a637-8bc8bd0d6f1e"},"vehicle_type_id":"4","last_reported":1708395141,"current_range_meters":22400,"station_id":"ce4bhb92rcd13ifvqen0","pricing_plan_id":"cebpf4jnsgd1na2vs0mg"},{"bike_id":"84632385-2a4f-429f-9c17-3470d733e982","system_id":"levelo_inurba_marseille","lat":43.290995,"lon":5.381361,"is_reserved":false,"is_disabled":false,"rental_uris":{"android":"levelo://app?vid=84632385-2a4f-429f-9c17-3470d733e982","ios":"levelo://app?vid=84632385-2a4f-429f-9c17-3470d733e982"},"vehicle_type_id":"4","last_reported":1708395141,"current_range_meters":22400,"station_id":"ce4bh512rcd13ifvqe2g","pricing_plan_id":"cebpf4jnsgd1na2vs0mg"},{"bike_id":"9e8e5572-7ad6-4143-a26e-cefe6b1a742c","system_id":"levelo_inurba_marseille","lat":43.295169,"lon":5.390426,"is_reserved":false,"is_disabled":false,"rental_uris":{"android":"levelo://app?vid=9e8e5572-7ad6-4143-a26e-cefe6b1a742c","ios":"levelo://app?vid=9e8e5572-7ad6-4143-a26e-cefe6b1a742c"},"vehicle_type_id":"4","last_reported":1708395141,"current_range_meters":11200,"station_id":"ce4bh3p2rcd13ifvqdp0","pricing_plan_id":"cebpf4jnsgd1na2vs0mg"},{"bike_id":"895afb08-8fe5-4feb-bdf7-d767d360e9d6","system_id":"levelo_inurba_marseille","lat":43.297863,"lon":5.393409,"is_reserved":false,"is_disabled":false,"rental_uris":{"android":"levelo://app?vid=895afb08-8fe5-4feb-bdf7-d767d360e9d6","ios":"levelo://app?vid=895afb08-8fe5-4feb-bdf7-d767d360e9d6"},"vehicle_type_id":"4","last_reported":1708395141,"current_range_meters":24000,"station_id":"chh1huq6cuj3fo74tm60","pricing_plan_id":"cebpf4jnsgd1na2vs0mg"},{"bike_id":"e2e3c222-2c0b-449d-9953-8332bc70abc8","system_id":"levelo_inurba_marseille","lat":43.297815,"lon":5.393548,"is_reserved":false,"is_disabled":false,"rental_uris":{"android":"levelo://app?vid=e2e3c222-2c0b-449d-9953-8332bc70abc8","ios":"levelo://app?vid=e2e3c222-2c0b-449d-9953-8332bc70abc8"},"vehicle_type_id":"4","last_reported":1708395141,"current_range_meters":22000,"station_id":"chh1huq6cuj3fo74tm60","pricing_plan_id":"cebpf4jnsgd1na2vs0mg"},{"bike_id":"9d60d2ca-11d3-4fcc-a31a-d26557d5a9eb","system_id":"levelo_inurba_marseille","lat":43.297815,"lon":5.393548,"is_reserved":false,"is_disabled":false,"rental_uris":{"android":"levelo://app?vid=9d60d2ca-11d3-4fcc-a31a-d26557d5a9eb","ios":"levelo://app?vid=9d60d2ca-11d3-4fcc-a31a-d26557d5a9eb"},"vehicle_type_id":"4","last_reported":1708395141,"current_range_meters":17200,"station_id":"chh1huq6cuj3fo74tm60","pricing_plan_id":"cebpf4jnsgd1na2vs0mg"},{"bike_id":"36b00f65-d02a-4052-ae86-51ef78c50cda","system_id":"levelo_inurba_marseille","lat":43.297861,"lon":5.393418,"is_reserved":false,"is_disabled":false,"rental_uris":{"android":"levelo://app?vid=36b00f65-d02a-4052-ae86-51ef78c50cda","ios":"levelo://app?vid=36b00f65-d02a-4052-ae86-51ef78c50cda"},"vehicle_type_id":"4","last_reported":1708395141,"current_range_meters":12400,"station_id":"chh1huq6cuj3fo74tm60","pricing_plan_id":"cebpf4jnsgd1na2vs0mg"},{"bike_id":"89e2e4c1-2601-49a0-a053-547d4c1ff878","system_id":"levelo_inurba_marseille","lat":43.297859,"lon":5.393448,"is_reserved":false,"is_disabled":false,"rental_uris":{"android":"levelo://app?vid=89e2e4c1-2601-49a0-a053-547d4c1ff878","ios":"levelo://app?vid=89e2e4c1-2601-49a0-a053-547d4c1ff878"},"vehicle_type_id":"4","last_reported":1708395141,"current_range_meters":24800,"station_id":"chh1huq6cuj3fo74tm60","pricing_plan_id":"cebpf4jnsgd1na2vs0mg"},