{"last_updated":1767906724,"ttl":60,"version":"2.2","data":{"bikes":[{"bike_id":"9a15427e-9780-4e0b-bbdf-4d86bcad000b","system_id":"levelo_inurba_marseille","lat":43.290357,"lon":5.386608,"is_reserved":false,"is_disabled":false,"rental_uris":{"android":"levelo://app?vid=9a15427e-9780-4e0b-bbdf-4d86bcad000b","ios":"levelo://app?vid=9a15427e-9780-4e0b-bbdf-4d86bcad000b"},"vehicle_type_id":"4","last_reported":1767906724,"current_range_meters":2800,"station_id":"ce4bh412rcd13ifvqds0","pricing_plan_id":"cebpf4jnsgd1na2vs0mg"},{"bike_id":"d9e24c6b-816a-4c50-ba92-b195640ae88c","system_id":"levelo_inurba_marseille","lat":43.31269,"lon":5.401733,"is_reserved":false,"is_disabled":false,"rental_uris":{"android":"levelo://app?vid=d9e24c6b-816a-4c50-ba92-b195640ae88c","ios":"levelo://app?vid=d9e24c6b-816a-4c50-ba92-b195640ae88c"},"vehicle_type_id":"4","last_reported":1767906724,"current_range_meters":2800,"station_id":"","pricing_plan_id":"cebpf4jnsgd1na2vs0mg"},{"bike_id":"796165dd-6233-4b3e-bc69-5c2707fdcdd0","system_id":"levelo_inurba_marseille","lat":43.25506,"lon":5.37645,"is_reserved":false,"is_disabled":false,"rental_uris":{"android":"levelo://app?vid=796165dd-6233-4b3e-bc69-5c2707fdcdd0","ios":"levelo://app?vid=796165dd-6233-4b3e-bc69-5c2707fdcdd0"},"vehicle_type_id":"4","last_reported":1767906724,"current_range_meters":2800,"station_id":"ce4bhh12rcd13ifvqff0","pricing_plan_id":"cebpf4jnsgd1na2vs0mg"},{"bike_id":"b3ace8f1-cf19-4211-8c06-1d330234c50a","system_id":"levelo_inurba_marseille","lat":43.26217,"lon":5.37922,"is_reserved":false,"is_disabled":false,"rental_uris":{"android":"levelo://app?vid=b3ace8f1-cf19-4211-8c06-1d330234c50a","ios":"levelo://app?vid=b3ace8f1-cf19-4211-8c06-1d330234c50a"},"vehicle_type_id":"4","last_reported":1767906724,"current_range_meters":2800,"station_id":"ce4bhjp2rcd13ifvqg90","pricing_plan_id":"cebpf4jnsgd1na2vs0mg"},{"bike_id":"a372849d-607b-4dd2-97f9-cb2fb04b6e46","system_id":"levelo_inurba_marseille","lat":43.27973,"lon":5.40018,"is_reserved":false,"is_disabled":false,"rental_uris":{"android":"levelo://app?vid=a372849d-607b-4dd2-97f9-cb2fb04b6e46","ios":"levelo://app?vid=a372849d-607b-4dd2-97f9-cb2fb04b6e46"},"vehicle_type_id":"4","last_reported":1767906724,"current_range_meters":2800,"station_id":"ce4bho92rcd13ifvqh4g","pricing_plan_id":"cebpf4jnsgd1na2vs0mg"},{"bike_id":"02023d95-9604-456c-8393-fe6f6cee5283","system_id":"levelo_inurba_marseille","lat":43.25109,"lon":5.39514,"is_reserved":false,"is_disabled":false,"rental_uris":{"android":"levelo://app?vid=02023d95-9604-456c-8393-fe6f6cee5283","ios":"levelo://app?vid=02023d95-9604-456c-8393-fe6f6cee5283"},"vehicle_type_id":"4","last_reported":1767906724,"current_range_meters":2800,"station_id":"ce4bhm12rcd13ifvqgkg","pricing_plan_id":"cebpf4jnsgd1na2vs0mg"},{"bike_id":"5d493dba-2a7e-40e3-a254-deb715365d5e","system_id":"levelo_inurba_marseille","lat":43.27935,"lon":5.41045,"is_reserved":false,"is_disabled":false,"rental_uris":{"android":"levelo://app?vid=5d493dba-2a7e-40e3-a254-deb715365d5e","ios":"levelo://app?vid=5d493dba-2a7e-40e3-a254-deb715365d5e"},"vehicle_type_id":"4","last_reported":1767906724,"current_range_meters":2800,"station_id":"ce4bhnp2rcd13ifvqh0g","pricing_plan_id":"cebpf4jnsgd1na2vs0mg"},{"bike_id":"9b0b7c97-2618-4cbb-baf8-692fe11e16ef","system_id":"levelo_inurba_marseille","lat":43.25334,"lon":5.42166,"is_reserved":false,"is_disabled":false,"rental_uris":{"android":"levelo://app?vid=9b0b7c97-2618-4cbb-baf8-692fe11e16ef","ios":"levelo://app?vid=9b0b7c97-2618-4cbb-baf8-692fe11e16ef"},"vehicle_type_id":"4","last_reported":1767906724,"current_range_meters":2800,"station_id":"st_d2m65c5bi1j21697t3ng","pricing_plan_id":"cebpf4jnsgd1na2vs0mg"},{"bike_id":"ff8302a9-d32b-4626-86db-b5e36f362cd5","system_id":"levelo_inurba_marseille","lat":43.33759,"lon":5.37472,"is_reserved":false,"is_disabled":false,"rental_uris":{"android":"levelo://app?vid=ff8302a9-d32b-4626-86db-b5e36f362cd5","ios":"levelo://app?vid=ff8302a9-d32b-4626-86db-b5e36f362cd5"},"vehicle_type_id":"4","last_reported":1767906724,"current_range_meters":2800,"station_id":"","pricing_plan_id":"cebpf4jnsgd1na2vs0mg"},{"bike_id":"3678ce70-35cc-4f23-a412-a66d50bba044","system_id":"levelo_inurba_marseille","lat":43.28155,"lon":5.383431,"is_reserved":false,"is_disabled":false,"rental_uris":{"android":"levelo://app?vid=3678ce70-35cc-4f23-a412-a66d50bba044","ios":"levelo://app?vid=3678ce70-35cc-4f23-a412-a66d50bba044"},"vehicle_type_id":"4","last_reported":1767906724,"current_range_meters":3200,"station_id":"","pricing_plan_id":"cebpf4jnsgd1na2vs0mg"},{"bike_id":"1f395fdc-ca28-44a1-bec3-747bb9f26662","system_id":"levelo_inurba_marseille","lat":43.31453,"lon":5.38323,"is_reserved":false,"is_disabled":false,"rental_uris":{"android":"levelo://app?vid=1f395fdc-ca28-44a1-bec3-747bb9f26662","ios":"levelo://app?vid=1f395fdc-ca28-44a1-bec3-747bb9f26662"},"vehicle_type_id":"4","last_reported":1767906724,"current_range_meters":3200,"station_id":"","pricing_plan_id":"cebpf4jnsgd1na2vs0mg"},{"bike_id":"f9694d4b-6e2f-4fc5-ae06-59dad6b1ea4d","system_id":"levelo_inurba_marseille","lat":43.25012,"lon":5.3753,"is_reserved":false,"is_disabled":false,"rental_uris":{"android":"levelo://app?vid=f9694d4b-6e2f-4fc5-ae06-59dad6b1ea4d","ios":"levelo://app?vid=f9694d4b-6e2f-4fc5-ae06-59dad6b1ea4d"},"vehicle_type_id":"4","last_reported":1767906724,"current_range_meters":3200,"station_id":"","pricing_plan_id":"cebpf4jnsgd1na2vs0mg"},{"bike_id":"9d02c0af-0c53-49b5-9925-3966976a02cc","system_id":"levelo_inurba_marseille","lat":43.27063,"lon":5.38315,"is_reserved":false,"is_disabled":false,"rental_uris":{"android":"levelo://app?vid=9d02c0af-0c53-49b5-9925-3966976a02cc","ios":"levelo://app?vid=9d02c0af-0c53-49b5-9925-3966976a02cc"},"vehicle_type_id":"4","last_reported":1767906724,"current_range_meters":3200,"station_id":"st_d3n2fo6cfp8s73cte1j0","pricing_plan_id":"cebpf4jnsgd1na2vs0mg"},{"bike_id":"4ba7a7c2-cc68-489a-9ee3-f228ca6f635b","system_id":"levelo_inurba_marseille","lat":43.2559,"lon":5.3825,"is_reserved":false,"is_disabled":false,"rental_uris":{"android":"levelo://app?vid=4ba7a7c2-cc68-489a-9ee3-f228ca6f635b","ios":"levelo://app?vid=4ba7a7c2-cc68-489a-9ee3-f228ca6f635b"},"vehicle_type_id":"4","last_reported":1767906724,"current_range_meters":3200,"station_id":"ce4bhih2rcd13ifvqfs0","pricing_plan_id":"cebpf4jnsgd1na2vs0mg"},{"bike_id":"580bea04-d90e-4377-861c-b90930569d5d","system_id":"levelo_inurba_marseille","lat":43.28161,"lon":5.42637,"is_reserved":false,"is_disabled":false,"rental_uris":{"android":"levelo://app?vid=580bea04-d90e-4377-861c-b90930569d5d","ios":"levelo://app?vid=580bea04-d90e-4377-861c-b90930569d5d"},"vehicle_type_id":"4","last_reported":1767906724,"current_range_meters":3200,"station_id":"ce4bhnh2rcd13ifvqgug","pricing_plan_id":"cebpf4jnsgd1na2vs0mg"},{"bike_id":"180d89c6-a78f-469f-9195-bf47c219695f","system_id":"levelo_inurba_marseille","lat":43.25575,"lon":5.38245,"is_reserved":false,"is_disabled":false,"rental_uris":{"android":"levelo://app?vid=180d89c6-a78f-469f-9195-bf47c219695f","ios":"levelo://app?vid=180d89c6-a78f-469f-9195-bf47c219695f"},"vehicle_type_id":"4","last_reported":1767906724,"current_range_meters":3200,"station_id":"ce4bhih2rcd13ifvqfs0","pricing_plan_id":"cebpf4jnsgd1na2vs0mg"},{"bike_id":"cbbc2d4b-a90b-4daf-93a7-b6f6262bed66","system_id":"levelo_inurba_marseille","lat":43.28463,"lon":5.37801,"is_reserved":false,"is_disabled":false,"rental_uris":{"android":"levelo://app?vid=cbbc2d4b-a90b-4daf-93a7-b6f6262bed66","ios":"levelo://app?vid=cbbc2d4b-a90b-4daf-93a7-b6f6262bed66"},"vehicle_type_id":"4","last_reported":1767906724,"current_range_meters":3200,"station_id":"","pricing_plan_id":"cebpf4jnsgd1na2vs0mg"},{"bike_id":"8e9cd320-222e-4849-8f3f-db8fcd5c5954","system_id":"levelo_inurba_marseille","lat":43.318086,"lon":5.368488,"is_reserved":false,"is_disabled":false,"rental_uris":{"android":"levelo://app?vid=8e9cd320-222e-4849-8f3f-db8fcd5c5954","ios":"levelo://app?vid=8e9cd320-222e-4849-8f3f-db8fcd5c5954"},"vehicle_type_id":"4","last_reported":1767906724,"current_range_meters":3200,"station_id":"","pricing_plan_id":"cebpf4jnsgd1na2vs0mg"},{"bike_id":"b0411765-bb19-45e5-94c5-3441528dc7c0","system_id":"levelo_inurba_marseille","lat":43.25833,"lon":5.39454,"is_reserved":false,"is_disabled":false,"rental_uris":{"android":"levelo://app?vid=b0411765-bb19-45e5-94c5-3441528dc7c0","ios":"levelo://app?vid=b0411765-bb19-45e5-94c5-3441528dc7c0"},"vehicle_type_id":"4","last_reported":1767906724,"current_range_meters":3200,"station_id":"ce4bhip2rcd13ifvqft0","pricing_plan_id":"cebpf4jnsgd1na2vs0mg"},{"bike_id":"d75a90cd-5dce-4bdd-84ef-6b9526859b57","system_id":"levelo_inurba_marseille","lat":43.32506,"lon":5.38305,"is_reserved":false,"is_disabled":false,"rental_uris":{"android":"levelo://app?vid=d75a90cd-5dce-4bdd-84ef-6b9526859b57","ios":"levelo://app?vid=d75a90cd-5dce-4bdd-84ef-6b9526859b57"},"vehicle_type_id":"4","last_reported":1767906724,"current_range_meters":3200,"station_id":"st_d4asgbiv49dc73anf9m0","pricing_plan_id":"cebpf4jnsgd1na2vs0mg"},{"bike_id":"aedd502a-2842-4def-b195-7c11be45c2f2","system_id":"levelo_inurba_marseille","lat":43.29255,"lon":5.40897,"is_reserved":false,"is_disabled":false,"rental_uris":{"android":"levelo://app?vid=aedd502a-2842-4def-b195-7c11be45c2f2","ios":"levelo://app?vid=aedd502a-2842-4def-b195-7c11be45c2f2"},"vehicle_type_id":"4","last_reported":1767906724,"current_range_meters":3200,"station_id":"ce4bh192rcd13ifvqdc0","pricing_plan_id":"cebpf4jnsgd1na2vs0mg"},{"bike_id":"2ac890ce-fdb4-4188-bd4a-c974c3e3a5c7","system_id":"levelo_inurba_marseille","lat":43.28629,"lon":5.35118,"is_reserved":false,"is_disabled":false,"rental_uris":{"android":"levelo://app?vid=2ac890ce-fdb4-4188-bd4a-c974c3e3a5c7","ios":"levelo://app?vid=2ac890ce-fdb4-4188-bd4a-c974c3e3a5c7"},"vehicle_type_id":"4","last_reported":1767906724,"current_range_meters":3200,"station_id":"ce4bhch2rcd13ifvqeug","pricing_plan_id":"cebpf4jnsgd1na2vs0mg"},{"bike_id":"8d64f007-e29f-4112-b552-8cde55c43110","system_id":"levelo_inurba_marseille","lat":43.32901,"lon":5.40027,"is_reserved":false,"is_disabled":false,"rental_uris":{"android":"levelo://app?vid=8d64f007-e29f-4112-b552-8cde55c43110","ios":"levelo://app?vid=8d64f007-e29f-4112-b552-8cde55c43110"},"vehicle_type_id":"4","last_reported":1767906724,"current_range_meters":3200,"station_id":"","pricing_plan_id":"cebpf4jnsgd1na2vs0mg"},{"bike_id":"131392de-16de-465b-8981-54bfc5f0df10","system_id":"levelo_inurba_marseille","lat":43.28471,"lon":5.38766,"is_reserved":false,"is_disabled":false,"rental_uris":{"android":"levelo://app?vid=131392de-16de-465b-8981-54bfc5f0df10","ios":"levelo://app?vid=131392de-16de-465b-8981-54bfc5f0df10"},"vehicle_type_id":"4","last_reported":1767906724,"current_range_meters":3200,"station_id":"","pricing_plan_id":"cebpf4jnsgd1na2vs0mg"},{"bike_id":"5a68ff48-3ca4-4b8d-81f5-0545c9e06ce5","system_id":"levelo_inurba_marseille","lat":43.28874,"lon":5.4252,"is_reserved":false,"is_disabled":false,"rental_uris":{"android":"levelo://app?vid=5a68ff48-3ca4-4b8d-81f5-0545c9e06ce5","ios":"levelo://app?vid=5a68ff48-3ca4-4b8d-81f5-0545c9e06ce5"},"vehicle_type_id":"4","last_reported":1767906724,"current_range_meters":3600,"station_id":"st_d3b462108ojc7389ooeg","pricing_plan_id":"cebpf4jnsgd1na2vs0mg"},{"bike_id":"bce27738-9780-4c81-b709-fbad0e32b3ac","system_id":"levelo_inurba_marseille","lat":43.31266,"lon":5.40179,"is_reserved":false,"is_disabled":false,"rental_uris":{"android":"levelo://app?vid=bce27738-9780-4c81-b709-fbad0e32b3ac","ios":"levelo://app?vid=bce27738-9780-4c81-b709-fbad0e32b3ac"},"vehicle_type_id":"4","last_reported":1767906724,"current_range_meters":3600,"station_id":"ce4bh092rcd13ifvqd30","pricing_plan_id":"cebpf4jnsgd1na2vs0mg"},{"bike_id":"4df48156-dd6c-425a-aaac-7de4e5d50530","system_id":"levelo_inurba_marseille","lat":43.29005,"lon":5.35753,"is_reserved":false,"is_disabled":false,"rental_uris":{"android":"levelo://app?vid=4df48156-dd6c-425a-aaac-7de4e5d50530","ios":"levelo://app?vid=4df48156-dd6c-425a-aaac-7de4e5d50530"},"vehicle_type_id":"4","last_reported":1767906724,"current_range_meters":3600,"station_id":"","pricing_plan_id":"cebpf4jnsgd1na2vs0mg"},{"bike_id":"7e56ead6-0dcc-483d-86d1-d4af73c68e4a","system_id":"levelo_inurba_marseille","lat":43.29364,"lon":5.38599,"is_reserved":false,"is_disabled":true,"rental_uris":{"android":"levelo://app?vid=7e56ead6-0dcc-483d-86d1-d4af73c68e4a","ios":"levelo://app?vid=7e56ead6-0dcc-483d-86d1-d4af73c68e4a"},"vehicle_type_id":"4","last_reported":1767906724,"current_range_meters":3600,"station_id":"","pricing_plan_id":"cebpf4jnsgd1na2vs0mg"},{"bike_id":"01d8e2c9-d4ce-48e6-afef-8bf3104cf069","system_id":"levelo_inurba_marseille","lat":43.27189,"lon":5.40992,"is_reserved":false,"is_disabled":false,"rental_uris":{"android":"levelo://app?vid=01d8e2c9-d4ce-48e6-afef-8bf3104cf069","ios":"levelo://app?vid=01d8e2c9-d4ce-48e6-afef-8bf3104cf069"},"vehicle_type_id":"4","last_reported":1767906724,"current_range_meters":3600,"station_id":"ce4bhl12rcd13ifvqgf0","pricing_plan_id":"cebpf4jnsgd1na2vs0mg"},{"bike_id":"627ad4fb-d3f7-406d-9fa6-760355e4142d","system_id":"levelo_inurba_marseille","lat":43.232087,"lon":5.355496,"is_reserved":false,"is_disabled":false,"rental_uris":{"android":"levelo://app?vid=627ad4fb-d3f7-406d-9fa6-760355e4142d","ios":"levelo://app?vid=627ad4fb-d3f7-406d-9fa6-760355e4142d"},"vehicle_type_id":"4","last_reported":1767906724,"current_range_meters":3600,"station_id":"ce4bhu92rcd13ifvqi70","pricing_plan_id":"cebpf4jnsgd1na2vs0mg"},{"bike_id":"e3ffb854-e428-4a18-904d-ea5ddd084e10","system_id":"levelo_inurba_marseille","lat":43.3234,"lon":5.36722,"is_reserved":false,"is_disabled":false,"rental_uris":{"android":"levelo://app?vid=e3ffb854-e428-4a18-904d-ea5ddd084e10","ios":"levelo://app?vid=e3ffb854-e428-4a18-904d-ea5ddd084e10"},"vehicle_type_id":"4","last_reported":1767906724,"current_range_meters":3600,"station_id":"ce4bhsh2rcd13ifvqi2g","pricing_plan_id":"cebpf4jnsgd1na2vs0mg"},{"bike_id":"49cc43f2-a61c-492c-94fb-20b9013a3563","system_id":"levelo_inurba_marseille","lat":43.22558,"lon":5.41626,"is_reserved":false,"is_disabled":false,"rental_uris":{"android":"levelo://app?vid=49cc43f2-a61c-492c-94fb-20b9013a3563","ios":"levelo://app?vid=49cc43f2-a61c-492c-94fb-20b9013a3563"},"vehicle_type_id":"4","last_reported":1767906724,"current_range_meters":3600,"station_id":"st_d2o4gvlbi1j2169b742g","pricing_plan_id":"cebpf4jnsgd1na2vs0mg"},{"bike_id":"80bdd1a4-b1ab-42ae-bb23-cfddeda5c12d","system_id":"levelo_inurba_marseille","lat":43.29888,"lon":5.38313,"is_reserved":false,"is_disabled":true,"rental_uris":{"android":"levelo://app?vid=80bdd1a4-b1ab-42ae-bb23-cfddeda5c12d","ios":"levelo://app?vid=80bdd1a4-b1ab-42ae-bb23-cfddeda5c12d"},"vehicle_type_id":"4","last_reported":1767906724,"current_range_meters":3600,"station_id":"","pricing_plan_id":"cebpf4jnsgd1na2vs0mg"},{"bike_id":"2ee5cee4-27e0-4198-b09b-4867d32d8211","system_id":"levelo_inurba_marseille","lat":43.258649,"lon":5.399055,"is_reserved":false,"is_disabled":false,"rental_uris":{"android":"levelo://app?vid=2ee5cee4-27e0-4198-b09b-4867d32d8211","ios":"levelo://app?vid=2ee5cee4-27e0-4198-b09b-4867d32d8211"},"vehicle_type_id":"4","last_reported":1767906724,"current_range_meters":3600,"station_id":"ce4bhl92rcd13ifvqghg","pricing_plan_id":"cebpf4jnsgd1na2vs0mg"},{"bike_id":"c4b9f513-bf15-48dd-9b7e-115d19aded28","system_id":"levelo_inurba_marseille","lat":43.268576,"lon":5.40305,"is_reserved":false,"is_disabled":false,"rental_uris":{"android":"levelo://app?vid=c4b9f513-bf15-48dd-9b7e-115d19aded28","ios":"levelo://app?vid=c4b9f513-bf15-48dd-9b7e-115d19aded28"},"vehicle_type_id":"4","last_reported":1767906724,"current_range_meters":3600,"station_id":"ce501612rcd8frsf0b60","pricing_plan_id":"cebpf4jnsgd1na2vs0mg"},{"bike_id":"54bf261d-8f8c-4f5e-9d97-c0598fc02432","system_id":"levelo_inurba_marseille","lat":43.24806,"lon":5.37467,"is_reserved":false,"is_disabled":false,"rental_uris":{"android":"levelo://app?vid=54bf261d-8f8c-4f5e-9d97-c0598fc02432","ios":"levelo://app?vid=54bf261d-8f8c-4f5e-9d97-c0598fc02432"},"vehicle_type_id":"4","last_reported":1767906724,"current_range_meters":3600,"station_id":"ce4bhgh2rcd13ifvqfb0","pricing_plan_id":"cebpf4jnsgd1na2vs0mg"},{"bike_id":"fe99a84f-5ce7-4cef-a997-e79fffe9bddd","system_id":"levelo_inurba_marseille","lat":43.32109,"lon":5.36766,"is_reserved":false,"is_disabled":false,"rental_uris":{"android":"levelo://app?vid=fe99a84f-5ce7-4cef-a997-e79fffe9bddd","ios":"levelo://app?vid=fe99a84f-5ce7-4cef-a997-e79fffe9bddd"},"vehicle_type_id":"4","last_reported":1767906724,"current_range_meters":4000,"station_id":"ce4bhrh2rcd13ifvqhug","pricing_plan_id":"cebpf4jnsgd1na2vs0mg"},{"bike_id":"17ffc005-fa72-4d1f-9413-b31aab6a3fd6","system_id":"levelo_inurba_marseille","lat":43.32347,"lon":5.36725,"is_reserved":false,"is_disabled":false,"rental_uris":{"android":"levelo://app?vid=17ffc005-fa72-4d1f-9413-b31aab6a3fd6","ios":"levelo://app?vid=17ffc005-fa72-4d1f-9413-b31aab6a3fd6"},"vehicle_type_id":"4","last_reported":1767906724,"current_range_meters":4000,"station_id":"ce4bhsh2rcd13ifvqi2g","pricing_plan_id":"cebpf4jnsgd1na2vs0mg"},{"bike_id":"2601afa5-fd31-4756-bcc8-e7508542c62f","system_id":"levelo_inurba_marseille","lat":43.2932,"lon":5.37485,"is_reserved":false,"is_disabled":false,"rental_uris":{"android":"levelo://app?vid=2601afa5-fd31-4756-bcc8-e7508542c62f","ios":"levelo://app?vid=2601afa5-fd31-4756-bcc8-e7508542c62f"},"vehicle_type_id":"4","last_reported":1767906724,"current_range_meters":4000,"station_id":"ce4bgi12rcd13ifvqb70","pricing_plan_id":"cebpf4jnsgd1na2vs0mg"},{"bike_id":"73430d24-327b-4fa0-9c4b-19e214516689","system_id":"levelo_inurba_marseille","lat":43.28866,"lon":5.4252,"is_reserved":false,"is_disabled":false,"rental_uris":{"android":"levelo://app?vid=73430d24-327b-4fa0-9c4b-19e214516689","ios":"levelo://app?vid=73430d24-327b-4fa0-9c4b-19e214516689"},"vehicle_type_id":"4","last_reported":1767906724,"current_range_meters":4000,"station_id":"st_d3b462108ojc7389ooeg","pricing_plan_id":"cebpf4jnsgd1na2vs0mg"},{"bike_id":"e8c34c4a-7c8b-4704-b631-04bf63abaf6b","system_id":"levelo_inurba_marseille","lat":43.25841,"lon":5.39455,"is_reserved":false,"is_disabled":false,"rental_uris":{"android":"levelo://app?vid=e8c34c4a-7c8b-4704-b631-04bf63abaf6b","ios":"levelo://app?vid=e8c34c4a-7c8b-4704-b631-04bf63abaf6b"},"vehicle_type_id":"4","last_reported":1767906724,"current_range_meters":4000,"station_id":"ce4bhip2rcd13ifvqft0","pricing_plan_id":"cebpf4jnsgd1na2vs0mg"},{"bike_id":"cec5766b-b25a-4f7c-a1de-8578aaedbf56","system_id":"levelo_inurba_marseille","lat":43.30953,"lon":5.36829,"is_reserved":false,"is_disabled":false,"rental_uris":{"android":"levelo://app?vid=cec5766b-b25a-4f7c-a1de-8578aaedbf56","ios":"levelo://app?vid=cec5766b-b25a-4f7c-a1de-8578aaedbf56"},"vehicle_type_id":"4","last_reported":1767906724,"current_range_meters":4000,"station_id":"","pricing_plan_id":"cebpf4jnsgd1na2vs0mg"},{"bike_id":"b9b63db1-1236-4b1d-96d7-51c4256e1737","system_id":"levelo_inurba_marseille","lat":43.29297,"lon":5.37462,"is_reserved":false,"is_disabled":false,"rental_uris":{"android":"levelo://app?vid=b9b63db1-1236-4b1d-96d7-51c4256e1737","ios":"levelo://app?vid=b9b63db1-1236-4b1d-96d7-51c4256e1737"},"vehicle_type_id":"4","last_reported":1767906724,"current_range_meters":4000,"station_id":"ce4bgi12rcd13ifvqb70","pricing_plan_id":"cebpf4jnsgd1na2vs0mg"},{"bike_id":"1c4a40f1-c8cb-439f-940a-7ccd3526bd84","system_id":"levelo_inurba_marseille","lat":43.30298,"lon":5.39222,"is_reserved":false,"is_disabled":false,"rental_uris":{"android":"levelo://app?vid=1c4a40f1-c8cb-439f-940a-7ccd3526bd84","ios":"levelo://app?vid=1c4a40f1-c8cb-439f-940a-7ccd3526bd84"},"vehicle_type_id":"4","last_reported":1767906724,"current_range_meters":4000,"station_id":"ce4bgkh2rcd13ifvqbk0","pricing_plan_id":"cebpf4jnsgd1na2vs0mg"},{"bike_id":"603f13a4-dcb2-4fc7-9498-03fbe7481627","system_id":"levelo_inurba_marseille","lat":43.2924,"lon":5.37292,"is_reserved":false,"is_disabled":false,"rental_uris":{"android":"levelo://app?vid=603f13a4-dcb2-4fc7-9498-03fbe7481627","ios":"levelo://app?vid=603f13a4-dcb2-4fc7-9498-03fbe7481627"},"vehicle_type_id":"4","last_reported":1767906724,"current_range_meters":4000,"station_id":"ce4bha92rcd13ifvqeh0","pricing_plan_id":"cebpf4jnsgd1na2vs0mg"},{"bike_id":"e333ef92-9481-476e-a416-b4070e2823b7","system_id":"levelo_inurba_marseille","lat":43.2549,"lon":5.37652,"is_reserved":false,"is_disabled":false,"rental_uris":{"android":"levelo://app?vid=e333ef92-9481-476e-a416-b4070e2823b7","ios":"levelo://app?vid=e333ef92-9481-476e-a416-b4070e2823b7"},"vehicle_type_id":"4","last_reported":1767906724,"current_range_meters":4000,"station_id":"ce4bhh12rcd13ifvqff0","pricing_plan_id":"cebpf4jnsgd1na2vs0mg"},{"bike_id":"f139dc33-0315-4e3b-806c-1c4763fe230a","system_id":"levelo_inurba_marseille","lat":43.32351,"lon":5.36748,"is_reserved":false,"is_disabled":false,"rental_uris":{"android":"levelo://app?vid=f139dc33-0315-4e3b-806c-1c4763fe230a","ios":"levelo://app?vid=f139dc33-0315-4e3b-806c-1c4763fe230a"},"vehicle_type_id":"4","last_reported":1767906724,"current_range_meters":4000,"station_id":"ce4bhsh2rcd13ifvqi2g","pricing_plan_id":"cebpf4jnsgd1na2vs0mg"},{"bike_id":"028756d9-bfe4-42e7-8035-4b002ff65672","system_id":"levelo_inurba_marseille","lat":43.22921,"lon":5.353774,"is_reserved":false,"is_disabled":false,"rental_uris":{"android":"levelo://app?vid=028756d9-bfe4-42e7-8035-4b002ff65672","ios":"levelo://app?vid=028756d9-bfe4-42e7-8035-4b002ff65672"},"vehicle_type_id":"4","last_reported":1767906724,"current_range_meters":4000,"station_id":"cpo3532slgdg3j2ikp40","pricing_plan_id":"cebpf4jnsgd1na2vs0mg"},{"bike_id":"2ba68c60-2d00-4377-b0ff-56b9c1f07eb3","system_id":"levelo_inurba_marseille","lat":43.29824,"lon":5.38087,"is_reserved":false,"is_disabled":true,"rental_uris":{"android":"levelo://app?vid=2ba68c60-2d00-4377-b0ff-56b9c1f07eb3","ios":"levelo://app?vid=2ba68c60-2d00-4377-b0ff-56b9c1f07eb3"},"vehicle_type_id":"4","last_reported":1767906724,"current_range_meters":4000,"station_id":"ce4bgip2rcd13ifvqbb0","pricing_plan_id":"cebpf4jnsgd1na2vs0mg"},{"bike_id":"8fcd09b9-fb23-4bcc-9ef9-c0bbf5b5e535","system_id":"levelo_inurba_marseille","lat":43.30637,"lon":5.40101,"is_reserved":false,"is_disabled":false,"rental_uris":{"android":"levelo://app?vid=8fcd09b9-fb23-4bcc-9ef9-c0bbf5b5e535","ios":"levelo://app?vid=8fcd09b9-fb23-4bcc-9ef9-c0bbf5b5e535"},"vehicle_type_id":"4","last_reported":1767906724,"current_range_meters":4000,"station_id":"ce4bh112rcd13ifvqda0","pricing_plan_id":"cebpf4jnsgd1na2vs0mg"},{"bike_id":"0c106f61-b1e2-4634-ae66-0b75c689e13d","system_id":"levelo_inurba_marseille","lat":43.24957,"lon":5.40492,"is_reserved":false,"is_disabled":false,"rental_uris":{"android":"levelo://app?vid=0c106f61-b1e2-4634-ae66-0b75c689e13d","ios":"levelo://app?vid=0c106f61-b1e2-4634-ae66-0b75c689e13d"},"vehicle_type_id":"4","last_reported":1767906724,"current_range_meters":4400,"station_id":"st_d2ngiaodas8pm72gd1h0","pricing_plan_id":"cebpf4jnsgd1na2vs0mg"},{"bike_id":"aba7ea30-1026-499d-8351-ae41547f888c","system_id":"levelo_inurba_marseille","lat":43.30301,"lon":5.36889,"is_reserved":false,"is_disabled":false,"rental_uris":{"android":"levelo://app?vid=aba7ea30-1026-499d-8351-ae41547f888c","ios":"levelo://app?vid=aba7ea30-1026-499d-8351-ae41547f888c"},"vehicle_type_id":"4","last_reported":1767906724,"current_range_meters":4400,"station_id":"ce4bgqh2rcd13ifvqc5g","pricing_plan_id":"cebpf4jnsgd1na2vs0mg"},{"bike_id":"61b02227-fe46-46b1-9fd1-7d42fe6dd352","system_id":"levelo_inurba_marseille","lat":43.29798,"lon":5.39338,"is_reserved":false,"is_disabled":false,"rental_uris":{"android":"levelo://app?vid=61b02227-fe46-46b1-9fd1-7d42fe6dd352","ios":"levelo://app?vid=61b02227-fe46-46b1-9fd1-7d42fe6dd352"},"vehicle_type_id":"4","last_reported":1767906724,"current_range_meters":4400,"station_id":"chh1huq6cuj3fo74tm60","pricing_plan_id":"cebpf4jnsgd1na2vs0mg"},{"bike_id":"7ae2676e-e662-4a9a-a79a-d5011de94824","system_id":"levelo_inurba_marseille","lat":43.24151,"lon":5.36425,"is_reserved":false,"is_disabled":false,"rental_uris":{"android":"levelo://app?vid=7ae2676e-e662-4a9a-a79a-d5011de94824","ios":"levelo://app?vid=7ae2676e-e662-4a9a-a79a-d5011de94824"},"vehicle_type_id":"4","last_reported":1767906724,"current_range_meters":4400,"station_id":"cpo36qri1sfpv3e86is0","pricing_plan_id":"cebpf4jnsgd1na2vs0mg"},{"bike_id":"2f9a637c-b43f-4651-8549-c7b8deb0b037","system_id":"levelo_inurba_marseille","lat":43.29188,"lon":5.35794,"is_reserved":false,"is_disabled":false,"rental_uris":{"android":"levelo://app?vid=2f9a637c-b43f-4651-8549-c7b8deb0b037","ios":"levelo://app?vid=2f9a637c-b43f-4651-8549-c7b8deb0b037"},"vehicle_type_id":"4","last_reported":1767906724,"current_range_meters":4400,"station_id":"ce4bhb12rcd13ifvqel0","pricing_plan_id":"cebpf4jnsgd1na2vs0mg"},{"bike_id":"e986fce2-0dcf-4a72-8226-b2117b200211","system_id":"levelo_inurba_marseille","lat":43.23145,"lon":5.43721,"is_reserved":false,"is_disabled":false,"rental_uris":{"android":"levelo://app?vid=e986fce2-0dcf-4a72-8226-b2117b200211","ios":"levelo://app?vid=e986fce2-0dcf-4a72-8226-b2117b200211"},"vehicle_type_id":"4","last_reported":1767906724,"current_range_meters":4400,"station_id":"ce4bhmp2rcd13ifvqgog","pricing_plan_id":"cebpf4jnsgd1na2vs0mg"},{"bike_id":"b30b42a5-f140-4b6b-82d4-5c456fa62a3a","system_id":"levelo_inurba_marseille","lat":43.30254,"lon":5.40083,"is_reserved":false,"is_disabled":false,"rental_uris":{"android":"levelo://app?vid=b30b42a5-f140-4b6b-82d4-5c456fa62a3a","ios":"levelo://app?vid=b30b42a5-f140-4b6b-82d4-5c456fa62a3a"},"vehicle_type_id":"4","last_reported":1767906724,"current_range_meters":4400,"station_id":"ce4bgvh2rcd13ifvqcs0","pricing_plan_id":"cebpf4jnsgd1na2vs0mg"},{"bike_id":"04ca6b22-995e-4a22-a561-b7ea4ec24e4b","system_id":"levelo_inurba_marseille","lat":43.28482,"lon":5.48399,"is_reserved":false,"is_disabled":false,"rental_uris":{"android":"levelo://app?vid=04ca6b22-995e-4a22-a561-b7ea4ec24e4b","ios":"levelo://app?vid=04ca6b22-995e-4a22-a561-b7ea4ec24e4b"},"vehicle_type_id":"4","last_reported":1767906724,"current_range_meters":4400,"station_id":"st_d3svhcjqgbts73a3dn0g","pricing_plan_id":"cebpf4jnsgd1na2vs0mg"},{"bike_id":"bce5129f-3ca4-4b93-b4e0-721c4ead1388","system_id":"levelo_inurba_marseille","lat":43.25124,"lon":5.40334,"is_reserved":false,"is_disabled":false,"rental_uris":{"android":"levelo://app?vid=bce5129f-3ca4-4b93-b4e0-721c4ead1388","ios":"levelo://app?vid=bce5129f-3ca4-4b93-b4e0-721c4ead1388"},"vehicle_type_id":"4","last_reported":1767906724,"current_range_meters":4400,"station_id":"ce4bhlh2rcd13ifvqgig","pricing_plan_id":"cebpf4jnsgd1na2vs0mg"},{"bike_id":"5f3933f1-8f15-451a-843e-42960e021121","system_id":"levelo_inurba_marseille","lat":43.29568,"lon":5.37499,"is_reserved":false,"is_disabled":false,"rental_uris":{"android":"levelo://app?vid=5f3933f1-8f15-451a-843e-42960e021121","ios":"levelo://app?vid=5f3933f1-8f15-451a-843e-42960e021121"},"vehicle_type_id":"4","last_reported":1767906724,"current_range_meters":4800,"station_id":"ce4bgh92rcd13ifvqb50","pricing_plan_id":"cebpf4jnsgd1na2vs0mg"},{"bike_id":"c9b9f614-2a8e-4d1a-a652-5ef008ccb0b8","system_id":"levelo_inurba_marseille","lat":43.30331,"lon":5.4044,"is_reserved":false,"is_disabled":false,"rental_uris":{"android":"levelo://app?vid=c9b9f614-2a8e-4d1a-a652-5ef008ccb0b8","ios":"levelo://app?vid=c9b9f614-2a8e-4d1a-a652-5ef008ccb0b8"},"vehicle_type_id":"4","last_reported":1767906724,"current_range_meters":4800,"station_id":"ce4bh012rcd13ifvqd10","pricing_plan_id":"cebpf4jnsgd1na2vs0mg"},{"bike_id":"42f02f13-932e-40dd-ae79-3a7a1a874e34","system_id":"levelo_inurba_marseille","lat":43.29496,"lon":5.43302,"is_reserved":false,"is_disabled":false,"rental_uris":{"android":"levelo://app?vid=42f02f13-932e-40dd-ae79-3a7a1a874e34","ios":"levelo://app?vid=42f02f13-932e-40dd-ae79-3a7a1a874e34"},"vehicle_type_id":"4","last_reported":1767906724,"current_range_meters":4800,"station_id":"st_d3j5ugp08ojc73fj9d10","pricing_plan_id":"cebpf4jnsgd1na2vs0mg"},{"bike_id":"a371abd4-bbe1-4cf7-88b4-417586de59e8","system_id":"levelo_inurba_marseille","lat":43.29008,"lon":5.35607,"is_reserved":false,"is_disabled":false,"rental_uris":{"android":"levelo://app?vid=a371abd4-bbe1-4cf7-88b4-417586de59e8","ios":"levelo://app?vid=a371abd4-bbe1-4cf7-88b4-417586de59e8"},"vehicle_type_id":"4","last_reported":1767906724,"current_range_meters":4800,"station_id":"ce4bhb92rcd13ifvqen0","pricing_plan_id":"cebpf4jnsgd1na2vs0mg"},{"bike_id":"6d0a99f0-f979-4bad-ad22-7423652e0a11","system_id":"levelo_inurba_marseille","lat":43.27904,"lon":5.37978,"is_reserved":false,"is_disabled":false,"rental_uris":{"android":"levelo://app?vid=6d0a99f0-f979-4bad-ad22-7423652e0a11","ios":"levelo://app?vid=6d0a99f0-f979-4bad-ad22-7423652e0a11"},"vehicle_type_id":"4","last_reported":1767906724,"current_range_meters":4800,"station_id":"ce4bhf92rcd13ifvqf50","pricing_plan_id":"cebpf4jnsgd1na2vs0mg"},{"bike_id":"6dd96e51-0ed6-4297-9c0e-283504dcbf10","system_id":"levelo_inurba_marseille","lat":43.28074,"lon":5.39667,"is_reserved":false,"is_disabled":false,"rental_uris":{"android":"levelo://app?vid=6dd96e51-0ed6-4297-9c0e-283504dcbf10","ios":"levelo://app?vid=6dd96e51-0ed6-4297-9c0e-283504dcbf10"},"vehicle_type_id":"4","last_reported":1767906724,"current_range_meters":4800,"station_id":"ce4bho12rcd13ifvqh2g","pricing_plan_id":"cebpf4jnsgd1na2vs0mg"},{"bike_id":"212da61f-e45f-49da-8ac8-22c9c61d8835","system_id":"levelo_inurba_marseille","lat":43.31741,"lon":5.38515,"is_reserved":false,"is_disabled":false,"rental_uris":{"android":"levelo://app?vid=212da61f-e45f-49da-8ac8-22c9c61d8835","ios":"levelo://app?vid=212da61f-e45f-49da-8ac8-22c9c61d8835"},"vehicle_type_id":"4","last_reported":1767906724,"current_range_meters":4800,"station_id":"","pricing_plan_id":"cebpf4jnsgd1na2vs0mg"},{"bike_id":"ecd3c884-b625-4122-929d-6367a66201b9","system_id":"levelo_inurba_marseille","lat":43.30303,"lon":5.36902,"is_reserved":false,"is_disabled":false,"rental_uris":{"android":"levelo://app?vid=ecd3c884-b625-4122-929d-6367a66201b9","ios":"levelo://app?vid=ecd3c884-b625-4122-929d-6367a66201b9"},"vehicle_type_id":"4","last_reported":1767906724,"current_range_meters":4800,"station_id":"ce4bgqh2rcd13ifvqc5g","pricing_plan_id":"cebpf4jnsgd1na2vs0mg"},{"bike_id":"7dad6fcc-9078-4e68-aeaf-b0b640fb936d","system_id":"levelo_inurba_marseille","lat":43.29039,"lon":5.39949,"is_reserved":false,"is_disabled":false,"rental_uris":{"android":"levelo://app?vid=7dad6fcc-9078-4e68-aeaf-b0b640fb936d","ios":"levelo://app?vid=7dad6fcc-9078-4e68-aeaf-b0b640fb936d"},"vehicle_type_id":"4","last_reported":1767906724,"current_range_meters":4800,"station_id":"ce4bh392rcd13ifvqdm0","pricing_plan_id":"cebpf4jnsgd1na2vs0mg"},{"bike_id":"847324d2-d88f-47d0-b788-6a5f3c72edc9","system_id":"levelo_inurba_marseille","lat":43.29266,"lon":5.36843,"is_reserved":false,"is_disabled":false,"rental_uris":{"android":"levelo://app?vid=847324d2-d88f-47d0-b788-6a5f3c72edc9","ios":"levelo://app?vid=847324d2-d88f-47d0-b788-6a5f3c72edc9"},"vehicle_type_id":"4","last_reported":1767906724,"current_range_meters":4800,"station_id":"ce4bhbp2rcd13ifvqesg","pricing_plan_id":"cebpf4jnsgd1na2vs0mg"},{"bike_id":"04eb2c00-1c2c-4ed2-abe9-a8c3238e2b7a","system_id":"levelo_inurba_marseille","lat":43.2656,"lon":5.40323,"is_reserved":false,"is_disabled":false,"rental_uris":{"android":"levelo://app?vid=04eb2c00-1c2c-4ed2-abe9-a8c3238e2b7a","ios":"levelo://app?vid=04eb2c00-1c2c-4ed2-abe9-a8c3238e2b7a"},"vehicle_type_id":"4","last_reported":1767906724,"current_range_meters":4800,"station_id":"ce4bhmp2rcd13ifvqgng","pricing_plan_id":"cebpf4jnsgd1na2vs0mg"},{"bike_id":"f973d603-7390-44e4-b854-2d363dc1cb8d","system_id":"levelo_inurba_marseille","lat":43.280287,"lon":5.369532,"is_reserved":false,"is_disabled":false,"rental_uris":{"android":"levelo://app?vid=f973d603-7390-44e4-b854-2d363dc1cb8d","ios":"levelo://app?vid=f973d603-7390-44e4-b854-2d363dc1cb8d"},"vehicle_type_id":"4","last_reported":1767906724,"current_range_meters":4800,"station_id":"ce4bha12rcd13ifvqef0","pricing_plan_id":"cebpf4jnsgd1na2vs0mg"},{"bike_id":"7916ab29-6acf-4981-b006-95569b1a12ba","system_id":"levelo_inurba_marseille","lat":43.3134,"lon":5.39722,"is_reserved":false,"is_disabled":false,"rental_uris":{"android":"levelo://app?vid=7916ab29-6acf-4981-b006-95569b1a12ba","ios":"levelo://app?vid=7916ab29-6acf-4981-b006-95569b1a12ba"},"vehicle_type_id":"4","last_reported":1767906724,"current_range_meters":4800,"station_id":"ce4bgvp2rcd13ifvqcu0","pricing_plan_id":"cebpf4jnsgd1na2vs0mg"},{"bike_id":"6df19930-e3eb-4eb3-9a45-a01da3418078","system_id":"levelo_inurba_marseille","lat":43.2582,"lon":5.39435,"is_reserved":false,"is_disabled":false,"rental_uris":{"android":"levelo://app?vid=6df19930-e3eb-4eb3-9a45-a01da3418078","ios":"levelo://app?vid=6df19930-e3eb-4eb3-9a45-a01da3418078"},"vehicle_type_id":"4","last_reported":1767906724,"current_range_meters":5600,"station_id":"ce4bhip2rcd13ifvqft0","pricing_plan_id":"cebpf4jnsgd1na2vs0mg"},{"bike_id":"56e1e849-fcec-435d-b4fa-b87b6fcf55ae","system_id":"levelo_inurba_marseille","lat":43.2867,"lon":5.3738,"is_reserved":false,"is_disabled":false,"rental_uris":{"android":"levelo://app?vid=56e1e849-fcec-435d-b4fa-b87b6fcf55ae","ios":"levelo://app?vid=56e1e849-fcec-435d-b4fa-b87b6fcf55ae"},"vehicle_type_id":"4","last_reported":1767906724,"current_range_meters":5600,"station_id":"ce4bh3p2rcd13ifvqdq0","pricing_plan_id":"cebpf4jnsgd1na2vs0mg"},{"bike_id":"d3b33c0a-a219-4753-85af-77f9c8e71c75","system_id":"levelo_inurba_marseille","lat":43.29362,"lon":5.37208,"is_reserved":false,"is_disabled":false,"rental_uris":{"android":"levelo://app?vid=d3b33c0a-a219-4753-85af-77f9c8e71c75","ios":"levelo://app?vid=d3b33c0a-a219-4753-85af-77f9c8e71c75"},"vehicle_type_id":"4","last_reported":1767906724,"current_range_meters":5600,"station_id":"","pricing_plan_id":"cebpf4jnsgd1na2vs0mg"},{"bike_id":"868e0723-8a5a-4918-864f-30e9341848ec","system_id":"levelo_inurba_marseille","lat":43.25682,"lon":5.410517,"is_reserved":false,"is_disabled":false,"rental_uris":{"android":"levelo://app?vid=868e0723-8a5a-4918-864f-30e9341848ec","ios":"levelo://app?vid=868e0723-8a5a-4918-864f-30e9341848ec"},"vehicle_type_id":"4","last_reported":1767906724,"current_range_meters":5600,"station_id":"st_d2m65c5bi1j21697t3ng","pricing_plan_id":"cebpf4jnsgd1na2vs0mg"},{"bike_id":"a6462651-ffd6-4de0-ac89-ac14a3f92140","system_id":"levelo_inurba_marseille","lat":43.237853,"lon":5.366302,"is_reserved":false,"is_disabled":false,"rental_uris":{"android":"levelo://app?vid=a6462651-ffd6-4de0-ac89-ac14a3f92140","ios":"levelo://app?vid=a6462651-ffd6-4de0-ac89-ac14a3f92140"},"vehicle_type_id":"4","last_reported":1767906724,"current_range_meters":5600,"station_id":"st_d3nk18o9ro0c73en2l3g","pricing_plan_id":"cebpf4jnsgd1na2vs0mg"},{"bike_id":"d0581bff-1d0c-4410-806f-6b8c4cb9781f","system_id":"levelo_inurba_marseille","lat":43.2846,"lon":5.35897,"is_reserved":false,"is_disabled":false,"rental_uris":{"android":"levelo://app?vid=d0581bff-1d0c-4410-806f-6b8c4cb9781f","ios":"levelo://app?vid=d0581bff-1d0c-4410-806f-6b8c4cb9781f"},"vehicle_type_id":"4","last_reported":1767906724,"current_range_meters":5600,"station_id":"ce4bhah2rcd13ifvqei0","pricing_plan_id":"cebpf4jnsgd1na2vs0mg"},{"bike_id":"b72099cd-b077-494a-845f-7f9bf2c72c0e","system_id":"levelo_inurba_marseille","lat":43.24819,"lon":5.37445,"is_reserved":false,"is_disabled":false,"rental_uris":{"android":"levelo://app?vid=b72099cd-b077-494a-845f-7f9bf2c72c0e","ios":"levelo://app?vid=b72099cd-b077-494a-845f-7f9bf2c72c0e"},"vehicle_type_id":"4","last_reported":1767906724,"current_range_meters":5600,"station_id":"ce4bhgh2rcd13ifvqfb0","pricing_plan_id":"cebpf4jnsgd1na2vs0mg"},{"bike_id":"0896a6b0-9fee-43d9-b927-69a576d730d9","system_id":"levelo_inurba_marseille","lat":43.28932,"lon":5.36644,"is_reserved":false,"is_disabled":true,"rental_uris":{"android":"levelo://app?vid=0896a6b0-9fee-43d9-b927-69a576d730d9","ios":"levelo://app?vid=0896a6b0-9fee-43d9-b927-69a576d730d9"},"vehicle_type_id":"4","last_reported":1767906724,"current_range_meters":5600,"station_id":"ce4bhap2rcd13ifvqek0","pricing_plan_id":"cebpf4jnsgd1na2vs0mg"},{"bike_id":"845bee73-fea8-4b21-9671-09bb9a36c361","system_id":"levelo_inurba_marseille","lat":43.25089,"lon":5.3951,"is_reserved":false,"is_disabled":false,"rental_uris":{"android":"levelo://app?vid=845bee73-fea8-4b21-9671-09bb9a36c361","ios":"levelo://app?vid=845bee73-fea8-4b21-9671-09bb9a36c361"},"vehicle_type_id":"4","last_reported":1767906724,"current_range_meters":5600,"station_id":"ce4bhm12rcd13ifvqgkg","pricing_plan_id":"cebpf4jnsgd1na2vs0mg"},{"bike_id":"26251df8-74b6-4622-a854-fef4826e7216","system_id":"levelo_inurba_marseille","lat":43.29595,"lon":5.37517,"is_reserved":false,"is_disabled":false,"rental_uris":{"android":"levelo://app?vid=26251df8-74b6-4622-a854-fef4826e7216","ios":"levelo://app?vid=26251df8-74b6-4622-a854-fef4826e7216"},"vehicle_type_id":"4","last_reported":1767906724,"current_range_meters":5600,"station_id":"ce4bgh92rcd13ifvqb50","pricing_plan_id":"cebpf4jnsgd1na2vs0mg"},{"bike_id":"5d9cf16b-1d31-47c6-9202-9dcf298ecce7","system_id":"levelo_inurba_marseille","lat":43.29165,"lon":5.371545,"is_reserved":false,"is_disabled":false,"rental_uris":{"android":"levelo://app?vid=5d9cf16b-1d31-47c6-9202-9dcf298ecce7","ios":"levelo://app?vid=5d9cf16b-1d31-47c6-9202-9dcf298ecce7"},"vehicle_type_id":"4","last_reported":1767906724,"current_range_meters":5600,"station_id":"ce4bha92rcd13ifvqeh0","pricing_plan_id":"cebpf4jnsgd1na2vs0mg"},{"bike_id":"d732fcd7-f8ed-43d6-b6ef-d29b2b97a6d4","system_id":"levelo_inurba_marseille","lat":43.2734,"lon":5.3621,"is_reserved":false,"is_disabled":false,"rental_uris":{"android":"levelo://app?vid=d732fcd7-f8ed-43d6-b6ef-d29b2b97a6d4","ios":"levelo://app?vid=d732fcd7-f8ed-43d6-b6ef-d29b2b97a6d4"},"vehicle_type_id":"4","last_reported":1767906724,"current_range_meters":5600,"station_id":"ce4bhbh2rcd13ifvqeo0","pricing_plan_id":"cebpf4jnsgd1na2vs0mg"},{"bike_id":"47d0a8b3-c4fc-4d20-befe-0d9c69ad92a9","system_id":"levelo_inurba_marseille","lat":43.23792,"lon":5.36638,"is_reserved":false,"is_disabled":false,"rental_uris":{"android":"levelo://app?vid=47d0a8b3-c4fc-4d20-befe-0d9c69ad92a9","ios":"levelo://app?vid=47d0a8b3-c4fc-4d20-befe-0d9c69ad92a9"},"vehicle_type_id":"4","last_reported":1767906724,"current_range_meters":5600,"station_id":"st_d3nk18o9ro0c73en2l3g","pricing_plan_id":"cebpf4jnsgd1na2vs0mg"},{"bike_id":"eedec567-ccb8-4202-9b5d-d687ea78b3d8","system_id":"levelo_inurba_marseille","lat":43.24805,"lon":5.37452,"is_reserved":false,"is_disabled":false,"rental_uris":{"android":"levelo://app?vid=eedec567-ccb8-4202-9b5d-d687ea78b3d8","ios":"levelo://app?vid=eedec567-ccb8-4202-9b5d-d687ea78b3d8"},"vehicle_type_id":"4","last_reported":1767906724,"current_range_meters":6000,"station_id":"ce4bhgh2rcd13ifvqfb0","pricing_plan_id":"cebpf4jnsgd1na2vs0mg"},{"bike_id":"a19b20b3-8558-4d25-bd17-616f321d9726","system_id":"levelo_inurba_marseille","lat":43.29201,"lon":5.35806,"is_reserved":false,"is_disabled":false,"rental_uris":{"android":"levelo://app?vid=a19b20b3-8558-4d25-bd17-616f321d9726","ios":"levelo://app?vid=a19b20b3-8558-4d25-bd17-616f321d9726"},"vehicle_type_id":"4","last_reported":1767906724,"current_range_meters":6000,"station_id":"ce4bhb12rcd13ifvqel0","pricing_plan_id":"cebpf4jnsgd1na2vs0mg"},{"bike_id":"19e15d06-cf4c-459d-8887-b3feaa0bcacf","system_id":"levelo_inurba_marseille","lat":43.32817,"lon":5.4042,"is_reserved":false,"is_disabled":false,"rental_uris":{"android":"levelo://app?vid=19e15d06-cf4c-459d-8887-b3feaa0bcacf","ios":"levelo://app?vid=19e15d06-cf4c-459d-8887-b3feaa0bcacf"},"vehicle_type_id":"4","last_reported":1767906724,"current_range_meters":6000,"station_id":"ce4bhq92rcd13ifvqhkg","pricing_plan_id":"cebpf4jnsgd1na2vs0mg"},{"bike_id":"c10c03af-eba1-4f9f-a373-ad08e2aac44e","system_id":"levelo_inurba_marseille","lat":43.2594,"lon":5.40906,"is_reserved":false,"is_disabled":false,"rental_uris":{"android":"levelo://app?vid=c10c03af-eba1-4f9f-a373-ad08e2aac44e","ios":"levelo://app?vid=c10c03af-eba1-4f9f-a373-ad08e2aac44e"},"vehicle_type_id":"4","last_reported":1767906724,"current_range_meters":6000,"station_id":"ce4bhm92rcd13ifvqglg","pricing_plan_id":"cebpf4jnsgd1na2vs0mg"},{"bike_id":"173302e6-6e83-436f-a5e7-5728fa6cbe75","system_id":"levelo_inurba_marseille","lat":43.27567,"lon":5.38402,"is_reserved":false,"is_disabled":false,"rental_uris":{"android":"levelo://app?vid=173302e6-6e83-436f-a5e7-5728fa6cbe75","ios":"levelo://app?vid=173302e6-6e83-436f-a5e7-5728fa6cbe75"},"vehicle_type_id":"4","last_reported":1767906724,"current_range_meters":6000,"station_id":"ce4bhh92rcd13ifvqfi0","pricing_plan_id":"cebpf4jnsgd1na2vs0mg"},{"bike_id":"89d31037-815d-4ebf-9cf1-7e6e32f17ab3","system_id":"levelo_inurba_marseille","lat":43.27166,"lon":5.40994,"is_reserved":false,"is_disabled":false,"rental_uris":{"android":"levelo://app?vid=89d31037-815d-4ebf-9cf1-7e6e32f17ab3","ios":"levelo://app?vid=89d31037-815d-4ebf-9cf1-7e6e32f17ab3"},"vehicle_type_id":"4","last_reported":1767906724,"current_range_meters":6000,"station_id":"ce4bhl12rcd13ifvqgf0","pricing_plan_id":"cebpf4jnsgd1na2vs0mg"},{"bike_id":"7c55c35c-6fd9-4469-9b49-345daf2ec5a2","system_id":"levelo_inurba_marseille","lat":43.290282,"lon":5.386484,"is_reserved":false,"is_disabled":false,"rental_uris":{"android":"levelo://app?vid=7c55c35c-6fd9-4469-9b49-345daf2ec5a2","ios":"levelo://app?vid=7c55c35c-6fd9-4469-9b49-345daf2ec5a2"},"vehicle_type_id":"4","last_reported":1767906724,"current_range_meters":6000,"station_id":"ce4bh4p2rcd13ifvqe0g","pricing_plan_id":"cebpf4jnsgd1na2vs0mg"},{"bike_id":"cb54f6e5-9911-4432-98fa-33b8ae0da364","system_id":"levelo_inurba_marseille","lat":43.26568,"lon":5.3901,"is_reserved":false,"is_disabled":false,"rental_uris":{"android":"levelo://app?vid=cb54f6e5-9911-4432-98fa-33b8ae0da364","ios":"levelo://app?vid=cb54f6e5-9911-4432-98fa-33b8ae0da364"},"vehicle_type_id":"4","last_reported":1767906724,"current_range_meters":6000,"station_id":"ce4bhe12rcd13ifvqf30","pricing_plan_id":"cebpf4jnsgd1na2vs0mg"},{"bike_id":"def7dce9-fdc4-4df2-baea-27b2ff2b32ca","system_id":"levelo_inurba_marseille","lat":43.29173,"lon":5.37143,"is_reserved":false,"is_disabled":false,"rental_uris":{"android":"levelo://app?vid=def7dce9-fdc4-4df2-baea-27b2ff2b32ca","ios":"levelo://app?vid=def7dce9-fdc4-4df2-baea-27b2ff2b32ca"},"vehicle_type_id":"4","last_reported":1767906724,"current_range_meters":6000,"station_id":"ce4bha92rcd13ifvqeh0","pricing_plan_id":"cebpf4jnsgd1na2vs0mg"},{"bike_id":"511a0a4e-8808-437d-8ea6-734f50bee3bd","system_id":"levelo_inurba_marseille","lat":43.28717,"lon":5.36091,"is_reserved":false,"is_disabled":false,"rental_uris":{"android":"levelo://app?vid=511a0a4e-8808-437d-8ea6-734f50bee3bd","ios":"levelo://app?vid=511a0a4e-8808-437d-8ea6-734f50bee3bd"},"vehicle_type_id":"4","last_reported":1767906724,"current_range_meters":6000,"station_id":"cki0cbj6b192h4jlfktg","pricing_plan_id":"cebpf4jnsgd1na2vs0mg"},{"bike_id":"f0db0b22-e088-46a2-abbe-dbd55331e79a","system_id":"levelo_inurba_marseille","lat":43.26371,"lon":5.4106,"is_reserved":false,"is_disabled":false,"rental_uris":{"android":"levelo://app?vid=f0db0b22-e088-46a2-abbe-dbd55331e79a","ios":"levelo://app?vid=f0db0b22-e088-46a2-abbe-dbd55331e79a"},"vehicle_type_id":"4","last_reported":1767906724,"current_range_meters":6000,"station_id":"st_d4e5ca6na9uc73bfl5fg","pricing_plan_id":"cebpf4jnsgd1na2vs0mg"},{"bike_id":"8467f275-f659-442c-b398-0f67f70d7fd1","system_id":"levelo_inurba_marseille","lat":43.27377,"lon":5.36246,"is_reserved":false,"is_disabled":true,"rental_uris":{"android":"levelo://app?vid=8467f275-f659-442c-b398-0f67f70d7fd1","ios":"levelo://app?vid=8467f275-f659-442c-b398-0f67f70d7fd1"},"vehicle_type_id":"4","last_reported":1767906724,"current_range_meters":6000,"station_id":"ce4bhbh2rcd13ifvqeo0","pricing_plan_id":"cebpf4jnsgd1na2vs0mg"},{"bike_id":"3af97df3-b9a6-4cff-9208-f5104be09ce3","system_id":"levelo_inurba_marseille","lat":43.245431,"lon":5.395151,"is_reserved":false,"is_disabled":false,"rental_uris":{"android":"levelo://app?vid=3af97df3-b9a6-4cff-9208-f5104be09ce3","ios":"levelo://app?vid=3af97df3-b9a6-4cff-9208-f5104be09ce3"},"vehicle_type_id":"4","last_reported":1767906724,"current_range_meters":6000,"station_id":"ce4bhlp2rcd13ifvqgjg","pricing_plan_id":"cebpf4jnsgd1na2vs0mg"},{"bike_id":"357563d8-d33e-4f70-862e-8fab05436ef0","system_id":"levelo_inurba_marseille","lat":43.289776,"lon":5.378228,"is_reserved":false,"is_disabled":false,"rental_uris":{"android":"levelo://app?vid=357563d8-d33e-4f70-862e-8fab05436ef0","ios":"levelo://app?vid=357563d8-d33e-4f70-862e-8fab05436ef0"},"vehicle_type_id":"4","last_reported":1767906724,"current_range_meters":6000,"station_id":"","pricing_plan_id":"cebpf4jnsgd1na2vs0mg"},{"bike_id":"348346be-23b6-4510-9dfb-f0de0af16842","system_id":"levelo_inurba_marseille","lat":43.30309,"lon":5.40443,"is_reserved":false,"is_disabled":false,"rental_uris":{"android":"levelo://app?vid=348346be-23b6-4510-9dfb-f0de0af16842","ios":"levelo://app?vid=348346be-23b6-4510-9dfb-f0de0af16842"},"vehicle_type_id":"4","last_reported":1767906724,"current_range_meters":6000,"station_id":"ce4bh012rcd13ifvqd10","pricing_plan_id":"cebpf4jnsgd1na2vs0mg"},{"bike_id":"e87e13ae-d69b-4129-94d6-fdb38119b5d3","system_id":"levelo_inurba_marseille","lat":43.2842,"lon":5.35,"is_reserved":false,"is_disabled":false,"rental_uris":{"android":"levelo://app?vid=e87e13ae-d69b-4129-94d6-fdb38119b5d3","ios":"levelo://app?vid=e87e13ae-d69b-4129-94d6-fdb38119b5d3"},"vehicle_type_id":"4","last_reported":1767906724,"current_range_meters":6000,"station_id":"ce4bhbh2rcd13ifvqepg","pricing_plan_id":"cebpf4jnsgd1na2vs0mg"},{"bike_id":"7401be6f-cce5-4127-bfd0-4e81a357cf0d","system_id":"levelo_inurba_marseille","lat":43.25574,"lon":5.38235,"is_reserved":false,"is_disabled":false,"rental_uris":{"android":"levelo://app?vid=7401be6f-cce5-4127-bfd0-4e81a357cf0d","ios":"levelo://app?vid=7401be6f-cce5-4127-bfd0-4e81a357cf0d"},"vehicle_type_id":"4","last_reported":1767906724,"current_range_meters":6000,"station_id":"ce4bhih2rcd13ifvqfs0","pricing_plan_id":"cebpf4jnsgd1na2vs0mg"},{"bike_id":"9cfeff17-a54a-4b3c-baa8-c7ed795fc5f2","system_id":"levelo_inurba_marseille","lat":43.24154,"lon":5.364,"is_reserved":false,"is_disabled":false,"rental_uris":{"android":"levelo://app?vid=9cfeff17-a54a-4b3c-baa8-c7ed795fc5f2","ios":"levelo://app?vid=9cfeff17-a54a-4b3c-baa8-c7ed795fc5f2"},"vehicle_type_id":"4","last_reported":1767906724,"current_range_meters":6400,"station_id":"cpo36qri1sfpv3e86is0","pricing_plan_id":"cebpf4jnsgd1na2vs0mg"},{"bike_id":"9c202c24-a1c8-4fad-95ee-379e797dad6e","system_id":"levelo_inurba_marseille","lat":43.297991,"lon":5.380831,"is_reserved":false,"is_disabled":false,"rental_uris":{"android":"levelo://app?vid=9c202c24-a1c8-4fad-95ee-379e797dad6e","ios":"levelo://app?vid=9c202c24-a1c8-4fad-95ee-379e797dad6e"},"vehicle_type_id":"4","last_reported":1767906724,"current_range_meters":6400,"station_id":"ce4bgip2rcd13ifvqbb0","pricing_plan_id":"cebpf4jnsgd1na2vs0mg"},{"bike_id":"54eb4ea2-62d2-46f1-be28-8b9786edbd57","system_id":"levelo_inurba_marseille","lat":43.2315,"lon":5.43715,"is_reserved":false,"is_disabled":false,"rental_uris":{"android":"levelo://app?vid=54eb4ea2-62d2-46f1-be28-8b9786edbd57","ios":"levelo://app?vid=54eb4ea2-62d2-46f1-be28-8b9786edbd57"},"vehicle_type_id":"4","last_reported":1767906724,"current_range_meters":6400,"station_id":"ce4bhmp2rcd13ifvqgog","pricing_plan_id":"cebpf4jnsgd1na2vs0mg"},{"bike_id":"873ae146-395a-40ee-8fdf-3d973ffd9442","system_id":"levelo_inurba_marseille","lat":43.25931,"lon":5.40918,"is_reserved":false,"is_disabled":false,"rental_uris":{"android":"levelo://app?vid=873ae146-395a-40ee-8fdf-3d973ffd9442","ios":"levelo://app?vid=873ae146-395a-40ee-8fdf-3d973ffd9442"},"vehicle_type_id":"4","last_reported":1767906724,"current_range_meters":6400,"station_id":"ce4bhm92rcd13ifvqglg","pricing_plan_id":"cebpf4jnsgd1na2vs0mg"},{"bike_id":"d3225a9a-c0b2-4502-a0e2-517d84b39d6a","system_id":"levelo_inurba_marseille","lat":43.29295,"lon":5.37442,"is_reserved":false,"is_disabled":false,"rental_uris":{"android":"levelo://app?vid=d3225a9a-c0b2-4502-a0e2-517d84b39d6a","ios":"levelo://app?vid=d3225a9a-c0b2-4502-a0e2-517d84b39d6a"},"vehicle_type_id":"4","last_reported":1767906724,"current_range_meters":6400,"station_id":"ce4bgi12rcd13ifvqb70","pricing_plan_id":"cebpf4jnsgd1na2vs0mg"},{"bike_id":"43575a91-a351-4c4c-aab4-b71c5991e012","system_id":"levelo_inurba_marseille","lat":43.28033,"lon":5.36944,"is_reserved":false,"is_disabled":false,"rental_uris":{"android":"levelo://app?vid=43575a91-a351-4c4c-aab4-b71c5991e012","ios":"levelo://app?vid=43575a91-a351-4c4c-aab4-b71c5991e012"},"vehicle_type_id":"4","last_reported":1767906724,"current_range_meters":6400,"station_id":"ce4bha12rcd13ifvqef0","pricing_plan_id":"cebpf4jnsgd1na2vs0mg"},{"bike_id":"064c8191-3107-4a12-b80e-6dc34a12a072","system_id":"levelo_inurba_marseille","lat":43.24807,"lon":5.37457,"is_reserved":false,"is_disabled":false,"rental_uris":{"android":"levelo://app?vid=064c8191-3107-4a12-b80e-6dc34a12a072","ios":"levelo://app?vid=064c8191-3107-4a12-b80e-6dc34a12a072"},"vehicle_type_id":"4","last_reported":1767906724,"current_range_meters":6400,"station_id":"ce4bhgh2rcd13ifvqfb0","pricing_plan_id":"cebpf4jnsgd1na2vs0mg"},{"bike_id":"1d8578f4-fc15-4353-b70b-8e0d3a2b2d70","system_id":"levelo_inurba_marseille","lat":43.26369,"lon":5.41085,"is_reserved":false,"is_disabled":false,"rental_uris":{"android":"levelo://app?vid=1d8578f4-fc15-4353-b70b-8e0d3a2b2d70","ios":"levelo://app?vid=1d8578f4-fc15-4353-b70b-8e0d3a2b2d70"},"vehicle_type_id":"4","last_reported":1767906724,"current_range_meters":6400,"station_id":"st_d4e5ca6na9uc73bfl5fg","pricing_plan_id":"cebpf4jnsgd1na2vs0mg"},{"bike_id":"468b4f5f-cda9-4519-831f-7b65ad408fe0","system_id":"levelo_inurba_marseille","lat":43.27353,"lon":5.36221,"is_reserved":false,"is_disabled":false,"rental_uris":{"android":"levelo://app?vid=468b4f5f-cda9-4519-831f-7b65ad408fe0","ios":"levelo://app?vid=468b4f5f-cda9-4519-831f-7b65ad408fe0"},"vehicle_type_id":"4","last_reported":1767906724,"current_range_meters":6400,"station_id":"ce4bhbh2rcd13ifvqeo0","pricing_plan_id":"cebpf4jnsgd1na2vs0mg"},{"bike_id":"ac64f432-9ab8-4dd9-b132-5f28fccbe7fd","system_id":"levelo_inurba_marseille","lat":43.30534,"lon":5.36773,"is_reserved":false,"is_disabled":false,"rental_uris":{"android":"levelo://app?vid=ac64f432-9ab8-4dd9-b132-5f28fccbe7fd","ios":"levelo://app?vid=ac64f432-9ab8-4dd9-b132-5f28fccbe7fd"},"vehicle_type_id":"4","last_reported":1767906724,"current_range_meters":6400,"station_id":"ce4bgrp2rcd13ifvqc9g","pricing_plan_id":"cebpf4jnsgd1na2vs0mg"},{"bike_id":"82582fec-7dfe-4668-947f-7bf0439e6b8e","system_id":"levelo_inurba_marseille","lat":43.28477,"lon":5.48408,"is_reserved":false,"is_disabled":false,"rental_uris":{"android":"levelo://app?vid=82582fec-7dfe-4668-947f-7bf0439e6b8e","ios":"levelo://app?vid=82582fec-7dfe-4668-947f-7bf0439e6b8e"},"vehicle_type_id":"4","last_reported":1767906724,"current_range_meters":6400,"station_id":"","pricing_plan_id":"cebpf4jnsgd1na2vs0mg"},{"bike_id":"9b74e88b-aa07-4fe6-908a-fa88542debbc","system_id":"levelo_inurba_marseille","lat":43.29935,"lon":5.36525,"is_reserved":false,"is_disabled":false,"rental_uris":{"android":"levelo://app?vid=9b74e88b-aa07-4fe6-908a-fa88542debbc","ios":"levelo://app?vid=9b74e88b-aa07-4fe6-908a-fa88542debbc"},"vehicle_type_id":"4","last_reported":1767906724,"current_range_meters":6400,"station_id":"ce4bgm92rcd13ifvqbr0","pricing_plan_id":"cebpf4jnsgd1na2vs0mg"},{"bike_id":"9046a61d-2a80-442f-983f-27f6dc24f4b3","system_id":"levelo_inurba_marseille","lat":43.31069,"lon":5.38348,"is_reserved":false,"is_disabled":false,"rental_uris":{"android":"levelo://app?vid=9046a61d-2a80-442f-983f-27f6dc24f4b3","ios":"levelo://app?vid=9046a61d-2a80-442f-983f-27f6dc24f4b3"},"vehicle_type_id":"4","last_reported":1767906724,"current_range_meters":6400,"station_id":"ce4bgv92rcd13ifvqcr0","pricing_plan_id":"cebpf4jnsgd1na2vs0mg"},{"bike_id":"4eb82fa0-7803-4a10-90fe-2a5c9e41b4a0","system_id":"levelo_inurba_marseille","lat":43.2558,"lon":5.382427,"is_reserved":false,"is_disabled":false,"rental_uris":{"android":"levelo://app?vid=4eb82fa0-7803-4a10-90fe-2a5c9e41b4a0","ios":"levelo://app?vid=4eb82fa0-7803-4a10-90fe-2a5c9e41b4a0"},"vehicle_type_id":"4","last_reported":1767906724,"current_range_meters":6400,"station_id":"ce4bhih2rcd13ifvqfs0","pricing_plan_id":"cebpf4jnsgd1na2vs0mg"},{"bike_id":"e9fbb55b-45ea-4b51-8726-aff775b6f253","system_id":"levelo_inurba_marseille","lat":43.22923,"lon":5.35376,"is_reserved":false,"is_disabled":false,"rental_uris":{"android":"levelo://app?vid=e9fbb55b-45ea-4b51-8726-aff775b6f253","ios":"levelo://app?vid=e9fbb55b-45ea-4b51-8726-aff775b6f253"},"vehicle_type_id":"4","last_reported":1767906724,"current_range_meters":6400,"station_id":"cpo3532slgdg3j2ikp40","pricing_plan_id":"cebpf4jnsgd1na2vs0mg"},{"bike_id":"aa55c2d6-a9b5-454b-bee9-25a23ef9b2bf","system_id":"levelo_inurba_marseille","lat":43.29532,"lon":5.3854,"is_reserved":false,"is_disabled":false,"rental_uris":{"android":"levelo://app?vid=aa55c2d6-a9b5-454b-bee9-25a23ef9b2bf","ios":"levelo://app?vid=aa55c2d6-a9b5-454b-bee9-25a23ef9b2bf"},"vehicle_type_id":"4","last_reported":1767906724,"current_range_meters":6400,"station_id":"ce4bgih2rcd13ifvqba0","pricing_plan_id":"cebpf4jnsgd1na2vs0mg"},{"bike_id":"80c1456b-51ee-4fc1-b2ab-63785d9f6190","system_id":"levelo_inurba_marseille","lat":43.27819,"lon":5.40714,"is_reserved":false,"is_disabled":false,"rental_uris":{"android":"levelo://app?vid=80c1456b-51ee-4fc1-b2ab-63785d9f6190","ios":"levelo://app?vid=80c1456b-51ee-4fc1-b2ab-63785d9f6190"},"vehicle_type_id":"4","last_reported":1767906724,"current_range_meters":6400,"station_id":"ce4bhnh2rcd13ifvqgtg","pricing_plan_id":"cebpf4jnsgd1na2vs0mg"},{"bike_id":"63e4976f-7d93-49f6-a2b3-f7ce857422dd","system_id":"levelo_inurba_marseille","lat":43.30213,"lon":5.38837,"is_reserved":false,"is_disabled":true,"rental_uris":{"android":"levelo://app?vid=63e4976f-7d93-49f6-a2b3-f7ce857422dd","ios":"levelo://app?vid=63e4976f-7d93-49f6-a2b3-f7ce857422dd"},"vehicle_type_id":"4","last_reported":1767906724,"current_range_meters":6400,"station_id":"","pricing_plan_id":"cebpf4jnsgd1na2vs0mg"},{"bike_id":"73543345-4ef9-4e98-84ee-ab10ee209479","system_id":"levelo_inurba_marseille","lat":43.31052,"lon":5.38339,"is_reserved":false,"is_disabled":false,"rental_uris":{"android":"levelo://app?vid=73543345-4ef9-4e98-84ee-ab10ee209479","ios":"levelo://app?vid=73543345-4ef9-4e98-84ee-ab10ee209479"},"vehicle_type_id":"4","last_reported":1767906724,"current_range_meters":6400,"station_id":"ce4bgv92rcd13ifvqcr0","pricing_plan_id":"cebpf4jnsgd1na2vs0mg"},{"bike_id":"ac62c4bb-d4c1-4a08-95d9-40ee91fdac3a","system_id":"levelo_inurba_marseille","lat":43.30243,"lon":5.39241,"is_reserved":false,"is_disabled":false,"rental_uris":{"android":"levelo://app?vid=ac62c4bb-d4c1-4a08-95d9-40ee91fdac3a","ios":"levelo://app?vid=ac62c4bb-d4c1-4a08-95d9-40ee91fdac3a"},"vehicle_type_id":"4","last_reported":1767906724,"current_range_meters":6400,"station_id":"","pricing_plan_id":"cebpf4jnsgd1na2vs0mg"},{"bike_id":"ef8b8eb6-6226-4146-95a1-d01c656eb60d","system_id":"levelo_inurba_marseille","lat":43.28474,"lon":5.48394,"is_reserved":false,"is_disabled":false,"rental_uris":{"android":"levelo://app?vid=ef8b8eb6-6226-4146-95a1-d01c656eb60d","ios":"levelo://app?vid=ef8b8eb6-6226-4146-95a1-d01c656eb60d"},"vehicle_type_id":"4","last_reported":1767906724,"current_range_meters":6400,"station_id":"st_d3svhcjqgbts73a3dn0g","pricing_plan_id":"cebpf4jnsgd1na2vs0mg"},{"bike_id":"393a41f0-e5f4-413f-9f9a-e6feae5722eb","system_id":"levelo_inurba_marseille","lat":43.25854,"lon":5.39439,"is_reserved":false,"is_disabled":false,"rental_uris":{"android":"levelo://app?vid=393a41f0-e5f4-413f-9f9a-e6feae5722eb","ios":"levelo://app?vid=393a41f0-e5f4-413f-9f9a-e6feae5722eb"},"vehicle_type_id":"4","last_reported":1767906724,"current_range_meters":6400,"station_id":"ce4bhip2rcd13ifvqft0","pricing_plan_id":"cebpf4jnsgd1na2vs0mg"},{"bike_id":"e9be6d9d-169b-4cae-9a40-1aae9b41881f","system_id":"levelo_inurba_marseille","lat":43.28781,"lon":5.38093,"is_reserved":false,"is_disabled":false,"rental_uris":{"android":"levelo://app?vid=e9be6d9d-169b-4cae-9a40-1aae9b41881f","ios":"levelo://app?vid=e9be6d9d-169b-4cae-9a40-1aae9b41881f"},"vehicle_type_id":"4","last_reported":1767906724,"current_range_meters":6400,"station_id":"","pricing_plan_id":"cebpf4jnsgd1na2vs0mg"},{"bike_id":"e3d418f6-1922-48a0-a1d0-147f23de209d","system_id":"levelo_inurba_marseille","lat":43.29246,"lon":5.38439,"is_reserved":false,"is_disabled":false,"rental_uris":{"android":"levelo://app?vid=e3d418f6-1922-48a0-a1d0-147f23de209d","ios":"levelo://app?vid=e3d418f6-1922-48a0-a1d0-147f23de209d"},"vehicle_type_id":"4","last_reported":1767906724,"current_range_meters":6400,"station_id":"ce4bh692rcd13ifvqea0","pricing_plan_id":"cebpf4jnsgd1na2vs0mg"},{"bike_id":"0fd80f10-4304-4c12-9af3-a94a305f109a","system_id":"levelo_inurba_marseille","lat":43.26063,"lon":5.39402,"is_reserved":false,"is_disabled":false,"rental_uris":{"android":"levelo://app?vid=0fd80f10-4304-4c12-9af3-a94a305f109a","ios":"levelo://app?vid=0fd80f10-4304-4c12-9af3-a94a305f109a"},"vehicle_type_id":"4","last_reported":1767906724,"current_range_meters":6400,"station_id":"ce4bhh92rcd13ifvqfj0","pricing_plan_id":"cebpf4jnsgd1na2vs0mg"},{"bike_id":"105c24dc-55f2-45c6-a67a-b0586dccd52d","system_id":"levelo_inurba_marseille","lat":43.27832,"lon":5.40714,"is_reserved":false,"is_disabled":false,"rental_uris":{"android":"levelo://app?vid=105c24dc-55f2-45c6-a67a-b0586dccd52d","ios":"levelo://app?vid=105c24dc-55f2-45c6-a67a-b0586dccd52d"},"vehicle_type_id":"4","last_reported":1767906724,"current_range_meters":6400,"station_id":"ce4bhnh2rcd13ifvqgtg","pricing_plan_id":"cebpf4jnsgd1na2vs0mg"},{"bike_id":"3ada1a6b-6031-458a-b05a-7b349030768e","system_id":"levelo_inurba_marseille","lat":43.30549,"lon":5.36795,"is_reserved":false,"is_disabled":false,"rental_uris":{"android":"levelo://app?vid=3ada1a6b-6031-458a-b05a-7b349030768e","ios":"levelo://app?vid=3ada1a6b-6031-458a-b05a-7b349030768e"},"vehicle_type_id":"4","last_reported":1767906724,"current_range_meters":6400,"station_id":"","pricing_plan_id":"cebpf4jnsgd1na2vs0mg"},{"bike_id":"cbe3dc30-63d8-4c7c-94f5-faeafaffef19","system_id":"levelo_inurba_marseille","lat":43.24178,"lon":5.3974,"is_reserved":false,"is_disabled":false,"rental_uris":{"android":"levelo://app?vid=cbe3dc30-63d8-4c7c-94f5-faeafaffef19","ios":"levelo://app?vid=cbe3dc30-63d8-4c7c-94f5-faeafaffef19"},"vehicle_type_id":"4","last_reported":1767906724,"current_range_meters":6400,"station_id":"ce4bhn12rcd13ifvqgpg","pricing_plan_id":"cebpf4jnsgd1na2vs0mg"},{"bike_id":"31d99bf3-4e09-486d-8162-0bfe2e21194b","system_id":"levelo_inurba_marseille","lat":43.27049,"lon":5.38283,"is_reserved":false,"is_disabled":false,"rental_uris":{"android":"levelo://app?vid=31d99bf3-4e09-486d-8162-0bfe2e21194b","ios":"levelo://app?vid=31d99bf3-4e09-486d-8162-0bfe2e21194b"},"vehicle_type_id":"4","last_reported":1767906724,"current_range_meters":6400,"station_id":"st_d3n2fo6cfp8s73cte1j0","pricing_plan_id":"cebpf4jnsgd1na2vs0mg"},{"bike_id":"b4fa0935-9b50-4a59-a851-194d4cccd67f","system_id":"levelo_inurba_marseille","lat":43.24165,"lon":5.36404,"is_reserved":false,"is_disabled":false,"rental_uris":{"android":"levelo://app?vid=b4fa0935-9b50-4a59-a851-194d4cccd67f","ios":"levelo://app?vid=b4fa0935-9b50-4a59-a851-194d4cccd67f"},"vehicle_type_id":"4","last_reported":1767906724,"current_range_meters":6400,"station_id":"cpo36qri1sfpv3e86is0","pricing_plan_id":"cebpf4jnsgd1na2vs0mg"},{"bike_id":"54fd988a-8198-42f7-8f4b-2c7237f3f387","system_id":"levelo_inurba_marseille","lat":43.28684,"lon":5.37955,"is_reserved":false,"is_disabled":false,"rental_uris":{"android":"levelo://app?vid=54fd988a-8198-42f7-8f4b-2c7237f3f387","ios":"levelo://app?vid=54fd988a-8198-42f7-8f4b-2c7237f3f387"},"vehicle_type_id":"4","last_reported":1767906724,"current_range_meters":6800,"station_id":"ce4bh9p2rcd13ifvqec0","pricing_plan_id":"cebpf4jnsgd1na2vs0mg"},{"bike_id":"105c4b26-942d-4f45-9252-db9310292cb7","system_id":"levelo_inurba_marseille","lat":43.24668,"lon":5.38159,"is_reserved":false,"is_disabled":false,"rental_uris":{"android":"levelo://app?vid=105c4b26-942d-4f45-9252-db9310292cb7","ios":"levelo://app?vid=105c4b26-942d-4f45-9252-db9310292cb7"},"vehicle_type_id":"4","last_reported":1767906724,"current_range_meters":6800,"station_id":"ce4bhih2rcd13ifvqfr0","pricing_plan_id":"cebpf4jnsgd1na2vs0mg"},{"bike_id":"cc85a6ba-05f9-4c4d-a519-e1f41fd3e5dc","system_id":"levelo_inurba_marseille","lat":43.29942,"lon":5.36547,"is_reserved":false,"is_disabled":true,"rental_uris":{"android":"levelo://app?vid=cc85a6ba-05f9-4c4d-a519-e1f41fd3e5dc","ios":"levelo://app?vid=cc85a6ba-05f9-4c4d-a519-e1f41fd3e5dc"},"vehicle_type_id":"4","last_reported":1767906724,"current_range_meters":6800,"station_id":"ce4bgm92rcd13ifvqbr0","pricing_plan_id":"cebpf4jnsgd1na2vs0mg"},{"bike_id":"6fad9ca1-61fd-4cab-8c8e-75dda08e921f","system_id":"levelo_inurba_marseille","lat":43.31974,"lon":5.37438,"is_reserved":false,"is_disabled":false,"rental_uris":{"android":"levelo://app?vid=6fad9ca1-61fd-4cab-8c8e-75dda08e921f","ios":"levelo://app?vid=6fad9ca1-61fd-4cab-8c8e-75dda08e921f"},"vehicle_type_id":"4","last_reported":1767906724,"current_range_meters":6800,"station_id":"","pricing_plan_id":"cebpf4jnsgd1na2vs0mg"},{"bike_id":"00bf2578-c2e7-4693-bdfc-aa0da096cebc","system_id":"levelo_inurba_marseille","lat":43.25336,"lon":5.42158,"is_reserved":false,"is_disabled":false,"rental_uris":{"android":"levelo://app?vid=00bf2578-c2e7-4693-bdfc-aa0da096cebc","ios":"levelo://app?vid=00bf2578-c2e7-4693-bdfc-aa0da096cebc"},"vehicle_type_id":"4","last_reported":1767906724,"current_range_meters":6800,"station_id":"st_d2m65c5bi1j21697t3ng","pricing_plan_id":"cebpf4jnsgd1na2vs0mg"},{"bike_id":"5407fece-b1e5-43a9-86e2-b54a7e31d89d","system_id":"levelo_inurba_marseille","lat":43.26202,"lon":5.37442,"is_reserved":false,"is_disabled":false,"rental_uris":{"android":"levelo://app?vid=5407fece-b1e5-43a9-86e2-b54a7e31d89d","ios":"levelo://app?vid=5407fece-b1e5-43a9-86e2-b54a7e31d89d"},"vehicle_type_id":"4","last_reported":1767906724,"current_range_meters":6800,"station_id":"ce4bhgp2rcd13ifvqfc0","pricing_plan_id":"cebpf4jnsgd1na2vs0mg"},{"bike_id":"f6f983e7-e7b8-4163-8f77-daf19e427536","system_id":"levelo_inurba_marseille","lat":43.304774,"lon":5.398894,"is_reserved":false,"is_disabled":false,"rental_uris":{"android":"levelo://app?vid=f6f983e7-e7b8-4163-8f77-daf19e427536","ios":"levelo://app?vid=f6f983e7-e7b8-4163-8f77-daf19e427536"},"vehicle_type_id":"4","last_reported":1767906724,"current_range_meters":6800,"station_id":"ce4bh092rcd13ifvqd30","pricing_plan_id":"cebpf4jnsgd1na2vs0mg"},{"bike_id":"662b526c-8c27-4d2d-b35e-6a1cdf3512ce","system_id":"levelo_inurba_marseille","lat":43.24804,"lon":5.37452,"is_reserved":false,"is_disabled":false,"rental_uris":{"android":"levelo://app?vid=662b526c-8c27-4d2d-b35e-6a1cdf3512ce","ios":"levelo://app?vid=662b526c-8c27-4d2d-b35e-6a1cdf3512ce"},"vehicle_type_id":"4","last_reported":1767906724,"current_range_meters":6800,"station_id":"ce4bhgh2rcd13ifvqfb0","pricing_plan_id":"cebpf4jnsgd1na2vs0mg"},{"bike_id":"97452125-5d86-4a9e-b4a3-a2dd4fe9ffac","system_id":"levelo_inurba_marseille","lat":43.2549,"lon":5.37655,"is_reserved":false,"is_disabled":false,"rental_uris":{"android":"levelo://app?vid=97452125-5d86-4a9e-b4a3-a2dd4fe9ffac","ios":"levelo://app?vid=97452125-5d86-4a9e-b4a3-a2dd4fe9ffac"},"vehicle_type_id":"4","last_reported":1767906724,"current_range_meters":6800,"station_id":"ce4bhh12rcd13ifvqff0","pricing_plan_id":"cebpf4jnsgd1na2vs0mg"},{"bike_id":"49693813-6422-4c0b-883f-2f9444f40ff2","system_id":"levelo_inurba_marseille","lat":43.25492,"lon":5.37647,"is_reserved":false,"is_disabled":false,"rental_uris":{"android":"levelo://app?vid=49693813-6422-4c0b-883f-2f9444f40ff2","ios":"levelo://app?vid=49693813-6422-4c0b-883f-2f9444f40ff2"},"vehicle_type_id":"4","last_reported":1767906724,"current_range_meters":6800,"station_id":"ce4bhh12rcd13ifvqff0","pricing_plan_id":"cebpf4jnsgd1na2vs0mg"},{"bike_id":"7079bdb2-fe45-4309-a762-84cee8c3e4fd","system_id":"levelo_inurba_marseille","lat":43.26549,"lon":5.37287,"is_reserved":false,"is_disabled":false,"rental_uris":{"android":"levelo://app?vid=7079bdb2-fe45-4309-a762-84cee8c3e4fd","ios":"levelo://app?vid=7079bdb2-fe45-4309-a762-84cee8c3e4fd"},"vehicle_type_id":"4","last_reported":1767906724,"current_range_meters":6800,"station_id":"ce4bhg12rcd13ifvqf70","pricing_plan_id":"cebpf4jnsgd1na2vs0mg"},{"bike_id":"efcbda51-62e1-4f07-ab6b-7f654193639e","system_id":"levelo_inurba_marseille","lat":43.26069,"lon":5.39429,"is_reserved":false,"is_disabled":false,"rental_uris":{"android":"levelo://app?vid=efcbda51-62e1-4f07-ab6b-7f654193639e","ios":"levelo://app?vid=efcbda51-62e1-4f07-ab6b-7f654193639e"},"vehicle_type_id":"4","last_reported":1767906724,"current_range_meters":6800,"station_id":"ce4bhh92rcd13ifvqfj0","pricing_plan_id":"cebpf4jnsgd1na2vs0mg"},{"bike_id":"e7876eda-f20f-4ac4-9f72-f1c6c0f3442f","system_id":"levelo_inurba_marseille","lat":43.23971,"lon":5.37768,"is_reserved":false,"is_disabled":false,"rental_uris":{"android":"levelo://app?vid=e7876eda-f20f-4ac4-9f72-f1c6c0f3442f","ios":"levelo://app?vid=e7876eda-f20f-4ac4-9f72-f1c6c0f3442f"},"vehicle_type_id":"4","last_reported":1767906724,"current_range_meters":6800,"station_id":"","pricing_plan_id":"cebpf4jnsgd1na2vs0mg"},{"bike_id":"1a68cb84-5015-4254-8743-ae34d93b9057","system_id":"levelo_inurba_marseille","lat":43.28617,"lon":5.35092,"is_reserved":false,"is_disabled":false,"rental_uris":{"android":"levelo://app?vid=1a68cb84-5015-4254-8743-ae34d93b9057","ios":"levelo://app?vid=1a68cb84-5015-4254-8743-ae34d93b9057"},"vehicle_type_id":"4","last_reported":1767906724,"current_range_meters":6800,"station_id":"ce4bhch2rcd13ifvqeug","pricing_plan_id":"cebpf4jnsgd1na2vs0mg"},{"bike_id":"e412bd1f-9559-40df-baea-da06ff8409ea","system_id":"levelo_inurba_marseille","lat":43.31031,"lon":5.37163,"is_reserved":false,"is_disabled":true,"rental_uris":{"android":"levelo://app?vid=e412bd1f-9559-40df-baea-da06ff8409ea","ios":"levelo://app?vid=e412bd1f-9559-40df-baea-da06ff8409ea"},"vehicle_type_id":"4","last_reported":1767906724,"current_range_meters":6800,"station_id":"st_d4kl2rp97mjs73e7tdfg","pricing_plan_id":"cebpf4jnsgd1na2vs0mg"},{"bike_id":"8ddd903e-4b58-445b-933d-a20697560094","system_id":"levelo_inurba_marseille","lat":43.33414,"lon":5.40094,"is_reserved":false,"is_disabled":false,"rental_uris":{"android":"levelo://app?vid=8ddd903e-4b58-445b-933d-a20697560094","ios":"levelo://app?vid=8ddd903e-4b58-445b-933d-a20697560094"},"vehicle_type_id":"4","last_reported":1767906724,"current_range_meters":6800,"station_id":"","pricing_plan_id":"cebpf4jnsgd1na2vs0mg"},{"bike_id":"dbdb1d28-4d01-4b00-ac03-e7d5e253357c","system_id":"levelo_inurba_marseille","lat":43.239968,"lon":5.366541,"is_reserved":false,"is_disabled":false,"rental_uris":{"android":"levelo://app?vid=dbdb1d28-4d01-4b00-ac03-e7d5e253357c","ios":"levelo://app?vid=dbdb1d28-4d01-4b00-ac03-e7d5e253357c"},"vehicle_type_id":"4","last_reported":1767906724,"current_range_meters":6800,"station_id":"ce4bhi12rcd13ifvqfp0","pricing_plan_id":"cebpf4jnsgd1na2vs0mg"},{"bike_id":"fb7fdc8b-535b-4e29-a51e-736c594595b5","system_id":"levelo_inurba_marseille","lat":43.257607,"lon":5.394362,"is_reserved":false,"is_disabled":false,"rental_uris":{"android":"levelo://app?vid=fb7fdc8b-535b-4e29-a51e-736c594595b5","ios":"levelo://app?vid=fb7fdc8b-535b-4e29-a51e-736c594595b5"},"vehicle_type_id":"4","last_reported":1767906724,"current_range_meters":6800,"station_id":"","pricing_plan_id":"cebpf4jnsgd1na2vs0mg"},{"bike_id":"83baf7ef-456e-4c72-9805-22aa4846a1b3","system_id":"levelo_inurba_marseille","lat":43.28524,"lon":5.44097,"is_reserved":false,"is_disabled":false,"rental_uris":{"android":"levelo://app?vid=83baf7ef-456e-4c72-9805-22aa4846a1b3","ios":"levelo://app?vid=83baf7ef-456e-4c72-9805-22aa4846a1b3"},"vehicle_type_id":"4","last_reported":1767906724,"current_range_meters":6800,"station_id":"st_d3j3df2ikq2c7380ej80","pricing_plan_id":"cebpf4jnsgd1na2vs0mg"},{"bike_id":"79544bb9-349f-409e-b2bb-723f19511937","system_id":"levelo_inurba_marseille","lat":43.285338,"lon":5.44104,"is_reserved":false,"is_disabled":false,"rental_uris":{"android":"levelo://app?vid=79544bb9-349f-409e-b2bb-723f19511937","ios":"levelo://app?vid=79544bb9-349f-409e-b2bb-723f19511937"},"vehicle_type_id":"4","last_reported":1767906724,"current_range_meters":6800,"station_id":"st_d3j3df2ikq2c7380ej80","pricing_plan_id":"cebpf4jnsgd1na2vs0mg"},{"bike_id":"8e3c837a-cc95-4274-9430-ecb19f5a17d7","system_id":"levelo_inurba_marseille","lat":43.29252,"lon":5.38441,"is_reserved":false,"is_disabled":false,"rental_uris":{"android":"levelo://app?vid=8e3c837a-cc95-4274-9430-ecb19f5a17d7","ios":"levelo://app?vid=8e3c837a-cc95-4274-9430-ecb19f5a17d7"},"vehicle_type_id":"4","last_reported":1767906724,"current_range_meters":6800,"station_id":"ce4bh692rcd13ifvqea0","pricing_plan_id":"cebpf4jnsgd1na2vs0mg"},{"bike_id":"748e6a5e-97a9-489d-8fdc-20f62045411a","system_id":"levelo_inurba_marseille","lat":43.28899,"lon":5.39697,"is_reserved":false,"is_disabled":false,"rental_uris":{"android":"levelo://app?vid=748e6a5e-97a9-489d-8fdc-20f62045411a","ios":"levelo://app?vid=748e6a5e-97a9-489d-8fdc-20f62045411a"},"vehicle_type_id":"4","last_reported":1767906724,"current_range_meters":6800,"station_id":"","pricing_plan_id":"cebpf4jnsgd1na2vs0mg"},{"bike_id":"2fe24f14-6f81-40d5-b636-0701220e28ac","system_id":"levelo_inurba_marseille","lat":43.23958,"lon":5.36636,"is_reserved":false,"is_disabled":false,"rental_uris":{"android":"levelo://app?vid=2fe24f14-6f81-40d5-b636-0701220e28ac","ios":"levelo://app?vid=2fe24f14-6f81-40d5-b636-0701220e28ac"},"vehicle_type_id":"4","last_reported":1767906724,"current_range_meters":6800,"station_id":"ce4bhi12rcd13ifvqfp0","pricing_plan_id":"cebpf4jnsgd1na2vs0mg"},{"bike_id":"ae4ea6af-ac8e-4f9d-acb8-d08926e47bb1","system_id":"levelo_inurba_marseille","lat":43.33134,"lon":5.37686,"is_reserved":false,"is_disabled":false,"rental_uris":{"android":"levelo://app?vid=ae4ea6af-ac8e-4f9d-acb8-d08926e47bb1","ios":"levelo://app?vid=ae4ea6af-ac8e-4f9d-acb8-d08926e47bb1"},"vehicle_type_id":"4","last_reported":1767906724,"current_range_meters":7200,"station_id":"st_d46cu089ee8s73dldbu0","pricing_plan_id":"cebpf4jnsgd1na2vs0mg"},{"bike_id":"92ec400a-1816-464b-b776-d8ae8599bbc7","system_id":"levelo_inurba_marseille","lat":43.25579,"lon":5.38241,"is_reserved":false,"is_disabled":false,"rental_uris":{"android":"levelo://app?vid=92ec400a-1816-464b-b776-d8ae8599bbc7","ios":"levelo://app?vid=92ec400a-1816-464b-b776-d8ae8599bbc7"},"vehicle_type_id":"4","last_reported":1767906724,"current_range_meters":7200,"station_id":"ce4bhih2rcd13ifvqfs0","pricing_plan_id":"cebpf4jnsgd1na2vs0mg"},{"bike_id":"dbf5f1c3-172c-4db4-9285-f448fb9a1937","system_id":"levelo_inurba_marseille","lat":43.28404,"lon":5.37511,"is_reserved":false,"is_disabled":false,"rental_uris":{"android":"levelo://app?vid=dbf5f1c3-172c-4db4-9285-f448fb9a1937","ios":"levelo://app?vid=dbf5f1c3-172c-4db4-9285-f448fb9a1937"},"vehicle_type_id":"4","last_reported":1767906724,"current_range_meters":7200,"station_id":"ce4bh412rcd13ifvqds0","pricing_plan_id":"cebpf4jnsgd1na2vs0mg"},{"bike_id":"d976455d-e4b9-48ab-8930-b94397d94941","system_id":"levelo_inurba_marseille","lat":43.26547,"lon":5.37321,"is_reserved":false,"is_disabled":false,"rental_uris":{"android":"levelo://app?vid=d976455d-e4b9-48ab-8930-b94397d94941","ios":"levelo://app?vid=d976455d-e4b9-48ab-8930-b94397d94941"},"vehicle_type_id":"4","last_reported":1767906724,"current_range_meters":7200,"station_id":"ce4bhg12rcd13ifvqf70","pricing_plan_id":"cebpf4jnsgd1na2vs0mg"},{"bike_id":"8f870c12-c0c3-4b7a-8d0a-24f628ad1788","system_id":"levelo_inurba_marseille","lat":43.31003,"lon":5.37935,"is_reserved":false,"is_disabled":false,"rental_uris":{"android":"levelo://app?vid=8f870c12-c0c3-4b7a-8d0a-24f628ad1788","ios":"levelo://app?vid=8f870c12-c0c3-4b7a-8d0a-24f628ad1788"},"vehicle_type_id":"4","last_reported":1767906724,"current_range_meters":7200,"station_id":"","pricing_plan_id":"cebpf4jnsgd1na2vs0mg"},{"bike_id":"98dc7c1c-3a5e-42a5-9270-a7d4dc83e61a","system_id":"levelo_inurba_marseille","lat":43.295488,"lon":5.374946,"is_reserved":false,"is_disabled":false,"rental_uris":{"android":"levelo://app?vid=98dc7c1c-3a5e-42a5-9270-a7d4dc83e61a","ios":"levelo://app?vid=98dc7c1c-3a5e-42a5-9270-a7d4dc83e61a"},"vehicle_type_id":"4","last_reported":1767906724,"current_range_meters":7200,"station_id":"ce4bgkp2rcd13ifvqbmg","pricing_plan_id":"cebpf4jnsgd1na2vs0mg"},{"bike_id":"3a13c5e8-9083-4434-ab8e-63ef5aa08ea0","system_id":"levelo_inurba_marseille","lat":43.28833,"lon":5.39304,"is_reserved":false,"is_disabled":false,"rental_uris":{"android":"levelo://app?vid=3a13c5e8-9083-4434-ab8e-63ef5aa08ea0","ios":"levelo://app?vid=3a13c5e8-9083-4434-ab8e-63ef5aa08ea0"},"vehicle_type_id":"4","last_reported":1767906724,"current_range_meters":7200,"station_id":"ce4bh2p2rcd13ifvqdi0","pricing_plan_id":"cebpf4jnsgd1na2vs0mg"},{"bike_id":"e41d8bea-ffd2-440d-b446-b472b1d04e4d","system_id":"levelo_inurba_marseille","lat":43.23958,"lon":5.36629,"is_reserved":false,"is_disabled":false,"rental_uris":{"android":"levelo://app?vid=e41d8bea-ffd2-440d-b446-b472b1d04e4d","ios":"levelo://app?vid=e41d8bea-ffd2-440d-b446-b472b1d04e4d"},"vehicle_type_id":"4","last_reported":1767906724,"current_range_meters":7200,"station_id":"ce4bhi12rcd13ifvqfp0","pricing_plan_id":"cebpf4jnsgd1na2vs0mg"},{"bike_id":"3b23b54b-4b37-4bff-b135-f439977afa85","system_id":"levelo_inurba_marseille","lat":43.26423,"lon":5.41064,"is_reserved":false,"is_disabled":false,"rental_uris":{"android":"levelo://app?vid=3b23b54b-4b37-4bff-b135-f439977afa85","ios":"levelo://app?vid=3b23b54b-4b37-4bff-b135-f439977afa85"},"vehicle_type_id":"4","last_reported":1767906724,"current_range_meters":7200,"station_id":"st_d4e5ca6na9uc73bfl5fg","pricing_plan_id":"cebpf4jnsgd1na2vs0mg"},{"bike_id":"2b0128e0-75da-46b8-bd6c-4afdbe76468c","system_id":"levelo_inurba_marseille","lat":43.29257,"lon":5.3845,"is_reserved":false,"is_disabled":false,"rental_uris":{"android":"levelo://app?vid=2b0128e0-75da-46b8-bd6c-4afdbe76468c","ios":"levelo://app?vid=2b0128e0-75da-46b8-bd6c-4afdbe76468c"},"vehicle_type_id":"4","last_reported":1767906724,"current_range_meters":7200,"station_id":"ce4bh692rcd13ifvqea0","pricing_plan_id":"cebpf4jnsgd1na2vs0mg"},{"bike_id":"a76c3cca-0b55-4bb3-a27f-9c1202d23218","system_id":"levelo_inurba_marseille","lat":43.27809,"lon":5.40708,"is_reserved":false,"is_disabled":false,"rental_uris":{"android":"levelo://app?vid=a76c3cca-0b55-4bb3-a27f-9c1202d23218","ios":"levelo://app?vid=a76c3cca-0b55-4bb3-a27f-9c1202d23218"},"vehicle_type_id":"4","last_reported":1767906724,"current_range_meters":7200,"station_id":"ce4bhnh2rcd13ifvqgtg","pricing_plan_id":"cebpf4jnsgd1na2vs0mg"},{"bike_id":"94a6901e-f050-4dbd-8990-b774d466a29a","system_id":"levelo_inurba_marseille","lat":43.321,"lon":5.36796,"is_reserved":false,"is_disabled":false,"rental_uris":{"android":"levelo://app?vid=94a6901e-f050-4dbd-8990-b774d466a29a","ios":"levelo://app?vid=94a6901e-f050-4dbd-8990-b774d466a29a"},"vehicle_type_id":"4","last_reported":1767906724,"current_range_meters":7200,"station_id":"ce4bhrh2rcd13ifvqhug","pricing_plan_id":"cebpf4jnsgd1na2vs0mg"},{"bike_id":"755fddff-196e-4df8-9ed5-b269f8727526","system_id":"levelo_inurba_marseille","lat":43.27206,"lon":5.41,"is_reserved":false,"is_disabled":false,"rental_uris":{"android":"levelo://app?vid=755fddff-196e-4df8-9ed5-b269f8727526","ios":"levelo://app?vid=755fddff-196e-4df8-9ed5-b269f8727526"},"vehicle_type_id":"4","last_reported":1767906724,"current_range_meters":7200,"station_id":"ce4bhl12rcd13ifvqgf0","pricing_plan_id":"cebpf4jnsgd1na2vs0mg"},{"bike_id":"109d8450-b799-43a9-9483-e184082bc190","system_id":"levelo_inurba_marseille","lat":43.299675,"lon":5.384902,"is_reserved":false,"is_disabled":false,"rental_uris":{"android":"levelo://app?vid=109d8450-b799-43a9-9483-e184082bc190","ios":"levelo://app?vid=109d8450-b799-43a9-9483-e184082bc190"},"vehicle_type_id":"4","last_reported":1767906724,"current_range_meters":7200,"station_id":"","pricing_plan_id":"cebpf4jnsgd1na2vs0mg"},{"bike_id":"093fbb17-66ae-483c-84c1-5e0eaca9a726","system_id":"levelo_inurba_marseille","lat":43.27605,"lon":5.36123,"is_reserved":false,"is_disabled":false,"rental_uris":{"android":"levelo://app?vid=093fbb17-66ae-483c-84c1-5e0eaca9a726","ios":"levelo://app?vid=093fbb17-66ae-483c-84c1-5e0eaca9a726"},"vehicle_type_id":"4","last_reported":1767906724,"current_range_meters":7200,"station_id":"ce4bgj92rcd13ifvqbe0","pricing_plan_id":"cebpf4jnsgd1na2vs0mg"},{"bike_id":"4a17308d-76c5-4b91-a55b-3ce8529ea7b8","system_id":"levelo_inurba_marseille","lat":43.327227,"lon":5.392477,"is_reserved":false,"is_disabled":false,"rental_uris":{"android":"levelo://app?vid=4a17308d-76c5-4b91-a55b-3ce8529ea7b8","ios":"levelo://app?vid=4a17308d-76c5-4b91-a55b-3ce8529ea7b8"},"vehicle_type_id":"4","last_reported":1767906724,"current_range_meters":7200,"station_id":"","pricing_plan_id":"cebpf4jnsgd1na2vs0mg"},{"bike_id":"72fdb8ed-82d0-439d-aeda-00339a722d69","system_id":"levelo_inurba_marseille","lat":43.295264,"lon":5.385421,"is_reserved":false,"is_disabled":false,"rental_uris":{"android":"levelo://app?vid=72fdb8ed-82d0-439d-aeda-00339a722d69","ios":"levelo://app?vid=72fdb8ed-82d0-439d-aeda-00339a722d69"},"vehicle_type_id":"4","last_reported":1767906724,"current_range_meters":7200,"station_id":"ce4bgih2rcd13ifvqba0","pricing_plan_id":"cebpf4jnsgd1na2vs0mg"},{"bike_id":"a05e4379-7c2e-4edc-831a-4c3fbe80a60c","system_id":"levelo_inurba_marseille","lat":43.30125,"lon":5.43117,"is_reserved":false,"is_disabled":false,"rental_uris":{"android":"levelo://app?vid=a05e4379-7c2e-4edc-831a-4c3fbe80a60c","ios":"levelo://app?vid=a05e4379-7c2e-4edc-831a-4c3fbe80a60c"},"vehicle_type_id":"4","last_reported":1767906724,"current_range_meters":8000,"station_id":"st_d3js3co5814s73ftftug","pricing_plan_id":"cebpf4jnsgd1na2vs0mg"},{"bike_id":"75f78644-8c40-4fbe-ab0f-aa79aaadb7e6","system_id":"levelo_inurba_marseille","lat":43.22555,"lon":5.41632,"is_reserved":false,"is_disabled":false,"rental_uris":{"android":"levelo://app?vid=75f78644-8c40-4fbe-ab0f-aa79aaadb7e6","ios":"levelo://app?vid=75f78644-8c40-4fbe-ab0f-aa79aaadb7e6"},"vehicle_type_id":"4","last_reported":1767906724,"current_range_meters":8000,"station_id":"st_d2o4gvlbi1j2169b742g","pricing_plan_id":"cebpf4jnsgd1na2vs0mg"},{"bike_id":"919b15c7-f6dc-4085-8719-a8f579d2184e","system_id":"levelo_inurba_marseille","lat":43.27372,"lon":5.36258,"is_reserved":false,"is_disabled":false,"rental_uris":{"android":"levelo://app?vid=919b15c7-f6dc-4085-8719-a8f579d2184e","ios":"levelo://app?vid=919b15c7-f6dc-4085-8719-a8f579d2184e"},"vehicle_type_id":"4","last_reported":1767906724,"current_range_meters":8000,"station_id":"ce4bhbh2rcd13ifvqeo0","pricing_plan_id":"cebpf4jnsgd1na2vs0mg"},{"bike_id":"528852f0-b3e1-4361-91fd-d35d5de704d7","system_id":"levelo_inurba_marseille","lat":43.25506,"lon":5.37659,"is_reserved":false,"is_disabled":false,"rental_uris":{"android":"levelo://app?vid=528852f0-b3e1-4361-91fd-d35d5de704d7","ios":"levelo://app?vid=528852f0-b3e1-4361-91fd-d35d5de704d7"},"vehicle_type_id":"4","last_reported":1767906724,"current_range_meters":8000,"station_id":"ce4bhh12rcd13ifvqff0","pricing_plan_id":"cebpf4jnsgd1na2vs0mg"},{"bike_id":"0a50421a-c489-494d-bf6a-aa7e31233387","system_id":"levelo_inurba_marseille","lat":43.27174,"lon":5.40994,"is_reserved":false,"is_disabled":false,"rental_uris":{"android":"levelo://app?vid=0a50421a-c489-494d-bf6a-aa7e31233387","ios":"levelo://app?vid=0a50421a-c489-494d-bf6a-aa7e31233387"},"vehicle_type_id":"4","last_reported":1767906724,"current_range_meters":8000,"station_id":"ce4bhl12rcd13ifvqgf0","pricing_plan_id":"cebpf4jnsgd1na2vs0mg"},{"bike_id":"b2a3da8f-bf56-4eb9-9359-d00614059d44","system_id":"levelo_inurba_marseille","lat":43.29086,"lon":5.38102,"is_reserved":false,"is_disabled":false,"rental_uris":{"android":"levelo://app?vid=b2a3da8f-bf56-4eb9-9359-d00614059d44","ios":"levelo://app?vid=b2a3da8f-bf56-4eb9-9359-d00614059d44"},"vehicle_type_id":"4","last_reported":1767906724,"current_range_meters":8000,"station_id":"ce4bh512rcd13ifvqe2g","pricing_plan_id":"cebpf4jnsgd1na2vs0mg"},{"bike_id":"c674c454-2af5-49f7-821c-c3b83a90b616","system_id":"levelo_inurba_marseille","lat":43.311647,"lon":5.40717,"is_reserved":false,"is_disabled":false,"rental_uris":{"android":"levelo://app?vid=c674c454-2af5-49f7-821c-c3b83a90b616","ios":"levelo://app?vid=c674c454-2af5-49f7-821c-c3b83a90b616"},"vehicle_type_id":"4","last_reported":1767906724,"current_range_meters":8000,"station_id":"","pricing_plan_id":"cebpf4jnsgd1na2vs0mg"},{"bike_id":"b245f0c5-78bf-4543-8037-721fc0e29b79","system_id":"levelo_inurba_marseille","lat":43.29591,"lon":5.37712,"is_reserved":false,"is_disabled":false,"rental_uris":{"android":"levelo://app?vid=b245f0c5-78bf-4543-8037-721fc0e29b79","ios":"levelo://app?vid=b245f0c5-78bf-4543-8037-721fc0e29b79"},"vehicle_type_id":"4","last_reported":1767906724,"current_range_meters":8000,"station_id":"ce4bgi92rcd13ifvqb90","pricing_plan_id":"cebpf4jnsgd1na2vs0mg"},{"bike_id":"88436fbc-a867-41fd-9af6-6ae673233f14","system_id":"levelo_inurba_marseille","lat":43.24554,"lon":5.39531,"is_reserved":false,"is_disabled":false,"rental_uris":{"android":"levelo://app?vid=88436fbc-a867-41fd-9af6-6ae673233f14","ios":"levelo://app?vid=88436fbc-a867-41fd-9af6-6ae673233f14"},"vehicle_type_id":"4","last_reported":1767906724,"current_range_meters":8000,"station_id":"ce4bhlp2rcd13ifvqgjg","pricing_plan_id":"cebpf4jnsgd1na2vs0mg"},{"bike_id":"00352e05-4548-41f0-b7b3-bf74dc835bdc","system_id":"levelo_inurba_marseille","lat":43.31379,"lon":5.38496,"is_reserved":false,"is_disabled":false,"rental_uris":{"android":"levelo://app?vid=00352e05-4548-41f0-b7b3-bf74dc835bdc","ios":"levelo://app?vid=00352e05-4548-41f0-b7b3-bf74dc835bdc"},"vehicle_type_id":"4","last_reported":1767906724,"current_range_meters":8000,"station_id":"ce4bgt92rcd13ifvqcf0","pricing_plan_id":"cebpf4jnsgd1na2vs0mg"},{"bike_id":"52c545a6-4990-49e9-b5f1-ef579ddc71f3","system_id":"levelo_inurba_marseille","lat":43.2559,"lon":5.38253,"is_reserved":false,"is_disabled":false,"rental_uris":{"android":"levelo://app?vid=52c545a6-4990-49e9-b5f1-ef579ddc71f3","ios":"levelo://app?vid=52c545a6-4990-49e9-b5f1-ef579ddc71f3"},"vehicle_type_id":"4","last_reported":1767906724,"current_range_meters":8000,"station_id":"ce4bhih2rcd13ifvqfs0","pricing_plan_id":"cebpf4jnsgd1na2vs0mg"},{"bike_id":"617ca6f2-1481-4c5f-a165-87db9947444a","system_id":"levelo_inurba_marseille","lat":43.284822,"lon":5.483844,"is_reserved":false,"is_disabled":false,"rental_uris":{"android":"levelo://app?vid=617ca6f2-1481-4c5f-a165-87db9947444a","ios":"levelo://app?vid=617ca6f2-1481-4c5f-a165-87db9947444a"},"vehicle_type_id":"4","last_reported":1767906724,"current_range_meters":8000,"station_id":"st_d3svhcjqgbts73a3dn0g","pricing_plan_id":"cebpf4jnsgd1na2vs0mg"},{"bike_id":"ce3cc1d9-9ec8-4064-92e2-4915f0b7e6ce","system_id":"levelo_inurba_marseille","lat":43.24631,"lon":5.43146,"is_reserved":false,"is_disabled":false,"rental_uris":{"android":"levelo://app?vid=ce3cc1d9-9ec8-4064-92e2-4915f0b7e6ce","ios":"levelo://app?vid=ce3cc1d9-9ec8-4064-92e2-4915f0b7e6ce"},"vehicle_type_id":"4","last_reported":1767906724,"current_range_meters":8000,"station_id":"st_d2m6c4gdas8pm72e190g","pricing_plan_id":"cebpf4jnsgd1na2vs0mg"},{"bike_id":"df8e1d6f-10b7-488a-9164-bc1802e0bddd","system_id":"levelo_inurba_marseille","lat":43.25867,"lon":5.3943,"is_reserved":false,"is_disabled":false,"rental_uris":{"android":"levelo://app?vid=df8e1d6f-10b7-488a-9164-bc1802e0bddd","ios":"levelo://app?vid=df8e1d6f-10b7-488a-9164-bc1802e0bddd"},"vehicle_type_id":"4","last_reported":1767906724,"current_range_meters":8000,"station_id":"","pricing_plan_id":"cebpf4jnsgd1na2vs0mg"},{"bike_id":"5f78c659-cbb3-4ec0-96e3-b4fa61c35e46","system_id":"levelo_inurba_marseille","lat":43.28925,"lon":5.36628,"is_reserved":false,"is_disabled":false,"rental_uris":{"android":"levelo://app?vid=5f78c659-cbb3-4ec0-96e3-b4fa61c35e46","ios":"levelo://app?vid=5f78c659-cbb3-4ec0-96e3-b4fa61c35e46"},"vehicle_type_id":"4","last_reported":1767906724,"current_range_meters":8000,"station_id":"ce4bhap2rcd13ifvqek0","pricing_plan_id":"cebpf4jnsgd1na2vs0mg"},{"bike_id":"18afe1b5-d903-471c-9912-7f7a549b58cf","system_id":"levelo_inurba_marseille","lat":43.32115,"lon":5.36795,"is_reserved":false,"is_disabled":false,"rental_uris":{"android":"levelo://app?vid=18afe1b5-d903-471c-9912-7f7a549b58cf","ios":"levelo://app?vid=18afe1b5-d903-471c-9912-7f7a549b58cf"},"vehicle_type_id":"4","last_reported":1767906724,"current_range_meters":8000,"station_id":"ce4bhrh2rcd13ifvqhug","pricing_plan_id":"cebpf4jnsgd1na2vs0mg"},{"bike_id":"33c2115b-3c9b-453c-bb18-e09cc528ee97","system_id":"levelo_inurba_marseille","lat":43.29252,"lon":5.38443,"is_reserved":false,"is_disabled":false,"rental_uris":{"android":"levelo://app?vid=33c2115b-3c9b-453c-bb18-e09cc528ee97","ios":"levelo://app?vid=33c2115b-3c9b-453c-bb18-e09cc528ee97"},"vehicle_type_id":"4","last_reported":1767906724,"current_range_meters":8000,"station_id":"ce4bh692rcd13ifvqea0","pricing_plan_id":"cebpf4jnsgd1na2vs0mg"},{"bike_id":"6ced9933-a7b3-4fa1-aedd-aa0efe62c41a","system_id":"levelo_inurba_marseille","lat":43.28518,"lon":5.44101,"is_reserved":false,"is_disabled":false,"rental_uris":{"android":"levelo://app?vid=6ced9933-a7b3-4fa1-aedd-aa0efe62c41a","ios":"levelo://app?vid=6ced9933-a7b3-4fa1-aedd-aa0efe62c41a"},"vehicle_type_id":"4","last_reported":1767906724,"current_range_meters":8000,"station_id":"st_d3j3df2ikq2c7380ej80","pricing_plan_id":"cebpf4jnsgd1na2vs0mg"},{"bike_id":"31447a0e-5f20-40ed-81c7-81b3e7eb8db6","system_id":"levelo_inurba_marseille","lat":43.31385,"lon":5.38546,"is_reserved":false,"is_disabled":false,"rental_uris":{"android":"levelo://app?vid=31447a0e-5f20-40ed-81c7-81b3e7eb8db6","ios":"levelo://app?vid=31447a0e-5f20-40ed-81c7-81b3e7eb8db6"},"vehicle_type_id":"4","last_reported":1767906724,"current_range_meters":8000,"station_id":"","pricing_plan_id":"cebpf4jnsgd1na2vs0mg"},{"bike_id":"02fbedcf-0ea4-4d04-a895-b6fc85e856b0","system_id":"levelo_inurba_marseille","lat":43.23965,"lon":5.36629,"is_reserved":false,"is_disabled":false,"rental_uris":{"android":"levelo://app?vid=02fbedcf-0ea4-4d04-a895-b6fc85e856b0","ios":"levelo://app?vid=02fbedcf-0ea4-4d04-a895-b6fc85e856b0"},"vehicle_type_id":"4","last_reported":1767906724,"current_range_meters":8000,"station_id":"ce4bhi12rcd13ifvqfp0","pricing_plan_id":"cebpf4jnsgd1na2vs0mg"},{"bike_id":"1ec94ba1-41d1-4288-80e5-6a131d1cb21d","system_id":"levelo_inurba_marseille","lat":43.25336,"lon":5.42175,"is_reserved":false,"is_disabled":false,"rental_uris":{"android":"levelo://app?vid=1ec94ba1-41d1-4288-80e5-6a131d1cb21d","ios":"levelo://app?vid=1ec94ba1-41d1-4288-80e5-6a131d1cb21d"},"vehicle_type_id":"4","last_reported":1767906724,"current_range_meters":8000,"station_id":"st_d2m65c5bi1j21697t3ng","pricing_plan_id":"cebpf4jnsgd1na2vs0mg"},{"bike_id":"a7797131-7cf7-4206-a200-4e16abaaf694","system_id":"levelo_inurba_marseille","lat":43.28439,"lon":5.39182,"is_reserved":false,"is_disabled":false,"rental_uris":{"android":"levelo://app?vid=a7797131-7cf7-4206-a200-4e16abaaf694","ios":"levelo://app?vid=a7797131-7cf7-4206-a200-4e16abaaf694"},"vehicle_type_id":"4","last_reported":1767906724,"current_range_meters":8000,"station_id":"ce4bhoh2rcd13ifvqh5g","pricing_plan_id":"cebpf4jnsgd1na2vs0mg"},{"bike_id":"4cffb3bc-6cb7-4fb3-8e35-ce4d3792bbf1","system_id":"levelo_inurba_marseille","lat":43.28425,"lon":5.37517,"is_reserved":false,"is_disabled":false,"rental_uris":{"android":"levelo://app?vid=4cffb3bc-6cb7-4fb3-8e35-ce4d3792bbf1","ios":"levelo://app?vid=4cffb3bc-6cb7-4fb3-8e35-ce4d3792bbf1"},"vehicle_type_id":"4","last_reported":1767906724,"current_range_meters":8000,"station_id":"ce4bh412rcd13ifvqds0","pricing_plan_id":"cebpf4jnsgd1na2vs0mg"},{"bike_id":"2936f27a-4664-4418-8bc5-fe3d76635d8c","system_id":"levelo_inurba_marseille","lat":43.28444,"lon":5.39201,"is_reserved":false,"is_disabled":false,"rental_uris":{"android":"levelo://app?vid=2936f27a-4664-4418-8bc5-fe3d76635d8c","ios":"levelo://app?vid=2936f27a-4664-4418-8bc5-fe3d76635d8c"},"vehicle_type_id":"4","last_reported":1767906724,"current_range_meters":8000,"station_id":"ce4bhoh2rcd13ifvqh5g","pricing_plan_id":"cebpf4jnsgd1na2vs0mg"},{"bike_id":"d0bf55e7-c3dd-4df1-8cd6-66b35040786f","system_id":"levelo_inurba_marseille","lat":43.29546,"lon":5.37476,"is_reserved":false,"is_disabled":false,"rental_uris":{"android":"levelo://app?vid=d0bf55e7-c3dd-4df1-8cd6-66b35040786f","ios":"levelo://app?vid=d0bf55e7-c3dd-4df1-8cd6-66b35040786f"},"vehicle_type_id":"4","last_reported":1767906724,"current_range_meters":8000,"station_id":"ce4bgkp2rcd13ifvqbmg","pricing_plan_id":"cebpf4jnsgd1na2vs0mg"},{"bike_id":"df8ff779-90c8-4b65-a5d0-99687c060dae","system_id":"levelo_inurba_marseille","lat":43.3233,"lon":5.367,"is_reserved":false,"is_disabled":false,"rental_uris":{"android":"levelo://app?vid=df8ff779-90c8-4b65-a5d0-99687c060dae","ios":"levelo://app?vid=df8ff779-90c8-4b65-a5d0-99687c060dae"},"vehicle_type_id":"4","last_reported":1767906724,"current_range_meters":8000,"station_id":"ce4bhsh2rcd13ifvqi2g","pricing_plan_id":"cebpf4jnsgd1na2vs0mg"},{"bike_id":"36c3097c-2122-4b98-a149-c16b13fb82b9","system_id":"levelo_inurba_marseille","lat":43.26066,"lon":5.39394,"is_reserved":false,"is_disabled":false,"rental_uris":{"android":"levelo://app?vid=36c3097c-2122-4b98-a149-c16b13fb82b9","ios":"levelo://app?vid=36c3097c-2122-4b98-a149-c16b13fb82b9"},"vehicle_type_id":"4","last_reported":1767906724,"current_range_meters":8000,"station_id":"ce4bhh92rcd13ifvqfj0","pricing_plan_id":"cebpf4jnsgd1na2vs0mg"},{"bike_id":"eb0be69b-817e-4d30-a4a4-47d6597cd6b1","system_id":"levelo_inurba_marseille","lat":43.292859,"lon":5.368717,"is_reserved":false,"is_disabled":false,"rental_uris":{"android":"levelo://app?vid=eb0be69b-817e-4d30-a4a4-47d6597cd6b1","ios":"levelo://app?vid=eb0be69b-817e-4d30-a4a4-47d6597cd6b1"},"vehicle_type_id":"4","last_reported":1767906724,"current_range_meters":8000,"station_id":"ce4bh4p2rcd13ifvqe1g","pricing_plan_id":"cebpf4jnsgd1na2vs0mg"},{"bike_id":"0f003947-35f3-407d-841f-7fac78f83875","system_id":"levelo_inurba_marseille","lat":43.27997,"lon":5.41666,"is_reserved":false,"is_disabled":false,"rental_uris":{"android":"levelo://app?vid=0f003947-35f3-407d-841f-7fac78f83875","ios":"levelo://app?vid=0f003947-35f3-407d-841f-7fac78f83875"},"vehicle_type_id":"4","last_reported":1767906724,"current_range_meters":8000,"station_id":"ce4bho12rcd13ifvqh1g","pricing_plan_id":"cebpf4jnsgd1na2vs0mg"},{"bike_id":"07c8e106-78fa-41ca-a44f-e429ba965e69","system_id":"levelo_inurba_marseille","lat":43.28948,"lon":5.39615,"is_reserved":false,"is_disabled":false,"rental_uris":{"android":"levelo://app?vid=07c8e106-78fa-41ca-a44f-e429ba965e69","ios":"levelo://app?vid=07c8e106-78fa-41ca-a44f-e429ba965e69"},"vehicle_type_id":"4","last_reported":1767906724,"current_range_meters":8000,"station_id":"ce4bh3h2rcd13ifvqdn0","pricing_plan_id":"cebpf4jnsgd1na2vs0mg"},{"bike_id":"9b21fb58-1ca0-4226-bc9d-2eb45c91c4c6","system_id":"levelo_inurba_marseille","lat":43.22553,"lon":5.41635,"is_reserved":false,"is_disabled":false,"rental_uris":{"android":"levelo://app?vid=9b21fb58-1ca0-4226-bc9d-2eb45c91c4c6","ios":"levelo://app?vid=9b21fb58-1ca0-4226-bc9d-2eb45c91c4c6"},"vehicle_type_id":"4","last_reported":1767906724,"current_range_meters":8000,"station_id":"st_d2o4gvlbi1j2169b742g","pricing_plan_id":"cebpf4jnsgd1na2vs0mg"},{"bike_id":"a947241a-d3af-4302-a18c-3fd572da3e9b","system_id":"levelo_inurba_marseille","lat":43.26025,"lon":5.37559,"is_reserved":false,"is_disabled":false,"rental_uris":{"android":"levelo://app?vid=a947241a-d3af-4302-a18c-3fd572da3e9b","ios":"levelo://app?vid=a947241a-d3af-4302-a18c-3fd572da3e9b"},"vehicle_type_id":"4","last_reported":1767906724,"current_range_meters":8400,"station_id":"ce4bhgh2rcd13ifvqfa0","pricing_plan_id":"cebpf4jnsgd1na2vs0mg"},{"bike_id":"dbb947af-1323-4d71-86f8-2b2ca2457743","system_id":"levelo_inurba_marseille","lat":43.313289,"lon":5.396891,"is_reserved":false,"is_disabled":false,"rental_uris":{"android":"levelo://app?vid=dbb947af-1323-4d71-86f8-2b2ca2457743","ios":"levelo://app?vid=dbb947af-1323-4d71-86f8-2b2ca2457743"},"vehicle_type_id":"4","last_reported":1767906724,"current_range_meters":8400,"station_id":"ce4bgvp2rcd13ifvqcu0","pricing_plan_id":"cebpf4jnsgd1na2vs0mg"},{"bike_id":"79240f33-4a9c-4431-ac4a-e3c6cfd448c3","system_id":"levelo_inurba_marseille","lat":43.27996,"lon":5.40016,"is_reserved":false,"is_disabled":false,"rental_uris":{"android":"levelo://app?vid=79240f33-4a9c-4431-ac4a-e3c6cfd448c3","ios":"levelo://app?vid=79240f33-4a9c-4431-ac4a-e3c6cfd448c3"},"vehicle_type_id":"4","last_reported":1767906724,"current_range_meters":8400,"station_id":"ce4bho92rcd13ifvqh4g","pricing_plan_id":"cebpf4jnsgd1na2vs0mg"},{"bike_id":"b6af4029-8eba-4bca-8e12-609a0706c4c1","system_id":"levelo_inurba_marseille","lat":43.249607,"lon":5.38941,"is_reserved":false,"is_disabled":false,"rental_uris":{"android":"levelo://app?vid=b6af4029-8eba-4bca-8e12-609a0706c4c1","ios":"levelo://app?vid=b6af4029-8eba-4bca-8e12-609a0706c4c1"},"vehicle_type_id":"4","last_reported":1767906724,"current_range_meters":8400,"station_id":"ce4bhgp2rcd13ifvqfd0","pricing_plan_id":"cebpf4jnsgd1na2vs0mg"},{"bike_id":"0f6ebdf9-af60-414d-9a8a-7bbaf3b7ecdf","system_id":"levelo_inurba_marseille","lat":43.28527,"lon":5.44097,"is_reserved":false,"is_disabled":false,"rental_uris":{"android":"levelo://app?vid=0f6ebdf9-af60-414d-9a8a-7bbaf3b7ecdf","ios":"levelo://app?vid=0f6ebdf9-af60-414d-9a8a-7bbaf3b7ecdf"},"vehicle_type_id":"4","last_reported":1767906724,"current_range_meters":8400,"station_id":"st_d3j3df2ikq2c7380ej80","pricing_plan_id":"cebpf4jnsgd1na2vs0mg"},{"bike_id":"d701f9a2-629b-4468-98f6-17ad25abddd3","system_id":"levelo_inurba_marseille","lat":43.28873,"lon":5.42527,"is_reserved":false,"is_disabled":false,"rental_uris":{"android":"levelo://app?vid=d701f9a2-629b-4468-98f6-17ad25abddd3","ios":"levelo://app?vid=d701f9a2-629b-4468-98f6-17ad25abddd3"},"vehicle_type_id":"4","last_reported":1767906724,"current_range_meters":8400,"station_id":"st_d3b462108ojc7389ooeg","pricing_plan_id":"cebpf4jnsgd1na2vs0mg"},{"bike_id":"6a73fe35-c577-47cd-a870-6666f6f3c779","system_id":"levelo_inurba_marseille","lat":43.28359,"lon":5.38627,"is_reserved":false,"is_disabled":false,"rental_uris":{"android":"levelo://app?vid=6a73fe35-c577-47cd-a870-6666f6f3c779","ios":"levelo://app?vid=6a73fe35-c577-47cd-a870-6666f6f3c779"},"vehicle_type_id":"4","last_reported":1767906724,"current_range_meters":8400,"station_id":"ce4bh492rcd13ifvqdvg","pricing_plan_id":"cebpf4jnsgd1na2vs0mg"},{"bike_id":"18afa7e5-a060-43b9-bd3e-ab224bbb7669","system_id":"levelo_inurba_marseille","lat":43.28868,"lon":5.42531,"is_reserved":false,"is_disabled":false,"rental_uris":{"android":"levelo://app?vid=18afa7e5-a060-43b9-bd3e-ab224bbb7669","ios":"levelo://app?vid=18afa7e5-a060-43b9-bd3e-ab224bbb7669"},"vehicle_type_id":"4","last_reported":1767906724,"current_range_meters":8400,"station_id":"st_d3b462108ojc7389ooeg","pricing_plan_id":"cebpf4jnsgd1na2vs0mg"},{"bike_id":"bd3e889b-ccc0-4909-843d-efebd6b00eb2","system_id":"levelo_inurba_marseille","lat":43.29565,"lon":5.37512,"is_reserved":false,"is_disabled":false,"rental_uris":{"android":"levelo://app?vid=bd3e889b-ccc0-4909-843d-efebd6b00eb2","ios":"levelo://app?vid=bd3e889b-ccc0-4909-843d-efebd6b00eb2"},"vehicle_type_id":"4","last_reported":1767906724,"current_range_meters":8400,"station_id":"ce4bgh92rcd13ifvqb50","pricing_plan_id":"cebpf4jnsgd1na2vs0mg"},{"bike_id":"577b404b-63b1-4b8e-82e8-29162d5c26c7","system_id":"levelo_inurba_marseille","lat":43.32559,"lon":5.36525,"is_reserved":false,"is_disabled":false,"rental_uris":{"android":"levelo://app?vid=577b404b-63b1-4b8e-82e8-29162d5c26c7","ios":"levelo://app?vid=577b404b-63b1-4b8e-82e8-29162d5c26c7"},"vehicle_type_id":"4","last_reported":1767906724,"current_range_meters":8400,"station_id":"","pricing_plan_id":"cebpf4jnsgd1na2vs0mg"},{"bike_id":"2919cce5-d058-401b-aaa9-262f4903e20d","system_id":"levelo_inurba_marseille","lat":43.25834,"lon":5.3944,"is_reserved":false,"is_disabled":false,"rental_uris":{"android":"levelo://app?vid=2919cce5-d058-401b-aaa9-262f4903e20d","ios":"levelo://app?vid=2919cce5-d058-401b-aaa9-262f4903e20d"},"vehicle_type_id":"4","last_reported":1767906724,"current_range_meters":8400,"station_id":"ce4bhip2rcd13ifvqft0","pricing_plan_id":"cebpf4jnsgd1na2vs0mg"},{"bike_id":"e93478ac-e1f7-41a9-a1c3-be0db17f8a47","system_id":"levelo_inurba_marseille","lat":43.28682,"lon":5.3866,"is_reserved":false,"is_disabled":false,"rental_uris":{"android":"levelo://app?vid=e93478ac-e1f7-41a9-a1c3-be0db17f8a47","ios":"levelo://app?vid=e93478ac-e1f7-41a9-a1c3-be0db17f8a47"},"vehicle_type_id":"4","last_reported":1767906724,"current_range_meters":8400,"station_id":"ce4bh492rcd13ifvqdug","pricing_plan_id":"cebpf4jnsgd1na2vs0mg"},{"bike_id":"fc1a47b3-1213-4aaf-ad5c-14e1172fd5ac","system_id":"levelo_inurba_marseille","lat":43.32662,"lon":5.40989,"is_reserved":false,"is_disabled":false,"rental_uris":{"android":"levelo://app?vid=fc1a47b3-1213-4aaf-ad5c-14e1172fd5ac","ios":"levelo://app?vid=fc1a47b3-1213-4aaf-ad5c-14e1172fd5ac"},"vehicle_type_id":"4","last_reported":1767906724,"current_range_meters":8400,"station_id":"ce4bhpp2rcd13ifvqhgg","pricing_plan_id":"cebpf4jnsgd1na2vs0mg"},{"bike_id":"84be322d-3f5a-42b3-b4ff-9332fdae0ce8","system_id":"levelo_inurba_marseille","lat":43.33157,"lon":5.37723,"is_reserved":false,"is_disabled":false,"rental_uris":{"android":"levelo://app?vid=84be322d-3f5a-42b3-b4ff-9332fdae0ce8","ios":"levelo://app?vid=84be322d-3f5a-42b3-b4ff-9332fdae0ce8"},"vehicle_type_id":"4","last_reported":1767906724,"current_range_meters":8400,"station_id":"st_d46cu089ee8s73dldbu0","pricing_plan_id":"cebpf4jnsgd1na2vs0mg"},{"bike_id":"e4b543e4-7198-4112-93ae-6c25b36bd4a3","system_id":"levelo_inurba_marseille","lat":43.23825,"lon":5.36629,"is_reserved":false,"is_disabled":false,"rental_uris":{"android":"levelo://app?vid=e4b543e4-7198-4112-93ae-6c25b36bd4a3","ios":"levelo://app?vid=e4b543e4-7198-4112-93ae-6c25b36bd4a3"},"vehicle_type_id":"4","last_reported":1767906724,"current_range_meters":8400,"station_id":"","pricing_plan_id":"cebpf4jnsgd1na2vs0mg"},{"bike_id":"83204db6-c8e5-4108-9663-94a615af4645","system_id":"levelo_inurba_marseille","lat":43.29527,"lon":5.37488,"is_reserved":false,"is_disabled":false,"rental_uris":{"android":"levelo://app?vid=83204db6-c8e5-4108-9663-94a615af4645","ios":"levelo://app?vid=83204db6-c8e5-4108-9663-94a615af4645"},"vehicle_type_id":"4","last_reported":1767906724,"current_range_meters":8400,"station_id":"ce4bgkp2rcd13ifvqbmg","pricing_plan_id":"cebpf4jnsgd1na2vs0mg"},{"bike_id":"571ac46c-c09d-448b-985a-7beda82b850e","system_id":"levelo_inurba_marseille","lat":43.25335,"lon":5.42175,"is_reserved":false,"is_disabled":false,"rental_uris":{"android":"levelo://app?vid=571ac46c-c09d-448b-985a-7beda82b850e","ios":"levelo://app?vid=571ac46c-c09d-448b-985a-7beda82b850e"},"vehicle_type_id":"4","last_reported":1767906724,"current_range_meters":8400,"station_id":"st_d2m65c5bi1j21697t3ng","pricing_plan_id":"cebpf4jnsgd1na2vs0mg"},