{"last_updated":1729498379,"ttl":60,"version":"2.2","data":{"bikes":[{"bike_id":"08206114-8399-4b10-b2d3-f94ca0b85e27","system_id":"levelo_inurba_marseille","lat":43.29288,"lon":5.37463,"is_reserved":false,"is_disabled":false,"rental_uris":{"android":"levelo://app?vid=08206114-8399-4b10-b2d3-f94ca0b85e27","ios":"levelo://app?vid=08206114-8399-4b10-b2d3-f94ca0b85e27"},"vehicle_type_id":"4","last_reported":1729498379,"current_range_meters":37600,"station_id":"ce4bgi12rcd13ifvqb70","pricing_plan_id":"cebpf4jnsgd1na2vs0mg"},{"bike_id":"45e39af7-2318-411e-bd12-f66a360408d2","system_id":"levelo_inurba_marseille","lat":43.30466,"lon":5.37899,"is_reserved":false,"is_disabled":false,"rental_uris":{"android":"levelo://app?vid=45e39af7-2318-411e-bd12-f66a360408d2","ios":"levelo://app?vid=45e39af7-2318-411e-bd12-f66a360408d2"},"vehicle_type_id":"4","last_reported":1729498379,"current_range_meters":22800,"station_id":"ce4bgup2rcd13ifvqcn0","pricing_plan_id":"cebpf4jnsgd1na2vs0mg"},{"bike_id":"04cc92cc-2f07-489b-aab4-02bc92fdd9a8","system_id":"levelo_inurba_marseille","lat":43.30139,"lon":5.37432,"is_reserved":false,"is_disabled":false,"rental_uris":{"android":"levelo://app?vid=04cc92cc-2f07-489b-aab4-02bc92fdd9a8","ios":"levelo://app?vid=04cc92cc-2f07-489b-aab4-02bc92fdd9a8"},"vehicle_type_id":"4","last_reported":1729498379,"current_range_meters":19600,"station_id":"ce4bgs92rcd13ifvqcc0","pricing_plan_id":"cebpf4jnsgd1na2vs0mg"},{"bike_id":"685a354f-ff49-4ca8-a6ba-515d8049af7f","system_id":"levelo_inurba_marseille","lat":43.27616,"lon":5.3611,"is_reserved":false,"is_disabled":false,"rental_uris":{"android":"levelo://app?vid=685a354f-ff49-4ca8-a6ba-515d8049af7f","ios":"levelo://app?vid=685a354f-ff49-4ca8-a6ba-515d8049af7f"},"vehicle_type_id":"4","last_reported":1729498379,"current_range_meters":38400,"station_id":"ce4bgj92rcd13ifvqbe0","pricing_plan_id":"cebpf4jnsgd1na2vs0mg"},{"bike_id":"6c9aa0c7-63e4-43bd-955c-9f1b3055c12c","system_id":"levelo_inurba_marseille","lat":43.24647,"lon":5.3889,"is_reserved":false,"is_disabled":false,"rental_uris":{"android":"levelo://app?vid=6c9aa0c7-63e4-43bd-955c-9f1b3055c12c","ios":"levelo://app?vid=6c9aa0c7-63e4-43bd-955c-9f1b3055c12c"},"vehicle_type_id":"4","last_reported":1729498379,"current_range_meters":37600,"station_id":"ce4bhg12rcd13ifvqf60","pricing_plan_id":"cebpf4jnsgd1na2vs0mg"},{"bike_id":"e7b833c0-e6b9-4b91-a1f5-51abcf9c69cd","system_id":"levelo_inurba_marseille","lat":43.31122,"lon":5.37775,"is_reserved":false,"is_disabled":false,"rental_uris":{"android":"levelo://app?vid=e7b833c0-e6b9-4b91-a1f5-51abcf9c69cd","ios":"levelo://app?vid=e7b833c0-e6b9-4b91-a1f5-51abcf9c69cd"},"vehicle_type_id":"4","last_reported":1729498379,"current_range_meters":15200,"station_id":"ce4bgt92rcd13ifvqcg0","pricing_plan_id":"cebpf4jnsgd1na2vs0mg"},{"bike_id":"f069a0dc-5a55-4e02-b8d3-b52288048f52","system_id":"levelo_inurba_marseille","lat":43.30909,"lon":5.36856,"is_reserved":false,"is_disabled":false,"rental_uris":{"android":"levelo://app?vid=f069a0dc-5a55-4e02-b8d3-b52288048f52","ios":"levelo://app?vid=f069a0dc-5a55-4e02-b8d3-b52288048f52"},"vehicle_type_id":"4","last_reported":1729498379,"current_range_meters":39200,"station_id":"ce4bgn92rcd13ifvqbvg","pricing_plan_id":"cebpf4jnsgd1na2vs0mg"},{"bike_id":"e87b7e43-d266-42f2-bb17-a0593f82e999","system_id":"levelo_inurba_marseille","lat":43.31994,"lon":5.38151,"is_reserved":false,"is_disabled":false,"rental_uris":{"android":"levelo://app?vid=e87b7e43-d266-42f2-bb17-a0593f82e999","ios":"levelo://app?vid=e87b7e43-d266-42f2-bb17-a0593f82e999"},"vehicle_type_id":"4","last_reported":1729498379,"current_range_meters":14800,"station_id":"ce4bhr12rcd13ifvqhpg","pricing_plan_id":"cebpf4jnsgd1na2vs0mg"},{"bike_id":"49e5d533-b4ae-4f2d-a295-a4e5cb3cba39","system_id":"levelo_inurba_marseille","lat":43.24647,"lon":5.38891,"is_reserved":false,"is_disabled":false,"rental_uris":{"android":"levelo://app?vid=49e5d533-b4ae-4f2d-a295-a4e5cb3cba39","ios":"levelo://app?vid=49e5d533-b4ae-4f2d-a295-a4e5cb3cba39"},"vehicle_type_id":"4","last_reported":1729498379,"current_range_meters":36800,"station_id":"ce4bhg12rcd13ifvqf60","pricing_plan_id":"cebpf4jnsgd1na2vs0mg"},{"bike_id":"085e07f2-6a9a-433e-87cd-72acccbbcfff","system_id":"levelo_inurba_marseille","lat":43.29933,"lon":5.36548,"is_reserved":false,"is_disabled":false,"rental_uris":{"android":"levelo://app?vid=085e07f2-6a9a-433e-87cd-72acccbbcfff","ios":"levelo://app?vid=085e07f2-6a9a-433e-87cd-72acccbbcfff"},"vehicle_type_id":"4","last_reported":1729498379,"current_range_meters":17200,"station_id":"ce4bgm92rcd13ifvqbr0","pricing_plan_id":"cebpf4jnsgd1na2vs0mg"},{"bike_id":"415e15ae-cf52-4bf6-9f98-9af3ff185e52","system_id":"levelo_inurba_marseille","lat":43.34139,"lon":5.40908,"is_reserved":false,"is_disabled":false,"rental_uris":{"android":"levelo://app?vid=415e15ae-cf52-4bf6-9f98-9af3ff185e52","ios":"levelo://app?vid=415e15ae-cf52-4bf6-9f98-9af3ff185e52"},"vehicle_type_id":"4","last_reported":1729498379,"current_range_meters":37600,"station_id":"ce4bhqh2rcd13ifvqhlg","pricing_plan_id":"cebpf4jnsgd1na2vs0mg"},{"bike_id":"5912cabd-2dfc-446e-abab-bb842ad63787","system_id":"levelo_inurba_marseille","lat":43.24544,"lon":5.39526,"is_reserved":false,"is_disabled":false,"rental_uris":{"android":"levelo://app?vid=5912cabd-2dfc-446e-abab-bb842ad63787","ios":"levelo://app?vid=5912cabd-2dfc-446e-abab-bb842ad63787"},"vehicle_type_id":"4","last_reported":1729498379,"current_range_meters":16400,"station_id":"ce4bhlp2rcd13ifvqgjg","pricing_plan_id":"cebpf4jnsgd1na2vs0mg"},{"bike_id":"3f9992d8-818f-4658-8f0e-450cebf37db9","system_id":"levelo_inurba_marseille","lat":43.31358,"lon":5.36712,"is_reserved":false,"is_disabled":false,"rental_uris":{"android":"levelo://app?vid=3f9992d8-818f-4658-8f0e-450cebf37db9","ios":"levelo://app?vid=3f9992d8-818f-4658-8f0e-450cebf37db9"},"vehicle_type_id":"4","last_reported":1729498379,"current_range_meters":26800,"station_id":"ce4bgr92rcd13ifvqc6g","pricing_plan_id":"cebpf4jnsgd1na2vs0mg"},{"bike_id":"21fd7c04-e290-46c7-b5ed-91bd930d8782","system_id":"levelo_inurba_marseille","lat":43.30419,"lon":5.370647,"is_reserved":false,"is_disabled":false,"rental_uris":{"android":"levelo://app?vid=21fd7c04-e290-46c7-b5ed-91bd930d8782","ios":"levelo://app?vid=21fd7c04-e290-46c7-b5ed-91bd930d8782"},"vehicle_type_id":"4","last_reported":1729498379,"current_range_meters":24800,"station_id":"ce4bgqh2rcd13ifvqc4g","pricing_plan_id":"cebpf4jnsgd1na2vs0mg"},{"bike_id":"465d277d-c8de-4a34-9875-808758c00c7a","system_id":"levelo_inurba_marseille","lat":43.34138,"lon":5.40904,"is_reserved":false,"is_disabled":false,"rental_uris":{"android":"levelo://app?vid=465d277d-c8de-4a34-9875-808758c00c7a","ios":"levelo://app?vid=465d277d-c8de-4a34-9875-808758c00c7a"},"vehicle_type_id":"4","last_reported":1729498379,"current_range_meters":22000,"station_id":"ce4bhqh2rcd13ifvqhlg","pricing_plan_id":"cebpf4jnsgd1na2vs0mg"},{"bike_id":"6024a4c6-05a0-4d1a-a0aa-d24dd9d5dadc","system_id":"levelo_inurba_marseille","lat":43.28668,"lon":5.36357,"is_reserved":false,"is_disabled":false,"rental_uris":{"android":"levelo://app?vid=6024a4c6-05a0-4d1a-a0aa-d24dd9d5dadc","ios":"levelo://app?vid=6024a4c6-05a0-4d1a-a0aa-d24dd9d5dadc"},"vehicle_type_id":"4","last_reported":1729498379,"current_range_meters":38000,"station_id":"ce4bhah2rcd13ifvqej0","pricing_plan_id":"cebpf4jnsgd1na2vs0mg"},{"bike_id":"01f65fbf-b58b-4767-8f2c-e63d5f8a47dc","system_id":"levelo_inurba_marseille","lat":43.23179,"lon":5.3998,"is_reserved":false,"is_disabled":false,"rental_uris":{"android":"levelo://app?vid=01f65fbf-b58b-4767-8f2c-e63d5f8a47dc","ios":"levelo://app?vid=01f65fbf-b58b-4767-8f2c-e63d5f8a47dc"},"vehicle_type_id":"4","last_reported":1729498379,"current_range_meters":16400,"station_id":"ce4bhn12rcd13ifvqgqg","pricing_plan_id":"cebpf4jnsgd1na2vs0mg"},{"bike_id":"50f150f1-baf6-41bb-af9b-3671ba96f541","system_id":"levelo_inurba_marseille","lat":43.26783,"lon":5.39412,"is_reserved":false,"is_disabled":false,"rental_uris":{"android":"levelo://app?vid=50f150f1-baf6-41bb-af9b-3671ba96f541","ios":"levelo://app?vid=50f150f1-baf6-41bb-af9b-3671ba96f541"},"vehicle_type_id":"4","last_reported":1729498379,"current_range_meters":32400,"station_id":"ce4bhh12rcd13ifvqfg0","pricing_plan_id":"cebpf4jnsgd1na2vs0mg"},{"bike_id":"b2594242-0333-4ced-bce5-e8eb09325f36","system_id":"levelo_inurba_marseille","lat":43.25821,"lon":5.39438,"is_reserved":false,"is_disabled":false,"rental_uris":{"android":"levelo://app?vid=b2594242-0333-4ced-bce5-e8eb09325f36","ios":"levelo://app?vid=b2594242-0333-4ced-bce5-e8eb09325f36"},"vehicle_type_id":"4","last_reported":1729498379,"current_range_meters":18000,"station_id":"ce4bhip2rcd13ifvqft0","pricing_plan_id":"cebpf4jnsgd1na2vs0mg"},{"bike_id":"007b32f2-d55b-454a-941e-fca8801044b6","system_id":"levelo_inurba_marseille","lat":43.26194,"lon":5.3793,"is_reserved":false,"is_disabled":false,"rental_uris":{"android":"levelo://app?vid=007b32f2-d55b-454a-941e-fca8801044b6","ios":"levelo://app?vid=007b32f2-d55b-454a-941e-fca8801044b6"},"vehicle_type_id":"4","last_reported":1729498379,"current_range_meters":38800,"station_id":"ce4bhjp2rcd13ifvqg90","pricing_plan_id":"cebpf4jnsgd1na2vs0mg"},{"bike_id":"8e45225c-4772-4a88-b2e0-e37c273a9609","system_id":"levelo_inurba_marseille","lat":43.23152,"lon":5.43721,"is_reserved":false,"is_disabled":false,"rental_uris":{"android":"levelo://app?vid=8e45225c-4772-4a88-b2e0-e37c273a9609","ios":"levelo://app?vid=8e45225c-4772-4a88-b2e0-e37c273a9609"},"vehicle_type_id":"4","last_reported":1729498379,"current_range_meters":37600,"station_id":"ce4bhmp2rcd13ifvqgog","pricing_plan_id":"cebpf4jnsgd1na2vs0mg"},{"bike_id":"ddb0c8fc-b648-4e27-af66-b46073413c59","system_id":"levelo_inurba_marseille","lat":43.31345,"lon":5.36704,"is_reserved":false,"is_disabled":false,"rental_uris":{"android":"levelo://app?vid=ddb0c8fc-b648-4e27-af66-b46073413c59","ios":"levelo://app?vid=ddb0c8fc-b648-4e27-af66-b46073413c59"},"vehicle_type_id":"4","last_reported":1729498379,"current_range_meters":30400,"station_id":"ce4bgr92rcd13ifvqc6g","pricing_plan_id":"cebpf4jnsgd1na2vs0mg"},{"bike_id":"bc7668b3-2850-4d02-8bb0-719a9bd73c47","system_id":"levelo_inurba_marseille","lat":43.32659,"lon":5.40985,"is_reserved":false,"is_disabled":false,"rental_uris":{"android":"levelo://app?vid=bc7668b3-2850-4d02-8bb0-719a9bd73c47","ios":"levelo://app?vid=bc7668b3-2850-4d02-8bb0-719a9bd73c47"},"vehicle_type_id":"4","last_reported":1729498379,"current_range_meters":10800,"station_id":"ce4bhpp2rcd13ifvqhgg","pricing_plan_id":"cebpf4jnsgd1na2vs0mg"},{"bike_id":"fe6df0bc-802d-4ee3-942a-d7e2343f47b0","system_id":"levelo_inurba_marseille","lat":43.29572,"lon":5.37499,"is_reserved":false,"is_disabled":false,"rental_uris":{"android":"levelo://app?vid=fe6df0bc-802d-4ee3-942a-d7e2343f47b0","ios":"levelo://app?vid=fe6df0bc-802d-4ee3-942a-d7e2343f47b0"},"vehicle_type_id":"4","last_reported":1729498379,"current_range_meters":10800,"station_id":"ce4bgh92rcd13ifvqb50","pricing_plan_id":"cebpf4jnsgd1na2vs0mg"},{"bike_id":"cffc72a1-9762-4ffa-83d6-8b9856072bf4","system_id":"levelo_inurba_marseille","lat":43.3172,"lon":5.42402,"is_reserved":false,"is_disabled":false,"rental_uris":{"android":"levelo://app?vid=cffc72a1-9762-4ffa-83d6-8b9856072bf4","ios":"levelo://app?vid=cffc72a1-9762-4ffa-83d6-8b9856072bf4"},"vehicle_type_id":"4","last_reported":1729498379,"current_range_meters":38800,"station_id":"ce4bhp92rcd13ifvqhbg","pricing_plan_id":"cebpf4jnsgd1na2vs0mg"},{"bike_id":"bda848a9-9c0f-4e86-b399-a0580de506e0","system_id":"levelo_inurba_marseille","lat":43.27621,"lon":5.36111,"is_reserved":false,"is_disabled":false,"rental_uris":{"android":"levelo://app?vid=bda848a9-9c0f-4e86-b399-a0580de506e0","ios":"levelo://app?vid=bda848a9-9c0f-4e86-b399-a0580de506e0"},"vehicle_type_id":"4","last_reported":1729498379,"current_range_meters":36800,"station_id":"ce4bgj92rcd13ifvqbe0","pricing_plan_id":"cebpf4jnsgd1na2vs0mg"},{"bike_id":"0cb86926-5907-41b1-8366-3b3aac63faa2","system_id":"levelo_inurba_marseille","lat":43.29602,"lon":5.3689,"is_reserved":false,"is_disabled":false,"rental_uris":{"android":"levelo://app?vid=0cb86926-5907-41b1-8366-3b3aac63faa2","ios":"levelo://app?vid=0cb86926-5907-41b1-8366-3b3aac63faa2"},"vehicle_type_id":"4","last_reported":1729498379,"current_range_meters":38800,"station_id":"","pricing_plan_id":"cebpf4jnsgd1na2vs0mg"},{"bike_id":"37a4f9f2-5f27-41f6-8e49-92d6bbb82296","system_id":"levelo_inurba_marseille","lat":43.23191,"lon":5.35549,"is_reserved":false,"is_disabled":false,"rental_uris":{"android":"levelo://app?vid=37a4f9f2-5f27-41f6-8e49-92d6bbb82296","ios":"levelo://app?vid=37a4f9f2-5f27-41f6-8e49-92d6bbb82296"},"vehicle_type_id":"4","last_reported":1729498379,"current_range_meters":36400,"station_id":"ce4bhu92rcd13ifvqi70","pricing_plan_id":"cebpf4jnsgd1na2vs0mg"},{"bike_id":"1db03509-90ea-4c45-99cf-b673ae48504b","system_id":"levelo_inurba_marseille","lat":43.24074,"lon":5.37754,"is_reserved":false,"is_disabled":false,"rental_uris":{"android":"levelo://app?vid=1db03509-90ea-4c45-99cf-b673ae48504b","ios":"levelo://app?vid=1db03509-90ea-4c45-99cf-b673ae48504b"},"vehicle_type_id":"4","last_reported":1729498379,"current_range_meters":30800,"station_id":"ce4bhnp2rcd13ifvqgvg","pricing_plan_id":"cebpf4jnsgd1na2vs0mg"},{"bike_id":"f982a2ea-0271-43f3-b22e-ea172281f0ed","system_id":"levelo_inurba_marseille","lat":43.30463,"lon":5.37906,"is_reserved":false,"is_disabled":false,"rental_uris":{"android":"levelo://app?vid=f982a2ea-0271-43f3-b22e-ea172281f0ed","ios":"levelo://app?vid=f982a2ea-0271-43f3-b22e-ea172281f0ed"},"vehicle_type_id":"4","last_reported":1729498379,"current_range_meters":37600,"station_id":"ce4bgup2rcd13ifvqcn0","pricing_plan_id":"cebpf4jnsgd1na2vs0mg"},{"bike_id":"367a7833-4300-445d-9e62-34e6dc1aeeb1","system_id":"levelo_inurba_marseille","lat":43.33612,"lon":5.41035,"is_reserved":false,"is_disabled":false,"rental_uris":{"android":"levelo://app?vid=367a7833-4300-445d-9e62-34e6dc1aeeb1","ios":"levelo://app?vid=367a7833-4300-445d-9e62-34e6dc1aeeb1"},"vehicle_type_id":"4","last_reported":1729498379,"current_range_meters":35600,"station_id":"ce4bhqh2rcd13ifvqhmg","pricing_plan_id":"cebpf4jnsgd1na2vs0mg"},{"bike_id":"b4189958-1e51-45f4-8234-c489432026c4","system_id":"levelo_inurba_marseille","lat":43.24677,"lon":5.38149,"is_reserved":false,"is_disabled":false,"rental_uris":{"android":"levelo://app?vid=b4189958-1e51-45f4-8234-c489432026c4","ios":"levelo://app?vid=b4189958-1e51-45f4-8234-c489432026c4"},"vehicle_type_id":"4","last_reported":1729498379,"current_range_meters":26000,"station_id":"ce4bhih2rcd13ifvqfr0","pricing_plan_id":"cebpf4jnsgd1na2vs0mg"},{"bike_id":"5b47cbfd-3740-4a35-b9bd-478cf093a87d","system_id":"levelo_inurba_marseille","lat":43.23955,"lon":5.36627,"is_reserved":false,"is_disabled":false,"rental_uris":{"android":"levelo://app?vid=5b47cbfd-3740-4a35-b9bd-478cf093a87d","ios":"levelo://app?vid=5b47cbfd-3740-4a35-b9bd-478cf093a87d"},"vehicle_type_id":"4","last_reported":1729498379,"current_range_meters":24000,"station_id":"ce4bhi12rcd13ifvqfp0","pricing_plan_id":"cebpf4jnsgd1na2vs0mg"},{"bike_id":"3bd2eefc-8b81-44f8-ab5f-7cbe3ad50d2a","system_id":"levelo_inurba_marseille","lat":43.33023,"lon":5.39043,"is_reserved":false,"is_disabled":false,"rental_uris":{"android":"levelo://app?vid=3bd2eefc-8b81-44f8-ab5f-7cbe3ad50d2a","ios":"levelo://app?vid=3bd2eefc-8b81-44f8-ab5f-7cbe3ad50d2a"},"vehicle_type_id":"4","last_reported":1729498379,"current_range_meters":38000,"station_id":"ce4bhr92rcd13ifvqhrg","pricing_plan_id":"cebpf4jnsgd1na2vs0mg"},{"bike_id":"58342ce2-48b6-4554-b620-09ec4681a912","system_id":"levelo_inurba_marseille","lat":43.23955,"lon":5.36621,"is_reserved":false,"is_disabled":false,"rental_uris":{"android":"levelo://app?vid=58342ce2-48b6-4554-b620-09ec4681a912","ios":"levelo://app?vid=58342ce2-48b6-4554-b620-09ec4681a912"},"vehicle_type_id":"4","last_reported":1729498379,"current_range_meters":36800,"station_id":"ce4bhi12rcd13ifvqfp0","pricing_plan_id":"cebpf4jnsgd1na2vs0mg"},{"bike_id":"ff65d4d5-a08a-4411-964b-7de22636cd62","system_id":"levelo_inurba_marseille","lat":43.25001,"lon":5.38923,"is_reserved":false,"is_disabled":false,"rental_uris":{"android":"levelo://app?vid=ff65d4d5-a08a-4411-964b-7de22636cd62","ios":"levelo://app?vid=ff65d4d5-a08a-4411-964b-7de22636cd62"},"vehicle_type_id":"4","last_reported":1729498379,"current_range_meters":22400,"station_id":"ce4bhgp2rcd13ifvqfd0","pricing_plan_id":"cebpf4jnsgd1na2vs0mg"},{"bike_id":"f1bd8b8e-cc5b-40b6-b512-6b3fc91ea2b1","system_id":"levelo_inurba_marseille","lat":43.29902,"lon":5.38152,"is_reserved":false,"is_disabled":false,"rental_uris":{"android":"levelo://app?vid=f1bd8b8e-cc5b-40b6-b512-6b3fc91ea2b1","ios":"levelo://app?vid=f1bd8b8e-cc5b-40b6-b512-6b3fc91ea2b1"},"vehicle_type_id":"4","last_reported":1729498379,"current_range_meters":16800,"station_id":"ce4bgj12rcd13ifvqbc0","pricing_plan_id":"cebpf4jnsgd1na2vs0mg"},{"bike_id":"f81fba27-9970-49c4-815d-1ee0adad372c","system_id":"levelo_inurba_marseille","lat":43.32333,"lon":5.40621,"is_reserved":false,"is_disabled":false,"rental_uris":{"android":"levelo://app?vid=f81fba27-9970-49c4-815d-1ee0adad372c","ios":"levelo://app?vid=f81fba27-9970-49c4-815d-1ee0adad372c"},"vehicle_type_id":"4","last_reported":1729498379,"current_range_meters":29600,"station_id":"ce4bhq92rcd13ifvqhjg","pricing_plan_id":"cebpf4jnsgd1na2vs0mg"},{"bike_id":"8ccdd67c-d5de-43d7-9429-0857f5f447d9","system_id":"levelo_inurba_marseille","lat":43.30137,"lon":5.37424,"is_reserved":false,"is_disabled":false,"rental_uris":{"android":"levelo://app?vid=8ccdd67c-d5de-43d7-9429-0857f5f447d9","ios":"levelo://app?vid=8ccdd67c-d5de-43d7-9429-0857f5f447d9"},"vehicle_type_id":"4","last_reported":1729498379,"current_range_meters":19600,"station_id":"ce4bgs92rcd13ifvqcc0","pricing_plan_id":"cebpf4jnsgd1na2vs0mg"},{"bike_id":"65891004-fadc-4a7e-a75e-ae3d29351aa8","system_id":"levelo_inurba_marseille","lat":43.26678,"lon":5.38267,"is_reserved":false,"is_disabled":false,"rental_uris":{"android":"levelo://app?vid=65891004-fadc-4a7e-a75e-ae3d29351aa8","ios":"levelo://app?vid=65891004-fadc-4a7e-a75e-ae3d29351aa8"},"vehicle_type_id":"4","last_reported":1729498379,"current_range_meters":24800,"station_id":"ce4bhg92rcd13ifvqf90","pricing_plan_id":"cebpf4jnsgd1na2vs0mg"},{"bike_id":"7a0ab312-b352-44c4-87a1-5a8ea290c2b1","system_id":"levelo_inurba_marseille","lat":43.28158,"lon":5.42639,"is_reserved":false,"is_disabled":false,"rental_uris":{"android":"levelo://app?vid=7a0ab312-b352-44c4-87a1-5a8ea290c2b1","ios":"levelo://app?vid=7a0ab312-b352-44c4-87a1-5a8ea290c2b1"},"vehicle_type_id":"4","last_reported":1729498379,"current_range_meters":28000,"station_id":"ce4bhnh2rcd13ifvqgug","pricing_plan_id":"cebpf4jnsgd1na2vs0mg"},{"bike_id":"a60725c4-88ca-4a6a-8d9d-c059b31e9f8d","system_id":"levelo_inurba_marseille","lat":43.30949,"lon":5.39033,"is_reserved":false,"is_disabled":false,"rental_uris":{"android":"levelo://app?vid=a60725c4-88ca-4a6a-8d9d-c059b31e9f8d","ios":"levelo://app?vid=a60725c4-88ca-4a6a-8d9d-c059b31e9f8d"},"vehicle_type_id":"4","last_reported":1729498379,"current_range_meters":23200,"station_id":"ce4bgup2rcd13ifvqco0","pricing_plan_id":"cebpf4jnsgd1na2vs0mg"},{"bike_id":"6fc5767c-7409-405d-8c24-4a08a7e916fc","system_id":"levelo_inurba_marseille","lat":43.24078,"lon":5.37752,"is_reserved":false,"is_disabled":false,"rental_uris":{"android":"levelo://app?vid=6fc5767c-7409-405d-8c24-4a08a7e916fc","ios":"levelo://app?vid=6fc5767c-7409-405d-8c24-4a08a7e916fc"},"vehicle_type_id":"4","last_reported":1729498379,"current_range_meters":38000,"station_id":"ce4bhnp2rcd13ifvqgvg","pricing_plan_id":"cebpf4jnsgd1na2vs0mg"},{"bike_id":"27a86a57-4c68-47a2-a631-706fffcbaed5","system_id":"levelo_inurba_marseille","lat":43.26792,"lon":5.39404,"is_reserved":false,"is_disabled":false,"rental_uris":{"android":"levelo://app?vid=27a86a57-4c68-47a2-a631-706fffcbaed5","ios":"levelo://app?vid=27a86a57-4c68-47a2-a631-706fffcbaed5"},"vehicle_type_id":"4","last_reported":1729498379,"current_range_meters":20000,"station_id":"ce4bhh12rcd13ifvqfg0","pricing_plan_id":"cebpf4jnsgd1na2vs0mg"},{"bike_id":"7baafccc-f243-4381-9dc7-cb5a4f2816d8","system_id":"levelo_inurba_marseille","lat":43.26421,"lon":5.38689,"is_reserved":false,"is_disabled":false,"rental_uris":{"android":"levelo://app?vid=7baafccc-f243-4381-9dc7-cb5a4f2816d8","ios":"levelo://app?vid=7baafccc-f243-4381-9dc7-cb5a4f2816d8"},"vehicle_type_id":"4","last_reported":1729498379,"current_range_meters":15200,"station_id":"","pricing_plan_id":"cebpf4jnsgd1na2vs0mg"},{"bike_id":"541c4793-0686-4664-9a51-6e30e93cf10b","system_id":"levelo_inurba_marseille","lat":43.33749,"lon":5.37445,"is_reserved":false,"is_disabled":false,"rental_uris":{"android":"levelo://app?vid=541c4793-0686-4664-9a51-6e30e93cf10b","ios":"levelo://app?vid=541c4793-0686-4664-9a51-6e30e93cf10b"},"vehicle_type_id":"4","last_reported":1729498379,"current_range_meters":7200,"station_id":"","pricing_plan_id":"cebpf4jnsgd1na2vs0mg"},{"bike_id":"f649ba29-fbd0-4bfe-89f9-8f962a7e95e5","system_id":"levelo_inurba_marseille","lat":43.31491,"lon":5.37299,"is_reserved":false,"is_disabled":false,"rental_uris":{"android":"levelo://app?vid=f649ba29-fbd0-4bfe-89f9-8f962a7e95e5","ios":"levelo://app?vid=f649ba29-fbd0-4bfe-89f9-8f962a7e95e5"},"vehicle_type_id":"4","last_reported":1729498379,"current_range_meters":36000,"station_id":"ce4bgt12rcd13ifvqcd0","pricing_plan_id":"cebpf4jnsgd1na2vs0mg"},{"bike_id":"f69ca7ef-2996-4441-8144-e9b3853af022","system_id":"levelo_inurba_marseille","lat":43.25936,"lon":5.40909,"is_reserved":false,"is_disabled":false,"rental_uris":{"android":"levelo://app?vid=f69ca7ef-2996-4441-8144-e9b3853af022","ios":"levelo://app?vid=f69ca7ef-2996-4441-8144-e9b3853af022"},"vehicle_type_id":"4","last_reported":1729498379,"current_range_meters":22800,"station_id":"ce4bhm92rcd13ifvqglg","pricing_plan_id":"cebpf4jnsgd1na2vs0mg"},{"bike_id":"48a430b9-6b92-4565-b007-22f7dab9e974","system_id":"levelo_inurba_marseille","lat":43.26191,"lon":5.37455,"is_reserved":false,"is_disabled":false,"rental_uris":{"android":"levelo://app?vid=48a430b9-6b92-4565-b007-22f7dab9e974","ios":"levelo://app?vid=48a430b9-6b92-4565-b007-22f7dab9e974"},"vehicle_type_id":"4","last_reported":1729498379,"current_range_meters":38800,"station_id":"ce4bhgp2rcd13ifvqfc0","pricing_plan_id":"cebpf4jnsgd1na2vs0mg"},{"bike_id":"e36e8b70-cdbc-4b6c-9fe9-c4fbf657cc2e","system_id":"levelo_inurba_marseille","lat":43.315136,"lon":5.389629,"is_reserved":false,"is_disabled":false,"rental_uris":{"android":"levelo://app?vid=e36e8b70-cdbc-4b6c-9fe9-c4fbf657cc2e","ios":"levelo://app?vid=e36e8b70-cdbc-4b6c-9fe9-c4fbf657cc2e"},"vehicle_type_id":"4","last_reported":1729498379,"current_range_meters":23200,"station_id":"","pricing_plan_id":"cebpf4jnsgd1na2vs0mg"},{"bike_id":"ceabaa9b-7104-4954-80e9-ea25b0177bdf","system_id":"levelo_inurba_marseille","lat":43.33609,"lon":5.41029,"is_reserved":false,"is_disabled":false,"rental_uris":{"android":"levelo://app?vid=ceabaa9b-7104-4954-80e9-ea25b0177bdf","ios":"levelo://app?vid=ceabaa9b-7104-4954-80e9-ea25b0177bdf"},"vehicle_type_id":"4","last_reported":1729498379,"current_range_meters":32400,"station_id":"ce4bhqh2rcd13ifvqhmg","pricing_plan_id":"cebpf4jnsgd1na2vs0mg"},{"bike_id":"7174d7df-f95a-491a-a34e-a4275caac552","system_id":"levelo_inurba_marseille","lat":43.26683,"lon":5.38273,"is_reserved":false,"is_disabled":false,"rental_uris":{"android":"levelo://app?vid=7174d7df-f95a-491a-a34e-a4275caac552","ios":"levelo://app?vid=7174d7df-f95a-491a-a34e-a4275caac552"},"vehicle_type_id":"4","last_reported":1729498379,"current_range_meters":19200,"station_id":"ce4bhg92rcd13ifvqf90","pricing_plan_id":"cebpf4jnsgd1na2vs0mg"},{"bike_id":"cd0dce23-200f-416c-916b-7be9d153fea3","system_id":"levelo_inurba_marseille","lat":43.26058,"lon":5.3855,"is_reserved":false,"is_disabled":false,"rental_uris":{"android":"levelo://app?vid=cd0dce23-200f-416c-916b-7be9d153fea3","ios":"levelo://app?vid=cd0dce23-200f-416c-916b-7be9d153fea3"},"vehicle_type_id":"4","last_reported":1729498379,"current_range_meters":16000,"station_id":"","pricing_plan_id":"cebpf4jnsgd1na2vs0mg"},{"bike_id":"b9175135-0b04-485b-9be3-74b8f5c199a9","system_id":"levelo_inurba_marseille","lat":43.29785,"lon":5.37104,"is_reserved":false,"is_disabled":false,"rental_uris":{"android":"levelo://app?vid=b9175135-0b04-485b-9be3-74b8f5c199a9","ios":"levelo://app?vid=b9175135-0b04-485b-9be3-74b8f5c199a9"},"vehicle_type_id":"4","last_reported":1729498379,"current_range_meters":29600,"station_id":"ce4bgop2rcd13ifvqc1g","pricing_plan_id":"cebpf4jnsgd1na2vs0mg"},{"bike_id":"4afe7897-8fa1-4249-857f-6a15ea49319b","system_id":"levelo_inurba_marseille","lat":43.31691,"lon":5.40469,"is_reserved":false,"is_disabled":false,"rental_uris":{"android":"levelo://app?vid=4afe7897-8fa1-4249-857f-6a15ea49319b","ios":"levelo://app?vid=4afe7897-8fa1-4249-857f-6a15ea49319b"},"vehicle_type_id":"4","last_reported":1729498379,"current_range_meters":25200,"station_id":"ce4bh012rcd13ifvqd00","pricing_plan_id":"cebpf4jnsgd1na2vs0mg"},{"bike_id":"86f680b7-d8d0-45c2-bd6c-7639aae30d26","system_id":"levelo_inurba_marseille","lat":43.2418,"lon":5.39731,"is_reserved":false,"is_disabled":false,"rental_uris":{"android":"levelo://app?vid=86f680b7-d8d0-45c2-bd6c-7639aae30d26","ios":"levelo://app?vid=86f680b7-d8d0-45c2-bd6c-7639aae30d26"},"vehicle_type_id":"4","last_reported":1729498379,"current_range_meters":20800,"station_id":"ce4bhn12rcd13ifvqgpg","pricing_plan_id":"cebpf4jnsgd1na2vs0mg"},{"bike_id":"3074eab9-5df2-4549-8df7-c8447d4f5d38","system_id":"levelo_inurba_marseille","lat":43.23186,"lon":5.39973,"is_reserved":false,"is_disabled":false,"rental_uris":{"android":"levelo://app?vid=3074eab9-5df2-4549-8df7-c8447d4f5d38","ios":"levelo://app?vid=3074eab9-5df2-4549-8df7-c8447d4f5d38"},"vehicle_type_id":"4","last_reported":1729498379,"current_range_meters":28000,"station_id":"ce4bhn12rcd13ifvqgqg","pricing_plan_id":"cebpf4jnsgd1na2vs0mg"},{"bike_id":"8deeda66-aa1d-41a6-95c2-fd6566620e6a","system_id":"levelo_inurba_marseille","lat":43.32479,"lon":5.36557,"is_reserved":false,"is_disabled":false,"rental_uris":{"android":"levelo://app?vid=8deeda66-aa1d-41a6-95c2-fd6566620e6a","ios":"levelo://app?vid=8deeda66-aa1d-41a6-95c2-fd6566620e6a"},"vehicle_type_id":"4","last_reported":1729498379,"current_range_meters":36400,"station_id":"ce4bhs12rcd13ifvqhvg","pricing_plan_id":"cebpf4jnsgd1na2vs0mg"},{"bike_id":"6670352d-ea39-4392-9ae9-a3b6ac92e931","system_id":"levelo_inurba_marseille","lat":43.30463,"lon":5.379,"is_reserved":false,"is_disabled":false,"rental_uris":{"android":"levelo://app?vid=6670352d-ea39-4392-9ae9-a3b6ac92e931","ios":"levelo://app?vid=6670352d-ea39-4392-9ae9-a3b6ac92e931"},"vehicle_type_id":"4","last_reported":1729498379,"current_range_meters":30800,"station_id":"ce4bgup2rcd13ifvqcn0","pricing_plan_id":"cebpf4jnsgd1na2vs0mg"},{"bike_id":"1ecff0d4-652b-43ab-b2b9-5b899be95dce","system_id":"levelo_inurba_marseille","lat":43.29622,"lon":5.37168,"is_reserved":false,"is_disabled":false,"rental_uris":{"android":"levelo://app?vid=1ecff0d4-652b-43ab-b2b9-5b899be95dce","ios":"levelo://app?vid=1ecff0d4-652b-43ab-b2b9-5b899be95dce"},"vehicle_type_id":"4","last_reported":1729498379,"current_range_meters":23200,"station_id":"ce4bgnh2rcd13ifvqc0g","pricing_plan_id":"cebpf4jnsgd1na2vs0mg"},{"bike_id":"f77d75a0-21c8-4ccc-bba5-f5d7d460aa1d","system_id":"levelo_inurba_marseille","lat":43.295506,"lon":5.422859,"is_reserved":false,"is_disabled":false,"rental_uris":{"android":"levelo://app?vid=f77d75a0-21c8-4ccc-bba5-f5d7d460aa1d","ios":"levelo://app?vid=f77d75a0-21c8-4ccc-bba5-f5d7d460aa1d"},"vehicle_type_id":"4","last_reported":1729498379,"current_range_meters":34800,"station_id":"ce4bhph2rcd13ifvqhdg","pricing_plan_id":"cebpf4jnsgd1na2vs0mg"},{"bike_id":"e3bd1799-d90a-4b0d-9087-8873a9f9f703","system_id":"levelo_inurba_marseille","lat":43.30549,"lon":5.365493,"is_reserved":false,"is_disabled":false,"rental_uris":{"android":"levelo://app?vid=e3bd1799-d90a-4b0d-9087-8873a9f9f703","ios":"levelo://app?vid=e3bd1799-d90a-4b0d-9087-8873a9f9f703"},"vehicle_type_id":"4","last_reported":1729498379,"current_range_meters":37600,"station_id":"ce4bgs12rcd13ifvqcag","pricing_plan_id":"cebpf4jnsgd1na2vs0mg"},{"bike_id":"dba008c7-8936-49f9-9648-f5f3c66ff3ca","system_id":"levelo_inurba_marseille","lat":43.29268,"lon":5.36844,"is_reserved":false,"is_disabled":false,"rental_uris":{"android":"levelo://app?vid=dba008c7-8936-49f9-9648-f5f3c66ff3ca","ios":"levelo://app?vid=dba008c7-8936-49f9-9648-f5f3c66ff3ca"},"vehicle_type_id":"4","last_reported":1729498379,"current_range_meters":20000,"station_id":"ce4bhbp2rcd13ifvqesg","pricing_plan_id":"cebpf4jnsgd1na2vs0mg"},{"bike_id":"fb4c1f40-f843-4a8a-8dc9-8cb92e4b3334","system_id":"levelo_inurba_marseille","lat":43.26937,"lon":5.40242,"is_reserved":false,"is_disabled":false,"rental_uris":{"android":"levelo://app?vid=fb4c1f40-f843-4a8a-8dc9-8cb92e4b3334","ios":"levelo://app?vid=fb4c1f40-f843-4a8a-8dc9-8cb92e4b3334"},"vehicle_type_id":"4","last_reported":1729498379,"current_range_meters":28000,"station_id":"cjm6bp8fraef2m0cb0m0","pricing_plan_id":"cebpf4jnsgd1na2vs0mg"},{"bike_id":"f0b62db5-5892-4cd3-91e1-48dd33a8bb96","system_id":"levelo_inurba_marseille","lat":43.24549,"lon":5.39524,"is_reserved":false,"is_disabled":false,"rental_uris":{"android":"levelo://app?vid=f0b62db5-5892-4cd3-91e1-48dd33a8bb96","ios":"levelo://app?vid=f0b62db5-5892-4cd3-91e1-48dd33a8bb96"},"vehicle_type_id":"4","last_reported":1729498379,"current_range_meters":19200,"station_id":"ce4bhlp2rcd13ifvqgjg","pricing_plan_id":"cebpf4jnsgd1na2vs0mg"},{"bike_id":"9e9796c2-ce92-408f-b9e0-895128ce3124","system_id":"levelo_inurba_marseille","lat":43.2668,"lon":5.38276,"is_reserved":false,"is_disabled":false,"rental_uris":{"android":"levelo://app?vid=9e9796c2-ce92-408f-b9e0-895128ce3124","ios":"levelo://app?vid=9e9796c2-ce92-408f-b9e0-895128ce3124"},"vehicle_type_id":"4","last_reported":1729498379,"current_range_meters":7200,"station_id":"ce4bhg92rcd13ifvqf90","pricing_plan_id":"cebpf4jnsgd1na2vs0mg"},{"bike_id":"5a86c739-e9af-4128-91c4-dda5abb05701","system_id":"levelo_inurba_marseille","lat":43.33612,"lon":5.41028,"is_reserved":false,"is_disabled":false,"rental_uris":{"android":"levelo://app?vid=5a86c739-e9af-4128-91c4-dda5abb05701","ios":"levelo://app?vid=5a86c739-e9af-4128-91c4-dda5abb05701"},"vehicle_type_id":"4","last_reported":1729498379,"current_range_meters":8400,"station_id":"ce4bhqh2rcd13ifvqhmg","pricing_plan_id":"cebpf4jnsgd1na2vs0mg"},{"bike_id":"6228e861-478f-410d-b038-0f897077fe4f","system_id":"levelo_inurba_marseille","lat":43.25497,"lon":5.37648,"is_reserved":false,"is_disabled":false,"rental_uris":{"android":"levelo://app?vid=6228e861-478f-410d-b038-0f897077fe4f","ios":"levelo://app?vid=6228e861-478f-410d-b038-0f897077fe4f"},"vehicle_type_id":"4","last_reported":1729498379,"current_range_meters":38000,"station_id":"ce4bhh12rcd13ifvqff0","pricing_plan_id":"cebpf4jnsgd1na2vs0mg"},{"bike_id":"d06a881c-f80d-48b8-9719-6afcceb956d7","system_id":"levelo_inurba_marseille","lat":43.3302,"lon":5.39035,"is_reserved":false,"is_disabled":false,"rental_uris":{"android":"levelo://app?vid=d06a881c-f80d-48b8-9719-6afcceb956d7","ios":"levelo://app?vid=d06a881c-f80d-48b8-9719-6afcceb956d7"},"vehicle_type_id":"4","last_reported":1729498379,"current_range_meters":38800,"station_id":"ce4bhr92rcd13ifvqhrg","pricing_plan_id":"cebpf4jnsgd1na2vs0mg"},{"bike_id":"0714a8b7-f363-41f9-bd82-9c3af1e2e5d8","system_id":"levelo_inurba_marseille","lat":43.27058,"lon":5.40256,"is_reserved":false,"is_disabled":false,"rental_uris":{"android":"levelo://app?vid=0714a8b7-f363-41f9-bd82-9c3af1e2e5d8","ios":"levelo://app?vid=0714a8b7-f363-41f9-bd82-9c3af1e2e5d8"},"vehicle_type_id":"4","last_reported":1729498379,"current_range_meters":30000,"station_id":"ce4bhk92rcd13ifvqgc0","pricing_plan_id":"cebpf4jnsgd1na2vs0mg"},{"bike_id":"3701adb6-e87b-44e7-b5b8-a659a9565d5b","system_id":"levelo_inurba_marseille","lat":43.24072,"lon":5.37756,"is_reserved":false,"is_disabled":false,"rental_uris":{"android":"levelo://app?vid=3701adb6-e87b-44e7-b5b8-a659a9565d5b","ios":"levelo://app?vid=3701adb6-e87b-44e7-b5b8-a659a9565d5b"},"vehicle_type_id":"4","last_reported":1729498379,"current_range_meters":6000,"station_id":"ce4bhnp2rcd13ifvqgvg","pricing_plan_id":"cebpf4jnsgd1na2vs0mg"},{"bike_id":"fc2db51a-f0ef-4e75-ad3a-b27ae4dc3a7b","system_id":"levelo_inurba_marseille","lat":43.32486,"lon":5.36572,"is_reserved":false,"is_disabled":false,"rental_uris":{"android":"levelo://app?vid=fc2db51a-f0ef-4e75-ad3a-b27ae4dc3a7b","ios":"levelo://app?vid=fc2db51a-f0ef-4e75-ad3a-b27ae4dc3a7b"},"vehicle_type_id":"4","last_reported":1729498379,"current_range_meters":18800,"station_id":"ce4bhs12rcd13ifvqhvg","pricing_plan_id":"cebpf4jnsgd1na2vs0mg"},{"bike_id":"766da900-471d-42f5-8cfa-8db494f945d7","system_id":"levelo_inurba_marseille","lat":43.2892,"lon":5.4605,"is_reserved":false,"is_disabled":false,"rental_uris":{"android":"levelo://app?vid=766da900-471d-42f5-8cfa-8db494f945d7","ios":"levelo://app?vid=766da900-471d-42f5-8cfa-8db494f945d7"},"vehicle_type_id":"4","last_reported":1729498379,"current_range_meters":20000,"station_id":"","pricing_plan_id":"cebpf4jnsgd1na2vs0mg"},{"bike_id":"2fdf444c-bdb9-478f-ad75-22e42eee449c","system_id":"levelo_inurba_marseille","lat":43.31363,"lon":5.36714,"is_reserved":false,"is_disabled":false,"rental_uris":{"android":"levelo://app?vid=2fdf444c-bdb9-478f-ad75-22e42eee449c","ios":"levelo://app?vid=2fdf444c-bdb9-478f-ad75-22e42eee449c"},"vehicle_type_id":"4","last_reported":1729498379,"current_range_meters":31200,"station_id":"ce4bgr92rcd13ifvqc6g","pricing_plan_id":"cebpf4jnsgd1na2vs0mg"},{"bike_id":"2b732e07-d55f-46d2-9872-de0a6a9ddc8d","system_id":"levelo_inurba_marseille","lat":43.27612,"lon":5.36114,"is_reserved":false,"is_disabled":false,"rental_uris":{"android":"levelo://app?vid=2b732e07-d55f-46d2-9872-de0a6a9ddc8d","ios":"levelo://app?vid=2b732e07-d55f-46d2-9872-de0a6a9ddc8d"},"vehicle_type_id":"4","last_reported":1729498379,"current_range_meters":38400,"station_id":"ce4bgj92rcd13ifvqbe0","pricing_plan_id":"cebpf4jnsgd1na2vs0mg"},{"bike_id":"97b3151a-beeb-4204-b70d-b8d1a0c99d9e","system_id":"levelo_inurba_marseille","lat":43.304613,"lon":5.379068,"is_reserved":false,"is_disabled":false,"rental_uris":{"android":"levelo://app?vid=97b3151a-beeb-4204-b70d-b8d1a0c99d9e","ios":"levelo://app?vid=97b3151a-beeb-4204-b70d-b8d1a0c99d9e"},"vehicle_type_id":"4","last_reported":1729498379,"current_range_meters":39200,"station_id":"ce4bgup2rcd13ifvqcn0","pricing_plan_id":"cebpf4jnsgd1na2vs0mg"},{"bike_id":"4a5dc7f8-2f34-473f-9ce7-f2a853f522d2","system_id":"levelo_inurba_marseille","lat":43.30462,"lon":5.37898,"is_reserved":false,"is_disabled":false,"rental_uris":{"android":"levelo://app?vid=4a5dc7f8-2f34-473f-9ce7-f2a853f522d2","ios":"levelo://app?vid=4a5dc7f8-2f34-473f-9ce7-f2a853f522d2"},"vehicle_type_id":"4","last_reported":1729498379,"current_range_meters":38000,"station_id":"ce4bgup2rcd13ifvqcn0","pricing_plan_id":"cebpf4jnsgd1na2vs0mg"},{"bike_id":"0b923dd1-548c-4e5f-8039-71a30a1aa65f","system_id":"levelo_inurba_marseille","lat":43.34135,"lon":5.409,"is_reserved":false,"is_disabled":false,"rental_uris":{"android":"levelo://app?vid=0b923dd1-548c-4e5f-8039-71a30a1aa65f","ios":"levelo://app?vid=0b923dd1-548c-4e5f-8039-71a30a1aa65f"},"vehicle_type_id":"4","last_reported":1729498379,"current_range_meters":23200,"station_id":"ce4bhqh2rcd13ifvqhlg","pricing_plan_id":"cebpf4jnsgd1na2vs0mg"},{"bike_id":"d1d1a053-caf5-4039-8ccb-3ddbb1660832","system_id":"levelo_inurba_marseille","lat":43.29553,"lon":5.42289,"is_reserved":false,"is_disabled":false,"rental_uris":{"android":"levelo://app?vid=d1d1a053-caf5-4039-8ccb-3ddbb1660832","ios":"levelo://app?vid=d1d1a053-caf5-4039-8ccb-3ddbb1660832"},"vehicle_type_id":"4","last_reported":1729498379,"current_range_meters":24800,"station_id":"ce4bhph2rcd13ifvqhdg","pricing_plan_id":"cebpf4jnsgd1na2vs0mg"},{"bike_id":"1960cb64-0f4c-48b0-bbdb-65fc8c595041","system_id":"levelo_inurba_marseille","lat":43.265,"lon":5.39527,"is_reserved":false,"is_disabled":false,"rental_uris":{"android":"levelo://app?vid=1960cb64-0f4c-48b0-bbdb-65fc8c595041","ios":"levelo://app?vid=1960cb64-0f4c-48b0-bbdb-65fc8c595041"},"vehicle_type_id":"4","last_reported":1729498379,"current_range_meters":8400,"station_id":"ce4bhi12rcd13ifvqfq0","pricing_plan_id":"cebpf4jnsgd1na2vs0mg"},{"bike_id":"767e54ea-2862-4d5d-9e5e-31ffd94b6375","system_id":"levelo_inurba_marseille","lat":43.24548,"lon":5.39527,"is_reserved":false,"is_disabled":false,"rental_uris":{"android":"levelo://app?vid=767e54ea-2862-4d5d-9e5e-31ffd94b6375","ios":"levelo://app?vid=767e54ea-2862-4d5d-9e5e-31ffd94b6375"},"vehicle_type_id":"4","last_reported":1729498379,"current_range_meters":22800,"station_id":"ce4bhlp2rcd13ifvqgjg","pricing_plan_id":"cebpf4jnsgd1na2vs0mg"},{"bike_id":"1c9d2093-b203-4c44-b1dd-0fa8de5b00a9","system_id":"levelo_inurba_marseille","lat":43.28999,"lon":5.35618,"is_reserved":false,"is_disabled":false,"rental_uris":{"android":"levelo://app?vid=1c9d2093-b203-4c44-b1dd-0fa8de5b00a9","ios":"levelo://app?vid=1c9d2093-b203-4c44-b1dd-0fa8de5b00a9"},"vehicle_type_id":"4","last_reported":1729498379,"current_range_meters":38800,"station_id":"ce4bhb92rcd13ifvqen0","pricing_plan_id":"cebpf4jnsgd1na2vs0mg"},{"bike_id":"df1e32e1-914d-43fb-a857-9ee9b1bdbc60","system_id":"levelo_inurba_marseille","lat":43.26551,"lon":5.37291,"is_reserved":false,"is_disabled":false,"rental_uris":{"android":"levelo://app?vid=df1e32e1-914d-43fb-a857-9ee9b1bdbc60","ios":"levelo://app?vid=df1e32e1-914d-43fb-a857-9ee9b1bdbc60"},"vehicle_type_id":"4","last_reported":1729498379,"current_range_meters":38800,"station_id":"ce4bhg12rcd13ifvqf70","pricing_plan_id":"cebpf4jnsgd1na2vs0mg"},{"bike_id":"46e9f12e-1e93-4f42-ba17-5c2a57c803bd","system_id":"levelo_inurba_marseille","lat":43.30947,"lon":5.39029,"is_reserved":false,"is_disabled":false,"rental_uris":{"android":"levelo://app?vid=46e9f12e-1e93-4f42-ba17-5c2a57c803bd","ios":"levelo://app?vid=46e9f12e-1e93-4f42-ba17-5c2a57c803bd"},"vehicle_type_id":"4","last_reported":1729498379,"current_range_meters":33200,"station_id":"ce4bgup2rcd13ifvqco0","pricing_plan_id":"cebpf4jnsgd1na2vs0mg"},{"bike_id":"f368d2c9-190f-4db4-a766-ac84e90dd6b8","system_id":"levelo_inurba_marseille","lat":43.25932,"lon":5.40912,"is_reserved":false,"is_disabled":false,"rental_uris":{"android":"levelo://app?vid=f368d2c9-190f-4db4-a766-ac84e90dd6b8","ios":"levelo://app?vid=f368d2c9-190f-4db4-a766-ac84e90dd6b8"},"vehicle_type_id":"4","last_reported":1729498379,"current_range_meters":16800,"station_id":"ce4bhm92rcd13ifvqglg","pricing_plan_id":"cebpf4jnsgd1na2vs0mg"},{"bike_id":"addbb1f5-3b7e-4434-9b07-0c727701d286","system_id":"levelo_inurba_marseille","lat":43.247946,"lon":5.374585,"is_reserved":false,"is_disabled":false,"rental_uris":{"android":"levelo://app?vid=addbb1f5-3b7e-4434-9b07-0c727701d286","ios":"levelo://app?vid=addbb1f5-3b7e-4434-9b07-0c727701d286"},"vehicle_type_id":"4","last_reported":1729498379,"current_range_meters":38000,"station_id":"ce4bhh12rcd13ifvqff0","pricing_plan_id":"cebpf4jnsgd1na2vs0mg"},{"bike_id":"80784dfe-c582-466f-95ad-8e743e8a562c","system_id":"levelo_inurba_marseille","lat":43.30276,"lon":5.37707,"is_reserved":false,"is_disabled":false,"rental_uris":{"android":"levelo://app?vid=80784dfe-c582-466f-95ad-8e743e8a562c","ios":"levelo://app?vid=80784dfe-c582-466f-95ad-8e743e8a562c"},"vehicle_type_id":"4","last_reported":1729498379,"current_range_meters":38800,"station_id":"ce4bguh2rcd13ifvqcj0","pricing_plan_id":"cebpf4jnsgd1na2vs0mg"},{"bike_id":"18c85227-67d7-466a-a0d5-7766016e476b","system_id":"levelo_inurba_marseille","lat":43.28613,"lon":5.351,"is_reserved":false,"is_disabled":false,"rental_uris":{"android":"levelo://app?vid=18c85227-67d7-466a-a0d5-7766016e476b","ios":"levelo://app?vid=18c85227-67d7-466a-a0d5-7766016e476b"},"vehicle_type_id":"4","last_reported":1729498379,"current_range_meters":16400,"station_id":"ce4bhch2rcd13ifvqeug","pricing_plan_id":"cebpf4jnsgd1na2vs0mg"},{"bike_id":"3a90cd5a-8d84-4a1f-9da8-3547bb5d20c1","system_id":"levelo_inurba_marseille","lat":43.23201,"lon":5.35549,"is_reserved":false,"is_disabled":false,"rental_uris":{"android":"levelo://app?vid=3a90cd5a-8d84-4a1f-9da8-3547bb5d20c1","ios":"levelo://app?vid=3a90cd5a-8d84-4a1f-9da8-3547bb5d20c1"},"vehicle_type_id":"4","last_reported":1729498379,"current_range_meters":39200,"station_id":"ce4bhu92rcd13ifvqi70","pricing_plan_id":"cebpf4jnsgd1na2vs0mg"},{"bike_id":"b0fa5059-f20e-4983-a7a9-b5e7b43c7eff","system_id":"levelo_inurba_marseille","lat":43.26685,"lon":5.38275,"is_reserved":false,"is_disabled":false,"rental_uris":{"android":"levelo://app?vid=b0fa5059-f20e-4983-a7a9-b5e7b43c7eff","ios":"levelo://app?vid=b0fa5059-f20e-4983-a7a9-b5e7b43c7eff"},"vehicle_type_id":"4","last_reported":1729498379,"current_range_meters":38800,"station_id":"ce4bhg92rcd13ifvqf90","pricing_plan_id":"cebpf4jnsgd1na2vs0mg"},{"bike_id":"bddf1334-d888-40f8-b6e9-18b5529cf0f4","system_id":"levelo_inurba_marseille","lat":43.31681,"lon":5.37539,"is_reserved":false,"is_disabled":false,"rental_uris":{"android":"levelo://app?vid=bddf1334-d888-40f8-b6e9-18b5529cf0f4","ios":"levelo://app?vid=bddf1334-d888-40f8-b6e9-18b5529cf0f4"},"vehicle_type_id":"4","last_reported":1729498379,"current_range_meters":17600,"station_id":"","pricing_plan_id":"cebpf4jnsgd1na2vs0mg"},{"bike_id":"27d7397b-3a64-4c8d-985f-c89fa0625145","system_id":"levelo_inurba_marseille","lat":43.2319,"lon":5.35543,"is_reserved":false,"is_disabled":false,"rental_uris":{"android":"levelo://app?vid=27d7397b-3a64-4c8d-985f-c89fa0625145","ios":"levelo://app?vid=27d7397b-3a64-4c8d-985f-c89fa0625145"},"vehicle_type_id":"4","last_reported":1729498379,"current_range_meters":38400,"station_id":"ce4bhu92rcd13ifvqi70","pricing_plan_id":"cebpf4jnsgd1na2vs0mg"},{"bike_id":"1accd2dd-ae27-42de-9ff0-0cd151a368cd","system_id":"levelo_inurba_marseille","lat":43.28151,"lon":5.42647,"is_reserved":false,"is_disabled":false,"rental_uris":{"android":"levelo://app?vid=1accd2dd-ae27-42de-9ff0-0cd151a368cd","ios":"levelo://app?vid=1accd2dd-ae27-42de-9ff0-0cd151a368cd"},"vehicle_type_id":"4","last_reported":1729498379,"current_range_meters":27200,"station_id":"ce4bhnh2rcd13ifvqgug","pricing_plan_id":"cebpf4jnsgd1na2vs0mg"},{"bike_id":"5ea9c50e-5137-4e5d-b785-a7efb5adf907","system_id":"levelo_inurba_marseille","lat":43.30943,"lon":5.39026,"is_reserved":false,"is_disabled":false,"rental_uris":{"android":"levelo://app?vid=5ea9c50e-5137-4e5d-b785-a7efb5adf907","ios":"levelo://app?vid=5ea9c50e-5137-4e5d-b785-a7efb5adf907"},"vehicle_type_id":"4","last_reported":1729498379,"current_range_meters":11200,"station_id":"ce4bgup2rcd13ifvqco0","pricing_plan_id":"cebpf4jnsgd1na2vs0mg"},{"bike_id":"9879c1e7-8c45-42aa-ba65-39609989c26e","system_id":"levelo_inurba_marseille","lat":43.32479,"lon":5.36565,"is_reserved":false,"is_disabled":false,"rental_uris":{"android":"levelo://app?vid=9879c1e7-8c45-42aa-ba65-39609989c26e","ios":"levelo://app?vid=9879c1e7-8c45-42aa-ba65-39609989c26e"},"vehicle_type_id":"4","last_reported":1729498379,"current_range_meters":36000,"station_id":"ce4bhs12rcd13ifvqhvg","pricing_plan_id":"cebpf4jnsgd1na2vs0mg"},{"bike_id":"2c188643-3342-4927-9d4d-c19c88c29def","system_id":"levelo_inurba_marseille","lat":43.30463,"lon":5.37909,"is_reserved":false,"is_disabled":false,"rental_uris":{"android":"levelo://app?vid=2c188643-3342-4927-9d4d-c19c88c29def","ios":"levelo://app?vid=2c188643-3342-4927-9d4d-c19c88c29def"},"vehicle_type_id":"4","last_reported":1729498379,"current_range_meters":19200,"station_id":"ce4bgup2rcd13ifvqcn0","pricing_plan_id":"cebpf4jnsgd1na2vs0mg"},{"bike_id":"b7a735d7-f1dd-4ee6-9916-5d65507bb1f6","system_id":"levelo_inurba_marseille","lat":43.33608,"lon":5.41032,"is_reserved":false,"is_disabled":false,"rental_uris":{"android":"levelo://app?vid=b7a735d7-f1dd-4ee6-9916-5d65507bb1f6","ios":"levelo://app?vid=b7a735d7-f1dd-4ee6-9916-5d65507bb1f6"},"vehicle_type_id":"4","last_reported":1729498379,"current_range_meters":32000,"station_id":"ce4bhqh2rcd13ifvqhmg","pricing_plan_id":"cebpf4jnsgd1na2vs0mg"},{"bike_id":"3213665e-989c-4d22-9f5a-31c8522597dd","system_id":"levelo_inurba_marseille","lat":43.296,"lon":5.36142,"is_reserved":false,"is_disabled":false,"rental_uris":{"android":"levelo://app?vid=3213665e-989c-4d22-9f5a-31c8522597dd","ios":"levelo://app?vid=3213665e-989c-4d22-9f5a-31c8522597dd"},"vehicle_type_id":"4","last_reported":1729498379,"current_range_meters":11200,"station_id":"","pricing_plan_id":"cebpf4jnsgd1na2vs0mg"},{"bike_id":"584f6c19-9858-4b93-836c-f01a970b5e91","system_id":"levelo_inurba_marseille","lat":43.30463,"lon":5.37892,"is_reserved":false,"is_disabled":false,"rental_uris":{"android":"levelo://app?vid=584f6c19-9858-4b93-836c-f01a970b5e91","ios":"levelo://app?vid=584f6c19-9858-4b93-836c-f01a970b5e91"},"vehicle_type_id":"4","last_reported":1729498379,"current_range_meters":25600,"station_id":"ce4bgup2rcd13ifvqcn0","pricing_plan_id":"cebpf4jnsgd1na2vs0mg"},{"bike_id":"9a2117f0-c5b0-4dc2-891b-026a24af23f1","system_id":"levelo_inurba_marseille","lat":43.3105,"lon":5.40092,"is_reserved":false,"is_disabled":false,"rental_uris":{"android":"levelo://app?vid=9a2117f0-c5b0-4dc2-891b-026a24af23f1","ios":"levelo://app?vid=9a2117f0-c5b0-4dc2-891b-026a24af23f1"},"vehicle_type_id":"4","last_reported":1729498379,"current_range_meters":32000,"station_id":"","pricing_plan_id":"cebpf4jnsgd1na2vs0mg"},{"bike_id":"150b2076-fa3d-4436-b76f-3b9f9d8be659","system_id":"levelo_inurba_marseille","lat":43.33603,"lon":5.4103,"is_reserved":false,"is_disabled":false,"rental_uris":{"android":"levelo://app?vid=150b2076-fa3d-4436-b76f-3b9f9d8be659","ios":"levelo://app?vid=150b2076-fa3d-4436-b76f-3b9f9d8be659"},"vehicle_type_id":"4","last_reported":1729498379,"current_range_meters":38400,"station_id":"ce4bhqh2rcd13ifvqhmg","pricing_plan_id":"cebpf4jnsgd1na2vs0mg"},{"bike_id":"d56c1027-3f82-4ee2-be22-0a6f81faea4e","system_id":"levelo_inurba_marseille","lat":43.30906,"lon":5.36865,"is_reserved":false,"is_disabled":false,"rental_uris":{"android":"levelo://app?vid=d56c1027-3f82-4ee2-be22-0a6f81faea4e","ios":"levelo://app?vid=d56c1027-3f82-4ee2-be22-0a6f81faea4e"},"vehicle_type_id":"4","last_reported":1729498379,"current_range_meters":38800,"station_id":"ce4bgn92rcd13ifvqbvg","pricing_plan_id":"cebpf4jnsgd1na2vs0mg"},{"bike_id":"2cfc7470-0924-496d-a1c3-b7271900a5b5","system_id":"levelo_inurba_marseille","lat":43.23195,"lon":5.35549,"is_reserved":false,"is_disabled":false,"rental_uris":{"android":"levelo://app?vid=2cfc7470-0924-496d-a1c3-b7271900a5b5","ios":"levelo://app?vid=2cfc7470-0924-496d-a1c3-b7271900a5b5"},"vehicle_type_id":"4","last_reported":1729498379,"current_range_meters":17200,"station_id":"ce4bhu92rcd13ifvqi70","pricing_plan_id":"cebpf4jnsgd1na2vs0mg"},{"bike_id":"342c9352-427d-4901-9e43-5bbb6deaa204","system_id":"levelo_inurba_marseille","lat":43.30313,"lon":5.36899,"is_reserved":false,"is_disabled":false,"rental_uris":{"android":"levelo://app?vid=342c9352-427d-4901-9e43-5bbb6deaa204","ios":"levelo://app?vid=342c9352-427d-4901-9e43-5bbb6deaa204"},"vehicle_type_id":"4","last_reported":1729498379,"current_range_meters":36800,"station_id":"ce4bgqh2rcd13ifvqc5g","pricing_plan_id":"cebpf4jnsgd1na2vs0mg"},{"bike_id":"2dab364a-105f-4114-b23b-94bcd65aad82","system_id":"levelo_inurba_marseille","lat":43.28152,"lon":5.42645,"is_reserved":false,"is_disabled":false,"rental_uris":{"android":"levelo://app?vid=2dab364a-105f-4114-b23b-94bcd65aad82","ios":"levelo://app?vid=2dab364a-105f-4114-b23b-94bcd65aad82"},"vehicle_type_id":"4","last_reported":1729498379,"current_range_meters":22800,"station_id":"ce4bhnh2rcd13ifvqgug","pricing_plan_id":"cebpf4jnsgd1na2vs0mg"},{"bike_id":"2b710056-10d8-45d7-a2cd-48f9f477421f","system_id":"levelo_inurba_marseille","lat":43.25578,"lon":5.38226,"is_reserved":false,"is_disabled":false,"rental_uris":{"android":"levelo://app?vid=2b710056-10d8-45d7-a2cd-48f9f477421f","ios":"levelo://app?vid=2b710056-10d8-45d7-a2cd-48f9f477421f"},"vehicle_type_id":"4","last_reported":1729498379,"current_range_meters":22800,"station_id":"ce4bhih2rcd13ifvqfs0","pricing_plan_id":"cebpf4jnsgd1na2vs0mg"},{"bike_id":"5d5ca3e6-06a9-4ef4-88f8-e8d21bffc448","system_id":"levelo_inurba_marseille","lat":43.3234,"lon":5.40617,"is_reserved":false,"is_disabled":false,"rental_uris":{"android":"levelo://app?vid=5d5ca3e6-06a9-4ef4-88f8-e8d21bffc448","ios":"levelo://app?vid=5d5ca3e6-06a9-4ef4-88f8-e8d21bffc448"},"vehicle_type_id":"4","last_reported":1729498379,"current_range_meters":38000,"station_id":"ce4bhq92rcd13ifvqhjg","pricing_plan_id":"cebpf4jnsgd1na2vs0mg"},{"bike_id":"b07b9fe8-26ba-4090-90c4-9e581d2e4afd","system_id":"levelo_inurba_marseille","lat":43.26197,"lon":5.37929,"is_reserved":false,"is_disabled":false,"rental_uris":{"android":"levelo://app?vid=b07b9fe8-26ba-4090-90c4-9e581d2e4afd","ios":"levelo://app?vid=b07b9fe8-26ba-4090-90c4-9e581d2e4afd"},"vehicle_type_id":"4","last_reported":1729498379,"current_range_meters":11200,"station_id":"ce4bhjp2rcd13ifvqg90","pricing_plan_id":"cebpf4jnsgd1na2vs0mg"},{"bike_id":"cbd78056-fac2-4efa-a084-334371a0cf39","system_id":"levelo_inurba_marseille","lat":43.25938,"lon":5.40898,"is_reserved":false,"is_disabled":false,"rental_uris":{"android":"levelo://app?vid=cbd78056-fac2-4efa-a084-334371a0cf39","ios":"levelo://app?vid=cbd78056-fac2-4efa-a084-334371a0cf39"},"vehicle_type_id":"4","last_reported":1729498379,"current_range_meters":28000,"station_id":"ce4bhm92rcd13ifvqglg","pricing_plan_id":"cebpf4jnsgd1na2vs0mg"},{"bike_id":"dd5450cd-ff1d-4ef6-8c3f-8bb1e7bd15bd","system_id":"levelo_inurba_marseille","lat":43.30886,"lon":5.37215,"is_reserved":false,"is_disabled":false,"rental_uris":{"android":"levelo://app?vid=dd5450cd-ff1d-4ef6-8c3f-8bb1e7bd15bd","ios":"levelo://app?vid=dd5450cd-ff1d-4ef6-8c3f-8bb1e7bd15bd"},"vehicle_type_id":"4","last_reported":1729498379,"current_range_meters":12400,"station_id":"ce4bguh2rcd13ifvqckg","pricing_plan_id":"cebpf4jnsgd1na2vs0mg"},{"bike_id":"9b0cae09-aed8-4c2a-872b-df83b11d6d51","system_id":"levelo_inurba_marseille","lat":43.29975,"lon":5.37175,"is_reserved":false,"is_disabled":false,"rental_uris":{"android":"levelo://app?vid=9b0cae09-aed8-4c2a-872b-df83b11d6d51","ios":"levelo://app?vid=9b0cae09-aed8-4c2a-872b-df83b11d6d51"},"vehicle_type_id":"4","last_reported":1729498379,"current_range_meters":37600,"station_id":"ce4bgr92rcd13ifvqc7g","pricing_plan_id":"cebpf4jnsgd1na2vs0mg"},{"bike_id":"12bd3036-1eeb-409e-83a9-f84f7c98205c","system_id":"levelo_inurba_marseille","lat":43.27617,"lon":5.36115,"is_reserved":false,"is_disabled":false,"rental_uris":{"android":"levelo://app?vid=12bd3036-1eeb-409e-83a9-f84f7c98205c","ios":"levelo://app?vid=12bd3036-1eeb-409e-83a9-f84f7c98205c"},"vehicle_type_id":"4","last_reported":1729498379,"current_range_meters":39200,"station_id":"ce4bgj92rcd13ifvqbe0","pricing_plan_id":"cebpf4jnsgd1na2vs0mg"},{"bike_id":"573c2f72-81fe-4dfc-a848-b3507e2d6758","system_id":"levelo_inurba_marseille","lat":43.26203,"lon":5.37927,"is_reserved":false,"is_disabled":false,"rental_uris":{"android":"levelo://app?vid=573c2f72-81fe-4dfc-a848-b3507e2d6758","ios":"levelo://app?vid=573c2f72-81fe-4dfc-a848-b3507e2d6758"},"vehicle_type_id":"4","last_reported":1729498379,"current_range_meters":18000,"station_id":"ce4bhjp2rcd13ifvqg90","pricing_plan_id":"cebpf4jnsgd1na2vs0mg"},{"bike_id":"62e5ddf6-8da8-4b86-9a4c-b1070af9089b","system_id":"levelo_inurba_marseille","lat":43.29848,"lon":5.36285,"is_reserved":false,"is_disabled":false,"rental_uris":{"android":"levelo://app?vid=62e5ddf6-8da8-4b86-9a4c-b1070af9089b","ios":"levelo://app?vid=62e5ddf6-8da8-4b86-9a4c-b1070af9089b"},"vehicle_type_id":"4","last_reported":1729498379,"current_range_meters":38800,"station_id":"ce4bgpp2rcd13ifvqc3g","pricing_plan_id":"cebpf4jnsgd1na2vs0mg"},{"bike_id":"72518280-cdc9-4c45-8035-8905465a81ed","system_id":"levelo_inurba_marseille","lat":43.29825,"lon":5.3833,"is_reserved":false,"is_disabled":false,"rental_uris":{"android":"levelo://app?vid=72518280-cdc9-4c45-8035-8905465a81ed","ios":"levelo://app?vid=72518280-cdc9-4c45-8035-8905465a81ed"},"vehicle_type_id":"4","last_reported":1729498379,"current_range_meters":11200,"station_id":"","pricing_plan_id":"cebpf4jnsgd1na2vs0mg"},{"bike_id":"4320505e-c8aa-4e94-9a8b-33e246589dbf","system_id":"levelo_inurba_marseille","lat":43.24645,"lon":5.38888,"is_reserved":false,"is_disabled":false,"rental_uris":{"android":"levelo://app?vid=4320505e-c8aa-4e94-9a8b-33e246589dbf","ios":"levelo://app?vid=4320505e-c8aa-4e94-9a8b-33e246589dbf"},"vehicle_type_id":"4","last_reported":1729498379,"current_range_meters":38800,"station_id":"ce4bhg12rcd13ifvqf60","pricing_plan_id":"cebpf4jnsgd1na2vs0mg"},{"bike_id":"abec9457-83c4-4369-8fdc-0ba1e4752906","system_id":"levelo_inurba_marseille","lat":43.31354,"lon":5.36709,"is_reserved":false,"is_disabled":false,"rental_uris":{"android":"levelo://app?vid=abec9457-83c4-4369-8fdc-0ba1e4752906","ios":"levelo://app?vid=abec9457-83c4-4369-8fdc-0ba1e4752906"},"vehicle_type_id":"4","last_reported":1729498379,"current_range_meters":28000,"station_id":"ce4bgr92rcd13ifvqc6g","pricing_plan_id":"cebpf4jnsgd1na2vs0mg"},{"bike_id":"7976c6c5-4643-4b43-b69c-6d012a36b7a2","system_id":"levelo_inurba_marseille","lat":43.30538,"lon":5.36708,"is_reserved":false,"is_disabled":false,"rental_uris":{"android":"levelo://app?vid=7976c6c5-4643-4b43-b69c-6d012a36b7a2","ios":"levelo://app?vid=7976c6c5-4643-4b43-b69c-6d012a36b7a2"},"vehicle_type_id":"4","last_reported":1729498379,"current_range_meters":28400,"station_id":"ce4bgrp2rcd13ifvqc9g","pricing_plan_id":"cebpf4jnsgd1na2vs0mg"},{"bike_id":"808551b4-06bf-49e0-b093-1815203ac82e","system_id":"levelo_inurba_marseille","lat":43.31314,"lon":5.39689,"is_reserved":false,"is_disabled":false,"rental_uris":{"android":"levelo://app?vid=808551b4-06bf-49e0-b093-1815203ac82e","ios":"levelo://app?vid=808551b4-06bf-49e0-b093-1815203ac82e"},"vehicle_type_id":"4","last_reported":1729498379,"current_range_meters":38800,"station_id":"ce4bgvp2rcd13ifvqcu0","pricing_plan_id":"cebpf4jnsgd1na2vs0mg"},{"bike_id":"8927be08-8249-47ce-8083-f150629f946d","system_id":"levelo_inurba_marseille","lat":43.24653,"lon":5.38896,"is_reserved":false,"is_disabled":false,"rental_uris":{"android":"levelo://app?vid=8927be08-8249-47ce-8083-f150629f946d","ios":"levelo://app?vid=8927be08-8249-47ce-8083-f150629f946d"},"vehicle_type_id":"4","last_reported":1729498379,"current_range_meters":20400,"station_id":"ce4bhg12rcd13ifvqf60","pricing_plan_id":"cebpf4jnsgd1na2vs0mg"},{"bike_id":"c2c922f9-28f5-4727-a6fc-df832ecece2e","system_id":"levelo_inurba_marseille","lat":43.24552,"lon":5.39542,"is_reserved":false,"is_disabled":false,"rental_uris":{"android":"levelo://app?vid=c2c922f9-28f5-4727-a6fc-df832ecece2e","ios":"levelo://app?vid=c2c922f9-28f5-4727-a6fc-df832ecece2e"},"vehicle_type_id":"4","last_reported":1729498379,"current_range_meters":25200,"station_id":"ce4bhlp2rcd13ifvqgjg","pricing_plan_id":"cebpf4jnsgd1na2vs0mg"},{"bike_id":"5d573c4e-a1a3-42a9-b864-05356996dc90","system_id":"levelo_inurba_marseille","lat":43.30533,"lon":5.36714,"is_reserved":false,"is_disabled":false,"rental_uris":{"android":"levelo://app?vid=5d573c4e-a1a3-42a9-b864-05356996dc90","ios":"levelo://app?vid=5d573c4e-a1a3-42a9-b864-05356996dc90"},"vehicle_type_id":"4","last_reported":1729498379,"current_range_meters":14400,"station_id":"ce4bgrp2rcd13ifvqc9g","pricing_plan_id":"cebpf4jnsgd1na2vs0mg"},{"bike_id":"d6d2d697-89d2-4ee7-ba85-fc4a6a94003c","system_id":"levelo_inurba_marseille","lat":43.27372,"lon":5.36254,"is_reserved":false,"is_disabled":false,"rental_uris":{"android":"levelo://app?vid=d6d2d697-89d2-4ee7-ba85-fc4a6a94003c","ios":"levelo://app?vid=d6d2d697-89d2-4ee7-ba85-fc4a6a94003c"},"vehicle_type_id":"4","last_reported":1729498379,"current_range_meters":37600,"station_id":"ce4bhbh2rcd13ifvqeo0","pricing_plan_id":"cebpf4jnsgd1na2vs0mg"},{"bike_id":"5430bba4-ce8c-4694-a91c-cbc659893ce5","system_id":"levelo_inurba_marseille","lat":43.26682,"lon":5.38266,"is_reserved":false,"is_disabled":false,"rental_uris":{"android":"levelo://app?vid=5430bba4-ce8c-4694-a91c-cbc659893ce5","ios":"levelo://app?vid=5430bba4-ce8c-4694-a91c-cbc659893ce5"},"vehicle_type_id":"4","last_reported":1729498379,"current_range_meters":25200,"station_id":"ce4bhg92rcd13ifvqf90","pricing_plan_id":"cebpf4jnsgd1na2vs0mg"},{"bike_id":"2a8cfce5-93d5-4a5e-832b-148482060dca","system_id":"levelo_inurba_marseille","lat":43.32366,"lon":5.38881,"is_reserved":false,"is_disabled":false,"rental_uris":{"android":"levelo://app?vid=2a8cfce5-93d5-4a5e-832b-148482060dca","ios":"levelo://app?vid=2a8cfce5-93d5-4a5e-832b-148482060dca"},"vehicle_type_id":"4","last_reported":1729498379,"current_range_meters":22000,"station_id":"ce4bhqp2rcd13ifvqhog","pricing_plan_id":"cebpf4jnsgd1na2vs0mg"},{"bike_id":"6492c42c-e9fd-4010-bf6f-315b98b052ce","system_id":"levelo_inurba_marseille","lat":43.33752,"lon":5.3746,"is_reserved":false,"is_disabled":false,"rental_uris":{"android":"levelo://app?vid=6492c42c-e9fd-4010-bf6f-315b98b052ce","ios":"levelo://app?vid=6492c42c-e9fd-4010-bf6f-315b98b052ce"},"vehicle_type_id":"4","last_reported":1729498379,"current_range_meters":36800,"station_id":"","pricing_plan_id":"cebpf4jnsgd1na2vs0mg"},{"bike_id":"35042abc-4495-46d1-84a1-71f847735f0a","system_id":"levelo_inurba_marseille","lat":43.30459,"lon":5.379,"is_reserved":false,"is_disabled":false,"rental_uris":{"android":"levelo://app?vid=35042abc-4495-46d1-84a1-71f847735f0a","ios":"levelo://app?vid=35042abc-4495-46d1-84a1-71f847735f0a"},"vehicle_type_id":"4","last_reported":1729498379,"current_range_meters":8800,"station_id":"ce4bgup2rcd13ifvqcn0","pricing_plan_id":"cebpf4jnsgd1na2vs0mg"},{"bike_id":"0ad5eb73-2fb8-43f9-b1ce-34cf47d5bd4b","system_id":"levelo_inurba_marseille","lat":43.2827,"lon":5.3508,"is_reserved":false,"is_disabled":false,"rental_uris":{"android":"levelo://app?vid=0ad5eb73-2fb8-43f9-b1ce-34cf47d5bd4b","ios":"levelo://app?vid=0ad5eb73-2fb8-43f9-b1ce-34cf47d5bd4b"},"vehicle_type_id":"4","last_reported":1729498379,"current_range_meters":20000,"station_id":"ce4bhbp2rcd13ifvqerg","pricing_plan_id":"cebpf4jnsgd1na2vs0mg"},{"bike_id":"fccb27b3-90f4-4411-a56b-003b7acda73c","system_id":"levelo_inurba_marseille","lat":43.2815,"lon":5.4264,"is_reserved":false,"is_disabled":false,"rental_uris":{"android":"levelo://app?vid=fccb27b3-90f4-4411-a56b-003b7acda73c","ios":"levelo://app?vid=fccb27b3-90f4-4411-a56b-003b7acda73c"},"vehicle_type_id":"4","last_reported":1729498379,"current_range_meters":28800,"station_id":"ce4bhnh2rcd13ifvqgug","pricing_plan_id":"cebpf4jnsgd1na2vs0mg"},{"bike_id":"613482c3-c49c-4cda-8f71-27457cf21c7a","system_id":"levelo_inurba_marseille","lat":43.30182,"lon":5.36626,"is_reserved":false,"is_disabled":false,"rental_uris":{"android":"levelo://app?vid=613482c3-c49c-4cda-8f71-27457cf21c7a","ios":"levelo://app?vid=613482c3-c49c-4cda-8f71-27457cf21c7a"},"vehicle_type_id":"4","last_reported":1729498379,"current_range_meters":19200,"station_id":"ce4bgrh2rcd13ifvqc8g","pricing_plan_id":"cebpf4jnsgd1na2vs0mg"},{"bike_id":"af00502d-b5af-402e-bab9-2b06b78e3677","system_id":"levelo_inurba_marseille","lat":43.31116,"lon":5.3776,"is_reserved":false,"is_disabled":false,"rental_uris":{"android":"levelo://app?vid=af00502d-b5af-402e-bab9-2b06b78e3677","ios":"levelo://app?vid=af00502d-b5af-402e-bab9-2b06b78e3677"},"vehicle_type_id":"4","last_reported":1729498379,"current_range_meters":4000,"station_id":"ce4bgt92rcd13ifvqcg0","pricing_plan_id":"cebpf4jnsgd1na2vs0mg"},{"bike_id":"d863885c-9de8-4c1e-b0fe-4dac0fde31c8","system_id":"levelo_inurba_marseille","lat":43.2619,"lon":5.37449,"is_reserved":false,"is_disabled":false,"rental_uris":{"android":"levelo://app?vid=d863885c-9de8-4c1e-b0fe-4dac0fde31c8","ios":"levelo://app?vid=d863885c-9de8-4c1e-b0fe-4dac0fde31c8"},"vehicle_type_id":"4","last_reported":1729498379,"current_range_meters":35200,"station_id":"ce4bhgp2rcd13ifvqfc0","pricing_plan_id":"cebpf4jnsgd1na2vs0mg"},{"bike_id":"619d2d79-3eda-490b-94cf-483db3844f72","system_id":"levelo_inurba_marseille","lat":43.30536,"lon":5.36709,"is_reserved":false,"is_disabled":false,"rental_uris":{"android":"levelo://app?vid=619d2d79-3eda-490b-94cf-483db3844f72","ios":"levelo://app?vid=619d2d79-3eda-490b-94cf-483db3844f72"},"vehicle_type_id":"4","last_reported":1729498379,"current_range_meters":36000,"station_id":"ce4bgrp2rcd13ifvqc9g","pricing_plan_id":"cebpf4jnsgd1na2vs0mg"},{"bike_id":"c0e918f6-a62e-4c9d-938a-2ee1b95f693a","system_id":"levelo_inurba_marseille","lat":43.26679,"lon":5.38274,"is_reserved":false,"is_disabled":false,"rental_uris":{"android":"levelo://app?vid=c0e918f6-a62e-4c9d-938a-2ee1b95f693a","ios":"levelo://app?vid=c0e918f6-a62e-4c9d-938a-2ee1b95f693a"},"vehicle_type_id":"4","last_reported":1729498379,"current_range_meters":19200,"station_id":"ce4bhg92rcd13ifvqf90","pricing_plan_id":"cebpf4jnsgd1na2vs0mg"},{"bike_id":"16efb756-7204-417a-ac94-79592a12c81c","system_id":"levelo_inurba_marseille","lat":43.33613,"lon":5.41025,"is_reserved":false,"is_disabled":false,"rental_uris":{"android":"levelo://app?vid=16efb756-7204-417a-ac94-79592a12c81c","ios":"levelo://app?vid=16efb756-7204-417a-ac94-79592a12c81c"},"vehicle_type_id":"4","last_reported":1729498379,"current_range_meters":22800,"station_id":"ce4bhqh2rcd13ifvqhmg","pricing_plan_id":"cebpf4jnsgd1na2vs0mg"},{"bike_id":"551ac5d0-b0e0-4804-a5ef-7e6bc6a1c26b","system_id":"levelo_inurba_marseille","lat":43.33605,"lon":5.41031,"is_reserved":false,"is_disabled":false,"rental_uris":{"android":"levelo://app?vid=551ac5d0-b0e0-4804-a5ef-7e6bc6a1c26b","ios":"levelo://app?vid=551ac5d0-b0e0-4804-a5ef-7e6bc6a1c26b"},"vehicle_type_id":"4","last_reported":1729498379,"current_range_meters":25600,"station_id":"ce4bhqh2rcd13ifvqhmg","pricing_plan_id":"cebpf4jnsgd1na2vs0mg"},{"bike_id":"86c8daa9-8f8f-40aa-8d32-a2ee33472350","system_id":"levelo_inurba_marseille","lat":43.284119,"lon":5.375027,"is_reserved":false,"is_disabled":false,"rental_uris":{"android":"levelo://app?vid=86c8daa9-8f8f-40aa-8d32-a2ee33472350","ios":"levelo://app?vid=86c8daa9-8f8f-40aa-8d32-a2ee33472350"},"vehicle_type_id":"4","last_reported":1729498379,"current_range_meters":32000,"station_id":"ce4bh412rcd13ifvqds0","pricing_plan_id":"cebpf4jnsgd1na2vs0mg"},{"bike_id":"4cf3e5d8-4f9a-4007-b965-622ecd99339e","system_id":"levelo_inurba_marseille","lat":43.31074,"lon":5.40085,"is_reserved":false,"is_disabled":false,"rental_uris":{"android":"levelo://app?vid=4cf3e5d8-4f9a-4007-b965-622ecd99339e","ios":"levelo://app?vid=4cf3e5d8-4f9a-4007-b965-622ecd99339e"},"vehicle_type_id":"4","last_reported":1729498379,"current_range_meters":4800,"station_id":"","pricing_plan_id":"cebpf4jnsgd1na2vs0mg"},{"bike_id":"bed36edb-6ac5-4e0b-85f3-b58108c119d0","system_id":"levelo_inurba_marseille","lat":43.29044,"lon":5.35908,"is_reserved":false,"is_disabled":false,"rental_uris":{"android":"levelo://app?vid=bed36edb-6ac5-4e0b-85f3-b58108c119d0","ios":"levelo://app?vid=bed36edb-6ac5-4e0b-85f3-b58108c119d0"},"vehicle_type_id":"4","last_reported":1729498379,"current_range_meters":28000,"station_id":"ce4bha92rcd13ifvqeg0","pricing_plan_id":"cebpf4jnsgd1na2vs0mg"},{"bike_id":"eb28c191-e5cc-4e35-8818-10ea0b1447e3","system_id":"levelo_inurba_marseille","lat":43.30294,"lon":5.36915,"is_reserved":false,"is_disabled":false,"rental_uris":{"android":"levelo://app?vid=eb28c191-e5cc-4e35-8818-10ea0b1447e3","ios":"levelo://app?vid=eb28c191-e5cc-4e35-8818-10ea0b1447e3"},"vehicle_type_id":"4","last_reported":1729498379,"current_range_meters":37600,"station_id":"ce4bgqh2rcd13ifvqc5g","pricing_plan_id":"cebpf4jnsgd1na2vs0mg"},{"bike_id":"d022902e-4f7c-4f05-aec8-0c802211b8cc","system_id":"levelo_inurba_marseille","lat":43.25942,"lon":5.40895,"is_reserved":false,"is_disabled":false,"rental_uris":{"android":"levelo://app?vid=d022902e-4f7c-4f05-aec8-0c802211b8cc","ios":"levelo://app?vid=d022902e-4f7c-4f05-aec8-0c802211b8cc"},"vehicle_type_id":"4","last_reported":1729498379,"current_range_meters":32400,"station_id":"ce4bhm92rcd13ifvqglg","pricing_plan_id":"cebpf4jnsgd1na2vs0mg"},{"bike_id":"a9497fe1-bc20-4783-aa3c-fbb63f514484","system_id":"levelo_inurba_marseille","lat":43.3053,"lon":5.36549,"is_reserved":false,"is_disabled":false,"rental_uris":{"android":"levelo://app?vid=a9497fe1-bc20-4783-aa3c-fbb63f514484","ios":"levelo://app?vid=a9497fe1-bc20-4783-aa3c-fbb63f514484"},"vehicle_type_id":"4","last_reported":1729498379,"current_range_meters":40000,"station_id":"ce4bgs12rcd13ifvqcag","pricing_plan_id":"cebpf4jnsgd1na2vs0mg"},{"bike_id":"f3da7b3f-3977-4bde-ae1c-49e2e6f4d1fd","system_id":"levelo_inurba_marseille","lat":43.2499,"lon":5.38939,"is_reserved":false,"is_disabled":false,"rental_uris":{"android":"levelo://app?vid=f3da7b3f-3977-4bde-ae1c-49e2e6f4d1fd","ios":"levelo://app?vid=f3da7b3f-3977-4bde-ae1c-49e2e6f4d1fd"},"vehicle_type_id":"4","last_reported":1729498379,"current_range_meters":29600,"station_id":"ce4bhgp2rcd13ifvqfd0","pricing_plan_id":"cebpf4jnsgd1na2vs0mg"},{"bike_id":"7046b596-4b59-4c67-82d7-240dea1f1ffc","system_id":"levelo_inurba_marseille","lat":43.30138,"lon":5.37426,"is_reserved":false,"is_disabled":false,"rental_uris":{"android":"levelo://app?vid=7046b596-4b59-4c67-82d7-240dea1f1ffc","ios":"levelo://app?vid=7046b596-4b59-4c67-82d7-240dea1f1ffc"},"vehicle_type_id":"4","last_reported":1729498379,"current_range_meters":33200,"station_id":"ce4bgs92rcd13ifvqcc0","pricing_plan_id":"cebpf4jnsgd1na2vs0mg"},{"bike_id":"88debbe7-d830-4fc9-a014-dcb53606aa29","system_id":"levelo_inurba_marseille","lat":43.2905,"lon":5.36803,"is_reserved":false,"is_disabled":false,"rental_uris":{"android":"levelo://app?vid=88debbe7-d830-4fc9-a014-dcb53606aa29","ios":"levelo://app?vid=88debbe7-d830-4fc9-a014-dcb53606aa29"},"vehicle_type_id":"4","last_reported":1729498379,"current_range_meters":14400,"station_id":"","pricing_plan_id":"cebpf4jnsgd1na2vs0mg"},{"bike_id":"685e73b3-037e-44ad-8bd2-df67bef7985b","system_id":"levelo_inurba_marseille","lat":43.27612,"lon":5.36112,"is_reserved":false,"is_disabled":false,"rental_uris":{"android":"levelo://app?vid=685e73b3-037e-44ad-8bd2-df67bef7985b","ios":"levelo://app?vid=685e73b3-037e-44ad-8bd2-df67bef7985b"},"vehicle_type_id":"4","last_reported":1729498379,"current_range_meters":33600,"station_id":"ce4bgj92rcd13ifvqbe0","pricing_plan_id":"cebpf4jnsgd1na2vs0mg"},{"bike_id":"041c83ea-c320-4be6-862d-deaa50b2a9d7","system_id":"levelo_inurba_marseille","lat":43.27614,"lon":5.36119,"is_reserved":false,"is_disabled":false,"rental_uris":{"android":"levelo://app?vid=041c83ea-c320-4be6-862d-deaa50b2a9d7","ios":"levelo://app?vid=041c83ea-c320-4be6-862d-deaa50b2a9d7"},"vehicle_type_id":"4","last_reported":1729498379,"current_range_meters":38400,"station_id":"ce4bgj92rcd13ifvqbe0","pricing_plan_id":"cebpf4jnsgd1na2vs0mg"},{"bike_id":"c809fe6a-245c-4a9e-866f-167a0c9ddd82","system_id":"levelo_inurba_marseille","lat":43.3055,"lon":5.36706,"is_reserved":false,"is_disabled":false,"rental_uris":{"android":"levelo://app?vid=c809fe6a-245c-4a9e-866f-167a0c9ddd82","ios":"levelo://app?vid=c809fe6a-245c-4a9e-866f-167a0c9ddd82"},"vehicle_type_id":"4","last_reported":1729498379,"current_range_meters":36400,"station_id":"ce4bgrp2rcd13ifvqc9g","pricing_plan_id":"cebpf4jnsgd1na2vs0mg"},{"bike_id":"931da876-d0ed-4146-82c7-6d132f483c10","system_id":"levelo_inurba_marseille","lat":43.321022,"lon":5.367815,"is_reserved":false,"is_disabled":false,"rental_uris":{"android":"levelo://app?vid=931da876-d0ed-4146-82c7-6d132f483c10","ios":"levelo://app?vid=931da876-d0ed-4146-82c7-6d132f483c10"},"vehicle_type_id":"4","last_reported":1729498379,"current_range_meters":37600,"station_id":"ce4bhrh2rcd13ifvqhug","pricing_plan_id":"cebpf4jnsgd1na2vs0mg"},{"bike_id":"68bb16cf-3232-4389-967e-55bb18f1f996","system_id":"levelo_inurba_marseille","lat":43.31366,"lon":5.3669,"is_reserved":false,"is_disabled":false,"rental_uris":{"android":"levelo://app?vid=68bb16cf-3232-4389-967e-55bb18f1f996","ios":"levelo://app?vid=68bb16cf-3232-4389-967e-55bb18f1f996"},"vehicle_type_id":"4","last_reported":1729498379,"current_range_meters":39200,"station_id":"ce4bgr92rcd13ifvqc6g","pricing_plan_id":"cebpf4jnsgd1na2vs0mg"},{"bike_id":"bcb3ac15-26f2-4ad2-8589-1f75aa497e39","system_id":"levelo_inurba_marseille","lat":43.32654,"lon":5.40991,"is_reserved":false,"is_disabled":false,"rental_uris":{"android":"levelo://app?vid=bcb3ac15-26f2-4ad2-8589-1f75aa497e39","ios":"levelo://app?vid=bcb3ac15-26f2-4ad2-8589-1f75aa497e39"},"vehicle_type_id":"4","last_reported":1729498379,"current_range_meters":38000,"station_id":"ce4bhpp2rcd13ifvqhgg","pricing_plan_id":"cebpf4jnsgd1na2vs0mg"},{"bike_id":"3be267d0-3793-404e-9704-b552bffa7f0b","system_id":"levelo_inurba_marseille","lat":43.32484,"lon":5.36559,"is_reserved":false,"is_disabled":false,"rental_uris":{"android":"levelo://app?vid=3be267d0-3793-404e-9704-b552bffa7f0b","ios":"levelo://app?vid=3be267d0-3793-404e-9704-b552bffa7f0b"},"vehicle_type_id":"4","last_reported":1729498379,"current_range_meters":8400,"station_id":"ce4bhs12rcd13ifvqhvg","pricing_plan_id":"cebpf4jnsgd1na2vs0mg"},{"bike_id":"375d33e3-2041-4b56-a557-54bde93a99de","system_id":"levelo_inurba_marseille","lat":43.30539,"lon":5.36547,"is_reserved":false,"is_disabled":false,"rental_uris":{"android":"levelo://app?vid=375d33e3-2041-4b56-a557-54bde93a99de","ios":"levelo://app?vid=375d33e3-2041-4b56-a557-54bde93a99de"},"vehicle_type_id":"4","last_reported":1729498379,"current_range_meters":21600,"station_id":"ce4bgs12rcd13ifvqcag","pricing_plan_id":"cebpf4jnsgd1na2vs0mg"},{"bike_id":"0c1c7708-b979-4d7e-982d-190e9148b9a6","system_id":"levelo_inurba_marseille","lat":43.26676,"lon":5.38265,"is_reserved":false,"is_disabled":false,"rental_uris":{"android":"levelo://app?vid=0c1c7708-b979-4d7e-982d-190e9148b9a6","ios":"levelo://app?vid=0c1c7708-b979-4d7e-982d-190e9148b9a6"},"vehicle_type_id":"4","last_reported":1729498379,"current_range_meters":35600,"station_id":"ce4bhg92rcd13ifvqf90","pricing_plan_id":"cebpf4jnsgd1na2vs0mg"},{"bike_id":"724c3898-fa40-46b5-a6ca-5091666cabb4","system_id":"levelo_inurba_marseille","lat":43.23192,"lon":5.35547,"is_reserved":false,"is_disabled":false,"rental_uris":{"android":"levelo://app?vid=724c3898-fa40-46b5-a6ca-5091666cabb4","ios":"levelo://app?vid=724c3898-fa40-46b5-a6ca-5091666cabb4"},"vehicle_type_id":"4","last_reported":1729498379,"current_range_meters":38000,"station_id":"ce4bhu92rcd13ifvqi70","pricing_plan_id":"cebpf4jnsgd1na2vs0mg"},{"bike_id":"fb574375-21a3-4cc9-b093-05167f9899a8","system_id":"levelo_inurba_marseille","lat":43.31357,"lon":5.36715,"is_reserved":false,"is_disabled":false,"rental_uris":{"android":"levelo://app?vid=fb574375-21a3-4cc9-b093-05167f9899a8","ios":"levelo://app?vid=fb574375-21a3-4cc9-b093-05167f9899a8"},"vehicle_type_id":"4","last_reported":1729498379,"current_range_meters":39200,"station_id":"ce4bgr92rcd13ifvqc6g","pricing_plan_id":"cebpf4jnsgd1na2vs0mg"},{"bike_id":"3601721e-034a-4f18-91bb-d17e9f38b1e9","system_id":"levelo_inurba_marseille","lat":43.29922,"lon":5.37482,"is_reserved":false,"is_disabled":false,"rental_uris":{"android":"levelo://app?vid=3601721e-034a-4f18-91bb-d17e9f38b1e9","ios":"levelo://app?vid=3601721e-034a-4f18-91bb-d17e9f38b1e9"},"vehicle_type_id":"4","last_reported":1729498379,"current_range_meters":4400,"station_id":"ce4bgjh2rcd13ifvqbg0","pricing_plan_id":"cebpf4jnsgd1na2vs0mg"},{"bike_id":"a4dfb33b-4c2d-4d86-a698-fff9938b84e5","system_id":"levelo_inurba_marseille","lat":43.28616,"lon":5.37053,"is_reserved":false,"is_disabled":false,"rental_uris":{"android":"levelo://app?vid=a4dfb33b-4c2d-4d86-a698-fff9938b84e5","ios":"levelo://app?vid=a4dfb33b-4c2d-4d86-a698-fff9938b84e5"},"vehicle_type_id":"4","last_reported":1729498379,"current_range_meters":19200,"station_id":"ce4bht12rcd13ifvqi60","pricing_plan_id":"cebpf4jnsgd1na2vs0mg"},{"bike_id":"e6fe4940-a098-49cc-8d38-77b9bd14611a","system_id":"levelo_inurba_marseille","lat":43.32109,"lon":5.36775,"is_reserved":false,"is_disabled":false,"rental_uris":{"android":"levelo://app?vid=e6fe4940-a098-49cc-8d38-77b9bd14611a","ios":"levelo://app?vid=e6fe4940-a098-49cc-8d38-77b9bd14611a"},"vehicle_type_id":"4","last_reported":1729498379,"current_range_meters":17600,"station_id":"ce4bhrh2rcd13ifvqhug","pricing_plan_id":"cebpf4jnsgd1na2vs0mg"},{"bike_id":"eaf542e6-9f43-4889-bfac-b5349636dc63","system_id":"levelo_inurba_marseille","lat":43.30913,"lon":5.36857,"is_reserved":false,"is_disabled":false,"rental_uris":{"android":"levelo://app?vid=eaf542e6-9f43-4889-bfac-b5349636dc63","ios":"levelo://app?vid=eaf542e6-9f43-4889-bfac-b5349636dc63"},"vehicle_type_id":"4","last_reported":1729498379,"current_range_meters":39200,"station_id":"ce4bgn92rcd13ifvqbvg","pricing_plan_id":"cebpf4jnsgd1na2vs0mg"},{"bike_id":"001e711b-f9e1-4b8c-b880-45c7600b5377","system_id":"levelo_inurba_marseille","lat":43.29365,"lon":5.37831,"is_reserved":false,"is_disabled":false,"rental_uris":{"android":"levelo://app?vid=001e711b-f9e1-4b8c-b880-45c7600b5377","ios":"levelo://app?vid=001e711b-f9e1-4b8c-b880-45c7600b5377"},"vehicle_type_id":"4","last_reported":1729498379,"current_range_meters":11200,"station_id":"ce4bgjh2rcd13ifvqbf0","pricing_plan_id":"cebpf4jnsgd1na2vs0mg"},{"bike_id":"8fa96be3-6654-43db-997f-afce5f780403","system_id":"levelo_inurba_marseille","lat":43.33744,"lon":5.37401,"is_reserved":false,"is_disabled":false,"rental_uris":{"android":"levelo://app?vid=8fa96be3-6654-43db-997f-afce5f780403","ios":"levelo://app?vid=8fa96be3-6654-43db-997f-afce5f780403"},"vehicle_type_id":"4","last_reported":1729498379,"current_range_meters":38400,"station_id":"","pricing_plan_id":"cebpf4jnsgd1na2vs0mg"},{"bike_id":"8bb60c49-8ed3-4f9b-891c-0805c36ed3e1","system_id":"levelo_inurba_marseille","lat":43.29557,"lon":5.42284,"is_reserved":false,"is_disabled":false,"rental_uris":{"android":"levelo://app?vid=8bb60c49-8ed3-4f9b-891c-0805c36ed3e1","ios":"levelo://app?vid=8bb60c49-8ed3-4f9b-891c-0805c36ed3e1"},"vehicle_type_id":"4","last_reported":1729498379,"current_range_meters":38800,"station_id":"ce4bhph2rcd13ifvqhdg","pricing_plan_id":"cebpf4jnsgd1na2vs0mg"},{"bike_id":"f3b18d4c-688e-4e02-9104-7f1d559134af","system_id":"levelo_inurba_marseille","lat":43.32078,"lon":5.36759,"is_reserved":false,"is_disabled":false,"rental_uris":{"android":"levelo://app?vid=f3b18d4c-688e-4e02-9104-7f1d559134af","ios":"levelo://app?vid=f3b18d4c-688e-4e02-9104-7f1d559134af"},"vehicle_type_id":"4","last_reported":1729498379,"current_range_meters":31200,"station_id":"ce4bhrh2rcd13ifvqhug","pricing_plan_id":"cebpf4jnsgd1na2vs0mg"},{"bike_id":"5c427ec6-b3e2-4bcb-bf5e-ebf0118ba7b9","system_id":"levelo_inurba_marseille","lat":43.30464,"lon":5.37905,"is_reserved":false,"is_disabled":false,"rental_uris":{"android":"levelo://app?vid=5c427ec6-b3e2-4bcb-bf5e-ebf0118ba7b9","ios":"levelo://app?vid=5c427ec6-b3e2-4bcb-bf5e-ebf0118ba7b9"},"vehicle_type_id":"4","last_reported":1729498379,"current_range_meters":39200,"station_id":"ce4bgup2rcd13ifvqcn0","pricing_plan_id":"cebpf4jnsgd1na2vs0mg"},{"bike_id":"1dc30d95-fdd0-495e-90af-9001ef66b732","system_id":"levelo_inurba_marseille","lat":43.29979,"lon":5.3717,"is_reserved":false,"is_disabled":false,"rental_uris":{"android":"levelo://app?vid=1dc30d95-fdd0-495e-90af-9001ef66b732","ios":"levelo://app?vid=1dc30d95-fdd0-495e-90af-9001ef66b732"},"vehicle_type_id":"4","last_reported":1729498379,"current_range_meters":37600,"station_id":"ce4bgr92rcd13ifvqc7g","pricing_plan_id":"cebpf4jnsgd1na2vs0mg"},{"bike_id":"6d5f23d5-0f13-413f-be9d-b69e691fdf41","system_id":"levelo_inurba_marseille","lat":43.3014,"lon":5.38081,"is_reserved":false,"is_disabled":false,"rental_uris":{"android":"levelo://app?vid=6d5f23d5-0f13-413f-be9d-b69e691fdf41","ios":"levelo://app?vid=6d5f23d5-0f13-413f-be9d-b69e691fdf41"},"vehicle_type_id":"4","last_reported":1729498379,"current_range_meters":31200,"station_id":"ce4bgjp2rcd13ifvqbh0","pricing_plan_id":"cebpf4jnsgd1na2vs0mg"},{"bike_id":"6557f5dc-9182-4141-a913-4259e426b5ed","system_id":"levelo_inurba_marseille","lat":43.30957,"lon":5.39045,"is_reserved":false,"is_disabled":false,"rental_uris":{"android":"levelo://app?vid=6557f5dc-9182-4141-a913-4259e426b5ed","ios":"levelo://app?vid=6557f5dc-9182-4141-a913-4259e426b5ed"},"vehicle_type_id":"4","last_reported":1729498379,"current_range_meters":12400,"station_id":"ce4bgup2rcd13ifvqco0","pricing_plan_id":"cebpf4jnsgd1na2vs0mg"},{"bike_id":"f3637b95-0ebe-4127-bd33-5c2f6e878007","system_id":"levelo_inurba_marseille","lat":43.26659,"lon":5.38232,"is_reserved":false,"is_disabled":false,"rental_uris":{"android":"levelo://app?vid=f3637b95-0ebe-4127-bd33-5c2f6e878007","ios":"levelo://app?vid=f3637b95-0ebe-4127-bd33-5c2f6e878007"},"vehicle_type_id":"4","last_reported":1729498379,"current_range_meters":24400,"station_id":"ce4bhjp2rcd13ifvqg90","pricing_plan_id":"cebpf4jnsgd1na2vs0mg"},{"bike_id":"3bf2ae1c-49b2-4936-93d0-295eb17bee45","system_id":"levelo_inurba_marseille","lat":43.23062,"lon":5.35489,"is_reserved":false,"is_disabled":false,"rental_uris":{"android":"levelo://app?vid=3bf2ae1c-49b2-4936-93d0-295eb17bee45","ios":"levelo://app?vid=3bf2ae1c-49b2-4936-93d0-295eb17bee45"},"vehicle_type_id":"4","last_reported":1729498379,"current_range_meters":38000,"station_id":"cpo3342slgdg3j2ifvpg","pricing_plan_id":"cebpf4jnsgd1na2vs0mg"},{"bike_id":"b3efdb17-f121-4150-a9a3-a1f531401b75","system_id":"levelo_inurba_marseille","lat":43.25937,"lon":5.40895,"is_reserved":false,"is_disabled":false,"rental_uris":{"android":"levelo://app?vid=b3efdb17-f121-4150-a9a3-a1f531401b75","ios":"levelo://app?vid=b3efdb17-f121-4150-a9a3-a1f531401b75"},"vehicle_type_id":"4","last_reported":1729498379,"current_range_meters":22000,"station_id":"ce4bhm92rcd13ifvqglg","pricing_plan_id":"cebpf4jnsgd1na2vs0mg"},{"bike_id":"e771981a-ab32-44a7-80b8-59b44c9b46ff","system_id":"levelo_inurba_marseille","lat":43.30534,"lon":5.36708,"is_reserved":false,"is_disabled":false,"rental_uris":{"android":"levelo://app?vid=e771981a-ab32-44a7-80b8-59b44c9b46ff","ios":"levelo://app?vid=e771981a-ab32-44a7-80b8-59b44c9b46ff"},"vehicle_type_id":"4","last_reported":1729498379,"current_range_meters":24000,"station_id":"ce4bgrp2rcd13ifvqc9g","pricing_plan_id":"cebpf4jnsgd1na2vs0mg"},{"bike_id":"01edebeb-e9df-4db9-8e23-851a215d3d7f","system_id":"levelo_inurba_marseille","lat":43.30535,"lon":5.36708,"is_reserved":false,"is_disabled":false,"rental_uris":{"android":"levelo://app?vid=01edebeb-e9df-4db9-8e23-851a215d3d7f","ios":"levelo://app?vid=01edebeb-e9df-4db9-8e23-851a215d3d7f"},"vehicle_type_id":"4","last_reported":1729498379,"current_range_meters":39200,"station_id":"ce4bgrp2rcd13ifvqc9g","pricing_plan_id":"cebpf4jnsgd1na2vs0mg"},{"bike_id":"fdb8aa66-1076-4636-9d0a-52afa1bb752c","system_id":"levelo_inurba_marseille","lat":43.29862,"lon":5.36258,"is_reserved":false,"is_disabled":false,"rental_uris":{"android":"levelo://app?vid=fdb8aa66-1076-4636-9d0a-52afa1bb752c","ios":"levelo://app?vid=fdb8aa66-1076-4636-9d0a-52afa1bb752c"},"vehicle_type_id":"4","last_reported":1729498379,"current_range_meters":22000,"station_id":"ce4bgpp2rcd13ifvqc3g","pricing_plan_id":"cebpf4jnsgd1na2vs0mg"},{"bike_id":"67d03652-766c-4ff9-b773-3564238cd56a","system_id":"levelo_inurba_marseille","lat":43.293062,"lon":5.37458,"is_reserved":false,"is_disabled":false,"rental_uris":{"android":"levelo://app?vid=67d03652-766c-4ff9-b773-3564238cd56a","ios":"levelo://app?vid=67d03652-766c-4ff9-b773-3564238cd56a"},"vehicle_type_id":"4","last_reported":1729498379,"current_range_meters":38000,"station_id":"ce4bgi12rcd13ifvqb70","pricing_plan_id":"cebpf4jnsgd1na2vs0mg"},{"bike_id":"62738b42-4d14-4992-87b3-65556f57f437","system_id":"levelo_inurba_marseille","lat":43.24386,"lon":5.3706,"is_reserved":false,"is_disabled":false,"rental_uris":{"android":"levelo://app?vid=62738b42-4d14-4992-87b3-65556f57f437","ios":"levelo://app?vid=62738b42-4d14-4992-87b3-65556f57f437"},"vehicle_type_id":"4","last_reported":1729498379,"current_range_meters":29600,"station_id":"ce4bhhh2rcd13ifvqfk0","pricing_plan_id":"cebpf4jnsgd1na2vs0mg"},{"bike_id":"0a881be8-b89e-4caa-b36d-874be8317bb8","system_id":"levelo_inurba_marseille","lat":43.29977,"lon":5.37173,"is_reserved":false,"is_disabled":false,"rental_uris":{"android":"levelo://app?vid=0a881be8-b89e-4caa-b36d-874be8317bb8","ios":"levelo://app?vid=0a881be8-b89e-4caa-b36d-874be8317bb8"},"vehicle_type_id":"4","last_reported":1729498379,"current_range_meters":38000,"station_id":"ce4bgr92rcd13ifvqc7g","pricing_plan_id":"cebpf4jnsgd1na2vs0mg"},{"bike_id":"4517af98-c83a-4c45-a9db-642c066330ca","system_id":"levelo_inurba_marseille","lat":43.30462,"lon":5.37915,"is_reserved":false,"is_disabled":false,"rental_uris":{"android":"levelo://app?vid=4517af98-c83a-4c45-a9db-642c066330ca","ios":"levelo://app?vid=4517af98-c83a-4c45-a9db-642c066330ca"},"vehicle_type_id":"4","last_reported":1729498379,"current_range_meters":36400,"station_id":"ce4bgup2rcd13ifvqcn0","pricing_plan_id":"cebpf4jnsgd1na2vs0mg"},{"bike_id":"f2c49fb6-7dd8-45a5-8c84-74d9d6489e79","system_id":"levelo_inurba_marseille","lat":43.30555,"lon":5.36543,"is_reserved":false,"is_disabled":false,"rental_uris":{"android":"levelo://app?vid=f2c49fb6-7dd8-45a5-8c84-74d9d6489e79","ios":"levelo://app?vid=f2c49fb6-7dd8-45a5-8c84-74d9d6489e79"},"vehicle_type_id":"4","last_reported":1729498379,"current_range_meters":28400,"station_id":"ce4bgs12rcd13ifvqcag","pricing_plan_id":"cebpf4jnsgd1na2vs0mg"},{"bike_id":"fc9e44c7-fda4-4ce8-8818-600912cdab91","system_id":"levelo_inurba_marseille","lat":43.25941,"lon":5.40898,"is_reserved":false,"is_disabled":false,"rental_uris":{"android":"levelo://app?vid=fc9e44c7-fda4-4ce8-8818-600912cdab91","ios":"levelo://app?vid=fc9e44c7-fda4-4ce8-8818-600912cdab91"},"vehicle_type_id":"4","last_reported":1729498379,"current_range_meters":38800,"station_id":"ce4bhm92rcd13ifvqglg","pricing_plan_id":"cebpf4jnsgd1na2vs0mg"},{"bike_id":"342bb506-8e82-4fe8-8123-2298181f1aa1","system_id":"levelo_inurba_marseille","lat":43.30797,"lon":5.38167,"is_reserved":false,"is_disabled":false,"rental_uris":{"android":"levelo://app?vid=342bb506-8e82-4fe8-8123-2298181f1aa1","ios":"levelo://app?vid=342bb506-8e82-4fe8-8123-2298181f1aa1"},"vehicle_type_id":"4","last_reported":1729498379,"current_range_meters":33200,"station_id":"","pricing_plan_id":"cebpf4jnsgd1na2vs0mg"},{"bike_id":"49f034c7-bcc2-44a1-a2c0-c64d1cae1fa9","system_id":"levelo_inurba_marseille","lat":43.27627,"lon":5.36114,"is_reserved":false,"is_disabled":false,"rental_uris":{"android":"levelo://app?vid=49f034c7-bcc2-44a1-a2c0-c64d1cae1fa9","ios":"levelo://app?vid=49f034c7-bcc2-44a1-a2c0-c64d1cae1fa9"},"vehicle_type_id":"4","last_reported":1729498379,"current_range_meters":38400,"station_id":"ce4bgj92rcd13ifvqbe0","pricing_plan_id":"cebpf4jnsgd1na2vs0mg"},{"bike_id":"62fbe90b-a9cf-4737-96e1-249789b420f5","system_id":"levelo_inurba_marseille","lat":43.30349,"lon":5.41885,"is_reserved":false,"is_disabled":false,"rental_uris":{"android":"levelo://app?vid=62fbe90b-a9cf-4737-96e1-249789b420f5","ios":"levelo://app?vid=62fbe90b-a9cf-4737-96e1-249789b420f5"},"vehicle_type_id":"4","last_reported":1729498379,"current_range_meters":38800,"station_id":"ce4bhop2rcd13ifvqh7g","pricing_plan_id":"cebpf4jnsgd1na2vs0mg"},{"bike_id":"11a214b1-ccc8-49ea-a0a9-958275d6337e","system_id":"levelo_inurba_marseille","lat":43.29527,"lon":5.37503,"is_reserved":false,"is_disabled":false,"rental_uris":{"android":"levelo://app?vid=11a214b1-ccc8-49ea-a0a9-958275d6337e","ios":"levelo://app?vid=11a214b1-ccc8-49ea-a0a9-958275d6337e"},"vehicle_type_id":"4","last_reported":1729498379,"current_range_meters":27600,"station_id":"ce4bgkp2rcd13ifvqbmg","pricing_plan_id":"cebpf4jnsgd1na2vs0mg"},{"bike_id":"77fb8dc0-c11b-40fd-ba2e-f553cfe94859","system_id":"levelo_inurba_marseille","lat":43.30943,"lon":5.39038,"is_reserved":false,"is_disabled":false,"rental_uris":{"android":"levelo://app?vid=77fb8dc0-c11b-40fd-ba2e-f553cfe94859","ios":"levelo://app?vid=77fb8dc0-c11b-40fd-ba2e-f553cfe94859"},"vehicle_type_id":"4","last_reported":1729498379,"current_range_meters":2800,"station_id":"ce4bgup2rcd13ifvqco0","pricing_plan_id":"cebpf4jnsgd1na2vs0mg"},{"bike_id":"53442209-de2c-48e5-93ab-7b580e04a6b6","system_id":"levelo_inurba_marseille","lat":43.31352,"lon":5.36693,"is_reserved":false,"is_disabled":false,"rental_uris":{"android":"levelo://app?vid=53442209-de2c-48e5-93ab-7b580e04a6b6","ios":"levelo://app?vid=53442209-de2c-48e5-93ab-7b580e04a6b6"},"vehicle_type_id":"4","last_reported":1729498379,"current_range_meters":10000,"station_id":"ce4bgr92rcd13ifvqc6g","pricing_plan_id":"cebpf4jnsgd1na2vs0mg"},{"bike_id":"3d9c7d7a-4762-4166-bd30-f334d8486e84","system_id":"levelo_inurba_marseille","lat":43.30247,"lon":5.40053,"is_reserved":false,"is_disabled":false,"rental_uris":{"android":"levelo://app?vid=3d9c7d7a-4762-4166-bd30-f334d8486e84","ios":"levelo://app?vid=3d9c7d7a-4762-4166-bd30-f334d8486e84"},"vehicle_type_id":"4","last_reported":1729498379,"current_range_meters":39200,"station_id":"ce4bgvh2rcd13ifvqcs0","pricing_plan_id":"cebpf4jnsgd1na2vs0mg"},{"bike_id":"2bc45ef0-0980-48ee-92a9-6282b5294270","system_id":"levelo_inurba_marseille","lat":43.30142,"lon":5.37418,"is_reserved":false,"is_disabled":false,"rental_uris":{"android":"levelo://app?vid=2bc45ef0-0980-48ee-92a9-6282b5294270","ios":"levelo://app?vid=2bc45ef0-0980-48ee-92a9-6282b5294270"},"vehicle_type_id":"4","last_reported":1729498379,"current_range_meters":38000,"station_id":"ce4bgs92rcd13ifvqcc0","pricing_plan_id":"cebpf4jnsgd1na2vs0mg"},{"bike_id":"418bd683-b6c0-4394-90d1-454d0664a04c","system_id":"levelo_inurba_marseille","lat":43.33609,"lon":5.41022,"is_reserved":false,"is_disabled":false,"rental_uris":{"android":"levelo://app?vid=418bd683-b6c0-4394-90d1-454d0664a04c","ios":"levelo://app?vid=418bd683-b6c0-4394-90d1-454d0664a04c"},"vehicle_type_id":"4","last_reported":1729498379,"current_range_meters":39200,"station_id":"ce4bhqh2rcd13ifvqhmg","pricing_plan_id":"cebpf4jnsgd1na2vs0mg"},{"bike_id":"53136745-46ec-42df-a233-c8fabbec71b3","system_id":"levelo_inurba_marseille","lat":43.2984,"lon":5.36261,"is_reserved":false,"is_disabled":false,"rental_uris":{"android":"levelo://app?vid=53136745-46ec-42df-a233-c8fabbec71b3","ios":"levelo://app?vid=53136745-46ec-42df-a233-c8fabbec71b3"},"vehicle_type_id":"4","last_reported":1729498379,"current_range_meters":31200,"station_id":"ce4bgpp2rcd13ifvqc3g","pricing_plan_id":"cebpf4jnsgd1na2vs0mg"},{"bike_id":"aaf6b3b0-6fb9-4153-bb37-57af18ec9484","system_id":"levelo_inurba_marseille","lat":43.27664,"lon":5.38897,"is_reserved":false,"is_disabled":false,"rental_uris":{"android":"levelo://app?vid=aaf6b3b0-6fb9-4153-bb37-57af18ec9484","ios":"levelo://app?vid=aaf6b3b0-6fb9-4153-bb37-57af18ec9484"},"vehicle_type_id":"4","last_reported":1729498379,"current_range_meters":27600,"station_id":"ce4bhi12rcd13ifvqfo0","pricing_plan_id":"cebpf4jnsgd1na2vs0mg"},{"bike_id":"fcae2bab-33f3-4764-8301-058751f684f4","system_id":"levelo_inurba_marseille","lat":43.33605,"lon":5.41031,"is_reserved":false,"is_disabled":false,"rental_uris":{"android":"levelo://app?vid=fcae2bab-33f3-4764-8301-058751f684f4","ios":"levelo://app?vid=fcae2bab-33f3-4764-8301-058751f684f4"},"vehicle_type_id":"4","last_reported":1729498379,"current_range_meters":24800,"station_id":"ce4bhqh2rcd13ifvqhmg","pricing_plan_id":"cebpf4jnsgd1na2vs0mg"},{"bike_id":"504c7cc7-e16f-4276-a290-99155c114869","system_id":"levelo_inurba_marseille","lat":43.29038,"lon":5.39986,"is_reserved":false,"is_disabled":false,"rental_uris":{"android":"levelo://app?vid=504c7cc7-e16f-4276-a290-99155c114869","ios":"levelo://app?vid=504c7cc7-e16f-4276-a290-99155c114869"},"vehicle_type_id":"4","last_reported":1729498379,"current_range_meters":37600,"station_id":"ce4bh392rcd13ifvqdm0","pricing_plan_id":"cebpf4jnsgd1na2vs0mg"},{"bike_id":"72ce73d7-fd9d-4f5b-b71d-76a2be6f2932","system_id":"levelo_inurba_marseille","lat":43.33755,"lon":5.37434,"is_reserved":false,"is_disabled":false,"rental_uris":{"android":"levelo://app?vid=72ce73d7-fd9d-4f5b-b71d-76a2be6f2932","ios":"levelo://app?vid=72ce73d7-fd9d-4f5b-b71d-76a2be6f2932"},"vehicle_type_id":"4","last_reported":1729498379,"current_range_meters":4800,"station_id":"","pricing_plan_id":"cebpf4jnsgd1na2vs0mg"},{"bike_id":"1bcbcc7a-0dab-4ba2-98d8-09d03b299159","system_id":"levelo_inurba_marseille","lat":43.28667,"lon":5.36346,"is_reserved":false,"is_disabled":false,"rental_uris":{"android":"levelo://app?vid=1bcbcc7a-0dab-4ba2-98d8-09d03b299159","ios":"levelo://app?vid=1bcbcc7a-0dab-4ba2-98d8-09d03b299159"},"vehicle_type_id":"4","last_reported":1729498379,"current_range_meters":17200,"station_id":"ce4bhah2rcd13ifvqej0","pricing_plan_id":"cebpf4jnsgd1na2vs0mg"},{"bike_id":"75f3d9a9-89ad-4abc-9d7b-6216446ea90a","system_id":"levelo_inurba_marseille","lat":43.337444,"lon":5.374475,"is_reserved":false,"is_disabled":false,"rental_uris":{"android":"levelo://app?vid=75f3d9a9-89ad-4abc-9d7b-6216446ea90a","ios":"levelo://app?vid=75f3d9a9-89ad-4abc-9d7b-6216446ea90a"},"vehicle_type_id":"4","last_reported":1729498379,"current_range_meters":26000,"station_id":"","pricing_plan_id":"cebpf4jnsgd1na2vs0mg"},{"bike_id":"37d9ddb9-fa84-41ea-9dd9-14fb2fbb0724","system_id":"levelo_inurba_marseille","lat":43.30544,"lon":5.36548,"is_reserved":false,"is_disabled":false,"rental_uris":{"android":"levelo://app?vid=37d9ddb9-fa84-41ea-9dd9-14fb2fbb0724","ios":"levelo://app?vid=37d9ddb9-fa84-41ea-9dd9-14fb2fbb0724"},"vehicle_type_id":"4","last_reported":1729498379,"current_range_meters":24000,"station_id":"ce4bgs12rcd13ifvqcag","pricing_plan_id":"cebpf4jnsgd1na2vs0mg"},{"bike_id":"c39284f4-73d3-4a0e-bff6-655ee4a2eff9","system_id":"levelo_inurba_marseille","lat":43.30948,"lon":5.39047,"is_reserved":false,"is_disabled":false,"rental_uris":{"android":"levelo://app?vid=c39284f4-73d3-4a0e-bff6-655ee4a2eff9","ios":"levelo://app?vid=c39284f4-73d3-4a0e-bff6-655ee4a2eff9"},"vehicle_type_id":"4","last_reported":1729498379,"current_range_meters":36400,"station_id":"ce4bgup2rcd13ifvqco0","pricing_plan_id":"cebpf4jnsgd1na2vs0mg"},{"bike_id":"1a9e8cdd-16ba-419c-8108-4c14a1491d6e","system_id":"levelo_inurba_marseille","lat":43.31352,"lon":5.36718,"is_reserved":false,"is_disabled":false,"rental_uris":{"android":"levelo://app?vid=1a9e8cdd-16ba-419c-8108-4c14a1491d6e","ios":"levelo://app?vid=1a9e8cdd-16ba-419c-8108-4c14a1491d6e"},"vehicle_type_id":"4","last_reported":1729498379,"current_range_meters":32400,"station_id":"ce4bgr92rcd13ifvqc6g","pricing_plan_id":"cebpf4jnsgd1na2vs0mg"},{"bike_id":"099bdd2c-06c5-4650-beb3-68fcdb0a3341","system_id":"levelo_inurba_marseille","lat":43.30947,"lon":5.39027,"is_reserved":false,"is_disabled":false,"rental_uris":{"android":"levelo://app?vid=099bdd2c-06c5-4650-beb3-68fcdb0a3341","ios":"levelo://app?vid=099bdd2c-06c5-4650-beb3-68fcdb0a3341"},"vehicle_type_id":"4","last_reported":1729498379,"current_range_meters":38000,"station_id":"ce4bgup2rcd13ifvqco0","pricing_plan_id":"cebpf4jnsgd1na2vs0mg"},{"bike_id":"b7fc040f-36e1-4c2b-a943-a2bfc677eea8","system_id":"levelo_inurba_marseille","lat":43.29709,"lon":5.36609,"is_reserved":false,"is_disabled":false,"rental_uris":{"android":"levelo://app?vid=b7fc040f-36e1-4c2b-a943-a2bfc677eea8","ios":"levelo://app?vid=b7fc040f-36e1-4c2b-a943-a2bfc677eea8"},"vehicle_type_id":"4","last_reported":1729498379,"current_range_meters":38800,"station_id":"ce4bgn12rcd13ifvqbt0","pricing_plan_id":"cebpf4jnsgd1na2vs0mg"},{"bike_id":"7bf4eac7-b54a-4766-8a72-a30fb194e7c2","system_id":"levelo_inurba_marseille","lat":43.30548,"lon":5.36534,"is_reserved":false,"is_disabled":false,"rental_uris":{"android":"levelo://app?vid=7bf4eac7-b54a-4766-8a72-a30fb194e7c2","ios":"levelo://app?vid=7bf4eac7-b54a-4766-8a72-a30fb194e7c2"},"vehicle_type_id":"4","last_reported":1729498379,"current_range_meters":31200,"station_id":"ce4bgs12rcd13ifvqcag","pricing_plan_id":"cebpf4jnsgd1na2vs0mg"},{"bike_id":"62081fb8-4276-46d4-9604-7fe2920adcfb","system_id":"levelo_inurba_marseille","lat":43.26677,"lon":5.38268,"is_reserved":false,"is_disabled":false,"rental_uris":{"android":"levelo://app?vid=62081fb8-4276-46d4-9604-7fe2920adcfb","ios":"levelo://app?vid=62081fb8-4276-46d4-9604-7fe2920adcfb"},"vehicle_type_id":"4","last_reported":1729498379,"current_range_meters":16400,"station_id":"ce4bhg92rcd13ifvqf90","pricing_plan_id":"cebpf4jnsgd1na2vs0mg"},{"bike_id":"8c489d6a-8c5d-4ace-8ce1-8ade01fdb678","system_id":"levelo_inurba_marseille","lat":43.26686,"lon":5.38269,"is_reserved":false,"is_disabled":false,"rental_uris":{"android":"levelo://app?vid=8c489d6a-8c5d-4ace-8ce1-8ade01fdb678","ios":"levelo://app?vid=8c489d6a-8c5d-4ace-8ce1-8ade01fdb678"},"vehicle_type_id":"4","last_reported":1729498379,"current_range_meters":38000,"station_id":"ce4bhg92rcd13ifvqf90","pricing_plan_id":"cebpf4jnsgd1na2vs0mg"},{"bike_id":"f3099d68-0947-4b08-8882-1b44d08d49f7","system_id":"levelo_inurba_marseille","lat":43.30312,"lon":5.36899,"is_reserved":false,"is_disabled":false,"rental_uris":{"android":"levelo://app?vid=f3099d68-0947-4b08-8882-1b44d08d49f7","ios":"levelo://app?vid=f3099d68-0947-4b08-8882-1b44d08d49f7"},"vehicle_type_id":"4","last_reported":1729498379,"current_range_meters":35200,"station_id":"ce4bgqh2rcd13ifvqc5g","pricing_plan_id":"cebpf4jnsgd1na2vs0mg"},{"bike_id":"2e31d8fa-3fe5-4fba-9403-f6f83112273d","system_id":"levelo_inurba_marseille","lat":43.24181,"lon":5.3973,"is_reserved":false,"is_disabled":false,"rental_uris":{"android":"levelo://app?vid=2e31d8fa-3fe5-4fba-9403-f6f83112273d","ios":"levelo://app?vid=2e31d8fa-3fe5-4fba-9403-f6f83112273d"},"vehicle_type_id":"4","last_reported":1729498379,"current_range_meters":16000,"station_id":"ce4bhn12rcd13ifvqgpg","pricing_plan_id":"cebpf4jnsgd1na2vs0mg"},{"bike_id":"4eeca87a-2d31-457e-ab85-83a25ab497de","system_id":"levelo_inurba_marseille","lat":43.2885,"lon":5.39332,"is_reserved":false,"is_disabled":false,"rental_uris":{"android":"levelo://app?vid=4eeca87a-2d31-457e-ab85-83a25ab497de","ios":"levelo://app?vid=4eeca87a-2d31-457e-ab85-83a25ab497de"},"vehicle_type_id":"4","last_reported":1729498379,"current_range_meters":38800,"station_id":"ce4bh2p2rcd13ifvqdi0","pricing_plan_id":"cebpf4jnsgd1na2vs0mg"},{"bike_id":"13a9ca34-f47b-4bac-bc4b-8ad80399645b","system_id":"levelo_inurba_marseille","lat":43.33718,"lon":5.3917,"is_reserved":false,"is_disabled":false,"rental_uris":{"android":"levelo://app?vid=13a9ca34-f47b-4bac-bc4b-8ad80399645b","ios":"levelo://app?vid=13a9ca34-f47b-4bac-bc4b-8ad80399645b"},"vehicle_type_id":"4","last_reported":1729498379,"current_range_meters":38400,"station_id":"ce4bhr92rcd13ifvqhsg","pricing_plan_id":"cebpf4jnsgd1na2vs0mg"},{"bike_id":"6578ee7f-e24a-4446-a117-44be016b09b1","system_id":"levelo_inurba_marseille","lat":43.24801,"lon":5.37454,"is_reserved":false,"is_disabled":false,"rental_uris":{"android":"levelo://app?vid=6578ee7f-e24a-4446-a117-44be016b09b1","ios":"levelo://app?vid=6578ee7f-e24a-4446-a117-44be016b09b1"},"vehicle_type_id":"4","last_reported":1729498379,"current_range_meters":22800,"station_id":"ce4bhgh2rcd13ifvqfb0","pricing_plan_id":"cebpf4jnsgd1na2vs0mg"},{"bike_id":"0540830f-71f4-4849-8d06-63bd57143a69","system_id":"levelo_inurba_marseille","lat":43.30905,"lon":5.36837,"is_reserved":false,"is_disabled":false,"rental_uris":{"android":"levelo://app?vid=0540830f-71f4-4849-8d06-63bd57143a69","ios":"levelo://app?vid=0540830f-71f4-4849-8d06-63bd57143a69"},"vehicle_type_id":"4","last_reported":1729498379,"current_range_meters":33200,"station_id":"ce4bgn92rcd13ifvqbvg","pricing_plan_id":"cebpf4jnsgd1na2vs0mg"},{"bike_id":"93a94103-19a0-447f-ad9d-6cb5f148a9ff","system_id":"levelo_inurba_marseille","lat":43.31357,"lon":5.36712,"is_reserved":false,"is_disabled":false,"rental_uris":{"android":"levelo://app?vid=93a94103-19a0-447f-ad9d-6cb5f148a9ff","ios":"levelo://app?vid=93a94103-19a0-447f-ad9d-6cb5f148a9ff"},"vehicle_type_id":"4","last_reported":1729498379,"current_range_meters":18800,"station_id":"ce4bgr92rcd13ifvqc6g","pricing_plan_id":"cebpf4jnsgd1na2vs0mg"},{"bike_id":"bc9f1010-ea70-4776-bd0c-aa154cc7d4be","system_id":"levelo_inurba_marseille","lat":43.24997,"lon":5.38923,"is_reserved":false,"is_disabled":false,"rental_uris":{"android":"levelo://app?vid=bc9f1010-ea70-4776-bd0c-aa154cc7d4be","ios":"levelo://app?vid=bc9f1010-ea70-4776-bd0c-aa154cc7d4be"},"vehicle_type_id":"4","last_reported":1729498379,"current_range_meters":22800,"station_id":"ce4bhgp2rcd13ifvqfd0","pricing_plan_id":"cebpf4jnsgd1na2vs0mg"},{"bike_id":"09c742b9-67aa-44f1-b833-7cf3d42021e8","system_id":"levelo_inurba_marseille","lat":43.25575,"lon":5.38228,"is_reserved":false,"is_disabled":false,"rental_uris":{"android":"levelo://app?vid=09c742b9-67aa-44f1-b833-7cf3d42021e8","ios":"levelo://app?vid=09c742b9-67aa-44f1-b833-7cf3d42021e8"},"vehicle_type_id":"4","last_reported":1729498379,"current_range_meters":33200,"station_id":"ce4bhih2rcd13ifvqfs0","pricing_plan_id":"cebpf4jnsgd1na2vs0mg"},{"bike_id":"54ba06b5-cc61-4914-b545-edd2f2c0e593","system_id":"levelo_inurba_marseille","lat":43.30468,"lon":5.37893,"is_reserved":false,"is_disabled":false,"rental_uris":{"android":"levelo://app?vid=54ba06b5-cc61-4914-b545-edd2f2c0e593","ios":"levelo://app?vid=54ba06b5-cc61-4914-b545-edd2f2c0e593"},"vehicle_type_id":"4","last_reported":1729498379,"current_range_meters":37600,"station_id":"ce4bgup2rcd13ifvqcn0","pricing_plan_id":"cebpf4jnsgd1na2vs0mg"},{"bike_id":"af4c151b-55ef-4585-bbbe-70ad47e8c7a1","system_id":"levelo_inurba_marseille","lat":43.24173,"lon":5.39721,"is_reserved":false,"is_disabled":false,"rental_uris":{"android":"levelo://app?vid=af4c151b-55ef-4585-bbbe-70ad47e8c7a1","ios":"levelo://app?vid=af4c151b-55ef-4585-bbbe-70ad47e8c7a1"},"vehicle_type_id":"4","last_reported":1729498379,"current_range_meters":16000,"station_id":"ce4bhn12rcd13ifvqgpg","pricing_plan_id":"cebpf4jnsgd1na2vs0mg"},{"bike_id":"f58bc7aa-6677-4f45-8b29-ae9096aa7049","system_id":"levelo_inurba_marseille","lat":43.31705,"lon":5.43675,"is_reserved":false,"is_disabled":false,"rental_uris":{"android":"levelo://app?vid=f58bc7aa-6677-4f45-8b29-ae9096aa7049","ios":"levelo://app?vid=f58bc7aa-6677-4f45-8b29-ae9096aa7049"},"vehicle_type_id":"4","last_reported":1729498379,"current_range_meters":18000,"station_id":"ce4bhp92rcd13ifvqhcg","pricing_plan_id":"cebpf4jnsgd1na2vs0mg"},{"bike_id":"a4988356-8192-430a-8cc6-0d4d4957e38b","system_id":"levelo_inurba_marseille","lat":43.30794,"lon":5.43521,"is_reserved":false,"is_disabled":false,"rental_uris":{"android":"levelo://app?vid=a4988356-8192-430a-8cc6-0d4d4957e38b","ios":"levelo://app?vid=a4988356-8192-430a-8cc6-0d4d4957e38b"},"vehicle_type_id":"4","last_reported":1729498379,"current_range_meters":27600,"station_id":"ce4bhph2rcd13ifvqheg","pricing_plan_id":"cebpf4jnsgd1na2vs0mg"},{"bike_id":"304e116c-22b7-4fec-8df3-5316f5ceb0f4","system_id":"levelo_inurba_marseille","lat":43.33725,"lon":5.39186,"is_reserved":false,"is_disabled":false,"rental_uris":{"android":"levelo://app?vid=304e116c-22b7-4fec-8df3-5316f5ceb0f4","ios":"levelo://app?vid=304e116c-22b7-4fec-8df3-5316f5ceb0f4"},"vehicle_type_id":"4","last_reported":1729498379,"current_range_meters":39200,"station_id":"ce4bhr92rcd13ifvqhsg","pricing_plan_id":"cebpf4jnsgd1na2vs0mg"},{"bike_id":"8146dc5b-11ba-4228-80a8-1d4f45ec3197","system_id":"levelo_inurba_marseille","lat":43.30154,"lon":5.38082,"is_reserved":false,"is_disabled":false,"rental_uris":{"android":"levelo://app?vid=8146dc5b-11ba-4228-80a8-1d4f45ec3197","ios":"levelo://app?vid=8146dc5b-11ba-4228-80a8-1d4f45ec3197"},"vehicle_type_id":"4","last_reported":1729498379,"current_range_meters":34800,"station_id":"ce4bgjp2rcd13ifvqbh0","pricing_plan_id":"cebpf4jnsgd1na2vs0mg"},