{"last_updated":1778946415,"ttl":60,"version":"2.2","data":{"bikes":[{"bike_id":"364badb3-8b65-4baa-bc0d-8763f4f7f050","system_id":"levelo_inurba_marseille","lat":43.25824,"lon":5.39439,"is_reserved":false,"is_disabled":false,"rental_uris":{"android":"levelo://app?vid=364badb3-8b65-4baa-bc0d-8763f4f7f050","ios":"levelo://app?vid=364badb3-8b65-4baa-bc0d-8763f4f7f050"},"vehicle_type_id":"4","last_reported":1778946416,"current_range_meters":2800,"station_id":"ce4bhip2rcd13ifvqft0","pricing_plan_id":"cebpf4jnsgd1na2vs0mg"},{"bike_id":"f2b641a8-25b2-4a3c-a487-f7c308e930d6","system_id":"levelo_inurba_marseille","lat":43.30788,"lon":5.38143,"is_reserved":false,"is_disabled":false,"rental_uris":{"android":"levelo://app?vid=f2b641a8-25b2-4a3c-a487-f7c308e930d6","ios":"levelo://app?vid=f2b641a8-25b2-4a3c-a487-f7c308e930d6"},"vehicle_type_id":"4","last_reported":1778946416,"current_range_meters":2800,"station_id":"ce4bgt12rcd13ifvqce0","pricing_plan_id":"cebpf4jnsgd1na2vs0mg"},{"bike_id":"e62dbe6d-7da3-4f98-8124-7b4ff406eb10","system_id":"levelo_inurba_marseille","lat":43.26209,"lon":5.37441,"is_reserved":false,"is_disabled":false,"rental_uris":{"android":"levelo://app?vid=e62dbe6d-7da3-4f98-8124-7b4ff406eb10","ios":"levelo://app?vid=e62dbe6d-7da3-4f98-8124-7b4ff406eb10"},"vehicle_type_id":"4","last_reported":1778946416,"current_range_meters":2800,"station_id":"ce4bhgp2rcd13ifvqfc0","pricing_plan_id":"cebpf4jnsgd1na2vs0mg"},{"bike_id":"d2411e79-5360-4e13-92c4-3a8d8c33b0df","system_id":"levelo_inurba_marseille","lat":43.27307,"lon":5.39082,"is_reserved":false,"is_disabled":false,"rental_uris":{"android":"levelo://app?vid=d2411e79-5360-4e13-92c4-3a8d8c33b0df","ios":"levelo://app?vid=d2411e79-5360-4e13-92c4-3a8d8c33b0df"},"vehicle_type_id":"4","last_reported":1778946416,"current_range_meters":2800,"station_id":"ce4bhgp2rcd13ifvqfe0","pricing_plan_id":"cebpf4jnsgd1na2vs0mg"},{"bike_id":"f6163262-a888-4e56-a5f4-84c0df82e76b","system_id":"levelo_inurba_marseille","lat":43.290055,"lon":5.356094,"is_reserved":false,"is_disabled":false,"rental_uris":{"android":"levelo://app?vid=f6163262-a888-4e56-a5f4-84c0df82e76b","ios":"levelo://app?vid=f6163262-a888-4e56-a5f4-84c0df82e76b"},"vehicle_type_id":"4","last_reported":1778946416,"current_range_meters":2800,"station_id":"ce4bhb92rcd13ifvqen0","pricing_plan_id":"cebpf4jnsgd1na2vs0mg"},{"bike_id":"18eb90ac-eec2-4913-9241-dd8d26049a6e","system_id":"levelo_inurba_marseille","lat":43.28709,"lon":5.46762,"is_reserved":false,"is_disabled":false,"rental_uris":{"android":"levelo://app?vid=18eb90ac-eec2-4913-9241-dd8d26049a6e","ios":"levelo://app?vid=18eb90ac-eec2-4913-9241-dd8d26049a6e"},"vehicle_type_id":"4","last_reported":1778946416,"current_range_meters":2800,"station_id":"","pricing_plan_id":"cebpf4jnsgd1na2vs0mg"},{"bike_id":"c017ed55-09a6-4a5d-929c-8842ad153f3f","system_id":"levelo_inurba_marseille","lat":43.28468,"lon":5.35901,"is_reserved":false,"is_disabled":false,"rental_uris":{"android":"levelo://app?vid=c017ed55-09a6-4a5d-929c-8842ad153f3f","ios":"levelo://app?vid=c017ed55-09a6-4a5d-929c-8842ad153f3f"},"vehicle_type_id":"4","last_reported":1778946416,"current_range_meters":2800,"station_id":"ce4bhah2rcd13ifvqei0","pricing_plan_id":"cebpf4jnsgd1na2vs0mg"},{"bike_id":"0851ef02-abf8-47b5-8d41-445bb5757760","system_id":"levelo_inurba_marseille","lat":43.26943,"lon":5.40221,"is_reserved":false,"is_disabled":false,"rental_uris":{"android":"levelo://app?vid=0851ef02-abf8-47b5-8d41-445bb5757760","ios":"levelo://app?vid=0851ef02-abf8-47b5-8d41-445bb5757760"},"vehicle_type_id":"4","last_reported":1778946416,"current_range_meters":2800,"station_id":"cjm6bp8fraef2m0cb0m0","pricing_plan_id":"cebpf4jnsgd1na2vs0mg"},{"bike_id":"c9b3a173-7ab6-4c36-8fac-9f402d85e478","system_id":"levelo_inurba_marseille","lat":43.32489,"lon":5.36583,"is_reserved":false,"is_disabled":false,"rental_uris":{"android":"levelo://app?vid=c9b3a173-7ab6-4c36-8fac-9f402d85e478","ios":"levelo://app?vid=c9b3a173-7ab6-4c36-8fac-9f402d85e478"},"vehicle_type_id":"4","last_reported":1778946416,"current_range_meters":2800,"station_id":"ce4bhs12rcd13ifvqhvg","pricing_plan_id":"cebpf4jnsgd1na2vs0mg"},{"bike_id":"eb69ded8-3844-4366-a6c0-c2401c6cc839","system_id":"levelo_inurba_marseille","lat":43.287,"lon":5.46682,"is_reserved":false,"is_disabled":false,"rental_uris":{"android":"levelo://app?vid=eb69ded8-3844-4366-a6c0-c2401c6cc839","ios":"levelo://app?vid=eb69ded8-3844-4366-a6c0-c2401c6cc839"},"vehicle_type_id":"4","last_reported":1778946416,"current_range_meters":2800,"station_id":"st_d6tc3vkotcvc738tfjhg","pricing_plan_id":"cebpf4jnsgd1na2vs0mg"},{"bike_id":"6765c673-e20f-4236-876e-705e9ede968d","system_id":"levelo_inurba_marseille","lat":43.24642,"lon":5.3889,"is_reserved":false,"is_disabled":false,"rental_uris":{"android":"levelo://app?vid=6765c673-e20f-4236-876e-705e9ede968d","ios":"levelo://app?vid=6765c673-e20f-4236-876e-705e9ede968d"},"vehicle_type_id":"4","last_reported":1778946416,"current_range_meters":3200,"station_id":"ce4bhg12rcd13ifvqf60","pricing_plan_id":"cebpf4jnsgd1na2vs0mg"},{"bike_id":"9852dac5-be21-4980-af78-9f3baf6ad910","system_id":"levelo_inurba_marseille","lat":43.225338,"lon":5.348284,"is_reserved":false,"is_disabled":false,"rental_uris":{"android":"levelo://app?vid=9852dac5-be21-4980-af78-9f3baf6ad910","ios":"levelo://app?vid=9852dac5-be21-4980-af78-9f3baf6ad910"},"vehicle_type_id":"4","last_reported":1778946416,"current_range_meters":3200,"station_id":"st_cvj5dfep6f1abm77gieg","pricing_plan_id":"cebpf4jnsgd1na2vs0mg"},{"bike_id":"22a5ca0d-4ed2-4dc2-931b-b08da81c1cfb","system_id":"levelo_inurba_marseille","lat":43.30555,"lon":5.3654,"is_reserved":false,"is_disabled":false,"rental_uris":{"android":"levelo://app?vid=22a5ca0d-4ed2-4dc2-931b-b08da81c1cfb","ios":"levelo://app?vid=22a5ca0d-4ed2-4dc2-931b-b08da81c1cfb"},"vehicle_type_id":"4","last_reported":1778946416,"current_range_meters":3200,"station_id":"ce4bgs12rcd13ifvqcag","pricing_plan_id":"cebpf4jnsgd1na2vs0mg"},{"bike_id":"4871e020-2fa3-4c76-85d3-33f464b3c3d8","system_id":"levelo_inurba_marseille","lat":43.27204,"lon":5.39161,"is_reserved":false,"is_disabled":false,"rental_uris":{"android":"levelo://app?vid=4871e020-2fa3-4c76-85d3-33f464b3c3d8","ios":"levelo://app?vid=4871e020-2fa3-4c76-85d3-33f464b3c3d8"},"vehicle_type_id":"4","last_reported":1778946416,"current_range_meters":3200,"station_id":"ce4bhhp2rcd13ifvqfm0","pricing_plan_id":"cebpf4jnsgd1na2vs0mg"},{"bike_id":"670c63a7-e7a2-4ab3-8f6c-c9072ad7ea78","system_id":"levelo_inurba_marseille","lat":43.28471,"lon":5.3842,"is_reserved":false,"is_disabled":false,"rental_uris":{"android":"levelo://app?vid=670c63a7-e7a2-4ab3-8f6c-c9072ad7ea78","ios":"levelo://app?vid=670c63a7-e7a2-4ab3-8f6c-c9072ad7ea78"},"vehicle_type_id":"4","last_reported":1778946416,"current_range_meters":3200,"station_id":"ce4bh512rcd13ifvqe3g","pricing_plan_id":"cebpf4jnsgd1na2vs0mg"},{"bike_id":"e0799a49-1a6d-4074-91d2-4fc966f89ff9","system_id":"levelo_inurba_marseille","lat":43.28466,"lon":5.38409,"is_reserved":false,"is_disabled":false,"rental_uris":{"android":"levelo://app?vid=e0799a49-1a6d-4074-91d2-4fc966f89ff9","ios":"levelo://app?vid=e0799a49-1a6d-4074-91d2-4fc966f89ff9"},"vehicle_type_id":"4","last_reported":1778946416,"current_range_meters":3200,"station_id":"ce4bh512rcd13ifvqe3g","pricing_plan_id":"cebpf4jnsgd1na2vs0mg"},{"bike_id":"c15b7d9d-4d2e-4558-9fe7-1ee3f2efc7ae","system_id":"levelo_inurba_marseille","lat":43.29481,"lon":5.43298,"is_reserved":false,"is_disabled":false,"rental_uris":{"android":"levelo://app?vid=c15b7d9d-4d2e-4558-9fe7-1ee3f2efc7ae","ios":"levelo://app?vid=c15b7d9d-4d2e-4558-9fe7-1ee3f2efc7ae"},"vehicle_type_id":"4","last_reported":1778946416,"current_range_meters":3200,"station_id":"st_d3j5ugp08ojc73fj9d10","pricing_plan_id":"cebpf4jnsgd1na2vs0mg"},{"bike_id":"64036ac4-da2c-4f3a-bbf1-b93641ec3358","system_id":"levelo_inurba_marseille","lat":43.29977,"lon":5.37176,"is_reserved":false,"is_disabled":false,"rental_uris":{"android":"levelo://app?vid=64036ac4-da2c-4f3a-bbf1-b93641ec3358","ios":"levelo://app?vid=64036ac4-da2c-4f3a-bbf1-b93641ec3358"},"vehicle_type_id":"4","last_reported":1778946416,"current_range_meters":3200,"station_id":"ce4bgr92rcd13ifvqc7g","pricing_plan_id":"cebpf4jnsgd1na2vs0mg"},{"bike_id":"0544ff1b-a392-410a-a38a-9acba12bbcfc","system_id":"levelo_inurba_marseille","lat":43.24815,"lon":5.37462,"is_reserved":false,"is_disabled":false,"rental_uris":{"android":"levelo://app?vid=0544ff1b-a392-410a-a38a-9acba12bbcfc","ios":"levelo://app?vid=0544ff1b-a392-410a-a38a-9acba12bbcfc"},"vehicle_type_id":"4","last_reported":1778946416,"current_range_meters":3200,"station_id":"ce4bhgh2rcd13ifvqfb0","pricing_plan_id":"cebpf4jnsgd1na2vs0mg"},{"bike_id":"94b6e8a8-18d3-4622-8dcd-1aa4cc4eb5d3","system_id":"levelo_inurba_marseille","lat":43.28714,"lon":5.37945,"is_reserved":false,"is_disabled":false,"rental_uris":{"android":"levelo://app?vid=94b6e8a8-18d3-4622-8dcd-1aa4cc4eb5d3","ios":"levelo://app?vid=94b6e8a8-18d3-4622-8dcd-1aa4cc4eb5d3"},"vehicle_type_id":"4","last_reported":1778946416,"current_range_meters":3200,"station_id":"ce4bh9p2rcd13ifvqec0","pricing_plan_id":"cebpf4jnsgd1na2vs0mg"},{"bike_id":"617a32f2-5b04-4a78-a9dc-309455f7b7a9","system_id":"levelo_inurba_marseille","lat":43.2509,"lon":5.395185,"is_reserved":false,"is_disabled":false,"rental_uris":{"android":"levelo://app?vid=617a32f2-5b04-4a78-a9dc-309455f7b7a9","ios":"levelo://app?vid=617a32f2-5b04-4a78-a9dc-309455f7b7a9"},"vehicle_type_id":"4","last_reported":1778946416,"current_range_meters":3600,"station_id":"ce4bhm12rcd13ifvqgkg","pricing_plan_id":"cebpf4jnsgd1na2vs0mg"},{"bike_id":"197f8590-4140-4e11-8b87-67ad98bb4bca","system_id":"levelo_inurba_marseille","lat":43.28616,"lon":5.37063,"is_reserved":false,"is_disabled":true,"rental_uris":{"android":"levelo://app?vid=197f8590-4140-4e11-8b87-67ad98bb4bca","ios":"levelo://app?vid=197f8590-4140-4e11-8b87-67ad98bb4bca"},"vehicle_type_id":"4","last_reported":1778946416,"current_range_meters":3600,"station_id":"ce4bht12rcd13ifvqi60","pricing_plan_id":"cebpf4jnsgd1na2vs0mg"},{"bike_id":"69a4de94-ae1f-4385-aa61-58a2336f8cb8","system_id":"levelo_inurba_marseille","lat":43.30027,"lon":5.43088,"is_reserved":false,"is_disabled":false,"rental_uris":{"android":"levelo://app?vid=69a4de94-ae1f-4385-aa61-58a2336f8cb8","ios":"levelo://app?vid=69a4de94-ae1f-4385-aa61-58a2336f8cb8"},"vehicle_type_id":"4","last_reported":1778946416,"current_range_meters":3600,"station_id":"","pricing_plan_id":"cebpf4jnsgd1na2vs0mg"},{"bike_id":"417bd26b-1701-485b-b896-bb7adc98bac9","system_id":"levelo_inurba_marseille","lat":43.23958,"lon":5.36631,"is_reserved":false,"is_disabled":true,"rental_uris":{"android":"levelo://app?vid=417bd26b-1701-485b-b896-bb7adc98bac9","ios":"levelo://app?vid=417bd26b-1701-485b-b896-bb7adc98bac9"},"vehicle_type_id":"4","last_reported":1778946416,"current_range_meters":3600,"station_id":"ce4bhi12rcd13ifvqfp0","pricing_plan_id":"cebpf4jnsgd1na2vs0mg"},{"bike_id":"4c1456b4-c5f4-49ed-bd33-6f63525d7c4f","system_id":"levelo_inurba_marseille","lat":43.28007,"lon":5.38702,"is_reserved":false,"is_disabled":true,"rental_uris":{"android":"levelo://app?vid=4c1456b4-c5f4-49ed-bd33-6f63525d7c4f","ios":"levelo://app?vid=4c1456b4-c5f4-49ed-bd33-6f63525d7c4f"},"vehicle_type_id":"4","last_reported":1778946416,"current_range_meters":3600,"station_id":"ce4bhg12rcd13ifvqf80","pricing_plan_id":"cebpf4jnsgd1na2vs0mg"},{"bike_id":"4a2c3714-352c-4346-85dd-db30f79950fd","system_id":"levelo_inurba_marseille","lat":43.24853,"lon":5.37476,"is_reserved":false,"is_disabled":false,"rental_uris":{"android":"levelo://app?vid=4a2c3714-352c-4346-85dd-db30f79950fd","ios":"levelo://app?vid=4a2c3714-352c-4346-85dd-db30f79950fd"},"vehicle_type_id":"4","last_reported":1778946416,"current_range_meters":3600,"station_id":"","pricing_plan_id":"cebpf4jnsgd1na2vs0mg"},{"bike_id":"305f8012-853c-4e5c-b4a3-badea1215a44","system_id":"levelo_inurba_marseille","lat":43.33754,"lon":5.37506,"is_reserved":false,"is_disabled":false,"rental_uris":{"android":"levelo://app?vid=305f8012-853c-4e5c-b4a3-badea1215a44","ios":"levelo://app?vid=305f8012-853c-4e5c-b4a3-badea1215a44"},"vehicle_type_id":"4","last_reported":1778946416,"current_range_meters":4000,"station_id":"","pricing_plan_id":"cebpf4jnsgd1na2vs0mg"},{"bike_id":"76e33348-6a4a-4160-8477-e9650ddfdc10","system_id":"levelo_inurba_marseille","lat":43.2956,"lon":5.42306,"is_reserved":false,"is_disabled":false,"rental_uris":{"android":"levelo://app?vid=76e33348-6a4a-4160-8477-e9650ddfdc10","ios":"levelo://app?vid=76e33348-6a4a-4160-8477-e9650ddfdc10"},"vehicle_type_id":"4","last_reported":1778946416,"current_range_meters":4000,"station_id":"ce4bhph2rcd13ifvqhdg","pricing_plan_id":"cebpf4jnsgd1na2vs0mg"},{"bike_id":"9683986e-4314-40de-86a1-59846036f2cb","system_id":"levelo_inurba_marseille","lat":43.29028,"lon":5.37561,"is_reserved":false,"is_disabled":false,"rental_uris":{"android":"levelo://app?vid=9683986e-4314-40de-86a1-59846036f2cb","ios":"levelo://app?vid=9683986e-4314-40de-86a1-59846036f2cb"},"vehicle_type_id":"4","last_reported":1778946416,"current_range_meters":4000,"station_id":"ce4bh692rcd13ifvqe90","pricing_plan_id":"cebpf4jnsgd1na2vs0mg"},{"bike_id":"bd944be2-a82e-4ebe-b323-fff2ccd1359b","system_id":"levelo_inurba_marseille","lat":43.29707,"lon":5.37697,"is_reserved":false,"is_disabled":false,"rental_uris":{"android":"levelo://app?vid=bd944be2-a82e-4ebe-b323-fff2ccd1359b","ios":"levelo://app?vid=bd944be2-a82e-4ebe-b323-fff2ccd1359b"},"vehicle_type_id":"4","last_reported":1778946416,"current_range_meters":4000,"station_id":"ce4bgkh2rcd13ifvqbl0","pricing_plan_id":"cebpf4jnsgd1na2vs0mg"},{"bike_id":"ca01c33c-99c8-4ff8-a274-d065c7262a1a","system_id":"levelo_inurba_marseille","lat":43.26407,"lon":5.38823,"is_reserved":false,"is_disabled":false,"rental_uris":{"android":"levelo://app?vid=ca01c33c-99c8-4ff8-a274-d065c7262a1a","ios":"levelo://app?vid=ca01c33c-99c8-4ff8-a274-d065c7262a1a"},"vehicle_type_id":"4","last_reported":1778946416,"current_range_meters":4000,"station_id":"","pricing_plan_id":"cebpf4jnsgd1na2vs0mg"},{"bike_id":"f35538c5-f923-479b-ac74-73e10ca6c589","system_id":"levelo_inurba_marseille","lat":43.25605,"lon":5.38227,"is_reserved":false,"is_disabled":false,"rental_uris":{"android":"levelo://app?vid=f35538c5-f923-479b-ac74-73e10ca6c589","ios":"levelo://app?vid=f35538c5-f923-479b-ac74-73e10ca6c589"},"vehicle_type_id":"4","last_reported":1778946416,"current_range_meters":4000,"station_id":"ce4bhih2rcd13ifvqfs0","pricing_plan_id":"cebpf4jnsgd1na2vs0mg"},{"bike_id":"030aa0c9-3a56-4cf3-9e2a-96c44ea93783","system_id":"levelo_inurba_marseille","lat":43.3136,"lon":5.38499,"is_reserved":false,"is_disabled":false,"rental_uris":{"android":"levelo://app?vid=030aa0c9-3a56-4cf3-9e2a-96c44ea93783","ios":"levelo://app?vid=030aa0c9-3a56-4cf3-9e2a-96c44ea93783"},"vehicle_type_id":"4","last_reported":1778946416,"current_range_meters":4000,"station_id":"ce4bgt92rcd13ifvqcf0","pricing_plan_id":"cebpf4jnsgd1na2vs0mg"},{"bike_id":"5a15be6c-1502-448f-b4d1-7dd2af502a9e","system_id":"levelo_inurba_marseille","lat":43.31221,"lon":5.36852,"is_reserved":false,"is_disabled":false,"rental_uris":{"android":"levelo://app?vid=5a15be6c-1502-448f-b4d1-7dd2af502a9e","ios":"levelo://app?vid=5a15be6c-1502-448f-b4d1-7dd2af502a9e"},"vehicle_type_id":"4","last_reported":1778946416,"current_range_meters":4000,"station_id":"ce4bgl92rcd13ifvqbq0","pricing_plan_id":"cebpf4jnsgd1na2vs0mg"},{"bike_id":"f7543221-24ce-49d7-9e9a-813368b633f9","system_id":"levelo_inurba_marseille","lat":43.24654,"lon":5.38161,"is_reserved":false,"is_disabled":false,"rental_uris":{"android":"levelo://app?vid=f7543221-24ce-49d7-9e9a-813368b633f9","ios":"levelo://app?vid=f7543221-24ce-49d7-9e9a-813368b633f9"},"vehicle_type_id":"4","last_reported":1778946416,"current_range_meters":4000,"station_id":"ce4bhih2rcd13ifvqfr0","pricing_plan_id":"cebpf4jnsgd1na2vs0mg"},{"bike_id":"52fb7434-896e-4c97-817e-ac9657918ab4","system_id":"levelo_inurba_marseille","lat":43.33557,"lon":5.37465,"is_reserved":false,"is_disabled":false,"rental_uris":{"android":"levelo://app?vid=52fb7434-896e-4c97-817e-ac9657918ab4","ios":"levelo://app?vid=52fb7434-896e-4c97-817e-ac9657918ab4"},"vehicle_type_id":"4","last_reported":1778946416,"current_range_meters":4000,"station_id":"st_d46tts09ee8s73dlu43g","pricing_plan_id":"cebpf4jnsgd1na2vs0mg"},{"bike_id":"62ff3b2b-ef57-41fd-b2a1-df598de78455","system_id":"levelo_inurba_marseille","lat":43.27617,"lon":5.36112,"is_reserved":false,"is_disabled":false,"rental_uris":{"android":"levelo://app?vid=62ff3b2b-ef57-41fd-b2a1-df598de78455","ios":"levelo://app?vid=62ff3b2b-ef57-41fd-b2a1-df598de78455"},"vehicle_type_id":"4","last_reported":1778946416,"current_range_meters":4000,"station_id":"ce4bgj92rcd13ifvqbe0","pricing_plan_id":"cebpf4jnsgd1na2vs0mg"},{"bike_id":"ee951fcb-056b-4cfb-90c6-b1279fb0b065","system_id":"levelo_inurba_marseille","lat":43.24542,"lon":5.39541,"is_reserved":false,"is_disabled":false,"rental_uris":{"android":"levelo://app?vid=ee951fcb-056b-4cfb-90c6-b1279fb0b065","ios":"levelo://app?vid=ee951fcb-056b-4cfb-90c6-b1279fb0b065"},"vehicle_type_id":"4","last_reported":1778946416,"current_range_meters":4400,"station_id":"ce4bhlp2rcd13ifvqgjg","pricing_plan_id":"cebpf4jnsgd1na2vs0mg"},{"bike_id":"db5ef7bc-1934-45c3-8160-80ea71746812","system_id":"levelo_inurba_marseille","lat":43.26222,"lon":5.40452,"is_reserved":false,"is_disabled":false,"rental_uris":{"android":"levelo://app?vid=db5ef7bc-1934-45c3-8160-80ea71746812","ios":"levelo://app?vid=db5ef7bc-1934-45c3-8160-80ea71746812"},"vehicle_type_id":"4","last_reported":1778946416,"current_range_meters":4400,"station_id":"ce4bhmh2rcd13ifvqgmg","pricing_plan_id":"cebpf4jnsgd1na2vs0mg"},{"bike_id":"1f27b9c7-f593-4ee3-b394-7ce199ed2756","system_id":"levelo_inurba_marseille","lat":43.309018,"lon":5.37188,"is_reserved":false,"is_disabled":false,"rental_uris":{"android":"levelo://app?vid=1f27b9c7-f593-4ee3-b394-7ce199ed2756","ios":"levelo://app?vid=1f27b9c7-f593-4ee3-b394-7ce199ed2756"},"vehicle_type_id":"4","last_reported":1778946416,"current_range_meters":4400,"station_id":"","pricing_plan_id":"cebpf4jnsgd1na2vs0mg"},{"bike_id":"c522deca-789e-49b3-982f-1f0402a24572","system_id":"levelo_inurba_marseille","lat":43.24679,"lon":5.38896,"is_reserved":false,"is_disabled":false,"rental_uris":{"android":"levelo://app?vid=c522deca-789e-49b3-982f-1f0402a24572","ios":"levelo://app?vid=c522deca-789e-49b3-982f-1f0402a24572"},"vehicle_type_id":"4","last_reported":1778946416,"current_range_meters":4400,"station_id":"ce4bhg12rcd13ifvqf60","pricing_plan_id":"cebpf4jnsgd1na2vs0mg"},{"bike_id":"6bf1ca7e-e2c7-490f-9c2e-2a6e18f58f16","system_id":"levelo_inurba_marseille","lat":43.291938,"lon":5.393025,"is_reserved":false,"is_disabled":false,"rental_uris":{"android":"levelo://app?vid=6bf1ca7e-e2c7-490f-9c2e-2a6e18f58f16","ios":"levelo://app?vid=6bf1ca7e-e2c7-490f-9c2e-2a6e18f58f16"},"vehicle_type_id":"4","last_reported":1778946416,"current_range_meters":4400,"station_id":"ce4bh192rcd13ifvqdd0","pricing_plan_id":"cebpf4jnsgd1na2vs0mg"},{"bike_id":"8c733cd4-38d8-430c-a4f8-09f9d0c8021a","system_id":"levelo_inurba_marseille","lat":43.30951,"lon":5.39041,"is_reserved":false,"is_disabled":false,"rental_uris":{"android":"levelo://app?vid=8c733cd4-38d8-430c-a4f8-09f9d0c8021a","ios":"levelo://app?vid=8c733cd4-38d8-430c-a4f8-09f9d0c8021a"},"vehicle_type_id":"4","last_reported":1778946416,"current_range_meters":4400,"station_id":"ce4bgup2rcd13ifvqco0","pricing_plan_id":"cebpf4jnsgd1na2vs0mg"},{"bike_id":"6d51096d-7b19-4989-9a1c-881e8e82696b","system_id":"levelo_inurba_marseille","lat":43.27922,"lon":5.39594,"is_reserved":false,"is_disabled":false,"rental_uris":{"android":"levelo://app?vid=6d51096d-7b19-4989-9a1c-881e8e82696b","ios":"levelo://app?vid=6d51096d-7b19-4989-9a1c-881e8e82696b"},"vehicle_type_id":"4","last_reported":1778946416,"current_range_meters":4400,"station_id":"ce4bhf92rcd13ifvqf40","pricing_plan_id":"cebpf4jnsgd1na2vs0mg"},{"bike_id":"361f5bb7-6494-4f23-8dfd-77127fa151d3","system_id":"levelo_inurba_marseille","lat":43.34138,"lon":5.40901,"is_reserved":false,"is_disabled":false,"rental_uris":{"android":"levelo://app?vid=361f5bb7-6494-4f23-8dfd-77127fa151d3","ios":"levelo://app?vid=361f5bb7-6494-4f23-8dfd-77127fa151d3"},"vehicle_type_id":"4","last_reported":1778946416,"current_range_meters":4400,"station_id":"ce4bhqh2rcd13ifvqhlg","pricing_plan_id":"cebpf4jnsgd1na2vs0mg"},{"bike_id":"fc3434ec-3f12-4fe2-a883-c7406c4652f9","system_id":"levelo_inurba_marseille","lat":43.29475,"lon":5.43314,"is_reserved":false,"is_disabled":false,"rental_uris":{"android":"levelo://app?vid=fc3434ec-3f12-4fe2-a883-c7406c4652f9","ios":"levelo://app?vid=fc3434ec-3f12-4fe2-a883-c7406c4652f9"},"vehicle_type_id":"4","last_reported":1778946416,"current_range_meters":4800,"station_id":"st_d3j5ugp08ojc73fj9d10","pricing_plan_id":"cebpf4jnsgd1na2vs0mg"},{"bike_id":"310313f9-4c8b-458d-834b-81e71f22dc3f","system_id":"levelo_inurba_marseille","lat":43.2792,"lon":5.39597,"is_reserved":false,"is_disabled":true,"rental_uris":{"android":"levelo://app?vid=310313f9-4c8b-458d-834b-81e71f22dc3f","ios":"levelo://app?vid=310313f9-4c8b-458d-834b-81e71f22dc3f"},"vehicle_type_id":"4","last_reported":1778946416,"current_range_meters":4800,"station_id":"ce4bhf92rcd13ifvqf40","pricing_plan_id":"cebpf4jnsgd1na2vs0mg"},{"bike_id":"3921e1fb-abbc-4fdb-b1d3-15ab637716f6","system_id":"levelo_inurba_marseille","lat":43.21188,"lon":5.35073,"is_reserved":false,"is_disabled":false,"rental_uris":{"android":"levelo://app?vid=3921e1fb-abbc-4fdb-b1d3-15ab637716f6","ios":"levelo://app?vid=3921e1fb-abbc-4fdb-b1d3-15ab637716f6"},"vehicle_type_id":"4","last_reported":1778946416,"current_range_meters":4800,"station_id":"st_cvj6sg6p6f1abm77japg","pricing_plan_id":"cebpf4jnsgd1na2vs0mg"},{"bike_id":"ff5af636-5e8f-4fe0-a7d9-70a25d86e069","system_id":"levelo_inurba_marseille","lat":43.21186,"lon":5.35079,"is_reserved":false,"is_disabled":false,"rental_uris":{"android":"levelo://app?vid=ff5af636-5e8f-4fe0-a7d9-70a25d86e069","ios":"levelo://app?vid=ff5af636-5e8f-4fe0-a7d9-70a25d86e069"},"vehicle_type_id":"4","last_reported":1778946416,"current_range_meters":4800,"station_id":"st_cvj6sg6p6f1abm77japg","pricing_plan_id":"cebpf4jnsgd1na2vs0mg"},{"bike_id":"322fa7a8-f3d8-454e-bbfd-e83d4472e96a","system_id":"levelo_inurba_marseille","lat":43.29529,"lon":5.37505,"is_reserved":false,"is_disabled":false,"rental_uris":{"android":"levelo://app?vid=322fa7a8-f3d8-454e-bbfd-e83d4472e96a","ios":"levelo://app?vid=322fa7a8-f3d8-454e-bbfd-e83d4472e96a"},"vehicle_type_id":"4","last_reported":1778946416,"current_range_meters":4800,"station_id":"ce4bgkp2rcd13ifvqbmg","pricing_plan_id":"cebpf4jnsgd1na2vs0mg"},{"bike_id":"e127bfc9-8fd1-48db-84a2-56d3e9e2e824","system_id":"levelo_inurba_marseille","lat":43.28922,"lon":5.38415,"is_reserved":false,"is_disabled":false,"rental_uris":{"android":"levelo://app?vid=e127bfc9-8fd1-48db-84a2-56d3e9e2e824","ios":"levelo://app?vid=e127bfc9-8fd1-48db-84a2-56d3e9e2e824"},"vehicle_type_id":"4","last_reported":1778946416,"current_range_meters":4800,"station_id":"ce4bh612rcd13ifvqe6g","pricing_plan_id":"cebpf4jnsgd1na2vs0mg"},{"bike_id":"b99255d8-2cb4-4c40-80a8-f34ddf79c7aa","system_id":"levelo_inurba_marseille","lat":43.33532,"lon":5.37448,"is_reserved":false,"is_disabled":false,"rental_uris":{"android":"levelo://app?vid=b99255d8-2cb4-4c40-80a8-f34ddf79c7aa","ios":"levelo://app?vid=b99255d8-2cb4-4c40-80a8-f34ddf79c7aa"},"vehicle_type_id":"4","last_reported":1778946416,"current_range_meters":4800,"station_id":"st_d46tts09ee8s73dlu43g","pricing_plan_id":"cebpf4jnsgd1na2vs0mg"},{"bike_id":"4aef379c-f03f-41d4-af63-289a4e88a631","system_id":"levelo_inurba_marseille","lat":43.297849,"lon":5.393489,"is_reserved":false,"is_disabled":false,"rental_uris":{"android":"levelo://app?vid=4aef379c-f03f-41d4-af63-289a4e88a631","ios":"levelo://app?vid=4aef379c-f03f-41d4-af63-289a4e88a631"},"vehicle_type_id":"4","last_reported":1778946416,"current_range_meters":4800,"station_id":"chh1huq6cuj3fo74tm60","pricing_plan_id":"cebpf4jnsgd1na2vs0mg"},{"bike_id":"59dc179a-f593-455e-b9b4-7f65f7660186","system_id":"levelo_inurba_marseille","lat":43.3249,"lon":5.38295,"is_reserved":false,"is_disabled":false,"rental_uris":{"android":"levelo://app?vid=59dc179a-f593-455e-b9b4-7f65f7660186","ios":"levelo://app?vid=59dc179a-f593-455e-b9b4-7f65f7660186"},"vehicle_type_id":"4","last_reported":1778946416,"current_range_meters":4800,"station_id":"st_d4asgbiv49dc73anf9m0","pricing_plan_id":"cebpf4jnsgd1na2vs0mg"},{"bike_id":"e0c3c5b0-58dc-43d4-8171-3d9b78133fe2","system_id":"levelo_inurba_marseille","lat":43.31917,"lon":5.36798,"is_reserved":false,"is_disabled":false,"rental_uris":{"android":"levelo://app?vid=e0c3c5b0-58dc-43d4-8171-3d9b78133fe2","ios":"levelo://app?vid=e0c3c5b0-58dc-43d4-8171-3d9b78133fe2"},"vehicle_type_id":"4","last_reported":1778946416,"current_range_meters":4800,"station_id":"st_d6o2h0d0559c73evc1b0","pricing_plan_id":"cebpf4jnsgd1na2vs0mg"},{"bike_id":"f44e1e35-93ab-48d3-a892-5530dae404d2","system_id":"levelo_inurba_marseille","lat":43.29225,"lon":5.36061,"is_reserved":false,"is_disabled":false,"rental_uris":{"android":"levelo://app?vid=f44e1e35-93ab-48d3-a892-5530dae404d2","ios":"levelo://app?vid=f44e1e35-93ab-48d3-a892-5530dae404d2"},"vehicle_type_id":"4","last_reported":1778946416,"current_range_meters":4800,"station_id":"ce4bhbh2rcd13ifvqeqg","pricing_plan_id":"cebpf4jnsgd1na2vs0mg"},{"bike_id":"3a4de0a9-e88c-4f9a-975f-c09457ee4b26","system_id":"levelo_inurba_marseille","lat":43.30213,"lon":5.4006,"is_reserved":false,"is_disabled":false,"rental_uris":{"android":"levelo://app?vid=3a4de0a9-e88c-4f9a-975f-c09457ee4b26","ios":"levelo://app?vid=3a4de0a9-e88c-4f9a-975f-c09457ee4b26"},"vehicle_type_id":"4","last_reported":1778946416,"current_range_meters":5600,"station_id":"ce4bgvh2rcd13ifvqcs0","pricing_plan_id":"cebpf4jnsgd1na2vs0mg"},{"bike_id":"da25d015-d7dd-4fbf-997f-9acf97aa246b","system_id":"levelo_inurba_marseille","lat":43.28619,"lon":5.35108,"is_reserved":false,"is_disabled":false,"rental_uris":{"android":"levelo://app?vid=da25d015-d7dd-4fbf-997f-9acf97aa246b","ios":"levelo://app?vid=da25d015-d7dd-4fbf-997f-9acf97aa246b"},"vehicle_type_id":"4","last_reported":1778946416,"current_range_meters":5600,"station_id":"ce4bhch2rcd13ifvqeug","pricing_plan_id":"cebpf4jnsgd1na2vs0mg"},{"bike_id":"fe51d235-289e-443a-8eab-faa4747a6bf1","system_id":"levelo_inurba_marseille","lat":43.27555,"lon":5.38441,"is_reserved":false,"is_disabled":false,"rental_uris":{"android":"levelo://app?vid=fe51d235-289e-443a-8eab-faa4747a6bf1","ios":"levelo://app?vid=fe51d235-289e-443a-8eab-faa4747a6bf1"},"vehicle_type_id":"4","last_reported":1778946416,"current_range_meters":5600,"station_id":"ce4bhh92rcd13ifvqfi0","pricing_plan_id":"cebpf4jnsgd1na2vs0mg"},{"bike_id":"cdb9871a-e01f-4e73-b2a2-8e2a287c8553","system_id":"levelo_inurba_marseille","lat":43.29789,"lon":5.38096,"is_reserved":false,"is_disabled":false,"rental_uris":{"android":"levelo://app?vid=cdb9871a-e01f-4e73-b2a2-8e2a287c8553","ios":"levelo://app?vid=cdb9871a-e01f-4e73-b2a2-8e2a287c8553"},"vehicle_type_id":"4","last_reported":1778946416,"current_range_meters":5600,"station_id":"ce4bgip2rcd13ifvqbb0","pricing_plan_id":"cebpf4jnsgd1na2vs0mg"},{"bike_id":"e392aef1-97de-41ae-9a65-dcdd4b5ac338","system_id":"levelo_inurba_marseille","lat":43.23151,"lon":5.43701,"is_reserved":false,"is_disabled":false,"rental_uris":{"android":"levelo://app?vid=e392aef1-97de-41ae-9a65-dcdd4b5ac338","ios":"levelo://app?vid=e392aef1-97de-41ae-9a65-dcdd4b5ac338"},"vehicle_type_id":"4","last_reported":1778946416,"current_range_meters":5600,"station_id":"ce4bhmp2rcd13ifvqgog","pricing_plan_id":"cebpf4jnsgd1na2vs0mg"},{"bike_id":"1466b7ae-2359-4d90-ab96-165b69381d7c","system_id":"levelo_inurba_marseille","lat":43.31261,"lon":5.36805,"is_reserved":false,"is_disabled":false,"rental_uris":{"android":"levelo://app?vid=1466b7ae-2359-4d90-ab96-165b69381d7c","ios":"levelo://app?vid=1466b7ae-2359-4d90-ab96-165b69381d7c"},"vehicle_type_id":"4","last_reported":1778946416,"current_range_meters":5600,"station_id":"ce4bgl92rcd13ifvqbq0","pricing_plan_id":"cebpf4jnsgd1na2vs0mg"},{"bike_id":"bbda4a54-3534-418c-8c7b-e3eafead3e4e","system_id":"levelo_inurba_marseille","lat":43.29088,"lon":5.38136,"is_reserved":false,"is_disabled":false,"rental_uris":{"android":"levelo://app?vid=bbda4a54-3534-418c-8c7b-e3eafead3e4e","ios":"levelo://app?vid=bbda4a54-3534-418c-8c7b-e3eafead3e4e"},"vehicle_type_id":"4","last_reported":1778946416,"current_range_meters":5600,"station_id":"ce4bh512rcd13ifvqe2g","pricing_plan_id":"cebpf4jnsgd1na2vs0mg"},{"bike_id":"a925d029-af9d-439e-b7ff-1c5bb1c3c5db","system_id":"levelo_inurba_marseille","lat":43.26499,"lon":5.3953,"is_reserved":false,"is_disabled":false,"rental_uris":{"android":"levelo://app?vid=a925d029-af9d-439e-b7ff-1c5bb1c3c5db","ios":"levelo://app?vid=a925d029-af9d-439e-b7ff-1c5bb1c3c5db"},"vehicle_type_id":"4","last_reported":1778946416,"current_range_meters":5600,"station_id":"ce4bhi12rcd13ifvqfq0","pricing_plan_id":"cebpf4jnsgd1na2vs0mg"},{"bike_id":"b8879021-9797-4632-bd25-2851e4e4c98e","system_id":"levelo_inurba_marseille","lat":43.29622,"lon":5.37704,"is_reserved":false,"is_disabled":false,"rental_uris":{"android":"levelo://app?vid=b8879021-9797-4632-bd25-2851e4e4c98e","ios":"levelo://app?vid=b8879021-9797-4632-bd25-2851e4e4c98e"},"vehicle_type_id":"4","last_reported":1778946416,"current_range_meters":5600,"station_id":"ce4bgi92rcd13ifvqb90","pricing_plan_id":"cebpf4jnsgd1na2vs0mg"},{"bike_id":"1c155cb8-50aa-4ad8-95d4-a32cca5f7a07","system_id":"levelo_inurba_marseille","lat":43.24461,"lon":5.42526,"is_reserved":false,"is_disabled":false,"rental_uris":{"android":"levelo://app?vid=1c155cb8-50aa-4ad8-95d4-a32cca5f7a07","ios":"levelo://app?vid=1c155cb8-50aa-4ad8-95d4-a32cca5f7a07"},"vehicle_type_id":"4","last_reported":1778946416,"current_range_meters":5600,"station_id":"st_d4a3vfp97mjs738cd8kg","pricing_plan_id":"cebpf4jnsgd1na2vs0mg"},{"bike_id":"090b20ed-af40-4447-ba16-397dc29f44ff","system_id":"levelo_inurba_marseille","lat":43.304344,"lon":5.388886,"is_reserved":false,"is_disabled":false,"rental_uris":{"android":"levelo://app?vid=090b20ed-af40-4447-ba16-397dc29f44ff","ios":"levelo://app?vid=090b20ed-af40-4447-ba16-397dc29f44ff"},"vehicle_type_id":"4","last_reported":1778946416,"current_range_meters":5600,"station_id":"ce4bgk12rcd13ifvqbi0","pricing_plan_id":"cebpf4jnsgd1na2vs0mg"},{"bike_id":"bc1ceef2-7ab6-4b29-97cf-e699caf1898f","system_id":"levelo_inurba_marseille","lat":43.24637,"lon":5.38867,"is_reserved":false,"is_disabled":false,"rental_uris":{"android":"levelo://app?vid=bc1ceef2-7ab6-4b29-97cf-e699caf1898f","ios":"levelo://app?vid=bc1ceef2-7ab6-4b29-97cf-e699caf1898f"},"vehicle_type_id":"4","last_reported":1778946416,"current_range_meters":5600,"station_id":"ce4bhg12rcd13ifvqf60","pricing_plan_id":"cebpf4jnsgd1na2vs0mg"},{"bike_id":"f04f8200-87aa-4dec-9536-296457ce70b8","system_id":"levelo_inurba_marseille","lat":43.29778,"lon":5.38102,"is_reserved":false,"is_disabled":false,"rental_uris":{"android":"levelo://app?vid=f04f8200-87aa-4dec-9536-296457ce70b8","ios":"levelo://app?vid=f04f8200-87aa-4dec-9536-296457ce70b8"},"vehicle_type_id":"4","last_reported":1778946416,"current_range_meters":5600,"station_id":"ce4bgip2rcd13ifvqbb0","pricing_plan_id":"cebpf4jnsgd1na2vs0mg"},{"bike_id":"b279d425-b605-4dce-aa38-d74dc6161e68","system_id":"levelo_inurba_marseille","lat":43.22555,"lon":5.41622,"is_reserved":false,"is_disabled":false,"rental_uris":{"android":"levelo://app?vid=b279d425-b605-4dce-aa38-d74dc6161e68","ios":"levelo://app?vid=b279d425-b605-4dce-aa38-d74dc6161e68"},"vehicle_type_id":"4","last_reported":1778946416,"current_range_meters":5600,"station_id":"st_d2o4gvlbi1j2169b742g","pricing_plan_id":"cebpf4jnsgd1na2vs0mg"},{"bike_id":"d9140709-4601-47f0-bf89-6412b8b813c9","system_id":"levelo_inurba_marseille","lat":43.2928,"lon":5.36843,"is_reserved":false,"is_disabled":false,"rental_uris":{"android":"levelo://app?vid=d9140709-4601-47f0-bf89-6412b8b813c9","ios":"levelo://app?vid=d9140709-4601-47f0-bf89-6412b8b813c9"},"vehicle_type_id":"4","last_reported":1778946416,"current_range_meters":6000,"station_id":"ce4bhbp2rcd13ifvqesg","pricing_plan_id":"cebpf4jnsgd1na2vs0mg"},{"bike_id":"c0afe38e-1b1f-4737-9474-5d6681e1c046","system_id":"levelo_inurba_marseille","lat":43.29914,"lon":5.42104,"is_reserved":false,"is_disabled":false,"rental_uris":{"android":"levelo://app?vid=c0afe38e-1b1f-4737-9474-5d6681e1c046","ios":"levelo://app?vid=c0afe38e-1b1f-4737-9474-5d6681e1c046"},"vehicle_type_id":"4","last_reported":1778946416,"current_range_meters":6000,"station_id":"st_d6tc004otcvc738tfe70","pricing_plan_id":"cebpf4jnsgd1na2vs0mg"},{"bike_id":"2c4e2c80-7a7f-49e7-8a11-230c3e37ee87","system_id":"levelo_inurba_marseille","lat":43.22558,"lon":5.41639,"is_reserved":false,"is_disabled":false,"rental_uris":{"android":"levelo://app?vid=2c4e2c80-7a7f-49e7-8a11-230c3e37ee87","ios":"levelo://app?vid=2c4e2c80-7a7f-49e7-8a11-230c3e37ee87"},"vehicle_type_id":"4","last_reported":1778946416,"current_range_meters":6000,"station_id":"st_d2o4gvlbi1j2169b742g","pricing_plan_id":"cebpf4jnsgd1na2vs0mg"},{"bike_id":"a56a8a0c-3ab9-465a-bdae-f5897ec1f98a","system_id":"levelo_inurba_marseille","lat":43.24153,"lon":5.364,"is_reserved":false,"is_disabled":false,"rental_uris":{"android":"levelo://app?vid=a56a8a0c-3ab9-465a-bdae-f5897ec1f98a","ios":"levelo://app?vid=a56a8a0c-3ab9-465a-bdae-f5897ec1f98a"},"vehicle_type_id":"4","last_reported":1778946416,"current_range_meters":6000,"station_id":"cpo36qri1sfpv3e86is0","pricing_plan_id":"cebpf4jnsgd1na2vs0mg"},{"bike_id":"c9886ab2-93c4-42fd-901d-a974f2b79eee","system_id":"levelo_inurba_marseille","lat":43.30535,"lon":5.36502,"is_reserved":false,"is_disabled":false,"rental_uris":{"android":"levelo://app?vid=c9886ab2-93c4-42fd-901d-a974f2b79eee","ios":"levelo://app?vid=c9886ab2-93c4-42fd-901d-a974f2b79eee"},"vehicle_type_id":"4","last_reported":1778946416,"current_range_meters":6000,"station_id":"","pricing_plan_id":"cebpf4jnsgd1na2vs0mg"},{"bike_id":"1f2ef142-0059-4ee6-9c3b-bbdf112f236b","system_id":"levelo_inurba_marseille","lat":43.30534,"lon":5.36701,"is_reserved":false,"is_disabled":false,"rental_uris":{"android":"levelo://app?vid=1f2ef142-0059-4ee6-9c3b-bbdf112f236b","ios":"levelo://app?vid=1f2ef142-0059-4ee6-9c3b-bbdf112f236b"},"vehicle_type_id":"4","last_reported":1778946416,"current_range_meters":6000,"station_id":"ce4bgrp2rcd13ifvqc9g","pricing_plan_id":"cebpf4jnsgd1na2vs0mg"},{"bike_id":"c10f048f-9ab0-4d1f-8ab4-9e592acd836a","system_id":"levelo_inurba_marseille","lat":43.282646,"lon":5.350663,"is_reserved":false,"is_disabled":false,"rental_uris":{"android":"levelo://app?vid=c10f048f-9ab0-4d1f-8ab4-9e592acd836a","ios":"levelo://app?vid=c10f048f-9ab0-4d1f-8ab4-9e592acd836a"},"vehicle_type_id":"4","last_reported":1778946416,"current_range_meters":6000,"station_id":"","pricing_plan_id":"cebpf4jnsgd1na2vs0mg"},{"bike_id":"6ed28fa0-f20b-450d-a789-f0b565e64f1b","system_id":"levelo_inurba_marseille","lat":43.29857,"lon":5.3827,"is_reserved":false,"is_disabled":false,"rental_uris":{"android":"levelo://app?vid=6ed28fa0-f20b-450d-a789-f0b565e64f1b","ios":"levelo://app?vid=6ed28fa0-f20b-450d-a789-f0b565e64f1b"},"vehicle_type_id":"4","last_reported":1778946416,"current_range_meters":6000,"station_id":"","pricing_plan_id":"cebpf4jnsgd1na2vs0mg"},{"bike_id":"0e3d6e71-530b-42ba-b746-b55fa318e7af","system_id":"levelo_inurba_marseille","lat":43.28145,"lon":5.42644,"is_reserved":false,"is_disabled":false,"rental_uris":{"android":"levelo://app?vid=0e3d6e71-530b-42ba-b746-b55fa318e7af","ios":"levelo://app?vid=0e3d6e71-530b-42ba-b746-b55fa318e7af"},"vehicle_type_id":"4","last_reported":1778946416,"current_range_meters":6000,"station_id":"ce4bhnh2rcd13ifvqgug","pricing_plan_id":"cebpf4jnsgd1na2vs0mg"},{"bike_id":"f86dc2eb-d457-4bda-a6d4-90db5dd08208","system_id":"levelo_inurba_marseille","lat":43.230613,"lon":5.354901,"is_reserved":false,"is_disabled":false,"rental_uris":{"android":"levelo://app?vid=f86dc2eb-d457-4bda-a6d4-90db5dd08208","ios":"levelo://app?vid=f86dc2eb-d457-4bda-a6d4-90db5dd08208"},"vehicle_type_id":"4","last_reported":1778946416,"current_range_meters":6000,"station_id":"cpo3342slgdg3j2ifvpg","pricing_plan_id":"cebpf4jnsgd1na2vs0mg"},{"bike_id":"56dce003-e8da-49ae-8de4-ef52c78c75b8","system_id":"levelo_inurba_marseille","lat":43.31371,"lon":5.38437,"is_reserved":false,"is_disabled":false,"rental_uris":{"android":"levelo://app?vid=56dce003-e8da-49ae-8de4-ef52c78c75b8","ios":"levelo://app?vid=56dce003-e8da-49ae-8de4-ef52c78c75b8"},"vehicle_type_id":"4","last_reported":1778946416,"current_range_meters":6000,"station_id":"ce4bgt92rcd13ifvqcf0","pricing_plan_id":"cebpf4jnsgd1na2vs0mg"},{"bike_id":"34f79841-2463-4440-8c28-cca7c0d08aad","system_id":"levelo_inurba_marseille","lat":43.28357,"lon":5.38622,"is_reserved":false,"is_disabled":false,"rental_uris":{"android":"levelo://app?vid=34f79841-2463-4440-8c28-cca7c0d08aad","ios":"levelo://app?vid=34f79841-2463-4440-8c28-cca7c0d08aad"},"vehicle_type_id":"4","last_reported":1778946416,"current_range_meters":6000,"station_id":"ce4bh492rcd13ifvqdvg","pricing_plan_id":"cebpf4jnsgd1na2vs0mg"},{"bike_id":"de6463f4-7a99-4c18-b828-15f4edc375d7","system_id":"levelo_inurba_marseille","lat":43.30431,"lon":5.38882,"is_reserved":false,"is_disabled":false,"rental_uris":{"android":"levelo://app?vid=de6463f4-7a99-4c18-b828-15f4edc375d7","ios":"levelo://app?vid=de6463f4-7a99-4c18-b828-15f4edc375d7"},"vehicle_type_id":"4","last_reported":1778946416,"current_range_meters":6000,"station_id":"ce4bgk12rcd13ifvqbi0","pricing_plan_id":"cebpf4jnsgd1na2vs0mg"},{"bike_id":"02e65335-1e4b-4ae9-b0b1-1adf5244071e","system_id":"levelo_inurba_marseille","lat":43.3079,"lon":5.37658,"is_reserved":false,"is_disabled":false,"rental_uris":{"android":"levelo://app?vid=02e65335-1e4b-4ae9-b0b1-1adf5244071e","ios":"levelo://app?vid=02e65335-1e4b-4ae9-b0b1-1adf5244071e"},"vehicle_type_id":"4","last_reported":1778946416,"current_range_meters":6000,"station_id":"ce4bgv92rcd13ifvqcq0","pricing_plan_id":"cebpf4jnsgd1na2vs0mg"},{"bike_id":"2e88d833-d7ee-4b77-96db-bdeb868927a4","system_id":"levelo_inurba_marseille","lat":43.26062,"lon":5.37551,"is_reserved":false,"is_disabled":false,"rental_uris":{"android":"levelo://app?vid=2e88d833-d7ee-4b77-96db-bdeb868927a4","ios":"levelo://app?vid=2e88d833-d7ee-4b77-96db-bdeb868927a4"},"vehicle_type_id":"4","last_reported":1778946416,"current_range_meters":6000,"station_id":"ce4bhgh2rcd13ifvqfa0","pricing_plan_id":"cebpf4jnsgd1na2vs0mg"},{"bike_id":"04ea3f89-d526-46df-8866-3a77acf0c254","system_id":"levelo_inurba_marseille","lat":43.28263,"lon":5.35078,"is_reserved":false,"is_disabled":true,"rental_uris":{"android":"levelo://app?vid=04ea3f89-d526-46df-8866-3a77acf0c254","ios":"levelo://app?vid=04ea3f89-d526-46df-8866-3a77acf0c254"},"vehicle_type_id":"4","last_reported":1778946416,"current_range_meters":6000,"station_id":"ce4bhbp2rcd13ifvqerg","pricing_plan_id":"cebpf4jnsgd1na2vs0mg"},{"bike_id":"381f618b-1154-486d-b846-8d597099ccb8","system_id":"levelo_inurba_marseille","lat":43.23783,"lon":5.41456,"is_reserved":false,"is_disabled":false,"rental_uris":{"android":"levelo://app?vid=381f618b-1154-486d-b846-8d597099ccb8","ios":"levelo://app?vid=381f618b-1154-486d-b846-8d597099ccb8"},"vehicle_type_id":"4","last_reported":1778946416,"current_range_meters":6000,"station_id":"","pricing_plan_id":"cebpf4jnsgd1na2vs0mg"},{"bike_id":"83a65edc-1bd7-4c4b-8067-965edf13b3be","system_id":"levelo_inurba_marseille","lat":43.30451,"lon":5.38871,"is_reserved":false,"is_disabled":false,"rental_uris":{"android":"levelo://app?vid=83a65edc-1bd7-4c4b-8067-965edf13b3be","ios":"levelo://app?vid=83a65edc-1bd7-4c4b-8067-965edf13b3be"},"vehicle_type_id":"4","last_reported":1778946416,"current_range_meters":6400,"station_id":"ce4bgk12rcd13ifvqbi0","pricing_plan_id":"cebpf4jnsgd1na2vs0mg"},{"bike_id":"015aad6e-f7c0-4598-9ad7-38c4d3fee62c","system_id":"levelo_inurba_marseille","lat":43.2861,"lon":5.35099,"is_reserved":false,"is_disabled":false,"rental_uris":{"android":"levelo://app?vid=015aad6e-f7c0-4598-9ad7-38c4d3fee62c","ios":"levelo://app?vid=015aad6e-f7c0-4598-9ad7-38c4d3fee62c"},"vehicle_type_id":"4","last_reported":1778946416,"current_range_meters":6400,"station_id":"ce4bhch2rcd13ifvqeug","pricing_plan_id":"cebpf4jnsgd1na2vs0mg"},{"bike_id":"e191454c-916c-4e6d-bb9a-b71fe6d913bf","system_id":"levelo_inurba_marseille","lat":43.23184,"lon":5.35578,"is_reserved":false,"is_disabled":false,"rental_uris":{"android":"levelo://app?vid=e191454c-916c-4e6d-bb9a-b71fe6d913bf","ios":"levelo://app?vid=e191454c-916c-4e6d-bb9a-b71fe6d913bf"},"vehicle_type_id":"4","last_reported":1778946416,"current_range_meters":6400,"station_id":"ce4bhu92rcd13ifvqi70","pricing_plan_id":"cebpf4jnsgd1na2vs0mg"},{"bike_id":"b307ebcf-a623-4ce8-bd6b-ce1a3ee616ac","system_id":"levelo_inurba_marseille","lat":43.25083,"lon":5.39516,"is_reserved":false,"is_disabled":false,"rental_uris":{"android":"levelo://app?vid=b307ebcf-a623-4ce8-bd6b-ce1a3ee616ac","ios":"levelo://app?vid=b307ebcf-a623-4ce8-bd6b-ce1a3ee616ac"},"vehicle_type_id":"4","last_reported":1778946416,"current_range_meters":6400,"station_id":"ce4bhm12rcd13ifvqgkg","pricing_plan_id":"cebpf4jnsgd1na2vs0mg"},{"bike_id":"9c092b99-289c-4dc6-86e2-e7504c57351f","system_id":"levelo_inurba_marseille","lat":43.21737,"lon":5.34636,"is_reserved":false,"is_disabled":false,"rental_uris":{"android":"levelo://app?vid=9c092b99-289c-4dc6-86e2-e7504c57351f","ios":"levelo://app?vid=9c092b99-289c-4dc6-86e2-e7504c57351f"},"vehicle_type_id":"4","last_reported":1778946416,"current_range_meters":6400,"station_id":"st_cvj6r9ubvosntc0bgbag","pricing_plan_id":"cebpf4jnsgd1na2vs0mg"},{"bike_id":"e36e9ae6-760f-4d6b-b27b-2683e1da6b8e","system_id":"levelo_inurba_marseille","lat":43.31751,"lon":5.39021,"is_reserved":false,"is_disabled":false,"rental_uris":{"android":"levelo://app?vid=e36e9ae6-760f-4d6b-b27b-2683e1da6b8e","ios":"levelo://app?vid=e36e9ae6-760f-4d6b-b27b-2683e1da6b8e"},"vehicle_type_id":"4","last_reported":1778946416,"current_range_meters":6400,"station_id":"ce4bhqp2rcd13ifvqhng","pricing_plan_id":"cebpf4jnsgd1na2vs0mg"},{"bike_id":"dc437964-578c-4f7a-be1e-9a5b7abec9f5","system_id":"levelo_inurba_marseille","lat":43.24518,"lon":5.37573,"is_reserved":false,"is_disabled":false,"rental_uris":{"android":"levelo://app?vid=dc437964-578c-4f7a-be1e-9a5b7abec9f5","ios":"levelo://app?vid=dc437964-578c-4f7a-be1e-9a5b7abec9f5"},"vehicle_type_id":"4","last_reported":1778946416,"current_range_meters":6400,"station_id":"","pricing_plan_id":"cebpf4jnsgd1na2vs0mg"},{"bike_id":"489a1706-c3ea-4b0e-8e98-c2ee70717ba8","system_id":"levelo_inurba_marseille","lat":43.22549,"lon":5.41629,"is_reserved":false,"is_disabled":false,"rental_uris":{"android":"levelo://app?vid=489a1706-c3ea-4b0e-8e98-c2ee70717ba8","ios":"levelo://app?vid=489a1706-c3ea-4b0e-8e98-c2ee70717ba8"},"vehicle_type_id":"4","last_reported":1778946416,"current_range_meters":6400,"station_id":"st_d2o4gvlbi1j2169b742g","pricing_plan_id":"cebpf4jnsgd1na2vs0mg"},{"bike_id":"2644c929-a8fa-4107-b24e-20843ce31493","system_id":"levelo_inurba_marseille","lat":43.29983,"lon":5.38486,"is_reserved":false,"is_disabled":false,"rental_uris":{"android":"levelo://app?vid=2644c929-a8fa-4107-b24e-20843ce31493","ios":"levelo://app?vid=2644c929-a8fa-4107-b24e-20843ce31493"},"vehicle_type_id":"4","last_reported":1778946416,"current_range_meters":6400,"station_id":"ce4bgj92rcd13ifvqbd0","pricing_plan_id":"cebpf4jnsgd1na2vs0mg"},{"bike_id":"255a8db9-6ac5-445d-8da2-584280160595","system_id":"levelo_inurba_marseille","lat":43.29973,"lon":5.36782,"is_reserved":false,"is_disabled":false,"rental_uris":{"android":"levelo://app?vid=255a8db9-6ac5-445d-8da2-584280160595","ios":"levelo://app?vid=255a8db9-6ac5-445d-8da2-584280160595"},"vehicle_type_id":"4","last_reported":1778946416,"current_range_meters":6400,"station_id":"","pricing_plan_id":"cebpf4jnsgd1na2vs0mg"},{"bike_id":"11cfcfb7-7cef-4ca3-94fd-d649299b0219","system_id":"levelo_inurba_marseille","lat":43.31714,"lon":5.42416,"is_reserved":false,"is_disabled":false,"rental_uris":{"android":"levelo://app?vid=11cfcfb7-7cef-4ca3-94fd-d649299b0219","ios":"levelo://app?vid=11cfcfb7-7cef-4ca3-94fd-d649299b0219"},"vehicle_type_id":"4","last_reported":1778946416,"current_range_meters":6400,"station_id":"ce4bhp92rcd13ifvqhbg","pricing_plan_id":"cebpf4jnsgd1na2vs0mg"},{"bike_id":"dbf94776-63a1-426f-85ae-41abd5903310","system_id":"levelo_inurba_marseille","lat":43.30953,"lon":5.37642,"is_reserved":false,"is_disabled":false,"rental_uris":{"android":"levelo://app?vid=dbf94776-63a1-426f-85ae-41abd5903310","ios":"levelo://app?vid=dbf94776-63a1-426f-85ae-41abd5903310"},"vehicle_type_id":"4","last_reported":1778946416,"current_range_meters":6800,"station_id":"","pricing_plan_id":"cebpf4jnsgd1na2vs0mg"},{"bike_id":"74f12a6d-7a94-4ce3-8725-e3fbbe23ae70","system_id":"levelo_inurba_marseille","lat":43.33553,"lon":5.37458,"is_reserved":false,"is_disabled":false,"rental_uris":{"android":"levelo://app?vid=74f12a6d-7a94-4ce3-8725-e3fbbe23ae70","ios":"levelo://app?vid=74f12a6d-7a94-4ce3-8725-e3fbbe23ae70"},"vehicle_type_id":"4","last_reported":1778946416,"current_range_meters":6800,"station_id":"st_d46tts09ee8s73dlu43g","pricing_plan_id":"cebpf4jnsgd1na2vs0mg"},{"bike_id":"9d9da9b1-62c5-4232-8888-7d36c96bb153","system_id":"levelo_inurba_marseille","lat":43.27509,"lon":5.41556,"is_reserved":false,"is_disabled":false,"rental_uris":{"android":"levelo://app?vid=9d9da9b1-62c5-4232-8888-7d36c96bb153","ios":"levelo://app?vid=9d9da9b1-62c5-4232-8888-7d36c96bb153"},"vehicle_type_id":"4","last_reported":1778946416,"current_range_meters":6800,"station_id":"st_d6im8g6chgec73a5pndg","pricing_plan_id":"cebpf4jnsgd1na2vs0mg"},{"bike_id":"9328df09-7c77-4ef9-a326-cd1cda9dd29d","system_id":"levelo_inurba_marseille","lat":43.30816,"lon":5.38518,"is_reserved":false,"is_disabled":false,"rental_uris":{"android":"levelo://app?vid=9328df09-7c77-4ef9-a326-cd1cda9dd29d","ios":"levelo://app?vid=9328df09-7c77-4ef9-a326-cd1cda9dd29d"},"vehicle_type_id":"4","last_reported":1778946416,"current_range_meters":6800,"station_id":"","pricing_plan_id":"cebpf4jnsgd1na2vs0mg"},{"bike_id":"3fc3c44e-8e86-4a32-a94c-dffc19e84835","system_id":"levelo_inurba_marseille","lat":43.3056,"lon":5.36529,"is_reserved":false,"is_disabled":false,"rental_uris":{"android":"levelo://app?vid=3fc3c44e-8e86-4a32-a94c-dffc19e84835","ios":"levelo://app?vid=3fc3c44e-8e86-4a32-a94c-dffc19e84835"},"vehicle_type_id":"4","last_reported":1778946416,"current_range_meters":6800,"station_id":"ce4bgs12rcd13ifvqcag","pricing_plan_id":"cebpf4jnsgd1na2vs0mg"},{"bike_id":"2c41d442-fdf6-469c-86b1-a7c33314878f","system_id":"levelo_inurba_marseille","lat":43.30398,"lon":5.41029,"is_reserved":false,"is_disabled":false,"rental_uris":{"android":"levelo://app?vid=2c41d442-fdf6-469c-86b1-a7c33314878f","ios":"levelo://app?vid=2c41d442-fdf6-469c-86b1-a7c33314878f"},"vehicle_type_id":"4","last_reported":1778946416,"current_range_meters":6800,"station_id":"","pricing_plan_id":"cebpf4jnsgd1na2vs0mg"},{"bike_id":"4d31ed6e-13e0-4959-aa6c-cce6ffc3f7ff","system_id":"levelo_inurba_marseille","lat":43.27512,"lon":5.41586,"is_reserved":false,"is_disabled":false,"rental_uris":{"android":"levelo://app?vid=4d31ed6e-13e0-4959-aa6c-cce6ffc3f7ff","ios":"levelo://app?vid=4d31ed6e-13e0-4959-aa6c-cce6ffc3f7ff"},"vehicle_type_id":"4","last_reported":1778946416,"current_range_meters":6800,"station_id":"st_d6im8g6chgec73a5pndg","pricing_plan_id":"cebpf4jnsgd1na2vs0mg"},{"bike_id":"b9fc383d-7675-4ac1-96a8-b14863e064c9","system_id":"levelo_inurba_marseille","lat":43.31302,"lon":5.37299,"is_reserved":false,"is_disabled":false,"rental_uris":{"android":"levelo://app?vid=b9fc383d-7675-4ac1-96a8-b14863e064c9","ios":"levelo://app?vid=b9fc383d-7675-4ac1-96a8-b14863e064c9"},"vehicle_type_id":"4","last_reported":1778946416,"current_range_meters":6800,"station_id":"","pricing_plan_id":"cebpf4jnsgd1na2vs0mg"},{"bike_id":"245e41c5-30dc-49b5-aae3-b19af956e323","system_id":"levelo_inurba_marseille","lat":43.29225,"lon":5.36067,"is_reserved":false,"is_disabled":false,"rental_uris":{"android":"levelo://app?vid=245e41c5-30dc-49b5-aae3-b19af956e323","ios":"levelo://app?vid=245e41c5-30dc-49b5-aae3-b19af956e323"},"vehicle_type_id":"4","last_reported":1778946416,"current_range_meters":6800,"station_id":"ce4bhbh2rcd13ifvqeqg","pricing_plan_id":"cebpf4jnsgd1na2vs0mg"},{"bike_id":"b8d7effd-1f65-46b7-b1aa-0db44d9a195b","system_id":"levelo_inurba_marseille","lat":43.33052,"lon":5.39036,"is_reserved":false,"is_disabled":false,"rental_uris":{"android":"levelo://app?vid=b8d7effd-1f65-46b7-b1aa-0db44d9a195b","ios":"levelo://app?vid=b8d7effd-1f65-46b7-b1aa-0db44d9a195b"},"vehicle_type_id":"4","last_reported":1778946416,"current_range_meters":6800,"station_id":"ce4bhr92rcd13ifvqhrg","pricing_plan_id":"cebpf4jnsgd1na2vs0mg"},{"bike_id":"0022cc11-204a-471f-b2e0-02745382aced","system_id":"levelo_inurba_marseille","lat":43.28618,"lon":5.37052,"is_reserved":false,"is_disabled":false,"rental_uris":{"android":"levelo://app?vid=0022cc11-204a-471f-b2e0-02745382aced","ios":"levelo://app?vid=0022cc11-204a-471f-b2e0-02745382aced"},"vehicle_type_id":"4","last_reported":1778946416,"current_range_meters":6800,"station_id":"ce4bht12rcd13ifvqi60","pricing_plan_id":"cebpf4jnsgd1na2vs0mg"},{"bike_id":"dca08c5c-65aa-4be5-b882-b94870c8a90e","system_id":"levelo_inurba_marseille","lat":43.30416,"lon":5.41266,"is_reserved":false,"is_disabled":true,"rental_uris":{"android":"levelo://app?vid=dca08c5c-65aa-4be5-b882-b94870c8a90e","ios":"levelo://app?vid=dca08c5c-65aa-4be5-b882-b94870c8a90e"},"vehicle_type_id":"4","last_reported":1778946416,"current_range_meters":6800,"station_id":"ce4bhop2rcd13ifvqh8g","pricing_plan_id":"cebpf4jnsgd1na2vs0mg"},{"bike_id":"e3731a1c-7390-4a6e-b1bd-d37a705f0a37","system_id":"levelo_inurba_marseille","lat":43.25085,"lon":5.39525,"is_reserved":false,"is_disabled":false,"rental_uris":{"android":"levelo://app?vid=e3731a1c-7390-4a6e-b1bd-d37a705f0a37","ios":"levelo://app?vid=e3731a1c-7390-4a6e-b1bd-d37a705f0a37"},"vehicle_type_id":"4","last_reported":1778946416,"current_range_meters":6800,"station_id":"ce4bhm12rcd13ifvqgkg","pricing_plan_id":"cebpf4jnsgd1na2vs0mg"},{"bike_id":"810ef53a-5aff-49f3-99db-34213da1b1cf","system_id":"levelo_inurba_marseille","lat":43.287,"lon":5.46675,"is_reserved":false,"is_disabled":false,"rental_uris":{"android":"levelo://app?vid=810ef53a-5aff-49f3-99db-34213da1b1cf","ios":"levelo://app?vid=810ef53a-5aff-49f3-99db-34213da1b1cf"},"vehicle_type_id":"4","last_reported":1778946416,"current_range_meters":6800,"station_id":"st_d6tc3vkotcvc738tfjhg","pricing_plan_id":"cebpf4jnsgd1na2vs0mg"},{"bike_id":"a4226b5f-0a1b-453a-b282-d93d3dcb3390","system_id":"levelo_inurba_marseille","lat":43.262282,"lon":5.404401,"is_reserved":false,"is_disabled":false,"rental_uris":{"android":"levelo://app?vid=a4226b5f-0a1b-453a-b282-d93d3dcb3390","ios":"levelo://app?vid=a4226b5f-0a1b-453a-b282-d93d3dcb3390"},"vehicle_type_id":"4","last_reported":1778946416,"current_range_meters":6800,"station_id":"ce4bhmh2rcd13ifvqgmg","pricing_plan_id":"cebpf4jnsgd1na2vs0mg"},{"bike_id":"5b61ad3d-c4b3-4bf0-9170-da55ed29dbbb","system_id":"levelo_inurba_marseille","lat":43.30754,"lon":5.39329,"is_reserved":false,"is_disabled":false,"rental_uris":{"android":"levelo://app?vid=5b61ad3d-c4b3-4bf0-9170-da55ed29dbbb","ios":"levelo://app?vid=5b61ad3d-c4b3-4bf0-9170-da55ed29dbbb"},"vehicle_type_id":"4","last_reported":1778946416,"current_range_meters":6800,"station_id":"","pricing_plan_id":"cebpf4jnsgd1na2vs0mg"},{"bike_id":"b645593d-f67c-4f1b-b9f9-f8e1b08f24ee","system_id":"levelo_inurba_marseille","lat":43.25088,"lon":5.41364,"is_reserved":false,"is_disabled":false,"rental_uris":{"android":"levelo://app?vid=b645593d-f67c-4f1b-b9f9-f8e1b08f24ee","ios":"levelo://app?vid=b645593d-f67c-4f1b-b9f9-f8e1b08f24ee"},"vehicle_type_id":"4","last_reported":1778946416,"current_range_meters":6800,"station_id":"","pricing_plan_id":"cebpf4jnsgd1na2vs0mg"},{"bike_id":"1c8a95a5-48d5-419d-9933-b584e3736991","system_id":"levelo_inurba_marseille","lat":43.28356,"lon":5.38118,"is_reserved":false,"is_disabled":false,"rental_uris":{"android":"levelo://app?vid=1c8a95a5-48d5-419d-9933-b584e3736991","ios":"levelo://app?vid=1c8a95a5-48d5-419d-9933-b584e3736991"},"vehicle_type_id":"4","last_reported":1778946416,"current_range_meters":6800,"station_id":"ce4bh412rcd13ifvqdr0","pricing_plan_id":"cebpf4jnsgd1na2vs0mg"},{"bike_id":"275452fa-49c7-4ee3-b3e6-44621052e7fd","system_id":"levelo_inurba_marseille","lat":43.28412,"lon":5.34986,"is_reserved":false,"is_disabled":false,"rental_uris":{"android":"levelo://app?vid=275452fa-49c7-4ee3-b3e6-44621052e7fd","ios":"levelo://app?vid=275452fa-49c7-4ee3-b3e6-44621052e7fd"},"vehicle_type_id":"4","last_reported":1778946416,"current_range_meters":6800,"station_id":"ce4bhbh2rcd13ifvqepg","pricing_plan_id":"cebpf4jnsgd1na2vs0mg"},{"bike_id":"cc1a87c4-261c-4b50-bc36-6e46f71a1e83","system_id":"levelo_inurba_marseille","lat":43.32362,"lon":5.38885,"is_reserved":false,"is_disabled":false,"rental_uris":{"android":"levelo://app?vid=cc1a87c4-261c-4b50-bc36-6e46f71a1e83","ios":"levelo://app?vid=cc1a87c4-261c-4b50-bc36-6e46f71a1e83"},"vehicle_type_id":"4","last_reported":1778946416,"current_range_meters":6800,"station_id":"ce4bhqp2rcd13ifvqhog","pricing_plan_id":"cebpf4jnsgd1na2vs0mg"},{"bike_id":"4ec959dd-1de1-448f-b442-aa2685dcb0b4","system_id":"levelo_inurba_marseille","lat":43.31172,"lon":5.36955,"is_reserved":false,"is_disabled":false,"rental_uris":{"android":"levelo://app?vid=4ec959dd-1de1-448f-b442-aa2685dcb0b4","ios":"levelo://app?vid=4ec959dd-1de1-448f-b442-aa2685dcb0b4"},"vehicle_type_id":"4","last_reported":1778946416,"current_range_meters":6800,"station_id":"ce4bgl92rcd13ifvqbq0","pricing_plan_id":"cebpf4jnsgd1na2vs0mg"},{"bike_id":"6eb70678-e4de-48b2-9bcf-c2743dfd747c","system_id":"levelo_inurba_marseille","lat":43.23147,"lon":5.43719,"is_reserved":false,"is_disabled":false,"rental_uris":{"android":"levelo://app?vid=6eb70678-e4de-48b2-9bcf-c2743dfd747c","ios":"levelo://app?vid=6eb70678-e4de-48b2-9bcf-c2743dfd747c"},"vehicle_type_id":"4","last_reported":1778946416,"current_range_meters":6800,"station_id":"ce4bhmp2rcd13ifvqgog","pricing_plan_id":"cebpf4jnsgd1na2vs0mg"},{"bike_id":"36341c1f-74e9-49c5-9176-f3e724ab8daa","system_id":"levelo_inurba_marseille","lat":43.28611,"lon":5.37064,"is_reserved":false,"is_disabled":false,"rental_uris":{"android":"levelo://app?vid=36341c1f-74e9-49c5-9176-f3e724ab8daa","ios":"levelo://app?vid=36341c1f-74e9-49c5-9176-f3e724ab8daa"},"vehicle_type_id":"4","last_reported":1778946416,"current_range_meters":6800,"station_id":"ce4bht12rcd13ifvqi60","pricing_plan_id":"cebpf4jnsgd1na2vs0mg"},{"bike_id":"91a8ec84-e9eb-4b48-9655-fba09b59f506","system_id":"levelo_inurba_marseille","lat":43.289336,"lon":5.366424,"is_reserved":false,"is_disabled":false,"rental_uris":{"android":"levelo://app?vid=91a8ec84-e9eb-4b48-9655-fba09b59f506","ios":"levelo://app?vid=91a8ec84-e9eb-4b48-9655-fba09b59f506"},"vehicle_type_id":"4","last_reported":1778946416,"current_range_meters":6800,"station_id":"ce4bhap2rcd13ifvqek0","pricing_plan_id":"cebpf4jnsgd1na2vs0mg"},{"bike_id":"303e3aaa-fb6e-49a8-a660-12bbb612d49d","system_id":"levelo_inurba_marseille","lat":43.2465,"lon":5.3889,"is_reserved":false,"is_disabled":false,"rental_uris":{"android":"levelo://app?vid=303e3aaa-fb6e-49a8-a660-12bbb612d49d","ios":"levelo://app?vid=303e3aaa-fb6e-49a8-a660-12bbb612d49d"},"vehicle_type_id":"4","last_reported":1778946416,"current_range_meters":6800,"station_id":"ce4bhg12rcd13ifvqf60","pricing_plan_id":"cebpf4jnsgd1na2vs0mg"},{"bike_id":"57ed3149-16c0-4e24-87cf-161d5b20f233","system_id":"levelo_inurba_marseille","lat":43.29222,"lon":5.3607,"is_reserved":false,"is_disabled":false,"rental_uris":{"android":"levelo://app?vid=57ed3149-16c0-4e24-87cf-161d5b20f233","ios":"levelo://app?vid=57ed3149-16c0-4e24-87cf-161d5b20f233"},"vehicle_type_id":"4","last_reported":1778946416,"current_range_meters":6800,"station_id":"ce4bhbh2rcd13ifvqeqg","pricing_plan_id":"cebpf4jnsgd1na2vs0mg"},{"bike_id":"c183f127-bba7-4b6d-afc6-7c12fb879d32","system_id":"levelo_inurba_marseille","lat":43.30158,"lon":5.37423,"is_reserved":false,"is_disabled":false,"rental_uris":{"android":"levelo://app?vid=c183f127-bba7-4b6d-afc6-7c12fb879d32","ios":"levelo://app?vid=c183f127-bba7-4b6d-afc6-7c12fb879d32"},"vehicle_type_id":"4","last_reported":1778946416,"current_range_meters":6800,"station_id":"ce4bgs92rcd13ifvqcc0","pricing_plan_id":"cebpf4jnsgd1na2vs0mg"},{"bike_id":"7a3c9ab0-9380-4a61-8255-10fbe1ae44d2","system_id":"levelo_inurba_marseille","lat":43.29574,"lon":5.37533,"is_reserved":false,"is_disabled":false,"rental_uris":{"android":"levelo://app?vid=7a3c9ab0-9380-4a61-8255-10fbe1ae44d2","ios":"levelo://app?vid=7a3c9ab0-9380-4a61-8255-10fbe1ae44d2"},"vehicle_type_id":"4","last_reported":1778946416,"current_range_meters":7200,"station_id":"ce4bgh92rcd13ifvqb50","pricing_plan_id":"cebpf4jnsgd1na2vs0mg"},{"bike_id":"32452ea3-b3f6-43d8-933b-ecf0082c0b6e","system_id":"levelo_inurba_marseille","lat":43.22562,"lon":5.41628,"is_reserved":false,"is_disabled":false,"rental_uris":{"android":"levelo://app?vid=32452ea3-b3f6-43d8-933b-ecf0082c0b6e","ios":"levelo://app?vid=32452ea3-b3f6-43d8-933b-ecf0082c0b6e"},"vehicle_type_id":"4","last_reported":1778946416,"current_range_meters":7200,"station_id":"st_d2o4gvlbi1j2169b742g","pricing_plan_id":"cebpf4jnsgd1na2vs0mg"},{"bike_id":"b467cf52-e84d-42b9-ad71-bed97235ec79","system_id":"levelo_inurba_marseille","lat":43.29767,"lon":5.37723,"is_reserved":false,"is_disabled":false,"rental_uris":{"android":"levelo://app?vid=b467cf52-e84d-42b9-ad71-bed97235ec79","ios":"levelo://app?vid=b467cf52-e84d-42b9-ad71-bed97235ec79"},"vehicle_type_id":"4","last_reported":1778946416,"current_range_meters":7200,"station_id":"","pricing_plan_id":"cebpf4jnsgd1na2vs0mg"},{"bike_id":"7adb61f1-94d1-417c-bc4b-134075ae5ae6","system_id":"levelo_inurba_marseille","lat":43.32489,"lon":5.36584,"is_reserved":false,"is_disabled":false,"rental_uris":{"android":"levelo://app?vid=7adb61f1-94d1-417c-bc4b-134075ae5ae6","ios":"levelo://app?vid=7adb61f1-94d1-417c-bc4b-134075ae5ae6"},"vehicle_type_id":"4","last_reported":1778946416,"current_range_meters":7200,"station_id":"ce4bhs12rcd13ifvqhvg","pricing_plan_id":"cebpf4jnsgd1na2vs0mg"},{"bike_id":"0b22b9e2-bd71-47c9-8a49-19a1b115306a","system_id":"levelo_inurba_marseille","lat":43.29267,"lon":5.36856,"is_reserved":false,"is_disabled":false,"rental_uris":{"android":"levelo://app?vid=0b22b9e2-bd71-47c9-8a49-19a1b115306a","ios":"levelo://app?vid=0b22b9e2-bd71-47c9-8a49-19a1b115306a"},"vehicle_type_id":"4","last_reported":1778946416,"current_range_meters":7200,"station_id":"ce4bhbp2rcd13ifvqesg","pricing_plan_id":"cebpf4jnsgd1na2vs0mg"},{"bike_id":"4098dc24-1687-4bf4-bf34-a5a5cfed27be","system_id":"levelo_inurba_marseille","lat":43.25036,"lon":5.38915,"is_reserved":false,"is_disabled":false,"rental_uris":{"android":"levelo://app?vid=4098dc24-1687-4bf4-bf34-a5a5cfed27be","ios":"levelo://app?vid=4098dc24-1687-4bf4-bf34-a5a5cfed27be"},"vehicle_type_id":"4","last_reported":1778946416,"current_range_meters":7200,"station_id":"ce4bhgp2rcd13ifvqfd0","pricing_plan_id":"cebpf4jnsgd1na2vs0mg"},{"bike_id":"b3d3f46d-8b61-4048-a49d-46db42a99359","system_id":"levelo_inurba_marseille","lat":43.248,"lon":5.37474,"is_reserved":false,"is_disabled":false,"rental_uris":{"android":"levelo://app?vid=b3d3f46d-8b61-4048-a49d-46db42a99359","ios":"levelo://app?vid=b3d3f46d-8b61-4048-a49d-46db42a99359"},"vehicle_type_id":"4","last_reported":1778946416,"current_range_meters":7200,"station_id":"ce4bhgh2rcd13ifvqfb0","pricing_plan_id":"cebpf4jnsgd1na2vs0mg"},{"bike_id":"616353f1-4754-4f57-9465-e46d49d24354","system_id":"levelo_inurba_marseille","lat":43.33622,"lon":5.36312,"is_reserved":false,"is_disabled":false,"rental_uris":{"android":"levelo://app?vid=616353f1-4754-4f57-9465-e46d49d24354","ios":"levelo://app?vid=616353f1-4754-4f57-9465-e46d49d24354"},"vehicle_type_id":"4","last_reported":1778946416,"current_range_meters":7200,"station_id":"","pricing_plan_id":"cebpf4jnsgd1na2vs0mg"},{"bike_id":"95d4bd31-b89c-4cb2-afa3-9e6e4ba15e30","system_id":"levelo_inurba_marseille","lat":43.25486,"lon":5.37671,"is_reserved":false,"is_disabled":false,"rental_uris":{"android":"levelo://app?vid=95d4bd31-b89c-4cb2-afa3-9e6e4ba15e30","ios":"levelo://app?vid=95d4bd31-b89c-4cb2-afa3-9e6e4ba15e30"},"vehicle_type_id":"4","last_reported":1778946416,"current_range_meters":7200,"station_id":"ce4bhh12rcd13ifvqff0","pricing_plan_id":"cebpf4jnsgd1na2vs0mg"},{"bike_id":"1124e8ed-181a-445d-9220-36e963831e6c","system_id":"levelo_inurba_marseille","lat":43.23889,"lon":5.37498,"is_reserved":false,"is_disabled":true,"rental_uris":{"android":"levelo://app?vid=1124e8ed-181a-445d-9220-36e963831e6c","ios":"levelo://app?vid=1124e8ed-181a-445d-9220-36e963831e6c"},"vehicle_type_id":"4","last_reported":1778946416,"current_range_meters":7200,"station_id":"st_d6sm7csbq4hs73f8fpjg","pricing_plan_id":"cebpf4jnsgd1na2vs0mg"},{"bike_id":"a0142b08-1bf4-4410-a6f2-9d205f4e669f","system_id":"levelo_inurba_marseille","lat":43.28612,"lon":5.35097,"is_reserved":false,"is_disabled":false,"rental_uris":{"android":"levelo://app?vid=a0142b08-1bf4-4410-a6f2-9d205f4e669f","ios":"levelo://app?vid=a0142b08-1bf4-4410-a6f2-9d205f4e669f"},"vehicle_type_id":"4","last_reported":1778946416,"current_range_meters":7200,"station_id":"ce4bhch2rcd13ifvqeug","pricing_plan_id":"cebpf4jnsgd1na2vs0mg"},{"bike_id":"edd5c786-8d24-46bc-bdcd-f0f00a11c1c1","system_id":"levelo_inurba_marseille","lat":43.25508,"lon":5.37655,"is_reserved":false,"is_disabled":true,"rental_uris":{"android":"levelo://app?vid=edd5c786-8d24-46bc-bdcd-f0f00a11c1c1","ios":"levelo://app?vid=edd5c786-8d24-46bc-bdcd-f0f00a11c1c1"},"vehicle_type_id":"4","last_reported":1778946416,"current_range_meters":7200,"station_id":"ce4bhh12rcd13ifvqff0","pricing_plan_id":"cebpf4jnsgd1na2vs0mg"},{"bike_id":"dc3959f9-28a5-4a66-8588-9692dfe325e0","system_id":"levelo_inurba_marseille","lat":43.24073,"lon":5.37759,"is_reserved":false,"is_disabled":false,"rental_uris":{"android":"levelo://app?vid=dc3959f9-28a5-4a66-8588-9692dfe325e0","ios":"levelo://app?vid=dc3959f9-28a5-4a66-8588-9692dfe325e0"},"vehicle_type_id":"4","last_reported":1778946416,"current_range_meters":7200,"station_id":"ce4bhnp2rcd13ifvqgvg","pricing_plan_id":"cebpf4jnsgd1na2vs0mg"},{"bike_id":"d4e9494b-36fd-4f4c-8b71-f44d535c19d7","system_id":"levelo_inurba_marseille","lat":43.27612,"lon":5.36115,"is_reserved":false,"is_disabled":false,"rental_uris":{"android":"levelo://app?vid=d4e9494b-36fd-4f4c-8b71-f44d535c19d7","ios":"levelo://app?vid=d4e9494b-36fd-4f4c-8b71-f44d535c19d7"},"vehicle_type_id":"4","last_reported":1778946416,"current_range_meters":7200,"station_id":"ce4bgj92rcd13ifvqbe0","pricing_plan_id":"cebpf4jnsgd1na2vs0mg"},{"bike_id":"5fbc1da3-1ded-4fb9-ad8c-f5192ccb0215","system_id":"levelo_inurba_marseille","lat":43.22937,"lon":5.35388,"is_reserved":false,"is_disabled":false,"rental_uris":{"android":"levelo://app?vid=5fbc1da3-1ded-4fb9-ad8c-f5192ccb0215","ios":"levelo://app?vid=5fbc1da3-1ded-4fb9-ad8c-f5192ccb0215"},"vehicle_type_id":"4","last_reported":1778946416,"current_range_meters":7200,"station_id":"cpo3532slgdg3j2ikp40","pricing_plan_id":"cebpf4jnsgd1na2vs0mg"},{"bike_id":"476ec896-6aed-448d-84e8-cbea548b3e3b","system_id":"levelo_inurba_marseille","lat":43.24469,"lon":5.4251,"is_reserved":false,"is_disabled":false,"rental_uris":{"android":"levelo://app?vid=476ec896-6aed-448d-84e8-cbea548b3e3b","ios":"levelo://app?vid=476ec896-6aed-448d-84e8-cbea548b3e3b"},"vehicle_type_id":"4","last_reported":1778946416,"current_range_meters":7200,"station_id":"st_d4a3vfp97mjs738cd8kg","pricing_plan_id":"cebpf4jnsgd1na2vs0mg"},{"bike_id":"b5700011-a486-4e56-b8fb-207aaf85d4db","system_id":"levelo_inurba_marseille","lat":43.31863,"lon":5.36832,"is_reserved":false,"is_disabled":false,"rental_uris":{"android":"levelo://app?vid=b5700011-a486-4e56-b8fb-207aaf85d4db","ios":"levelo://app?vid=b5700011-a486-4e56-b8fb-207aaf85d4db"},"vehicle_type_id":"4","last_reported":1778946416,"current_range_meters":7200,"station_id":"st_d6o2h0d0559c73evc1b0","pricing_plan_id":"cebpf4jnsgd1na2vs0mg"},{"bike_id":"d1f3b13b-a61c-41fc-b986-79acc9b16fe8","system_id":"levelo_inurba_marseille","lat":43.28537,"lon":5.44095,"is_reserved":false,"is_disabled":false,"rental_uris":{"android":"levelo://app?vid=d1f3b13b-a61c-41fc-b986-79acc9b16fe8","ios":"levelo://app?vid=d1f3b13b-a61c-41fc-b986-79acc9b16fe8"},"vehicle_type_id":"4","last_reported":1778946416,"current_range_meters":7200,"station_id":"st_d3j3df2ikq2c7380ej80","pricing_plan_id":"cebpf4jnsgd1na2vs0mg"},{"bike_id":"ee15264c-c5fd-4c69-a06f-329fd6fb9d0d","system_id":"levelo_inurba_marseille","lat":43.3013,"lon":5.43112,"is_reserved":false,"is_disabled":false,"rental_uris":{"android":"levelo://app?vid=ee15264c-c5fd-4c69-a06f-329fd6fb9d0d","ios":"levelo://app?vid=ee15264c-c5fd-4c69-a06f-329fd6fb9d0d"},"vehicle_type_id":"4","last_reported":1778946416,"current_range_meters":7200,"station_id":"st_d3js3co5814s73ftftug","pricing_plan_id":"cebpf4jnsgd1na2vs0mg"},{"bike_id":"48a393ec-33b8-4747-8157-aca96544d606","system_id":"levelo_inurba_marseille","lat":43.30269,"lon":5.40058,"is_reserved":false,"is_disabled":false,"rental_uris":{"android":"levelo://app?vid=48a393ec-33b8-4747-8157-aca96544d606","ios":"levelo://app?vid=48a393ec-33b8-4747-8157-aca96544d606"},"vehicle_type_id":"4","last_reported":1778946416,"current_range_meters":7200,"station_id":"ce4bgvh2rcd13ifvqcs0","pricing_plan_id":"cebpf4jnsgd1na2vs0mg"},{"bike_id":"1b93a45f-4d2d-47c8-96d9-8cd7025539a8","system_id":"levelo_inurba_marseille","lat":43.30943,"lon":5.39029,"is_reserved":false,"is_disabled":false,"rental_uris":{"android":"levelo://app?vid=1b93a45f-4d2d-47c8-96d9-8cd7025539a8","ios":"levelo://app?vid=1b93a45f-4d2d-47c8-96d9-8cd7025539a8"},"vehicle_type_id":"4","last_reported":1778946416,"current_range_meters":7200,"station_id":"ce4bgup2rcd13ifvqco0","pricing_plan_id":"cebpf4jnsgd1na2vs0mg"},{"bike_id":"698b85c5-bf11-437e-913f-7d2243a0f74a","system_id":"levelo_inurba_marseille","lat":43.26231,"lon":5.37567,"is_reserved":false,"is_disabled":false,"rental_uris":{"android":"levelo://app?vid=698b85c5-bf11-437e-913f-7d2243a0f74a","ios":"levelo://app?vid=698b85c5-bf11-437e-913f-7d2243a0f74a"},"vehicle_type_id":"4","last_reported":1778946416,"current_range_meters":7200,"station_id":"","pricing_plan_id":"cebpf4jnsgd1na2vs0mg"},{"bike_id":"4df64b13-b703-4d78-b078-0a1d289275af","system_id":"levelo_inurba_marseille","lat":43.30946,"lon":5.40229,"is_reserved":false,"is_disabled":false,"rental_uris":{"android":"levelo://app?vid=4df64b13-b703-4d78-b078-0a1d289275af","ios":"levelo://app?vid=4df64b13-b703-4d78-b078-0a1d289275af"},"vehicle_type_id":"4","last_reported":1778946416,"current_range_meters":7200,"station_id":"","pricing_plan_id":"cebpf4jnsgd1na2vs0mg"},{"bike_id":"c81abe82-26e7-4139-8c31-76d965e54652","system_id":"levelo_inurba_marseille","lat":43.29285,"lon":5.36832,"is_reserved":false,"is_disabled":false,"rental_uris":{"android":"levelo://app?vid=c81abe82-26e7-4139-8c31-76d965e54652","ios":"levelo://app?vid=c81abe82-26e7-4139-8c31-76d965e54652"},"vehicle_type_id":"4","last_reported":1778946416,"current_range_meters":7200,"station_id":"ce4bhbp2rcd13ifvqesg","pricing_plan_id":"cebpf4jnsgd1na2vs0mg"},{"bike_id":"b609bd99-0408-43a0-9a9d-8206ba067457","system_id":"levelo_inurba_marseille","lat":43.2994,"lon":5.36585,"is_reserved":false,"is_disabled":false,"rental_uris":{"android":"levelo://app?vid=b609bd99-0408-43a0-9a9d-8206ba067457","ios":"levelo://app?vid=b609bd99-0408-43a0-9a9d-8206ba067457"},"vehicle_type_id":"4","last_reported":1778946416,"current_range_meters":8000,"station_id":"ce4bgm92rcd13ifvqbr0","pricing_plan_id":"cebpf4jnsgd1na2vs0mg"},{"bike_id":"3f3f7553-e30c-4597-952b-caea9a5bf402","system_id":"levelo_inurba_marseille","lat":43.306447,"lon":5.401065,"is_reserved":false,"is_disabled":false,"rental_uris":{"android":"levelo://app?vid=3f3f7553-e30c-4597-952b-caea9a5bf402","ios":"levelo://app?vid=3f3f7553-e30c-4597-952b-caea9a5bf402"},"vehicle_type_id":"4","last_reported":1778946416,"current_range_meters":8000,"station_id":"ce4bh112rcd13ifvqda0","pricing_plan_id":"cebpf4jnsgd1na2vs0mg"},{"bike_id":"b8211a51-1c79-43c6-a1ad-6b94bc7953a7","system_id":"levelo_inurba_marseille","lat":43.30176,"lon":5.36618,"is_reserved":false,"is_disabled":false,"rental_uris":{"android":"levelo://app?vid=b8211a51-1c79-43c6-a1ad-6b94bc7953a7","ios":"levelo://app?vid=b8211a51-1c79-43c6-a1ad-6b94bc7953a7"},"vehicle_type_id":"4","last_reported":1778946416,"current_range_meters":8000,"station_id":"ce4bgrh2rcd13ifvqc8g","pricing_plan_id":"cebpf4jnsgd1na2vs0mg"},{"bike_id":"c091a819-21d8-46ac-8161-23f60b78cf02","system_id":"levelo_inurba_marseille","lat":43.27606,"lon":5.36078,"is_reserved":false,"is_disabled":true,"rental_uris":{"android":"levelo://app?vid=c091a819-21d8-46ac-8161-23f60b78cf02","ios":"levelo://app?vid=c091a819-21d8-46ac-8161-23f60b78cf02"},"vehicle_type_id":"4","last_reported":1778946416,"current_range_meters":8000,"station_id":"ce4bgj92rcd13ifvqbe0","pricing_plan_id":"cebpf4jnsgd1na2vs0mg"},{"bike_id":"2afb1c43-c4ae-4dbf-a94b-bbd6e75c31b0","system_id":"levelo_inurba_marseille","lat":43.29708,"lon":5.37681,"is_reserved":false,"is_disabled":false,"rental_uris":{"android":"levelo://app?vid=2afb1c43-c4ae-4dbf-a94b-bbd6e75c31b0","ios":"levelo://app?vid=2afb1c43-c4ae-4dbf-a94b-bbd6e75c31b0"},"vehicle_type_id":"4","last_reported":1778946416,"current_range_meters":8000,"station_id":"ce4bgkh2rcd13ifvqbl0","pricing_plan_id":"cebpf4jnsgd1na2vs0mg"},{"bike_id":"71d8883a-749d-4707-bd31-0fa5a9631e84","system_id":"levelo_inurba_marseille","lat":43.2668,"lon":5.38274,"is_reserved":false,"is_disabled":false,"rental_uris":{"android":"levelo://app?vid=71d8883a-749d-4707-bd31-0fa5a9631e84","ios":"levelo://app?vid=71d8883a-749d-4707-bd31-0fa5a9631e84"},"vehicle_type_id":"4","last_reported":1778946416,"current_range_meters":8000,"station_id":"ce4bhg92rcd13ifvqf90","pricing_plan_id":"cebpf4jnsgd1na2vs0mg"},{"bike_id":"ef20a65f-19f4-4491-8360-61efaea0f2fe","system_id":"levelo_inurba_marseille","lat":43.27674,"lon":5.41386,"is_reserved":false,"is_disabled":false,"rental_uris":{"android":"levelo://app?vid=ef20a65f-19f4-4491-8360-61efaea0f2fe","ios":"levelo://app?vid=ef20a65f-19f4-4491-8360-61efaea0f2fe"},"vehicle_type_id":"4","last_reported":1778946416,"current_range_meters":8000,"station_id":"","pricing_plan_id":"cebpf4jnsgd1na2vs0mg"},{"bike_id":"288a4726-1258-46ec-a70f-c345081256cd","system_id":"levelo_inurba_marseille","lat":43.24158,"lon":5.36396,"is_reserved":false,"is_disabled":false,"rental_uris":{"android":"levelo://app?vid=288a4726-1258-46ec-a70f-c345081256cd","ios":"levelo://app?vid=288a4726-1258-46ec-a70f-c345081256cd"},"vehicle_type_id":"4","last_reported":1778946416,"current_range_meters":8000,"station_id":"cpo36qri1sfpv3e86is0","pricing_plan_id":"cebpf4jnsgd1na2vs0mg"},{"bike_id":"4ee69d41-30d6-469e-829a-74d2ce79aff4","system_id":"levelo_inurba_marseille","lat":43.3353,"lon":5.37463,"is_reserved":false,"is_disabled":false,"rental_uris":{"android":"levelo://app?vid=4ee69d41-30d6-469e-829a-74d2ce79aff4","ios":"levelo://app?vid=4ee69d41-30d6-469e-829a-74d2ce79aff4"},"vehicle_type_id":"4","last_reported":1778946416,"current_range_meters":8000,"station_id":"st_d46tts09ee8s73dlu43g","pricing_plan_id":"cebpf4jnsgd1na2vs0mg"},{"bike_id":"c83b10ba-3d1b-4a9d-91eb-88d3d34af951","system_id":"levelo_inurba_marseille","lat":43.23783,"lon":5.36623,"is_reserved":false,"is_disabled":false,"rental_uris":{"android":"levelo://app?vid=c83b10ba-3d1b-4a9d-91eb-88d3d34af951","ios":"levelo://app?vid=c83b10ba-3d1b-4a9d-91eb-88d3d34af951"},"vehicle_type_id":"4","last_reported":1778946416,"current_range_meters":8000,"station_id":"st_d3nk18o9ro0c73en2l3g","pricing_plan_id":"cebpf4jnsgd1na2vs0mg"},{"bike_id":"9a293556-a470-4ba2-9f0d-b6e0856faf50","system_id":"levelo_inurba_marseille","lat":43.23192,"lon":5.35538,"is_reserved":false,"is_disabled":false,"rental_uris":{"android":"levelo://app?vid=9a293556-a470-4ba2-9f0d-b6e0856faf50","ios":"levelo://app?vid=9a293556-a470-4ba2-9f0d-b6e0856faf50"},"vehicle_type_id":"4","last_reported":1778946416,"current_range_meters":8000,"station_id":"ce4bhu92rcd13ifvqi70","pricing_plan_id":"cebpf4jnsgd1na2vs0mg"},{"bike_id":"ae292c7b-0f60-4dc1-9e06-163aacb9f71d","system_id":"levelo_inurba_marseille","lat":43.21216,"lon":5.35065,"is_reserved":false,"is_disabled":false,"rental_uris":{"android":"levelo://app?vid=ae292c7b-0f60-4dc1-9e06-163aacb9f71d","ios":"levelo://app?vid=ae292c7b-0f60-4dc1-9e06-163aacb9f71d"},"vehicle_type_id":"4","last_reported":1778946416,"current_range_meters":8000,"station_id":"st_cvj6sg6p6f1abm77japg","pricing_plan_id":"cebpf4jnsgd1na2vs0mg"},{"bike_id":"80b26f32-3b64-4de6-a97b-918c008994df","system_id":"levelo_inurba_marseille","lat":43.28401,"lon":5.34988,"is_reserved":false,"is_disabled":false,"rental_uris":{"android":"levelo://app?vid=80b26f32-3b64-4de6-a97b-918c008994df","ios":"levelo://app?vid=80b26f32-3b64-4de6-a97b-918c008994df"},"vehicle_type_id":"4","last_reported":1778946416,"current_range_meters":8000,"station_id":"ce4bhbh2rcd13ifvqepg","pricing_plan_id":"cebpf4jnsgd1na2vs0mg"},{"bike_id":"426deb5c-edb5-45e0-9420-7803b3916a70","system_id":"levelo_inurba_marseille","lat":43.22554,"lon":5.4164,"is_reserved":false,"is_disabled":false,"rental_uris":{"android":"levelo://app?vid=426deb5c-edb5-45e0-9420-7803b3916a70","ios":"levelo://app?vid=426deb5c-edb5-45e0-9420-7803b3916a70"},"vehicle_type_id":"4","last_reported":1778946416,"current_range_meters":8000,"station_id":"st_d2o4gvlbi1j2169b742g","pricing_plan_id":"cebpf4jnsgd1na2vs0mg"},{"bike_id":"2f701455-9a88-4bab-99f0-da0dade42e53","system_id":"levelo_inurba_marseille","lat":43.29499,"lon":5.43308,"is_reserved":false,"is_disabled":false,"rental_uris":{"android":"levelo://app?vid=2f701455-9a88-4bab-99f0-da0dade42e53","ios":"levelo://app?vid=2f701455-9a88-4bab-99f0-da0dade42e53"},"vehicle_type_id":"4","last_reported":1778946416,"current_range_meters":8000,"station_id":"st_d3j5ugp08ojc73fj9d10","pricing_plan_id":"cebpf4jnsgd1na2vs0mg"},{"bike_id":"183ecbf2-1487-4e31-a0b0-97fce68bdb3c","system_id":"levelo_inurba_marseille","lat":43.31358,"lon":5.38523,"is_reserved":false,"is_disabled":false,"rental_uris":{"android":"levelo://app?vid=183ecbf2-1487-4e31-a0b0-97fce68bdb3c","ios":"levelo://app?vid=183ecbf2-1487-4e31-a0b0-97fce68bdb3c"},"vehicle_type_id":"4","last_reported":1778946416,"current_range_meters":8000,"station_id":"ce4bgt92rcd13ifvqcf0","pricing_plan_id":"cebpf4jnsgd1na2vs0mg"},{"bike_id":"97a62986-9365-4ea0-b0c6-9da7bdc97eda","system_id":"levelo_inurba_marseille","lat":43.24157,"lon":5.36405,"is_reserved":false,"is_disabled":false,"rental_uris":{"android":"levelo://app?vid=97a62986-9365-4ea0-b0c6-9da7bdc97eda","ios":"levelo://app?vid=97a62986-9365-4ea0-b0c6-9da7bdc97eda"},"vehicle_type_id":"4","last_reported":1778946416,"current_range_meters":8000,"station_id":"cpo36qri1sfpv3e86is0","pricing_plan_id":"cebpf4jnsgd1na2vs0mg"},{"bike_id":"dace259d-e3eb-491e-95dc-863daa176674","system_id":"levelo_inurba_marseille","lat":43.2415,"lon":5.36429,"is_reserved":false,"is_disabled":false,"rental_uris":{"android":"levelo://app?vid=dace259d-e3eb-491e-95dc-863daa176674","ios":"levelo://app?vid=dace259d-e3eb-491e-95dc-863daa176674"},"vehicle_type_id":"4","last_reported":1778946416,"current_range_meters":8000,"station_id":"cpo36qri1sfpv3e86is0","pricing_plan_id":"cebpf4jnsgd1na2vs0mg"},{"bike_id":"fea54104-bb98-4d6d-b765-f71a537f5666","system_id":"levelo_inurba_marseille","lat":43.23537,"lon":5.40695,"is_reserved":false,"is_disabled":false,"rental_uris":{"android":"levelo://app?vid=fea54104-bb98-4d6d-b765-f71a537f5666","ios":"levelo://app?vid=fea54104-bb98-4d6d-b765-f71a537f5666"},"vehicle_type_id":"4","last_reported":1778946416,"current_range_meters":8000,"station_id":"","pricing_plan_id":"cebpf4jnsgd1na2vs0mg"},{"bike_id":"02600426-33d6-4f32-af78-264ad17e824b","system_id":"levelo_inurba_marseille","lat":43.30434,"lon":5.38882,"is_reserved":false,"is_disabled":false,"rental_uris":{"android":"levelo://app?vid=02600426-33d6-4f32-af78-264ad17e824b","ios":"levelo://app?vid=02600426-33d6-4f32-af78-264ad17e824b"},"vehicle_type_id":"4","last_reported":1778946416,"current_range_meters":8000,"station_id":"ce4bgk12rcd13ifvqbi0","pricing_plan_id":"cebpf4jnsgd1na2vs0mg"},{"bike_id":"bd4f91e4-bf32-4145-85a9-14601067af53","system_id":"levelo_inurba_marseille","lat":43.30089,"lon":5.37452,"is_reserved":false,"is_disabled":false,"rental_uris":{"android":"levelo://app?vid=bd4f91e4-bf32-4145-85a9-14601067af53","ios":"levelo://app?vid=bd4f91e4-bf32-4145-85a9-14601067af53"},"vehicle_type_id":"4","last_reported":1778946416,"current_range_meters":8000,"station_id":"ce4bgs92rcd13ifvqcc0","pricing_plan_id":"cebpf4jnsgd1na2vs0mg"},{"bike_id":"22f4443c-76c8-45d1-88fc-99ca924fd92b","system_id":"levelo_inurba_marseille","lat":43.23192,"lon":5.35554,"is_reserved":false,"is_disabled":false,"rental_uris":{"android":"levelo://app?vid=22f4443c-76c8-45d1-88fc-99ca924fd92b","ios":"levelo://app?vid=22f4443c-76c8-45d1-88fc-99ca924fd92b"},"vehicle_type_id":"4","last_reported":1778946416,"current_range_meters":8000,"station_id":"ce4bhu92rcd13ifvqi70","pricing_plan_id":"cebpf4jnsgd1na2vs0mg"},{"bike_id":"ed98d167-3849-4c68-bef9-bd5eb7c8a84f","system_id":"levelo_inurba_marseille","lat":43.30922,"lon":5.40132,"is_reserved":false,"is_disabled":false,"rental_uris":{"android":"levelo://app?vid=ed98d167-3849-4c68-bef9-bd5eb7c8a84f","ios":"levelo://app?vid=ed98d167-3849-4c68-bef9-bd5eb7c8a84f"},"vehicle_type_id":"4","last_reported":1778946416,"current_range_meters":8000,"station_id":"ce4bgvp2rcd13ifvqct0","pricing_plan_id":"cebpf4jnsgd1na2vs0mg"},{"bike_id":"61f678cc-f661-460d-b6fb-f03d8bbf8100","system_id":"levelo_inurba_marseille","lat":43.28838,"lon":5.35853,"is_reserved":false,"is_disabled":false,"rental_uris":{"android":"levelo://app?vid=61f678cc-f661-460d-b6fb-f03d8bbf8100","ios":"levelo://app?vid=61f678cc-f661-460d-b6fb-f03d8bbf8100"},"vehicle_type_id":"4","last_reported":1778946416,"current_range_meters":8400,"station_id":"ce4bhb12rcd13ifvqem0","pricing_plan_id":"cebpf4jnsgd1na2vs0mg"},{"bike_id":"df3b4c65-b594-43d2-9619-bf34b1560986","system_id":"levelo_inurba_marseille","lat":43.33545,"lon":5.3746,"is_reserved":false,"is_disabled":false,"rental_uris":{"android":"levelo://app?vid=df3b4c65-b594-43d2-9619-bf34b1560986","ios":"levelo://app?vid=df3b4c65-b594-43d2-9619-bf34b1560986"},"vehicle_type_id":"4","last_reported":1778946416,"current_range_meters":8400,"station_id":"st_d46tts09ee8s73dlu43g","pricing_plan_id":"cebpf4jnsgd1na2vs0mg"},{"bike_id":"ed8b9caf-da29-4c6c-b8b8-2bb3a2494930","system_id":"levelo_inurba_marseille","lat":43.22562,"lon":5.41626,"is_reserved":false,"is_disabled":false,"rental_uris":{"android":"levelo://app?vid=ed8b9caf-da29-4c6c-b8b8-2bb3a2494930","ios":"levelo://app?vid=ed8b9caf-da29-4c6c-b8b8-2bb3a2494930"},"vehicle_type_id":"4","last_reported":1778946416,"current_range_meters":8400,"station_id":"st_d2o4gvlbi1j2169b742g","pricing_plan_id":"cebpf4jnsgd1na2vs0mg"},{"bike_id":"a1475d99-48d4-492a-9346-7b6c84ba6610","system_id":"levelo_inurba_marseille","lat":43.25073,"lon":5.39503,"is_reserved":false,"is_disabled":false,"rental_uris":{"android":"levelo://app?vid=a1475d99-48d4-492a-9346-7b6c84ba6610","ios":"levelo://app?vid=a1475d99-48d4-492a-9346-7b6c84ba6610"},"vehicle_type_id":"4","last_reported":1778946416,"current_range_meters":8400,"station_id":"ce4bhm12rcd13ifvqgkg","pricing_plan_id":"cebpf4jnsgd1na2vs0mg"},{"bike_id":"e4cfd5b4-219b-4089-9b7a-10e256a7827d","system_id":"levelo_inurba_marseille","lat":43.24176,"lon":5.39734,"is_reserved":false,"is_disabled":false,"rental_uris":{"android":"levelo://app?vid=e4cfd5b4-219b-4089-9b7a-10e256a7827d","ios":"levelo://app?vid=e4cfd5b4-219b-4089-9b7a-10e256a7827d"},"vehicle_type_id":"4","last_reported":1778946416,"current_range_meters":8400,"station_id":"ce4bhn12rcd13ifvqgpg","pricing_plan_id":"cebpf4jnsgd1na2vs0mg"},{"bike_id":"7c9517e3-38cb-4a87-948b-926583eebece","system_id":"levelo_inurba_marseille","lat":43.21205,"lon":5.35069,"is_reserved":false,"is_disabled":false,"rental_uris":{"android":"levelo://app?vid=7c9517e3-38cb-4a87-948b-926583eebece","ios":"levelo://app?vid=7c9517e3-38cb-4a87-948b-926583eebece"},"vehicle_type_id":"4","last_reported":1778946416,"current_range_meters":8400,"station_id":"st_cvj6sg6p6f1abm77japg","pricing_plan_id":"cebpf4jnsgd1na2vs0mg"},{"bike_id":"d95a73d5-bc94-4aa0-adda-2bd270fe5c0c","system_id":"levelo_inurba_marseille","lat":43.28404,"lon":5.3752,"is_reserved":false,"is_disabled":false,"rental_uris":{"android":"levelo://app?vid=d95a73d5-bc94-4aa0-adda-2bd270fe5c0c","ios":"levelo://app?vid=d95a73d5-bc94-4aa0-adda-2bd270fe5c0c"},"vehicle_type_id":"4","last_reported":1778946416,"current_range_meters":8400,"station_id":"ce4bh412rcd13ifvqds0","pricing_plan_id":"cebpf4jnsgd1na2vs0mg"},{"bike_id":"37ca5b86-b3d0-4bc0-80e9-3ce47d4dd8d3","system_id":"levelo_inurba_marseille","lat":43.23884,"lon":5.37462,"is_reserved":false,"is_disabled":false,"rental_uris":{"android":"levelo://app?vid=37ca5b86-b3d0-4bc0-80e9-3ce47d4dd8d3","ios":"levelo://app?vid=37ca5b86-b3d0-4bc0-80e9-3ce47d4dd8d3"},"vehicle_type_id":"4","last_reported":1778946416,"current_range_meters":8400,"station_id":"st_d6sm7csbq4hs73f8fpjg","pricing_plan_id":"cebpf4jnsgd1na2vs0mg"},{"bike_id":"838dedee-4cbd-4997-9d32-b652b1084416","system_id":"levelo_inurba_marseille","lat":43.28607,"lon":5.35105,"is_reserved":false,"is_disabled":false,"rental_uris":{"android":"levelo://app?vid=838dedee-4cbd-4997-9d32-b652b1084416","ios":"levelo://app?vid=838dedee-4cbd-4997-9d32-b652b1084416"},"vehicle_type_id":"4","last_reported":1778946416,"current_range_meters":8400,"station_id":"","pricing_plan_id":"cebpf4jnsgd1na2vs0mg"},{"bike_id":"985571c0-19c7-4a82-a97a-785e45a42a12","system_id":"levelo_inurba_marseille","lat":43.30926,"lon":5.40149,"is_reserved":false,"is_disabled":false,"rental_uris":{"android":"levelo://app?vid=985571c0-19c7-4a82-a97a-785e45a42a12","ios":"levelo://app?vid=985571c0-19c7-4a82-a97a-785e45a42a12"},"vehicle_type_id":"4","last_reported":1778946416,"current_range_meters":8400,"station_id":"ce4bgvp2rcd13ifvqct0","pricing_plan_id":"cebpf4jnsgd1na2vs0mg"},{"bike_id":"c5f8b7fe-e0d3-407a-a460-9c15d812c20f","system_id":"levelo_inurba_marseille","lat":43.32491,"lon":5.38299,"is_reserved":false,"is_disabled":false,"rental_uris":{"android":"levelo://app?vid=c5f8b7fe-e0d3-407a-a460-9c15d812c20f","ios":"levelo://app?vid=c5f8b7fe-e0d3-407a-a460-9c15d812c20f"},"vehicle_type_id":"4","last_reported":1778946416,"current_range_meters":8400,"station_id":"st_d4asgbiv49dc73anf9m0","pricing_plan_id":"cebpf4jnsgd1na2vs0mg"},{"bike_id":"1ec6b20b-7f52-4f96-b9fd-4318e18c4bf4","system_id":"levelo_inurba_marseille","lat":43.24156,"lon":5.3639,"is_reserved":false,"is_disabled":false,"rental_uris":{"android":"levelo://app?vid=1ec6b20b-7f52-4f96-b9fd-4318e18c4bf4","ios":"levelo://app?vid=1ec6b20b-7f52-4f96-b9fd-4318e18c4bf4"},"vehicle_type_id":"4","last_reported":1778946416,"current_range_meters":8400,"station_id":"cpo36qri1sfpv3e86is0","pricing_plan_id":"cebpf4jnsgd1na2vs0mg"},{"bike_id":"642d9fdc-c557-4e56-8bde-3c8a855f4ec6","system_id":"levelo_inurba_marseille","lat":43.279693,"lon":5.387533,"is_reserved":false,"is_disabled":false,"rental_uris":{"android":"levelo://app?vid=642d9fdc-c557-4e56-8bde-3c8a855f4ec6","ios":"levelo://app?vid=642d9fdc-c557-4e56-8bde-3c8a855f4ec6"},"vehicle_type_id":"4","last_reported":1778946416,"current_range_meters":8400,"station_id":"ce4bhg12rcd13ifvqf80","pricing_plan_id":"cebpf4jnsgd1na2vs0mg"},{"bike_id":"1179850d-688e-45e2-a7de-bb7ce5d30bb5","system_id":"levelo_inurba_marseille","lat":43.31364,"lon":5.38508,"is_reserved":false,"is_disabled":false,"rental_uris":{"android":"levelo://app?vid=1179850d-688e-45e2-a7de-bb7ce5d30bb5","ios":"levelo://app?vid=1179850d-688e-45e2-a7de-bb7ce5d30bb5"},"vehicle_type_id":"4","last_reported":1778946416,"current_range_meters":8400,"station_id":"ce4bgt92rcd13ifvqcf0","pricing_plan_id":"cebpf4jnsgd1na2vs0mg"},{"bike_id":"cc421a39-fb72-4a11-ba11-b6c7fd9e1c12","system_id":"levelo_inurba_marseille","lat":43.30151,"lon":5.38074,"is_reserved":false,"is_disabled":false,"rental_uris":{"android":"levelo://app?vid=cc421a39-fb72-4a11-ba11-b6c7fd9e1c12","ios":"levelo://app?vid=cc421a39-fb72-4a11-ba11-b6c7fd9e1c12"},"vehicle_type_id":"4","last_reported":1778946416,"current_range_meters":8400,"station_id":"ce4bgjp2rcd13ifvqbh0","pricing_plan_id":"cebpf4jnsgd1na2vs0mg"},{"bike_id":"a9c4cf58-eff3-46f4-8aa3-83491b171b4a","system_id":"levelo_inurba_marseille","lat":43.27352,"lon":5.36255,"is_reserved":false,"is_disabled":false,"rental_uris":{"android":"levelo://app?vid=a9c4cf58-eff3-46f4-8aa3-83491b171b4a","ios":"levelo://app?vid=a9c4cf58-eff3-46f4-8aa3-83491b171b4a"},"vehicle_type_id":"4","last_reported":1778946416,"current_range_meters":8400,"station_id":"ce4bhbh2rcd13ifvqeo0","pricing_plan_id":"cebpf4jnsgd1na2vs0mg"},{"bike_id":"c4d1c058-b4f7-4f94-b9fd-9fa71ae20763","system_id":"levelo_inurba_marseille","lat":43.28227,"lon":5.3907,"is_reserved":false,"is_disabled":false,"rental_uris":{"android":"levelo://app?vid=c4d1c058-b4f7-4f94-b9fd-9fa71ae20763","ios":"levelo://app?vid=c4d1c058-b4f7-4f94-b9fd-9fa71ae20763"},"vehicle_type_id":"4","last_reported":1778946416,"current_range_meters":8400,"station_id":"ce4bhn92rcd13ifvqgsg","pricing_plan_id":"cebpf4jnsgd1na2vs0mg"},{"bike_id":"b04b639d-bb01-4870-b09d-f5bf6b5d615f","system_id":"levelo_inurba_marseille","lat":43.30605,"lon":5.37226,"is_reserved":false,"is_disabled":false,"rental_uris":{"android":"levelo://app?vid=b04b639d-bb01-4870-b09d-f5bf6b5d615f","ios":"levelo://app?vid=b04b639d-bb01-4870-b09d-f5bf6b5d615f"},"vehicle_type_id":"4","last_reported":1778946416,"current_range_meters":8400,"station_id":"ce4bgqh2rcd13ifvqc4g","pricing_plan_id":"cebpf4jnsgd1na2vs0mg"},{"bike_id":"ff67d7b6-bba3-4d70-b1f1-c8f5e0b944da","system_id":"levelo_inurba_marseille","lat":43.31327,"lon":5.39697,"is_reserved":false,"is_disabled":false,"rental_uris":{"android":"levelo://app?vid=ff67d7b6-bba3-4d70-b1f1-c8f5e0b944da","ios":"levelo://app?vid=ff67d7b6-bba3-4d70-b1f1-c8f5e0b944da"},"vehicle_type_id":"4","last_reported":1778946416,"current_range_meters":8800,"station_id":"ce4bgvp2rcd13ifvqcu0","pricing_plan_id":"cebpf4jnsgd1na2vs0mg"},{"bike_id":"0d51e5ef-ab9b-491a-8c9e-45cfe2cd3256","system_id":"levelo_inurba_marseille","lat":43.29572,"lon":5.36741,"is_reserved":false,"is_disabled":false,"rental_uris":{"android":"levelo://app?vid=0d51e5ef-ab9b-491a-8c9e-45cfe2cd3256","ios":"levelo://app?vid=0d51e5ef-ab9b-491a-8c9e-45cfe2cd3256"},"vehicle_type_id":"4","last_reported":1778946416,"current_range_meters":8800,"station_id":"ce4bgph2rcd13ifvqc2g","pricing_plan_id":"cebpf4jnsgd1na2vs0mg"},{"bike_id":"0692c54e-def7-4d95-8872-a3dac6b32a98","system_id":"levelo_inurba_marseille","lat":43.29709,"lon":5.36613,"is_reserved":false,"is_disabled":false,"rental_uris":{"android":"levelo://app?vid=0692c54e-def7-4d95-8872-a3dac6b32a98","ios":"levelo://app?vid=0692c54e-def7-4d95-8872-a3dac6b32a98"},"vehicle_type_id":"4","last_reported":1778946416,"current_range_meters":8800,"station_id":"ce4bgn12rcd13ifvqbt0","pricing_plan_id":"cebpf4jnsgd1na2vs0mg"},{"bike_id":"882dfd3d-587f-4e3a-b520-12d7ecd93bed","system_id":"levelo_inurba_marseille","lat":43.28633,"lon":5.35108,"is_reserved":false,"is_disabled":false,"rental_uris":{"android":"levelo://app?vid=882dfd3d-587f-4e3a-b520-12d7ecd93bed","ios":"levelo://app?vid=882dfd3d-587f-4e3a-b520-12d7ecd93bed"},"vehicle_type_id":"4","last_reported":1778946416,"current_range_meters":8800,"station_id":"ce4bhch2rcd13ifvqeug","pricing_plan_id":"cebpf4jnsgd1na2vs0mg"},{"bike_id":"31810c35-18ad-4ea3-9c10-af8cc483949c","system_id":"levelo_inurba_marseille","lat":43.25587,"lon":5.38252,"is_reserved":false,"is_disabled":false,"rental_uris":{"android":"levelo://app?vid=31810c35-18ad-4ea3-9c10-af8cc483949c","ios":"levelo://app?vid=31810c35-18ad-4ea3-9c10-af8cc483949c"},"vehicle_type_id":"4","last_reported":1778946416,"current_range_meters":8800,"station_id":"ce4bhih2rcd13ifvqfs0","pricing_plan_id":"cebpf4jnsgd1na2vs0mg"},{"bike_id":"ca24ef49-df44-4970-a079-3f2032b30f7a","system_id":"levelo_inurba_marseille","lat":43.30859,"lon":5.3964,"is_reserved":false,"is_disabled":false,"rental_uris":{"android":"levelo://app?vid=ca24ef49-df44-4970-a079-3f2032b30f7a","ios":"levelo://app?vid=ca24ef49-df44-4970-a079-3f2032b30f7a"},"vehicle_type_id":"4","last_reported":1778946416,"current_range_meters":8800,"station_id":"","pricing_plan_id":"cebpf4jnsgd1na2vs0mg"},{"bike_id":"d6fdd6bb-ceee-4844-8d90-3e692ab759a5","system_id":"levelo_inurba_marseille","lat":43.27546,"lon":5.38441,"is_reserved":false,"is_disabled":false,"rental_uris":{"android":"levelo://app?vid=d6fdd6bb-ceee-4844-8d90-3e692ab759a5","ios":"levelo://app?vid=d6fdd6bb-ceee-4844-8d90-3e692ab759a5"},"vehicle_type_id":"4","last_reported":1778946416,"current_range_meters":8800,"station_id":"ce4bhh92rcd13ifvqfi0","pricing_plan_id":"cebpf4jnsgd1na2vs0mg"},{"bike_id":"6ea257e9-ce11-4d49-a2f8-fd99dac0cf24","system_id":"levelo_inurba_marseille","lat":43.24679,"lon":5.38169,"is_reserved":false,"is_disabled":false,"rental_uris":{"android":"levelo://app?vid=6ea257e9-ce11-4d49-a2f8-fd99dac0cf24","ios":"levelo://app?vid=6ea257e9-ce11-4d49-a2f8-fd99dac0cf24"},"vehicle_type_id":"4","last_reported":1778946416,"current_range_meters":8800,"station_id":"ce4bhih2rcd13ifvqfr0","pricing_plan_id":"cebpf4jnsgd1na2vs0mg"},{"bike_id":"67ccb857-92da-48d4-97af-9df5ebe29c07","system_id":"levelo_inurba_marseille","lat":43.32479,"lon":5.38266,"is_reserved":false,"is_disabled":false,"rental_uris":{"android":"levelo://app?vid=67ccb857-92da-48d4-97af-9df5ebe29c07","ios":"levelo://app?vid=67ccb857-92da-48d4-97af-9df5ebe29c07"},"vehicle_type_id":"4","last_reported":1778946416,"current_range_meters":8800,"station_id":"st_d4asgbiv49dc73anf9m0","pricing_plan_id":"cebpf4jnsgd1na2vs0mg"},{"bike_id":"39f5e5e3-bdaa-431e-ab82-46a06c8cb2ae","system_id":"levelo_inurba_marseille","lat":43.24497,"lon":5.4253,"is_reserved":false,"is_disabled":false,"rental_uris":{"android":"levelo://app?vid=39f5e5e3-bdaa-431e-ab82-46a06c8cb2ae","ios":"levelo://app?vid=39f5e5e3-bdaa-431e-ab82-46a06c8cb2ae"},"vehicle_type_id":"4","last_reported":1778946416,"current_range_meters":8800,"station_id":"st_d4a3vfp97mjs738cd8kg","pricing_plan_id":"cebpf4jnsgd1na2vs0mg"},{"bike_id":"db434070-fbc8-463e-8a86-acaf6a506c56","system_id":"levelo_inurba_marseille","lat":43.28409,"lon":5.34992,"is_reserved":false,"is_disabled":false,"rental_uris":{"android":"levelo://app?vid=db434070-fbc8-463e-8a86-acaf6a506c56","ios":"levelo://app?vid=db434070-fbc8-463e-8a86-acaf6a506c56"},"vehicle_type_id":"4","last_reported":1778946416,"current_range_meters":8800,"station_id":"ce4bhbh2rcd13ifvqepg","pricing_plan_id":"cebpf4jnsgd1na2vs0mg"},{"bike_id":"ee51b083-ba62-43a1-8a0a-7eff9e26d1d2","system_id":"levelo_inurba_marseille","lat":43.24662,"lon":5.38148,"is_reserved":false,"is_disabled":false,"rental_uris":{"android":"levelo://app?vid=ee51b083-ba62-43a1-8a0a-7eff9e26d1d2","ios":"levelo://app?vid=ee51b083-ba62-43a1-8a0a-7eff9e26d1d2"},"vehicle_type_id":"4","last_reported":1778946416,"current_range_meters":8800,"station_id":"ce4bhih2rcd13ifvqfr0","pricing_plan_id":"cebpf4jnsgd1na2vs0mg"},{"bike_id":"41ed03a9-ce21-4903-a810-ca307a88c332","system_id":"levelo_inurba_marseille","lat":43.26241,"lon":5.40455,"is_reserved":false,"is_disabled":false,"rental_uris":{"android":"levelo://app?vid=41ed03a9-ce21-4903-a810-ca307a88c332","ios":"levelo://app?vid=41ed03a9-ce21-4903-a810-ca307a88c332"},"vehicle_type_id":"4","last_reported":1778946416,"current_range_meters":8800,"station_id":"ce4bhmh2rcd13ifvqgmg","pricing_plan_id":"cebpf4jnsgd1na2vs0mg"},{"bike_id":"5777b242-d980-4abe-980a-715bb7d2be51","system_id":"levelo_inurba_marseille","lat":43.23961,"lon":5.36644,"is_reserved":false,"is_disabled":false,"rental_uris":{"android":"levelo://app?vid=5777b242-d980-4abe-980a-715bb7d2be51","ios":"levelo://app?vid=5777b242-d980-4abe-980a-715bb7d2be51"},"vehicle_type_id":"4","last_reported":1778946416,"current_range_meters":8800,"station_id":"ce4bhi12rcd13ifvqfp0","pricing_plan_id":"cebpf4jnsgd1na2vs0mg"},{"bike_id":"3d9bf024-855c-473b-979a-b3f0e37fdc4e","system_id":"levelo_inurba_marseille","lat":43.29488,"lon":5.43312,"is_reserved":false,"is_disabled":false,"rental_uris":{"android":"levelo://app?vid=3d9bf024-855c-473b-979a-b3f0e37fdc4e","ios":"levelo://app?vid=3d9bf024-855c-473b-979a-b3f0e37fdc4e"},"vehicle_type_id":"4","last_reported":1778946416,"current_range_meters":8800,"station_id":"st_d3j5ugp08ojc73fj9d10","pricing_plan_id":"cebpf4jnsgd1na2vs0mg"},{"bike_id":"87c47071-2266-4083-aeb0-499530d55bf7","system_id":"levelo_inurba_marseille","lat":43.28611,"lon":5.35111,"is_reserved":false,"is_disabled":false,"rental_uris":{"android":"levelo://app?vid=87c47071-2266-4083-aeb0-499530d55bf7","ios":"levelo://app?vid=87c47071-2266-4083-aeb0-499530d55bf7"},"vehicle_type_id":"4","last_reported":1778946416,"current_range_meters":8800,"station_id":"ce4bhch2rcd13ifvqeug","pricing_plan_id":"cebpf4jnsgd1na2vs0mg"},{"bike_id":"d3f8cb08-f3cd-416b-953a-eae8db0a255e","system_id":"levelo_inurba_marseille","lat":43.26818,"lon":5.40798,"is_reserved":false,"is_disabled":false,"rental_uris":{"android":"levelo://app?vid=d3f8cb08-f3cd-416b-953a-eae8db0a255e","ios":"levelo://app?vid=d3f8cb08-f3cd-416b-953a-eae8db0a255e"},"vehicle_type_id":"4","last_reported":1778946416,"current_range_meters":8800,"station_id":"","pricing_plan_id":"cebpf4jnsgd1na2vs0mg"},{"bike_id":"2c0e2b80-f26f-4806-8157-bc1480581029","system_id":"levelo_inurba_marseille","lat":43.29268,"lon":5.38442,"is_reserved":false,"is_disabled":false,"rental_uris":{"android":"levelo://app?vid=2c0e2b80-f26f-4806-8157-bc1480581029","ios":"levelo://app?vid=2c0e2b80-f26f-4806-8157-bc1480581029"},"vehicle_type_id":"4","last_reported":1778946416,"current_range_meters":8800,"station_id":"ce4bh692rcd13ifvqea0","pricing_plan_id":"cebpf4jnsgd1na2vs0mg"},{"bike_id":"a543d30c-44a1-42ad-aa01-ca660ea8aca4","system_id":"levelo_inurba_marseille","lat":43.27481,"lon":5.40798,"is_reserved":false,"is_disabled":false,"rental_uris":{"android":"levelo://app?vid=a543d30c-44a1-42ad-aa01-ca660ea8aca4","ios":"levelo://app?vid=a543d30c-44a1-42ad-aa01-ca660ea8aca4"},"vehicle_type_id":"4","last_reported":1778946416,"current_range_meters":8800,"station_id":"","pricing_plan_id":"cebpf4jnsgd1na2vs0mg"},{"bike_id":"752ccbf2-2016-48e9-9042-23f3eff2fc42","system_id":"levelo_inurba_marseille","lat":43.23904,"lon":5.37456,"is_reserved":false,"is_disabled":false,"rental_uris":{"android":"levelo://app?vid=752ccbf2-2016-48e9-9042-23f3eff2fc42","ios":"levelo://app?vid=752ccbf2-2016-48e9-9042-23f3eff2fc42"},"vehicle_type_id":"4","last_reported":1778946416,"current_range_meters":8800,"station_id":"st_d6sm7csbq4hs73f8fpjg","pricing_plan_id":"cebpf4jnsgd1na2vs0mg"},{"bike_id":"60e91d52-408f-41b9-86d8-fcefe5d5a260","system_id":"levelo_inurba_marseille","lat":43.28691,"lon":5.46688,"is_reserved":false,"is_disabled":false,"rental_uris":{"android":"levelo://app?vid=60e91d52-408f-41b9-86d8-fcefe5d5a260","ios":"levelo://app?vid=60e91d52-408f-41b9-86d8-fcefe5d5a260"},"vehicle_type_id":"4","last_reported":1778946416,"current_range_meters":8800,"station_id":"st_d6tc3vkotcvc738tfjhg","pricing_plan_id":"cebpf4jnsgd1na2vs0mg"},{"bike_id":"27256053-c8c4-4de2-a044-583baa71381a","system_id":"levelo_inurba_marseille","lat":43.2657,"lon":5.37275,"is_reserved":false,"is_disabled":false,"rental_uris":{"android":"levelo://app?vid=27256053-c8c4-4de2-a044-583baa71381a","ios":"levelo://app?vid=27256053-c8c4-4de2-a044-583baa71381a"},"vehicle_type_id":"4","last_reported":1778946416,"current_range_meters":8800,"station_id":"ce4bhg12rcd13ifvqf70","pricing_plan_id":"cebpf4jnsgd1na2vs0mg"},{"bike_id":"4e5bd537-c85f-4cfa-a272-100a01edb9bf","system_id":"levelo_inurba_marseille","lat":43.31695,"lon":5.40462,"is_reserved":false,"is_disabled":false,"rental_uris":{"android":"levelo://app?vid=4e5bd537-c85f-4cfa-a272-100a01edb9bf","ios":"levelo://app?vid=4e5bd537-c85f-4cfa-a272-100a01edb9bf"},"vehicle_type_id":"4","last_reported":1778946416,"current_range_meters":9200,"station_id":"ce4bh012rcd13ifvqd00","pricing_plan_id":"cebpf4jnsgd1na2vs0mg"},{"bike_id":"4205fef4-5bd1-439a-b6c6-88b1921fd314","system_id":"levelo_inurba_marseille","lat":43.22559,"lon":5.4165,"is_reserved":false,"is_disabled":false,"rental_uris":{"android":"levelo://app?vid=4205fef4-5bd1-439a-b6c6-88b1921fd314","ios":"levelo://app?vid=4205fef4-5bd1-439a-b6c6-88b1921fd314"},"vehicle_type_id":"4","last_reported":1778946416,"current_range_meters":9200,"station_id":"st_d2o4gvlbi1j2169b742g","pricing_plan_id":"cebpf4jnsgd1na2vs0mg"},{"bike_id":"b9c1c510-4021-43a5-b613-bf6af5269536","system_id":"levelo_inurba_marseille","lat":43.28894,"lon":5.38723,"is_reserved":false,"is_disabled":false,"rental_uris":{"android":"levelo://app?vid=b9c1c510-4021-43a5-b613-bf6af5269536","ios":"levelo://app?vid=b9c1c510-4021-43a5-b613-bf6af5269536"},"vehicle_type_id":"4","last_reported":1778946416,"current_range_meters":9200,"station_id":"","pricing_plan_id":"cebpf4jnsgd1na2vs0mg"},{"bike_id":"4b0eea1f-9ca8-4259-bb63-fa1971b79d91","system_id":"levelo_inurba_marseille","lat":43.29243,"lon":5.37631,"is_reserved":false,"is_disabled":false,"rental_uris":{"android":"levelo://app?vid=4b0eea1f-9ca8-4259-bb63-fa1971b79d91","ios":"levelo://app?vid=4b0eea1f-9ca8-4259-bb63-fa1971b79d91"},"vehicle_type_id":"4","last_reported":1778946416,"current_range_meters":9200,"station_id":"ce4bgi12rcd13ifvqb80","pricing_plan_id":"cebpf4jnsgd1na2vs0mg"},{"bike_id":"62cfe4a6-f194-4022-84d3-a25fd7c6b4e6","system_id":"levelo_inurba_marseille","lat":43.28896,"lon":5.43814,"is_reserved":false,"is_disabled":false,"rental_uris":{"android":"levelo://app?vid=62cfe4a6-f194-4022-84d3-a25fd7c6b4e6","ios":"levelo://app?vid=62cfe4a6-f194-4022-84d3-a25fd7c6b4e6"},"vehicle_type_id":"4","last_reported":1778946416,"current_range_meters":9200,"station_id":"","pricing_plan_id":"cebpf4jnsgd1na2vs0mg"},{"bike_id":"52a46940-401f-4ccd-a551-60e20c6ad798","system_id":"levelo_inurba_marseille","lat":43.28103,"lon":5.37863,"is_reserved":false,"is_disabled":false,"rental_uris":{"android":"levelo://app?vid=52a46940-401f-4ccd-a551-60e20c6ad798","ios":"levelo://app?vid=52a46940-401f-4ccd-a551-60e20c6ad798"},"vehicle_type_id":"4","last_reported":1778946416,"current_range_meters":9200,"station_id":"ce4bha12rcd13ifvqee0","pricing_plan_id":"cebpf4jnsgd1na2vs0mg"},{"bike_id":"e6bbcb34-20bf-4ce5-b5b7-6243a17e2e8d","system_id":"levelo_inurba_marseille","lat":43.21198,"lon":5.3507,"is_reserved":false,"is_disabled":false,"rental_uris":{"android":"levelo://app?vid=e6bbcb34-20bf-4ce5-b5b7-6243a17e2e8d","ios":"levelo://app?vid=e6bbcb34-20bf-4ce5-b5b7-6243a17e2e8d"},"vehicle_type_id":"4","last_reported":1778946416,"current_range_meters":9200,"station_id":"st_cvj6sg6p6f1abm77japg","pricing_plan_id":"cebpf4jnsgd1na2vs0mg"},{"bike_id":"09897f1a-7fe4-4872-b1ba-47c3f58ee298","system_id":"levelo_inurba_marseille","lat":43.26549,"lon":5.37291,"is_reserved":false,"is_disabled":false,"rental_uris":{"android":"levelo://app?vid=09897f1a-7fe4-4872-b1ba-47c3f58ee298","ios":"levelo://app?vid=09897f1a-7fe4-4872-b1ba-47c3f58ee298"},"vehicle_type_id":"4","last_reported":1778946416,"current_range_meters":9200,"station_id":"ce4bhg12rcd13ifvqf70","pricing_plan_id":"cebpf4jnsgd1na2vs0mg"},