{"last_updated":1700723180,"ttl":30,"version":"2.2","data":{"bikes":[{"bike_id":"74bd4cbe-c558-46c0-bd30-c944aadabae6","system_id":"levelo_inurba_marseille","lat":43.31341,"lon":5.367098,"is_reserved":false,"is_disabled":false,"rental_uris":{"android":"levelo://app?vid=74bd4cbe-c558-46c0-bd30-c944aadabae6","ios":"levelo://app?vid=74bd4cbe-c558-46c0-bd30-c944aadabae6"},"vehicle_type_id":"4","last_reported":1700723181,"current_range_meters":21200,"station_id":"ce4bgr92rcd13ifvqc6g","pricing_plan_id":"free"},{"bike_id":"9a3980be-d337-42db-b09d-4e36bfb8cdac","system_id":"levelo_inurba_marseille","lat":43.313391,"lon":5.36706,"is_reserved":false,"is_disabled":false,"rental_uris":{"android":"levelo://app?vid=9a3980be-d337-42db-b09d-4e36bfb8cdac","ios":"levelo://app?vid=9a3980be-d337-42db-b09d-4e36bfb8cdac"},"vehicle_type_id":"4","last_reported":1700723181,"current_range_meters":26800,"station_id":"ce4bgr92rcd13ifvqc6g","pricing_plan_id":"free"},{"bike_id":"1768f595-fab9-431e-a005-e0909aaa484b","system_id":"levelo_inurba_marseille","lat":43.31341,"lon":5.367098,"is_reserved":false,"is_disabled":false,"rental_uris":{"android":"levelo://app?vid=1768f595-fab9-431e-a005-e0909aaa484b","ios":"levelo://app?vid=1768f595-fab9-431e-a005-e0909aaa484b"},"vehicle_type_id":"4","last_reported":1700723181,"current_range_meters":28000,"station_id":"ce4bgr92rcd13ifvqc6g","pricing_plan_id":"free"},{"bike_id":"34a02d6a-8212-4217-bded-3ae62b452bee","system_id":"levelo_inurba_marseille","lat":43.313391,"lon":5.36706,"is_reserved":false,"is_disabled":false,"rental_uris":{"android":"levelo://app?vid=34a02d6a-8212-4217-bded-3ae62b452bee","ios":"levelo://app?vid=34a02d6a-8212-4217-bded-3ae62b452bee"},"vehicle_type_id":"4","last_reported":1700723181,"current_range_meters":28000,"station_id":"ce4bgr92rcd13ifvqc6g","pricing_plan_id":"free"},{"bike_id":"fb04de3c-9eaa-4762-8179-f3be38b83894","system_id":"levelo_inurba_marseille","lat":43.313391,"lon":5.36706,"is_reserved":false,"is_disabled":false,"rental_uris":{"android":"levelo://app?vid=fb04de3c-9eaa-4762-8179-f3be38b83894","ios":"levelo://app?vid=fb04de3c-9eaa-4762-8179-f3be38b83894"},"vehicle_type_id":"4","last_reported":1700723181,"current_range_meters":23600,"station_id":"ce4bgr92rcd13ifvqc6g","pricing_plan_id":"free"},{"bike_id":"8ed74204-3ba6-46f7-b2e2-df18e64b6292","system_id":"levelo_inurba_marseille","lat":43.313391,"lon":5.36706,"is_reserved":false,"is_disabled":false,"rental_uris":{"android":"levelo://app?vid=8ed74204-3ba6-46f7-b2e2-df18e64b6292","ios":"levelo://app?vid=8ed74204-3ba6-46f7-b2e2-df18e64b6292"},"vehicle_type_id":"4","last_reported":1700723181,"current_range_meters":22400,"station_id":"ce4bgr92rcd13ifvqc6g","pricing_plan_id":"free"},{"bike_id":"7e899761-78b5-438f-96de-98c4d07738fd","system_id":"levelo_inurba_marseille","lat":43.313391,"lon":5.36706,"is_reserved":false,"is_disabled":false,"rental_uris":{"android":"levelo://app?vid=7e899761-78b5-438f-96de-98c4d07738fd","ios":"levelo://app?vid=7e899761-78b5-438f-96de-98c4d07738fd"},"vehicle_type_id":"4","last_reported":1700723181,"current_range_meters":25200,"station_id":"ce4bgr92rcd13ifvqc6g","pricing_plan_id":"free"},{"bike_id":"11e4c34e-2094-4cc9-b500-97e6e514daa3","system_id":"levelo_inurba_marseille","lat":43.31159,"lon":5.36883,"is_reserved":false,"is_disabled":false,"rental_uris":{"android":"levelo://app?vid=11e4c34e-2094-4cc9-b500-97e6e514daa3","ios":"levelo://app?vid=11e4c34e-2094-4cc9-b500-97e6e514daa3"},"vehicle_type_id":"4","last_reported":1700723181,"current_range_meters":0,"station_id":"","pricing_plan_id":"free"},{"bike_id":"d7e20c8a-43fc-4d2f-8b42-0318ea13f856","system_id":"levelo_inurba_marseille","lat":43.309076,"lon":5.368465,"is_reserved":false,"is_disabled":false,"rental_uris":{"android":"levelo://app?vid=d7e20c8a-43fc-4d2f-8b42-0318ea13f856","ios":"levelo://app?vid=d7e20c8a-43fc-4d2f-8b42-0318ea13f856"},"vehicle_type_id":"4","last_reported":1700723181,"current_range_meters":24400,"station_id":"ce4bgn92rcd13ifvqbvg","pricing_plan_id":"free"},{"bike_id":"e1258976-c584-4696-8121-726e9fa9e5ed","system_id":"levelo_inurba_marseille","lat":43.309076,"lon":5.368465,"is_reserved":false,"is_disabled":false,"rental_uris":{"android":"levelo://app?vid=e1258976-c584-4696-8121-726e9fa9e5ed","ios":"levelo://app?vid=e1258976-c584-4696-8121-726e9fa9e5ed"},"vehicle_type_id":"4","last_reported":1700723181,"current_range_meters":30400,"station_id":"ce4bgn92rcd13ifvqbvg","pricing_plan_id":"free"},{"bike_id":"a051ff9a-aebc-4af4-a189-ec7cb125366f","system_id":"levelo_inurba_marseille","lat":43.314811,"lon":5.373103,"is_reserved":false,"is_disabled":false,"rental_uris":{"android":"levelo://app?vid=a051ff9a-aebc-4af4-a189-ec7cb125366f","ios":"levelo://app?vid=a051ff9a-aebc-4af4-a189-ec7cb125366f"},"vehicle_type_id":"4","last_reported":1700723181,"current_range_meters":28800,"station_id":"ce4bgt12rcd13ifvqcd0","pricing_plan_id":"free"},{"bike_id":"0b160585-c3f9-4f2d-978e-aabe0a6e8722","system_id":"levelo_inurba_marseille","lat":43.314811,"lon":5.373103,"is_reserved":false,"is_disabled":false,"rental_uris":{"android":"levelo://app?vid=0b160585-c3f9-4f2d-978e-aabe0a6e8722","ios":"levelo://app?vid=0b160585-c3f9-4f2d-978e-aabe0a6e8722"},"vehicle_type_id":"4","last_reported":1700723181,"current_range_meters":29600,"station_id":"ce4bgt12rcd13ifvqcd0","pricing_plan_id":"free"},{"bike_id":"761f01ed-f678-4a89-b2b0-7d2e0eff6db2","system_id":"levelo_inurba_marseille","lat":43.314811,"lon":5.373103,"is_reserved":false,"is_disabled":false,"rental_uris":{"android":"levelo://app?vid=761f01ed-f678-4a89-b2b0-7d2e0eff6db2","ios":"levelo://app?vid=761f01ed-f678-4a89-b2b0-7d2e0eff6db2"},"vehicle_type_id":"4","last_reported":1700723181,"current_range_meters":28400,"station_id":"ce4bgt12rcd13ifvqcd0","pricing_plan_id":"free"},{"bike_id":"2959f78f-854d-4bc8-846f-a7f4a0d79c59","system_id":"levelo_inurba_marseille","lat":43.31496,"lon":5.37304,"is_reserved":false,"is_disabled":false,"rental_uris":{"android":"levelo://app?vid=2959f78f-854d-4bc8-846f-a7f4a0d79c59","ios":"levelo://app?vid=2959f78f-854d-4bc8-846f-a7f4a0d79c59"},"vehicle_type_id":"4","last_reported":1700723181,"current_range_meters":30400,"station_id":"ce4bgt12rcd13ifvqcd0","pricing_plan_id":"free"},{"bike_id":"dfd49155-1a7c-41d4-a63f-10fd3c5225dc","system_id":"levelo_inurba_marseille","lat":43.309039,"lon":5.371797,"is_reserved":false,"is_disabled":false,"rental_uris":{"android":"levelo://app?vid=dfd49155-1a7c-41d4-a63f-10fd3c5225dc","ios":"levelo://app?vid=dfd49155-1a7c-41d4-a63f-10fd3c5225dc"},"vehicle_type_id":"4","last_reported":1700723181,"current_range_meters":24800,"station_id":"ce4bguh2rcd13ifvqckg","pricing_plan_id":"free"},{"bike_id":"a0132028-d961-4037-9bc1-f7ff4ea0f6eb","system_id":"levelo_inurba_marseille","lat":43.309039,"lon":5.371797,"is_reserved":false,"is_disabled":false,"rental_uris":{"android":"levelo://app?vid=a0132028-d961-4037-9bc1-f7ff4ea0f6eb","ios":"levelo://app?vid=a0132028-d961-4037-9bc1-f7ff4ea0f6eb"},"vehicle_type_id":"4","last_reported":1700723181,"current_range_meters":27600,"station_id":"ce4bguh2rcd13ifvqckg","pricing_plan_id":"free"},{"bike_id":"1b4f0ad4-3c00-4fb8-869a-855be304d4e3","system_id":"levelo_inurba_marseille","lat":43.313391,"lon":5.36706,"is_reserved":false,"is_disabled":false,"rental_uris":{"android":"levelo://app?vid=1b4f0ad4-3c00-4fb8-869a-855be304d4e3","ios":"levelo://app?vid=1b4f0ad4-3c00-4fb8-869a-855be304d4e3"},"vehicle_type_id":"4","last_reported":1700723181,"current_range_meters":12400,"station_id":"ce4bgr92rcd13ifvqc6g","pricing_plan_id":"free"},{"bike_id":"360eb71f-3370-4571-97ab-7bc75f8ac707","system_id":"levelo_inurba_marseille","lat":43.305439,"lon":5.367066,"is_reserved":false,"is_disabled":false,"rental_uris":{"android":"levelo://app?vid=360eb71f-3370-4571-97ab-7bc75f8ac707","ios":"levelo://app?vid=360eb71f-3370-4571-97ab-7bc75f8ac707"},"vehicle_type_id":"4","last_reported":1700723181,"current_range_meters":19200,"station_id":"ce4bgrp2rcd13ifvqc9g","pricing_plan_id":"free"},{"bike_id":"54b2b2b1-0d2a-4a33-8c7b-28d131713dd0","system_id":"levelo_inurba_marseille","lat":43.305706,"lon":5.365654,"is_reserved":false,"is_disabled":false,"rental_uris":{"android":"levelo://app?vid=54b2b2b1-0d2a-4a33-8c7b-28d131713dd0","ios":"levelo://app?vid=54b2b2b1-0d2a-4a33-8c7b-28d131713dd0"},"vehicle_type_id":"4","last_reported":1700723181,"current_range_meters":17200,"station_id":"ce4bgs12rcd13ifvqcag","pricing_plan_id":"free"},{"bike_id":"ccf87354-e17d-4e9d-9d65-627b26828219","system_id":"levelo_inurba_marseille","lat":43.305706,"lon":5.365654,"is_reserved":false,"is_disabled":false,"rental_uris":{"android":"levelo://app?vid=ccf87354-e17d-4e9d-9d65-627b26828219","ios":"levelo://app?vid=ccf87354-e17d-4e9d-9d65-627b26828219"},"vehicle_type_id":"4","last_reported":1700723181,"current_range_meters":14400,"station_id":"ce4bgs12rcd13ifvqcag","pricing_plan_id":"free"},{"bike_id":"1a8fa7f0-f496-4843-9340-ef17ff6ccfd9","system_id":"levelo_inurba_marseille","lat":43.305706,"lon":5.365654,"is_reserved":false,"is_disabled":false,"rental_uris":{"android":"levelo://app?vid=1a8fa7f0-f496-4843-9340-ef17ff6ccfd9","ios":"levelo://app?vid=1a8fa7f0-f496-4843-9340-ef17ff6ccfd9"},"vehicle_type_id":"4","last_reported":1700723181,"current_range_meters":25600,"station_id":"ce4bgs12rcd13ifvqcag","pricing_plan_id":"free"},{"bike_id":"9ad8ace3-ce0a-4bb1-8dfe-7967ca850548","system_id":"levelo_inurba_marseille","lat":43.305706,"lon":5.365654,"is_reserved":false,"is_disabled":false,"rental_uris":{"android":"levelo://app?vid=9ad8ace3-ce0a-4bb1-8dfe-7967ca850548","ios":"levelo://app?vid=9ad8ace3-ce0a-4bb1-8dfe-7967ca850548"},"vehicle_type_id":"4","last_reported":1700723181,"current_range_meters":4800,"station_id":"ce4bgs12rcd13ifvqcag","pricing_plan_id":"free"},{"bike_id":"37e54a6b-ee14-4b1c-8b64-20c3605015f5","system_id":"levelo_inurba_marseille","lat":43.30608,"lon":5.37229,"is_reserved":false,"is_disabled":false,"rental_uris":{"android":"levelo://app?vid=37e54a6b-ee14-4b1c-8b64-20c3605015f5","ios":"levelo://app?vid=37e54a6b-ee14-4b1c-8b64-20c3605015f5"},"vehicle_type_id":"4","last_reported":1700723181,"current_range_meters":28000,"station_id":"ce4bgqh2rcd13ifvqc4g","pricing_plan_id":"free"},{"bike_id":"1bac2fdc-8eb2-4aa3-b54c-89b4f52337f8","system_id":"levelo_inurba_marseille","lat":43.317075,"lon":5.377367,"is_reserved":false,"is_disabled":false,"rental_uris":{"android":"levelo://app?vid=1bac2fdc-8eb2-4aa3-b54c-89b4f52337f8","ios":"levelo://app?vid=1bac2fdc-8eb2-4aa3-b54c-89b4f52337f8"},"vehicle_type_id":"4","last_reported":1700723181,"current_range_meters":26800,"station_id":"ce4bgth2rcd13ifvqch0","pricing_plan_id":"free"},{"bike_id":"78293569-fc2d-4600-bc25-a9fd6bf6ca9f","system_id":"levelo_inurba_marseille","lat":43.303218,"lon":5.366238,"is_reserved":false,"is_disabled":false,"rental_uris":{"android":"levelo://app?vid=78293569-fc2d-4600-bc25-a9fd6bf6ca9f","ios":"levelo://app?vid=78293569-fc2d-4600-bc25-a9fd6bf6ca9f"},"vehicle_type_id":"4","last_reported":1700723181,"current_range_meters":0,"station_id":"","pricing_plan_id":"free"},{"bike_id":"e2b6fa0e-fca0-4cf3-9db3-bf6c50a809c6","system_id":"levelo_inurba_marseille","lat":43.301939,"lon":5.366286,"is_reserved":false,"is_disabled":false,"rental_uris":{"android":"levelo://app?vid=e2b6fa0e-fca0-4cf3-9db3-bf6c50a809c6","ios":"levelo://app?vid=e2b6fa0e-fca0-4cf3-9db3-bf6c50a809c6"},"vehicle_type_id":"4","last_reported":1700723181,"current_range_meters":29600,"station_id":"ce4bgrh2rcd13ifvqc8g","pricing_plan_id":"free"},{"bike_id":"0327687b-f51e-4077-bf49-2ec73a6de092","system_id":"levelo_inurba_marseille","lat":43.32228,"lon":5.37552,"is_reserved":false,"is_disabled":false,"rental_uris":{"android":"levelo://app?vid=0327687b-f51e-4077-bf49-2ec73a6de092","ios":"levelo://app?vid=0327687b-f51e-4077-bf49-2ec73a6de092"},"vehicle_type_id":"4","last_reported":1700723181,"current_range_meters":12800,"station_id":"","pricing_plan_id":"free"},{"bike_id":"0f20d2a9-7f8c-4540-a07a-3d6cf7c04ee7","system_id":"levelo_inurba_marseille","lat":43.304606,"lon":5.379026,"is_reserved":false,"is_disabled":false,"rental_uris":{"android":"levelo://app?vid=0f20d2a9-7f8c-4540-a07a-3d6cf7c04ee7","ios":"levelo://app?vid=0f20d2a9-7f8c-4540-a07a-3d6cf7c04ee7"},"vehicle_type_id":"4","last_reported":1700723181,"current_range_meters":31200,"station_id":"ce4bgup2rcd13ifvqcn0","pricing_plan_id":"free"},{"bike_id":"c1bff6f9-bcfd-4b92-abc5-5a8fc9004054","system_id":"levelo_inurba_marseille","lat":43.304606,"lon":5.379026,"is_reserved":false,"is_disabled":false,"rental_uris":{"android":"levelo://app?vid=c1bff6f9-bcfd-4b92-abc5-5a8fc9004054","ios":"levelo://app?vid=c1bff6f9-bcfd-4b92-abc5-5a8fc9004054"},"vehicle_type_id":"4","last_reported":1700723181,"current_range_meters":14400,"station_id":"ce4bgup2rcd13ifvqcn0","pricing_plan_id":"free"},{"bike_id":"0094ba88-5e0b-4e42-936e-f97a23693789","system_id":"levelo_inurba_marseille","lat":43.304606,"lon":5.379026,"is_reserved":false,"is_disabled":false,"rental_uris":{"android":"levelo://app?vid=0094ba88-5e0b-4e42-936e-f97a23693789","ios":"levelo://app?vid=0094ba88-5e0b-4e42-936e-f97a23693789"},"vehicle_type_id":"4","last_reported":1700723181,"current_range_meters":17600,"station_id":"ce4bgup2rcd13ifvqcn0","pricing_plan_id":"free"},{"bike_id":"f3284485-3bc0-43ff-bbe6-8daf493ac314","system_id":"levelo_inurba_marseille","lat":43.302864,"lon":5.376926,"is_reserved":false,"is_disabled":false,"rental_uris":{"android":"levelo://app?vid=f3284485-3bc0-43ff-bbe6-8daf493ac314","ios":"levelo://app?vid=f3284485-3bc0-43ff-bbe6-8daf493ac314"},"vehicle_type_id":"4","last_reported":1700723181,"current_range_meters":18800,"station_id":"ce4bguh2rcd13ifvqcj0","pricing_plan_id":"free"},{"bike_id":"fcaa73e9-78ce-4ff8-8e99-0d157d1fb0f9","system_id":"levelo_inurba_marseille","lat":43.302784,"lon":5.377158,"is_reserved":false,"is_disabled":false,"rental_uris":{"android":"levelo://app?vid=fcaa73e9-78ce-4ff8-8e99-0d157d1fb0f9","ios":"levelo://app?vid=fcaa73e9-78ce-4ff8-8e99-0d157d1fb0f9"},"vehicle_type_id":"4","last_reported":1700723181,"current_range_meters":800,"station_id":"ce4bguh2rcd13ifvqcj0","pricing_plan_id":"free"},{"bike_id":"f9f3de29-30a3-4e0e-9d7e-fbb5f7953c08","system_id":"levelo_inurba_marseille","lat":43.299745,"lon":5.371798,"is_reserved":false,"is_disabled":false,"rental_uris":{"android":"levelo://app?vid=f9f3de29-30a3-4e0e-9d7e-fbb5f7953c08","ios":"levelo://app?vid=f9f3de29-30a3-4e0e-9d7e-fbb5f7953c08"},"vehicle_type_id":"4","last_reported":1700723181,"current_range_meters":0,"station_id":"ce4bgr92rcd13ifvqc7g","pricing_plan_id":"free"},{"bike_id":"d0d084bb-3e79-48d4-b5c0-6031b575a1fe","system_id":"levelo_inurba_marseille","lat":43.298433,"lon":5.362774,"is_reserved":false,"is_disabled":false,"rental_uris":{"android":"levelo://app?vid=d0d084bb-3e79-48d4-b5c0-6031b575a1fe","ios":"levelo://app?vid=d0d084bb-3e79-48d4-b5c0-6031b575a1fe"},"vehicle_type_id":"4","last_reported":1700723181,"current_range_meters":22400,"station_id":"ce4bgpp2rcd13ifvqc3g","pricing_plan_id":"free"},{"bike_id":"eb3b7a40-18f3-41d0-8f21-d8d72117a863","system_id":"levelo_inurba_marseille","lat":43.305364,"lon":5.384119,"is_reserved":false,"is_disabled":false,"rental_uris":{"android":"levelo://app?vid=eb3b7a40-18f3-41d0-8f21-d8d72117a863","ios":"levelo://app?vid=eb3b7a40-18f3-41d0-8f21-d8d72117a863"},"vehicle_type_id":"4","last_reported":1700723181,"current_range_meters":28400,"station_id":"ce4bgg92rcd13ifvqb30","pricing_plan_id":"free"},{"bike_id":"776891f2-1c16-47dd-88dc-3af0db02f903","system_id":"levelo_inurba_marseille","lat":43.30539,"lon":5.38432,"is_reserved":false,"is_disabled":false,"rental_uris":{"android":"levelo://app?vid=776891f2-1c16-47dd-88dc-3af0db02f903","ios":"levelo://app?vid=776891f2-1c16-47dd-88dc-3af0db02f903"},"vehicle_type_id":"4","last_reported":1700723181,"current_range_meters":5200,"station_id":"ce4bgg92rcd13ifvqb30","pricing_plan_id":"free"},{"bike_id":"2590b436-fa30-4878-aa0b-49ee90b240e4","system_id":"levelo_inurba_marseille","lat":43.298433,"lon":5.362774,"is_reserved":false,"is_disabled":false,"rental_uris":{"android":"levelo://app?vid=2590b436-fa30-4878-aa0b-49ee90b240e4","ios":"levelo://app?vid=2590b436-fa30-4878-aa0b-49ee90b240e4"},"vehicle_type_id":"4","last_reported":1700723181,"current_range_meters":24000,"station_id":"ce4bgpp2rcd13ifvqc3g","pricing_plan_id":"free"},{"bike_id":"7d4a6651-71ae-43bb-80e1-b8369169a06c","system_id":"levelo_inurba_marseille","lat":43.305331,"lon":5.38435,"is_reserved":false,"is_disabled":false,"rental_uris":{"android":"levelo://app?vid=7d4a6651-71ae-43bb-80e1-b8369169a06c","ios":"levelo://app?vid=7d4a6651-71ae-43bb-80e1-b8369169a06c"},"vehicle_type_id":"4","last_reported":1700723181,"current_range_meters":26000,"station_id":"ce4bgg92rcd13ifvqb30","pricing_plan_id":"free"},{"bike_id":"a88f36db-e026-428a-abfd-886fdf4f0eaa","system_id":"levelo_inurba_marseille","lat":43.299243,"lon":5.374807,"is_reserved":false,"is_disabled":false,"rental_uris":{"android":"levelo://app?vid=a88f36db-e026-428a-abfd-886fdf4f0eaa","ios":"levelo://app?vid=a88f36db-e026-428a-abfd-886fdf4f0eaa"},"vehicle_type_id":"4","last_reported":1700723181,"current_range_meters":25200,"station_id":"ce4bgjh2rcd13ifvqbg0","pricing_plan_id":"free"},{"bike_id":"864edbaa-7308-402e-8388-669432c13aa5","system_id":"levelo_inurba_marseille","lat":43.297774,"lon":5.370875,"is_reserved":false,"is_disabled":false,"rental_uris":{"android":"levelo://app?vid=864edbaa-7308-402e-8388-669432c13aa5","ios":"levelo://app?vid=864edbaa-7308-402e-8388-669432c13aa5"},"vehicle_type_id":"4","last_reported":1700723181,"current_range_meters":29200,"station_id":"ce4bgop2rcd13ifvqc1g","pricing_plan_id":"free"},{"bike_id":"41e752ae-b644-47ad-afd9-eb4d069b1b2a","system_id":"levelo_inurba_marseille","lat":43.322872,"lon":5.382756,"is_reserved":false,"is_disabled":false,"rental_uris":{"android":"levelo://app?vid=41e752ae-b644-47ad-afd9-eb4d069b1b2a","ios":"levelo://app?vid=41e752ae-b644-47ad-afd9-eb4d069b1b2a"},"vehicle_type_id":"4","last_reported":1700723181,"current_range_meters":1200,"station_id":"ce4bhr12rcd13ifvqhqg","pricing_plan_id":"free"},{"bike_id":"dfae9b1a-03e1-4fc4-8e2a-2442e4091a91","system_id":"levelo_inurba_marseille","lat":43.322872,"lon":5.382756,"is_reserved":false,"is_disabled":false,"rental_uris":{"android":"levelo://app?vid=dfae9b1a-03e1-4fc4-8e2a-2442e4091a91","ios":"levelo://app?vid=dfae9b1a-03e1-4fc4-8e2a-2442e4091a91"},"vehicle_type_id":"4","last_reported":1700723181,"current_range_meters":31200,"station_id":"ce4bhr12rcd13ifvqhqg","pricing_plan_id":"free"},{"bike_id":"848c39e2-0f2e-4bd0-a037-15c2d92afebc","system_id":"levelo_inurba_marseille","lat":43.32824,"lon":5.36686,"is_reserved":false,"is_disabled":false,"rental_uris":{"android":"levelo://app?vid=848c39e2-0f2e-4bd0-a037-15c2d92afebc","ios":"levelo://app?vid=848c39e2-0f2e-4bd0-a037-15c2d92afebc"},"vehicle_type_id":"4","last_reported":1700723181,"current_range_meters":24400,"station_id":"ce4bhs92rcd13ifvqi0g","pricing_plan_id":"free"},{"bike_id":"5dd49401-a934-4476-b096-9e29a8f5137b","system_id":"levelo_inurba_marseille","lat":43.32825,"lon":5.3669,"is_reserved":false,"is_disabled":false,"rental_uris":{"android":"levelo://app?vid=5dd49401-a934-4476-b096-9e29a8f5137b","ios":"levelo://app?vid=5dd49401-a934-4476-b096-9e29a8f5137b"},"vehicle_type_id":"4","last_reported":1700723181,"current_range_meters":20800,"station_id":"ce4bhs92rcd13ifvqi0g","pricing_plan_id":"free"},{"bike_id":"aeec75a0-fcf4-4fa9-a836-bd20ca8a1984","system_id":"levelo_inurba_marseille","lat":43.328371,"lon":5.366909,"is_reserved":false,"is_disabled":false,"rental_uris":{"android":"levelo://app?vid=aeec75a0-fcf4-4fa9-a836-bd20ca8a1984","ios":"levelo://app?vid=aeec75a0-fcf4-4fa9-a836-bd20ca8a1984"},"vehicle_type_id":"4","last_reported":1700723181,"current_range_meters":18400,"station_id":"ce4bhs92rcd13ifvqi0g","pricing_plan_id":"free"},{"bike_id":"5c5e1c38-d918-4570-b734-020cbc3b42e9","system_id":"levelo_inurba_marseille","lat":43.297163,"lon":5.365866,"is_reserved":false,"is_disabled":false,"rental_uris":{"android":"levelo://app?vid=5c5e1c38-d918-4570-b734-020cbc3b42e9","ios":"levelo://app?vid=5c5e1c38-d918-4570-b734-020cbc3b42e9"},"vehicle_type_id":"4","last_reported":1700723181,"current_range_meters":24800,"station_id":"ce4bgn12rcd13ifvqbt0","pricing_plan_id":"free"},{"bike_id":"4d7509f5-9559-42ca-a60d-bef9e80f0981","system_id":"levelo_inurba_marseille","lat":43.299624,"lon":5.379228,"is_reserved":false,"is_disabled":false,"rental_uris":{"android":"levelo://app?vid=4d7509f5-9559-42ca-a60d-bef9e80f0981","ios":"levelo://app?vid=4d7509f5-9559-42ca-a60d-bef9e80f0981"},"vehicle_type_id":"4","last_reported":1700723181,"current_range_meters":0,"station_id":"","pricing_plan_id":"free"},{"bike_id":"f2e29894-d678-42aa-87e5-1b70dec5c0b1","system_id":"levelo_inurba_marseille","lat":43.29639,"lon":5.36238,"is_reserved":false,"is_disabled":false,"rental_uris":{"android":"levelo://app?vid=f2e29894-d678-42aa-87e5-1b70dec5c0b1","ios":"levelo://app?vid=f2e29894-d678-42aa-87e5-1b70dec5c0b1"},"vehicle_type_id":"4","last_reported":1700723181,"current_range_meters":0,"station_id":"","pricing_plan_id":"free"},{"bike_id":"6c8e5b9c-9e74-4ca0-a206-8aa328776a98","system_id":"levelo_inurba_marseille","lat":43.296921,"lon":5.376579,"is_reserved":false,"is_disabled":false,"rental_uris":{"android":"levelo://app?vid=6c8e5b9c-9e74-4ca0-a206-8aa328776a98","ios":"levelo://app?vid=6c8e5b9c-9e74-4ca0-a206-8aa328776a98"},"vehicle_type_id":"4","last_reported":1700723181,"current_range_meters":26800,"station_id":"ce4bgkh2rcd13ifvqbl0","pricing_plan_id":"free"},{"bike_id":"cbe2f919-f1ff-4ce7-9b06-28e49273b272","system_id":"levelo_inurba_marseille","lat":43.297165,"lon":5.377008,"is_reserved":false,"is_disabled":false,"rental_uris":{"android":"levelo://app?vid=cbe2f919-f1ff-4ce7-9b06-28e49273b272","ios":"levelo://app?vid=cbe2f919-f1ff-4ce7-9b06-28e49273b272"},"vehicle_type_id":"4","last_reported":1700723181,"current_range_meters":20000,"station_id":"","pricing_plan_id":"free"},{"bike_id":"1fbd2076-d854-47d7-b74e-0674a9e3d782","system_id":"levelo_inurba_marseille","lat":43.29894,"lon":5.38132,"is_reserved":false,"is_disabled":false,"rental_uris":{"android":"levelo://app?vid=1fbd2076-d854-47d7-b74e-0674a9e3d782","ios":"levelo://app?vid=1fbd2076-d854-47d7-b74e-0674a9e3d782"},"vehicle_type_id":"4","last_reported":1700723181,"current_range_meters":25200,"station_id":"","pricing_plan_id":"free"},{"bike_id":"5ef83d7f-c092-4d74-ba35-07b40f099de1","system_id":"levelo_inurba_marseille","lat":43.299028,"lon":5.381509,"is_reserved":false,"is_disabled":false,"rental_uris":{"android":"levelo://app?vid=5ef83d7f-c092-4d74-ba35-07b40f099de1","ios":"levelo://app?vid=5ef83d7f-c092-4d74-ba35-07b40f099de1"},"vehicle_type_id":"4","last_reported":1700723181,"current_range_meters":28400,"station_id":"ce4bgj12rcd13ifvqbc0","pricing_plan_id":"free"},{"bike_id":"d02195d9-a7cf-4d90-8f2f-81de225dfac0","system_id":"levelo_inurba_marseille","lat":43.299028,"lon":5.381509,"is_reserved":false,"is_disabled":false,"rental_uris":{"android":"levelo://app?vid=d02195d9-a7cf-4d90-8f2f-81de225dfac0","ios":"levelo://app?vid=d02195d9-a7cf-4d90-8f2f-81de225dfac0"},"vehicle_type_id":"4","last_reported":1700723181,"current_range_meters":19600,"station_id":"ce4bgj12rcd13ifvqbc0","pricing_plan_id":"free"},{"bike_id":"75a708c9-23f8-4179-8829-53a24a460585","system_id":"levelo_inurba_marseille","lat":43.299028,"lon":5.381509,"is_reserved":false,"is_disabled":false,"rental_uris":{"android":"levelo://app?vid=75a708c9-23f8-4179-8829-53a24a460585","ios":"levelo://app?vid=75a708c9-23f8-4179-8829-53a24a460585"},"vehicle_type_id":"4","last_reported":1700723181,"current_range_meters":26000,"station_id":"ce4bgj12rcd13ifvqbc0","pricing_plan_id":"free"},{"bike_id":"9fb402a7-7a41-4473-81d2-1fec663a6035","system_id":"levelo_inurba_marseille","lat":43.305555,"lon":5.388755,"is_reserved":false,"is_disabled":false,"rental_uris":{"android":"levelo://app?vid=9fb402a7-7a41-4473-81d2-1fec663a6035","ios":"levelo://app?vid=9fb402a7-7a41-4473-81d2-1fec663a6035"},"vehicle_type_id":"4","last_reported":1700723181,"current_range_meters":21600,"station_id":"","pricing_plan_id":"free"},{"bike_id":"12801275-dcc5-4cda-bb14-0c800e4e7d37","system_id":"levelo_inurba_marseille","lat":43.317557,"lon":5.390173,"is_reserved":false,"is_disabled":false,"rental_uris":{"android":"levelo://app?vid=12801275-dcc5-4cda-bb14-0c800e4e7d37","ios":"levelo://app?vid=12801275-dcc5-4cda-bb14-0c800e4e7d37"},"vehicle_type_id":"4","last_reported":1700723181,"current_range_meters":12400,"station_id":"ce4bhqp2rcd13ifvqhng","pricing_plan_id":"free"},{"bike_id":"bbb1c554-6af0-45c8-9920-5037047e993e","system_id":"levelo_inurba_marseille","lat":43.298037,"lon":5.381066,"is_reserved":false,"is_disabled":false,"rental_uris":{"android":"levelo://app?vid=bbb1c554-6af0-45c8-9920-5037047e993e","ios":"levelo://app?vid=bbb1c554-6af0-45c8-9920-5037047e993e"},"vehicle_type_id":"4","last_reported":1700723181,"current_range_meters":23600,"station_id":"ce4bgip2rcd13ifvqbb0","pricing_plan_id":"free"},{"bike_id":"85f55eb5-f1e9-4129-9e97-7f16cee6e79d","system_id":"levelo_inurba_marseille","lat":43.304274,"lon":5.388873,"is_reserved":false,"is_disabled":false,"rental_uris":{"android":"levelo://app?vid=85f55eb5-f1e9-4129-9e97-7f16cee6e79d","ios":"levelo://app?vid=85f55eb5-f1e9-4129-9e97-7f16cee6e79d"},"vehicle_type_id":"4","last_reported":1700723181,"current_range_meters":25200,"station_id":"ce4bgk12rcd13ifvqbi0","pricing_plan_id":"free"},{"bike_id":"0ad954a8-40c0-4169-be29-9f660bf4bc8f","system_id":"levelo_inurba_marseille","lat":43.298037,"lon":5.381066,"is_reserved":false,"is_disabled":false,"rental_uris":{"android":"levelo://app?vid=0ad954a8-40c0-4169-be29-9f660bf4bc8f","ios":"levelo://app?vid=0ad954a8-40c0-4169-be29-9f660bf4bc8f"},"vehicle_type_id":"4","last_reported":1700723181,"current_range_meters":30000,"station_id":"ce4bgip2rcd13ifvqbb0","pricing_plan_id":"free"},{"bike_id":"755dac38-2f32-47ee-a3f9-1d764fe6349c","system_id":"levelo_inurba_marseille","lat":43.298037,"lon":5.381066,"is_reserved":false,"is_disabled":false,"rental_uris":{"android":"levelo://app?vid=755dac38-2f32-47ee-a3f9-1d764fe6349c","ios":"levelo://app?vid=755dac38-2f32-47ee-a3f9-1d764fe6349c"},"vehicle_type_id":"4","last_reported":1700723181,"current_range_meters":29600,"station_id":"ce4bgip2rcd13ifvqbb0","pricing_plan_id":"free"},{"bike_id":"a43af92f-e6ec-4dad-b0c6-417649c9b07e","system_id":"levelo_inurba_marseille","lat":43.296263,"lon":5.377094,"is_reserved":false,"is_disabled":false,"rental_uris":{"android":"levelo://app?vid=a43af92f-e6ec-4dad-b0c6-417649c9b07e","ios":"levelo://app?vid=a43af92f-e6ec-4dad-b0c6-417649c9b07e"},"vehicle_type_id":"4","last_reported":1700723181,"current_range_meters":24400,"station_id":"ce4bgi92rcd13ifvqb90","pricing_plan_id":"free"},{"bike_id":"555f5bd3-7c01-49b2-bdea-123abec072d5","system_id":"levelo_inurba_marseille","lat":43.29777,"lon":5.38098,"is_reserved":false,"is_disabled":false,"rental_uris":{"android":"levelo://app?vid=555f5bd3-7c01-49b2-bdea-123abec072d5","ios":"levelo://app?vid=555f5bd3-7c01-49b2-bdea-123abec072d5"},"vehicle_type_id":"4","last_reported":1700723181,"current_range_meters":0,"station_id":"ce4bgip2rcd13ifvqbb0","pricing_plan_id":"free"},{"bike_id":"7ec1c75b-0c1d-4249-b8f4-6eb1900956c9","system_id":"levelo_inurba_marseille","lat":43.296263,"lon":5.377094,"is_reserved":false,"is_disabled":false,"rental_uris":{"android":"levelo://app?vid=7ec1c75b-0c1d-4249-b8f4-6eb1900956c9","ios":"levelo://app?vid=7ec1c75b-0c1d-4249-b8f4-6eb1900956c9"},"vehicle_type_id":"4","last_reported":1700723181,"current_range_meters":31200,"station_id":"ce4bgi92rcd13ifvqb90","pricing_plan_id":"free"},{"bike_id":"0ce5a820-5579-4bd7-a5aa-3f371f6afe37","system_id":"levelo_inurba_marseille","lat":43.296263,"lon":5.377094,"is_reserved":false,"is_disabled":false,"rental_uris":{"android":"levelo://app?vid=0ce5a820-5579-4bd7-a5aa-3f371f6afe37","ios":"levelo://app?vid=0ce5a820-5579-4bd7-a5aa-3f371f6afe37"},"vehicle_type_id":"4","last_reported":1700723181,"current_range_meters":28800,"station_id":"ce4bgi92rcd13ifvqb90","pricing_plan_id":"free"},{"bike_id":"0abe7e2b-f1c1-45c9-a809-dd5e0f717cbd","system_id":"levelo_inurba_marseille","lat":43.295748,"lon":5.37522,"is_reserved":false,"is_disabled":false,"rental_uris":{"android":"levelo://app?vid=0abe7e2b-f1c1-45c9-a809-dd5e0f717cbd","ios":"levelo://app?vid=0abe7e2b-f1c1-45c9-a809-dd5e0f717cbd"},"vehicle_type_id":"4","last_reported":1700723181,"current_range_meters":18400,"station_id":"ce4bgh92rcd13ifvqb50","pricing_plan_id":"free"},{"bike_id":"f2926e51-5848-4651-afbb-0834d31bb6a3","system_id":"levelo_inurba_marseille","lat":43.295279,"lon":5.375048,"is_reserved":false,"is_disabled":false,"rental_uris":{"android":"levelo://app?vid=f2926e51-5848-4651-afbb-0834d31bb6a3","ios":"levelo://app?vid=f2926e51-5848-4651-afbb-0834d31bb6a3"},"vehicle_type_id":"4","last_reported":1700723181,"current_range_meters":30000,"station_id":"ce4bgkp2rcd13ifvqbmg","pricing_plan_id":"free"},{"bike_id":"a4126061-09a2-4a27-88df-f690ba5f395a","system_id":"levelo_inurba_marseille","lat":43.32369,"lon":5.388378,"is_reserved":false,"is_disabled":false,"rental_uris":{"android":"levelo://app?vid=a4126061-09a2-4a27-88df-f690ba5f395a","ios":"levelo://app?vid=a4126061-09a2-4a27-88df-f690ba5f395a"},"vehicle_type_id":"4","last_reported":1700723181,"current_range_meters":17200,"station_id":"ce4bhqp2rcd13ifvqhog","pricing_plan_id":"free"},{"bike_id":"6b621983-5e9e-42f7-990d-ad5a093820d2","system_id":"levelo_inurba_marseille","lat":43.293801,"lon":5.363066,"is_reserved":false,"is_disabled":false,"rental_uris":{"android":"levelo://app?vid=6b621983-5e9e-42f7-990d-ad5a093820d2","ios":"levelo://app?vid=6b621983-5e9e-42f7-990d-ad5a093820d2"},"vehicle_type_id":"4","last_reported":1700723181,"current_range_meters":9200,"station_id":"","pricing_plan_id":"free"},{"bike_id":"f9f47614-b6e8-4423-a63c-25b7777e1c3b","system_id":"levelo_inurba_marseille","lat":43.29601,"lon":5.381084,"is_reserved":false,"is_disabled":false,"rental_uris":{"android":"levelo://app?vid=f9f47614-b6e8-4423-a63c-25b7777e1c3b","ios":"levelo://app?vid=f9f47614-b6e8-4423-a63c-25b7777e1c3b"},"vehicle_type_id":"4","last_reported":1700723181,"current_range_meters":31200,"station_id":"ce4bgl12rcd13ifvqbo0","pricing_plan_id":"free"},{"bike_id":"1167e948-22e4-4b36-a85e-12fa307f6a88","system_id":"levelo_inurba_marseille","lat":43.29601,"lon":5.381084,"is_reserved":false,"is_disabled":false,"rental_uris":{"android":"levelo://app?vid=1167e948-22e4-4b36-a85e-12fa307f6a88","ios":"levelo://app?vid=1167e948-22e4-4b36-a85e-12fa307f6a88"},"vehicle_type_id":"4","last_reported":1700723181,"current_range_meters":10000,"station_id":"ce4bgl12rcd13ifvqbo0","pricing_plan_id":"free"},{"bike_id":"c9de962c-d83d-47bf-82a8-498686f2bb23","system_id":"levelo_inurba_marseille","lat":43.29602,"lon":5.381084,"is_reserved":false,"is_disabled":false,"rental_uris":{"android":"levelo://app?vid=c9de962c-d83d-47bf-82a8-498686f2bb23","ios":"levelo://app?vid=c9de962c-d83d-47bf-82a8-498686f2bb23"},"vehicle_type_id":"4","last_reported":1700723181,"current_range_meters":21200,"station_id":"ce4bgl12rcd13ifvqbo0","pricing_plan_id":"free"},{"bike_id":"58f569f2-b419-4caa-8381-fb3db1b92150","system_id":"levelo_inurba_marseille","lat":43.305994,"lon":5.393687,"is_reserved":false,"is_disabled":false,"rental_uris":{"android":"levelo://app?vid=58f569f2-b419-4caa-8381-fb3db1b92150","ios":"levelo://app?vid=58f569f2-b419-4caa-8381-fb3db1b92150"},"vehicle_type_id":"4","last_reported":1700723181,"current_range_meters":30800,"station_id":"ce4bh0p2rcd13ifvqd80","pricing_plan_id":"free"},{"bike_id":"307e5f51-41e7-43b6-b376-73391c9f4bc6","system_id":"levelo_inurba_marseille","lat":43.305994,"lon":5.393687,"is_reserved":false,"is_disabled":false,"rental_uris":{"android":"levelo://app?vid=307e5f51-41e7-43b6-b376-73391c9f4bc6","ios":"levelo://app?vid=307e5f51-41e7-43b6-b376-73391c9f4bc6"},"vehicle_type_id":"4","last_reported":1700723181,"current_range_meters":26400,"station_id":"ce4bh0p2rcd13ifvqd80","pricing_plan_id":"free"},{"bike_id":"4f0b12c0-3388-437e-b94e-e99ba34e2e8c","system_id":"levelo_inurba_marseille","lat":43.305994,"lon":5.393687,"is_reserved":false,"is_disabled":false,"rental_uris":{"android":"levelo://app?vid=4f0b12c0-3388-437e-b94e-e99ba34e2e8c","ios":"levelo://app?vid=4f0b12c0-3388-437e-b94e-e99ba34e2e8c"},"vehicle_type_id":"4","last_reported":1700723181,"current_range_meters":18800,"station_id":"ce4bh0p2rcd13ifvqd80","pricing_plan_id":"free"},{"bike_id":"ab0ad420-537e-4c5b-9fc8-290d3b35fe35","system_id":"levelo_inurba_marseille","lat":43.305994,"lon":5.393687,"is_reserved":false,"is_disabled":false,"rental_uris":{"android":"levelo://app?vid=ab0ad420-537e-4c5b-9fc8-290d3b35fe35","ios":"levelo://app?vid=ab0ad420-537e-4c5b-9fc8-290d3b35fe35"},"vehicle_type_id":"4","last_reported":1700723181,"current_range_meters":22000,"station_id":"ce4bh0p2rcd13ifvqd80","pricing_plan_id":"free"},{"bike_id":"6a8289e9-55d4-401b-9398-a38823524a5d","system_id":"levelo_inurba_marseille","lat":43.305994,"lon":5.393687,"is_reserved":false,"is_disabled":false,"rental_uris":{"android":"levelo://app?vid=6a8289e9-55d4-401b-9398-a38823524a5d","ios":"levelo://app?vid=6a8289e9-55d4-401b-9398-a38823524a5d"},"vehicle_type_id":"4","last_reported":1700723181,"current_range_meters":24400,"station_id":"ce4bh0p2rcd13ifvqd80","pricing_plan_id":"free"},{"bike_id":"1fd72b32-230b-4e8f-9e2b-d8c9e97b9767","system_id":"levelo_inurba_marseille","lat":43.2936,"lon":5.37835,"is_reserved":false,"is_disabled":false,"rental_uris":{"android":"levelo://app?vid=1fd72b32-230b-4e8f-9e2b-d8c9e97b9767","ios":"levelo://app?vid=1fd72b32-230b-4e8f-9e2b-d8c9e97b9767"},"vehicle_type_id":"4","last_reported":1700723181,"current_range_meters":28800,"station_id":"ce4bgjh2rcd13ifvqbf0","pricing_plan_id":"free"},{"bike_id":"6123853c-ae1d-40f3-9672-7dc15989ef1f","system_id":"levelo_inurba_marseille","lat":43.2936,"lon":5.37835,"is_reserved":false,"is_disabled":false,"rental_uris":{"android":"levelo://app?vid=6123853c-ae1d-40f3-9672-7dc15989ef1f","ios":"levelo://app?vid=6123853c-ae1d-40f3-9672-7dc15989ef1f"},"vehicle_type_id":"4","last_reported":1700723181,"current_range_meters":4000,"station_id":"ce4bgjh2rcd13ifvqbf0","pricing_plan_id":"free"},{"bike_id":"bb860305-0cb6-4ee1-8b8a-ba788147d446","system_id":"levelo_inurba_marseille","lat":43.292311,"lon":5.360731,"is_reserved":false,"is_disabled":false,"rental_uris":{"android":"levelo://app?vid=bb860305-0cb6-4ee1-8b8a-ba788147d446","ios":"levelo://app?vid=bb860305-0cb6-4ee1-8b8a-ba788147d446"},"vehicle_type_id":"4","last_reported":1700723181,"current_range_meters":20800,"station_id":"ce4bhbh2rcd13ifvqeqg","pricing_plan_id":"free"},{"bike_id":"2b785068-c0dd-4f84-8965-a6518c3acf03","system_id":"levelo_inurba_marseille","lat":43.292311,"lon":5.360731,"is_reserved":false,"is_disabled":false,"rental_uris":{"android":"levelo://app?vid=2b785068-c0dd-4f84-8965-a6518c3acf03","ios":"levelo://app?vid=2b785068-c0dd-4f84-8965-a6518c3acf03"},"vehicle_type_id":"4","last_reported":1700723181,"current_range_meters":23600,"station_id":"ce4bhbh2rcd13ifvqeqg","pricing_plan_id":"free"},{"bike_id":"2c46555e-95c0-4f7f-b24d-45121e622da2","system_id":"levelo_inurba_marseille","lat":43.291994,"lon":5.357886,"is_reserved":false,"is_disabled":false,"rental_uris":{"android":"levelo://app?vid=2c46555e-95c0-4f7f-b24d-45121e622da2","ios":"levelo://app?vid=2c46555e-95c0-4f7f-b24d-45121e622da2"},"vehicle_type_id":"4","last_reported":1700723181,"current_range_meters":20800,"station_id":"ce4bhb12rcd13ifvqel0","pricing_plan_id":"free"},{"bike_id":"1d10a1b1-d55f-4279-928a-9c6858f32ca9","system_id":"levelo_inurba_marseille","lat":43.33211,"lon":5.38112,"is_reserved":false,"is_disabled":false,"rental_uris":{"android":"levelo://app?vid=1d10a1b1-d55f-4279-928a-9c6858f32ca9","ios":"levelo://app?vid=1d10a1b1-d55f-4279-928a-9c6858f32ca9"},"vehicle_type_id":"4","last_reported":1700723181,"current_range_meters":800,"station_id":"","pricing_plan_id":"free"},{"bike_id":"971ec13e-d0f8-4162-a36d-ebf8ceb334cd","system_id":"levelo_inurba_marseille","lat":43.29529,"lon":5.385581,"is_reserved":false,"is_disabled":false,"rental_uris":{"android":"levelo://app?vid=971ec13e-d0f8-4162-a36d-ebf8ceb334cd","ios":"levelo://app?vid=971ec13e-d0f8-4162-a36d-ebf8ceb334cd"},"vehicle_type_id":"4","last_reported":1700723181,"current_range_meters":23200,"station_id":"ce4bgih2rcd13ifvqba0","pricing_plan_id":"free"},{"bike_id":"e440c0b5-a916-4fde-9a64-151be802602e","system_id":"levelo_inurba_marseille","lat":43.302008,"lon":5.394694,"is_reserved":false,"is_disabled":false,"rental_uris":{"android":"levelo://app?vid=e440c0b5-a916-4fde-9a64-151be802602e","ios":"levelo://app?vid=e440c0b5-a916-4fde-9a64-151be802602e"},"vehicle_type_id":"4","last_reported":1700723181,"current_range_meters":31200,"station_id":"ce4bh0p2rcd13ifvqd70","pricing_plan_id":"free"},{"bike_id":"1038d892-f29a-4b59-b2ef-925f0f0989c2","system_id":"levelo_inurba_marseille","lat":43.302008,"lon":5.394694,"is_reserved":false,"is_disabled":false,"rental_uris":{"android":"levelo://app?vid=1038d892-f29a-4b59-b2ef-925f0f0989c2","ios":"levelo://app?vid=1038d892-f29a-4b59-b2ef-925f0f0989c2"},"vehicle_type_id":"4","last_reported":1700723181,"current_range_meters":24000,"station_id":"ce4bh0p2rcd13ifvqd70","pricing_plan_id":"free"},{"bike_id":"53b09686-9639-4142-b57d-b861b5e79750","system_id":"levelo_inurba_marseille","lat":43.302008,"lon":5.394694,"is_reserved":false,"is_disabled":false,"rental_uris":{"android":"levelo://app?vid=53b09686-9639-4142-b57d-b861b5e79750","ios":"levelo://app?vid=53b09686-9639-4142-b57d-b861b5e79750"},"vehicle_type_id":"4","last_reported":1700723181,"current_range_meters":24800,"station_id":"ce4bh0p2rcd13ifvqd70","pricing_plan_id":"free"},{"bike_id":"4a9b5c17-abe5-4ef9-97b8-1e8d24619cb3","system_id":"levelo_inurba_marseille","lat":43.294153,"lon":5.386305,"is_reserved":false,"is_disabled":false,"rental_uris":{"android":"levelo://app?vid=4a9b5c17-abe5-4ef9-97b8-1e8d24619cb3","ios":"levelo://app?vid=4a9b5c17-abe5-4ef9-97b8-1e8d24619cb3"},"vehicle_type_id":"4","last_reported":1700723181,"current_range_meters":26000,"station_id":"ce4bh2h2rcd13ifvqdh0","pricing_plan_id":"free"},{"bike_id":"0a5d8a4e-f940-4ddd-936f-6a85c044c483","system_id":"levelo_inurba_marseille","lat":43.294153,"lon":5.386305,"is_reserved":false,"is_disabled":false,"rental_uris":{"android":"levelo://app?vid=0a5d8a4e-f940-4ddd-936f-6a85c044c483","ios":"levelo://app?vid=0a5d8a4e-f940-4ddd-936f-6a85c044c483"},"vehicle_type_id":"4","last_reported":1700723181,"current_range_meters":15200,"station_id":"ce4bh2h2rcd13ifvqdh0","pricing_plan_id":"free"},{"bike_id":"bb25f495-f0a6-4c22-bcdd-0d29d091fe25","system_id":"levelo_inurba_marseille","lat":43.289468,"lon":5.363719,"is_reserved":false,"is_disabled":false,"rental_uris":{"android":"levelo://app?vid=bb25f495-f0a6-4c22-bcdd-0d29d091fe25","ios":"levelo://app?vid=bb25f495-f0a6-4c22-bcdd-0d29d091fe25"},"vehicle_type_id":"4","last_reported":1700723181,"current_range_meters":27600,"station_id":"ce4bhc92rcd13ifvqetg","pricing_plan_id":"free"},{"bike_id":"524bac81-f978-48b0-b7f8-9e0e16b011b0","system_id":"levelo_inurba_marseille","lat":43.28925,"lon":5.36641,"is_reserved":false,"is_disabled":false,"rental_uris":{"android":"levelo://app?vid=524bac81-f978-48b0-b7f8-9e0e16b011b0","ios":"levelo://app?vid=524bac81-f978-48b0-b7f8-9e0e16b011b0"},"vehicle_type_id":"4","last_reported":1700723181,"current_range_meters":4000,"station_id":"ce4bhap2rcd13ifvqek0","pricing_plan_id":"free"},{"bike_id":"91f43715-e29c-420b-86ac-1e6c1a18d185","system_id":"levelo_inurba_marseille","lat":43.310025,"lon":5.39938,"is_reserved":false,"is_disabled":false,"rental_uris":{"android":"levelo://app?vid=91f43715-e29c-420b-86ac-1e6c1a18d185","ios":"levelo://app?vid=91f43715-e29c-420b-86ac-1e6c1a18d185"},"vehicle_type_id":"4","last_reported":1700723181,"current_range_meters":0,"station_id":"","pricing_plan_id":"free"},{"bike_id":"d2604030-81b2-431c-ab42-4a9c0c2e1bb8","system_id":"levelo_inurba_marseille","lat":43.290104,"lon":5.356111,"is_reserved":false,"is_disabled":false,"rental_uris":{"android":"levelo://app?vid=d2604030-81b2-431c-ab42-4a9c0c2e1bb8","ios":"levelo://app?vid=d2604030-81b2-431c-ab42-4a9c0c2e1bb8"},"vehicle_type_id":"4","last_reported":1700723181,"current_range_meters":17600,"station_id":"ce4bhb92rcd13ifvqen0","pricing_plan_id":"free"},{"bike_id":"dd8ed732-42f1-486a-b342-af5b1c72ee35","system_id":"levelo_inurba_marseille","lat":43.290104,"lon":5.356111,"is_reserved":false,"is_disabled":false,"rental_uris":{"android":"levelo://app?vid=dd8ed732-42f1-486a-b342-af5b1c72ee35","ios":"levelo://app?vid=dd8ed732-42f1-486a-b342-af5b1c72ee35"},"vehicle_type_id":"4","last_reported":1700723181,"current_range_meters":24800,"station_id":"ce4bhb92rcd13ifvqen0","pricing_plan_id":"free"},{"bike_id":"0a5c5f79-f8e4-495b-805f-61a0b5ca9c43","system_id":"levelo_inurba_marseille","lat":43.290995,"lon":5.381361,"is_reserved":false,"is_disabled":false,"rental_uris":{"android":"levelo://app?vid=0a5c5f79-f8e4-495b-805f-61a0b5ca9c43","ios":"levelo://app?vid=0a5c5f79-f8e4-495b-805f-61a0b5ca9c43"},"vehicle_type_id":"4","last_reported":1700723181,"current_range_meters":29600,"station_id":"ce4bh512rcd13ifvqe2g","pricing_plan_id":"free"},{"bike_id":"18775a8f-bac8-4522-bcb6-ba97e5bac45e","system_id":"levelo_inurba_marseille","lat":43.29778,"lon":5.39353,"is_reserved":false,"is_disabled":false,"rental_uris":{"android":"levelo://app?vid=18775a8f-bac8-4522-bcb6-ba97e5bac45e","ios":"levelo://app?vid=18775a8f-bac8-4522-bcb6-ba97e5bac45e"},"vehicle_type_id":"4","last_reported":1700723181,"current_range_meters":28400,"station_id":"chh1huq6cuj3fo74tm60","pricing_plan_id":"free"},{"bike_id":"3b89b107-79df-4541-ae8e-f5dcae1dd304","system_id":"levelo_inurba_marseille","lat":43.289685,"lon":5.378239,"is_reserved":false,"is_disabled":false,"rental_uris":{"android":"levelo://app?vid=3b89b107-79df-4541-ae8e-f5dcae1dd304","ios":"levelo://app?vid=3b89b107-79df-4541-ae8e-f5dcae1dd304"},"vehicle_type_id":"4","last_reported":1700723181,"current_range_meters":26000,"station_id":"","pricing_plan_id":"free"},{"bike_id":"752c6f68-2407-4b40-920d-a02d529fb01a","system_id":"levelo_inurba_marseille","lat":43.28856,"lon":5.358371,"is_reserved":false,"is_disabled":false,"rental_uris":{"android":"levelo://app?vid=752c6f68-2407-4b40-920d-a02d529fb01a","ios":"levelo://app?vid=752c6f68-2407-4b40-920d-a02d529fb01a"},"vehicle_type_id":"4","last_reported":1700723181,"current_range_meters":2400,"station_id":"ce4bhb12rcd13ifvqem0","pricing_plan_id":"free"},{"bike_id":"9cbf1877-0b59-49aa-883a-ff3500c4e577","system_id":"levelo_inurba_marseille","lat":43.2885,"lon":5.358283,"is_reserved":false,"is_disabled":false,"rental_uris":{"android":"levelo://app?vid=9cbf1877-0b59-49aa-883a-ff3500c4e577","ios":"levelo://app?vid=9cbf1877-0b59-49aa-883a-ff3500c4e577"},"vehicle_type_id":"4","last_reported":1700723181,"current_range_meters":24800,"station_id":"ce4bhb12rcd13ifvqem0","pricing_plan_id":"free"},{"bike_id":"0c741ef2-2fa0-42e2-86ad-4d9ed271917a","system_id":"levelo_inurba_marseille","lat":43.33742,"lon":5.37443,"is_reserved":false,"is_disabled":false,"rental_uris":{"android":"levelo://app?vid=0c741ef2-2fa0-42e2-86ad-4d9ed271917a","ios":"levelo://app?vid=0c741ef2-2fa0-42e2-86ad-4d9ed271917a"},"vehicle_type_id":"4","last_reported":1700723181,"current_range_meters":30400,"station_id":"","pricing_plan_id":"free"},{"bike_id":"08d49d48-3896-4f4d-9e7e-3b61182b41e6","system_id":"levelo_inurba_marseille","lat":43.28717,"lon":5.36684,"is_reserved":false,"is_disabled":false,"rental_uris":{"android":"levelo://app?vid=08d49d48-3896-4f4d-9e7e-3b61182b41e6","ios":"levelo://app?vid=08d49d48-3896-4f4d-9e7e-3b61182b41e6"},"vehicle_type_id":"4","last_reported":1700723181,"current_range_meters":24400,"station_id":"","pricing_plan_id":"free"},{"bike_id":"11c3b2fb-af7d-476c-9499-5b71c0c8d5ff","system_id":"levelo_inurba_marseille","lat":43.29033,"lon":5.38624,"is_reserved":false,"is_disabled":false,"rental_uris":{"android":"levelo://app?vid=11c3b2fb-af7d-476c-9499-5b71c0c8d5ff","ios":"levelo://app?vid=11c3b2fb-af7d-476c-9499-5b71c0c8d5ff"},"vehicle_type_id":"4","last_reported":1700723181,"current_range_meters":19600,"station_id":"ce4bh4p2rcd13ifvqe0g","pricing_plan_id":"free"},{"bike_id":"3ea3de19-2060-404e-9a2f-e2d69b2f1e5f","system_id":"levelo_inurba_marseille","lat":43.2903,"lon":5.38632,"is_reserved":false,"is_disabled":false,"rental_uris":{"android":"levelo://app?vid=3ea3de19-2060-404e-9a2f-e2d69b2f1e5f","ios":"levelo://app?vid=3ea3de19-2060-404e-9a2f-e2d69b2f1e5f"},"vehicle_type_id":"4","last_reported":1700723181,"current_range_meters":6000,"station_id":"ce4bh4p2rcd13ifvqe0g","pricing_plan_id":"free"},{"bike_id":"979037ef-d699-4237-9703-6632fdebb226","system_id":"levelo_inurba_marseille","lat":43.290355,"lon":5.386469,"is_reserved":false,"is_disabled":false,"rental_uris":{"android":"levelo://app?vid=979037ef-d699-4237-9703-6632fdebb226","ios":"levelo://app?vid=979037ef-d699-4237-9703-6632fdebb226"},"vehicle_type_id":"4","last_reported":1700723181,"current_range_meters":13200,"station_id":"ce4bh4p2rcd13ifvqe0g","pricing_plan_id":"free"},{"bike_id":"175229ff-73c1-45be-a9f4-0797776bac26","system_id":"levelo_inurba_marseille","lat":43.29029,"lon":5.38636,"is_reserved":false,"is_disabled":false,"rental_uris":{"android":"levelo://app?vid=175229ff-73c1-45be-a9f4-0797776bac26","ios":"levelo://app?vid=175229ff-73c1-45be-a9f4-0797776bac26"},"vehicle_type_id":"4","last_reported":1700723181,"current_range_meters":28000,"station_id":"ce4bh4p2rcd13ifvqe0g","pricing_plan_id":"free"},{"bike_id":"0e6fc798-8702-4f49-ac07-02e212a75433","system_id":"levelo_inurba_marseille","lat":43.302759,"lon":5.400793,"is_reserved":false,"is_disabled":false,"rental_uris":{"android":"levelo://app?vid=0e6fc798-8702-4f49-ac07-02e212a75433","ios":"levelo://app?vid=0e6fc798-8702-4f49-ac07-02e212a75433"},"vehicle_type_id":"4","last_reported":1700723181,"current_range_meters":24000,"station_id":"ce4bgvh2rcd13ifvqcs0","pricing_plan_id":"free"},{"bike_id":"03d75c8d-c3f7-45de-8d5c-537cb71bdafa","system_id":"levelo_inurba_marseille","lat":43.287184,"lon":5.37937,"is_reserved":false,"is_disabled":false,"rental_uris":{"android":"levelo://app?vid=03d75c8d-c3f7-45de-8d5c-537cb71bdafa","ios":"levelo://app?vid=03d75c8d-c3f7-45de-8d5c-537cb71bdafa"},"vehicle_type_id":"4","last_reported":1700723181,"current_range_meters":17600,"station_id":"ce4bh9p2rcd13ifvqec0","pricing_plan_id":"free"},{"bike_id":"f537ff6d-521d-4abd-a937-0b0cd1b57df1","system_id":"levelo_inurba_marseille","lat":43.287184,"lon":5.37937,"is_reserved":false,"is_disabled":false,"rental_uris":{"android":"levelo://app?vid=f537ff6d-521d-4abd-a937-0b0cd1b57df1","ios":"levelo://app?vid=f537ff6d-521d-4abd-a937-0b0cd1b57df1"},"vehicle_type_id":"4","last_reported":1700723181,"current_range_meters":30000,"station_id":"ce4bh9p2rcd13ifvqec0","pricing_plan_id":"free"},{"bike_id":"c388baa1-3c7d-447c-9042-5a5f25b68425","system_id":"levelo_inurba_marseille","lat":43.287184,"lon":5.37937,"is_reserved":false,"is_disabled":false,"rental_uris":{"android":"levelo://app?vid=c388baa1-3c7d-447c-9042-5a5f25b68425","ios":"levelo://app?vid=c388baa1-3c7d-447c-9042-5a5f25b68425"},"vehicle_type_id":"4","last_reported":1700723181,"current_range_meters":7600,"station_id":"ce4bh9p2rcd13ifvqec0","pricing_plan_id":"free"},{"bike_id":"16922cf6-e46f-4f6a-b67d-e2812d5a001f","system_id":"levelo_inurba_marseille","lat":43.316098,"lon":5.40502,"is_reserved":false,"is_disabled":false,"rental_uris":{"android":"levelo://app?vid=16922cf6-e46f-4f6a-b67d-e2812d5a001f","ios":"levelo://app?vid=16922cf6-e46f-4f6a-b67d-e2812d5a001f"},"vehicle_type_id":"4","last_reported":1700723181,"current_range_meters":0,"station_id":"","pricing_plan_id":"free"},{"bike_id":"adbd441f-44c4-4168-877a-9278b4bd7ceb","system_id":"levelo_inurba_marseille","lat":43.331033,"lon":5.397233,"is_reserved":false,"is_disabled":false,"rental_uris":{"android":"levelo://app?vid=adbd441f-44c4-4168-877a-9278b4bd7ceb","ios":"levelo://app?vid=adbd441f-44c4-4168-877a-9278b4bd7ceb"},"vehicle_type_id":"4","last_reported":1700723181,"current_range_meters":18400,"station_id":"","pricing_plan_id":"free"},{"bike_id":"df17e367-d041-41dc-8166-cadc54181e0d","system_id":"levelo_inurba_marseille","lat":43.283998,"lon":5.375062,"is_reserved":false,"is_disabled":false,"rental_uris":{"android":"levelo://app?vid=df17e367-d041-41dc-8166-cadc54181e0d","ios":"levelo://app?vid=df17e367-d041-41dc-8166-cadc54181e0d"},"vehicle_type_id":"4","last_reported":1700723181,"current_range_meters":28000,"station_id":"ce4bh412rcd13ifvqds0","pricing_plan_id":"free"},{"bike_id":"962ceaea-e9b9-42a8-b0a7-8b57550305ea","system_id":"levelo_inurba_marseille","lat":43.295713,"lon":5.399639,"is_reserved":false,"is_disabled":false,"rental_uris":{"android":"levelo://app?vid=962ceaea-e9b9-42a8-b0a7-8b57550305ea","ios":"levelo://app?vid=962ceaea-e9b9-42a8-b0a7-8b57550305ea"},"vehicle_type_id":"4","last_reported":1700723181,"current_range_meters":4800,"station_id":"ce4bh312rcd13ifvqdj0","pricing_plan_id":"free"},{"bike_id":"e5b1e340-50bf-4433-b1eb-f28c94a321f0","system_id":"levelo_inurba_marseille","lat":43.28662,"lon":5.38661,"is_reserved":false,"is_disabled":false,"rental_uris":{"android":"levelo://app?vid=e5b1e340-50bf-4433-b1eb-f28c94a321f0","ios":"levelo://app?vid=e5b1e340-50bf-4433-b1eb-f28c94a321f0"},"vehicle_type_id":"4","last_reported":1700723181,"current_range_meters":12800,"station_id":"ce4bh492rcd13ifvqdug","pricing_plan_id":"free"},{"bike_id":"3333840f-e37e-4826-a2bc-9687f458a088","system_id":"levelo_inurba_marseille","lat":43.319179,"lon":5.407725,"is_reserved":false,"is_disabled":false,"rental_uris":{"android":"levelo://app?vid=3333840f-e37e-4826-a2bc-9687f458a088","ios":"levelo://app?vid=3333840f-e37e-4826-a2bc-9687f458a088"},"vehicle_type_id":"4","last_reported":1700723181,"current_range_meters":17600,"station_id":"ce4bhq12rcd13ifvqhig","pricing_plan_id":"free"},{"bike_id":"5bc021c2-a6f4-4648-9e10-fc529a0bfb84","system_id":"levelo_inurba_marseille","lat":43.323464,"lon":5.406297,"is_reserved":false,"is_disabled":false,"rental_uris":{"android":"levelo://app?vid=5bc021c2-a6f4-4648-9e10-fc529a0bfb84","ios":"levelo://app?vid=5bc021c2-a6f4-4648-9e10-fc529a0bfb84"},"vehicle_type_id":"4","last_reported":1700723181,"current_range_meters":31200,"station_id":"ce4bhq92rcd13ifvqhjg","pricing_plan_id":"free"},{"bike_id":"1d9b6cfb-6232-495a-86eb-b3db72254ede","system_id":"levelo_inurba_marseille","lat":43.283494,"lon":5.380945,"is_reserved":false,"is_disabled":false,"rental_uris":{"android":"levelo://app?vid=1d9b6cfb-6232-495a-86eb-b3db72254ede","ios":"levelo://app?vid=1d9b6cfb-6232-495a-86eb-b3db72254ede"},"vehicle_type_id":"4","last_reported":1700723181,"current_range_meters":7200,"station_id":"ce4bh412rcd13ifvqdr0","pricing_plan_id":"free"},{"bike_id":"596e68b1-d29d-463a-9c10-8e77154d4cdc","system_id":"levelo_inurba_marseille","lat":43.284219,"lon":5.3497,"is_reserved":false,"is_disabled":false,"rental_uris":{"android":"levelo://app?vid=596e68b1-d29d-463a-9c10-8e77154d4cdc","ios":"levelo://app?vid=596e68b1-d29d-463a-9c10-8e77154d4cdc"},"vehicle_type_id":"4","last_reported":1700723181,"current_range_meters":29600,"station_id":"ce4bhbh2rcd13ifvqepg","pricing_plan_id":"free"},{"bike_id":"0ba1cf91-edd0-45f7-9cc7-aec7b333b4a2","system_id":"levelo_inurba_marseille","lat":43.284217,"lon":5.349697,"is_reserved":false,"is_disabled":false,"rental_uris":{"android":"levelo://app?vid=0ba1cf91-edd0-45f7-9cc7-aec7b333b4a2","ios":"levelo://app?vid=0ba1cf91-edd0-45f7-9cc7-aec7b333b4a2"},"vehicle_type_id":"4","last_reported":1700723181,"current_range_meters":25600,"station_id":"ce4bhbh2rcd13ifvqepg","pricing_plan_id":"free"},{"bike_id":"e434f67c-6a89-42ca-ae3d-550d1182dd5d","system_id":"levelo_inurba_marseille","lat":43.289363,"lon":5.396322,"is_reserved":false,"is_disabled":false,"rental_uris":{"android":"levelo://app?vid=e434f67c-6a89-42ca-ae3d-550d1182dd5d","ios":"levelo://app?vid=e434f67c-6a89-42ca-ae3d-550d1182dd5d"},"vehicle_type_id":"4","last_reported":1700723181,"current_range_meters":24400,"station_id":"ce4bh3h2rcd13ifvqdn0","pricing_plan_id":"free"},{"bike_id":"98d3741c-50fd-42e5-96d8-b9003b22a35b","system_id":"levelo_inurba_marseille","lat":43.289363,"lon":5.396322,"is_reserved":false,"is_disabled":false,"rental_uris":{"android":"levelo://app?vid=98d3741c-50fd-42e5-96d8-b9003b22a35b","ios":"levelo://app?vid=98d3741c-50fd-42e5-96d8-b9003b22a35b"},"vehicle_type_id":"4","last_reported":1700723181,"current_range_meters":24800,"station_id":"ce4bh3h2rcd13ifvqdn0","pricing_plan_id":"free"},{"bike_id":"834b7e98-5189-42f4-bfdf-a8c9b6b496de","system_id":"levelo_inurba_marseille","lat":43.289363,"lon":5.396322,"is_reserved":false,"is_disabled":false,"rental_uris":{"android":"levelo://app?vid=834b7e98-5189-42f4-bfdf-a8c9b6b496de","ios":"levelo://app?vid=834b7e98-5189-42f4-bfdf-a8c9b6b496de"},"vehicle_type_id":"4","last_reported":1700723181,"current_range_meters":22800,"station_id":"ce4bh3h2rcd13ifvqdn0","pricing_plan_id":"free"},{"bike_id":"e2284003-4e46-4e0a-93e7-73d05c3666d9","system_id":"levelo_inurba_marseille","lat":43.334934,"lon":5.398005,"is_reserved":false,"is_disabled":false,"rental_uris":{"android":"levelo://app?vid=e2284003-4e46-4e0a-93e7-73d05c3666d9","ios":"levelo://app?vid=e2284003-4e46-4e0a-93e7-73d05c3666d9"},"vehicle_type_id":"4","last_reported":1700723181,"current_range_meters":26400,"station_id":"","pricing_plan_id":"free"},{"bike_id":"9f406700-c6fa-44c2-b209-2e781c68762e","system_id":"levelo_inurba_marseille","lat":43.28627,"lon":5.39143,"is_reserved":false,"is_disabled":false,"rental_uris":{"android":"levelo://app?vid=9f406700-c6fa-44c2-b209-2e781c68762e","ios":"levelo://app?vid=9f406700-c6fa-44c2-b209-2e781c68762e"},"vehicle_type_id":"4","last_reported":1700723181,"current_range_meters":9200,"station_id":"","pricing_plan_id":"free"},{"bike_id":"c5322f05-44b0-4410-a423-1a697aab0cf1","system_id":"levelo_inurba_marseille","lat":43.287055,"lon":5.39297,"is_reserved":false,"is_disabled":false,"rental_uris":{"android":"levelo://app?vid=c5322f05-44b0-4410-a423-1a697aab0cf1","ios":"levelo://app?vid=c5322f05-44b0-4410-a423-1a697aab0cf1"},"vehicle_type_id":"4","last_reported":1700723181,"current_range_meters":20400,"station_id":"","pricing_plan_id":"free"},{"bike_id":"30bea390-1bdb-4c72-b505-8564daef7c4b","system_id":"levelo_inurba_marseille","lat":43.282754,"lon":5.350519,"is_reserved":false,"is_disabled":false,"rental_uris":{"android":"levelo://app?vid=30bea390-1bdb-4c72-b505-8564daef7c4b","ios":"levelo://app?vid=30bea390-1bdb-4c72-b505-8564daef7c4b"},"vehicle_type_id":"4","last_reported":1700723181,"current_range_meters":18800,"station_id":"ce4bhbp2rcd13ifvqerg","pricing_plan_id":"free"},{"bike_id":"66725f80-c578-4be3-aed6-1e494bbea69f","system_id":"levelo_inurba_marseille","lat":43.282754,"lon":5.350519,"is_reserved":false,"is_disabled":false,"rental_uris":{"android":"levelo://app?vid=66725f80-c578-4be3-aed6-1e494bbea69f","ios":"levelo://app?vid=66725f80-c578-4be3-aed6-1e494bbea69f"},"vehicle_type_id":"4","last_reported":1700723181,"current_range_meters":27600,"station_id":"ce4bhbp2rcd13ifvqerg","pricing_plan_id":"free"},{"bike_id":"95ba52d6-4dda-4e02-b81c-7bd72d9cf856","system_id":"levelo_inurba_marseille","lat":43.282754,"lon":5.350519,"is_reserved":false,"is_disabled":false,"rental_uris":{"android":"levelo://app?vid=95ba52d6-4dda-4e02-b81c-7bd72d9cf856","ios":"levelo://app?vid=95ba52d6-4dda-4e02-b81c-7bd72d9cf856"},"vehicle_type_id":"4","last_reported":1700723181,"current_range_meters":20400,"station_id":"ce4bhbp2rcd13ifvqerg","pricing_plan_id":"free"},{"bike_id":"49baf514-4dd1-456c-9606-14d40accbf01","system_id":"levelo_inurba_marseille","lat":43.29036,"lon":5.39963,"is_reserved":false,"is_disabled":false,"rental_uris":{"android":"levelo://app?vid=49baf514-4dd1-456c-9606-14d40accbf01","ios":"levelo://app?vid=49baf514-4dd1-456c-9606-14d40accbf01"},"vehicle_type_id":"4","last_reported":1700723181,"current_range_meters":26400,"station_id":"ce4bh392rcd13ifvqdm0","pricing_plan_id":"free"},{"bike_id":"fbb3af32-162e-4eac-9b07-8397a0801763","system_id":"levelo_inurba_marseille","lat":43.28096,"lon":5.37829,"is_reserved":false,"is_disabled":false,"rental_uris":{"android":"levelo://app?vid=fbb3af32-162e-4eac-9b07-8397a0801763","ios":"levelo://app?vid=fbb3af32-162e-4eac-9b07-8397a0801763"},"vehicle_type_id":"4","last_reported":1700723181,"current_range_meters":29600,"station_id":"","pricing_plan_id":"free"},{"bike_id":"6adb0139-d21b-483d-aa4f-4c6628982aed","system_id":"levelo_inurba_marseille","lat":43.326605,"lon":5.409903,"is_reserved":false,"is_disabled":false,"rental_uris":{"android":"levelo://app?vid=6adb0139-d21b-483d-aa4f-4c6628982aed","ios":"levelo://app?vid=6adb0139-d21b-483d-aa4f-4c6628982aed"},"vehicle_type_id":"4","last_reported":1700723181,"current_range_meters":14800,"station_id":"ce4bhpp2rcd13ifvqhgg","pricing_plan_id":"free"},{"bike_id":"5a4d561d-3d12-4a7b-a288-42be910e015b","system_id":"levelo_inurba_marseille","lat":43.284462,"lon":5.392121,"is_reserved":false,"is_disabled":false,"rental_uris":{"android":"levelo://app?vid=5a4d561d-3d12-4a7b-a288-42be910e015b","ios":"levelo://app?vid=5a4d561d-3d12-4a7b-a288-42be910e015b"},"vehicle_type_id":"4","last_reported":1700723181,"current_range_meters":22800,"station_id":"ce4bhoh2rcd13ifvqh5g","pricing_plan_id":"free"},{"bike_id":"9761471d-398c-47d5-9659-d5a5e2a28588","system_id":"levelo_inurba_marseille","lat":43.284462,"lon":5.392121,"is_reserved":false,"is_disabled":false,"rental_uris":{"android":"levelo://app?vid=9761471d-398c-47d5-9659-d5a5e2a28588","ios":"levelo://app?vid=9761471d-398c-47d5-9659-d5a5e2a28588"},"vehicle_type_id":"4","last_reported":1700723181,"current_range_meters":28400,"station_id":"ce4bhoh2rcd13ifvqh5g","pricing_plan_id":"free"},{"bike_id":"8c2a29ca-71bf-4e5c-9892-b9a35f3932c1","system_id":"levelo_inurba_marseille","lat":43.28782,"lon":5.39847,"is_reserved":false,"is_disabled":false,"rental_uris":{"android":"levelo://app?vid=8c2a29ca-71bf-4e5c-9892-b9a35f3932c1","ios":"levelo://app?vid=8c2a29ca-71bf-4e5c-9892-b9a35f3932c1"},"vehicle_type_id":"4","last_reported":1700723181,"current_range_meters":5600,"station_id":"","pricing_plan_id":"free"},{"bike_id":"40047771-957a-4a25-a03b-eaff42370b39","system_id":"levelo_inurba_marseille","lat":43.326605,"lon":5.409903,"is_reserved":false,"is_disabled":false,"rental_uris":{"android":"levelo://app?vid=40047771-957a-4a25-a03b-eaff42370b39","ios":"levelo://app?vid=40047771-957a-4a25-a03b-eaff42370b39"},"vehicle_type_id":"4","last_reported":1700723181,"current_range_meters":30800,"station_id":"ce4bhpp2rcd13ifvqhgg","pricing_plan_id":"free"},{"bike_id":"4227218a-7104-492a-90e9-039a20c3d9fb","system_id":"levelo_inurba_marseille","lat":43.326605,"lon":5.409903,"is_reserved":false,"is_disabled":false,"rental_uris":{"android":"levelo://app?vid=4227218a-7104-492a-90e9-039a20c3d9fb","ios":"levelo://app?vid=4227218a-7104-492a-90e9-039a20c3d9fb"},"vehicle_type_id":"4","last_reported":1700723181,"current_range_meters":27200,"station_id":"ce4bhpp2rcd13ifvqhgg","pricing_plan_id":"free"},{"bike_id":"8fcef76d-9052-4314-90fb-0622a0144a5f","system_id":"levelo_inurba_marseille","lat":43.326605,"lon":5.409903,"is_reserved":false,"is_disabled":false,"rental_uris":{"android":"levelo://app?vid=8fcef76d-9052-4314-90fb-0622a0144a5f","ios":"levelo://app?vid=8fcef76d-9052-4314-90fb-0622a0144a5f"},"vehicle_type_id":"4","last_reported":1700723181,"current_range_meters":800,"station_id":"ce4bhpp2rcd13ifvqhgg","pricing_plan_id":"free"},{"bike_id":"6e2c2465-4e40-4aae-912b-ca1fbcdf1978","system_id":"levelo_inurba_marseille","lat":43.326857,"lon":5.410027,"is_reserved":false,"is_disabled":false,"rental_uris":{"android":"levelo://app?vid=6e2c2465-4e40-4aae-912b-ca1fbcdf1978","ios":"levelo://app?vid=6e2c2465-4e40-4aae-912b-ca1fbcdf1978"},"vehicle_type_id":"4","last_reported":1700723181,"current_range_meters":0,"station_id":"ce4bhpp2rcd13ifvqhgg","pricing_plan_id":"free"},{"bike_id":"a8e2b52b-9ba9-4b70-bcb4-1e1ad46ab6fe","system_id":"levelo_inurba_marseille","lat":43.299579,"lon":5.413255,"is_reserved":false,"is_disabled":false,"rental_uris":{"android":"levelo://app?vid=a8e2b52b-9ba9-4b70-bcb4-1e1ad46ab6fe","ios":"levelo://app?vid=a8e2b52b-9ba9-4b70-bcb4-1e1ad46ab6fe"},"vehicle_type_id":"4","last_reported":1700723181,"current_range_meters":28800,"station_id":"ce4bhp12rcd13ifvqh9g","pricing_plan_id":"free"},{"bike_id":"53581e3c-3763-4107-9f82-b7af0dcf5d7a","system_id":"levelo_inurba_marseille","lat":43.320045,"lon":5.415046,"is_reserved":false,"is_disabled":false,"rental_uris":{"android":"levelo://app?vid=53581e3c-3763-4107-9f82-b7af0dcf5d7a","ios":"levelo://app?vid=53581e3c-3763-4107-9f82-b7af0dcf5d7a"},"vehicle_type_id":"4","last_reported":1700723181,"current_range_meters":18000,"station_id":"ce4bhq92rcd13ifvqhkg","pricing_plan_id":"free"},{"bike_id":"d422e306-ad77-488d-a8d0-986e2b08ec35","system_id":"levelo_inurba_marseille","lat":43.279742,"lon":5.38744,"is_reserved":false,"is_disabled":false,"rental_uris":{"android":"levelo://app?vid=d422e306-ad77-488d-a8d0-986e2b08ec35","ios":"levelo://app?vid=d422e306-ad77-488d-a8d0-986e2b08ec35"},"vehicle_type_id":"4","last_reported":1700723181,"current_range_meters":2800,"station_id":"ce4bhg12rcd13ifvqf80","pricing_plan_id":"free"},{"bike_id":"cf7c6503-d761-4e4a-b826-f55f74848caf","system_id":"levelo_inurba_marseille","lat":43.34881,"lon":5.37504,"is_reserved":false,"is_disabled":false,"rental_uris":{"android":"levelo://app?vid=cf7c6503-d761-4e4a-b826-f55f74848caf","ios":"levelo://app?vid=cf7c6503-d761-4e4a-b826-f55f74848caf"},"vehicle_type_id":"4","last_reported":1700723181,"current_range_meters":2800,"station_id":"","pricing_plan_id":"free"},{"bike_id":"04f843cd-71af-4fe8-9edb-4ef523337c4d","system_id":"levelo_inurba_marseille","lat":43.325233,"lon":5.414318,"is_reserved":false,"is_disabled":false,"rental_uris":{"android":"levelo://app?vid=04f843cd-71af-4fe8-9edb-4ef523337c4d","ios":"levelo://app?vid=04f843cd-71af-4fe8-9edb-4ef523337c4d"},"vehicle_type_id":"4","last_reported":1700723181,"current_range_meters":23600,"station_id":"ce4bhq12rcd13ifvqhhg","pricing_plan_id":"free"},{"bike_id":"7346f08b-f154-454c-bf68-309edcc3cb5f","system_id":"levelo_inurba_marseille","lat":43.325243,"lon":5.414326,"is_reserved":false,"is_disabled":false,"rental_uris":{"android":"levelo://app?vid=7346f08b-f154-454c-bf68-309edcc3cb5f","ios":"levelo://app?vid=7346f08b-f154-454c-bf68-309edcc3cb5f"},"vehicle_type_id":"4","last_reported":1700723181,"current_range_meters":26400,"station_id":"ce4bhq12rcd13ifvqhhg","pricing_plan_id":"free"},{"bike_id":"c7eaa0f5-fd2d-4444-b91b-0eae32b686a1","system_id":"levelo_inurba_marseille","lat":43.325233,"lon":5.414318,"is_reserved":false,"is_disabled":false,"rental_uris":{"android":"levelo://app?vid=c7eaa0f5-fd2d-4444-b91b-0eae32b686a1","ios":"levelo://app?vid=c7eaa0f5-fd2d-4444-b91b-0eae32b686a1"},"vehicle_type_id":"4","last_reported":1700723181,"current_range_meters":18800,"station_id":"ce4bhq12rcd13ifvqhhg","pricing_plan_id":"free"},{"bike_id":"3353bf54-8aa9-4d2f-8b1d-af838552fd04","system_id":"levelo_inurba_marseille","lat":43.292556,"lon":5.409122,"is_reserved":false,"is_disabled":false,"rental_uris":{"android":"levelo://app?vid=3353bf54-8aa9-4d2f-8b1d-af838552fd04","ios":"levelo://app?vid=3353bf54-8aa9-4d2f-8b1d-af838552fd04"},"vehicle_type_id":"4","last_reported":1700723181,"current_range_meters":28800,"station_id":"ce4bh192rcd13ifvqdc0","pricing_plan_id":"free"},{"bike_id":"062b71ad-7856-47f5-9834-706bb6bb8fe8","system_id":"levelo_inurba_marseille","lat":43.33612,"lon":5.410321,"is_reserved":false,"is_disabled":false,"rental_uris":{"android":"levelo://app?vid=062b71ad-7856-47f5-9834-706bb6bb8fe8","ios":"levelo://app?vid=062b71ad-7856-47f5-9834-706bb6bb8fe8"},"vehicle_type_id":"4","last_reported":1700723181,"current_range_meters":31200,"station_id":"ce4bhqh2rcd13ifvqhmg","pricing_plan_id":"free"},{"bike_id":"f3c5723d-0972-4fbf-b72e-7c6590dbccdd","system_id":"levelo_inurba_marseille","lat":43.33612,"lon":5.410321,"is_reserved":false,"is_disabled":false,"rental_uris":{"android":"levelo://app?vid=f3c5723d-0972-4fbf-b72e-7c6590dbccdd","ios":"levelo://app?vid=f3c5723d-0972-4fbf-b72e-7c6590dbccdd"},"vehicle_type_id":"4","last_reported":1700723181,"current_range_meters":31600,"station_id":"ce4bhqh2rcd13ifvqhmg","pricing_plan_id":"free"},{"bike_id":"f5e52dc7-2997-4f81-ab82-b5924bcb47eb","system_id":"levelo_inurba_marseille","lat":43.336148,"lon":5.410349,"is_reserved":false,"is_disabled":false,"rental_uris":{"android":"levelo://app?vid=f5e52dc7-2997-4f81-ab82-b5924bcb47eb","ios":"levelo://app?vid=f5e52dc7-2997-4f81-ab82-b5924bcb47eb"},"vehicle_type_id":"4","last_reported":1700723181,"current_range_meters":14000,"station_id":"ce4bhqh2rcd13ifvqhmg","pricing_plan_id":"free"},{"bike_id":"c3d78d86-beb7-458e-abf8-0c5d50582975","system_id":"levelo_inurba_marseille","lat":43.336148,"lon":5.410349,"is_reserved":false,"is_disabled":false,"rental_uris":{"android":"levelo://app?vid=c3d78d86-beb7-458e-abf8-0c5d50582975","ios":"levelo://app?vid=c3d78d86-beb7-458e-abf8-0c5d50582975"},"vehicle_type_id":"4","last_reported":1700723181,"current_range_meters":12400,"station_id":"ce4bhqh2rcd13ifvqhmg","pricing_plan_id":"free"},{"bike_id":"de6d780e-a071-48d7-8066-044e8541066f","system_id":"levelo_inurba_marseille","lat":43.336148,"lon":5.410349,"is_reserved":false,"is_disabled":false,"rental_uris":{"android":"levelo://app?vid=de6d780e-a071-48d7-8066-044e8541066f","ios":"levelo://app?vid=de6d780e-a071-48d7-8066-044e8541066f"},"vehicle_type_id":"4","last_reported":1700723181,"current_range_meters":30000,"station_id":"ce4bhqh2rcd13ifvqhmg","pricing_plan_id":"free"},{"bike_id":"354b9ddc-e602-489c-a4d8-aad3ec754a7a","system_id":"levelo_inurba_marseille","lat":43.31079,"lon":5.42434,"is_reserved":false,"is_disabled":false,"rental_uris":{"android":"levelo://app?vid=354b9ddc-e602-489c-a4d8-aad3ec754a7a","ios":"levelo://app?vid=354b9ddc-e602-489c-a4d8-aad3ec754a7a"},"vehicle_type_id":"4","last_reported":1700723181,"current_range_meters":0,"station_id":"ce4bhp92rcd13ifvqhag","pricing_plan_id":"free"},{"bike_id":"53f83617-2581-46fb-84d9-ddbbc155dbf0","system_id":"levelo_inurba_marseille","lat":43.340804,"lon":5.410219,"is_reserved":false,"is_disabled":false,"rental_uris":{"android":"levelo://app?vid=53f83617-2581-46fb-84d9-ddbbc155dbf0","ios":"levelo://app?vid=53f83617-2581-46fb-84d9-ddbbc155dbf0"},"vehicle_type_id":"4","last_reported":1700723181,"current_range_meters":15200,"station_id":"ce4bhqh2rcd13ifvqhlg","pricing_plan_id":"free"},{"bike_id":"e8f11c08-82eb-4e96-977c-b9576f0a8d4e","system_id":"levelo_inurba_marseille","lat":43.27317,"lon":5.39078,"is_reserved":false,"is_disabled":false,"rental_uris":{"android":"levelo://app?vid=e8f11c08-82eb-4e96-977c-b9576f0a8d4e","ios":"levelo://app?vid=e8f11c08-82eb-4e96-977c-b9576f0a8d4e"},"vehicle_type_id":"4","last_reported":1700723181,"current_range_meters":20400,"station_id":"ce4bhgp2rcd13ifvqfe0","pricing_plan_id":"free"},{"bike_id":"bcb8e8cf-0fea-4983-8bbf-6f44194728ea","system_id":"levelo_inurba_marseille","lat":43.27316,"lon":5.390853,"is_reserved":false,"is_disabled":false,"rental_uris":{"android":"levelo://app?vid=bcb8e8cf-0fea-4983-8bbf-6f44194728ea","ios":"levelo://app?vid=bcb8e8cf-0fea-4983-8bbf-6f44194728ea"},"vehicle_type_id":"4","last_reported":1700723181,"current_range_meters":22800,"station_id":"ce4bhgp2rcd13ifvqfe0","pricing_plan_id":"free"},{"bike_id":"2b7a98e0-032c-4fc1-a570-cbe9aaa90ca6","system_id":"levelo_inurba_marseille","lat":43.274099,"lon":5.394019,"is_reserved":false,"is_disabled":false,"rental_uris":{"android":"levelo://app?vid=2b7a98e0-032c-4fc1-a570-cbe9aaa90ca6","ios":"levelo://app?vid=2b7a98e0-032c-4fc1-a570-cbe9aaa90ca6"},"vehicle_type_id":"4","last_reported":1700723181,"current_range_meters":26400,"station_id":"ce4bhdp2rcd13ifvqf20","pricing_plan_id":"free"},{"bike_id":"3719bf19-a1d2-47e3-86bc-ad1c1aace7b7","system_id":"levelo_inurba_marseille","lat":43.295511,"lon":5.422926,"is_reserved":false,"is_disabled":false,"rental_uris":{"android":"levelo://app?vid=3719bf19-a1d2-47e3-86bc-ad1c1aace7b7","ios":"levelo://app?vid=3719bf19-a1d2-47e3-86bc-ad1c1aace7b7"},"vehicle_type_id":"4","last_reported":1700723181,"current_range_meters":0,"station_id":"ce4bhph2rcd13ifvqhdg","pricing_plan_id":"free"},{"bike_id":"c03c776e-60a9-43ba-89c9-11f19a02ea23","system_id":"levelo_inurba_marseille","lat":43.295523,"lon":5.422926,"is_reserved":false,"is_disabled":false,"rental_uris":{"android":"levelo://app?vid=c03c776e-60a9-43ba-89c9-11f19a02ea23","ios":"levelo://app?vid=c03c776e-60a9-43ba-89c9-11f19a02ea23"},"vehicle_type_id":"4","last_reported":1700723181,"current_range_meters":30000,"station_id":"ce4bhph2rcd13ifvqhdg","pricing_plan_id":"free"},{"bike_id":"d0bb53f7-f1b8-4609-a668-27efdac67f66","system_id":"levelo_inurba_marseille","lat":43.27192,"lon":5.39244,"is_reserved":false,"is_disabled":false,"rental_uris":{"android":"levelo://app?vid=d0bb53f7-f1b8-4609-a668-27efdac67f66","ios":"levelo://app?vid=d0bb53f7-f1b8-4609-a668-27efdac67f66"},"vehicle_type_id":"4","last_reported":1700723181,"current_range_meters":0,"station_id":"","pricing_plan_id":"free"},{"bike_id":"6885169e-7669-4531-aa33-6c6844631d15","system_id":"levelo_inurba_marseille","lat":43.278128,"lon":5.407195,"is_reserved":false,"is_disabled":false,"rental_uris":{"android":"levelo://app?vid=6885169e-7669-4531-aa33-6c6844631d15","ios":"levelo://app?vid=6885169e-7669-4531-aa33-6c6844631d15"},"vehicle_type_id":"4","last_reported":1700723181,"current_range_meters":27200,"station_id":"ce4bhnh2rcd13ifvqgtg","pricing_plan_id":"free"},{"bike_id":"c6607ddc-aa1d-4d07-bc8c-b7900fb9ace7","system_id":"levelo_inurba_marseille","lat":43.278128,"lon":5.407195,"is_reserved":false,"is_disabled":false,"rental_uris":{"android":"levelo://app?vid=c6607ddc-aa1d-4d07-bc8c-b7900fb9ace7","ios":"levelo://app?vid=c6607ddc-aa1d-4d07-bc8c-b7900fb9ace7"},"vehicle_type_id":"4","last_reported":1700723181,"current_range_meters":20000,"station_id":"ce4bhnh2rcd13ifvqgtg","pricing_plan_id":"free"},{"bike_id":"499bb96d-d924-49d0-a3d8-189ada583b21","system_id":"levelo_inurba_marseille","lat":43.27813,"lon":5.40723,"is_reserved":false,"is_disabled":false,"rental_uris":{"android":"levelo://app?vid=499bb96d-d924-49d0-a3d8-189ada583b21","ios":"levelo://app?vid=499bb96d-d924-49d0-a3d8-189ada583b21"},"vehicle_type_id":"4","last_reported":1700723181,"current_range_meters":30400,"station_id":"ce4bhnh2rcd13ifvqgtg","pricing_plan_id":"free"},{"bike_id":"7aa4eb4f-ac06-45ab-98e1-355a1f7c50e7","system_id":"levelo_inurba_marseille","lat":43.269467,"lon":5.386439,"is_reserved":false,"is_disabled":false,"rental_uris":{"android":"levelo://app?vid=7aa4eb4f-ac06-45ab-98e1-355a1f7c50e7","ios":"levelo://app?vid=7aa4eb4f-ac06-45ab-98e1-355a1f7c50e7"},"vehicle_type_id":"4","last_reported":1700723181,"current_range_meters":22800,"station_id":"ce4bhh92rcd13ifvqfh0","pricing_plan_id":"free"},{"bike_id":"42d5b3e2-e755-4b44-844d-552981893b29","system_id":"levelo_inurba_marseille","lat":43.269467,"lon":5.386439,"is_reserved":false,"is_disabled":false,"rental_uris":{"android":"levelo://app?vid=42d5b3e2-e755-4b44-844d-552981893b29","ios":"levelo://app?vid=42d5b3e2-e755-4b44-844d-552981893b29"},"vehicle_type_id":"4","last_reported":1700723181,"current_range_meters":28400,"station_id":"ce4bhh92rcd13ifvqfh0","pricing_plan_id":"free"},{"bike_id":"726331a5-381b-412f-81a3-73fe2711066a","system_id":"levelo_inurba_marseille","lat":43.269467,"lon":5.386439,"is_reserved":false,"is_disabled":false,"rental_uris":{"android":"levelo://app?vid=726331a5-381b-412f-81a3-73fe2711066a","ios":"levelo://app?vid=726331a5-381b-412f-81a3-73fe2711066a"},"vehicle_type_id":"4","last_reported":1700723181,"current_range_meters":31200,"station_id":"ce4bhh92rcd13ifvqfh0","pricing_plan_id":"free"},{"bike_id":"1886812a-87c7-408f-ab82-6a68d649c327","system_id":"levelo_inurba_marseille","lat":43.269467,"lon":5.386439,"is_reserved":false,"is_disabled":false,"rental_uris":{"android":"levelo://app?vid=1886812a-87c7-408f-ab82-6a68d649c327","ios":"levelo://app?vid=1886812a-87c7-408f-ab82-6a68d649c327"},"vehicle_type_id":"4","last_reported":1700723181,"current_range_meters":15600,"station_id":"ce4bhh92rcd13ifvqfh0","pricing_plan_id":"free"},{"bike_id":"e785c681-8279-4c83-b064-83c2e3a32ca5","system_id":"levelo_inurba_marseille","lat":43.269467,"lon":5.386439,"is_reserved":false,"is_disabled":false,"rental_uris":{"android":"levelo://app?vid=e785c681-8279-4c83-b064-83c2e3a32ca5","ios":"levelo://app?vid=e785c681-8279-4c83-b064-83c2e3a32ca5"},"vehicle_type_id":"4","last_reported":1700723181,"current_range_meters":28400,"station_id":"ce4bhh92rcd13ifvqfh0","pricing_plan_id":"free"},{"bike_id":"946b9dd8-6f23-4cde-927d-41b5d8ac44cd","system_id":"levelo_inurba_marseille","lat":43.269467,"lon":5.386439,"is_reserved":false,"is_disabled":false,"rental_uris":{"android":"levelo://app?vid=946b9dd8-6f23-4cde-927d-41b5d8ac44cd","ios":"levelo://app?vid=946b9dd8-6f23-4cde-927d-41b5d8ac44cd"},"vehicle_type_id":"4","last_reported":1700723181,"current_range_meters":26800,"station_id":"ce4bhh92rcd13ifvqfh0","pricing_plan_id":"free"},{"bike_id":"0175653b-53f3-454f-9613-fdfdcee92d06","system_id":"levelo_inurba_marseille","lat":43.269467,"lon":5.386439,"is_reserved":false,"is_disabled":false,"rental_uris":{"android":"levelo://app?vid=0175653b-53f3-454f-9613-fdfdcee92d06","ios":"levelo://app?vid=0175653b-53f3-454f-9613-fdfdcee92d06"},"vehicle_type_id":"4","last_reported":1700723181,"current_range_meters":27200,"station_id":"ce4bhh92rcd13ifvqfh0","pricing_plan_id":"free"},{"bike_id":"6894aa51-55c1-40c5-9ad2-f2494889d7ce","system_id":"levelo_inurba_marseille","lat":43.269467,"lon":5.386439,"is_reserved":false,"is_disabled":false,"rental_uris":{"android":"levelo://app?vid=6894aa51-55c1-40c5-9ad2-f2494889d7ce","ios":"levelo://app?vid=6894aa51-55c1-40c5-9ad2-f2494889d7ce"},"vehicle_type_id":"4","last_reported":1700723181,"current_range_meters":17200,"station_id":"ce4bhh92rcd13ifvqfh0","pricing_plan_id":"free"},{"bike_id":"ec9bb202-232b-4ca7-8388-6ca6f3ab3904","system_id":"levelo_inurba_marseille","lat":43.26688,"lon":5.38274,"is_reserved":false,"is_disabled":false,"rental_uris":{"android":"levelo://app?vid=ec9bb202-232b-4ca7-8388-6ca6f3ab3904","ios":"levelo://app?vid=ec9bb202-232b-4ca7-8388-6ca6f3ab3904"},"vehicle_type_id":"4","last_reported":1700723181,"current_range_meters":29600,"station_id":"ce4bhg92rcd13ifvqf90","pricing_plan_id":"free"},{"bike_id":"6d80c712-2bde-477a-8a83-9927cec74d54","system_id":"levelo_inurba_marseille","lat":43.26687,"lon":5.38274,"is_reserved":false,"is_disabled":false,"rental_uris":{"android":"levelo://app?vid=6d80c712-2bde-477a-8a83-9927cec74d54","ios":"levelo://app?vid=6d80c712-2bde-477a-8a83-9927cec74d54"},"vehicle_type_id":"4","last_reported":1700723181,"current_range_meters":28800,"station_id":"ce4bhg92rcd13ifvqf90","pricing_plan_id":"free"},{"bike_id":"8ad24fb6-7255-4f55-987d-f912c5ab4fd6","system_id":"levelo_inurba_marseille","lat":43.26681,"lon":5.382694,"is_reserved":false,"is_disabled":false,"rental_uris":{"android":"levelo://app?vid=8ad24fb6-7255-4f55-987d-f912c5ab4fd6","ios":"levelo://app?vid=8ad24fb6-7255-4f55-987d-f912c5ab4fd6"},"vehicle_type_id":"4","last_reported":1700723181,"current_range_meters":28800,"station_id":"ce4bhg92rcd13ifvqf90","pricing_plan_id":"free"},{"bike_id":"5f6fe231-8687-402c-960d-790de758e194","system_id":"levelo_inurba_marseille","lat":43.26681,"lon":5.382694,"is_reserved":false,"is_disabled":false,"rental_uris":{"android":"levelo://app?vid=5f6fe231-8687-402c-960d-790de758e194","ios":"levelo://app?vid=5f6fe231-8687-402c-960d-790de758e194"},"vehicle_type_id":"4","last_reported":1700723181,"current_range_meters":18800,"station_id":"ce4bhg92rcd13ifvqf90","pricing_plan_id":"free"},{"bike_id":"4a938a46-e5aa-4d36-8ca7-31538bbdad63","system_id":"levelo_inurba_marseille","lat":43.26551,"lon":5.37282,"is_reserved":false,"is_disabled":false,"rental_uris":{"android":"levelo://app?vid=4a938a46-e5aa-4d36-8ca7-31538bbdad63","ios":"levelo://app?vid=4a938a46-e5aa-4d36-8ca7-31538bbdad63"},"vehicle_type_id":"4","last_reported":1700723181,"current_range_meters":29600,"station_id":"ce4bhg12rcd13ifvqf70","pricing_plan_id":"free"},{"bike_id":"28e8ce00-6b21-4e06-9930-c7c4408cc650","system_id":"levelo_inurba_marseille","lat":43.326174,"lon":5.430584,"is_reserved":false,"is_disabled":false,"rental_uris":{"android":"levelo://app?vid=28e8ce00-6b21-4e06-9930-c7c4408cc650","ios":"levelo://app?vid=28e8ce00-6b21-4e06-9930-c7c4408cc650"},"vehicle_type_id":"4","last_reported":1700723181,"current_range_meters":4000,"station_id":"","pricing_plan_id":"free"},{"bike_id":"6a59799e-26a2-4354-9674-10e2228443f5","system_id":"levelo_inurba_marseille","lat":43.265714,"lon":5.372891,"is_reserved":false,"is_disabled":false,"rental_uris":{"android":"levelo://app?vid=6a59799e-26a2-4354-9674-10e2228443f5","ios":"levelo://app?vid=6a59799e-26a2-4354-9674-10e2228443f5"},"vehicle_type_id":"4","last_reported":1700723181,"current_range_meters":24800,"station_id":"ce4bhg12rcd13ifvqf70","pricing_plan_id":"free"},{"bike_id":"2b5f0b27-ae58-4e9e-bd76-c585f78e8a73","system_id":"levelo_inurba_marseille","lat":43.26386,"lon":5.37454,"is_reserved":false,"is_disabled":false,"rental_uris":{"android":"levelo://app?vid=2b5f0b27-ae58-4e9e-bd76-c585f78e8a73","ios":"levelo://app?vid=2b5f0b27-ae58-4e9e-bd76-c585f78e8a73"},"vehicle_type_id":"4","last_reported":1700723181,"current_range_meters":19600,"station_id":"","pricing_plan_id":"free"},{"bike_id":"983192bb-367e-4a99-a9b2-c76c5372b1eb","system_id":"levelo_inurba_marseille","lat":43.26573,"lon":5.39002,"is_reserved":false,"is_disabled":false,"rental_uris":{"android":"levelo://app?vid=983192bb-367e-4a99-a9b2-c76c5372b1eb","ios":"levelo://app?vid=983192bb-367e-4a99-a9b2-c76c5372b1eb"},"vehicle_type_id":"4","last_reported":1700723181,"current_range_meters":20000,"station_id":"ce4bhe12rcd13ifvqf30","pricing_plan_id":"free"},{"bike_id":"6e14d0fc-72e8-4b7c-b39e-d531866bb4d9","system_id":"levelo_inurba_marseille","lat":43.26567,"lon":5.39006,"is_reserved":false,"is_disabled":false,"rental_uris":{"android":"levelo://app?vid=6e14d0fc-72e8-4b7c-b39e-d531866bb4d9","ios":"levelo://app?vid=6e14d0fc-72e8-4b7c-b39e-d531866bb4d9"},"vehicle_type_id":"4","last_reported":1700723181,"current_range_meters":30400,"station_id":"ce4bhe12rcd13ifvqf30","pricing_plan_id":"free"},{"bike_id":"8be6de65-7ab4-4def-b35b-45dfbd0227b5","system_id":"levelo_inurba_marseille","lat":43.26568,"lon":5.39013,"is_reserved":false,"is_disabled":false,"rental_uris":{"android":"levelo://app?vid=8be6de65-7ab4-4def-b35b-45dfbd0227b5","ios":"levelo://app?vid=8be6de65-7ab4-4def-b35b-45dfbd0227b5"},"vehicle_type_id":"4","last_reported":1700723181,"current_range_meters":23200,"station_id":"ce4bhe12rcd13ifvqf30","pricing_plan_id":"free"},{"bike_id":"2434a9ac-7250-4181-90a7-cc99c6d1450a","system_id":"levelo_inurba_marseille","lat":43.26566,"lon":5.39008,"is_reserved":false,"is_disabled":false,"rental_uris":{"android":"levelo://app?vid=2434a9ac-7250-4181-90a7-cc99c6d1450a","ios":"levelo://app?vid=2434a9ac-7250-4181-90a7-cc99c6d1450a"},"vehicle_type_id":"4","last_reported":1700723181,"current_range_meters":21200,"station_id":"ce4bhe12rcd13ifvqf30","pricing_plan_id":"free"},{"bike_id":"15a7d482-4094-4347-8dda-b8796ef65b67","system_id":"levelo_inurba_marseille","lat":43.265569,"lon":5.390047,"is_reserved":false,"is_disabled":false,"rental_uris":{"android":"levelo://app?vid=15a7d482-4094-4347-8dda-b8796ef65b67","ios":"levelo://app?vid=15a7d482-4094-4347-8dda-b8796ef65b67"},"vehicle_type_id":"4","last_reported":1700723181,"current_range_meters":24400,"station_id":"ce4bhe12rcd13ifvqf30","pricing_plan_id":"free"},{"bike_id":"b6cfce60-d62b-4ab6-a842-178e483ef5ad","system_id":"levelo_inurba_marseille","lat":43.26563,"lon":5.39004,"is_reserved":false,"is_disabled":false,"rental_uris":{"android":"levelo://app?vid=b6cfce60-d62b-4ab6-a842-178e483ef5ad","ios":"levelo://app?vid=b6cfce60-d62b-4ab6-a842-178e483ef5ad"},"vehicle_type_id":"4","last_reported":1700723181,"current_range_meters":30000,"station_id":"ce4bhe12rcd13ifvqf30","pricing_plan_id":"free"},{"bike_id":"c3b2fc16-aa62-4216-b09e-957fa7fe1276","system_id":"levelo_inurba_marseille","lat":43.265569,"lon":5.390047,"is_reserved":false,"is_disabled":false,"rental_uris":{"android":"levelo://app?vid=c3b2fc16-aa62-4216-b09e-957fa7fe1276","ios":"levelo://app?vid=c3b2fc16-aa62-4216-b09e-957fa7fe1276"},"vehicle_type_id":"4","last_reported":1700723181,"current_range_meters":17200,"station_id":"ce4bhe12rcd13ifvqf30","pricing_plan_id":"free"},{"bike_id":"9ec29100-600c-4502-90ae-affb68b792d2","system_id":"levelo_inurba_marseille","lat":43.26949,"lon":5.40262,"is_reserved":false,"is_disabled":false,"rental_uris":{"android":"levelo://app?vid=9ec29100-600c-4502-90ae-affb68b792d2","ios":"levelo://app?vid=9ec29100-600c-4502-90ae-affb68b792d2"},"vehicle_type_id":"4","last_reported":1700723181,"current_range_meters":24000,"station_id":"cjm6bp8fraef2m0cb0m0","pricing_plan_id":"free"},{"bike_id":"5a647630-9d46-4948-8eb7-d34938842c87","system_id":"levelo_inurba_marseille","lat":43.261782,"lon":5.374515,"is_reserved":false,"is_disabled":false,"rental_uris":{"android":"levelo://app?vid=5a647630-9d46-4948-8eb7-d34938842c87","ios":"levelo://app?vid=5a647630-9d46-4948-8eb7-d34938842c87"},"vehicle_type_id":"4","last_reported":1700723181,"current_range_meters":30000,"station_id":"ce4bhgp2rcd13ifvqfc0","pricing_plan_id":"free"},{"bike_id":"0c1ccddf-9be0-4743-8da5-6d7e78fc22ad","system_id":"levelo_inurba_marseille","lat":43.317104,"lon":5.436818,"is_reserved":false,"is_disabled":false,"rental_uris":{"android":"levelo://app?vid=0c1ccddf-9be0-4743-8da5-6d7e78fc22ad","ios":"levelo://app?vid=0c1ccddf-9be0-4743-8da5-6d7e78fc22ad"},"vehicle_type_id":"4","last_reported":1700723181,"current_range_meters":28000,"station_id":"ce4bhp92rcd13ifvqhcg","pricing_plan_id":"free"},{"bike_id":"a1d78771-14ae-461f-9ac1-d531a148ebbe","system_id":"levelo_inurba_marseille","lat":43.261782,"lon":5.374515,"is_reserved":false,"is_disabled":false,"rental_uris":{"android":"levelo://app?vid=a1d78771-14ae-461f-9ac1-d531a148ebbe","ios":"levelo://app?vid=a1d78771-14ae-461f-9ac1-d531a148ebbe"},"vehicle_type_id":"4","last_reported":1700723181,"current_range_meters":23600,"station_id":"ce4bhgp2rcd13ifvqfc0","pricing_plan_id":"free"},{"bike_id":"89d7335e-3645-4638-83ba-2585d8f30172","system_id":"levelo_inurba_marseille","lat":43.262012,"lon":5.379307,"is_reserved":false,"is_disabled":false,"rental_uris":{"android":"levelo://app?vid=89d7335e-3645-4638-83ba-2585d8f30172","ios":"levelo://app?vid=89d7335e-3645-4638-83ba-2585d8f30172"},"vehicle_type_id":"4","last_reported":1700723181,"current_range_meters":27600,"station_id":"ce4bhjp2rcd13ifvqg90","pricing_plan_id":"free"},{"bike_id":"861e94e2-982b-4215-a671-df650b5b6578","system_id":"levelo_inurba_marseille","lat":43.271368,"lon":5.40928,"is_reserved":false,"is_disabled":false,"rental_uris":{"android":"levelo://app?vid=861e94e2-982b-4215-a671-df650b5b6578","ios":"levelo://app?vid=861e94e2-982b-4215-a671-df650b5b6578"},"vehicle_type_id":"4","last_reported":1700723181,"current_range_meters":30400,"station_id":"ce4bhl12rcd13ifvqgf0","pricing_plan_id":"free"},{"bike_id":"1ec02c52-83d7-4930-98cc-a30ac1c548f5","system_id":"levelo_inurba_marseille","lat":43.271368,"lon":5.40928,"is_reserved":false,"is_disabled":false,"rental_uris":{"android":"levelo://app?vid=1ec02c52-83d7-4930-98cc-a30ac1c548f5","ios":"levelo://app?vid=1ec02c52-83d7-4930-98cc-a30ac1c548f5"},"vehicle_type_id":"4","last_reported":1700723181,"current_range_meters":28400,"station_id":"ce4bhl12rcd13ifvqgf0","pricing_plan_id":"free"},{"bike_id":"860103e4-b3a2-49bf-a852-14e4f54ff085","system_id":"levelo_inurba_marseille","lat":43.27178,"lon":5.40996,"is_reserved":false,"is_disabled":false,"rental_uris":{"android":"levelo://app?vid=860103e4-b3a2-49bf-a852-14e4f54ff085","ios":"levelo://app?vid=860103e4-b3a2-49bf-a852-14e4f54ff085"},"vehicle_type_id":"4","last_reported":1700723181,"current_range_meters":28000,"station_id":"ce4bhl12rcd13ifvqgf0","pricing_plan_id":"free"},{"bike_id":"33a47d97-7d3c-469c-9014-f117a229b731","system_id":"levelo_inurba_marseille","lat":43.271368,"lon":5.40928,"is_reserved":false,"is_disabled":false,"rental_uris":{"android":"levelo://app?vid=33a47d97-7d3c-469c-9014-f117a229b731","ios":"levelo://app?vid=33a47d97-7d3c-469c-9014-f117a229b731"},"vehicle_type_id":"4","last_reported":1700723181,"current_range_meters":22800,"station_id":"ce4bhl12rcd13ifvqgf0","pricing_plan_id":"free"},{"bike_id":"ff7a45ff-5d52-41fa-a439-5d65ece23909","system_id":"levelo_inurba_marseille","lat":43.271368,"lon":5.40928,"is_reserved":false,"is_disabled":false,"rental_uris":{"android":"levelo://app?vid=ff7a45ff-5d52-41fa-a439-5d65ece23909","ios":"levelo://app?vid=ff7a45ff-5d52-41fa-a439-5d65ece23909"},"vehicle_type_id":"4","last_reported":1700723181,"current_range_meters":26800,"station_id":"ce4bhl12rcd13ifvqgf0","pricing_plan_id":"free"},{"bike_id":"2f9c6419-d9de-4778-9648-b8fc5484b985","system_id":"levelo_inurba_marseille","lat":43.271368,"lon":5.40928,"is_reserved":false,"is_disabled":false,"rental_uris":{"android":"levelo://app?vid=2f9c6419-d9de-4778-9648-b8fc5484b985","ios":"levelo://app?vid=2f9c6419-d9de-4778-9648-b8fc5484b985"},"vehicle_type_id":"4","last_reported":1700723181,"current_range_meters":20000,"station_id":"ce4bhl12rcd13ifvqgf0","pricing_plan_id":"free"},{"bike_id":"18196486-2405-490c-af88-adaff68f000c","system_id":"levelo_inurba_marseille","lat":43.26802,"lon":5.40268,"is_reserved":false,"is_disabled":false,"rental_uris":{"android":"levelo://app?vid=18196486-2405-490c-af88-adaff68f000c","ios":"levelo://app?vid=18196486-2405-490c-af88-adaff68f000c"},"vehicle_type_id":"4","last_reported":1700723181,"current_range_meters":25200,"station_id":"ce501612rcd8frsf0b60","pricing_plan_id":"free"},{"bike_id":"cb16d7ee-4d8d-44c4-bc7a-142b1234ab63","system_id":"levelo_inurba_marseille","lat":43.31725,"lon":5.43786,"is_reserved":false,"is_disabled":false,"rental_uris":{"android":"levelo://app?vid=cb16d7ee-4d8d-44c4-bc7a-142b1234ab63","ios":"levelo://app?vid=cb16d7ee-4d8d-44c4-bc7a-142b1234ab63"},"vehicle_type_id":"4","last_reported":1700723181,"current_range_meters":400,"station_id":"","pricing_plan_id":"free"},{"bike_id":"fcac191f-8e47-46d0-bba8-a0fa6cdc553b","system_id":"levelo_inurba_marseille","lat":43.298768,"lon":5.43643,"is_reserved":false,"is_disabled":false,"rental_uris":{"android":"levelo://app?vid=fcac191f-8e47-46d0-bba8-a0fa6cdc553b","ios":"levelo://app?vid=fcac191f-8e47-46d0-bba8-a0fa6cdc553b"},"vehicle_type_id":"4","last_reported":1700723181,"current_range_meters":7600,"station_id":"ce4bhpp2rcd13ifvqhfg","pricing_plan_id":"free"},{"bike_id":"6e6f931f-34d6-4513-b4cb-e819228924be","system_id":"levelo_inurba_marseille","lat":43.260225,"lon":5.375455,"is_reserved":false,"is_disabled":false,"rental_uris":{"android":"levelo://app?vid=6e6f931f-34d6-4513-b4cb-e819228924be","ios":"levelo://app?vid=6e6f931f-34d6-4513-b4cb-e819228924be"},"vehicle_type_id":"4","last_reported":1700723181,"current_range_meters":14800,"station_id":"ce4bhgh2rcd13ifvqfa0","pricing_plan_id":"free"},{"bike_id":"56cfcdad-7deb-457c-aa73-c91fd9caf8e3","system_id":"levelo_inurba_marseille","lat":43.281548,"lon":5.42643,"is_reserved":false,"is_disabled":false,"rental_uris":{"android":"levelo://app?vid=56cfcdad-7deb-457c-aa73-c91fd9caf8e3","ios":"levelo://app?vid=56cfcdad-7deb-457c-aa73-c91fd9caf8e3"},"vehicle_type_id":"4","last_reported":1700723181,"current_range_meters":29600,"station_id":"ce4bhnh2rcd13ifvqgug","pricing_plan_id":"free"},{"bike_id":"a3ee40d3-b20e-4c4d-bc66-fceeee5ba217","system_id":"levelo_inurba_marseille","lat":43.281548,"lon":5.42643,"is_reserved":false,"is_disabled":false,"rental_uris":{"android":"levelo://app?vid=a3ee40d3-b20e-4c4d-bc66-fceeee5ba217","ios":"levelo://app?vid=a3ee40d3-b20e-4c4d-bc66-fceeee5ba217"},"vehicle_type_id":"4","last_reported":1700723181,"current_range_meters":30400,"station_id":"ce4bhnh2rcd13ifvqgug","pricing_plan_id":"free"},{"bike_id":"b4dd9c9b-3387-4443-a99e-ae4b202c88d0","system_id":"levelo_inurba_marseille","lat":43.26069,"lon":5.39391,"is_reserved":false,"is_disabled":false,"rental_uris":{"android":"levelo://app?vid=b4dd9c9b-3387-4443-a99e-ae4b202c88d0","ios":"levelo://app?vid=b4dd9c9b-3387-4443-a99e-ae4b202c88d0"},"vehicle_type_id":"4","last_reported":1700723181,"current_range_meters":29600,"station_id":"ce4bhh92rcd13ifvqfj0","pricing_plan_id":"free"},{"bike_id":"05e3f246-14c4-42ea-94f0-7f5edda1edc8","system_id":"levelo_inurba_marseille","lat":43.275028,"lon":5.424534,"is_reserved":false,"is_disabled":false,"rental_uris":{"android":"levelo://app?vid=05e3f246-14c4-42ea-94f0-7f5edda1edc8","ios":"levelo://app?vid=05e3f246-14c4-42ea-94f0-7f5edda1edc8"},"vehicle_type_id":"4","last_reported":1700723181,"current_range_meters":12000,"station_id":"ce4bhn92rcd13ifvqgrg","pricing_plan_id":"free"},{"bike_id":"0b943efe-8fc7-4591-97cf-7ac81ccc7892","system_id":"levelo_inurba_marseille","lat":43.275028,"lon":5.424534,"is_reserved":false,"is_disabled":false,"rental_uris":{"android":"levelo://app?vid=0b943efe-8fc7-4591-97cf-7ac81ccc7892","ios":"levelo://app?vid=0b943efe-8fc7-4591-97cf-7ac81ccc7892"},"vehicle_type_id":"4","last_reported":1700723181,"current_range_meters":28800,"station_id":"ce4bhn92rcd13ifvqgrg","pricing_plan_id":"free"},{"bike_id":"4089c0fd-abcc-4017-8069-a09b41ffc9ed","system_id":"levelo_inurba_marseille","lat":43.275028,"lon":5.424534,"is_reserved":false,"is_disabled":false,"rental_uris":{"android":"levelo://app?vid=4089c0fd-abcc-4017-8069-a09b41ffc9ed","ios":"levelo://app?vid=4089c0fd-abcc-4017-8069-a09b41ffc9ed"},"vehicle_type_id":"4","last_reported":1700723181,"current_range_meters":22800,"station_id":"ce4bhn92rcd13ifvqgrg","pricing_plan_id":"free"},{"bike_id":"f6e8e16b-61f5-41a0-a327-4af5969d9748","system_id":"levelo_inurba_marseille","lat":43.275028,"lon":5.424534,"is_reserved":false,"is_disabled":false,"rental_uris":{"android":"levelo://app?vid=f6e8e16b-61f5-41a0-a327-4af5969d9748","ios":"levelo://app?vid=f6e8e16b-61f5-41a0-a327-4af5969d9748"},"vehicle_type_id":"4","last_reported":1700723181,"current_range_meters":18800,"station_id":"ce4bhn92rcd13ifvqgrg","pricing_plan_id":"free"},{"bike_id":"7371b4a1-8251-4e69-849c-dce668ffc81f","system_id":"levelo_inurba_marseille","lat":43.275028,"lon":5.424534,"is_reserved":false,"is_disabled":false,"rental_uris":{"android":"levelo://app?vid=7371b4a1-8251-4e69-849c-dce668ffc81f","ios":"levelo://app?vid=7371b4a1-8251-4e69-849c-dce668ffc81f"},"vehicle_type_id":"4","last_reported":1700723181,"current_range_meters":15600,"station_id":"ce4bhn92rcd13ifvqgrg","pricing_plan_id":"free"},{"bike_id":"6e7613d8-87ad-44c3-aa6f-2d6c01c9bbb0","system_id":"levelo_inurba_marseille","lat":43.275028,"lon":5.424534,"is_reserved":false,"is_disabled":false,"rental_uris":{"android":"levelo://app?vid=6e7613d8-87ad-44c3-aa6f-2d6c01c9bbb0","ios":"levelo://app?vid=6e7613d8-87ad-44c3-aa6f-2d6c01c9bbb0"},"vehicle_type_id":"4","last_reported":1700723181,"current_range_meters":20400,"station_id":"ce4bhn92rcd13ifvqgrg","pricing_plan_id":"free"},{"bike_id":"cd2446c7-e42a-4d8e-a5db-c1b65262cf68","system_id":"levelo_inurba_marseille","lat":43.275028,"lon":5.424534,"is_reserved":false,"is_disabled":false,"rental_uris":{"android":"levelo://app?vid=cd2446c7-e42a-4d8e-a5db-c1b65262cf68","ios":"levelo://app?vid=cd2446c7-e42a-4d8e-a5db-c1b65262cf68"},"vehicle_type_id":"4","last_reported":1700723181,"current_range_meters":20400,"station_id":"ce4bhn92rcd13ifvqgrg","pricing_plan_id":"free"},{"bike_id":"0caf4e48-f673-423b-867c-8e8e27443379","system_id":"levelo_inurba_marseille","lat":43.260909,"lon":5.397591,"is_reserved":false,"is_disabled":false,"rental_uris":{"android":"levelo://app?vid=0caf4e48-f673-423b-867c-8e8e27443379","ios":"levelo://app?vid=0caf4e48-f673-423b-867c-8e8e27443379"},"vehicle_type_id":"4","last_reported":1700723181,"current_range_meters":24400,"station_id":"ce4bhi12rcd13ifvqfq0","pricing_plan_id":"free"},{"bike_id":"4c65d4ee-1f2a-44cb-a722-9171cf64d248","system_id":"levelo_inurba_marseille","lat":43.258224,"lon":5.394369,"is_reserved":false,"is_disabled":false,"rental_uris":{"android":"levelo://app?vid=4c65d4ee-1f2a-44cb-a722-9171cf64d248","ios":"levelo://app?vid=4c65d4ee-1f2a-44cb-a722-9171cf64d248"},"vehicle_type_id":"4","last_reported":1700723181,"current_range_meters":18000,"station_id":"ce4bhip2rcd13ifvqft0","pricing_plan_id":"free"},{"bike_id":"3dce9947-a3e6-41d0-be08-8dd732e353e7","system_id":"levelo_inurba_marseille","lat":43.255756,"lon":5.382303,"is_reserved":false,"is_disabled":false,"rental_uris":{"android":"levelo://app?vid=3dce9947-a3e6-41d0-be08-8dd732e353e7","ios":"levelo://app?vid=3dce9947-a3e6-41d0-be08-8dd732e353e7"},"vehicle_type_id":"4","last_reported":1700723181,"current_range_meters":8400,"station_id":"ce4bhih2rcd13ifvqfs0","pricing_plan_id":"free"},{"bike_id":"e47e1dfd-4446-4396-a1e6-33d759083564","system_id":"levelo_inurba_marseille","lat":43.25575,"lon":5.38239,"is_reserved":false,"is_disabled":false,"rental_uris":{"android":"levelo://app?vid=e47e1dfd-4446-4396-a1e6-33d759083564","ios":"levelo://app?vid=e47e1dfd-4446-4396-a1e6-33d759083564"},"vehicle_type_id":"4","last_reported":1700723181,"current_range_meters":18000,"station_id":"ce4bhih2rcd13ifvqfs0","pricing_plan_id":"free"},{"bike_id":"1f80372a-4985-4ccb-befe-789dc5db41db","system_id":"levelo_inurba_marseille","lat":43.258224,"lon":5.394369,"is_reserved":false,"is_disabled":false,"rental_uris":{"android":"levelo://app?vid=1f80372a-4985-4ccb-befe-789dc5db41db","ios":"levelo://app?vid=1f80372a-4985-4ccb-befe-789dc5db41db"},"vehicle_type_id":"4","last_reported":1700723181,"current_range_meters":15600,"station_id":"ce4bhip2rcd13ifvqft0","pricing_plan_id":"free"},{"bike_id":"bced07ff-4b57-45cc-a8c9-cd06e7bfe681","system_id":"levelo_inurba_marseille","lat":43.255756,"lon":5.382303,"is_reserved":false,"is_disabled":false,"rental_uris":{"android":"levelo://app?vid=bced07ff-4b57-45cc-a8c9-cd06e7bfe681","ios":"levelo://app?vid=bced07ff-4b57-45cc-a8c9-cd06e7bfe681"},"vehicle_type_id":"4","last_reported":1700723181,"current_range_meters":27200,"station_id":"ce4bhih2rcd13ifvqfs0","pricing_plan_id":"free"},{"bike_id":"25596b0f-e457-4e78-a519-0c9facc53855","system_id":"levelo_inurba_marseille","lat":43.254947,"lon":5.376454,"is_reserved":false,"is_disabled":false,"rental_uris":{"android":"levelo://app?vid=25596b0f-e457-4e78-a519-0c9facc53855","ios":"levelo://app?vid=25596b0f-e457-4e78-a519-0c9facc53855"},"vehicle_type_id":"4","last_reported":1700723181,"current_range_meters":22400,"station_id":"ce4bhh12rcd13ifvqff0","pricing_plan_id":"free"},{"bike_id":"970f733e-a905-4615-9d9b-fdda537c8caf","system_id":"levelo_inurba_marseille","lat":43.254947,"lon":5.376454,"is_reserved":false,"is_disabled":false,"rental_uris":{"android":"levelo://app?vid=970f733e-a905-4615-9d9b-fdda537c8caf","ios":"levelo://app?vid=970f733e-a905-4615-9d9b-fdda537c8caf"},"vehicle_type_id":"4","last_reported":1700723181,"current_range_meters":24000,"station_id":"ce4bhh12rcd13ifvqff0","pricing_plan_id":"free"},{"bike_id":"01f93f70-7088-4352-9ba2-dcb10c068540","system_id":"levelo_inurba_marseille","lat":43.270721,"lon":5.422764,"is_reserved":false,"is_disabled":false,"rental_uris":{"android":"levelo://app?vid=01f93f70-7088-4352-9ba2-dcb10c068540","ios":"levelo://app?vid=01f93f70-7088-4352-9ba2-dcb10c068540"},"vehicle_type_id":"4","last_reported":1700723181,"current_range_meters":400,"station_id":"ce4bhk92rcd13ifvqgb0","pricing_plan_id":"free"},{"bike_id":"96c34971-747a-4625-aae9-50bcc9227b4e","system_id":"levelo_inurba_marseille","lat":43.270721,"lon":5.422764,"is_reserved":false,"is_disabled":false,"rental_uris":{"android":"levelo://app?vid=96c34971-747a-4625-aae9-50bcc9227b4e","ios":"levelo://app?vid=96c34971-747a-4625-aae9-50bcc9227b4e"},"vehicle_type_id":"4","last_reported":1700723181,"current_range_meters":20400,"station_id":"ce4bhk92rcd13ifvqgb0","pricing_plan_id":"free"},{"bike_id":"474e422e-7087-400a-93f5-373acd2f9d86","system_id":"levelo_inurba_marseille","lat":43.270721,"lon":5.422764,"is_reserved":false,"is_disabled":false,"rental_uris":{"android":"levelo://app?vid=474e422e-7087-400a-93f5-373acd2f9d86","ios":"levelo://app?vid=474e422e-7087-400a-93f5-373acd2f9d86"},"vehicle_type_id":"4","last_reported":1700723181,"current_range_meters":21600,"station_id":"ce4bhk92rcd13ifvqgb0","pricing_plan_id":"free"},{"bike_id":"e0d5f712-d1ea-41ab-9399-f7b5540a36f7","system_id":"levelo_inurba_marseille","lat":43.270721,"lon":5.422764,"is_reserved":false,"is_disabled":false,"rental_uris":{"android":"levelo://app?vid=e0d5f712-d1ea-41ab-9399-f7b5540a36f7","ios":"levelo://app?vid=e0d5f712-d1ea-41ab-9399-f7b5540a36f7"},"vehicle_type_id":"4","last_reported":1700723181,"current_range_meters":29600,"station_id":"ce4bhk92rcd13ifvqgb0","pricing_plan_id":"free"},{"bike_id":"f34ea340-a762-46fe-9dc8-5ebb2e011160","system_id":"levelo_inurba_marseille","lat":43.259013,"lon":5.409301,"is_reserved":false,"is_disabled":false,"rental_uris":{"android":"levelo://app?vid=f34ea340-a762-46fe-9dc8-5ebb2e011160","ios":"levelo://app?vid=f34ea340-a762-46fe-9dc8-5ebb2e011160"},"vehicle_type_id":"4","last_reported":1700723181,"current_range_meters":12400,"station_id":"ce4bhm92rcd13ifvqglg","pricing_plan_id":"free"},{"bike_id":"a743744b-f449-4fae-b5a3-9613feda1679","system_id":"levelo_inurba_marseille","lat":43.259013,"lon":5.409301,"is_reserved":false,"is_disabled":false,"rental_uris":{"android":"levelo://app?vid=a743744b-f449-4fae-b5a3-9613feda1679","ios":"levelo://app?vid=a743744b-f449-4fae-b5a3-9613feda1679"},"vehicle_type_id":"4","last_reported":1700723181,"current_range_meters":25200,"station_id":"ce4bhm92rcd13ifvqglg","pricing_plan_id":"free"},{"bike_id":"5ea3fb16-a1b1-4ea0-9b9b-47f1c4d186c6","system_id":"levelo_inurba_marseille","lat":43.257079,"lon":5.411051,"is_reserved":false,"is_disabled":false,"rental_uris":{"android":"levelo://app?vid=5ea3fb16-a1b1-4ea0-9b9b-47f1c4d186c6","ios":"levelo://app?vid=5ea3fb16-a1b1-4ea0-9b9b-47f1c4d186c6"},"vehicle_type_id":"4","last_reported":1700723181,"current_range_meters":0,"station_id":"ce4bhkp2rcd13ifvqgd0","pricing_plan_id":"free"},{"bike_id":"f9af6401-d96b-48c2-96e6-de26481bcdb6","system_id":"levelo_inurba_marseille","lat":43.25721,"lon":5.41109,"is_reserved":false,"is_disabled":false,"rental_uris":{"android":"levelo://app?vid=f9af6401-d96b-48c2-96e6-de26481bcdb6","ios":"levelo://app?vid=f9af6401-d96b-48c2-96e6-de26481bcdb6"},"vehicle_type_id":"4","last_reported":1700723181,"current_range_meters":0,"station_id":"ce4bhkp2rcd13ifvqgd0","pricing_plan_id":"free"},{"bike_id":"5ab557ff-7f82-40a1-861d-2f0858f268ac","system_id":"levelo_inurba_marseille","lat":43.25109,"lon":5.40325,"is_reserved":false,"is_disabled":false,"rental_uris":{"android":"levelo://app?vid=5ab557ff-7f82-40a1-861d-2f0858f268ac","ios":"levelo://app?vid=5ab557ff-7f82-40a1-861d-2f0858f268ac"},"vehicle_type_id":"4","last_reported":1700723181,"current_range_meters":0,"station_id":"ce4bhlh2rcd13ifvqgig","pricing_plan_id":"free"},{"bike_id":"c8f41aa5-4037-421e-9daa-8d517d664b31","system_id":"levelo_inurba_marseille","lat":43.25102,"lon":5.403214,"is_reserved":false,"is_disabled":false,"rental_uris":{"android":"levelo://app?vid=c8f41aa5-4037-421e-9daa-8d517d664b31","ios":"levelo://app?vid=c8f41aa5-4037-421e-9daa-8d517d664b31"},"vehicle_type_id":"4","last_reported":1700723181,"current_range_meters":800,"station_id":"ce4bhlh2rcd13ifvqgig","pricing_plan_id":"free"},