{"last_updated":1752948871,"ttl":60,"version":"2.2","data":{"bikes":[{"bike_id":"53b742a7-31ae-4272-9bba-7740339e2a2f","system_id":"levelo_inurba_marseille","lat":43.33747,"lon":5.37463,"is_reserved":false,"is_disabled":false,"rental_uris":{"android":"levelo://app?vid=53b742a7-31ae-4272-9bba-7740339e2a2f","ios":"levelo://app?vid=53b742a7-31ae-4272-9bba-7740339e2a2f"},"vehicle_type_id":"1","last_reported":1752948871,"current_range_meters":14400,"station_id":"","pricing_plan_id":"cebpf4jnsgd1na2vs0mg"},{"bike_id":"a3fea934-e8d0-49e8-b719-8cc2baad773f","system_id":"levelo_inurba_marseille","lat":43.26936,"lon":5.38921,"is_reserved":false,"is_disabled":true,"rental_uris":{"android":"levelo://app?vid=a3fea934-e8d0-49e8-b719-8cc2baad773f","ios":"levelo://app?vid=a3fea934-e8d0-49e8-b719-8cc2baad773f"},"vehicle_type_id":"4","last_reported":1752948871,"current_range_meters":2800,"station_id":"ce4bhhh2rcd13ifvqfl0","pricing_plan_id":"cebpf4jnsgd1na2vs0mg"},{"bike_id":"74726b47-0518-422e-b5e6-75974a78a58b","system_id":"levelo_inurba_marseille","lat":43.32654,"lon":5.40976,"is_reserved":false,"is_disabled":false,"rental_uris":{"android":"levelo://app?vid=74726b47-0518-422e-b5e6-75974a78a58b","ios":"levelo://app?vid=74726b47-0518-422e-b5e6-75974a78a58b"},"vehicle_type_id":"4","last_reported":1752948871,"current_range_meters":2000,"station_id":"ce4bhpp2rcd13ifvqhgg","pricing_plan_id":"cebpf4jnsgd1na2vs0mg"},{"bike_id":"d4616602-547a-4299-bf11-9f28112a37b4","system_id":"levelo_inurba_marseille","lat":43.33296,"lon":5.39743,"is_reserved":false,"is_disabled":false,"rental_uris":{"android":"levelo://app?vid=d4616602-547a-4299-bf11-9f28112a37b4","ios":"levelo://app?vid=d4616602-547a-4299-bf11-9f28112a37b4"},"vehicle_type_id":"4","last_reported":1752948871,"current_range_meters":2800,"station_id":"","pricing_plan_id":"cebpf4jnsgd1na2vs0mg"},{"bike_id":"3444bdc6-514a-4ba6-9650-f9073305e33d","system_id":"levelo_inurba_marseille","lat":43.29682,"lon":5.3698,"is_reserved":false,"is_disabled":false,"rental_uris":{"android":"levelo://app?vid=3444bdc6-514a-4ba6-9650-f9073305e33d","ios":"levelo://app?vid=3444bdc6-514a-4ba6-9650-f9073305e33d"},"vehicle_type_id":"4","last_reported":1752948871,"current_range_meters":3200,"station_id":"","pricing_plan_id":"cebpf4jnsgd1na2vs0mg"},{"bike_id":"63420132-f811-4586-9c12-1acac22f65b1","system_id":"levelo_inurba_marseille","lat":43.21736,"lon":5.34622,"is_reserved":false,"is_disabled":false,"rental_uris":{"android":"levelo://app?vid=63420132-f811-4586-9c12-1acac22f65b1","ios":"levelo://app?vid=63420132-f811-4586-9c12-1acac22f65b1"},"vehicle_type_id":"4","last_reported":1752948871,"current_range_meters":3200,"station_id":"st_cvj6r9ubvosntc0bgbag","pricing_plan_id":"cebpf4jnsgd1na2vs0mg"},{"bike_id":"097fb417-221a-4ca5-b229-d5feda8b3797","system_id":"levelo_inurba_marseille","lat":43.26212,"lon":5.37434,"is_reserved":false,"is_disabled":false,"rental_uris":{"android":"levelo://app?vid=097fb417-221a-4ca5-b229-d5feda8b3797","ios":"levelo://app?vid=097fb417-221a-4ca5-b229-d5feda8b3797"},"vehicle_type_id":"4","last_reported":1752948871,"current_range_meters":3200,"station_id":"ce4bhgp2rcd13ifvqfc0","pricing_plan_id":"cebpf4jnsgd1na2vs0mg"},{"bike_id":"ab22402c-6609-4c48-b37f-f8d88a2c88af","system_id":"levelo_inurba_marseille","lat":43.25822,"lon":5.39436,"is_reserved":false,"is_disabled":false,"rental_uris":{"android":"levelo://app?vid=ab22402c-6609-4c48-b37f-f8d88a2c88af","ios":"levelo://app?vid=ab22402c-6609-4c48-b37f-f8d88a2c88af"},"vehicle_type_id":"4","last_reported":1752948871,"current_range_meters":2800,"station_id":"ce4bhip2rcd13ifvqft0","pricing_plan_id":"cebpf4jnsgd1na2vs0mg"},{"bike_id":"49aa1fe6-edbc-4db0-8333-3f82242fe36c","system_id":"levelo_inurba_marseille","lat":43.3046,"lon":5.37895,"is_reserved":false,"is_disabled":false,"rental_uris":{"android":"levelo://app?vid=49aa1fe6-edbc-4db0-8333-3f82242fe36c","ios":"levelo://app?vid=49aa1fe6-edbc-4db0-8333-3f82242fe36c"},"vehicle_type_id":"4","last_reported":1752948871,"current_range_meters":5600,"station_id":"ce4bgup2rcd13ifvqcn0","pricing_plan_id":"cebpf4jnsgd1na2vs0mg"},{"bike_id":"57bf6570-ff1a-4d36-a914-38a00de3af53","system_id":"levelo_inurba_marseille","lat":43.23965,"lon":5.36627,"is_reserved":false,"is_disabled":true,"rental_uris":{"android":"levelo://app?vid=57bf6570-ff1a-4d36-a914-38a00de3af53","ios":"levelo://app?vid=57bf6570-ff1a-4d36-a914-38a00de3af53"},"vehicle_type_id":"4","last_reported":1752948871,"current_range_meters":4000,"station_id":"ce4bhi12rcd13ifvqfp0","pricing_plan_id":"cebpf4jnsgd1na2vs0mg"},{"bike_id":"0368ae9a-b9e4-4b9b-a0ff-6060150c366f","system_id":"levelo_inurba_marseille","lat":43.322882,"lon":5.382784,"is_reserved":false,"is_disabled":false,"rental_uris":{"android":"levelo://app?vid=0368ae9a-b9e4-4b9b-a0ff-6060150c366f","ios":"levelo://app?vid=0368ae9a-b9e4-4b9b-a0ff-6060150c366f"},"vehicle_type_id":"4","last_reported":1752948871,"current_range_meters":4000,"station_id":"ce4bhr12rcd13ifvqhqg","pricing_plan_id":"cebpf4jnsgd1na2vs0mg"},{"bike_id":"f295d20b-dc59-44b9-a62e-eab83fcb489e","system_id":"levelo_inurba_marseille","lat":43.28273,"lon":5.3506,"is_reserved":false,"is_disabled":false,"rental_uris":{"android":"levelo://app?vid=f295d20b-dc59-44b9-a62e-eab83fcb489e","ios":"levelo://app?vid=f295d20b-dc59-44b9-a62e-eab83fcb489e"},"vehicle_type_id":"4","last_reported":1752948871,"current_range_meters":4000,"station_id":"ce4bhbp2rcd13ifvqerg","pricing_plan_id":"cebpf4jnsgd1na2vs0mg"},{"bike_id":"7eb0825e-58fb-4abc-b7c8-8973a0081fa9","system_id":"levelo_inurba_marseille","lat":43.32487,"lon":5.36558,"is_reserved":false,"is_disabled":false,"rental_uris":{"android":"levelo://app?vid=7eb0825e-58fb-4abc-b7c8-8973a0081fa9","ios":"levelo://app?vid=7eb0825e-58fb-4abc-b7c8-8973a0081fa9"},"vehicle_type_id":"4","last_reported":1752948871,"current_range_meters":4000,"station_id":"ce4bhs12rcd13ifvqhvg","pricing_plan_id":"cebpf4jnsgd1na2vs0mg"},{"bike_id":"e1dbfb19-cd08-46f7-aa30-e89e52a812ff","system_id":"levelo_inurba_marseille","lat":43.32284,"lon":5.38257,"is_reserved":false,"is_disabled":false,"rental_uris":{"android":"levelo://app?vid=e1dbfb19-cd08-46f7-aa30-e89e52a812ff","ios":"levelo://app?vid=e1dbfb19-cd08-46f7-aa30-e89e52a812ff"},"vehicle_type_id":"4","last_reported":1752948871,"current_range_meters":4000,"station_id":"ce4bhr12rcd13ifvqhqg","pricing_plan_id":"cebpf4jnsgd1na2vs0mg"},{"bike_id":"5967b45b-e8ba-4aa3-99fd-9ff0ec6b2e4f","system_id":"levelo_inurba_marseille","lat":43.28486,"lon":5.38413,"is_reserved":false,"is_disabled":false,"rental_uris":{"android":"levelo://app?vid=5967b45b-e8ba-4aa3-99fd-9ff0ec6b2e4f","ios":"levelo://app?vid=5967b45b-e8ba-4aa3-99fd-9ff0ec6b2e4f"},"vehicle_type_id":"4","last_reported":1752948871,"current_range_meters":4000,"station_id":"ce4bh512rcd13ifvqe3g","pricing_plan_id":"cebpf4jnsgd1na2vs0mg"},{"bike_id":"44d12ca5-2d11-4ea3-932c-e53a3abaf6a6","system_id":"levelo_inurba_marseille","lat":43.29884,"lon":5.39749,"is_reserved":false,"is_disabled":false,"rental_uris":{"android":"levelo://app?vid=44d12ca5-2d11-4ea3-932c-e53a3abaf6a6","ios":"levelo://app?vid=44d12ca5-2d11-4ea3-932c-e53a3abaf6a6"},"vehicle_type_id":"4","last_reported":1752948871,"current_range_meters":4400,"station_id":"ce4bh0h2rcd13ifvqd50","pricing_plan_id":"cebpf4jnsgd1na2vs0mg"},{"bike_id":"0e0c99f7-6155-4983-84a7-af932f8adae4","system_id":"levelo_inurba_marseille","lat":43.3136,"lon":5.38479,"is_reserved":false,"is_disabled":false,"rental_uris":{"android":"levelo://app?vid=0e0c99f7-6155-4983-84a7-af932f8adae4","ios":"levelo://app?vid=0e0c99f7-6155-4983-84a7-af932f8adae4"},"vehicle_type_id":"4","last_reported":1752948871,"current_range_meters":4800,"station_id":"ce4bgt92rcd13ifvqcf0","pricing_plan_id":"cebpf4jnsgd1na2vs0mg"},{"bike_id":"94cd3302-e984-4055-ba81-c872a9d54972","system_id":"levelo_inurba_marseille","lat":43.2901,"lon":5.35615,"is_reserved":false,"is_disabled":true,"rental_uris":{"android":"levelo://app?vid=94cd3302-e984-4055-ba81-c872a9d54972","ios":"levelo://app?vid=94cd3302-e984-4055-ba81-c872a9d54972"},"vehicle_type_id":"4","last_reported":1752948871,"current_range_meters":4400,"station_id":"ce4bhb92rcd13ifvqen0","pricing_plan_id":"cebpf4jnsgd1na2vs0mg"},{"bike_id":"c8ef37e8-2df2-4be3-beba-e4d0442d84ca","system_id":"levelo_inurba_marseille","lat":43.2836,"lon":5.3863,"is_reserved":false,"is_disabled":false,"rental_uris":{"android":"levelo://app?vid=c8ef37e8-2df2-4be3-beba-e4d0442d84ca","ios":"levelo://app?vid=c8ef37e8-2df2-4be3-beba-e4d0442d84ca"},"vehicle_type_id":"4","last_reported":1752948871,"current_range_meters":4800,"station_id":"ce4bh492rcd13ifvqdvg","pricing_plan_id":"cebpf4jnsgd1na2vs0mg"},{"bike_id":"9bdcfb5e-ac16-41d0-a4c2-388bc36976bb","system_id":"levelo_inurba_marseille","lat":43.29555,"lon":5.422854,"is_reserved":false,"is_disabled":false,"rental_uris":{"android":"levelo://app?vid=9bdcfb5e-ac16-41d0-a4c2-388bc36976bb","ios":"levelo://app?vid=9bdcfb5e-ac16-41d0-a4c2-388bc36976bb"},"vehicle_type_id":"4","last_reported":1752948871,"current_range_meters":5600,"station_id":"ce4bhph2rcd13ifvqhdg","pricing_plan_id":"cebpf4jnsgd1na2vs0mg"},{"bike_id":"d5649904-241e-4849-a291-77ea709d69da","system_id":"levelo_inurba_marseille","lat":43.28699,"lon":5.39979,"is_reserved":false,"is_disabled":false,"rental_uris":{"android":"levelo://app?vid=d5649904-241e-4849-a291-77ea709d69da","ios":"levelo://app?vid=d5649904-241e-4849-a291-77ea709d69da"},"vehicle_type_id":"4","last_reported":1752948871,"current_range_meters":6000,"station_id":"ce4bho92rcd13ifvqh3g","pricing_plan_id":"cebpf4jnsgd1na2vs0mg"},{"bike_id":"ee35f16d-d695-455c-b1ed-5fedc34968f0","system_id":"levelo_inurba_marseille","lat":43.28267,"lon":5.35059,"is_reserved":false,"is_disabled":false,"rental_uris":{"android":"levelo://app?vid=ee35f16d-d695-455c-b1ed-5fedc34968f0","ios":"levelo://app?vid=ee35f16d-d695-455c-b1ed-5fedc34968f0"},"vehicle_type_id":"4","last_reported":1752948871,"current_range_meters":6000,"station_id":"ce4bhbp2rcd13ifvqerg","pricing_plan_id":"cebpf4jnsgd1na2vs0mg"},{"bike_id":"24b92386-177a-40f1-8d58-c9a2eeaa3c10","system_id":"levelo_inurba_marseille","lat":43.32479,"lon":5.36568,"is_reserved":false,"is_disabled":false,"rental_uris":{"android":"levelo://app?vid=24b92386-177a-40f1-8d58-c9a2eeaa3c10","ios":"levelo://app?vid=24b92386-177a-40f1-8d58-c9a2eeaa3c10"},"vehicle_type_id":"4","last_reported":1752948871,"current_range_meters":6000,"station_id":"ce4bhs12rcd13ifvqhvg","pricing_plan_id":"cebpf4jnsgd1na2vs0mg"},{"bike_id":"b3c20171-789b-4f2e-a78c-f182493a896f","system_id":"levelo_inurba_marseille","lat":43.2816,"lon":5.42623,"is_reserved":false,"is_disabled":true,"rental_uris":{"android":"levelo://app?vid=b3c20171-789b-4f2e-a78c-f182493a896f","ios":"levelo://app?vid=b3c20171-789b-4f2e-a78c-f182493a896f"},"vehicle_type_id":"4","last_reported":1752948871,"current_range_meters":6000,"station_id":"ce4bhnh2rcd13ifvqgug","pricing_plan_id":"cebpf4jnsgd1na2vs0mg"},{"bike_id":"da891840-0cec-4ccc-961c-48903736c6fa","system_id":"levelo_inurba_marseille","lat":43.31139,"lon":5.37692,"is_reserved":false,"is_disabled":false,"rental_uris":{"android":"levelo://app?vid=da891840-0cec-4ccc-961c-48903736c6fa","ios":"levelo://app?vid=da891840-0cec-4ccc-961c-48903736c6fa"},"vehicle_type_id":"4","last_reported":1752948871,"current_range_meters":6000,"station_id":"","pricing_plan_id":"cebpf4jnsgd1na2vs0mg"},{"bike_id":"dd26fa45-583c-44d1-9a9e-4f63984f70a3","system_id":"levelo_inurba_marseille","lat":43.29902,"lon":5.4365,"is_reserved":false,"is_disabled":false,"rental_uris":{"android":"levelo://app?vid=dd26fa45-583c-44d1-9a9e-4f63984f70a3","ios":"levelo://app?vid=dd26fa45-583c-44d1-9a9e-4f63984f70a3"},"vehicle_type_id":"4","last_reported":1752948871,"current_range_meters":6400,"station_id":"ce4bhpp2rcd13ifvqhfg","pricing_plan_id":"cebpf4jnsgd1na2vs0mg"},{"bike_id":"34305679-397b-4205-a2a1-6bbaa66c4395","system_id":"levelo_inurba_marseille","lat":43.270556,"lon":5.402617,"is_reserved":false,"is_disabled":false,"rental_uris":{"android":"levelo://app?vid=34305679-397b-4205-a2a1-6bbaa66c4395","ios":"levelo://app?vid=34305679-397b-4205-a2a1-6bbaa66c4395"},"vehicle_type_id":"4","last_reported":1752948871,"current_range_meters":6400,"station_id":"ce4bhk92rcd13ifvqgc0","pricing_plan_id":"cebpf4jnsgd1na2vs0mg"},{"bike_id":"2d95b47d-d06f-40a4-bb6e-c13e954e3c8f","system_id":"levelo_inurba_marseille","lat":43.27727,"lon":5.41416,"is_reserved":false,"is_disabled":false,"rental_uris":{"android":"levelo://app?vid=2d95b47d-d06f-40a4-bb6e-c13e954e3c8f","ios":"levelo://app?vid=2d95b47d-d06f-40a4-bb6e-c13e954e3c8f"},"vehicle_type_id":"4","last_reported":1752948871,"current_range_meters":6400,"station_id":"","pricing_plan_id":"cebpf4jnsgd1na2vs0mg"},{"bike_id":"626bd500-2103-4c07-b9fe-01546371d9bd","system_id":"levelo_inurba_marseille","lat":43.28851,"lon":5.39318,"is_reserved":false,"is_disabled":false,"rental_uris":{"android":"levelo://app?vid=626bd500-2103-4c07-b9fe-01546371d9bd","ios":"levelo://app?vid=626bd500-2103-4c07-b9fe-01546371d9bd"},"vehicle_type_id":"4","last_reported":1752948871,"current_range_meters":6400,"station_id":"ce4bh2p2rcd13ifvqdi0","pricing_plan_id":"cebpf4jnsgd1na2vs0mg"},{"bike_id":"c74b0813-7aa1-44eb-9036-4647ba9550d3","system_id":"levelo_inurba_marseille","lat":43.284094,"lon":5.349774,"is_reserved":false,"is_disabled":false,"rental_uris":{"android":"levelo://app?vid=c74b0813-7aa1-44eb-9036-4647ba9550d3","ios":"levelo://app?vid=c74b0813-7aa1-44eb-9036-4647ba9550d3"},"vehicle_type_id":"4","last_reported":1752948871,"current_range_meters":6400,"station_id":"ce4bhbh2rcd13ifvqepg","pricing_plan_id":"cebpf4jnsgd1na2vs0mg"},{"bike_id":"44b73254-6d5b-42ec-9e3a-52236fbf71fc","system_id":"levelo_inurba_marseille","lat":43.33353,"lon":5.39835,"is_reserved":false,"is_disabled":false,"rental_uris":{"android":"levelo://app?vid=44b73254-6d5b-42ec-9e3a-52236fbf71fc","ios":"levelo://app?vid=44b73254-6d5b-42ec-9e3a-52236fbf71fc"},"vehicle_type_id":"4","last_reported":1752948871,"current_range_meters":6400,"station_id":"","pricing_plan_id":"cebpf4jnsgd1na2vs0mg"},{"bike_id":"4108938b-6cb1-49cf-9b34-f5aba76f8c8e","system_id":"levelo_inurba_marseille","lat":43.25872,"lon":5.39868,"is_reserved":false,"is_disabled":true,"rental_uris":{"android":"levelo://app?vid=4108938b-6cb1-49cf-9b34-f5aba76f8c8e","ios":"levelo://app?vid=4108938b-6cb1-49cf-9b34-f5aba76f8c8e"},"vehicle_type_id":"4","last_reported":1752948871,"current_range_meters":6400,"station_id":"ce4bhl92rcd13ifvqghg","pricing_plan_id":"cebpf4jnsgd1na2vs0mg"},{"bike_id":"a168d389-ea1d-4756-ad9b-cf73a31ab442","system_id":"levelo_inurba_marseille","lat":43.28588,"lon":5.38341,"is_reserved":false,"is_disabled":true,"rental_uris":{"android":"levelo://app?vid=a168d389-ea1d-4756-ad9b-cf73a31ab442","ios":"levelo://app?vid=a168d389-ea1d-4756-ad9b-cf73a31ab442"},"vehicle_type_id":"4","last_reported":1752948871,"current_range_meters":6400,"station_id":"","pricing_plan_id":"cebpf4jnsgd1na2vs0mg"},{"bike_id":"df990edc-4a73-4f29-92d4-6f6ec714b7b9","system_id":"levelo_inurba_marseille","lat":43.28847,"lon":5.3585,"is_reserved":false,"is_disabled":false,"rental_uris":{"android":"levelo://app?vid=df990edc-4a73-4f29-92d4-6f6ec714b7b9","ios":"levelo://app?vid=df990edc-4a73-4f29-92d4-6f6ec714b7b9"},"vehicle_type_id":"4","last_reported":1752948871,"current_range_meters":6400,"station_id":"ce4bhb12rcd13ifvqem0","pricing_plan_id":"cebpf4jnsgd1na2vs0mg"},{"bike_id":"271b4338-675a-4b36-b1fb-928c635cf23b","system_id":"levelo_inurba_marseille","lat":43.28659,"lon":5.36346,"is_reserved":false,"is_disabled":false,"rental_uris":{"android":"levelo://app?vid=271b4338-675a-4b36-b1fb-928c635cf23b","ios":"levelo://app?vid=271b4338-675a-4b36-b1fb-928c635cf23b"},"vehicle_type_id":"4","last_reported":1752948871,"current_range_meters":6400,"station_id":"ce4bhah2rcd13ifvqej0","pricing_plan_id":"cebpf4jnsgd1na2vs0mg"},{"bike_id":"a14eb195-eafe-4c75-9b0e-aad98a130f07","system_id":"levelo_inurba_marseille","lat":43.30308,"lon":5.36889,"is_reserved":false,"is_disabled":false,"rental_uris":{"android":"levelo://app?vid=a14eb195-eafe-4c75-9b0e-aad98a130f07","ios":"levelo://app?vid=a14eb195-eafe-4c75-9b0e-aad98a130f07"},"vehicle_type_id":"4","last_reported":1752948871,"current_range_meters":6800,"station_id":"ce4bgqh2rcd13ifvqc5g","pricing_plan_id":"cebpf4jnsgd1na2vs0mg"},{"bike_id":"8a4de604-bf78-4db0-a961-2d1bfb2dbee8","system_id":"levelo_inurba_marseille","lat":43.31072,"lon":5.383594,"is_reserved":false,"is_disabled":false,"rental_uris":{"android":"levelo://app?vid=8a4de604-bf78-4db0-a961-2d1bfb2dbee8","ios":"levelo://app?vid=8a4de604-bf78-4db0-a961-2d1bfb2dbee8"},"vehicle_type_id":"4","last_reported":1752948871,"current_range_meters":6800,"station_id":"ce4bgv92rcd13ifvqcr0","pricing_plan_id":"cebpf4jnsgd1na2vs0mg"},{"bike_id":"a686b98c-4e7f-4e1c-894c-085538aa4466","system_id":"levelo_inurba_marseille","lat":43.29622,"lon":5.37152,"is_reserved":false,"is_disabled":false,"rental_uris":{"android":"levelo://app?vid=a686b98c-4e7f-4e1c-894c-085538aa4466","ios":"levelo://app?vid=a686b98c-4e7f-4e1c-894c-085538aa4466"},"vehicle_type_id":"4","last_reported":1752948871,"current_range_meters":6800,"station_id":"ce4bgnh2rcd13ifvqc0g","pricing_plan_id":"cebpf4jnsgd1na2vs0mg"},{"bike_id":"8f4efc4a-ee43-4756-babf-8953fefa070d","system_id":"levelo_inurba_marseille","lat":43.26552,"lon":5.37293,"is_reserved":false,"is_disabled":true,"rental_uris":{"android":"levelo://app?vid=8f4efc4a-ee43-4756-babf-8953fefa070d","ios":"levelo://app?vid=8f4efc4a-ee43-4756-babf-8953fefa070d"},"vehicle_type_id":"4","last_reported":1752948871,"current_range_meters":6800,"station_id":"ce4bhg12rcd13ifvqf70","pricing_plan_id":"cebpf4jnsgd1na2vs0mg"},{"bike_id":"6886b2dc-c853-4217-be12-6dff39415262","system_id":"levelo_inurba_marseille","lat":43.26925,"lon":5.40328,"is_reserved":false,"is_disabled":false,"rental_uris":{"android":"levelo://app?vid=6886b2dc-c853-4217-be12-6dff39415262","ios":"levelo://app?vid=6886b2dc-c853-4217-be12-6dff39415262"},"vehicle_type_id":"4","last_reported":1752948871,"current_range_meters":7200,"station_id":"cjm6bp8fraef2m0cb0m0","pricing_plan_id":"cebpf4jnsgd1na2vs0mg"},{"bike_id":"54b6eb57-77c7-478a-8076-f955652fc8a9","system_id":"levelo_inurba_marseille","lat":43.32111,"lon":5.36763,"is_reserved":false,"is_disabled":false,"rental_uris":{"android":"levelo://app?vid=54b6eb57-77c7-478a-8076-f955652fc8a9","ios":"levelo://app?vid=54b6eb57-77c7-478a-8076-f955652fc8a9"},"vehicle_type_id":"4","last_reported":1752948871,"current_range_meters":7200,"station_id":"ce4bhrh2rcd13ifvqhug","pricing_plan_id":"cebpf4jnsgd1na2vs0mg"},{"bike_id":"6d5bc923-36fd-49c9-8a6f-9033a636e19b","system_id":"levelo_inurba_marseille","lat":43.2841,"lon":5.349808,"is_reserved":false,"is_disabled":false,"rental_uris":{"android":"levelo://app?vid=6d5bc923-36fd-49c9-8a6f-9033a636e19b","ios":"levelo://app?vid=6d5bc923-36fd-49c9-8a6f-9033a636e19b"},"vehicle_type_id":"4","last_reported":1752948871,"current_range_meters":7200,"station_id":"ce4bhbh2rcd13ifvqepg","pricing_plan_id":"cebpf4jnsgd1na2vs0mg"},{"bike_id":"515f2ba9-d714-4875-93f6-c7f17f09f84b","system_id":"levelo_inurba_marseille","lat":43.25493,"lon":5.37645,"is_reserved":false,"is_disabled":false,"rental_uris":{"android":"levelo://app?vid=515f2ba9-d714-4875-93f6-c7f17f09f84b","ios":"levelo://app?vid=515f2ba9-d714-4875-93f6-c7f17f09f84b"},"vehicle_type_id":"4","last_reported":1752948871,"current_range_meters":7200,"station_id":"ce4bhh12rcd13ifvqff0","pricing_plan_id":"cebpf4jnsgd1na2vs0mg"},{"bike_id":"a5d9b68a-867c-470c-a12b-798500f9d4d7","system_id":"levelo_inurba_marseille","lat":43.30949,"lon":5.3903,"is_reserved":false,"is_disabled":false,"rental_uris":{"android":"levelo://app?vid=a5d9b68a-867c-470c-a12b-798500f9d4d7","ios":"levelo://app?vid=a5d9b68a-867c-470c-a12b-798500f9d4d7"},"vehicle_type_id":"4","last_reported":1752948871,"current_range_meters":7200,"station_id":"ce4bgup2rcd13ifvqco0","pricing_plan_id":"cebpf4jnsgd1na2vs0mg"},{"bike_id":"ce7bd25b-5213-4881-a28b-f582e6a1d712","system_id":"levelo_inurba_marseille","lat":43.31331,"lon":5.36744,"is_reserved":false,"is_disabled":true,"rental_uris":{"android":"levelo://app?vid=ce7bd25b-5213-4881-a28b-f582e6a1d712","ios":"levelo://app?vid=ce7bd25b-5213-4881-a28b-f582e6a1d712"},"vehicle_type_id":"4","last_reported":1752948871,"current_range_meters":7200,"station_id":"ce4bgr92rcd13ifvqc6g","pricing_plan_id":"cebpf4jnsgd1na2vs0mg"},{"bike_id":"dd13f2a0-e932-4706-8154-ce91178730c9","system_id":"levelo_inurba_marseille","lat":43.32481,"lon":5.36553,"is_reserved":false,"is_disabled":false,"rental_uris":{"android":"levelo://app?vid=dd13f2a0-e932-4706-8154-ce91178730c9","ios":"levelo://app?vid=dd13f2a0-e932-4706-8154-ce91178730c9"},"vehicle_type_id":"4","last_reported":1752948871,"current_range_meters":7200,"station_id":"ce4bhs12rcd13ifvqhvg","pricing_plan_id":"cebpf4jnsgd1na2vs0mg"},{"bike_id":"2f9ce7e6-15ea-46e9-ac69-703256eff66f","system_id":"levelo_inurba_marseille","lat":43.297149,"lon":5.381102,"is_reserved":false,"is_disabled":false,"rental_uris":{"android":"levelo://app?vid=2f9ce7e6-15ea-46e9-ac69-703256eff66f","ios":"levelo://app?vid=2f9ce7e6-15ea-46e9-ac69-703256eff66f"},"vehicle_type_id":"4","last_reported":1752948871,"current_range_meters":6000,"station_id":"ce4bgj12rcd13ifvqbc0","pricing_plan_id":"cebpf4jnsgd1na2vs0mg"},{"bike_id":"72acce2b-2249-45a2-be91-c8268f8a11e8","system_id":"levelo_inurba_marseille","lat":43.225067,"lon":5.347838,"is_reserved":false,"is_disabled":false,"rental_uris":{"android":"levelo://app?vid=72acce2b-2249-45a2-be91-c8268f8a11e8","ios":"levelo://app?vid=72acce2b-2249-45a2-be91-c8268f8a11e8"},"vehicle_type_id":"4","last_reported":1752948871,"current_range_meters":8000,"station_id":"st_cvj5dfep6f1abm77gieg","pricing_plan_id":"cebpf4jnsgd1na2vs0mg"},{"bike_id":"977537a7-6837-450b-9cd7-2fd1b1079c95","system_id":"levelo_inurba_marseille","lat":43.28408,"lon":5.34992,"is_reserved":false,"is_disabled":false,"rental_uris":{"android":"levelo://app?vid=977537a7-6837-450b-9cd7-2fd1b1079c95","ios":"levelo://app?vid=977537a7-6837-450b-9cd7-2fd1b1079c95"},"vehicle_type_id":"4","last_reported":1752948871,"current_range_meters":8000,"station_id":"ce4bhbh2rcd13ifvqepg","pricing_plan_id":"cebpf4jnsgd1na2vs0mg"},{"bike_id":"ea4322c5-5e4c-4eba-a3d3-71c4d33b1090","system_id":"levelo_inurba_marseille","lat":43.27056,"lon":5.40255,"is_reserved":false,"is_disabled":false,"rental_uris":{"android":"levelo://app?vid=ea4322c5-5e4c-4eba-a3d3-71c4d33b1090","ios":"levelo://app?vid=ea4322c5-5e4c-4eba-a3d3-71c4d33b1090"},"vehicle_type_id":"4","last_reported":1752948871,"current_range_meters":8000,"station_id":"ce4bhk92rcd13ifvqgc0","pricing_plan_id":"cebpf4jnsgd1na2vs0mg"},{"bike_id":"2828ae68-c264-4fb5-a861-918835ba06fd","system_id":"levelo_inurba_marseille","lat":43.24173,"lon":5.36382,"is_reserved":false,"is_disabled":false,"rental_uris":{"android":"levelo://app?vid=2828ae68-c264-4fb5-a861-918835ba06fd","ios":"levelo://app?vid=2828ae68-c264-4fb5-a861-918835ba06fd"},"vehicle_type_id":"4","last_reported":1752948871,"current_range_meters":8000,"station_id":"cpo36qri1sfpv3e86is0","pricing_plan_id":"cebpf4jnsgd1na2vs0mg"},{"bike_id":"a1d3d1e5-2550-4d3e-942e-771635f6e6c7","system_id":"levelo_inurba_marseille","lat":43.30938,"lon":5.39016,"is_reserved":false,"is_disabled":false,"rental_uris":{"android":"levelo://app?vid=a1d3d1e5-2550-4d3e-942e-771635f6e6c7","ios":"levelo://app?vid=a1d3d1e5-2550-4d3e-942e-771635f6e6c7"},"vehicle_type_id":"4","last_reported":1752948871,"current_range_meters":8000,"station_id":"ce4bgup2rcd13ifvqco0","pricing_plan_id":"cebpf4jnsgd1na2vs0mg"},{"bike_id":"c6db0f6a-96fe-4e1d-8ded-c2ef38c9bab4","system_id":"levelo_inurba_marseille","lat":43.305688,"lon":5.418387,"is_reserved":false,"is_disabled":true,"rental_uris":{"android":"levelo://app?vid=c6db0f6a-96fe-4e1d-8ded-c2ef38c9bab4","ios":"levelo://app?vid=c6db0f6a-96fe-4e1d-8ded-c2ef38c9bab4"},"vehicle_type_id":"4","last_reported":1752948871,"current_range_meters":8400,"station_id":"ce4bht12rcd13ifvqi60","pricing_plan_id":"cebpf4jnsgd1na2vs0mg"},{"bike_id":"7ba80774-b11e-4526-b36d-edd358abb392","system_id":"levelo_inurba_marseille","lat":43.22515,"lon":5.34773,"is_reserved":false,"is_disabled":false,"rental_uris":{"android":"levelo://app?vid=7ba80774-b11e-4526-b36d-edd358abb392","ios":"levelo://app?vid=7ba80774-b11e-4526-b36d-edd358abb392"},"vehicle_type_id":"4","last_reported":1752948871,"current_range_meters":8400,"station_id":"st_cvj5dfep6f1abm77gieg","pricing_plan_id":"cebpf4jnsgd1na2vs0mg"},{"bike_id":"0e42a7ec-0d0d-4b91-a100-e1bcd751f991","system_id":"levelo_inurba_marseille","lat":43.29896,"lon":5.43651,"is_reserved":false,"is_disabled":false,"rental_uris":{"android":"levelo://app?vid=0e42a7ec-0d0d-4b91-a100-e1bcd751f991","ios":"levelo://app?vid=0e42a7ec-0d0d-4b91-a100-e1bcd751f991"},"vehicle_type_id":"4","last_reported":1752948871,"current_range_meters":8400,"station_id":"ce4bhpp2rcd13ifvqhfg","pricing_plan_id":"cebpf4jnsgd1na2vs0mg"},{"bike_id":"c0e3d1b7-6467-464d-8cad-cbe0045da429","system_id":"levelo_inurba_marseille","lat":43.3107,"lon":5.3836,"is_reserved":false,"is_disabled":false,"rental_uris":{"android":"levelo://app?vid=c0e3d1b7-6467-464d-8cad-cbe0045da429","ios":"levelo://app?vid=c0e3d1b7-6467-464d-8cad-cbe0045da429"},"vehicle_type_id":"4","last_reported":1752948871,"current_range_meters":8400,"station_id":"ce4bgv92rcd13ifvqcr0","pricing_plan_id":"cebpf4jnsgd1na2vs0mg"},{"bike_id":"e25d2cb1-8659-4e3a-a55f-69234974764e","system_id":"levelo_inurba_marseille","lat":43.27424,"lon":5.39409,"is_reserved":false,"is_disabled":false,"rental_uris":{"android":"levelo://app?vid=e25d2cb1-8659-4e3a-a55f-69234974764e","ios":"levelo://app?vid=e25d2cb1-8659-4e3a-a55f-69234974764e"},"vehicle_type_id":"4","last_reported":1752948871,"current_range_meters":8400,"station_id":"ce4bhdp2rcd13ifvqf20","pricing_plan_id":"cebpf4jnsgd1na2vs0mg"},{"bike_id":"c9d115d6-d5c3-4bfa-be3d-cb36d5908bd3","system_id":"levelo_inurba_marseille","lat":43.2893,"lon":5.36635,"is_reserved":false,"is_disabled":false,"rental_uris":{"android":"levelo://app?vid=c9d115d6-d5c3-4bfa-be3d-cb36d5908bd3","ios":"levelo://app?vid=c9d115d6-d5c3-4bfa-be3d-cb36d5908bd3"},"vehicle_type_id":"4","last_reported":1752948871,"current_range_meters":8800,"station_id":"ce4bhap2rcd13ifvqek0","pricing_plan_id":"cebpf4jnsgd1na2vs0mg"},{"bike_id":"65fbc392-351a-4bc9-a27c-9b06b6d9ecb2","system_id":"levelo_inurba_marseille","lat":43.307983,"lon":5.381532,"is_reserved":false,"is_disabled":false,"rental_uris":{"android":"levelo://app?vid=65fbc392-351a-4bc9-a27c-9b06b6d9ecb2","ios":"levelo://app?vid=65fbc392-351a-4bc9-a27c-9b06b6d9ecb2"},"vehicle_type_id":"4","last_reported":1752948871,"current_range_meters":8800,"station_id":"ce4bgt12rcd13ifvqce0","pricing_plan_id":"cebpf4jnsgd1na2vs0mg"},{"bike_id":"07aeb5da-15b1-4b73-9d17-70e8acd75061","system_id":"levelo_inurba_marseille","lat":43.22501,"lon":5.34766,"is_reserved":false,"is_disabled":false,"rental_uris":{"android":"levelo://app?vid=07aeb5da-15b1-4b73-9d17-70e8acd75061","ios":"levelo://app?vid=07aeb5da-15b1-4b73-9d17-70e8acd75061"},"vehicle_type_id":"4","last_reported":1752948871,"current_range_meters":8800,"station_id":"st_cvj5dfep6f1abm77gieg","pricing_plan_id":"cebpf4jnsgd1na2vs0mg"},{"bike_id":"44e6f701-1fba-438e-bfc5-f672a0130451","system_id":"levelo_inurba_marseille","lat":43.29265,"lon":5.38441,"is_reserved":false,"is_disabled":false,"rental_uris":{"android":"levelo://app?vid=44e6f701-1fba-438e-bfc5-f672a0130451","ios":"levelo://app?vid=44e6f701-1fba-438e-bfc5-f672a0130451"},"vehicle_type_id":"4","last_reported":1752948871,"current_range_meters":8800,"station_id":"ce4bh692rcd13ifvqea0","pricing_plan_id":"cebpf4jnsgd1na2vs0mg"},{"bike_id":"0312b478-6860-43f1-9664-e6d606cdf034","system_id":"levelo_inurba_marseille","lat":43.28422,"lon":5.34992,"is_reserved":false,"is_disabled":false,"rental_uris":{"android":"levelo://app?vid=0312b478-6860-43f1-9664-e6d606cdf034","ios":"levelo://app?vid=0312b478-6860-43f1-9664-e6d606cdf034"},"vehicle_type_id":"4","last_reported":1752948871,"current_range_meters":8800,"station_id":"ce4bhbh2rcd13ifvqepg","pricing_plan_id":"cebpf4jnsgd1na2vs0mg"},{"bike_id":"7150d82d-0aae-4240-81f3-e459b8173dde","system_id":"levelo_inurba_marseille","lat":43.28423,"lon":5.34977,"is_reserved":false,"is_disabled":false,"rental_uris":{"android":"levelo://app?vid=7150d82d-0aae-4240-81f3-e459b8173dde","ios":"levelo://app?vid=7150d82d-0aae-4240-81f3-e459b8173dde"},"vehicle_type_id":"4","last_reported":1752948871,"current_range_meters":9200,"station_id":"ce4bhbh2rcd13ifvqepg","pricing_plan_id":"cebpf4jnsgd1na2vs0mg"},{"bike_id":"b5c52e60-c28e-43be-9c81-605e18b4fe3c","system_id":"levelo_inurba_marseille","lat":43.32068,"lon":5.41553,"is_reserved":false,"is_disabled":false,"rental_uris":{"android":"levelo://app?vid=b5c52e60-c28e-43be-9c81-605e18b4fe3c","ios":"levelo://app?vid=b5c52e60-c28e-43be-9c81-605e18b4fe3c"},"vehicle_type_id":"4","last_reported":1752948871,"current_range_meters":9200,"station_id":"ce4bhq92rcd13ifvqhkg","pricing_plan_id":"cebpf4jnsgd1na2vs0mg"},{"bike_id":"7fe01177-8ae8-4b85-9e2c-849d4d0b2173","system_id":"levelo_inurba_marseille","lat":43.282678,"lon":5.350614,"is_reserved":false,"is_disabled":false,"rental_uris":{"android":"levelo://app?vid=7fe01177-8ae8-4b85-9e2c-849d4d0b2173","ios":"levelo://app?vid=7fe01177-8ae8-4b85-9e2c-849d4d0b2173"},"vehicle_type_id":"4","last_reported":1752948871,"current_range_meters":9200,"station_id":"ce4bhbp2rcd13ifvqerg","pricing_plan_id":"cebpf4jnsgd1na2vs0mg"},{"bike_id":"2e5ca637-d18b-4819-bbd5-d98f1ed774bc","system_id":"levelo_inurba_marseille","lat":43.26938,"lon":5.4026,"is_reserved":false,"is_disabled":false,"rental_uris":{"android":"levelo://app?vid=2e5ca637-d18b-4819-bbd5-d98f1ed774bc","ios":"levelo://app?vid=2e5ca637-d18b-4819-bbd5-d98f1ed774bc"},"vehicle_type_id":"4","last_reported":1752948871,"current_range_meters":9600,"station_id":"cjm6bp8fraef2m0cb0m0","pricing_plan_id":"cebpf4jnsgd1na2vs0mg"},{"bike_id":"57a30f0b-84eb-4b98-8989-8d3c02b43bf0","system_id":"levelo_inurba_marseille","lat":43.28635,"lon":5.37012,"is_reserved":false,"is_disabled":false,"rental_uris":{"android":"levelo://app?vid=57a30f0b-84eb-4b98-8989-8d3c02b43bf0","ios":"levelo://app?vid=57a30f0b-84eb-4b98-8989-8d3c02b43bf0"},"vehicle_type_id":"4","last_reported":1752948871,"current_range_meters":9600,"station_id":"","pricing_plan_id":"cebpf4jnsgd1na2vs0mg"},{"bike_id":"c37b5c86-3e55-4f4b-870f-cbb09c385e03","system_id":"levelo_inurba_marseille","lat":43.30946,"lon":5.39033,"is_reserved":false,"is_disabled":false,"rental_uris":{"android":"levelo://app?vid=c37b5c86-3e55-4f4b-870f-cbb09c385e03","ios":"levelo://app?vid=c37b5c86-3e55-4f4b-870f-cbb09c385e03"},"vehicle_type_id":"4","last_reported":1752948871,"current_range_meters":9600,"station_id":"ce4bgup2rcd13ifvqco0","pricing_plan_id":"cebpf4jnsgd1na2vs0mg"},{"bike_id":"1c7425f4-6944-4d87-8947-a31181c08c7d","system_id":"levelo_inurba_marseille","lat":43.28978,"lon":5.37835,"is_reserved":false,"is_disabled":false,"rental_uris":{"android":"levelo://app?vid=1c7425f4-6944-4d87-8947-a31181c08c7d","ios":"levelo://app?vid=1c7425f4-6944-4d87-8947-a31181c08c7d"},"vehicle_type_id":"4","last_reported":1752948871,"current_range_meters":10800,"station_id":"ce4bh9p2rcd13ifvqed0","pricing_plan_id":"cebpf4jnsgd1na2vs0mg"},{"bike_id":"cfb52d04-9134-4c86-8269-771716b20f27","system_id":"levelo_inurba_marseille","lat":43.21194,"lon":5.35075,"is_reserved":false,"is_disabled":false,"rental_uris":{"android":"levelo://app?vid=cfb52d04-9134-4c86-8269-771716b20f27","ios":"levelo://app?vid=cfb52d04-9134-4c86-8269-771716b20f27"},"vehicle_type_id":"4","last_reported":1752948871,"current_range_meters":9600,"station_id":"st_cvj6sg6p6f1abm77japg","pricing_plan_id":"cebpf4jnsgd1na2vs0mg"},{"bike_id":"44c89079-df28-45fc-bd58-1e7194a38151","system_id":"levelo_inurba_marseille","lat":43.282612,"lon":5.350627,"is_reserved":false,"is_disabled":false,"rental_uris":{"android":"levelo://app?vid=44c89079-df28-45fc-bd58-1e7194a38151","ios":"levelo://app?vid=44c89079-df28-45fc-bd58-1e7194a38151"},"vehicle_type_id":"4","last_reported":1752948871,"current_range_meters":10000,"station_id":"ce4bhbp2rcd13ifvqerg","pricing_plan_id":"cebpf4jnsgd1na2vs0mg"},{"bike_id":"cf9da0b2-9c2f-48ee-ae92-32a14e4d9b10","system_id":"levelo_inurba_marseille","lat":43.24801,"lon":5.37449,"is_reserved":false,"is_disabled":false,"rental_uris":{"android":"levelo://app?vid=cf9da0b2-9c2f-48ee-ae92-32a14e4d9b10","ios":"levelo://app?vid=cf9da0b2-9c2f-48ee-ae92-32a14e4d9b10"},"vehicle_type_id":"4","last_reported":1752948871,"current_range_meters":10000,"station_id":"ce4bhgh2rcd13ifvqfb0","pricing_plan_id":"cebpf4jnsgd1na2vs0mg"},{"bike_id":"93f32558-d0c8-48ab-ba27-e1a1ccba7659","system_id":"levelo_inurba_marseille","lat":43.28623,"lon":5.35105,"is_reserved":false,"is_disabled":false,"rental_uris":{"android":"levelo://app?vid=93f32558-d0c8-48ab-ba27-e1a1ccba7659","ios":"levelo://app?vid=93f32558-d0c8-48ab-ba27-e1a1ccba7659"},"vehicle_type_id":"4","last_reported":1752948871,"current_range_meters":10000,"station_id":"ce4bhch2rcd13ifvqeug","pricing_plan_id":"cebpf4jnsgd1na2vs0mg"},{"bike_id":"35808219-5db5-4b9e-951b-af9db1301e12","system_id":"levelo_inurba_marseille","lat":43.22502,"lon":5.34787,"is_reserved":false,"is_disabled":false,"rental_uris":{"android":"levelo://app?vid=35808219-5db5-4b9e-951b-af9db1301e12","ios":"levelo://app?vid=35808219-5db5-4b9e-951b-af9db1301e12"},"vehicle_type_id":"4","last_reported":1752948871,"current_range_meters":10000,"station_id":"st_cvj5dfep6f1abm77gieg","pricing_plan_id":"cebpf4jnsgd1na2vs0mg"},{"bike_id":"fed7482d-f406-4a3c-81b9-fcfabe88ac23","system_id":"levelo_inurba_marseille","lat":43.28883,"lon":5.35825,"is_reserved":false,"is_disabled":false,"rental_uris":{"android":"levelo://app?vid=fed7482d-f406-4a3c-81b9-fcfabe88ac23","ios":"levelo://app?vid=fed7482d-f406-4a3c-81b9-fcfabe88ac23"},"vehicle_type_id":"4","last_reported":1752948871,"current_range_meters":10000,"station_id":"ce4bhb12rcd13ifvqem0","pricing_plan_id":"cebpf4jnsgd1na2vs0mg"},{"bike_id":"d4f7966d-1541-41ca-b9ac-b8a2201ca11d","system_id":"levelo_inurba_marseille","lat":43.30944,"lon":5.39026,"is_reserved":false,"is_disabled":false,"rental_uris":{"android":"levelo://app?vid=d4f7966d-1541-41ca-b9ac-b8a2201ca11d","ios":"levelo://app?vid=d4f7966d-1541-41ca-b9ac-b8a2201ca11d"},"vehicle_type_id":"4","last_reported":1752948871,"current_range_meters":10000,"station_id":"ce4bgup2rcd13ifvqco0","pricing_plan_id":"cebpf4jnsgd1na2vs0mg"},{"bike_id":"6acf6616-5bc2-413d-b8a9-de0cef45b2d4","system_id":"levelo_inurba_marseille","lat":43.24809,"lon":5.37459,"is_reserved":false,"is_disabled":true,"rental_uris":{"android":"levelo://app?vid=6acf6616-5bc2-413d-b8a9-de0cef45b2d4","ios":"levelo://app?vid=6acf6616-5bc2-413d-b8a9-de0cef45b2d4"},"vehicle_type_id":"4","last_reported":1752948871,"current_range_meters":10000,"station_id":"ce4bhgh2rcd13ifvqfb0","pricing_plan_id":"cebpf4jnsgd1na2vs0mg"},{"bike_id":"8f4938b3-b28f-4351-9e64-77e185b781f9","system_id":"levelo_inurba_marseille","lat":43.2917,"lon":5.37158,"is_reserved":false,"is_disabled":false,"rental_uris":{"android":"levelo://app?vid=8f4938b3-b28f-4351-9e64-77e185b781f9","ios":"levelo://app?vid=8f4938b3-b28f-4351-9e64-77e185b781f9"},"vehicle_type_id":"4","last_reported":1752948871,"current_range_meters":14800,"station_id":"ce4bha92rcd13ifvqeh0","pricing_plan_id":"cebpf4jnsgd1na2vs0mg"},{"bike_id":"6f18ab1b-0c74-47b1-bed8-837677176207","system_id":"levelo_inurba_marseille","lat":43.32039,"lon":5.40963,"is_reserved":false,"is_disabled":false,"rental_uris":{"android":"levelo://app?vid=6f18ab1b-0c74-47b1-bed8-837677176207","ios":"levelo://app?vid=6f18ab1b-0c74-47b1-bed8-837677176207"},"vehicle_type_id":"4","last_reported":1752948871,"current_range_meters":10000,"station_id":"","pricing_plan_id":"cebpf4jnsgd1na2vs0mg"},{"bike_id":"4b0ce299-727c-48ce-b95a-b67cdf638733","system_id":"levelo_inurba_marseille","lat":43.22509,"lon":5.34764,"is_reserved":false,"is_disabled":false,"rental_uris":{"android":"levelo://app?vid=4b0ce299-727c-48ce-b95a-b67cdf638733","ios":"levelo://app?vid=4b0ce299-727c-48ce-b95a-b67cdf638733"},"vehicle_type_id":"4","last_reported":1752948871,"current_range_meters":10800,"station_id":"st_cvj5dfep6f1abm77gieg","pricing_plan_id":"cebpf4jnsgd1na2vs0mg"},{"bike_id":"e8fda0aa-0a49-4b55-95a7-3ae6a93822a1","system_id":"levelo_inurba_marseille","lat":43.32538,"lon":5.4143,"is_reserved":false,"is_disabled":false,"rental_uris":{"android":"levelo://app?vid=e8fda0aa-0a49-4b55-95a7-3ae6a93822a1","ios":"levelo://app?vid=e8fda0aa-0a49-4b55-95a7-3ae6a93822a1"},"vehicle_type_id":"4","last_reported":1752948871,"current_range_meters":10800,"station_id":"ce4bhq12rcd13ifvqhhg","pricing_plan_id":"cebpf4jnsgd1na2vs0mg"},{"bike_id":"b545278d-1ee4-4ad7-bc9f-6f9cf3676dfd","system_id":"levelo_inurba_marseille","lat":43.28418,"lon":5.34952,"is_reserved":false,"is_disabled":false,"rental_uris":{"android":"levelo://app?vid=b545278d-1ee4-4ad7-bc9f-6f9cf3676dfd","ios":"levelo://app?vid=b545278d-1ee4-4ad7-bc9f-6f9cf3676dfd"},"vehicle_type_id":"4","last_reported":1752948871,"current_range_meters":10800,"station_id":"ce4bhbh2rcd13ifvqepg","pricing_plan_id":"cebpf4jnsgd1na2vs0mg"},{"bike_id":"87d64b99-dcc2-4724-ab08-f03a3636abe2","system_id":"levelo_inurba_marseille","lat":43.314905,"lon":5.373112,"is_reserved":false,"is_disabled":false,"rental_uris":{"android":"levelo://app?vid=87d64b99-dcc2-4724-ab08-f03a3636abe2","ios":"levelo://app?vid=87d64b99-dcc2-4724-ab08-f03a3636abe2"},"vehicle_type_id":"4","last_reported":1752948871,"current_range_meters":10800,"station_id":"","pricing_plan_id":"cebpf4jnsgd1na2vs0mg"},{"bike_id":"0e33dda2-d47d-4261-9e87-d963691659fc","system_id":"levelo_inurba_marseille","lat":43.28848,"lon":5.3584,"is_reserved":false,"is_disabled":true,"rental_uris":{"android":"levelo://app?vid=0e33dda2-d47d-4261-9e87-d963691659fc","ios":"levelo://app?vid=0e33dda2-d47d-4261-9e87-d963691659fc"},"vehicle_type_id":"4","last_reported":1752948871,"current_range_meters":10800,"station_id":"ce4bhb12rcd13ifvqem0","pricing_plan_id":"cebpf4jnsgd1na2vs0mg"},{"bike_id":"475b9799-8c28-49d7-a2bd-b989a871d401","system_id":"levelo_inurba_marseille","lat":43.240742,"lon":5.377536,"is_reserved":false,"is_disabled":true,"rental_uris":{"android":"levelo://app?vid=475b9799-8c28-49d7-a2bd-b989a871d401","ios":"levelo://app?vid=475b9799-8c28-49d7-a2bd-b989a871d401"},"vehicle_type_id":"4","last_reported":1752948871,"current_range_meters":11200,"station_id":"ce4bhnp2rcd13ifvqgvg","pricing_plan_id":"cebpf4jnsgd1na2vs0mg"},{"bike_id":"09a99cc9-81c2-4c00-890e-b8a9af05bd19","system_id":"levelo_inurba_marseille","lat":43.24196,"lon":5.36384,"is_reserved":false,"is_disabled":false,"rental_uris":{"android":"levelo://app?vid=09a99cc9-81c2-4c00-890e-b8a9af05bd19","ios":"levelo://app?vid=09a99cc9-81c2-4c00-890e-b8a9af05bd19"},"vehicle_type_id":"4","last_reported":1752948871,"current_range_meters":11200,"station_id":"cpo36qri1sfpv3e86is0","pricing_plan_id":"cebpf4jnsgd1na2vs0mg"},{"bike_id":"0916292f-c60f-4ec2-a3c5-bb862cec8507","system_id":"levelo_inurba_marseille","lat":43.23203,"lon":5.35539,"is_reserved":false,"is_disabled":false,"rental_uris":{"android":"levelo://app?vid=0916292f-c60f-4ec2-a3c5-bb862cec8507","ios":"levelo://app?vid=0916292f-c60f-4ec2-a3c5-bb862cec8507"},"vehicle_type_id":"4","last_reported":1752948871,"current_range_meters":11200,"station_id":"ce4bhu92rcd13ifvqi70","pricing_plan_id":"cebpf4jnsgd1na2vs0mg"},{"bike_id":"bf3ffca4-ec8f-4f57-8cac-3ff150f510cb","system_id":"levelo_inurba_marseille","lat":43.31173,"lon":5.3872,"is_reserved":false,"is_disabled":false,"rental_uris":{"android":"levelo://app?vid=bf3ffca4-ec8f-4f57-8cac-3ff150f510cb","ios":"levelo://app?vid=bf3ffca4-ec8f-4f57-8cac-3ff150f510cb"},"vehicle_type_id":"4","last_reported":1752948871,"current_range_meters":11200,"station_id":"ce4bgv12rcd13ifvqcp0","pricing_plan_id":"cebpf4jnsgd1na2vs0mg"},{"bike_id":"252ba4fd-ef21-4868-a925-836be711bf82","system_id":"levelo_inurba_marseille","lat":43.2943,"lon":5.38593,"is_reserved":false,"is_disabled":false,"rental_uris":{"android":"levelo://app?vid=252ba4fd-ef21-4868-a925-836be711bf82","ios":"levelo://app?vid=252ba4fd-ef21-4868-a925-836be711bf82"},"vehicle_type_id":"4","last_reported":1752948871,"current_range_meters":11200,"station_id":"ce4bh2h2rcd13ifvqdh0","pricing_plan_id":"cebpf4jnsgd1na2vs0mg"},{"bike_id":"96579d04-b9e9-484c-9b9a-af500e5e8552","system_id":"levelo_inurba_marseille","lat":43.32674,"lon":5.36393,"is_reserved":false,"is_disabled":false,"rental_uris":{"android":"levelo://app?vid=96579d04-b9e9-484c-9b9a-af500e5e8552","ios":"levelo://app?vid=96579d04-b9e9-484c-9b9a-af500e5e8552"},"vehicle_type_id":"4","last_reported":1752948871,"current_range_meters":11200,"station_id":"","pricing_plan_id":"cebpf4jnsgd1na2vs0mg"},{"bike_id":"0b4d64d7-ce07-4b5c-9792-6df1ddd2d170","system_id":"levelo_inurba_marseille","lat":43.30954,"lon":5.39005,"is_reserved":false,"is_disabled":false,"rental_uris":{"android":"levelo://app?vid=0b4d64d7-ce07-4b5c-9792-6df1ddd2d170","ios":"levelo://app?vid=0b4d64d7-ce07-4b5c-9792-6df1ddd2d170"},"vehicle_type_id":"4","last_reported":1752948871,"current_range_meters":11600,"station_id":"ce4bgup2rcd13ifvqco0","pricing_plan_id":"cebpf4jnsgd1na2vs0mg"},{"bike_id":"875e79b8-828f-41e0-8e09-6cdd5634f137","system_id":"levelo_inurba_marseille","lat":43.28415,"lon":5.34959,"is_reserved":false,"is_disabled":false,"rental_uris":{"android":"levelo://app?vid=875e79b8-828f-41e0-8e09-6cdd5634f137","ios":"levelo://app?vid=875e79b8-828f-41e0-8e09-6cdd5634f137"},"vehicle_type_id":"4","last_reported":1752948871,"current_range_meters":11600,"station_id":"ce4bhbh2rcd13ifvqepg","pricing_plan_id":"cebpf4jnsgd1na2vs0mg"},{"bike_id":"ac141403-2eff-454e-8bd1-3d400d40ed2b","system_id":"levelo_inurba_marseille","lat":43.3311,"lon":5.40022,"is_reserved":false,"is_disabled":false,"rental_uris":{"android":"levelo://app?vid=ac141403-2eff-454e-8bd1-3d400d40ed2b","ios":"levelo://app?vid=ac141403-2eff-454e-8bd1-3d400d40ed2b"},"vehicle_type_id":"4","last_reported":1752948871,"current_range_meters":11600,"station_id":"","pricing_plan_id":"cebpf4jnsgd1na2vs0mg"},{"bike_id":"72246840-a748-4d55-b177-b55c220dc56c","system_id":"levelo_inurba_marseille","lat":43.29573,"lon":5.39968,"is_reserved":false,"is_disabled":false,"rental_uris":{"android":"levelo://app?vid=72246840-a748-4d55-b177-b55c220dc56c","ios":"levelo://app?vid=72246840-a748-4d55-b177-b55c220dc56c"},"vehicle_type_id":"4","last_reported":1752948871,"current_range_meters":14800,"station_id":"ce4bh312rcd13ifvqdj0","pricing_plan_id":"cebpf4jnsgd1na2vs0mg"},{"bike_id":"d9749d8f-7121-4a45-ac25-8f48b28876d4","system_id":"levelo_inurba_marseille","lat":43.28088,"lon":5.35205,"is_reserved":false,"is_disabled":false,"rental_uris":{"android":"levelo://app?vid=d9749d8f-7121-4a45-ac25-8f48b28876d4","ios":"levelo://app?vid=d9749d8f-7121-4a45-ac25-8f48b28876d4"},"vehicle_type_id":"4","last_reported":1752948871,"current_range_meters":12000,"station_id":"","pricing_plan_id":"cebpf4jnsgd1na2vs0mg"},{"bike_id":"d7149a46-fb39-4935-aa6a-50600ec45c29","system_id":"levelo_inurba_marseille","lat":43.21753,"lon":5.345948,"is_reserved":false,"is_disabled":true,"rental_uris":{"android":"levelo://app?vid=d7149a46-fb39-4935-aa6a-50600ec45c29","ios":"levelo://app?vid=d7149a46-fb39-4935-aa6a-50600ec45c29"},"vehicle_type_id":"4","last_reported":1752948871,"current_range_meters":12000,"station_id":"st_cvj6r9ubvosntc0bgbag","pricing_plan_id":"cebpf4jnsgd1na2vs0mg"},{"bike_id":"641dd95a-cd63-49bb-a656-a16013280c62","system_id":"levelo_inurba_marseille","lat":43.26212,"lon":5.37439,"is_reserved":false,"is_disabled":false,"rental_uris":{"android":"levelo://app?vid=641dd95a-cd63-49bb-a656-a16013280c62","ios":"levelo://app?vid=641dd95a-cd63-49bb-a656-a16013280c62"},"vehicle_type_id":"4","last_reported":1752948871,"current_range_meters":12000,"station_id":"ce4bhgp2rcd13ifvqfc0","pricing_plan_id":"cebpf4jnsgd1na2vs0mg"},{"bike_id":"89148be5-72a9-4f65-8934-efd698065d3b","system_id":"levelo_inurba_marseille","lat":43.27313,"lon":5.39075,"is_reserved":false,"is_disabled":false,"rental_uris":{"android":"levelo://app?vid=89148be5-72a9-4f65-8934-efd698065d3b","ios":"levelo://app?vid=89148be5-72a9-4f65-8934-efd698065d3b"},"vehicle_type_id":"4","last_reported":1752948871,"current_range_meters":12000,"station_id":"ce4bhgp2rcd13ifvqfe0","pricing_plan_id":"cebpf4jnsgd1na2vs0mg"},{"bike_id":"8be8c5f3-90c8-47f3-8ccd-f4276e429144","system_id":"levelo_inurba_marseille","lat":43.29785,"lon":5.37115,"is_reserved":false,"is_disabled":false,"rental_uris":{"android":"levelo://app?vid=8be8c5f3-90c8-47f3-8ccd-f4276e429144","ios":"levelo://app?vid=8be8c5f3-90c8-47f3-8ccd-f4276e429144"},"vehicle_type_id":"4","last_reported":1752948871,"current_range_meters":11600,"station_id":"ce4bgop2rcd13ifvqc1g","pricing_plan_id":"cebpf4jnsgd1na2vs0mg"},{"bike_id":"0ae4d6c1-fe19-4d40-90c0-2a3b36699f19","system_id":"levelo_inurba_marseille","lat":43.33007,"lon":5.39538,"is_reserved":false,"is_disabled":false,"rental_uris":{"android":"levelo://app?vid=0ae4d6c1-fe19-4d40-90c0-2a3b36699f19","ios":"levelo://app?vid=0ae4d6c1-fe19-4d40-90c0-2a3b36699f19"},"vehicle_type_id":"4","last_reported":1752948871,"current_range_meters":12400,"station_id":"","pricing_plan_id":"cebpf4jnsgd1na2vs0mg"},{"bike_id":"99b56469-1fdb-4d65-b0fa-194b1ba7888e","system_id":"levelo_inurba_marseille","lat":43.29537,"lon":5.38533,"is_reserved":false,"is_disabled":false,"rental_uris":{"android":"levelo://app?vid=99b56469-1fdb-4d65-b0fa-194b1ba7888e","ios":"levelo://app?vid=99b56469-1fdb-4d65-b0fa-194b1ba7888e"},"vehicle_type_id":"4","last_reported":1752948871,"current_range_meters":12400,"station_id":"ce4bgih2rcd13ifvqba0","pricing_plan_id":"cebpf4jnsgd1na2vs0mg"},{"bike_id":"b168e20d-c087-476d-8b6a-6d08848851d3","system_id":"levelo_inurba_marseille","lat":43.30594,"lon":5.39354,"is_reserved":false,"is_disabled":false,"rental_uris":{"android":"levelo://app?vid=b168e20d-c087-476d-8b6a-6d08848851d3","ios":"levelo://app?vid=b168e20d-c087-476d-8b6a-6d08848851d3"},"vehicle_type_id":"4","last_reported":1752948871,"current_range_meters":12000,"station_id":"ce4bh0p2rcd13ifvqd80","pricing_plan_id":"cebpf4jnsgd1na2vs0mg"},{"bike_id":"078b6203-7dae-4644-8c4e-82f5c92f626e","system_id":"levelo_inurba_marseille","lat":43.29972,"lon":5.38475,"is_reserved":false,"is_disabled":false,"rental_uris":{"android":"levelo://app?vid=078b6203-7dae-4644-8c4e-82f5c92f626e","ios":"levelo://app?vid=078b6203-7dae-4644-8c4e-82f5c92f626e"},"vehicle_type_id":"4","last_reported":1752948871,"current_range_meters":12400,"station_id":"ce4bgj92rcd13ifvqbd0","pricing_plan_id":"cebpf4jnsgd1na2vs0mg"},{"bike_id":"84307c38-7858-4a90-a238-de392ce285cc","system_id":"levelo_inurba_marseille","lat":43.26562,"lon":5.39009,"is_reserved":false,"is_disabled":false,"rental_uris":{"android":"levelo://app?vid=84307c38-7858-4a90-a238-de392ce285cc","ios":"levelo://app?vid=84307c38-7858-4a90-a238-de392ce285cc"},"vehicle_type_id":"4","last_reported":1752948871,"current_range_meters":12400,"station_id":"ce4bhe12rcd13ifvqf30","pricing_plan_id":"cebpf4jnsgd1na2vs0mg"},{"bike_id":"94c07cb2-0943-4d24-99f2-97bdab47aa3f","system_id":"levelo_inurba_marseille","lat":43.337444,"lon":5.374475,"is_reserved":false,"is_disabled":false,"rental_uris":{"android":"levelo://app?vid=94c07cb2-0943-4d24-99f2-97bdab47aa3f","ios":"levelo://app?vid=94c07cb2-0943-4d24-99f2-97bdab47aa3f"},"vehicle_type_id":"4","last_reported":1752948871,"current_range_meters":12400,"station_id":"","pricing_plan_id":"cebpf4jnsgd1na2vs0mg"},{"bike_id":"9eee562f-c74b-4c1a-8fa0-1792764207de","system_id":"levelo_inurba_marseille","lat":43.25488,"lon":5.37653,"is_reserved":false,"is_disabled":false,"rental_uris":{"android":"levelo://app?vid=9eee562f-c74b-4c1a-8fa0-1792764207de","ios":"levelo://app?vid=9eee562f-c74b-4c1a-8fa0-1792764207de"},"vehicle_type_id":"4","last_reported":1752948871,"current_range_meters":12800,"station_id":"ce4bhh12rcd13ifvqff0","pricing_plan_id":"cebpf4jnsgd1na2vs0mg"},{"bike_id":"e13c101c-255c-419a-bf37-e1dc67e54c4a","system_id":"levelo_inurba_marseille","lat":43.26321,"lon":5.3739,"is_reserved":false,"is_disabled":false,"rental_uris":{"android":"levelo://app?vid=e13c101c-255c-419a-bf37-e1dc67e54c4a","ios":"levelo://app?vid=e13c101c-255c-419a-bf37-e1dc67e54c4a"},"vehicle_type_id":"4","last_reported":1752948871,"current_range_meters":12800,"station_id":"","pricing_plan_id":"cebpf4jnsgd1na2vs0mg"},{"bike_id":"1dbf2136-f97c-44d6-9a3b-28225cdc0487","system_id":"levelo_inurba_marseille","lat":43.24206,"lon":5.39724,"is_reserved":false,"is_disabled":false,"rental_uris":{"android":"levelo://app?vid=1dbf2136-f97c-44d6-9a3b-28225cdc0487","ios":"levelo://app?vid=1dbf2136-f97c-44d6-9a3b-28225cdc0487"},"vehicle_type_id":"4","last_reported":1752948871,"current_range_meters":14000,"station_id":"ce4bhn12rcd13ifvqgpg","pricing_plan_id":"cebpf4jnsgd1na2vs0mg"},{"bike_id":"f1809c6d-a698-4f48-95f7-3baa320675f9","system_id":"levelo_inurba_marseille","lat":43.286174,"lon":5.35108,"is_reserved":false,"is_disabled":false,"rental_uris":{"android":"levelo://app?vid=f1809c6d-a698-4f48-95f7-3baa320675f9","ios":"levelo://app?vid=f1809c6d-a698-4f48-95f7-3baa320675f9"},"vehicle_type_id":"4","last_reported":1752948871,"current_range_meters":12800,"station_id":"ce4bhch2rcd13ifvqeug","pricing_plan_id":"cebpf4jnsgd1na2vs0mg"},{"bike_id":"8350003f-2999-433d-9ad9-923cf70c187e","system_id":"levelo_inurba_marseille","lat":43.29868,"lon":5.39734,"is_reserved":false,"is_disabled":false,"rental_uris":{"android":"levelo://app?vid=8350003f-2999-433d-9ad9-923cf70c187e","ios":"levelo://app?vid=8350003f-2999-433d-9ad9-923cf70c187e"},"vehicle_type_id":"4","last_reported":1752948871,"current_range_meters":12800,"station_id":"","pricing_plan_id":"cebpf4jnsgd1na2vs0mg"},{"bike_id":"b970126c-c1c3-439a-8880-44ad88bd90cf","system_id":"levelo_inurba_marseille","lat":43.32125,"lon":5.36776,"is_reserved":false,"is_disabled":false,"rental_uris":{"android":"levelo://app?vid=b970126c-c1c3-439a-8880-44ad88bd90cf","ios":"levelo://app?vid=b970126c-c1c3-439a-8880-44ad88bd90cf"},"vehicle_type_id":"4","last_reported":1752948871,"current_range_meters":12800,"station_id":"ce4bhrh2rcd13ifvqhug","pricing_plan_id":"cebpf4jnsgd1na2vs0mg"},{"bike_id":"7360b2c1-827d-4a45-ba07-948ef7d2fc35","system_id":"levelo_inurba_marseille","lat":43.229295,"lon":5.353761,"is_reserved":false,"is_disabled":false,"rental_uris":{"android":"levelo://app?vid=7360b2c1-827d-4a45-ba07-948ef7d2fc35","ios":"levelo://app?vid=7360b2c1-827d-4a45-ba07-948ef7d2fc35"},"vehicle_type_id":"4","last_reported":1752948871,"current_range_meters":12800,"station_id":"","pricing_plan_id":"cebpf4jnsgd1na2vs0mg"},{"bike_id":"c5dbfe4a-4903-4f6e-b8fd-757c49947f93","system_id":"levelo_inurba_marseille","lat":43.28608,"lon":5.37057,"is_reserved":false,"is_disabled":false,"rental_uris":{"android":"levelo://app?vid=c5dbfe4a-4903-4f6e-b8fd-757c49947f93","ios":"levelo://app?vid=c5dbfe4a-4903-4f6e-b8fd-757c49947f93"},"vehicle_type_id":"4","last_reported":1752948871,"current_range_meters":13600,"station_id":"ce4bht12rcd13ifvqi60","pricing_plan_id":"cebpf4jnsgd1na2vs0mg"},{"bike_id":"9f96b854-e027-4c40-b573-f426a572ccbf","system_id":"levelo_inurba_marseille","lat":43.32975,"lon":5.39796,"is_reserved":false,"is_disabled":false,"rental_uris":{"android":"levelo://app?vid=9f96b854-e027-4c40-b573-f426a572ccbf","ios":"levelo://app?vid=9f96b854-e027-4c40-b573-f426a572ccbf"},"vehicle_type_id":"4","last_reported":1752948871,"current_range_meters":13600,"station_id":"","pricing_plan_id":"cebpf4jnsgd1na2vs0mg"},{"bike_id":"baa6599a-b9cf-4ee5-bbd9-b03933ece46c","system_id":"levelo_inurba_marseille","lat":43.27943,"lon":5.41044,"is_reserved":false,"is_disabled":false,"rental_uris":{"android":"levelo://app?vid=baa6599a-b9cf-4ee5-bbd9-b03933ece46c","ios":"levelo://app?vid=baa6599a-b9cf-4ee5-bbd9-b03933ece46c"},"vehicle_type_id":"4","last_reported":1752948871,"current_range_meters":13600,"station_id":"ce4bhnp2rcd13ifvqh0g","pricing_plan_id":"cebpf4jnsgd1na2vs0mg"},{"bike_id":"775381ad-0879-4193-aa1a-3d0405fd7726","system_id":"levelo_inurba_marseille","lat":43.28854,"lon":5.35842,"is_reserved":false,"is_disabled":false,"rental_uris":{"android":"levelo://app?vid=775381ad-0879-4193-aa1a-3d0405fd7726","ios":"levelo://app?vid=775381ad-0879-4193-aa1a-3d0405fd7726"},"vehicle_type_id":"4","last_reported":1752948871,"current_range_meters":13600,"station_id":"ce4bhb12rcd13ifvqem0","pricing_plan_id":"cebpf4jnsgd1na2vs0mg"},{"bike_id":"fc6b25a3-506b-4c18-b7ea-c56c67a95aa9","system_id":"levelo_inurba_marseille","lat":43.2842,"lon":5.34973,"is_reserved":false,"is_disabled":false,"rental_uris":{"android":"levelo://app?vid=fc6b25a3-506b-4c18-b7ea-c56c67a95aa9","ios":"levelo://app?vid=fc6b25a3-506b-4c18-b7ea-c56c67a95aa9"},"vehicle_type_id":"4","last_reported":1752948871,"current_range_meters":13600,"station_id":"ce4bhbh2rcd13ifvqepg","pricing_plan_id":"cebpf4jnsgd1na2vs0mg"},{"bike_id":"d1e9c72e-7489-4052-b944-813b64bc55b4","system_id":"levelo_inurba_marseille","lat":43.31582,"lon":5.38944,"is_reserved":false,"is_disabled":false,"rental_uris":{"android":"levelo://app?vid=d1e9c72e-7489-4052-b944-813b64bc55b4","ios":"levelo://app?vid=d1e9c72e-7489-4052-b944-813b64bc55b4"},"vehicle_type_id":"4","last_reported":1752948871,"current_range_meters":13600,"station_id":"","pricing_plan_id":"cebpf4jnsgd1na2vs0mg"},{"bike_id":"3ad37f1b-5c1c-42bb-8c8a-36228b5bd575","system_id":"levelo_inurba_marseille","lat":43.24668,"lon":5.38158,"is_reserved":false,"is_disabled":false,"rental_uris":{"android":"levelo://app?vid=3ad37f1b-5c1c-42bb-8c8a-36228b5bd575","ios":"levelo://app?vid=3ad37f1b-5c1c-42bb-8c8a-36228b5bd575"},"vehicle_type_id":"4","last_reported":1752948871,"current_range_meters":13600,"station_id":"ce4bhih2rcd13ifvqfr0","pricing_plan_id":"cebpf4jnsgd1na2vs0mg"},{"bike_id":"70e060d6-dcd3-4cd7-9344-7aba39b4fe8f","system_id":"levelo_inurba_marseille","lat":43.30305,"lon":5.36891,"is_reserved":false,"is_disabled":false,"rental_uris":{"android":"levelo://app?vid=70e060d6-dcd3-4cd7-9344-7aba39b4fe8f","ios":"levelo://app?vid=70e060d6-dcd3-4cd7-9344-7aba39b4fe8f"},"vehicle_type_id":"4","last_reported":1752948871,"current_range_meters":13600,"station_id":"ce4bgqh2rcd13ifvqc5g","pricing_plan_id":"cebpf4jnsgd1na2vs0mg"},{"bike_id":"b32d1a93-0beb-427d-955f-7686e06dec9b","system_id":"levelo_inurba_marseille","lat":43.23194,"lon":5.35556,"is_reserved":false,"is_disabled":false,"rental_uris":{"android":"levelo://app?vid=b32d1a93-0beb-427d-955f-7686e06dec9b","ios":"levelo://app?vid=b32d1a93-0beb-427d-955f-7686e06dec9b"},"vehicle_type_id":"4","last_reported":1752948871,"current_range_meters":14000,"station_id":"ce4bhu92rcd13ifvqi70","pricing_plan_id":"cebpf4jnsgd1na2vs0mg"},{"bike_id":"82a0927a-0b50-4a1f-b01c-4c89a1c96e61","system_id":"levelo_inurba_marseille","lat":43.33609,"lon":5.41038,"is_reserved":false,"is_disabled":false,"rental_uris":{"android":"levelo://app?vid=82a0927a-0b50-4a1f-b01c-4c89a1c96e61","ios":"levelo://app?vid=82a0927a-0b50-4a1f-b01c-4c89a1c96e61"},"vehicle_type_id":"4","last_reported":1752948871,"current_range_meters":14000,"station_id":"ce4bhqh2rcd13ifvqhmg","pricing_plan_id":"cebpf4jnsgd1na2vs0mg"},{"bike_id":"69174324-2b6a-4eaf-b188-60080a25b908","system_id":"levelo_inurba_marseille","lat":43.32369,"lon":5.36761,"is_reserved":false,"is_disabled":false,"rental_uris":{"android":"levelo://app?vid=69174324-2b6a-4eaf-b188-60080a25b908","ios":"levelo://app?vid=69174324-2b6a-4eaf-b188-60080a25b908"},"vehicle_type_id":"4","last_reported":1752948871,"current_range_meters":14000,"station_id":"ce4bhsh2rcd13ifvqi2g","pricing_plan_id":"cebpf4jnsgd1na2vs0mg"},{"bike_id":"fdbeb289-adb3-4e25-b0dd-c635efbe92b2","system_id":"levelo_inurba_marseille","lat":43.31715,"lon":5.4046,"is_reserved":false,"is_disabled":false,"rental_uris":{"android":"levelo://app?vid=fdbeb289-adb3-4e25-b0dd-c635efbe92b2","ios":"levelo://app?vid=fdbeb289-adb3-4e25-b0dd-c635efbe92b2"},"vehicle_type_id":"4","last_reported":1752948871,"current_range_meters":14000,"station_id":"ce4bh012rcd13ifvqd00","pricing_plan_id":"cebpf4jnsgd1na2vs0mg"},{"bike_id":"7d85feb0-8c91-41fb-8253-acc480d3255e","system_id":"levelo_inurba_marseille","lat":43.29193,"lon":5.35787,"is_reserved":false,"is_disabled":false,"rental_uris":{"android":"levelo://app?vid=7d85feb0-8c91-41fb-8253-acc480d3255e","ios":"levelo://app?vid=7d85feb0-8c91-41fb-8253-acc480d3255e"},"vehicle_type_id":"4","last_reported":1752948871,"current_range_meters":14000,"station_id":"ce4bhb12rcd13ifvqel0","pricing_plan_id":"cebpf4jnsgd1na2vs0mg"},{"bike_id":"1d1690e3-ca24-483a-8082-534c85b38296","system_id":"levelo_inurba_marseille","lat":43.282637,"lon":5.350617,"is_reserved":false,"is_disabled":false,"rental_uris":{"android":"levelo://app?vid=1d1690e3-ca24-483a-8082-534c85b38296","ios":"levelo://app?vid=1d1690e3-ca24-483a-8082-534c85b38296"},"vehicle_type_id":"4","last_reported":1752948871,"current_range_meters":14400,"station_id":"ce4bhbp2rcd13ifvqerg","pricing_plan_id":"cebpf4jnsgd1na2vs0mg"},{"bike_id":"ea4bf20b-1e97-478f-afff-4a7b90712fcc","system_id":"levelo_inurba_marseille","lat":43.26795,"lon":5.39403,"is_reserved":false,"is_disabled":false,"rental_uris":{"android":"levelo://app?vid=ea4bf20b-1e97-478f-afff-4a7b90712fcc","ios":"levelo://app?vid=ea4bf20b-1e97-478f-afff-4a7b90712fcc"},"vehicle_type_id":"4","last_reported":1752948871,"current_range_meters":14400,"station_id":"ce4bhh12rcd13ifvqfg0","pricing_plan_id":"cebpf4jnsgd1na2vs0mg"},{"bike_id":"41d036e6-6ea2-4066-8a8e-ac305032f2a9","system_id":"levelo_inurba_marseille","lat":43.29198,"lon":5.35803,"is_reserved":false,"is_disabled":false,"rental_uris":{"android":"levelo://app?vid=41d036e6-6ea2-4066-8a8e-ac305032f2a9","ios":"levelo://app?vid=41d036e6-6ea2-4066-8a8e-ac305032f2a9"},"vehicle_type_id":"4","last_reported":1752948871,"current_range_meters":14000,"station_id":"ce4bhb12rcd13ifvqel0","pricing_plan_id":"cebpf4jnsgd1na2vs0mg"},{"bike_id":"b3c5a29a-caee-4b6b-9dfc-fac2d1ca3742","system_id":"levelo_inurba_marseille","lat":43.2846,"lon":5.35883,"is_reserved":false,"is_disabled":false,"rental_uris":{"android":"levelo://app?vid=b3c5a29a-caee-4b6b-9dfc-fac2d1ca3742","ios":"levelo://app?vid=b3c5a29a-caee-4b6b-9dfc-fac2d1ca3742"},"vehicle_type_id":"4","last_reported":1752948871,"current_range_meters":14400,"station_id":"ce4bhah2rcd13ifvqei0","pricing_plan_id":"cebpf4jnsgd1na2vs0mg"},{"bike_id":"c9ffd04b-c3a5-49bc-9896-054acbb108c7","system_id":"levelo_inurba_marseille","lat":43.22505,"lon":5.34773,"is_reserved":false,"is_disabled":false,"rental_uris":{"android":"levelo://app?vid=c9ffd04b-c3a5-49bc-9896-054acbb108c7","ios":"levelo://app?vid=c9ffd04b-c3a5-49bc-9896-054acbb108c7"},"vehicle_type_id":"4","last_reported":1752948871,"current_range_meters":14400,"station_id":"st_cvj5dfep6f1abm77gieg","pricing_plan_id":"cebpf4jnsgd1na2vs0mg"},{"bike_id":"a7304919-8e2e-4711-b3be-18e7779ae45b","system_id":"levelo_inurba_marseille","lat":43.31326,"lon":5.39693,"is_reserved":false,"is_disabled":false,"rental_uris":{"android":"levelo://app?vid=a7304919-8e2e-4711-b3be-18e7779ae45b","ios":"levelo://app?vid=a7304919-8e2e-4711-b3be-18e7779ae45b"},"vehicle_type_id":"4","last_reported":1752948871,"current_range_meters":14800,"station_id":"ce4bgvp2rcd13ifvqcu0","pricing_plan_id":"cebpf4jnsgd1na2vs0mg"},{"bike_id":"bad9d2f6-6733-45b8-aac8-f66f95baa909","system_id":"levelo_inurba_marseille","lat":43.29191,"lon":5.35793,"is_reserved":false,"is_disabled":false,"rental_uris":{"android":"levelo://app?vid=bad9d2f6-6733-45b8-aac8-f66f95baa909","ios":"levelo://app?vid=bad9d2f6-6733-45b8-aac8-f66f95baa909"},"vehicle_type_id":"4","last_reported":1752948871,"current_range_meters":14400,"station_id":"ce4bhb12rcd13ifvqel0","pricing_plan_id":"cebpf4jnsgd1na2vs0mg"},{"bike_id":"0fd02cf6-67fb-4589-807f-241dd50b7e1a","system_id":"levelo_inurba_marseille","lat":43.29899,"lon":5.43643,"is_reserved":false,"is_disabled":true,"rental_uris":{"android":"levelo://app?vid=0fd02cf6-67fb-4589-807f-241dd50b7e1a","ios":"levelo://app?vid=0fd02cf6-67fb-4589-807f-241dd50b7e1a"},"vehicle_type_id":"4","last_reported":1752948871,"current_range_meters":14800,"station_id":"ce4bhpp2rcd13ifvqhfg","pricing_plan_id":"cebpf4jnsgd1na2vs0mg"},{"bike_id":"646bd144-4ffa-49b8-a08d-6b47ca08200f","system_id":"levelo_inurba_marseille","lat":43.25505,"lon":5.37613,"is_reserved":false,"is_disabled":true,"rental_uris":{"android":"levelo://app?vid=646bd144-4ffa-49b8-a08d-6b47ca08200f","ios":"levelo://app?vid=646bd144-4ffa-49b8-a08d-6b47ca08200f"},"vehicle_type_id":"4","last_reported":1752948871,"current_range_meters":14800,"station_id":"ce4bhh12rcd13ifvqff0","pricing_plan_id":"cebpf4jnsgd1na2vs0mg"},{"bike_id":"2623ee54-e811-418c-8411-9986e8afd90f","system_id":"levelo_inurba_marseille","lat":43.24388,"lon":5.3706,"is_reserved":false,"is_disabled":false,"rental_uris":{"android":"levelo://app?vid=2623ee54-e811-418c-8411-9986e8afd90f","ios":"levelo://app?vid=2623ee54-e811-418c-8411-9986e8afd90f"},"vehicle_type_id":"4","last_reported":1752948871,"current_range_meters":12800,"station_id":"ce4bhhh2rcd13ifvqfk0","pricing_plan_id":"cebpf4jnsgd1na2vs0mg"},{"bike_id":"6a193f41-f336-48d3-a5d0-a6fca3bf067e","system_id":"levelo_inurba_marseille","lat":43.24653,"lon":5.38148,"is_reserved":false,"is_disabled":false,"rental_uris":{"android":"levelo://app?vid=6a193f41-f336-48d3-a5d0-a6fca3bf067e","ios":"levelo://app?vid=6a193f41-f336-48d3-a5d0-a6fca3bf067e"},"vehicle_type_id":"4","last_reported":1752948871,"current_range_meters":14800,"station_id":"ce4bhih2rcd13ifvqfr0","pricing_plan_id":"cebpf4jnsgd1na2vs0mg"},{"bike_id":"62ee53de-dec1-4002-9b14-4a00bcd3066e","system_id":"levelo_inurba_marseille","lat":43.29264,"lon":5.38442,"is_reserved":false,"is_disabled":false,"rental_uris":{"android":"levelo://app?vid=62ee53de-dec1-4002-9b14-4a00bcd3066e","ios":"levelo://app?vid=62ee53de-dec1-4002-9b14-4a00bcd3066e"},"vehicle_type_id":"4","last_reported":1752948871,"current_range_meters":14800,"station_id":"ce4bh692rcd13ifvqea0","pricing_plan_id":"cebpf4jnsgd1na2vs0mg"},{"bike_id":"c04f4d0e-09c8-4656-9c87-195fcc2f8942","system_id":"levelo_inurba_marseille","lat":43.28416,"lon":5.34969,"is_reserved":false,"is_disabled":false,"rental_uris":{"android":"levelo://app?vid=c04f4d0e-09c8-4656-9c87-195fcc2f8942","ios":"levelo://app?vid=c04f4d0e-09c8-4656-9c87-195fcc2f8942"},"vehicle_type_id":"4","last_reported":1752948871,"current_range_meters":15200,"station_id":"ce4bhbh2rcd13ifvqepg","pricing_plan_id":"cebpf4jnsgd1na2vs0mg"},{"bike_id":"d421927e-7ddd-40a0-904f-5b4ff0266a72","system_id":"levelo_inurba_marseille","lat":43.319094,"lon":5.401633,"is_reserved":false,"is_disabled":false,"rental_uris":{"android":"levelo://app?vid=d421927e-7ddd-40a0-904f-5b4ff0266a72","ios":"levelo://app?vid=d421927e-7ddd-40a0-904f-5b4ff0266a72"},"vehicle_type_id":"4","last_reported":1752948871,"current_range_meters":15200,"station_id":"","pricing_plan_id":"cebpf4jnsgd1na2vs0mg"},{"bike_id":"ed94dd41-3c88-4b3f-a186-6e1e80df2bbe","system_id":"levelo_inurba_marseille","lat":43.24389,"lon":5.3706,"is_reserved":false,"is_disabled":false,"rental_uris":{"android":"levelo://app?vid=ed94dd41-3c88-4b3f-a186-6e1e80df2bbe","ios":"levelo://app?vid=ed94dd41-3c88-4b3f-a186-6e1e80df2bbe"},"vehicle_type_id":"4","last_reported":1752948871,"current_range_meters":15200,"station_id":"ce4bhhh2rcd13ifvqfk0","pricing_plan_id":"cebpf4jnsgd1na2vs0mg"},{"bike_id":"a6de290b-5c15-427b-bc37-8301607e1735","system_id":"levelo_inurba_marseille","lat":43.337444,"lon":5.374475,"is_reserved":false,"is_disabled":false,"rental_uris":{"android":"levelo://app?vid=a6de290b-5c15-427b-bc37-8301607e1735","ios":"levelo://app?vid=a6de290b-5c15-427b-bc37-8301607e1735"},"vehicle_type_id":"4","last_reported":1752948871,"current_range_meters":15200,"station_id":"","pricing_plan_id":"cebpf4jnsgd1na2vs0mg"},{"bike_id":"74e93ff0-0fe3-46c1-8291-4ed06dfeed28","system_id":"levelo_inurba_marseille","lat":43.28618,"lon":5.35112,"is_reserved":false,"is_disabled":false,"rental_uris":{"android":"levelo://app?vid=74e93ff0-0fe3-46c1-8291-4ed06dfeed28","ios":"levelo://app?vid=74e93ff0-0fe3-46c1-8291-4ed06dfeed28"},"vehicle_type_id":"4","last_reported":1752948871,"current_range_meters":15200,"station_id":"ce4bhch2rcd13ifvqeug","pricing_plan_id":"cebpf4jnsgd1na2vs0mg"},{"bike_id":"e122d88a-9b60-4e16-a29e-60ef32a8dad5","system_id":"levelo_inurba_marseille","lat":43.21203,"lon":5.3505,"is_reserved":false,"is_disabled":false,"rental_uris":{"android":"levelo://app?vid=e122d88a-9b60-4e16-a29e-60ef32a8dad5","ios":"levelo://app?vid=e122d88a-9b60-4e16-a29e-60ef32a8dad5"},"vehicle_type_id":"4","last_reported":1752948871,"current_range_meters":15200,"station_id":"st_cvj6sg6p6f1abm77japg","pricing_plan_id":"cebpf4jnsgd1na2vs0mg"},{"bike_id":"d91b4dff-debd-47ff-be1f-d06936ca4406","system_id":"levelo_inurba_marseille","lat":43.29973,"lon":5.38504,"is_reserved":false,"is_disabled":false,"rental_uris":{"android":"levelo://app?vid=d91b4dff-debd-47ff-be1f-d06936ca4406","ios":"levelo://app?vid=d91b4dff-debd-47ff-be1f-d06936ca4406"},"vehicle_type_id":"4","last_reported":1752948871,"current_range_meters":15200,"station_id":"ce4bgj92rcd13ifvqbd0","pricing_plan_id":"cebpf4jnsgd1na2vs0mg"},{"bike_id":"63aa38e0-9f27-4e84-ba51-f0e522fa8601","system_id":"levelo_inurba_marseille","lat":43.28414,"lon":5.34972,"is_reserved":false,"is_disabled":false,"rental_uris":{"android":"levelo://app?vid=63aa38e0-9f27-4e84-ba51-f0e522fa8601","ios":"levelo://app?vid=63aa38e0-9f27-4e84-ba51-f0e522fa8601"},"vehicle_type_id":"4","last_reported":1752948871,"current_range_meters":15200,"station_id":"ce4bhbh2rcd13ifvqepg","pricing_plan_id":"cebpf4jnsgd1na2vs0mg"},{"bike_id":"44e89ad7-16a2-4910-805f-061f2aee5ab7","system_id":"levelo_inurba_marseille","lat":43.231865,"lon":5.355596,"is_reserved":false,"is_disabled":false,"rental_uris":{"android":"levelo://app?vid=44e89ad7-16a2-4910-805f-061f2aee5ab7","ios":"levelo://app?vid=44e89ad7-16a2-4910-805f-061f2aee5ab7"},"vehicle_type_id":"4","last_reported":1752948871,"current_range_meters":15200,"station_id":"ce4bhu92rcd13ifvqi70","pricing_plan_id":"cebpf4jnsgd1na2vs0mg"},{"bike_id":"1b545baf-9448-4761-b89d-3c9275be33a7","system_id":"levelo_inurba_marseille","lat":43.28256,"lon":5.35075,"is_reserved":false,"is_disabled":false,"rental_uris":{"android":"levelo://app?vid=1b545baf-9448-4761-b89d-3c9275be33a7","ios":"levelo://app?vid=1b545baf-9448-4761-b89d-3c9275be33a7"},"vehicle_type_id":"4","last_reported":1752948871,"current_range_meters":15200,"station_id":"ce4bhbp2rcd13ifvqerg","pricing_plan_id":"cebpf4jnsgd1na2vs0mg"},{"bike_id":"388ef3fa-edf1-4a4f-bb6a-236abc146871","system_id":"levelo_inurba_marseille","lat":43.33888,"lon":5.39258,"is_reserved":false,"is_disabled":false,"rental_uris":{"android":"levelo://app?vid=388ef3fa-edf1-4a4f-bb6a-236abc146871","ios":"levelo://app?vid=388ef3fa-edf1-4a4f-bb6a-236abc146871"},"vehicle_type_id":"4","last_reported":1752948871,"current_range_meters":16000,"station_id":"","pricing_plan_id":"cebpf4jnsgd1na2vs0mg"},{"bike_id":"dd763770-4b33-4fae-beea-f0af985210ce","system_id":"levelo_inurba_marseille","lat":43.26223,"lon":5.40458,"is_reserved":false,"is_disabled":false,"rental_uris":{"android":"levelo://app?vid=dd763770-4b33-4fae-beea-f0af985210ce","ios":"levelo://app?vid=dd763770-4b33-4fae-beea-f0af985210ce"},"vehicle_type_id":"4","last_reported":1752948871,"current_range_meters":16000,"station_id":"ce4bhmh2rcd13ifvqgmg","pricing_plan_id":"cebpf4jnsgd1na2vs0mg"},{"bike_id":"f64d4495-c6c3-4047-b421-2e9c29951567","system_id":"levelo_inurba_marseille","lat":43.22536,"lon":5.3476,"is_reserved":false,"is_disabled":false,"rental_uris":{"android":"levelo://app?vid=f64d4495-c6c3-4047-b421-2e9c29951567","ios":"levelo://app?vid=f64d4495-c6c3-4047-b421-2e9c29951567"},"vehicle_type_id":"4","last_reported":1752948871,"current_range_meters":16000,"station_id":"st_cvj5dfep6f1abm77gieg","pricing_plan_id":"cebpf4jnsgd1na2vs0mg"},{"bike_id":"45dea0eb-918d-49f1-8341-001e35c226f0","system_id":"levelo_inurba_marseille","lat":43.21223,"lon":5.35079,"is_reserved":false,"is_disabled":false,"rental_uris":{"android":"levelo://app?vid=45dea0eb-918d-49f1-8341-001e35c226f0","ios":"levelo://app?vid=45dea0eb-918d-49f1-8341-001e35c226f0"},"vehicle_type_id":"4","last_reported":1752948871,"current_range_meters":16000,"station_id":"st_cvj6sg6p6f1abm77japg","pricing_plan_id":"cebpf4jnsgd1na2vs0mg"},{"bike_id":"cf9f7b6f-b252-45aa-bd41-e7b8a5947e88","system_id":"levelo_inurba_marseille","lat":43.26942,"lon":5.40272,"is_reserved":false,"is_disabled":true,"rental_uris":{"android":"levelo://app?vid=cf9f7b6f-b252-45aa-bd41-e7b8a5947e88","ios":"levelo://app?vid=cf9f7b6f-b252-45aa-bd41-e7b8a5947e88"},"vehicle_type_id":"4","last_reported":1752948871,"current_range_meters":16000,"station_id":"cjm6bp8fraef2m0cb0m0","pricing_plan_id":"cebpf4jnsgd1na2vs0mg"},{"bike_id":"4a2af6fb-f040-4dff-9ff5-d70c4f952e83","system_id":"levelo_inurba_marseille","lat":43.315113,"lon":5.373126,"is_reserved":false,"is_disabled":false,"rental_uris":{"android":"levelo://app?vid=4a2af6fb-f040-4dff-9ff5-d70c4f952e83","ios":"levelo://app?vid=4a2af6fb-f040-4dff-9ff5-d70c4f952e83"},"vehicle_type_id":"4","last_reported":1752948871,"current_range_meters":16000,"station_id":"ce4bgt12rcd13ifvqcd0","pricing_plan_id":"cebpf4jnsgd1na2vs0mg"},{"bike_id":"6f120e02-0867-4040-a62a-34c38406fbd8","system_id":"levelo_inurba_marseille","lat":43.21747,"lon":5.34596,"is_reserved":false,"is_disabled":false,"rental_uris":{"android":"levelo://app?vid=6f120e02-0867-4040-a62a-34c38406fbd8","ios":"levelo://app?vid=6f120e02-0867-4040-a62a-34c38406fbd8"},"vehicle_type_id":"4","last_reported":1752948871,"current_range_meters":16000,"station_id":"st_cvj6r9ubvosntc0bgbag","pricing_plan_id":"cebpf4jnsgd1na2vs0mg"},{"bike_id":"892e06aa-05f6-415f-96f6-13455b0802de","system_id":"levelo_inurba_marseille","lat":43.29569,"lon":5.37484,"is_reserved":false,"is_disabled":true,"rental_uris":{"android":"levelo://app?vid=892e06aa-05f6-415f-96f6-13455b0802de","ios":"levelo://app?vid=892e06aa-05f6-415f-96f6-13455b0802de"},"vehicle_type_id":"4","last_reported":1752948871,"current_range_meters":16000,"station_id":"ce4bgh92rcd13ifvqb50","pricing_plan_id":"cebpf4jnsgd1na2vs0mg"},{"bike_id":"83036b03-adb1-418f-ad9f-83b2e4ca32f2","system_id":"levelo_inurba_marseille","lat":43.241673,"lon":5.363934,"is_reserved":false,"is_disabled":false,"rental_uris":{"android":"levelo://app?vid=83036b03-adb1-418f-ad9f-83b2e4ca32f2","ios":"levelo://app?vid=83036b03-adb1-418f-ad9f-83b2e4ca32f2"},"vehicle_type_id":"4","last_reported":1752948871,"current_range_meters":16000,"station_id":"cpo36qri1sfpv3e86is0","pricing_plan_id":"cebpf4jnsgd1na2vs0mg"},{"bike_id":"5ab04d03-c64b-48e0-9ea3-115cbc75d602","system_id":"levelo_inurba_marseille","lat":43.27206,"lon":5.39141,"is_reserved":false,"is_disabled":false,"rental_uris":{"android":"levelo://app?vid=5ab04d03-c64b-48e0-9ea3-115cbc75d602","ios":"levelo://app?vid=5ab04d03-c64b-48e0-9ea3-115cbc75d602"},"vehicle_type_id":"4","last_reported":1752948871,"current_range_meters":16000,"station_id":"ce4bhhp2rcd13ifvqfm0","pricing_plan_id":"cebpf4jnsgd1na2vs0mg"},{"bike_id":"103177c7-9427-4a58-acdb-975a8bac7022","system_id":"levelo_inurba_marseille","lat":43.30947,"lon":5.39027,"is_reserved":false,"is_disabled":false,"rental_uris":{"android":"levelo://app?vid=103177c7-9427-4a58-acdb-975a8bac7022","ios":"levelo://app?vid=103177c7-9427-4a58-acdb-975a8bac7022"},"vehicle_type_id":"4","last_reported":1752948871,"current_range_meters":16000,"station_id":"ce4bgup2rcd13ifvqco0","pricing_plan_id":"cebpf4jnsgd1na2vs0mg"},{"bike_id":"7a2e1cf8-de90-4b24-ade1-9d8b3a17f052","system_id":"levelo_inurba_marseille","lat":43.25185,"lon":5.3758,"is_reserved":false,"is_disabled":false,"rental_uris":{"android":"levelo://app?vid=7a2e1cf8-de90-4b24-ade1-9d8b3a17f052","ios":"levelo://app?vid=7a2e1cf8-de90-4b24-ade1-9d8b3a17f052"},"vehicle_type_id":"4","last_reported":1752948871,"current_range_meters":26000,"station_id":"","pricing_plan_id":"cebpf4jnsgd1na2vs0mg"},{"bike_id":"9c1ddbd1-1ea4-4549-a0b1-60520dfb3469","system_id":"levelo_inurba_marseille","lat":43.23063,"lon":5.35489,"is_reserved":false,"is_disabled":false,"rental_uris":{"android":"levelo://app?vid=9c1ddbd1-1ea4-4549-a0b1-60520dfb3469","ios":"levelo://app?vid=9c1ddbd1-1ea4-4549-a0b1-60520dfb3469"},"vehicle_type_id":"4","last_reported":1752948871,"current_range_meters":16000,"station_id":"cpo3342slgdg3j2ifvpg","pricing_plan_id":"cebpf4jnsgd1na2vs0mg"},{"bike_id":"0a73cc88-8cd8-4e82-aea6-dfffa321c31d","system_id":"levelo_inurba_marseille","lat":43.29564,"lon":5.37496,"is_reserved":false,"is_disabled":false,"rental_uris":{"android":"levelo://app?vid=0a73cc88-8cd8-4e82-aea6-dfffa321c31d","ios":"levelo://app?vid=0a73cc88-8cd8-4e82-aea6-dfffa321c31d"},"vehicle_type_id":"4","last_reported":1752948871,"current_range_meters":16000,"station_id":"ce4bgh92rcd13ifvqb50","pricing_plan_id":"cebpf4jnsgd1na2vs0mg"},{"bike_id":"f4a58f62-b828-4cda-b4f9-1493df6c9b02","system_id":"levelo_inurba_marseille","lat":43.21193,"lon":5.35065,"is_reserved":false,"is_disabled":false,"rental_uris":{"android":"levelo://app?vid=f4a58f62-b828-4cda-b4f9-1493df6c9b02","ios":"levelo://app?vid=f4a58f62-b828-4cda-b4f9-1493df6c9b02"},"vehicle_type_id":"4","last_reported":1752948871,"current_range_meters":16000,"station_id":"st_cvj6sg6p6f1abm77japg","pricing_plan_id":"cebpf4jnsgd1na2vs0mg"},{"bike_id":"5a570911-22d0-41b1-a776-0fe138c4bdc4","system_id":"levelo_inurba_marseille","lat":43.21197,"lon":5.35056,"is_reserved":false,"is_disabled":false,"rental_uris":{"android":"levelo://app?vid=5a570911-22d0-41b1-a776-0fe138c4bdc4","ios":"levelo://app?vid=5a570911-22d0-41b1-a776-0fe138c4bdc4"},"vehicle_type_id":"4","last_reported":1752948871,"current_range_meters":16000,"station_id":"st_cvj6sg6p6f1abm77japg","pricing_plan_id":"cebpf4jnsgd1na2vs0mg"},{"bike_id":"7592d3b0-727d-4107-ba81-a2966cdc2b34","system_id":"levelo_inurba_marseille","lat":43.262179,"lon":5.404413,"is_reserved":false,"is_disabled":false,"rental_uris":{"android":"levelo://app?vid=7592d3b0-727d-4107-ba81-a2966cdc2b34","ios":"levelo://app?vid=7592d3b0-727d-4107-ba81-a2966cdc2b34"},"vehicle_type_id":"4","last_reported":1752948871,"current_range_meters":16000,"station_id":"ce4bhmh2rcd13ifvqgmg","pricing_plan_id":"cebpf4jnsgd1na2vs0mg"},{"bike_id":"7d91d34c-95ba-419a-8d0b-21d2aeaa83ad","system_id":"levelo_inurba_marseille","lat":43.25508,"lon":5.37622,"is_reserved":false,"is_disabled":true,"rental_uris":{"android":"levelo://app?vid=7d91d34c-95ba-419a-8d0b-21d2aeaa83ad","ios":"levelo://app?vid=7d91d34c-95ba-419a-8d0b-21d2aeaa83ad"},"vehicle_type_id":"4","last_reported":1752948871,"current_range_meters":16000,"station_id":"ce4bhh12rcd13ifvqff0","pricing_plan_id":"cebpf4jnsgd1na2vs0mg"},{"bike_id":"867734f5-4fb7-4576-a64b-3de2eac033bb","system_id":"levelo_inurba_marseille","lat":43.23958,"lon":5.36628,"is_reserved":false,"is_disabled":false,"rental_uris":{"android":"levelo://app?vid=867734f5-4fb7-4576-a64b-3de2eac033bb","ios":"levelo://app?vid=867734f5-4fb7-4576-a64b-3de2eac033bb"},"vehicle_type_id":"4","last_reported":1752948871,"current_range_meters":16400,"station_id":"ce4bhi12rcd13ifvqfp0","pricing_plan_id":"cebpf4jnsgd1na2vs0mg"},{"bike_id":"0ac9b427-819d-4139-8162-77866abdf07d","system_id":"levelo_inurba_marseille","lat":43.24651,"lon":5.38883,"is_reserved":false,"is_disabled":false,"rental_uris":{"android":"levelo://app?vid=0ac9b427-819d-4139-8162-77866abdf07d","ios":"levelo://app?vid=0ac9b427-819d-4139-8162-77866abdf07d"},"vehicle_type_id":"4","last_reported":1752948871,"current_range_meters":16400,"station_id":"ce4bhg12rcd13ifvqf60","pricing_plan_id":"cebpf4jnsgd1na2vs0mg"},{"bike_id":"77e5d396-9f38-43c2-ae33-ac1f85df337d","system_id":"levelo_inurba_marseille","lat":43.29581,"lon":5.42295,"is_reserved":false,"is_disabled":false,"rental_uris":{"android":"levelo://app?vid=77e5d396-9f38-43c2-ae33-ac1f85df337d","ios":"levelo://app?vid=77e5d396-9f38-43c2-ae33-ac1f85df337d"},"vehicle_type_id":"4","last_reported":1752948871,"current_range_meters":16400,"station_id":"ce4bhph2rcd13ifvqhdg","pricing_plan_id":"cebpf4jnsgd1na2vs0mg"},{"bike_id":"50817c71-c433-41db-8588-f3f5b56e9306","system_id":"levelo_inurba_marseille","lat":43.22506,"lon":5.3478,"is_reserved":false,"is_disabled":false,"rental_uris":{"android":"levelo://app?vid=50817c71-c433-41db-8588-f3f5b56e9306","ios":"levelo://app?vid=50817c71-c433-41db-8588-f3f5b56e9306"},"vehicle_type_id":"4","last_reported":1752948871,"current_range_meters":16400,"station_id":"st_cvj5dfep6f1abm77gieg","pricing_plan_id":"cebpf4jnsgd1na2vs0mg"},{"bike_id":"d9c49184-7c16-41de-9e2b-1118fb44537a","system_id":"levelo_inurba_marseille","lat":43.29296,"lon":5.37456,"is_reserved":false,"is_disabled":false,"rental_uris":{"android":"levelo://app?vid=d9c49184-7c16-41de-9e2b-1118fb44537a","ios":"levelo://app?vid=d9c49184-7c16-41de-9e2b-1118fb44537a"},"vehicle_type_id":"4","last_reported":1752948871,"current_range_meters":16400,"station_id":"ce4bgi12rcd13ifvqb70","pricing_plan_id":"cebpf4jnsgd1na2vs0mg"},{"bike_id":"aa34f41a-13fe-4aea-ad5c-83396b8191e7","system_id":"levelo_inurba_marseille","lat":43.300654,"lon":5.398488,"is_reserved":false,"is_disabled":false,"rental_uris":{"android":"levelo://app?vid=aa34f41a-13fe-4aea-ad5c-83396b8191e7","ios":"levelo://app?vid=aa34f41a-13fe-4aea-ad5c-83396b8191e7"},"vehicle_type_id":"4","last_reported":1752948871,"current_range_meters":16400,"station_id":"ce4bh0h2rcd13ifvqd50","pricing_plan_id":"cebpf4jnsgd1na2vs0mg"},{"bike_id":"343b8808-d2b9-4da6-ac44-50f7b7b85104","system_id":"levelo_inurba_marseille","lat":43.229423,"lon":5.353647,"is_reserved":false,"is_disabled":false,"rental_uris":{"android":"levelo://app?vid=343b8808-d2b9-4da6-ac44-50f7b7b85104","ios":"levelo://app?vid=343b8808-d2b9-4da6-ac44-50f7b7b85104"},"vehicle_type_id":"4","last_reported":1752948871,"current_range_meters":16800,"station_id":"cpo3532slgdg3j2ikp40","pricing_plan_id":"cebpf4jnsgd1na2vs0mg"},{"bike_id":"bd05f458-0dde-47b0-856a-2675e93bf4fb","system_id":"levelo_inurba_marseille","lat":43.309484,"lon":5.390304,"is_reserved":false,"is_disabled":false,"rental_uris":{"android":"levelo://app?vid=bd05f458-0dde-47b0-856a-2675e93bf4fb","ios":"levelo://app?vid=bd05f458-0dde-47b0-856a-2675e93bf4fb"},"vehicle_type_id":"4","last_reported":1752948871,"current_range_meters":16800,"station_id":"ce4bgup2rcd13ifvqco0","pricing_plan_id":"cebpf4jnsgd1na2vs0mg"},{"bike_id":"f734d1ab-e95f-49df-a640-db407264fdd1","system_id":"levelo_inurba_marseille","lat":43.29548,"lon":5.37507,"is_reserved":false,"is_disabled":false,"rental_uris":{"android":"levelo://app?vid=f734d1ab-e95f-49df-a640-db407264fdd1","ios":"levelo://app?vid=f734d1ab-e95f-49df-a640-db407264fdd1"},"vehicle_type_id":"4","last_reported":1752948871,"current_range_meters":16800,"station_id":"ce4bgkp2rcd13ifvqbmg","pricing_plan_id":"cebpf4jnsgd1na2vs0mg"},{"bike_id":"cfb22e87-944f-4de9-94d7-32f2a3ef75d1","system_id":"levelo_inurba_marseille","lat":43.298419,"lon":5.380915,"is_reserved":false,"is_disabled":false,"rental_uris":{"android":"levelo://app?vid=cfb22e87-944f-4de9-94d7-32f2a3ef75d1","ios":"levelo://app?vid=cfb22e87-944f-4de9-94d7-32f2a3ef75d1"},"vehicle_type_id":"4","last_reported":1752948871,"current_range_meters":16800,"station_id":"","pricing_plan_id":"cebpf4jnsgd1na2vs0mg"},{"bike_id":"005a30b0-8bb0-4f90-b5df-3bc911016354","system_id":"levelo_inurba_marseille","lat":43.24807,"lon":5.37454,"is_reserved":false,"is_disabled":false,"rental_uris":{"android":"levelo://app?vid=005a30b0-8bb0-4f90-b5df-3bc911016354","ios":"levelo://app?vid=005a30b0-8bb0-4f90-b5df-3bc911016354"},"vehicle_type_id":"4","last_reported":1752948871,"current_range_meters":16800,"station_id":"ce4bhgh2rcd13ifvqfb0","pricing_plan_id":"cebpf4jnsgd1na2vs0mg"},{"bike_id":"8eecb308-4ad0-4b20-8e2b-f6aac4784ac9","system_id":"levelo_inurba_marseille","lat":43.27901,"lon":5.35332,"is_reserved":false,"is_disabled":false,"rental_uris":{"android":"levelo://app?vid=8eecb308-4ad0-4b20-8e2b-f6aac4784ac9","ios":"levelo://app?vid=8eecb308-4ad0-4b20-8e2b-f6aac4784ac9"},"vehicle_type_id":"4","last_reported":1752948871,"current_range_meters":16800,"station_id":"","pricing_plan_id":"cebpf4jnsgd1na2vs0mg"},{"bike_id":"95b5bcfa-54af-48c0-bd18-8f73f959ce2b","system_id":"levelo_inurba_marseille","lat":43.31935,"lon":5.37313,"is_reserved":false,"is_disabled":false,"rental_uris":{"android":"levelo://app?vid=95b5bcfa-54af-48c0-bd18-8f73f959ce2b","ios":"levelo://app?vid=95b5bcfa-54af-48c0-bd18-8f73f959ce2b"},"vehicle_type_id":"4","last_reported":1752948871,"current_range_meters":16800,"station_id":"","pricing_plan_id":"cebpf4jnsgd1na2vs0mg"},{"bike_id":"53457f41-5a7a-48bf-9ac8-5d0b153c75cd","system_id":"levelo_inurba_marseille","lat":43.24797,"lon":5.37443,"is_reserved":false,"is_disabled":false,"rental_uris":{"android":"levelo://app?vid=53457f41-5a7a-48bf-9ac8-5d0b153c75cd","ios":"levelo://app?vid=53457f41-5a7a-48bf-9ac8-5d0b153c75cd"},"vehicle_type_id":"4","last_reported":1752948871,"current_range_meters":16800,"station_id":"ce4bhgh2rcd13ifvqfb0","pricing_plan_id":"cebpf4jnsgd1na2vs0mg"},{"bike_id":"4756c3e0-fc87-4647-b159-7725acd8ef8b","system_id":"levelo_inurba_marseille","lat":43.21752,"lon":5.34602,"is_reserved":false,"is_disabled":false,"rental_uris":{"android":"levelo://app?vid=4756c3e0-fc87-4647-b159-7725acd8ef8b","ios":"levelo://app?vid=4756c3e0-fc87-4647-b159-7725acd8ef8b"},"vehicle_type_id":"4","last_reported":1752948871,"current_range_meters":17200,"station_id":"st_cvj6r9ubvosntc0bgbag","pricing_plan_id":"cebpf4jnsgd1na2vs0mg"},{"bike_id":"adcd1e4e-48e2-49ef-8a7e-b97cc2772f7a","system_id":"levelo_inurba_marseille","lat":43.295901,"lon":5.367463,"is_reserved":false,"is_disabled":false,"rental_uris":{"android":"levelo://app?vid=adcd1e4e-48e2-49ef-8a7e-b97cc2772f7a","ios":"levelo://app?vid=adcd1e4e-48e2-49ef-8a7e-b97cc2772f7a"},"vehicle_type_id":"4","last_reported":1752948871,"current_range_meters":17200,"station_id":"ce4bgpp2rcd13ifvqc3g","pricing_plan_id":"cebpf4jnsgd1na2vs0mg"},{"bike_id":"e4e6db7f-6842-4f2c-9bda-e73f51413a84","system_id":"levelo_inurba_marseille","lat":43.28638,"lon":5.35093,"is_reserved":false,"is_disabled":false,"rental_uris":{"android":"levelo://app?vid=e4e6db7f-6842-4f2c-9bda-e73f51413a84","ios":"levelo://app?vid=e4e6db7f-6842-4f2c-9bda-e73f51413a84"},"vehicle_type_id":"4","last_reported":1752948871,"current_range_meters":17200,"station_id":"ce4bhch2rcd13ifvqeug","pricing_plan_id":"cebpf4jnsgd1na2vs0mg"},{"bike_id":"6fb131dd-8bae-4bc0-b0c0-17992306572f","system_id":"levelo_inurba_marseille","lat":43.2955,"lon":5.42271,"is_reserved":false,"is_disabled":false,"rental_uris":{"android":"levelo://app?vid=6fb131dd-8bae-4bc0-b0c0-17992306572f","ios":"levelo://app?vid=6fb131dd-8bae-4bc0-b0c0-17992306572f"},"vehicle_type_id":"4","last_reported":1752948871,"current_range_meters":17200,"station_id":"ce4bhph2rcd13ifvqhdg","pricing_plan_id":"cebpf4jnsgd1na2vs0mg"},{"bike_id":"c9e13ae8-81d2-45a5-adef-f1b61a66153b","system_id":"levelo_inurba_marseille","lat":43.23959,"lon":5.36614,"is_reserved":false,"is_disabled":false,"rental_uris":{"android":"levelo://app?vid=c9e13ae8-81d2-45a5-adef-f1b61a66153b","ios":"levelo://app?vid=c9e13ae8-81d2-45a5-adef-f1b61a66153b"},"vehicle_type_id":"4","last_reported":1752948871,"current_range_meters":17200,"station_id":"ce4bhi12rcd13ifvqfp0","pricing_plan_id":"cebpf4jnsgd1na2vs0mg"},{"bike_id":"beb14892-a851-4f8e-b873-cbd3d15ad0a9","system_id":"levelo_inurba_marseille","lat":43.23755,"lon":5.36189,"is_reserved":false,"is_disabled":false,"rental_uris":{"android":"levelo://app?vid=beb14892-a851-4f8e-b873-cbd3d15ad0a9","ios":"levelo://app?vid=beb14892-a851-4f8e-b873-cbd3d15ad0a9"},"vehicle_type_id":"4","last_reported":1752948871,"current_range_meters":17200,"station_id":"","pricing_plan_id":"cebpf4jnsgd1na2vs0mg"},{"bike_id":"a4849453-fc76-4eef-856a-587b0feaf6dc","system_id":"levelo_inurba_marseille","lat":43.2843,"lon":5.349921,"is_reserved":false,"is_disabled":false,"rental_uris":{"android":"levelo://app?vid=a4849453-fc76-4eef-856a-587b0feaf6dc","ios":"levelo://app?vid=a4849453-fc76-4eef-856a-587b0feaf6dc"},"vehicle_type_id":"4","last_reported":1752948871,"current_range_meters":17200,"station_id":"ce4bhbh2rcd13ifvqepg","pricing_plan_id":"cebpf4jnsgd1na2vs0mg"},{"bike_id":"b113f225-6aed-49e0-b815-a5d9f7472168","system_id":"levelo_inurba_marseille","lat":43.30143,"lon":5.37408,"is_reserved":false,"is_disabled":false,"rental_uris":{"android":"levelo://app?vid=b113f225-6aed-49e0-b815-a5d9f7472168","ios":"levelo://app?vid=b113f225-6aed-49e0-b815-a5d9f7472168"},"vehicle_type_id":"4","last_reported":1752948871,"current_range_meters":17200,"station_id":"ce4bgs92rcd13ifvqcc0","pricing_plan_id":"cebpf4jnsgd1na2vs0mg"},{"bike_id":"99a3f26b-017d-4f0d-a51d-d69fa5f86dc6","system_id":"levelo_inurba_marseille","lat":43.29268,"lon":5.38431,"is_reserved":false,"is_disabled":false,"rental_uris":{"android":"levelo://app?vid=99a3f26b-017d-4f0d-a51d-d69fa5f86dc6","ios":"levelo://app?vid=99a3f26b-017d-4f0d-a51d-d69fa5f86dc6"},"vehicle_type_id":"4","last_reported":1752948871,"current_range_meters":17200,"station_id":"ce4bh692rcd13ifvqea0","pricing_plan_id":"cebpf4jnsgd1na2vs0mg"},{"bike_id":"ce15b79a-09d0-4a54-9c5d-f4e2fb90d2b8","system_id":"levelo_inurba_marseille","lat":43.260148,"lon":5.375479,"is_reserved":false,"is_disabled":false,"rental_uris":{"android":"levelo://app?vid=ce15b79a-09d0-4a54-9c5d-f4e2fb90d2b8","ios":"levelo://app?vid=ce15b79a-09d0-4a54-9c5d-f4e2fb90d2b8"},"vehicle_type_id":"4","last_reported":1752948871,"current_range_meters":17200,"station_id":"ce4bhgh2rcd13ifvqfa0","pricing_plan_id":"cebpf4jnsgd1na2vs0mg"},{"bike_id":"b95a031e-4491-4d86-8fe5-9153a1774daf","system_id":"levelo_inurba_marseille","lat":43.28445,"lon":5.39202,"is_reserved":false,"is_disabled":false,"rental_uris":{"android":"levelo://app?vid=b95a031e-4491-4d86-8fe5-9153a1774daf","ios":"levelo://app?vid=b95a031e-4491-4d86-8fe5-9153a1774daf"},"vehicle_type_id":"4","last_reported":1752948871,"current_range_meters":17200,"station_id":"ce4bhoh2rcd13ifvqh5g","pricing_plan_id":"cebpf4jnsgd1na2vs0mg"},{"bike_id":"e0a8ef2b-36fc-4cfa-8b61-136bd02d7ee3","system_id":"levelo_inurba_marseille","lat":43.265921,"lon":5.373099,"is_reserved":false,"is_disabled":false,"rental_uris":{"android":"levelo://app?vid=e0a8ef2b-36fc-4cfa-8b61-136bd02d7ee3","ios":"levelo://app?vid=e0a8ef2b-36fc-4cfa-8b61-136bd02d7ee3"},"vehicle_type_id":"4","last_reported":1752948871,"current_range_meters":17200,"station_id":"ce4bhg12rcd13ifvqf70","pricing_plan_id":"cebpf4jnsgd1na2vs0mg"},{"bike_id":"c9695da4-3048-4cfc-83f0-62c3fac1ccbe","system_id":"levelo_inurba_marseille","lat":43.23054,"lon":5.35491,"is_reserved":false,"is_disabled":true,"rental_uris":{"android":"levelo://app?vid=c9695da4-3048-4cfc-83f0-62c3fac1ccbe","ios":"levelo://app?vid=c9695da4-3048-4cfc-83f0-62c3fac1ccbe"},"vehicle_type_id":"4","last_reported":1752948871,"current_range_meters":17600,"station_id":"cpo3342slgdg3j2ifvpg","pricing_plan_id":"cebpf4jnsgd1na2vs0mg"},{"bike_id":"8b7d37f7-6333-4b0a-87e7-3791837a8f1d","system_id":"levelo_inurba_marseille","lat":43.28445,"lon":5.39194,"is_reserved":false,"is_disabled":false,"rental_uris":{"android":"levelo://app?vid=8b7d37f7-6333-4b0a-87e7-3791837a8f1d","ios":"levelo://app?vid=8b7d37f7-6333-4b0a-87e7-3791837a8f1d"},"vehicle_type_id":"4","last_reported":1752948871,"current_range_meters":17200,"station_id":"ce4bhoh2rcd13ifvqh5g","pricing_plan_id":"cebpf4jnsgd1na2vs0mg"},{"bike_id":"2f5831ce-9833-400a-a519-faef4413fc7e","system_id":"levelo_inurba_marseille","lat":43.21742,"lon":5.34609,"is_reserved":false,"is_disabled":false,"rental_uris":{"android":"levelo://app?vid=2f5831ce-9833-400a-a519-faef4413fc7e","ios":"levelo://app?vid=2f5831ce-9833-400a-a519-faef4413fc7e"},"vehicle_type_id":"4","last_reported":1752948871,"current_range_meters":17600,"station_id":"st_cvj6r9ubvosntc0bgbag","pricing_plan_id":"cebpf4jnsgd1na2vs0mg"},{"bike_id":"438e578a-c92d-4fd5-83d3-71cadc27484e","system_id":"levelo_inurba_marseille","lat":43.27372,"lon":5.36257,"is_reserved":false,"is_disabled":false,"rental_uris":{"android":"levelo://app?vid=438e578a-c92d-4fd5-83d3-71cadc27484e","ios":"levelo://app?vid=438e578a-c92d-4fd5-83d3-71cadc27484e"},"vehicle_type_id":"4","last_reported":1752948871,"current_range_meters":17600,"station_id":"ce4bhbh2rcd13ifvqeo0","pricing_plan_id":"cebpf4jnsgd1na2vs0mg"},{"bike_id":"057022ab-27cd-469c-8c8d-c822eac466d5","system_id":"levelo_inurba_marseille","lat":43.28627,"lon":5.35102,"is_reserved":false,"is_disabled":false,"rental_uris":{"android":"levelo://app?vid=057022ab-27cd-469c-8c8d-c822eac466d5","ios":"levelo://app?vid=057022ab-27cd-469c-8c8d-c822eac466d5"},"vehicle_type_id":"4","last_reported":1752948871,"current_range_meters":17600,"station_id":"ce4bhch2rcd13ifvqeug","pricing_plan_id":"cebpf4jnsgd1na2vs0mg"},{"bike_id":"2e45f00a-e2c8-4c9a-97ce-cf6f1d90dae0","system_id":"levelo_inurba_marseille","lat":43.25822,"lon":5.39432,"is_reserved":false,"is_disabled":false,"rental_uris":{"android":"levelo://app?vid=2e45f00a-e2c8-4c9a-97ce-cf6f1d90dae0","ios":"levelo://app?vid=2e45f00a-e2c8-4c9a-97ce-cf6f1d90dae0"},"vehicle_type_id":"4","last_reported":1752948871,"current_range_meters":17600,"station_id":"ce4bhip2rcd13ifvqft0","pricing_plan_id":"cebpf4jnsgd1na2vs0mg"},{"bike_id":"1e6b4bb8-11c1-4647-8f99-3dbca91b4438","system_id":"levelo_inurba_marseille","lat":43.28628,"lon":5.351,"is_reserved":false,"is_disabled":false,"rental_uris":{"android":"levelo://app?vid=1e6b4bb8-11c1-4647-8f99-3dbca91b4438","ios":"levelo://app?vid=1e6b4bb8-11c1-4647-8f99-3dbca91b4438"},"vehicle_type_id":"4","last_reported":1752948871,"current_range_meters":17600,"station_id":"ce4bhch2rcd13ifvqeug","pricing_plan_id":"cebpf4jnsgd1na2vs0mg"},{"bike_id":"39abf049-3891-4481-9c25-7fb7a413c85a","system_id":"levelo_inurba_marseille","lat":43.25498,"lon":5.37626,"is_reserved":false,"is_disabled":false,"rental_uris":{"android":"levelo://app?vid=39abf049-3891-4481-9c25-7fb7a413c85a","ios":"levelo://app?vid=39abf049-3891-4481-9c25-7fb7a413c85a"},"vehicle_type_id":"4","last_reported":1752948871,"current_range_meters":17600,"station_id":"ce4bhh12rcd13ifvqff0","pricing_plan_id":"cebpf4jnsgd1na2vs0mg"},{"bike_id":"dbf4df19-2505-4c91-9416-e35603c9e025","system_id":"levelo_inurba_marseille","lat":43.28974,"lon":5.37822,"is_reserved":false,"is_disabled":false,"rental_uris":{"android":"levelo://app?vid=dbf4df19-2505-4c91-9416-e35603c9e025","ios":"levelo://app?vid=dbf4df19-2505-4c91-9416-e35603c9e025"},"vehicle_type_id":"4","last_reported":1752948871,"current_range_meters":17600,"station_id":"ce4bh9p2rcd13ifvqed0","pricing_plan_id":"cebpf4jnsgd1na2vs0mg"},{"bike_id":"eca2d9a6-9946-4ff6-a3f3-9bce5243c578","system_id":"levelo_inurba_marseille","lat":43.24159,"lon":5.3639,"is_reserved":false,"is_disabled":false,"rental_uris":{"android":"levelo://app?vid=eca2d9a6-9946-4ff6-a3f3-9bce5243c578","ios":"levelo://app?vid=eca2d9a6-9946-4ff6-a3f3-9bce5243c578"},"vehicle_type_id":"4","last_reported":1752948871,"current_range_meters":18000,"station_id":"cpo36qri1sfpv3e86is0","pricing_plan_id":"cebpf4jnsgd1na2vs0mg"},{"bike_id":"3659d97a-1cf2-4fab-b7ad-99dda964ef09","system_id":"levelo_inurba_marseille","lat":43.33604,"lon":5.41034,"is_reserved":false,"is_disabled":false,"rental_uris":{"android":"levelo://app?vid=3659d97a-1cf2-4fab-b7ad-99dda964ef09","ios":"levelo://app?vid=3659d97a-1cf2-4fab-b7ad-99dda964ef09"},"vehicle_type_id":"4","last_reported":1752948871,"current_range_meters":18000,"station_id":"ce4bhqh2rcd13ifvqhmg","pricing_plan_id":"cebpf4jnsgd1na2vs0mg"},{"bike_id":"09d576b5-ab53-43c9-a2d9-1b56f699662e","system_id":"levelo_inurba_marseille","lat":43.29429,"lon":5.38594,"is_reserved":false,"is_disabled":false,"rental_uris":{"android":"levelo://app?vid=09d576b5-ab53-43c9-a2d9-1b56f699662e","ios":"levelo://app?vid=09d576b5-ab53-43c9-a2d9-1b56f699662e"},"vehicle_type_id":"4","last_reported":1752948871,"current_range_meters":18000,"station_id":"","pricing_plan_id":"cebpf4jnsgd1na2vs0mg"},{"bike_id":"af726c6a-921c-4680-8094-dd23b0acb208","system_id":"levelo_inurba_marseille","lat":43.25117,"lon":5.40323,"is_reserved":false,"is_disabled":false,"rental_uris":{"android":"levelo://app?vid=af726c6a-921c-4680-8094-dd23b0acb208","ios":"levelo://app?vid=af726c6a-921c-4680-8094-dd23b0acb208"},"vehicle_type_id":"4","last_reported":1752948871,"current_range_meters":18000,"station_id":"ce4bhlh2rcd13ifvqgig","pricing_plan_id":"cebpf4jnsgd1na2vs0mg"},{"bike_id":"01bfb0d9-a46a-41ce-9ef3-50547ce796f6","system_id":"levelo_inurba_marseille","lat":43.26224,"lon":5.40444,"is_reserved":false,"is_disabled":false,"rental_uris":{"android":"levelo://app?vid=01bfb0d9-a46a-41ce-9ef3-50547ce796f6","ios":"levelo://app?vid=01bfb0d9-a46a-41ce-9ef3-50547ce796f6"},"vehicle_type_id":"4","last_reported":1752948871,"current_range_meters":18000,"station_id":"ce4bhmh2rcd13ifvqgmg","pricing_plan_id":"cebpf4jnsgd1na2vs0mg"},{"bike_id":"4381bde2-8054-4743-beeb-716501f2fff2","system_id":"levelo_inurba_marseille","lat":43.27056,"lon":5.40279,"is_reserved":false,"is_disabled":false,"rental_uris":{"android":"levelo://app?vid=4381bde2-8054-4743-beeb-716501f2fff2","ios":"levelo://app?vid=4381bde2-8054-4743-beeb-716501f2fff2"},"vehicle_type_id":"4","last_reported":1752948871,"current_range_meters":18000,"station_id":"ce4bhk92rcd13ifvqgc0","pricing_plan_id":"cebpf4jnsgd1na2vs0mg"},{"bike_id":"707af16a-3189-4d92-b010-ef53c9012e98","system_id":"levelo_inurba_marseille","lat":43.21753,"lon":5.34598,"is_reserved":false,"is_disabled":false,"rental_uris":{"android":"levelo://app?vid=707af16a-3189-4d92-b010-ef53c9012e98","ios":"levelo://app?vid=707af16a-3189-4d92-b010-ef53c9012e98"},"vehicle_type_id":"4","last_reported":1752948871,"current_range_meters":18000,"station_id":"","pricing_plan_id":"cebpf4jnsgd1na2vs0mg"},{"bike_id":"d3aca52a-4e64-461a-8fd1-e9a035bafbdf","system_id":"levelo_inurba_marseille","lat":43.257213,"lon":5.411019,"is_reserved":false,"is_disabled":false,"rental_uris":{"android":"levelo://app?vid=d3aca52a-4e64-461a-8fd1-e9a035bafbdf","ios":"levelo://app?vid=d3aca52a-4e64-461a-8fd1-e9a035bafbdf"},"vehicle_type_id":"4","last_reported":1752948871,"current_range_meters":18000,"station_id":"","pricing_plan_id":"cebpf4jnsgd1na2vs0mg"},{"bike_id":"31a3e0d3-9340-4ba1-bee1-7596c0335d90","system_id":"levelo_inurba_marseille","lat":43.296563,"lon":5.379437,"is_reserved":false,"is_disabled":false,"rental_uris":{"android":"levelo://app?vid=31a3e0d3-9340-4ba1-bee1-7596c0335d90","ios":"levelo://app?vid=31a3e0d3-9340-4ba1-bee1-7596c0335d90"},"vehicle_type_id":"4","last_reported":1752948871,"current_range_meters":18000,"station_id":"","pricing_plan_id":"cebpf4jnsgd1na2vs0mg"},{"bike_id":"aaa60820-80fd-4afd-9d4a-de02de98b358","system_id":"levelo_inurba_marseille","lat":43.2119,"lon":5.3508,"is_reserved":false,"is_disabled":false,"rental_uris":{"android":"levelo://app?vid=aaa60820-80fd-4afd-9d4a-de02de98b358","ios":"levelo://app?vid=aaa60820-80fd-4afd-9d4a-de02de98b358"},"vehicle_type_id":"4","last_reported":1752948871,"current_range_meters":18000,"station_id":"","pricing_plan_id":"cebpf4jnsgd1na2vs0mg"},{"bike_id":"157990d3-b9c3-4f5c-8a17-d78382994a2f","system_id":"levelo_inurba_marseille","lat":43.26204,"lon":5.37918,"is_reserved":false,"is_disabled":false,"rental_uris":{"android":"levelo://app?vid=157990d3-b9c3-4f5c-8a17-d78382994a2f","ios":"levelo://app?vid=157990d3-b9c3-4f5c-8a17-d78382994a2f"},"vehicle_type_id":"4","last_reported":1752948871,"current_range_meters":18000,"station_id":"ce4bhjp2rcd13ifvqg90","pricing_plan_id":"cebpf4jnsgd1na2vs0mg"},{"bike_id":"96dc9f89-4e7d-4a35-92db-57c487b92021","system_id":"levelo_inurba_marseille","lat":43.28668,"lon":5.38665,"is_reserved":false,"is_disabled":false,"rental_uris":{"android":"levelo://app?vid=96dc9f89-4e7d-4a35-92db-57c487b92021","ios":"levelo://app?vid=96dc9f89-4e7d-4a35-92db-57c487b92021"},"vehicle_type_id":"4","last_reported":1752948871,"current_range_meters":17600,"station_id":"ce4bh492rcd13ifvqdug","pricing_plan_id":"cebpf4jnsgd1na2vs0mg"},{"bike_id":"54320721-d0a1-4574-98c8-bb12508fc389","system_id":"levelo_inurba_marseille","lat":43.28465,"lon":5.35887,"is_reserved":false,"is_disabled":false,"rental_uris":{"android":"levelo://app?vid=54320721-d0a1-4574-98c8-bb12508fc389","ios":"levelo://app?vid=54320721-d0a1-4574-98c8-bb12508fc389"},"vehicle_type_id":"4","last_reported":1752948871,"current_range_meters":18800,"station_id":"ce4bhah2rcd13ifvqei0","pricing_plan_id":"cebpf4jnsgd1na2vs0mg"},{"bike_id":"c9ebf0aa-c454-43da-b5c1-86c1d2e7d09d","system_id":"levelo_inurba_marseille","lat":43.28416,"lon":5.34981,"is_reserved":false,"is_disabled":false,"rental_uris":{"android":"levelo://app?vid=c9ebf0aa-c454-43da-b5c1-86c1d2e7d09d","ios":"levelo://app?vid=c9ebf0aa-c454-43da-b5c1-86c1d2e7d09d"},"vehicle_type_id":"4","last_reported":1752948871,"current_range_meters":18800,"station_id":"ce4bhbh2rcd13ifvqepg","pricing_plan_id":"cebpf4jnsgd1na2vs0mg"},{"bike_id":"69e43a52-60ab-4555-a8df-cce787e4ca58","system_id":"levelo_inurba_marseille","lat":43.30431,"lon":5.38879,"is_reserved":false,"is_disabled":false,"rental_uris":{"android":"levelo://app?vid=69e43a52-60ab-4555-a8df-cce787e4ca58","ios":"levelo://app?vid=69e43a52-60ab-4555-a8df-cce787e4ca58"},"vehicle_type_id":"4","last_reported":1752948871,"current_range_meters":18800,"station_id":"ce4bgk12rcd13ifvqbi0","pricing_plan_id":"cebpf4jnsgd1na2vs0mg"},{"bike_id":"d75b371c-cd0a-4299-a399-618e1f4d4d14","system_id":"levelo_inurba_marseille","lat":43.2295,"lon":5.35348,"is_reserved":false,"is_disabled":false,"rental_uris":{"android":"levelo://app?vid=d75b371c-cd0a-4299-a399-618e1f4d4d14","ios":"levelo://app?vid=d75b371c-cd0a-4299-a399-618e1f4d4d14"},"vehicle_type_id":"4","last_reported":1752948871,"current_range_meters":18800,"station_id":"cpo3532slgdg3j2ikp40","pricing_plan_id":"cebpf4jnsgd1na2vs0mg"},{"bike_id":"96793585-b370-4499-97b5-55297e845c8f","system_id":"levelo_inurba_marseille","lat":43.21747,"lon":5.346,"is_reserved":false,"is_disabled":false,"rental_uris":{"android":"levelo://app?vid=96793585-b370-4499-97b5-55297e845c8f","ios":"levelo://app?vid=96793585-b370-4499-97b5-55297e845c8f"},"vehicle_type_id":"4","last_reported":1752948871,"current_range_meters":18800,"station_id":"st_cvj6r9ubvosntc0bgbag","pricing_plan_id":"cebpf4jnsgd1na2vs0mg"},{"bike_id":"3f99e47d-3779-48a2-9659-bfd2535bcf24","system_id":"levelo_inurba_marseille","lat":43.30943,"lon":5.39023,"is_reserved":false,"is_disabled":false,"rental_uris":{"android":"levelo://app?vid=3f99e47d-3779-48a2-9659-bfd2535bcf24","ios":"levelo://app?vid=3f99e47d-3779-48a2-9659-bfd2535bcf24"},"vehicle_type_id":"4","last_reported":1752948871,"current_range_meters":18800,"station_id":"ce4bgup2rcd13ifvqco0","pricing_plan_id":"cebpf4jnsgd1na2vs0mg"},{"bike_id":"a6ec36bb-b710-45bb-99da-6b7ecbbf2fe2","system_id":"levelo_inurba_marseille","lat":43.269426,"lon":5.402489,"is_reserved":false,"is_disabled":false,"rental_uris":{"android":"levelo://app?vid=a6ec36bb-b710-45bb-99da-6b7ecbbf2fe2","ios":"levelo://app?vid=a6ec36bb-b710-45bb-99da-6b7ecbbf2fe2"},"vehicle_type_id":"4","last_reported":1752948871,"current_range_meters":18800,"station_id":"cjm6bp8fraef2m0cb0m0","pricing_plan_id":"cebpf4jnsgd1na2vs0mg"},{"bike_id":"7cb87117-19f1-4d48-84b2-bec6ac38464c","system_id":"levelo_inurba_marseille","lat":43.2955,"lon":5.42274,"is_reserved":false,"is_disabled":false,"rental_uris":{"android":"levelo://app?vid=7cb87117-19f1-4d48-84b2-bec6ac38464c","ios":"levelo://app?vid=7cb87117-19f1-4d48-84b2-bec6ac38464c"},"vehicle_type_id":"4","last_reported":1752948871,"current_range_meters":18800,"station_id":"ce4bhph2rcd13ifvqhdg","pricing_plan_id":"cebpf4jnsgd1na2vs0mg"},