{"last_updated":1701803106,"ttl":30,"version":"2.2","data":{"bikes":[{"bike_id":"2be91aef-e9ca-4f3b-8ba1-e9bc4202d4f8","system_id":"levelo_inurba_marseille","lat":43.309076,"lon":5.368465,"is_reserved":false,"is_disabled":false,"rental_uris":{"android":"levelo://app?vid=2be91aef-e9ca-4f3b-8ba1-e9bc4202d4f8","ios":"levelo://app?vid=2be91aef-e9ca-4f3b-8ba1-e9bc4202d4f8"},"vehicle_type_id":"4","last_reported":1701803106,"current_range_meters":5600,"station_id":"ce4bgn92rcd13ifvqbvg","pricing_plan_id":"free"},{"bike_id":"1913bd3d-b906-4748-8c6a-e440cb35796d","system_id":"levelo_inurba_marseille","lat":43.3147,"lon":5.37159,"is_reserved":false,"is_disabled":false,"rental_uris":{"android":"levelo://app?vid=1913bd3d-b906-4748-8c6a-e440cb35796d","ios":"levelo://app?vid=1913bd3d-b906-4748-8c6a-e440cb35796d"},"vehicle_type_id":"4","last_reported":1701803106,"current_range_meters":0,"station_id":"","pricing_plan_id":"free"},{"bike_id":"3a2dda2e-3aab-4d0e-a954-793f1706ec09","system_id":"levelo_inurba_marseille","lat":43.31131,"lon":5.37245,"is_reserved":false,"is_disabled":false,"rental_uris":{"android":"levelo://app?vid=3a2dda2e-3aab-4d0e-a954-793f1706ec09","ios":"levelo://app?vid=3a2dda2e-3aab-4d0e-a954-793f1706ec09"},"vehicle_type_id":"4","last_reported":1701803106,"current_range_meters":23200,"station_id":"","pricing_plan_id":"free"},{"bike_id":"cfc0e1d5-e793-44f3-923a-bc8d98749aa6","system_id":"levelo_inurba_marseille","lat":43.309039,"lon":5.371797,"is_reserved":false,"is_disabled":false,"rental_uris":{"android":"levelo://app?vid=cfc0e1d5-e793-44f3-923a-bc8d98749aa6","ios":"levelo://app?vid=cfc0e1d5-e793-44f3-923a-bc8d98749aa6"},"vehicle_type_id":"4","last_reported":1701803106,"current_range_meters":21200,"station_id":"ce4bguh2rcd13ifvqckg","pricing_plan_id":"free"},{"bike_id":"377eea15-5701-4d84-8db8-bc60d1a54834","system_id":"levelo_inurba_marseille","lat":43.30537,"lon":5.367345,"is_reserved":false,"is_disabled":false,"rental_uris":{"android":"levelo://app?vid=377eea15-5701-4d84-8db8-bc60d1a54834","ios":"levelo://app?vid=377eea15-5701-4d84-8db8-bc60d1a54834"},"vehicle_type_id":"4","last_reported":1701803106,"current_range_meters":10400,"station_id":"ce4bgrp2rcd13ifvqc9g","pricing_plan_id":"free"},{"bike_id":"299c1eda-a86c-4f2c-a320-58b4e01cd6b9","system_id":"levelo_inurba_marseille","lat":43.30551,"lon":5.36534,"is_reserved":false,"is_disabled":false,"rental_uris":{"android":"levelo://app?vid=299c1eda-a86c-4f2c-a320-58b4e01cd6b9","ios":"levelo://app?vid=299c1eda-a86c-4f2c-a320-58b4e01cd6b9"},"vehicle_type_id":"4","last_reported":1701803106,"current_range_meters":0,"station_id":"ce4bgs12rcd13ifvqcag","pricing_plan_id":"free"},{"bike_id":"1b061b92-16f6-45a8-8b07-2e6da9ef305d","system_id":"levelo_inurba_marseille","lat":43.305714,"lon":5.365633,"is_reserved":false,"is_disabled":false,"rental_uris":{"android":"levelo://app?vid=1b061b92-16f6-45a8-8b07-2e6da9ef305d","ios":"levelo://app?vid=1b061b92-16f6-45a8-8b07-2e6da9ef305d"},"vehicle_type_id":"4","last_reported":1701803106,"current_range_meters":1600,"station_id":"ce4bgs12rcd13ifvqcag","pricing_plan_id":"free"},{"bike_id":"26c1ae82-f4b2-40d6-9475-0e741c269829","system_id":"levelo_inurba_marseille","lat":43.305966,"lon":5.372311,"is_reserved":false,"is_disabled":false,"rental_uris":{"android":"levelo://app?vid=26c1ae82-f4b2-40d6-9475-0e741c269829","ios":"levelo://app?vid=26c1ae82-f4b2-40d6-9475-0e741c269829"},"vehicle_type_id":"4","last_reported":1701803106,"current_range_meters":27200,"station_id":"","pricing_plan_id":"free"},{"bike_id":"b2375472-ac3d-41af-abea-ef0fcfd18efc","system_id":"levelo_inurba_marseille","lat":43.305989,"lon":5.37225,"is_reserved":false,"is_disabled":false,"rental_uris":{"android":"levelo://app?vid=b2375472-ac3d-41af-abea-ef0fcfd18efc","ios":"levelo://app?vid=b2375472-ac3d-41af-abea-ef0fcfd18efc"},"vehicle_type_id":"4","last_reported":1701803106,"current_range_meters":400,"station_id":"ce4bgqh2rcd13ifvqc4g","pricing_plan_id":"free"},{"bike_id":"6132da50-6997-4721-971c-ae838166f09f","system_id":"levelo_inurba_marseille","lat":43.305989,"lon":5.37225,"is_reserved":false,"is_disabled":false,"rental_uris":{"android":"levelo://app?vid=6132da50-6997-4721-971c-ae838166f09f","ios":"levelo://app?vid=6132da50-6997-4721-971c-ae838166f09f"},"vehicle_type_id":"4","last_reported":1701803106,"current_range_meters":18000,"station_id":"ce4bgqh2rcd13ifvqc4g","pricing_plan_id":"free"},{"bike_id":"481d2862-e36c-4d9f-b413-1de2004c89a4","system_id":"levelo_inurba_marseille","lat":43.305989,"lon":5.37225,"is_reserved":false,"is_disabled":false,"rental_uris":{"android":"levelo://app?vid=481d2862-e36c-4d9f-b413-1de2004c89a4","ios":"levelo://app?vid=481d2862-e36c-4d9f-b413-1de2004c89a4"},"vehicle_type_id":"4","last_reported":1701803106,"current_range_meters":22000,"station_id":"ce4bgqh2rcd13ifvqc4g","pricing_plan_id":"free"},{"bike_id":"90b506dd-3d95-4a0b-ac4f-e68f4a01ecc2","system_id":"levelo_inurba_marseille","lat":43.311125,"lon":5.377624,"is_reserved":false,"is_disabled":false,"rental_uris":{"android":"levelo://app?vid=90b506dd-3d95-4a0b-ac4f-e68f4a01ecc2","ios":"levelo://app?vid=90b506dd-3d95-4a0b-ac4f-e68f4a01ecc2"},"vehicle_type_id":"4","last_reported":1701803106,"current_range_meters":7200,"station_id":"ce4bgt92rcd13ifvqcg0","pricing_plan_id":"free"},{"bike_id":"b065b12a-ef87-47d8-8ac6-a38844050d40","system_id":"levelo_inurba_marseille","lat":43.319338,"lon":5.372928,"is_reserved":false,"is_disabled":false,"rental_uris":{"android":"levelo://app?vid=b065b12a-ef87-47d8-8ac6-a38844050d40","ios":"levelo://app?vid=b065b12a-ef87-47d8-8ac6-a38844050d40"},"vehicle_type_id":"4","last_reported":1701803106,"current_range_meters":0,"station_id":"","pricing_plan_id":"free"},{"bike_id":"42f62e83-4394-4c63-86d3-e201bad15ffc","system_id":"levelo_inurba_marseille","lat":43.311125,"lon":5.377624,"is_reserved":false,"is_disabled":false,"rental_uris":{"android":"levelo://app?vid=42f62e83-4394-4c63-86d3-e201bad15ffc","ios":"levelo://app?vid=42f62e83-4394-4c63-86d3-e201bad15ffc"},"vehicle_type_id":"4","last_reported":1701803106,"current_range_meters":22800,"station_id":"ce4bgt92rcd13ifvqcg0","pricing_plan_id":"free"},{"bike_id":"fb6fd937-527b-4585-9058-0dfdc6436ac8","system_id":"levelo_inurba_marseille","lat":43.31351,"lon":5.37909,"is_reserved":false,"is_disabled":false,"rental_uris":{"android":"levelo://app?vid=fb6fd937-527b-4585-9058-0dfdc6436ac8","ios":"levelo://app?vid=fb6fd937-527b-4585-9058-0dfdc6436ac8"},"vehicle_type_id":"4","last_reported":1701803106,"current_range_meters":9200,"station_id":"","pricing_plan_id":"free"},{"bike_id":"a6691109-b6b5-408c-ba43-8e995cf35333","system_id":"levelo_inurba_marseille","lat":43.30803,"lon":5.38145,"is_reserved":false,"is_disabled":false,"rental_uris":{"android":"levelo://app?vid=a6691109-b6b5-408c-ba43-8e995cf35333","ios":"levelo://app?vid=a6691109-b6b5-408c-ba43-8e995cf35333"},"vehicle_type_id":"4","last_reported":1701803106,"current_range_meters":0,"station_id":"ce4bgt12rcd13ifvqce0","pricing_plan_id":"free"},{"bike_id":"4f71cc95-1b36-402f-afde-b98312fd4489","system_id":"levelo_inurba_marseille","lat":43.308012,"lon":5.381511,"is_reserved":false,"is_disabled":false,"rental_uris":{"android":"levelo://app?vid=4f71cc95-1b36-402f-afde-b98312fd4489","ios":"levelo://app?vid=4f71cc95-1b36-402f-afde-b98312fd4489"},"vehicle_type_id":"4","last_reported":1701803106,"current_range_meters":1600,"station_id":"ce4bgt12rcd13ifvqce0","pricing_plan_id":"free"},{"bike_id":"77c9748c-8690-405e-b0cb-72273d34d488","system_id":"levelo_inurba_marseille","lat":43.308012,"lon":5.381511,"is_reserved":false,"is_disabled":false,"rental_uris":{"android":"levelo://app?vid=77c9748c-8690-405e-b0cb-72273d34d488","ios":"levelo://app?vid=77c9748c-8690-405e-b0cb-72273d34d488"},"vehicle_type_id":"4","last_reported":1701803106,"current_range_meters":22000,"station_id":"ce4bgt12rcd13ifvqce0","pricing_plan_id":"free"},{"bike_id":"af3ff8cb-f6e6-4096-86b5-99e7868d0944","system_id":"levelo_inurba_marseille","lat":43.32474,"lon":5.36579,"is_reserved":false,"is_disabled":false,"rental_uris":{"android":"levelo://app?vid=af3ff8cb-f6e6-4096-86b5-99e7868d0944","ios":"levelo://app?vid=af3ff8cb-f6e6-4096-86b5-99e7868d0944"},"vehicle_type_id":"4","last_reported":1701803106,"current_range_meters":0,"station_id":"ce4bhs12rcd13ifvqhvg","pricing_plan_id":"free"},{"bike_id":"ab542b0a-b258-4b62-baed-c4ff4b3a7961","system_id":"levelo_inurba_marseille","lat":43.324771,"lon":5.36557,"is_reserved":false,"is_disabled":false,"rental_uris":{"android":"levelo://app?vid=ab542b0a-b258-4b62-baed-c4ff4b3a7961","ios":"levelo://app?vid=ab542b0a-b258-4b62-baed-c4ff4b3a7961"},"vehicle_type_id":"4","last_reported":1701803106,"current_range_meters":31200,"station_id":"ce4bhs12rcd13ifvqhvg","pricing_plan_id":"free"},{"bike_id":"41280701-a143-4e50-93ef-fa297df3585f","system_id":"levelo_inurba_marseille","lat":43.32484,"lon":5.36574,"is_reserved":false,"is_disabled":false,"rental_uris":{"android":"levelo://app?vid=41280701-a143-4e50-93ef-fa297df3585f","ios":"levelo://app?vid=41280701-a143-4e50-93ef-fa297df3585f"},"vehicle_type_id":"4","last_reported":1701803106,"current_range_meters":24800,"station_id":"ce4bhs12rcd13ifvqhvg","pricing_plan_id":"free"},{"bike_id":"65f8fa65-6ae7-4e94-86fb-6a8a6a019c04","system_id":"levelo_inurba_marseille","lat":43.319935,"lon":5.381699,"is_reserved":false,"is_disabled":false,"rental_uris":{"android":"levelo://app?vid=65f8fa65-6ae7-4e94-86fb-6a8a6a019c04","ios":"levelo://app?vid=65f8fa65-6ae7-4e94-86fb-6a8a6a019c04"},"vehicle_type_id":"4","last_reported":1701803106,"current_range_meters":13200,"station_id":"ce4bhr12rcd13ifvqhpg","pricing_plan_id":"free"},{"bike_id":"1e44eb00-5254-457d-b804-b536ef4db324","system_id":"levelo_inurba_marseille","lat":43.319935,"lon":5.381699,"is_reserved":false,"is_disabled":false,"rental_uris":{"android":"levelo://app?vid=1e44eb00-5254-457d-b804-b536ef4db324","ios":"levelo://app?vid=1e44eb00-5254-457d-b804-b536ef4db324"},"vehicle_type_id":"4","last_reported":1701803106,"current_range_meters":14400,"station_id":"ce4bhr12rcd13ifvqhpg","pricing_plan_id":"free"},{"bike_id":"a7503af2-3416-42b0-89b3-360ea5b90ea2","system_id":"levelo_inurba_marseille","lat":43.319935,"lon":5.381699,"is_reserved":false,"is_disabled":false,"rental_uris":{"android":"levelo://app?vid=a7503af2-3416-42b0-89b3-360ea5b90ea2","ios":"levelo://app?vid=a7503af2-3416-42b0-89b3-360ea5b90ea2"},"vehicle_type_id":"4","last_reported":1701803106,"current_range_meters":28000,"station_id":"ce4bhr12rcd13ifvqhpg","pricing_plan_id":"free"},{"bike_id":"f5f04c81-8037-434c-a63c-f9abf8adddca","system_id":"levelo_inurba_marseille","lat":43.31386,"lon":5.384967,"is_reserved":false,"is_disabled":false,"rental_uris":{"android":"levelo://app?vid=f5f04c81-8037-434c-a63c-f9abf8adddca","ios":"levelo://app?vid=f5f04c81-8037-434c-a63c-f9abf8adddca"},"vehicle_type_id":"4","last_reported":1701803106,"current_range_meters":22000,"station_id":"ce4bgt92rcd13ifvqcf0","pricing_plan_id":"free"},{"bike_id":"5ca457cb-b5e6-4a28-97ea-d8bc25420337","system_id":"levelo_inurba_marseille","lat":43.299145,"lon":5.37462,"is_reserved":false,"is_disabled":false,"rental_uris":{"android":"levelo://app?vid=5ca457cb-b5e6-4a28-97ea-d8bc25420337","ios":"levelo://app?vid=5ca457cb-b5e6-4a28-97ea-d8bc25420337"},"vehicle_type_id":"4","last_reported":1701803106,"current_range_meters":0,"station_id":"ce4bgjh2rcd13ifvqbg0","pricing_plan_id":"free"},{"bike_id":"7d8005c6-46e4-426f-b718-71bb16b59421","system_id":"levelo_inurba_marseille","lat":43.311722,"lon":5.387247,"is_reserved":false,"is_disabled":false,"rental_uris":{"android":"levelo://app?vid=7d8005c6-46e4-426f-b718-71bb16b59421","ios":"levelo://app?vid=7d8005c6-46e4-426f-b718-71bb16b59421"},"vehicle_type_id":"4","last_reported":1701803106,"current_range_meters":3600,"station_id":"ce4bgv12rcd13ifvqcp0","pricing_plan_id":"free"},{"bike_id":"f0249530-c1ed-4316-88d2-704322353a24","system_id":"levelo_inurba_marseille","lat":43.297794,"lon":5.370888,"is_reserved":false,"is_disabled":false,"rental_uris":{"android":"levelo://app?vid=f0249530-c1ed-4316-88d2-704322353a24","ios":"levelo://app?vid=f0249530-c1ed-4316-88d2-704322353a24"},"vehicle_type_id":"4","last_reported":1701803106,"current_range_meters":30000,"station_id":"ce4bgop2rcd13ifvqc1g","pricing_plan_id":"free"},{"bike_id":"3611eab9-ed88-408f-b94d-b09812a4463e","system_id":"levelo_inurba_marseille","lat":43.322872,"lon":5.382756,"is_reserved":false,"is_disabled":false,"rental_uris":{"android":"levelo://app?vid=3611eab9-ed88-408f-b94d-b09812a4463e","ios":"levelo://app?vid=3611eab9-ed88-408f-b94d-b09812a4463e"},"vehicle_type_id":"4","last_reported":1701803106,"current_range_meters":24800,"station_id":"ce4bhr12rcd13ifvqhqg","pricing_plan_id":"free"},{"bike_id":"b4879a0b-f87c-476b-ba9f-57011b8686d8","system_id":"levelo_inurba_marseille","lat":43.298218,"lon":5.374416,"is_reserved":false,"is_disabled":false,"rental_uris":{"android":"levelo://app?vid=b4879a0b-f87c-476b-ba9f-57011b8686d8","ios":"levelo://app?vid=b4879a0b-f87c-476b-ba9f-57011b8686d8"},"vehicle_type_id":"4","last_reported":1701803106,"current_range_meters":16400,"station_id":"","pricing_plan_id":"free"},{"bike_id":"7990f56e-dd57-4cdb-884c-be26629e6672","system_id":"levelo_inurba_marseille","lat":43.297163,"lon":5.365866,"is_reserved":false,"is_disabled":false,"rental_uris":{"android":"levelo://app?vid=7990f56e-dd57-4cdb-884c-be26629e6672","ios":"levelo://app?vid=7990f56e-dd57-4cdb-884c-be26629e6672"},"vehicle_type_id":"4","last_reported":1701803106,"current_range_meters":24000,"station_id":"ce4bgn12rcd13ifvqbt0","pricing_plan_id":"free"},{"bike_id":"8f107f9a-92c8-484f-b3c6-2e18c8849d24","system_id":"levelo_inurba_marseille","lat":43.297163,"lon":5.365866,"is_reserved":false,"is_disabled":false,"rental_uris":{"android":"levelo://app?vid=8f107f9a-92c8-484f-b3c6-2e18c8849d24","ios":"levelo://app?vid=8f107f9a-92c8-484f-b3c6-2e18c8849d24"},"vehicle_type_id":"4","last_reported":1701803106,"current_range_meters":7200,"station_id":"ce4bgn12rcd13ifvqbt0","pricing_plan_id":"free"},{"bike_id":"e2d33ffd-43e6-43ca-ac7e-d01d9b82273f","system_id":"levelo_inurba_marseille","lat":43.296131,"lon":5.370791,"is_reserved":false,"is_disabled":false,"rental_uris":{"android":"levelo://app?vid=e2d33ffd-43e6-43ca-ac7e-d01d9b82273f","ios":"levelo://app?vid=e2d33ffd-43e6-43ca-ac7e-d01d9b82273f"},"vehicle_type_id":"4","last_reported":1701803106,"current_range_meters":9600,"station_id":"ce4bgnh2rcd13ifvqc0g","pricing_plan_id":"free"},{"bike_id":"fad051df-9150-4866-a68e-71dc1b88d26f","system_id":"levelo_inurba_marseille","lat":43.316538,"lon":5.38954,"is_reserved":false,"is_disabled":false,"rental_uris":{"android":"levelo://app?vid=fad051df-9150-4866-a68e-71dc1b88d26f","ios":"levelo://app?vid=fad051df-9150-4866-a68e-71dc1b88d26f"},"vehicle_type_id":"4","last_reported":1701803106,"current_range_meters":12400,"station_id":"","pricing_plan_id":"free"},{"bike_id":"8114ad1b-d130-4ff3-8ebc-e420b2811922","system_id":"levelo_inurba_marseille","lat":43.296173,"lon":5.371503,"is_reserved":false,"is_disabled":false,"rental_uris":{"android":"levelo://app?vid=8114ad1b-d130-4ff3-8ebc-e420b2811922","ios":"levelo://app?vid=8114ad1b-d130-4ff3-8ebc-e420b2811922"},"vehicle_type_id":"4","last_reported":1701803106,"current_range_meters":20800,"station_id":"","pricing_plan_id":"free"},{"bike_id":"a848a516-edf5-4de1-bd8b-6fa090643430","system_id":"levelo_inurba_marseille","lat":43.309518,"lon":5.39027,"is_reserved":false,"is_disabled":false,"rental_uris":{"android":"levelo://app?vid=a848a516-edf5-4de1-bd8b-6fa090643430","ios":"levelo://app?vid=a848a516-edf5-4de1-bd8b-6fa090643430"},"vehicle_type_id":"4","last_reported":1701803106,"current_range_meters":0,"station_id":"ce4bgup2rcd13ifvqco0","pricing_plan_id":"free"},{"bike_id":"b04aa070-7e66-4f6d-ad6f-34da1c20fed3","system_id":"levelo_inurba_marseille","lat":43.296423,"lon":5.37491,"is_reserved":false,"is_disabled":false,"rental_uris":{"android":"levelo://app?vid=b04aa070-7e66-4f6d-ad6f-34da1c20fed3","ios":"levelo://app?vid=b04aa070-7e66-4f6d-ad6f-34da1c20fed3"},"vehicle_type_id":"4","last_reported":1701803106,"current_range_meters":0,"station_id":"","pricing_plan_id":"free"},{"bike_id":"fa72cf2a-a54a-4efc-aa5c-cc13e4f5c9cb","system_id":"levelo_inurba_marseille","lat":43.299028,"lon":5.381509,"is_reserved":false,"is_disabled":false,"rental_uris":{"android":"levelo://app?vid=fa72cf2a-a54a-4efc-aa5c-cc13e4f5c9cb","ios":"levelo://app?vid=fa72cf2a-a54a-4efc-aa5c-cc13e4f5c9cb"},"vehicle_type_id":"4","last_reported":1701803106,"current_range_meters":24000,"station_id":"ce4bgj12rcd13ifvqbc0","pricing_plan_id":"free"},{"bike_id":"6b06cc57-06d6-4dc8-94d3-2a3dbdb86d2d","system_id":"levelo_inurba_marseille","lat":43.3176,"lon":5.38999,"is_reserved":false,"is_disabled":false,"rental_uris":{"android":"levelo://app?vid=6b06cc57-06d6-4dc8-94d3-2a3dbdb86d2d","ios":"levelo://app?vid=6b06cc57-06d6-4dc8-94d3-2a3dbdb86d2d"},"vehicle_type_id":"4","last_reported":1701803106,"current_range_meters":27600,"station_id":"ce4bhqp2rcd13ifvqhng","pricing_plan_id":"free"},{"bike_id":"4a7d648e-4869-45ed-9885-42883cc8e914","system_id":"levelo_inurba_marseille","lat":43.317557,"lon":5.390173,"is_reserved":false,"is_disabled":false,"rental_uris":{"android":"levelo://app?vid=4a7d648e-4869-45ed-9885-42883cc8e914","ios":"levelo://app?vid=4a7d648e-4869-45ed-9885-42883cc8e914"},"vehicle_type_id":"4","last_reported":1701803106,"current_range_meters":18000,"station_id":"ce4bhqp2rcd13ifvqhng","pricing_plan_id":"free"},{"bike_id":"84c55321-aac7-475a-b0f9-add589b69921","system_id":"levelo_inurba_marseille","lat":43.296263,"lon":5.377094,"is_reserved":false,"is_disabled":false,"rental_uris":{"android":"levelo://app?vid=84c55321-aac7-475a-b0f9-add589b69921","ios":"levelo://app?vid=84c55321-aac7-475a-b0f9-add589b69921"},"vehicle_type_id":"4","last_reported":1701803106,"current_range_meters":12000,"station_id":"ce4bgi92rcd13ifvqb90","pricing_plan_id":"free"},{"bike_id":"62f3a13f-4d38-48f6-bef4-18c3b948ac2c","system_id":"levelo_inurba_marseille","lat":43.296263,"lon":5.377094,"is_reserved":false,"is_disabled":false,"rental_uris":{"android":"levelo://app?vid=62f3a13f-4d38-48f6-bef4-18c3b948ac2c","ios":"levelo://app?vid=62f3a13f-4d38-48f6-bef4-18c3b948ac2c"},"vehicle_type_id":"4","last_reported":1701803106,"current_range_meters":10800,"station_id":"ce4bgi92rcd13ifvqb90","pricing_plan_id":"free"},{"bike_id":"f5ed0cf6-3b26-4c3f-93e6-303c6749bf79","system_id":"levelo_inurba_marseille","lat":43.299707,"lon":5.384859,"is_reserved":false,"is_disabled":false,"rental_uris":{"android":"levelo://app?vid=f5ed0cf6-3b26-4c3f-93e6-303c6749bf79","ios":"levelo://app?vid=f5ed0cf6-3b26-4c3f-93e6-303c6749bf79"},"vehicle_type_id":"4","last_reported":1701803106,"current_range_meters":30800,"station_id":"ce4bgj92rcd13ifvqbd0","pricing_plan_id":"free"},{"bike_id":"feec2d17-b758-4398-9ade-ddcdc59d420e","system_id":"levelo_inurba_marseille","lat":43.299707,"lon":5.384859,"is_reserved":false,"is_disabled":false,"rental_uris":{"android":"levelo://app?vid=feec2d17-b758-4398-9ade-ddcdc59d420e","ios":"levelo://app?vid=feec2d17-b758-4398-9ade-ddcdc59d420e"},"vehicle_type_id":"4","last_reported":1701803106,"current_range_meters":1600,"station_id":"ce4bgj92rcd13ifvqbd0","pricing_plan_id":"free"},{"bike_id":"abe84497-fb17-455f-b511-71d1ec1fd3ce","system_id":"levelo_inurba_marseille","lat":43.3237,"lon":5.38878,"is_reserved":false,"is_disabled":false,"rental_uris":{"android":"levelo://app?vid=abe84497-fb17-455f-b511-71d1ec1fd3ce","ios":"levelo://app?vid=abe84497-fb17-455f-b511-71d1ec1fd3ce"},"vehicle_type_id":"4","last_reported":1701803106,"current_range_meters":8400,"station_id":"ce4bhqp2rcd13ifvqhog","pricing_plan_id":"free"},{"bike_id":"c3643ac2-cdd1-4bd1-99e6-62e33012d634","system_id":"levelo_inurba_marseille","lat":43.32367,"lon":5.388836,"is_reserved":false,"is_disabled":false,"rental_uris":{"android":"levelo://app?vid=c3643ac2-cdd1-4bd1-99e6-62e33012d634","ios":"levelo://app?vid=c3643ac2-cdd1-4bd1-99e6-62e33012d634"},"vehicle_type_id":"4","last_reported":1701803106,"current_range_meters":11200,"station_id":"ce4bhqp2rcd13ifvqhog","pricing_plan_id":"free"},{"bike_id":"ff5871b4-6819-4788-b84e-6eaa28758a44","system_id":"levelo_inurba_marseille","lat":43.29601,"lon":5.381084,"is_reserved":false,"is_disabled":false,"rental_uris":{"android":"levelo://app?vid=ff5871b4-6819-4788-b84e-6eaa28758a44","ios":"levelo://app?vid=ff5871b4-6819-4788-b84e-6eaa28758a44"},"vehicle_type_id":"4","last_reported":1701803106,"current_range_meters":13200,"station_id":"ce4bgl12rcd13ifvqbo0","pricing_plan_id":"free"},{"bike_id":"0944bed0-5ee6-4cb3-92ee-7be5bbb6ed13","system_id":"levelo_inurba_marseille","lat":43.29612,"lon":5.38113,"is_reserved":false,"is_disabled":false,"rental_uris":{"android":"levelo://app?vid=0944bed0-5ee6-4cb3-92ee-7be5bbb6ed13","ios":"levelo://app?vid=0944bed0-5ee6-4cb3-92ee-7be5bbb6ed13"},"vehicle_type_id":"4","last_reported":1701803106,"current_range_meters":16000,"station_id":"ce4bgl12rcd13ifvqbo0","pricing_plan_id":"free"},{"bike_id":"c5e9d606-6e78-4e71-8d98-29788e3b45ec","system_id":"levelo_inurba_marseille","lat":43.305994,"lon":5.393687,"is_reserved":false,"is_disabled":false,"rental_uris":{"android":"levelo://app?vid=c5e9d606-6e78-4e71-8d98-29788e3b45ec","ios":"levelo://app?vid=c5e9d606-6e78-4e71-8d98-29788e3b45ec"},"vehicle_type_id":"4","last_reported":1701803106,"current_range_meters":26400,"station_id":"ce4bh0p2rcd13ifvqd80","pricing_plan_id":"free"},{"bike_id":"b2a80051-36f7-49cd-b6fd-3c3f964acdae","system_id":"levelo_inurba_marseille","lat":43.302992,"lon":5.392136,"is_reserved":false,"is_disabled":false,"rental_uris":{"android":"levelo://app?vid=b2a80051-36f7-49cd-b6fd-3c3f964acdae","ios":"levelo://app?vid=b2a80051-36f7-49cd-b6fd-3c3f964acdae"},"vehicle_type_id":"4","last_reported":1701803106,"current_range_meters":2400,"station_id":"ce4bgkh2rcd13ifvqbk0","pricing_plan_id":"free"},{"bike_id":"9f2c504e-c13b-4c09-b77c-ced8ccc95bcd","system_id":"levelo_inurba_marseille","lat":43.2936,"lon":5.37835,"is_reserved":false,"is_disabled":false,"rental_uris":{"android":"levelo://app?vid=9f2c504e-c13b-4c09-b77c-ced8ccc95bcd","ios":"levelo://app?vid=9f2c504e-c13b-4c09-b77c-ced8ccc95bcd"},"vehicle_type_id":"4","last_reported":1701803106,"current_range_meters":17600,"station_id":"ce4bgjh2rcd13ifvqbf0","pricing_plan_id":"free"},{"bike_id":"c5b23552-3d87-4b57-9309-1bf3b7fe6f19","system_id":"levelo_inurba_marseille","lat":43.302992,"lon":5.392136,"is_reserved":false,"is_disabled":false,"rental_uris":{"android":"levelo://app?vid=c5b23552-3d87-4b57-9309-1bf3b7fe6f19","ios":"levelo://app?vid=c5b23552-3d87-4b57-9309-1bf3b7fe6f19"},"vehicle_type_id":"4","last_reported":1701803106,"current_range_meters":6400,"station_id":"ce4bgkh2rcd13ifvqbk0","pricing_plan_id":"free"},{"bike_id":"bebbc514-7a90-4bb2-863d-a8721a9d5f5d","system_id":"levelo_inurba_marseille","lat":43.292311,"lon":5.360731,"is_reserved":false,"is_disabled":false,"rental_uris":{"android":"levelo://app?vid=bebbc514-7a90-4bb2-863d-a8721a9d5f5d","ios":"levelo://app?vid=bebbc514-7a90-4bb2-863d-a8721a9d5f5d"},"vehicle_type_id":"4","last_reported":1701803106,"current_range_meters":400,"station_id":"ce4bhbh2rcd13ifvqeqg","pricing_plan_id":"free"},{"bike_id":"827ff190-896d-41c1-b631-13026decb03b","system_id":"levelo_inurba_marseille","lat":43.292311,"lon":5.360731,"is_reserved":false,"is_disabled":false,"rental_uris":{"android":"levelo://app?vid=827ff190-896d-41c1-b631-13026decb03b","ios":"levelo://app?vid=827ff190-896d-41c1-b631-13026decb03b"},"vehicle_type_id":"4","last_reported":1701803106,"current_range_meters":3600,"station_id":"ce4bhbh2rcd13ifvqeqg","pricing_plan_id":"free"},{"bike_id":"4ea1ce36-af79-48f9-a1a5-89655c21d907","system_id":"levelo_inurba_marseille","lat":43.291671,"lon":5.371575,"is_reserved":false,"is_disabled":false,"rental_uris":{"android":"levelo://app?vid=4ea1ce36-af79-48f9-a1a5-89655c21d907","ios":"levelo://app?vid=4ea1ce36-af79-48f9-a1a5-89655c21d907"},"vehicle_type_id":"4","last_reported":1701803106,"current_range_meters":1200,"station_id":"ce4bha92rcd13ifvqeh0","pricing_plan_id":"free"},{"bike_id":"8146f9b5-b15a-4a68-934b-8d7fdd7ab4e5","system_id":"levelo_inurba_marseille","lat":43.31368,"lon":5.39641,"is_reserved":false,"is_disabled":false,"rental_uris":{"android":"levelo://app?vid=8146f9b5-b15a-4a68-934b-8d7fdd7ab4e5","ios":"levelo://app?vid=8146f9b5-b15a-4a68-934b-8d7fdd7ab4e5"},"vehicle_type_id":"4","last_reported":1701803106,"current_range_meters":20800,"station_id":"","pricing_plan_id":"free"},{"bike_id":"6a5e039c-7a06-494f-a77b-0dd227d25b6f","system_id":"levelo_inurba_marseille","lat":43.29207,"lon":5.3581,"is_reserved":false,"is_disabled":false,"rental_uris":{"android":"levelo://app?vid=6a5e039c-7a06-494f-a77b-0dd227d25b6f","ios":"levelo://app?vid=6a5e039c-7a06-494f-a77b-0dd227d25b6f"},"vehicle_type_id":"4","last_reported":1701803106,"current_range_meters":0,"station_id":"ce4bhb12rcd13ifvqel0","pricing_plan_id":"free"},{"bike_id":"d95a3685-1847-4cb2-8613-69a208bc17a6","system_id":"levelo_inurba_marseille","lat":43.291828,"lon":5.359007,"is_reserved":false,"is_disabled":false,"rental_uris":{"android":"levelo://app?vid=d95a3685-1847-4cb2-8613-69a208bc17a6","ios":"levelo://app?vid=d95a3685-1847-4cb2-8613-69a208bc17a6"},"vehicle_type_id":"4","last_reported":1701803106,"current_range_meters":5600,"station_id":"","pricing_plan_id":"free"},{"bike_id":"fa65edbb-37b4-4952-ac4c-ad59090e85d1","system_id":"levelo_inurba_marseille","lat":43.29198,"lon":5.35808,"is_reserved":false,"is_disabled":false,"rental_uris":{"android":"levelo://app?vid=fa65edbb-37b4-4952-ac4c-ad59090e85d1","ios":"levelo://app?vid=fa65edbb-37b4-4952-ac4c-ad59090e85d1"},"vehicle_type_id":"4","last_reported":1701803106,"current_range_meters":21200,"station_id":"ce4bhb12rcd13ifvqel0","pricing_plan_id":"free"},{"bike_id":"c5057dd8-9112-4831-ba7e-e9625981fc2e","system_id":"levelo_inurba_marseille","lat":43.291994,"lon":5.357886,"is_reserved":false,"is_disabled":false,"rental_uris":{"android":"levelo://app?vid=c5057dd8-9112-4831-ba7e-e9625981fc2e","ios":"levelo://app?vid=c5057dd8-9112-4831-ba7e-e9625981fc2e"},"vehicle_type_id":"4","last_reported":1701803106,"current_range_meters":2000,"station_id":"ce4bhb12rcd13ifvqel0","pricing_plan_id":"free"},{"bike_id":"6ecbc570-826d-4959-af1a-da4df6b1b7b5","system_id":"levelo_inurba_marseille","lat":43.313291,"lon":5.396838,"is_reserved":false,"is_disabled":false,"rental_uris":{"android":"levelo://app?vid=6ecbc570-826d-4959-af1a-da4df6b1b7b5","ios":"levelo://app?vid=6ecbc570-826d-4959-af1a-da4df6b1b7b5"},"vehicle_type_id":"4","last_reported":1701803106,"current_range_meters":0,"station_id":"ce4bgvp2rcd13ifvqcu0","pricing_plan_id":"free"},{"bike_id":"54cdeba6-ca0e-45e2-aff8-5e284b4bb5eb","system_id":"levelo_inurba_marseille","lat":43.291994,"lon":5.357886,"is_reserved":false,"is_disabled":false,"rental_uris":{"android":"levelo://app?vid=54cdeba6-ca0e-45e2-aff8-5e284b4bb5eb","ios":"levelo://app?vid=54cdeba6-ca0e-45e2-aff8-5e284b4bb5eb"},"vehicle_type_id":"4","last_reported":1701803106,"current_range_meters":22800,"station_id":"ce4bhb12rcd13ifvqel0","pricing_plan_id":"free"},{"bike_id":"a6970ad4-0f7e-43a8-b4a2-78164c8075f2","system_id":"levelo_inurba_marseille","lat":43.31331,"lon":5.39693,"is_reserved":false,"is_disabled":false,"rental_uris":{"android":"levelo://app?vid=a6970ad4-0f7e-43a8-b4a2-78164c8075f2","ios":"levelo://app?vid=a6970ad4-0f7e-43a8-b4a2-78164c8075f2"},"vehicle_type_id":"4","last_reported":1701803106,"current_range_meters":0,"station_id":"ce4bgvp2rcd13ifvqcu0","pricing_plan_id":"free"},{"bike_id":"038360cb-ffc5-43fb-95c7-0034c792cd07","system_id":"levelo_inurba_marseille","lat":43.29191,"lon":5.35791,"is_reserved":false,"is_disabled":false,"rental_uris":{"android":"levelo://app?vid=038360cb-ffc5-43fb-95c7-0034c792cd07","ios":"levelo://app?vid=038360cb-ffc5-43fb-95c7-0034c792cd07"},"vehicle_type_id":"4","last_reported":1701803106,"current_range_meters":4400,"station_id":"ce4bhb12rcd13ifvqel0","pricing_plan_id":"free"},{"bike_id":"b73860f3-864f-4ddf-a5ee-83a75520bea6","system_id":"levelo_inurba_marseille","lat":43.309047,"lon":5.396551,"is_reserved":false,"is_disabled":false,"rental_uris":{"android":"levelo://app?vid=b73860f3-864f-4ddf-a5ee-83a75520bea6","ios":"levelo://app?vid=b73860f3-864f-4ddf-a5ee-83a75520bea6"},"vehicle_type_id":"4","last_reported":1701803106,"current_range_meters":7200,"station_id":"ce4bh012rcd13ifvqcv0","pricing_plan_id":"free"},{"bike_id":"75d27027-85f2-49cb-93dd-43829506bd03","system_id":"levelo_inurba_marseille","lat":43.29529,"lon":5.385581,"is_reserved":false,"is_disabled":false,"rental_uris":{"android":"levelo://app?vid=75d27027-85f2-49cb-93dd-43829506bd03","ios":"levelo://app?vid=75d27027-85f2-49cb-93dd-43829506bd03"},"vehicle_type_id":"4","last_reported":1701803106,"current_range_meters":6800,"station_id":"ce4bgih2rcd13ifvqba0","pricing_plan_id":"free"},{"bike_id":"c8c909ab-95f8-4e3c-bc5e-4c9f8d158cd6","system_id":"levelo_inurba_marseille","lat":43.290624,"lon":5.359245,"is_reserved":false,"is_disabled":false,"rental_uris":{"android":"levelo://app?vid=c8c909ab-95f8-4e3c-bc5e-4c9f8d158cd6","ios":"levelo://app?vid=c8c909ab-95f8-4e3c-bc5e-4c9f8d158cd6"},"vehicle_type_id":"4","last_reported":1701803106,"current_range_meters":7200,"station_id":"ce4bha92rcd13ifvqeg0","pricing_plan_id":"free"},{"bike_id":"3b9f74c9-21ca-4692-9bd5-752d34976af9","system_id":"levelo_inurba_marseille","lat":43.290631,"lon":5.359244,"is_reserved":false,"is_disabled":false,"rental_uris":{"android":"levelo://app?vid=3b9f74c9-21ca-4692-9bd5-752d34976af9","ios":"levelo://app?vid=3b9f74c9-21ca-4692-9bd5-752d34976af9"},"vehicle_type_id":"4","last_reported":1701803106,"current_range_meters":16800,"station_id":"ce4bha92rcd13ifvqeg0","pricing_plan_id":"free"},{"bike_id":"6c4f76c1-b8b9-4a78-9517-eb625c25404e","system_id":"levelo_inurba_marseille","lat":43.290624,"lon":5.359245,"is_reserved":false,"is_disabled":false,"rental_uris":{"android":"levelo://app?vid=6c4f76c1-b8b9-4a78-9517-eb625c25404e","ios":"levelo://app?vid=6c4f76c1-b8b9-4a78-9517-eb625c25404e"},"vehicle_type_id":"4","last_reported":1701803106,"current_range_meters":10800,"station_id":"ce4bha92rcd13ifvqeg0","pricing_plan_id":"free"},{"bike_id":"079280f3-b12b-41c0-90de-c2730446b1bc","system_id":"levelo_inurba_marseille","lat":43.294153,"lon":5.386305,"is_reserved":false,"is_disabled":false,"rental_uris":{"android":"levelo://app?vid=079280f3-b12b-41c0-90de-c2730446b1bc","ios":"levelo://app?vid=079280f3-b12b-41c0-90de-c2730446b1bc"},"vehicle_type_id":"4","last_reported":1701803106,"current_range_meters":12800,"station_id":"ce4bh2h2rcd13ifvqdh0","pricing_plan_id":"free"},{"bike_id":"01820959-8148-482b-aad4-62be34e354e2","system_id":"levelo_inurba_marseille","lat":43.2894,"lon":5.36638,"is_reserved":false,"is_disabled":false,"rental_uris":{"android":"levelo://app?vid=01820959-8148-482b-aad4-62be34e354e2","ios":"levelo://app?vid=01820959-8148-482b-aad4-62be34e354e2"},"vehicle_type_id":"4","last_reported":1701803106,"current_range_meters":17200,"station_id":"ce4bhap2rcd13ifvqek0","pricing_plan_id":"free"},{"bike_id":"8080378a-71c4-4e5f-9af2-e079f8b23ac4","system_id":"levelo_inurba_marseille","lat":43.289184,"lon":5.366408,"is_reserved":false,"is_disabled":false,"rental_uris":{"android":"levelo://app?vid=8080378a-71c4-4e5f-9af2-e079f8b23ac4","ios":"levelo://app?vid=8080378a-71c4-4e5f-9af2-e079f8b23ac4"},"vehicle_type_id":"4","last_reported":1701803106,"current_range_meters":17200,"station_id":"ce4bhap2rcd13ifvqek0","pricing_plan_id":"free"},{"bike_id":"6d36cad9-eecc-4129-852b-7a94d09293e4","system_id":"levelo_inurba_marseille","lat":43.304296,"lon":5.397513,"is_reserved":false,"is_disabled":false,"rental_uris":{"android":"levelo://app?vid=6d36cad9-eecc-4129-852b-7a94d09293e4","ios":"levelo://app?vid=6d36cad9-eecc-4129-852b-7a94d09293e4"},"vehicle_type_id":"4","last_reported":1701803106,"current_range_meters":5600,"station_id":"ce4bh092rcd13ifvqd20","pricing_plan_id":"free"},{"bike_id":"061142fb-45f0-47c7-b277-abbf2c76c97c","system_id":"levelo_inurba_marseille","lat":43.292644,"lon":5.384257,"is_reserved":false,"is_disabled":false,"rental_uris":{"android":"levelo://app?vid=061142fb-45f0-47c7-b277-abbf2c76c97c","ios":"levelo://app?vid=061142fb-45f0-47c7-b277-abbf2c76c97c"},"vehicle_type_id":"4","last_reported":1701803106,"current_range_meters":10800,"station_id":"ce4bh692rcd13ifvqea0","pricing_plan_id":"free"},{"bike_id":"3e6b60c7-7de9-4593-8244-1cfab37478fb","system_id":"levelo_inurba_marseille","lat":43.292642,"lon":5.384254,"is_reserved":false,"is_disabled":false,"rental_uris":{"android":"levelo://app?vid=3e6b60c7-7de9-4593-8244-1cfab37478fb","ios":"levelo://app?vid=3e6b60c7-7de9-4593-8244-1cfab37478fb"},"vehicle_type_id":"4","last_reported":1701803106,"current_range_meters":10400,"station_id":"ce4bh692rcd13ifvqea0","pricing_plan_id":"free"},{"bike_id":"bb49cf8f-ff7c-4420-82a4-f9cf6d1b3a47","system_id":"levelo_inurba_marseille","lat":43.292644,"lon":5.384257,"is_reserved":false,"is_disabled":false,"rental_uris":{"android":"levelo://app?vid=bb49cf8f-ff7c-4420-82a4-f9cf6d1b3a47","ios":"levelo://app?vid=bb49cf8f-ff7c-4420-82a4-f9cf6d1b3a47"},"vehicle_type_id":"4","last_reported":1701803106,"current_range_meters":10800,"station_id":"ce4bh692rcd13ifvqea0","pricing_plan_id":"free"},{"bike_id":"c6330f20-2a4b-42c8-bb2f-e1a95cc6ec8d","system_id":"levelo_inurba_marseille","lat":43.304296,"lon":5.397513,"is_reserved":false,"is_disabled":false,"rental_uris":{"android":"levelo://app?vid=c6330f20-2a4b-42c8-bb2f-e1a95cc6ec8d","ios":"levelo://app?vid=c6330f20-2a4b-42c8-bb2f-e1a95cc6ec8d"},"vehicle_type_id":"4","last_reported":1701803106,"current_range_meters":18400,"station_id":"ce4bh092rcd13ifvqd20","pricing_plan_id":"free"},{"bike_id":"3ed78a9e-1d22-46b9-977a-44f38d66a860","system_id":"levelo_inurba_marseille","lat":43.330442,"lon":5.389148,"is_reserved":false,"is_disabled":false,"rental_uris":{"android":"levelo://app?vid=3ed78a9e-1d22-46b9-977a-44f38d66a860","ios":"levelo://app?vid=3ed78a9e-1d22-46b9-977a-44f38d66a860"},"vehicle_type_id":"4","last_reported":1701803106,"current_range_meters":21200,"station_id":"ce4bhr92rcd13ifvqhrg","pricing_plan_id":"free"},{"bike_id":"f68e2c8b-de08-4ad7-b342-74483183b5be","system_id":"levelo_inurba_marseille","lat":43.33034,"lon":5.38938,"is_reserved":false,"is_disabled":false,"rental_uris":{"android":"levelo://app?vid=f68e2c8b-de08-4ad7-b342-74483183b5be","ios":"levelo://app?vid=f68e2c8b-de08-4ad7-b342-74483183b5be"},"vehicle_type_id":"4","last_reported":1701803106,"current_range_meters":30000,"station_id":"ce4bhr92rcd13ifvqhrg","pricing_plan_id":"free"},{"bike_id":"1485c527-91f9-4a1e-90e2-d60ac9bc7969","system_id":"levelo_inurba_marseille","lat":43.29781,"lon":5.39335,"is_reserved":false,"is_disabled":false,"rental_uris":{"android":"levelo://app?vid=1485c527-91f9-4a1e-90e2-d60ac9bc7969","ios":"levelo://app?vid=1485c527-91f9-4a1e-90e2-d60ac9bc7969"},"vehicle_type_id":"4","last_reported":1701803106,"current_range_meters":20800,"station_id":"chh1huq6cuj3fo74tm60","pricing_plan_id":"free"},{"bike_id":"cb0bbf43-702b-4ed9-a913-67066d990615","system_id":"levelo_inurba_marseille","lat":43.295169,"lon":5.390426,"is_reserved":false,"is_disabled":false,"rental_uris":{"android":"levelo://app?vid=cb0bbf43-702b-4ed9-a913-67066d990615","ios":"levelo://app?vid=cb0bbf43-702b-4ed9-a913-67066d990615"},"vehicle_type_id":"4","last_reported":1701803106,"current_range_meters":4000,"station_id":"ce4bh3p2rcd13ifvqdp0","pricing_plan_id":"free"},{"bike_id":"36164747-3e25-4a1f-989d-7e8b2aa1d1d1","system_id":"levelo_inurba_marseille","lat":43.288707,"lon":5.358767,"is_reserved":false,"is_disabled":false,"rental_uris":{"android":"levelo://app?vid=36164747-3e25-4a1f-989d-7e8b2aa1d1d1","ios":"levelo://app?vid=36164747-3e25-4a1f-989d-7e8b2aa1d1d1"},"vehicle_type_id":"4","last_reported":1701803106,"current_range_meters":0,"station_id":"ce4bhb12rcd13ifvqem0","pricing_plan_id":"free"},{"bike_id":"7dc2ec8e-65c8-471c-8ba9-cb72c6b17d8b","system_id":"levelo_inurba_marseille","lat":43.28861,"lon":5.35852,"is_reserved":false,"is_disabled":false,"rental_uris":{"android":"levelo://app?vid=7dc2ec8e-65c8-471c-8ba9-cb72c6b17d8b","ios":"levelo://app?vid=7dc2ec8e-65c8-471c-8ba9-cb72c6b17d8b"},"vehicle_type_id":"4","last_reported":1701803106,"current_range_meters":14800,"station_id":"ce4bhb12rcd13ifvqem0","pricing_plan_id":"free"},{"bike_id":"2fbea006-0d22-445c-bfc1-d379dcddc1c1","system_id":"levelo_inurba_marseille","lat":43.337475,"lon":5.374686,"is_reserved":false,"is_disabled":false,"rental_uris":{"android":"levelo://app?vid=2fbea006-0d22-445c-bfc1-d379dcddc1c1","ios":"levelo://app?vid=2fbea006-0d22-445c-bfc1-d379dcddc1c1"},"vehicle_type_id":"4","last_reported":1701803106,"current_range_meters":28000,"station_id":"","pricing_plan_id":"free"},{"bike_id":"b1da507f-59bc-4bfa-9de7-dd18b0d37739","system_id":"levelo_inurba_marseille","lat":43.337507,"lon":5.374491,"is_reserved":false,"is_disabled":false,"rental_uris":{"android":"levelo://app?vid=b1da507f-59bc-4bfa-9de7-dd18b0d37739","ios":"levelo://app?vid=b1da507f-59bc-4bfa-9de7-dd18b0d37739"},"vehicle_type_id":"4","last_reported":1701803106,"current_range_meters":30400,"station_id":"","pricing_plan_id":"free"},{"bike_id":"61e94894-252e-4e6e-9735-b09eceabfad5","system_id":"levelo_inurba_marseille","lat":43.337474,"lon":5.374781,"is_reserved":false,"is_disabled":false,"rental_uris":{"android":"levelo://app?vid=61e94894-252e-4e6e-9735-b09eceabfad5","ios":"levelo://app?vid=61e94894-252e-4e6e-9735-b09eceabfad5"},"vehicle_type_id":"4","last_reported":1701803106,"current_range_meters":28800,"station_id":"","pricing_plan_id":"free"},{"bike_id":"f0464f50-e84c-41e8-8839-9b31e220379c","system_id":"levelo_inurba_marseille","lat":43.337561,"lon":5.374603,"is_reserved":false,"is_disabled":false,"rental_uris":{"android":"levelo://app?vid=f0464f50-e84c-41e8-8839-9b31e220379c","ios":"levelo://app?vid=f0464f50-e84c-41e8-8839-9b31e220379c"},"vehicle_type_id":"4","last_reported":1701803106,"current_range_meters":31200,"station_id":"","pricing_plan_id":"free"},{"bike_id":"a01a8d62-3f82-430f-8cbf-bf5e5048b82c","system_id":"levelo_inurba_marseille","lat":43.337607,"lon":5.374663,"is_reserved":false,"is_disabled":false,"rental_uris":{"android":"levelo://app?vid=a01a8d62-3f82-430f-8cbf-bf5e5048b82c","ios":"levelo://app?vid=a01a8d62-3f82-430f-8cbf-bf5e5048b82c"},"vehicle_type_id":"4","last_reported":1701803106,"current_range_meters":28000,"station_id":"","pricing_plan_id":"free"},{"bike_id":"cdb48b5f-19aa-4426-81ca-6668e590a185","system_id":"levelo_inurba_marseille","lat":43.306412,"lon":5.401035,"is_reserved":false,"is_disabled":false,"rental_uris":{"android":"levelo://app?vid=cdb48b5f-19aa-4426-81ca-6668e590a185","ios":"levelo://app?vid=cdb48b5f-19aa-4426-81ca-6668e590a185"},"vehicle_type_id":"4","last_reported":1701803106,"current_range_meters":0,"station_id":"ce4bh112rcd13ifvqda0","pricing_plan_id":"free"},{"bike_id":"9a1e2a86-2307-443e-8986-35b02223d9a7","system_id":"levelo_inurba_marseille","lat":43.33763,"lon":5.3747,"is_reserved":false,"is_disabled":false,"rental_uris":{"android":"levelo://app?vid=9a1e2a86-2307-443e-8986-35b02223d9a7","ios":"levelo://app?vid=9a1e2a86-2307-443e-8986-35b02223d9a7"},"vehicle_type_id":"4","last_reported":1701803106,"current_range_meters":18800,"station_id":"","pricing_plan_id":"free"},{"bike_id":"98f11ca7-d900-41c8-87a1-f3b4c121c95a","system_id":"levelo_inurba_marseille","lat":43.306412,"lon":5.401035,"is_reserved":false,"is_disabled":false,"rental_uris":{"android":"levelo://app?vid=98f11ca7-d900-41c8-87a1-f3b4c121c95a","ios":"levelo://app?vid=98f11ca7-d900-41c8-87a1-f3b4c121c95a"},"vehicle_type_id":"4","last_reported":1701803106,"current_range_meters":23600,"station_id":"ce4bh112rcd13ifvqda0","pricing_plan_id":"free"},{"bike_id":"130abb19-cd13-47f2-9ddb-ad1a03f03174","system_id":"levelo_inurba_marseille","lat":43.301117,"lon":5.398795,"is_reserved":false,"is_disabled":false,"rental_uris":{"android":"levelo://app?vid=130abb19-cd13-47f2-9ddb-ad1a03f03174","ios":"levelo://app?vid=130abb19-cd13-47f2-9ddb-ad1a03f03174"},"vehicle_type_id":"4","last_reported":1701803106,"current_range_meters":0,"station_id":"ce4bh0h2rcd13ifvqd40","pricing_plan_id":"free"},{"bike_id":"310264ea-f698-46df-9eb0-b2e749e64ccd","system_id":"levelo_inurba_marseille","lat":43.301447,"lon":5.398687,"is_reserved":false,"is_disabled":false,"rental_uris":{"android":"levelo://app?vid=310264ea-f698-46df-9eb0-b2e749e64ccd","ios":"levelo://app?vid=310264ea-f698-46df-9eb0-b2e749e64ccd"},"vehicle_type_id":"4","last_reported":1701803106,"current_range_meters":30800,"station_id":"ce4bh0h2rcd13ifvqd40","pricing_plan_id":"free"},{"bike_id":"1658dd3b-9f05-49bc-82a4-60882e063b01","system_id":"levelo_inurba_marseille","lat":43.28727,"lon":5.36078,"is_reserved":false,"is_disabled":false,"rental_uris":{"android":"levelo://app?vid=1658dd3b-9f05-49bc-82a4-60882e063b01","ios":"levelo://app?vid=1658dd3b-9f05-49bc-82a4-60882e063b01"},"vehicle_type_id":"4","last_reported":1701803106,"current_range_meters":800,"station_id":"cki0cbj6b192h4jlfktg","pricing_plan_id":"free"},{"bike_id":"5a24e346-dfa7-4616-9f3c-38523dc73aa4","system_id":"levelo_inurba_marseille","lat":43.29874,"lon":5.39728,"is_reserved":false,"is_disabled":false,"rental_uris":{"android":"levelo://app?vid=5a24e346-dfa7-4616-9f3c-38523dc73aa4","ios":"levelo://app?vid=5a24e346-dfa7-4616-9f3c-38523dc73aa4"},"vehicle_type_id":"4","last_reported":1701803106,"current_range_meters":0,"station_id":"ce4bh0h2rcd13ifvqd50","pricing_plan_id":"free"},{"bike_id":"5e0d0bd1-9594-4447-88a0-f927f299e7d3","system_id":"levelo_inurba_marseille","lat":43.286591,"lon":5.363346,"is_reserved":false,"is_disabled":false,"rental_uris":{"android":"levelo://app?vid=5e0d0bd1-9594-4447-88a0-f927f299e7d3","ios":"levelo://app?vid=5e0d0bd1-9594-4447-88a0-f927f299e7d3"},"vehicle_type_id":"4","last_reported":1701803106,"current_range_meters":26000,"station_id":"ce4bhah2rcd13ifvqej0","pricing_plan_id":"free"},{"bike_id":"196b23de-eaf6-4bbe-b2f3-764edb9d2a87","system_id":"levelo_inurba_marseille","lat":43.298681,"lon":5.397225,"is_reserved":false,"is_disabled":false,"rental_uris":{"android":"levelo://app?vid=196b23de-eaf6-4bbe-b2f3-764edb9d2a87","ios":"levelo://app?vid=196b23de-eaf6-4bbe-b2f3-764edb9d2a87"},"vehicle_type_id":"4","last_reported":1701803106,"current_range_meters":7600,"station_id":"ce4bh0h2rcd13ifvqd50","pricing_plan_id":"free"},{"bike_id":"c01380e8-5125-426f-a3f2-3fb50928da90","system_id":"levelo_inurba_marseille","lat":43.298681,"lon":5.397225,"is_reserved":false,"is_disabled":false,"rental_uris":{"android":"levelo://app?vid=c01380e8-5125-426f-a3f2-3fb50928da90","ios":"levelo://app?vid=c01380e8-5125-426f-a3f2-3fb50928da90"},"vehicle_type_id":"4","last_reported":1701803106,"current_range_meters":16400,"station_id":"ce4bh0h2rcd13ifvqd50","pricing_plan_id":"free"},{"bike_id":"ed5e4a51-aa62-491d-9b4e-d40133aafcc5","system_id":"levelo_inurba_marseille","lat":43.295196,"lon":5.39397,"is_reserved":false,"is_disabled":false,"rental_uris":{"android":"levelo://app?vid=ed5e4a51-aa62-491d-9b4e-d40133aafcc5","ios":"levelo://app?vid=ed5e4a51-aa62-491d-9b4e-d40133aafcc5"},"vehicle_type_id":"4","last_reported":1701803106,"current_range_meters":5200,"station_id":"ce4bh292rcd13ifvqdf0","pricing_plan_id":"free"},{"bike_id":"ea69faec-60fe-435d-9410-5ff881d6e290","system_id":"levelo_inurba_marseille","lat":43.295196,"lon":5.39397,"is_reserved":false,"is_disabled":false,"rental_uris":{"android":"levelo://app?vid=ea69faec-60fe-435d-9410-5ff881d6e290","ios":"levelo://app?vid=ea69faec-60fe-435d-9410-5ff881d6e290"},"vehicle_type_id":"4","last_reported":1701803106,"current_range_meters":7600,"station_id":"ce4bh292rcd13ifvqdf0","pricing_plan_id":"free"},{"bike_id":"8b29ca00-5866-4881-94d4-93d3f975b8d4","system_id":"levelo_inurba_marseille","lat":43.289307,"lon":5.38406,"is_reserved":false,"is_disabled":false,"rental_uris":{"android":"levelo://app?vid=8b29ca00-5866-4881-94d4-93d3f975b8d4","ios":"levelo://app?vid=8b29ca00-5866-4881-94d4-93d3f975b8d4"},"vehicle_type_id":"4","last_reported":1701803106,"current_range_meters":10800,"station_id":"ce4bh612rcd13ifvqe6g","pricing_plan_id":"free"},{"bike_id":"5400bd56-c564-40d8-8873-8e8fe4158dcb","system_id":"levelo_inurba_marseille","lat":43.289307,"lon":5.38406,"is_reserved":false,"is_disabled":false,"rental_uris":{"android":"levelo://app?vid=5400bd56-c564-40d8-8873-8e8fe4158dcb","ios":"levelo://app?vid=5400bd56-c564-40d8-8873-8e8fe4158dcb"},"vehicle_type_id":"4","last_reported":1701803106,"current_range_meters":8800,"station_id":"ce4bh612rcd13ifvqe6g","pricing_plan_id":"free"},{"bike_id":"5b72c848-f5ae-4aff-beb9-e47252103237","system_id":"levelo_inurba_marseille","lat":43.289307,"lon":5.38406,"is_reserved":false,"is_disabled":false,"rental_uris":{"android":"levelo://app?vid=5b72c848-f5ae-4aff-beb9-e47252103237","ios":"levelo://app?vid=5b72c848-f5ae-4aff-beb9-e47252103237"},"vehicle_type_id":"4","last_reported":1701803106,"current_range_meters":12000,"station_id":"ce4bh612rcd13ifvqe6g","pricing_plan_id":"free"},{"bike_id":"e05a83b2-96e5-473c-9425-25592f028f13","system_id":"levelo_inurba_marseille","lat":43.289307,"lon":5.38406,"is_reserved":false,"is_disabled":false,"rental_uris":{"android":"levelo://app?vid=e05a83b2-96e5-473c-9425-25592f028f13","ios":"levelo://app?vid=e05a83b2-96e5-473c-9425-25592f028f13"},"vehicle_type_id":"4","last_reported":1701803106,"current_range_meters":25600,"station_id":"ce4bh612rcd13ifvqe6g","pricing_plan_id":"free"},{"bike_id":"4fbeab9f-81fb-4e8f-95e9-5da0899fbe7d","system_id":"levelo_inurba_marseille","lat":43.302759,"lon":5.400793,"is_reserved":false,"is_disabled":false,"rental_uris":{"android":"levelo://app?vid=4fbeab9f-81fb-4e8f-95e9-5da0899fbe7d","ios":"levelo://app?vid=4fbeab9f-81fb-4e8f-95e9-5da0899fbe7d"},"vehicle_type_id":"4","last_reported":1701803106,"current_range_meters":22800,"station_id":"ce4bgvh2rcd13ifvqcs0","pricing_plan_id":"free"},{"bike_id":"798d7b50-725b-4d95-b0ec-d9e845fc2258","system_id":"levelo_inurba_marseille","lat":43.295713,"lon":5.399639,"is_reserved":false,"is_disabled":false,"rental_uris":{"android":"levelo://app?vid=798d7b50-725b-4d95-b0ec-d9e845fc2258","ios":"levelo://app?vid=798d7b50-725b-4d95-b0ec-d9e845fc2258"},"vehicle_type_id":"4","last_reported":1701803106,"current_range_meters":16000,"station_id":"ce4bh312rcd13ifvqdj0","pricing_plan_id":"free"},{"bike_id":"383fefec-aba2-4ed7-b60f-92294683ce2e","system_id":"levelo_inurba_marseille","lat":43.29217,"lon":5.39331,"is_reserved":false,"is_disabled":false,"rental_uris":{"android":"levelo://app?vid=383fefec-aba2-4ed7-b60f-92294683ce2e","ios":"levelo://app?vid=383fefec-aba2-4ed7-b60f-92294683ce2e"},"vehicle_type_id":"4","last_reported":1701803106,"current_range_meters":0,"station_id":"ce4bh192rcd13ifvqdd0","pricing_plan_id":"free"},{"bike_id":"377edaf2-a03f-485e-8dfc-662d69a5852c","system_id":"levelo_inurba_marseille","lat":43.284538,"lon":5.358657,"is_reserved":false,"is_disabled":false,"rental_uris":{"android":"levelo://app?vid=377edaf2-a03f-485e-8dfc-662d69a5852c","ios":"levelo://app?vid=377edaf2-a03f-485e-8dfc-662d69a5852c"},"vehicle_type_id":"4","last_reported":1701803106,"current_range_meters":20000,"station_id":"ce4bhah2rcd13ifvqei0","pricing_plan_id":"free"},{"bike_id":"f56f8be2-ebde-4d23-8461-f7a6797dcf91","system_id":"levelo_inurba_marseille","lat":43.284538,"lon":5.358657,"is_reserved":false,"is_disabled":false,"rental_uris":{"android":"levelo://app?vid=f56f8be2-ebde-4d23-8461-f7a6797dcf91","ios":"levelo://app?vid=f56f8be2-ebde-4d23-8461-f7a6797dcf91"},"vehicle_type_id":"4","last_reported":1701803106,"current_range_meters":14000,"station_id":"ce4bhah2rcd13ifvqei0","pricing_plan_id":"free"},{"bike_id":"8ecdd6d8-318d-48d6-b323-0a270a0205b8","system_id":"levelo_inurba_marseille","lat":43.284538,"lon":5.358657,"is_reserved":false,"is_disabled":false,"rental_uris":{"android":"levelo://app?vid=8ecdd6d8-318d-48d6-b323-0a270a0205b8","ios":"levelo://app?vid=8ecdd6d8-318d-48d6-b323-0a270a0205b8"},"vehicle_type_id":"4","last_reported":1701803106,"current_range_meters":13200,"station_id":"ce4bhah2rcd13ifvqei0","pricing_plan_id":"free"},{"bike_id":"7b24a9b0-77aa-4814-ba70-2992033af35c","system_id":"levelo_inurba_marseille","lat":43.284538,"lon":5.358657,"is_reserved":false,"is_disabled":false,"rental_uris":{"android":"levelo://app?vid=7b24a9b0-77aa-4814-ba70-2992033af35c","ios":"levelo://app?vid=7b24a9b0-77aa-4814-ba70-2992033af35c"},"vehicle_type_id":"4","last_reported":1701803106,"current_range_meters":24000,"station_id":"ce4bhah2rcd13ifvqei0","pricing_plan_id":"free"},{"bike_id":"51c79b9f-7d85-4db7-b30c-7d97acf8cc13","system_id":"levelo_inurba_marseille","lat":43.284538,"lon":5.358657,"is_reserved":false,"is_disabled":false,"rental_uris":{"android":"levelo://app?vid=51c79b9f-7d85-4db7-b30c-7d97acf8cc13","ios":"levelo://app?vid=51c79b9f-7d85-4db7-b30c-7d97acf8cc13"},"vehicle_type_id":"4","last_reported":1701803106,"current_range_meters":21600,"station_id":"ce4bhah2rcd13ifvqei0","pricing_plan_id":"free"},{"bike_id":"2a7c3ce0-6296-44c6-8fd6-60ae37ae982f","system_id":"levelo_inurba_marseille","lat":43.284538,"lon":5.358657,"is_reserved":false,"is_disabled":false,"rental_uris":{"android":"levelo://app?vid=2a7c3ce0-6296-44c6-8fd6-60ae37ae982f","ios":"levelo://app?vid=2a7c3ce0-6296-44c6-8fd6-60ae37ae982f"},"vehicle_type_id":"4","last_reported":1701803106,"current_range_meters":8400,"station_id":"ce4bhah2rcd13ifvqei0","pricing_plan_id":"free"},{"bike_id":"c2ad65b9-a649-44ae-9be0-5a5acfc51cfe","system_id":"levelo_inurba_marseille","lat":43.294314,"lon":5.397498,"is_reserved":false,"is_disabled":false,"rental_uris":{"android":"levelo://app?vid=c2ad65b9-a649-44ae-9be0-5a5acfc51cfe","ios":"levelo://app?vid=c2ad65b9-a649-44ae-9be0-5a5acfc51cfe"},"vehicle_type_id":"4","last_reported":1701803106,"current_range_meters":19200,"station_id":"ce4bh3h2rcd13ifvqdo0","pricing_plan_id":"free"},{"bike_id":"d0fcae1a-67fe-487e-b541-c3fca2f38c20","system_id":"levelo_inurba_marseille","lat":43.294314,"lon":5.397498,"is_reserved":false,"is_disabled":false,"rental_uris":{"android":"levelo://app?vid=d0fcae1a-67fe-487e-b541-c3fca2f38c20","ios":"levelo://app?vid=d0fcae1a-67fe-487e-b541-c3fca2f38c20"},"vehicle_type_id":"4","last_reported":1701803106,"current_range_meters":17200,"station_id":"ce4bh3h2rcd13ifvqdo0","pricing_plan_id":"free"},{"bike_id":"a1d5832e-e516-411c-88ec-8f4f7f0daaf8","system_id":"levelo_inurba_marseille","lat":43.285848,"lon":5.350787,"is_reserved":false,"is_disabled":false,"rental_uris":{"android":"levelo://app?vid=a1d5832e-e516-411c-88ec-8f4f7f0daaf8","ios":"levelo://app?vid=a1d5832e-e516-411c-88ec-8f4f7f0daaf8"},"vehicle_type_id":"4","last_reported":1701803106,"current_range_meters":2400,"station_id":"ce4bhch2rcd13ifvqeug","pricing_plan_id":"free"},{"bike_id":"5a72b05a-94d1-4b99-96f5-02a085042fa5","system_id":"levelo_inurba_marseille","lat":43.295713,"lon":5.399639,"is_reserved":false,"is_disabled":false,"rental_uris":{"android":"levelo://app?vid=5a72b05a-94d1-4b99-96f5-02a085042fa5","ios":"levelo://app?vid=5a72b05a-94d1-4b99-96f5-02a085042fa5"},"vehicle_type_id":"4","last_reported":1701803106,"current_range_meters":11600,"station_id":"ce4bh312rcd13ifvqdj0","pricing_plan_id":"free"},{"bike_id":"9c5f8c4a-90e1-4102-91d2-021816b36661","system_id":"levelo_inurba_marseille","lat":43.28672,"lon":5.38653,"is_reserved":false,"is_disabled":false,"rental_uris":{"android":"levelo://app?vid=9c5f8c4a-90e1-4102-91d2-021816b36661","ios":"levelo://app?vid=9c5f8c4a-90e1-4102-91d2-021816b36661"},"vehicle_type_id":"4","last_reported":1701803106,"current_range_meters":12400,"station_id":"ce4bh492rcd13ifvqdug","pricing_plan_id":"free"},{"bike_id":"4c008d08-afb9-45ca-bb85-1ad6c8fdb117","system_id":"levelo_inurba_marseille","lat":43.28678,"lon":5.38669,"is_reserved":false,"is_disabled":false,"rental_uris":{"android":"levelo://app?vid=4c008d08-afb9-45ca-bb85-1ad6c8fdb117","ios":"levelo://app?vid=4c008d08-afb9-45ca-bb85-1ad6c8fdb117"},"vehicle_type_id":"4","last_reported":1701803106,"current_range_meters":17600,"station_id":"ce4bh492rcd13ifvqdug","pricing_plan_id":"free"},{"bike_id":"196b2a5f-14a8-4a44-91b1-eed21e34e508","system_id":"levelo_inurba_marseille","lat":43.28748,"lon":5.38905,"is_reserved":false,"is_disabled":false,"rental_uris":{"android":"levelo://app?vid=196b2a5f-14a8-4a44-91b1-eed21e34e508","ios":"levelo://app?vid=196b2a5f-14a8-4a44-91b1-eed21e34e508"},"vehicle_type_id":"4","last_reported":1701803106,"current_range_meters":0,"station_id":"","pricing_plan_id":"free"},{"bike_id":"5fad739f-ecbb-465f-9d5d-01fd562691c5","system_id":"levelo_inurba_marseille","lat":43.31879,"lon":5.40737,"is_reserved":false,"is_disabled":false,"rental_uris":{"android":"levelo://app?vid=5fad739f-ecbb-465f-9d5d-01fd562691c5","ios":"levelo://app?vid=5fad739f-ecbb-465f-9d5d-01fd562691c5"},"vehicle_type_id":"4","last_reported":1701803106,"current_range_meters":0,"station_id":"ce4bhq12rcd13ifvqhig","pricing_plan_id":"free"},{"bike_id":"535d219a-656f-47c6-a5cf-cf586f4fe96b","system_id":"levelo_inurba_marseille","lat":43.31897,"lon":5.40733,"is_reserved":false,"is_disabled":false,"rental_uris":{"android":"levelo://app?vid=535d219a-656f-47c6-a5cf-cf586f4fe96b","ios":"levelo://app?vid=535d219a-656f-47c6-a5cf-cf586f4fe96b"},"vehicle_type_id":"4","last_reported":1701803106,"current_range_meters":0,"station_id":"ce4bhq12rcd13ifvqhig","pricing_plan_id":"free"},{"bike_id":"3734231e-d673-4404-b15d-d7a23ba8c854","system_id":"levelo_inurba_marseille","lat":43.28806,"lon":5.39147,"is_reserved":false,"is_disabled":false,"rental_uris":{"android":"levelo://app?vid=3734231e-d673-4404-b15d-d7a23ba8c854","ios":"levelo://app?vid=3734231e-d673-4404-b15d-d7a23ba8c854"},"vehicle_type_id":"4","last_reported":1701803106,"current_range_meters":0,"station_id":"","pricing_plan_id":"free"},{"bike_id":"db920be0-fb0f-4fdb-91ad-92736490ed79","system_id":"levelo_inurba_marseille","lat":43.323464,"lon":5.406297,"is_reserved":false,"is_disabled":false,"rental_uris":{"android":"levelo://app?vid=db920be0-fb0f-4fdb-91ad-92736490ed79","ios":"levelo://app?vid=db920be0-fb0f-4fdb-91ad-92736490ed79"},"vehicle_type_id":"4","last_reported":1701803106,"current_range_meters":1200,"station_id":"ce4bhq92rcd13ifvqhjg","pricing_plan_id":"free"},{"bike_id":"2dc01727-43ca-4bde-b58f-8ec0947c4ddb","system_id":"levelo_inurba_marseille","lat":43.283494,"lon":5.380945,"is_reserved":false,"is_disabled":false,"rental_uris":{"android":"levelo://app?vid=2dc01727-43ca-4bde-b58f-8ec0947c4ddb","ios":"levelo://app?vid=2dc01727-43ca-4bde-b58f-8ec0947c4ddb"},"vehicle_type_id":"4","last_reported":1701803106,"current_range_meters":21200,"station_id":"ce4bh412rcd13ifvqdr0","pricing_plan_id":"free"},{"bike_id":"ced39b92-b9d8-4831-ae0b-33b5344e852f","system_id":"levelo_inurba_marseille","lat":43.283494,"lon":5.380945,"is_reserved":false,"is_disabled":false,"rental_uris":{"android":"levelo://app?vid=ced39b92-b9d8-4831-ae0b-33b5344e852f","ios":"levelo://app?vid=ced39b92-b9d8-4831-ae0b-33b5344e852f"},"vehicle_type_id":"4","last_reported":1701803106,"current_range_meters":17600,"station_id":"ce4bh412rcd13ifvqdr0","pricing_plan_id":"free"},{"bike_id":"197fadff-c2ae-4a81-a38a-d6e7894914b7","system_id":"levelo_inurba_marseille","lat":43.288501,"lon":5.393087,"is_reserved":false,"is_disabled":false,"rental_uris":{"android":"levelo://app?vid=197fadff-c2ae-4a81-a38a-d6e7894914b7","ios":"levelo://app?vid=197fadff-c2ae-4a81-a38a-d6e7894914b7"},"vehicle_type_id":"4","last_reported":1701803106,"current_range_meters":15600,"station_id":"ce4bh2p2rcd13ifvqdi0","pricing_plan_id":"free"},{"bike_id":"dd6b756e-3032-4bf3-8729-0e0248edbc6c","system_id":"levelo_inurba_marseille","lat":43.317121,"lon":5.423936,"is_reserved":false,"is_disabled":false,"rental_uris":{"android":"levelo://app?vid=dd6b756e-3032-4bf3-8729-0e0248edbc6c","ios":"levelo://app?vid=dd6b756e-3032-4bf3-8729-0e0248edbc6c"},"vehicle_type_id":"4","last_reported":1701803106,"current_range_meters":25200,"station_id":"ce4bhp92rcd13ifvqhbg","pricing_plan_id":"free"},{"bike_id":"6082b999-84ba-464a-ac4c-d6fbc13f6292","system_id":"levelo_inurba_marseille","lat":43.284462,"lon":5.392121,"is_reserved":false,"is_disabled":false,"rental_uris":{"android":"levelo://app?vid=6082b999-84ba-464a-ac4c-d6fbc13f6292","ios":"levelo://app?vid=6082b999-84ba-464a-ac4c-d6fbc13f6292"},"vehicle_type_id":"4","last_reported":1701803106,"current_range_meters":26000,"station_id":"ce4bhoh2rcd13ifvqh5g","pricing_plan_id":"free"},{"bike_id":"fbcfde56-cff5-4b3e-bced-003039433aa0","system_id":"levelo_inurba_marseille","lat":43.28573,"lon":5.394992,"is_reserved":false,"is_disabled":false,"rental_uris":{"android":"levelo://app?vid=fbcfde56-cff5-4b3e-bced-003039433aa0","ios":"levelo://app?vid=fbcfde56-cff5-4b3e-bced-003039433aa0"},"vehicle_type_id":"4","last_reported":1701803106,"current_range_meters":19600,"station_id":"ce4bh292rcd13ifvqdg0","pricing_plan_id":"free"},{"bike_id":"dddde6b0-274c-4199-a6cb-3a24440f58c2","system_id":"levelo_inurba_marseille","lat":43.304188,"lon":5.412904,"is_reserved":false,"is_disabled":false,"rental_uris":{"android":"levelo://app?vid=dddde6b0-274c-4199-a6cb-3a24440f58c2","ios":"levelo://app?vid=dddde6b0-274c-4199-a6cb-3a24440f58c2"},"vehicle_type_id":"4","last_reported":1701803106,"current_range_meters":14000,"station_id":"ce4bhop2rcd13ifvqh8g","pricing_plan_id":"free"},{"bike_id":"17db11e9-ff6b-4265-a772-9fca0f8a787a","system_id":"levelo_inurba_marseille","lat":43.28488,"lon":5.40417,"is_reserved":false,"is_disabled":false,"rental_uris":{"android":"levelo://app?vid=17db11e9-ff6b-4265-a772-9fca0f8a787a","ios":"levelo://app?vid=17db11e9-ff6b-4265-a772-9fca0f8a787a"},"vehicle_type_id":"4","last_reported":1701803106,"current_range_meters":0,"station_id":"","pricing_plan_id":"free"},{"bike_id":"b1e0d68f-b5ce-4efc-a11d-bb9890d3062f","system_id":"levelo_inurba_marseille","lat":43.278782,"lon":5.395048,"is_reserved":false,"is_disabled":false,"rental_uris":{"android":"levelo://app?vid=b1e0d68f-b5ce-4efc-a11d-bb9890d3062f","ios":"levelo://app?vid=b1e0d68f-b5ce-4efc-a11d-bb9890d3062f"},"vehicle_type_id":"4","last_reported":1701803106,"current_range_meters":28400,"station_id":"","pricing_plan_id":"free"},{"bike_id":"972ad8df-576c-4a6c-98b8-67136b54b8e0","system_id":"levelo_inurba_marseille","lat":43.279952,"lon":5.400085,"is_reserved":false,"is_disabled":false,"rental_uris":{"android":"levelo://app?vid=972ad8df-576c-4a6c-98b8-67136b54b8e0","ios":"levelo://app?vid=972ad8df-576c-4a6c-98b8-67136b54b8e0"},"vehicle_type_id":"4","last_reported":1701803106,"current_range_meters":0,"station_id":"ce4bho92rcd13ifvqh4g","pricing_plan_id":"free"},{"bike_id":"4f3c361f-dc39-4eb2-8cb4-572b7625ae11","system_id":"levelo_inurba_marseille","lat":43.279952,"lon":5.400085,"is_reserved":false,"is_disabled":false,"rental_uris":{"android":"levelo://app?vid=4f3c361f-dc39-4eb2-8cb4-572b7625ae11","ios":"levelo://app?vid=4f3c361f-dc39-4eb2-8cb4-572b7625ae11"},"vehicle_type_id":"4","last_reported":1701803106,"current_range_meters":11600,"station_id":"ce4bho92rcd13ifvqh4g","pricing_plan_id":"free"},{"bike_id":"1dfd93a0-0414-43c2-acce-eca48a96708b","system_id":"levelo_inurba_marseille","lat":43.279952,"lon":5.400085,"is_reserved":false,"is_disabled":false,"rental_uris":{"android":"levelo://app?vid=1dfd93a0-0414-43c2-acce-eca48a96708b","ios":"levelo://app?vid=1dfd93a0-0414-43c2-acce-eca48a96708b"},"vehicle_type_id":"4","last_reported":1701803106,"current_range_meters":7600,"station_id":"ce4bho92rcd13ifvqh4g","pricing_plan_id":"free"},{"bike_id":"2c337d2b-cceb-4a65-b16d-e1c20cfe6466","system_id":"levelo_inurba_marseille","lat":43.279975,"lon":5.40009,"is_reserved":false,"is_disabled":false,"rental_uris":{"android":"levelo://app?vid=2c337d2b-cceb-4a65-b16d-e1c20cfe6466","ios":"levelo://app?vid=2c337d2b-cceb-4a65-b16d-e1c20cfe6466"},"vehicle_type_id":"4","last_reported":1701803106,"current_range_meters":12000,"station_id":"ce4bho92rcd13ifvqh4g","pricing_plan_id":"free"},{"bike_id":"6f069aab-0dfd-4bb1-a7c7-dafdd20df186","system_id":"levelo_inurba_marseille","lat":43.279952,"lon":5.400085,"is_reserved":false,"is_disabled":false,"rental_uris":{"android":"levelo://app?vid=6f069aab-0dfd-4bb1-a7c7-dafdd20df186","ios":"levelo://app?vid=6f069aab-0dfd-4bb1-a7c7-dafdd20df186"},"vehicle_type_id":"4","last_reported":1701803106,"current_range_meters":29200,"station_id":"ce4bho92rcd13ifvqh4g","pricing_plan_id":"free"},{"bike_id":"2d0b3718-12ab-42ba-a7ed-eeb40b410813","system_id":"levelo_inurba_marseille","lat":43.310785,"lon":5.424305,"is_reserved":false,"is_disabled":false,"rental_uris":{"android":"levelo://app?vid=2d0b3718-12ab-42ba-a7ed-eeb40b410813","ios":"levelo://app?vid=2d0b3718-12ab-42ba-a7ed-eeb40b410813"},"vehicle_type_id":"4","last_reported":1701803106,"current_range_meters":9600,"station_id":"ce4bhp92rcd13ifvqhag","pricing_plan_id":"free"},{"bike_id":"910fd3aa-d2e0-4553-894a-6161d41c7fcd","system_id":"levelo_inurba_marseille","lat":43.275771,"lon":5.39537,"is_reserved":false,"is_disabled":false,"rental_uris":{"android":"levelo://app?vid=910fd3aa-d2e0-4553-894a-6161d41c7fcd","ios":"levelo://app?vid=910fd3aa-d2e0-4553-894a-6161d41c7fcd"},"vehicle_type_id":"4","last_reported":1701803106,"current_range_meters":5200,"station_id":"","pricing_plan_id":"free"},{"bike_id":"2615fe5d-4489-4bc3-9c35-c72e8cf15432","system_id":"levelo_inurba_marseille","lat":43.273125,"lon":5.390731,"is_reserved":false,"is_disabled":false,"rental_uris":{"android":"levelo://app?vid=2615fe5d-4489-4bc3-9c35-c72e8cf15432","ios":"levelo://app?vid=2615fe5d-4489-4bc3-9c35-c72e8cf15432"},"vehicle_type_id":"4","last_reported":1701803106,"current_range_meters":19600,"station_id":"ce4bhgp2rcd13ifvqfe0","pricing_plan_id":"free"},{"bike_id":"4bef7c23-6dcc-424c-ba7f-bc9af1aa3c09","system_id":"levelo_inurba_marseille","lat":43.304096,"lon":5.425385,"is_reserved":false,"is_disabled":false,"rental_uris":{"android":"levelo://app?vid=4bef7c23-6dcc-424c-ba7f-bc9af1aa3c09","ios":"levelo://app?vid=4bef7c23-6dcc-424c-ba7f-bc9af1aa3c09"},"vehicle_type_id":"4","last_reported":1701803106,"current_range_meters":3200,"station_id":"ce4bhoh2rcd13ifvqh6g","pricing_plan_id":"free"},{"bike_id":"a11fb346-e9c7-4f14-b9d0-d97adcd5dbd2","system_id":"levelo_inurba_marseille","lat":43.295523,"lon":5.422926,"is_reserved":false,"is_disabled":false,"rental_uris":{"android":"levelo://app?vid=a11fb346-e9c7-4f14-b9d0-d97adcd5dbd2","ios":"levelo://app?vid=a11fb346-e9c7-4f14-b9d0-d97adcd5dbd2"},"vehicle_type_id":"4","last_reported":1701803106,"current_range_meters":31600,"station_id":"ce4bhph2rcd13ifvqhdg","pricing_plan_id":"free"},{"bike_id":"e59609f1-3b9c-4b3f-a55d-086a51d2b364","system_id":"levelo_inurba_marseille","lat":43.295523,"lon":5.422926,"is_reserved":false,"is_disabled":false,"rental_uris":{"android":"levelo://app?vid=e59609f1-3b9c-4b3f-a55d-086a51d2b364","ios":"levelo://app?vid=e59609f1-3b9c-4b3f-a55d-086a51d2b364"},"vehicle_type_id":"4","last_reported":1701803106,"current_range_meters":5600,"station_id":"ce4bhph2rcd13ifvqhdg","pricing_plan_id":"free"},{"bike_id":"44b7e749-26e2-4b57-bc9c-9a6ffa54d913","system_id":"levelo_inurba_marseille","lat":43.295511,"lon":5.422926,"is_reserved":false,"is_disabled":false,"rental_uris":{"android":"levelo://app?vid=44b7e749-26e2-4b57-bc9c-9a6ffa54d913","ios":"levelo://app?vid=44b7e749-26e2-4b57-bc9c-9a6ffa54d913"},"vehicle_type_id":"4","last_reported":1701803106,"current_range_meters":27200,"station_id":"ce4bhph2rcd13ifvqhdg","pricing_plan_id":"free"},{"bike_id":"30606be1-5b96-4f23-bf9b-1a637fac67ac","system_id":"levelo_inurba_marseille","lat":43.295511,"lon":5.422926,"is_reserved":false,"is_disabled":false,"rental_uris":{"android":"levelo://app?vid=30606be1-5b96-4f23-bf9b-1a637fac67ac","ios":"levelo://app?vid=30606be1-5b96-4f23-bf9b-1a637fac67ac"},"vehicle_type_id":"4","last_reported":1701803106,"current_range_meters":24800,"station_id":"ce4bhph2rcd13ifvqhdg","pricing_plan_id":"free"},{"bike_id":"4aaafaa4-5992-4d41-aca4-45ea537c3e9e","system_id":"levelo_inurba_marseille","lat":43.27214,"lon":5.3925,"is_reserved":false,"is_disabled":false,"rental_uris":{"android":"levelo://app?vid=4aaafaa4-5992-4d41-aca4-45ea537c3e9e","ios":"levelo://app?vid=4aaafaa4-5992-4d41-aca4-45ea537c3e9e"},"vehicle_type_id":"4","last_reported":1701803106,"current_range_meters":16000,"station_id":"","pricing_plan_id":"free"},{"bike_id":"6387321f-e07c-4811-b4e8-37442269d576","system_id":"levelo_inurba_marseille","lat":43.279498,"lon":5.410446,"is_reserved":false,"is_disabled":false,"rental_uris":{"android":"levelo://app?vid=6387321f-e07c-4811-b4e8-37442269d576","ios":"levelo://app?vid=6387321f-e07c-4811-b4e8-37442269d576"},"vehicle_type_id":"4","last_reported":1701803106,"current_range_meters":22800,"station_id":"ce4bhnp2rcd13ifvqh0g","pricing_plan_id":"free"},{"bike_id":"00216fa8-54c9-4c18-a459-5e66fdae6d0e","system_id":"levelo_inurba_marseille","lat":43.279517,"lon":5.410497,"is_reserved":false,"is_disabled":false,"rental_uris":{"android":"levelo://app?vid=00216fa8-54c9-4c18-a459-5e66fdae6d0e","ios":"levelo://app?vid=00216fa8-54c9-4c18-a459-5e66fdae6d0e"},"vehicle_type_id":"4","last_reported":1701803106,"current_range_meters":27200,"station_id":"ce4bhnp2rcd13ifvqh0g","pricing_plan_id":"free"},{"bike_id":"732281a7-1ca1-4193-9ac9-f3d031b09359","system_id":"levelo_inurba_marseille","lat":43.269319,"lon":5.389397,"is_reserved":false,"is_disabled":false,"rental_uris":{"android":"levelo://app?vid=732281a7-1ca1-4193-9ac9-f3d031b09359","ios":"levelo://app?vid=732281a7-1ca1-4193-9ac9-f3d031b09359"},"vehicle_type_id":"4","last_reported":1701803106,"current_range_meters":28400,"station_id":"ce4bhhh2rcd13ifvqfl0","pricing_plan_id":"free"},{"bike_id":"f4ded762-8fa0-449b-83c0-c1395dce86a7","system_id":"levelo_inurba_marseille","lat":43.26801,"lon":5.39406,"is_reserved":false,"is_disabled":false,"rental_uris":{"android":"levelo://app?vid=f4ded762-8fa0-449b-83c0-c1395dce86a7","ios":"levelo://app?vid=f4ded762-8fa0-449b-83c0-c1395dce86a7"},"vehicle_type_id":"4","last_reported":1701803106,"current_range_meters":22000,"station_id":"ce4bhh12rcd13ifvqfg0","pricing_plan_id":"free"},{"bike_id":"50c574f4-cf31-4c85-880b-7834ca2ade01","system_id":"levelo_inurba_marseille","lat":43.267966,"lon":5.393976,"is_reserved":false,"is_disabled":false,"rental_uris":{"android":"levelo://app?vid=50c574f4-cf31-4c85-880b-7834ca2ade01","ios":"levelo://app?vid=50c574f4-cf31-4c85-880b-7834ca2ade01"},"vehicle_type_id":"4","last_reported":1701803106,"current_range_meters":5200,"station_id":"ce4bhh12rcd13ifvqfg0","pricing_plan_id":"free"},{"bike_id":"dc4074c4-cc24-403f-a189-9d432876569f","system_id":"levelo_inurba_marseille","lat":43.26947,"lon":5.39987,"is_reserved":false,"is_disabled":false,"rental_uris":{"android":"levelo://app?vid=dc4074c4-cc24-403f-a189-9d432876569f","ios":"levelo://app?vid=dc4074c4-cc24-403f-a189-9d432876569f"},"vehicle_type_id":"4","last_reported":1701803106,"current_range_meters":0,"station_id":"","pricing_plan_id":"free"},{"bike_id":"8e50a2a3-63a6-454e-bfc7-0d30cf65c822","system_id":"levelo_inurba_marseille","lat":43.308051,"lon":5.43527,"is_reserved":false,"is_disabled":false,"rental_uris":{"android":"levelo://app?vid=8e50a2a3-63a6-454e-bfc7-0d30cf65c822","ios":"levelo://app?vid=8e50a2a3-63a6-454e-bfc7-0d30cf65c822"},"vehicle_type_id":"4","last_reported":1701803106,"current_range_meters":30000,"station_id":"ce4bhph2rcd13ifvqheg","pricing_plan_id":"free"},{"bike_id":"7106ae36-3962-411b-98e3-0ab14b8230bb","system_id":"levelo_inurba_marseille","lat":43.265571,"lon":5.390032,"is_reserved":false,"is_disabled":false,"rental_uris":{"android":"levelo://app?vid=7106ae36-3962-411b-98e3-0ab14b8230bb","ios":"levelo://app?vid=7106ae36-3962-411b-98e3-0ab14b8230bb"},"vehicle_type_id":"4","last_reported":1701803106,"current_range_meters":13200,"station_id":"ce4bhe12rcd13ifvqf30","pricing_plan_id":"free"},{"bike_id":"4f34044e-b6b5-4f45-aa26-16b610aacef7","system_id":"levelo_inurba_marseille","lat":43.317104,"lon":5.436818,"is_reserved":false,"is_disabled":false,"rental_uris":{"android":"levelo://app?vid=4f34044e-b6b5-4f45-aa26-16b610aacef7","ios":"levelo://app?vid=4f34044e-b6b5-4f45-aa26-16b610aacef7"},"vehicle_type_id":"4","last_reported":1701803106,"current_range_meters":28400,"station_id":"ce4bhp92rcd13ifvqhcg","pricing_plan_id":"free"},{"bike_id":"39d0c53e-50cf-439d-836a-11d14d8b7dc5","system_id":"levelo_inurba_marseille","lat":43.317104,"lon":5.436818,"is_reserved":false,"is_disabled":false,"rental_uris":{"android":"levelo://app?vid=39d0c53e-50cf-439d-836a-11d14d8b7dc5","ios":"levelo://app?vid=39d0c53e-50cf-439d-836a-11d14d8b7dc5"},"vehicle_type_id":"4","last_reported":1701803106,"current_range_meters":26400,"station_id":"ce4bhp92rcd13ifvqhcg","pricing_plan_id":"free"},{"bike_id":"37038aca-97ca-4cb2-81d0-9a4826818ca5","system_id":"levelo_inurba_marseille","lat":43.26202,"lon":5.379299,"is_reserved":false,"is_disabled":false,"rental_uris":{"android":"levelo://app?vid=37038aca-97ca-4cb2-81d0-9a4826818ca5","ios":"levelo://app?vid=37038aca-97ca-4cb2-81d0-9a4826818ca5"},"vehicle_type_id":"4","last_reported":1701803106,"current_range_meters":22800,"station_id":"ce4bhjp2rcd13ifvqg90","pricing_plan_id":"free"},{"bike_id":"a041c02f-6c70-40e0-9127-48373298e7ce","system_id":"levelo_inurba_marseille","lat":43.271388,"lon":5.409269,"is_reserved":false,"is_disabled":false,"rental_uris":{"android":"levelo://app?vid=a041c02f-6c70-40e0-9127-48373298e7ce","ios":"levelo://app?vid=a041c02f-6c70-40e0-9127-48373298e7ce"},"vehicle_type_id":"4","last_reported":1701803106,"current_range_meters":800,"station_id":"ce4bhl12rcd13ifvqgf0","pricing_plan_id":"free"},{"bike_id":"037482d9-5565-4803-b381-e11c7c214e7d","system_id":"levelo_inurba_marseille","lat":43.271368,"lon":5.40928,"is_reserved":false,"is_disabled":false,"rental_uris":{"android":"levelo://app?vid=037482d9-5565-4803-b381-e11c7c214e7d","ios":"levelo://app?vid=037482d9-5565-4803-b381-e11c7c214e7d"},"vehicle_type_id":"4","last_reported":1701803106,"current_range_meters":30400,"station_id":"ce4bhl12rcd13ifvqgf0","pricing_plan_id":"free"},{"bike_id":"f1bbdaec-be2b-4c72-a04a-1ba0cb58cecb","system_id":"levelo_inurba_marseille","lat":43.271368,"lon":5.40928,"is_reserved":false,"is_disabled":false,"rental_uris":{"android":"levelo://app?vid=f1bbdaec-be2b-4c72-a04a-1ba0cb58cecb","ios":"levelo://app?vid=f1bbdaec-be2b-4c72-a04a-1ba0cb58cecb"},"vehicle_type_id":"4","last_reported":1701803106,"current_range_meters":16000,"station_id":"ce4bhl12rcd13ifvqgf0","pricing_plan_id":"free"},{"bike_id":"c54cd023-a6f2-4d68-aabc-4be9f862ccbb","system_id":"levelo_inurba_marseille","lat":43.298768,"lon":5.43643,"is_reserved":false,"is_disabled":false,"rental_uris":{"android":"levelo://app?vid=c54cd023-a6f2-4d68-aabc-4be9f862ccbb","ios":"levelo://app?vid=c54cd023-a6f2-4d68-aabc-4be9f862ccbb"},"vehicle_type_id":"4","last_reported":1701803106,"current_range_meters":31200,"station_id":"ce4bhpp2rcd13ifvqhfg","pricing_plan_id":"free"},{"bike_id":"79a33485-724b-41f9-bc1d-f28cf939c45f","system_id":"levelo_inurba_marseille","lat":43.281548,"lon":5.42643,"is_reserved":false,"is_disabled":false,"rental_uris":{"android":"levelo://app?vid=79a33485-724b-41f9-bc1d-f28cf939c45f","ios":"levelo://app?vid=79a33485-724b-41f9-bc1d-f28cf939c45f"},"vehicle_type_id":"4","last_reported":1701803106,"current_range_meters":17200,"station_id":"ce4bhnh2rcd13ifvqgug","pricing_plan_id":"free"},{"bike_id":"7deb8eb5-9c2d-41c8-bbf5-93be00295e6d","system_id":"levelo_inurba_marseille","lat":43.281548,"lon":5.42643,"is_reserved":false,"is_disabled":false,"rental_uris":{"android":"levelo://app?vid=7deb8eb5-9c2d-41c8-bbf5-93be00295e6d","ios":"levelo://app?vid=7deb8eb5-9c2d-41c8-bbf5-93be00295e6d"},"vehicle_type_id":"4","last_reported":1701803106,"current_range_meters":7600,"station_id":"ce4bhnh2rcd13ifvqgug","pricing_plan_id":"free"},{"bike_id":"04084ff2-22b3-4d3a-a2b3-330bf0f68d36","system_id":"levelo_inurba_marseille","lat":43.2607,"lon":5.393983,"is_reserved":false,"is_disabled":false,"rental_uris":{"android":"levelo://app?vid=04084ff2-22b3-4d3a-a2b3-330bf0f68d36","ios":"levelo://app?vid=04084ff2-22b3-4d3a-a2b3-330bf0f68d36"},"vehicle_type_id":"4","last_reported":1701803106,"current_range_meters":14000,"station_id":"ce4bhh92rcd13ifvqfj0","pricing_plan_id":"free"},{"bike_id":"5eb11eb2-f185-4107-99f2-c9d88b83df4b","system_id":"levelo_inurba_marseille","lat":43.2607,"lon":5.393983,"is_reserved":false,"is_disabled":false,"rental_uris":{"android":"levelo://app?vid=5eb11eb2-f185-4107-99f2-c9d88b83df4b","ios":"levelo://app?vid=5eb11eb2-f185-4107-99f2-c9d88b83df4b"},"vehicle_type_id":"4","last_reported":1701803106,"current_range_meters":12800,"station_id":"ce4bhh92rcd13ifvqfj0","pricing_plan_id":"free"},{"bike_id":"4191cf86-882a-4d7f-9463-410517764665","system_id":"levelo_inurba_marseille","lat":43.2607,"lon":5.393983,"is_reserved":false,"is_disabled":false,"rental_uris":{"android":"levelo://app?vid=4191cf86-882a-4d7f-9463-410517764665","ios":"levelo://app?vid=4191cf86-882a-4d7f-9463-410517764665"},"vehicle_type_id":"4","last_reported":1701803106,"current_range_meters":18800,"station_id":"ce4bhh92rcd13ifvqfj0","pricing_plan_id":"free"},{"bike_id":"da496106-de1d-40e2-99c6-ab8f165228e8","system_id":"levelo_inurba_marseille","lat":43.26063,"lon":5.39393,"is_reserved":false,"is_disabled":false,"rental_uris":{"android":"levelo://app?vid=da496106-de1d-40e2-99c6-ab8f165228e8","ios":"levelo://app?vid=da496106-de1d-40e2-99c6-ab8f165228e8"},"vehicle_type_id":"4","last_reported":1701803106,"current_range_meters":22400,"station_id":"ce4bhh92rcd13ifvqfj0","pricing_plan_id":"free"},{"bike_id":"cf118c9d-5639-4dad-b7e1-c9f544571c67","system_id":"levelo_inurba_marseille","lat":43.2607,"lon":5.393983,"is_reserved":false,"is_disabled":false,"rental_uris":{"android":"levelo://app?vid=cf118c9d-5639-4dad-b7e1-c9f544571c67","ios":"levelo://app?vid=cf118c9d-5639-4dad-b7e1-c9f544571c67"},"vehicle_type_id":"4","last_reported":1701803106,"current_range_meters":13600,"station_id":"ce4bhh92rcd13ifvqfj0","pricing_plan_id":"free"},{"bike_id":"64dd76e8-c95e-4237-a17b-1e654cdcb968","system_id":"levelo_inurba_marseille","lat":43.2607,"lon":5.393983,"is_reserved":false,"is_disabled":false,"rental_uris":{"android":"levelo://app?vid=64dd76e8-c95e-4237-a17b-1e654cdcb968","ios":"levelo://app?vid=64dd76e8-c95e-4237-a17b-1e654cdcb968"},"vehicle_type_id":"4","last_reported":1701803106,"current_range_meters":14800,"station_id":"ce4bhh92rcd13ifvqfj0","pricing_plan_id":"free"},{"bike_id":"97c974c3-ac7e-4ddb-bea7-d5fdeb802085","system_id":"levelo_inurba_marseille","lat":43.2607,"lon":5.393983,"is_reserved":false,"is_disabled":false,"rental_uris":{"android":"levelo://app?vid=97c974c3-ac7e-4ddb-bea7-d5fdeb802085","ios":"levelo://app?vid=97c974c3-ac7e-4ddb-bea7-d5fdeb802085"},"vehicle_type_id":"4","last_reported":1701803106,"current_range_meters":10000,"station_id":"ce4bhh92rcd13ifvqfj0","pricing_plan_id":"free"},{"bike_id":"371784b5-b976-415e-a1cd-89aeb90923d3","system_id":"levelo_inurba_marseille","lat":43.25592,"lon":5.38231,"is_reserved":false,"is_disabled":false,"rental_uris":{"android":"levelo://app?vid=371784b5-b976-415e-a1cd-89aeb90923d3","ios":"levelo://app?vid=371784b5-b976-415e-a1cd-89aeb90923d3"},"vehicle_type_id":"4","last_reported":1701803106,"current_range_meters":3600,"station_id":"ce4bhih2rcd13ifvqfs0","pricing_plan_id":"free"},{"bike_id":"975e0b10-ac13-4585-8057-827f9694c26d","system_id":"levelo_inurba_marseille","lat":43.25584,"lon":5.3823,"is_reserved":false,"is_disabled":false,"rental_uris":{"android":"levelo://app?vid=975e0b10-ac13-4585-8057-827f9694c26d","ios":"levelo://app?vid=975e0b10-ac13-4585-8057-827f9694c26d"},"vehicle_type_id":"4","last_reported":1701803106,"current_range_meters":0,"station_id":"ce4bhih2rcd13ifvqfs0","pricing_plan_id":"free"},{"bike_id":"5a2f82b0-e960-4e11-9c0a-f261e4708c81","system_id":"levelo_inurba_marseille","lat":43.25585,"lon":5.38244,"is_reserved":false,"is_disabled":false,"rental_uris":{"android":"levelo://app?vid=5a2f82b0-e960-4e11-9c0a-f261e4708c81","ios":"levelo://app?vid=5a2f82b0-e960-4e11-9c0a-f261e4708c81"},"vehicle_type_id":"4","last_reported":1701803106,"current_range_meters":10000,"station_id":"ce4bhih2rcd13ifvqfs0","pricing_plan_id":"free"},{"bike_id":"626ce1ef-7353-408f-8e05-38a68529131e","system_id":"levelo_inurba_marseille","lat":43.25574,"lon":5.3823,"is_reserved":false,"is_disabled":false,"rental_uris":{"android":"levelo://app?vid=626ce1ef-7353-408f-8e05-38a68529131e","ios":"levelo://app?vid=626ce1ef-7353-408f-8e05-38a68529131e"},"vehicle_type_id":"4","last_reported":1701803106,"current_range_meters":11600,"station_id":"ce4bhih2rcd13ifvqfs0","pricing_plan_id":"free"},{"bike_id":"746dd18f-36f2-4b11-b2b6-736d3177f113","system_id":"levelo_inurba_marseille","lat":43.254947,"lon":5.376454,"is_reserved":false,"is_disabled":false,"rental_uris":{"android":"levelo://app?vid=746dd18f-36f2-4b11-b2b6-736d3177f113","ios":"levelo://app?vid=746dd18f-36f2-4b11-b2b6-736d3177f113"},"vehicle_type_id":"4","last_reported":1701803106,"current_range_meters":4800,"station_id":"ce4bhh12rcd13ifvqff0","pricing_plan_id":"free"},{"bike_id":"8ba65509-d2be-462e-8abc-a9979dc9222f","system_id":"levelo_inurba_marseille","lat":43.258658,"lon":5.398935,"is_reserved":false,"is_disabled":false,"rental_uris":{"android":"levelo://app?vid=8ba65509-d2be-462e-8abc-a9979dc9222f","ios":"levelo://app?vid=8ba65509-d2be-462e-8abc-a9979dc9222f"},"vehicle_type_id":"4","last_reported":1701803106,"current_range_meters":0,"station_id":"ce4bhl92rcd13ifvqghg","pricing_plan_id":"free"},{"bike_id":"85461d52-108f-4674-9751-e4e6d032a0f3","system_id":"levelo_inurba_marseille","lat":43.25727,"lon":5.41107,"is_reserved":false,"is_disabled":false,"rental_uris":{"android":"levelo://app?vid=85461d52-108f-4674-9751-e4e6d032a0f3","ios":"levelo://app?vid=85461d52-108f-4674-9751-e4e6d032a0f3"},"vehicle_type_id":"4","last_reported":1701803106,"current_range_meters":14000,"station_id":"ce4bhkp2rcd13ifvqgd0","pricing_plan_id":"free"},{"bike_id":"12cbe630-05b0-4088-92e4-99c0ab782742","system_id":"levelo_inurba_marseille","lat":43.250966,"lon":5.395186,"is_reserved":false,"is_disabled":false,"rental_uris":{"android":"levelo://app?vid=12cbe630-05b0-4088-92e4-99c0ab782742","ios":"levelo://app?vid=12cbe630-05b0-4088-92e4-99c0ab782742"},"vehicle_type_id":"4","last_reported":1701803106,"current_range_meters":18800,"station_id":"ce4bhm12rcd13ifvqgkg","pricing_plan_id":"free"},{"bike_id":"96da180c-7b6f-4c60-8c7c-dbf05c2d449c","system_id":"levelo_inurba_marseille","lat":43.250966,"lon":5.395186,"is_reserved":false,"is_disabled":false,"rental_uris":{"android":"levelo://app?vid=96da180c-7b6f-4c60-8c7c-dbf05c2d449c","ios":"levelo://app?vid=96da180c-7b6f-4c60-8c7c-dbf05c2d449c"},"vehicle_type_id":"4","last_reported":1701803106,"current_range_meters":10400,"station_id":"ce4bhm12rcd13ifvqgkg","pricing_plan_id":"free"},{"bike_id":"7fa12c18-a7c6-491a-85c1-eafba9158c72","system_id":"levelo_inurba_marseille","lat":43.24666,"lon":5.38157,"is_reserved":false,"is_disabled":false,"rental_uris":{"android":"levelo://app?vid=7fa12c18-a7c6-491a-85c1-eafba9158c72","ios":"levelo://app?vid=7fa12c18-a7c6-491a-85c1-eafba9158c72"},"vehicle_type_id":"4","last_reported":1701803106,"current_range_meters":25200,"station_id":"ce4bhih2rcd13ifvqfr0","pricing_plan_id":"free"},{"bike_id":"db547acd-01a2-4bbc-8a8e-895ac2d3f5d2","system_id":"levelo_inurba_marseille","lat":43.25102,"lon":5.403214,"is_reserved":false,"is_disabled":false,"rental_uris":{"android":"levelo://app?vid=db547acd-01a2-4bbc-8a8e-895ac2d3f5d2","ios":"levelo://app?vid=db547acd-01a2-4bbc-8a8e-895ac2d3f5d2"},"vehicle_type_id":"4","last_reported":1701803106,"current_range_meters":8000,"station_id":"ce4bhlh2rcd13ifvqgig","pricing_plan_id":"free"},{"bike_id":"ab201173-918a-4bbe-9016-94855c8a43d5","system_id":"levelo_inurba_marseille","lat":43.25102,"lon":5.403214,"is_reserved":false,"is_disabled":false,"rental_uris":{"android":"levelo://app?vid=ab201173-918a-4bbe-9016-94855c8a43d5","ios":"levelo://app?vid=ab201173-918a-4bbe-9016-94855c8a43d5"},"vehicle_type_id":"4","last_reported":1701803106,"current_range_meters":15200,"station_id":"ce4bhlh2rcd13ifvqgig","pricing_plan_id":"free"},{"bike_id":"cc6be384-9481-4fff-ad0d-141803035e72","system_id":"levelo_inurba_marseille","lat":43.243884,"lon":5.370737,"is_reserved":false,"is_disabled":false,"rental_uris":{"android":"levelo://app?vid=cc6be384-9481-4fff-ad0d-141803035e72","ios":"levelo://app?vid=cc6be384-9481-4fff-ad0d-141803035e72"},"vehicle_type_id":"4","last_reported":1701803106,"current_range_meters":27600,"station_id":"ce4bhhh2rcd13ifvqfk0","pricing_plan_id":"free"},{"bike_id":"dd7b296b-b4aa-4ff2-8761-7068ad33f081","system_id":"levelo_inurba_marseille","lat":43.240623,"lon":5.377642,"is_reserved":false,"is_disabled":false,"rental_uris":{"android":"levelo://app?vid=dd7b296b-b4aa-4ff2-8761-7068ad33f081","ios":"levelo://app?vid=dd7b296b-b4aa-4ff2-8761-7068ad33f081"},"vehicle_type_id":"4","last_reported":1701803106,"current_range_meters":12000,"station_id":"ce4bhnp2rcd13ifvqgvg","pricing_plan_id":"free"},{"bike_id":"997fd2e8-a739-42e8-907b-cbaffd16bd36","system_id":"levelo_inurba_marseille","lat":43.240623,"lon":5.377642,"is_reserved":false,"is_disabled":false,"rental_uris":{"android":"levelo://app?vid=997fd2e8-a739-42e8-907b-cbaffd16bd36","ios":"levelo://app?vid=997fd2e8-a739-42e8-907b-cbaffd16bd36"},"vehicle_type_id":"4","last_reported":1701803106,"current_range_meters":29200,"station_id":"ce4bhnp2rcd13ifvqgvg","pricing_plan_id":"free"},{"bike_id":"df4802ce-495b-4417-a15f-c7720679d879","system_id":"levelo_inurba_marseille","lat":43.240623,"lon":5.377642,"is_reserved":false,"is_disabled":false,"rental_uris":{"android":"levelo://app?vid=df4802ce-495b-4417-a15f-c7720679d879","ios":"levelo://app?vid=df4802ce-495b-4417-a15f-c7720679d879"},"vehicle_type_id":"4","last_reported":1701803106,"current_range_meters":14400,"station_id":"ce4bhnp2rcd13ifvqgvg","pricing_plan_id":"free"},{"bike_id":"352f574b-c452-4c3b-8642-6864ebc083d1","system_id":"levelo_inurba_marseille","lat":43.23971,"lon":5.36616,"is_reserved":false,"is_disabled":false,"rental_uris":{"android":"levelo://app?vid=352f574b-c452-4c3b-8642-6864ebc083d1","ios":"levelo://app?vid=352f574b-c452-4c3b-8642-6864ebc083d1"},"vehicle_type_id":"4","last_reported":1701803106,"current_range_meters":0,"station_id":"ce4bhi12rcd13ifvqfp0","pricing_plan_id":"free"},{"bike_id":"04b00323-44dc-4556-add8-5a131157a4f0","system_id":"levelo_inurba_marseille","lat":43.24401,"lon":5.401607,"is_reserved":false,"is_disabled":false,"rental_uris":{"android":"levelo://app?vid=04b00323-44dc-4556-add8-5a131157a4f0","ios":"levelo://app?vid=04b00323-44dc-4556-add8-5a131157a4f0"},"vehicle_type_id":"4","last_reported":1701803106,"current_range_meters":1600,"station_id":"","pricing_plan_id":"free"},{"bike_id":"ad6746a2-afd9-4380-a762-be50dc0d2f0f","system_id":"levelo_inurba_marseille","lat":43.241782,"lon":5.397261,"is_reserved":false,"is_disabled":false,"rental_uris":{"android":"levelo://app?vid=ad6746a2-afd9-4380-a762-be50dc0d2f0f","ios":"levelo://app?vid=ad6746a2-afd9-4380-a762-be50dc0d2f0f"},"vehicle_type_id":"4","last_reported":1701803106,"current_range_meters":25600,"station_id":"ce4bhn12rcd13ifvqgpg","pricing_plan_id":"free"},{"bike_id":"85af6b96-920b-4202-8829-424462fbb16a","system_id":"levelo_inurba_marseille","lat":43.241782,"lon":5.397261,"is_reserved":false,"is_disabled":false,"rental_uris":{"android":"levelo://app?vid=85af6b96-920b-4202-8829-424462fbb16a","ios":"levelo://app?vid=85af6b96-920b-4202-8829-424462fbb16a"},"vehicle_type_id":"4","last_reported":1701803106,"current_range_meters":19200,"station_id":"ce4bhn12rcd13ifvqgpg","pricing_plan_id":"free"},{"bike_id":"83bb2897-9a21-4f10-bd03-e2bc9777e287","system_id":"levelo_inurba_marseille","lat":43.241782,"lon":5.397261,"is_reserved":false,"is_disabled":false,"rental_uris":{"android":"levelo://app?vid=83bb2897-9a21-4f10-bd03-e2bc9777e287","ios":"levelo://app?vid=83bb2897-9a21-4f10-bd03-e2bc9777e287"},"vehicle_type_id":"4","last_reported":1701803106,"current_range_meters":12800,"station_id":"ce4bhn12rcd13ifvqgpg","pricing_plan_id":"free"},{"bike_id":"cf3102c4-88e0-4a41-86b7-69a76932d3e6","system_id":"levelo_inurba_marseille","lat":43.231923,"lon":5.355545,"is_reserved":false,"is_disabled":false,"rental_uris":{"android":"levelo://app?vid=cf3102c4-88e0-4a41-86b7-69a76932d3e6","ios":"levelo://app?vid=cf3102c4-88e0-4a41-86b7-69a76932d3e6"},"vehicle_type_id":"4","last_reported":1701803106,"current_range_meters":32000,"station_id":"ce4bhu92rcd13ifvqi70","pricing_plan_id":"free"},{"bike_id":"7ae9092d-f687-4103-895b-5b378b9914a3","system_id":"levelo_inurba_marseille","lat":43.23194,"lon":5.35558,"is_reserved":false,"is_disabled":false,"rental_uris":{"android":"levelo://app?vid=7ae9092d-f687-4103-895b-5b378b9914a3","ios":"levelo://app?vid=7ae9092d-f687-4103-895b-5b378b9914a3"},"vehicle_type_id":"4","last_reported":1701803106,"current_range_meters":1600,"station_id":"ce4bhu92rcd13ifvqi70","pricing_plan_id":"free"},{"bike_id":"e2fb0602-0025-4bc2-a80e-ca4c6079bddc","system_id":"levelo_inurba_marseille","lat":43.231923,"lon":5.355545,"is_reserved":false,"is_disabled":false,"rental_uris":{"android":"levelo://app?vid=e2fb0602-0025-4bc2-a80e-ca4c6079bddc","ios":"levelo://app?vid=e2fb0602-0025-4bc2-a80e-ca4c6079bddc"},"vehicle_type_id":"4","last_reported":1701803106,"current_range_meters":5200,"station_id":"ce4bhu92rcd13ifvqi70","pricing_plan_id":"free"},{"bike_id":"d868c0b5-242c-4b9f-b108-cbde91aaec79","system_id":"levelo_inurba_marseille","lat":43.231923,"lon":5.355545,"is_reserved":false,"is_disabled":false,"rental_uris":{"android":"levelo://app?vid=d868c0b5-242c-4b9f-b108-cbde91aaec79","ios":"levelo://app?vid=d868c0b5-242c-4b9f-b108-cbde91aaec79"},"vehicle_type_id":"4","last_reported":1701803106,"current_range_meters":24000,"station_id":"ce4bhu92rcd13ifvqi70","pricing_plan_id":"free"},{"bike_id":"b988d3fe-c649-4089-ae26-b7efbdfc136a","system_id":"levelo_inurba_marseille","lat":43.231794,"lon":5.400052,"is_reserved":false,"is_disabled":false,"rental_uris":{"android":"levelo://app?vid=b988d3fe-c649-4089-ae26-b7efbdfc136a","ios":"levelo://app?vid=b988d3fe-c649-4089-ae26-b7efbdfc136a"},"vehicle_type_id":"4","last_reported":1701803106,"current_range_meters":31200,"station_id":"ce4bhn12rcd13ifvqgqg","pricing_plan_id":"free"},{"bike_id":"e9e62f9b-b2fe-4312-af15-bcf56f0a2f27","system_id":"levelo_inurba_marseille","lat":43.231794,"lon":5.400052,"is_reserved":false,"is_disabled":false,"rental_uris":{"android":"levelo://app?vid=e9e62f9b-b2fe-4312-af15-bcf56f0a2f27","ios":"levelo://app?vid=e9e62f9b-b2fe-4312-af15-bcf56f0a2f27"},"vehicle_type_id":"4","last_reported":1701803106,"current_range_meters":24400,"station_id":"ce4bhn12rcd13ifvqgqg","pricing_plan_id":"free"}]}}