{"last_updated":1738854579,"ttl":60,"version":"2.2","data":{"bikes":[{"bike_id":"7d0de4e4-e772-4199-bdb0-6f113b1b2206","system_id":"levelo_inurba_marseille","lat":43.29621,"lon":5.37165,"is_reserved":false,"is_disabled":false,"rental_uris":{"android":"levelo://app?vid=7d0de4e4-e772-4199-bdb0-6f113b1b2206","ios":"levelo://app?vid=7d0de4e4-e772-4199-bdb0-6f113b1b2206"},"vehicle_type_id":"4","last_reported":1738854579,"current_range_meters":38800,"station_id":"ce4bgnh2rcd13ifvqc0g","pricing_plan_id":"cebpf4jnsgd1na2vs0mg"},{"bike_id":"7912860c-6b77-4ff7-92ae-782e17139b69","system_id":"levelo_inurba_marseille","lat":43.29004,"lon":5.35621,"is_reserved":false,"is_disabled":false,"rental_uris":{"android":"levelo://app?vid=7912860c-6b77-4ff7-92ae-782e17139b69","ios":"levelo://app?vid=7912860c-6b77-4ff7-92ae-782e17139b69"},"vehicle_type_id":"4","last_reported":1738854579,"current_range_meters":26800,"station_id":"ce4bhb92rcd13ifvqen0","pricing_plan_id":"cebpf4jnsgd1na2vs0mg"},{"bike_id":"439a80f2-376f-494c-a787-68e5bd0fd5f4","system_id":"levelo_inurba_marseille","lat":43.29631,"lon":5.37158,"is_reserved":false,"is_disabled":false,"rental_uris":{"android":"levelo://app?vid=439a80f2-376f-494c-a787-68e5bd0fd5f4","ios":"levelo://app?vid=439a80f2-376f-494c-a787-68e5bd0fd5f4"},"vehicle_type_id":"4","last_reported":1738854579,"current_range_meters":39200,"station_id":"ce4bgnh2rcd13ifvqc0g","pricing_plan_id":"cebpf4jnsgd1na2vs0mg"},{"bike_id":"6f1b8212-3f5a-4978-864e-5e174cc6fd25","system_id":"levelo_inurba_marseille","lat":43.29554,"lon":5.42274,"is_reserved":false,"is_disabled":false,"rental_uris":{"android":"levelo://app?vid=6f1b8212-3f5a-4978-864e-5e174cc6fd25","ios":"levelo://app?vid=6f1b8212-3f5a-4978-864e-5e174cc6fd25"},"vehicle_type_id":"4","last_reported":1738854579,"current_range_meters":38800,"station_id":"ce4bhph2rcd13ifvqhdg","pricing_plan_id":"cebpf4jnsgd1na2vs0mg"},{"bike_id":"9ca7ff96-ee45-4e69-8625-df2bd12606a3","system_id":"levelo_inurba_marseille","lat":43.28632,"lon":5.39138,"is_reserved":false,"is_disabled":false,"rental_uris":{"android":"levelo://app?vid=9ca7ff96-ee45-4e69-8625-df2bd12606a3","ios":"levelo://app?vid=9ca7ff96-ee45-4e69-8625-df2bd12606a3"},"vehicle_type_id":"4","last_reported":1738854579,"current_range_meters":19200,"station_id":"","pricing_plan_id":"cebpf4jnsgd1na2vs0mg"},{"bike_id":"413a18e4-efee-4bc1-9f95-cc6475853115","system_id":"levelo_inurba_marseille","lat":43.28719,"lon":5.36091,"is_reserved":false,"is_disabled":false,"rental_uris":{"android":"levelo://app?vid=413a18e4-efee-4bc1-9f95-cc6475853115","ios":"levelo://app?vid=413a18e4-efee-4bc1-9f95-cc6475853115"},"vehicle_type_id":"4","last_reported":1738854579,"current_range_meters":10000,"station_id":"cki0cbj6b192h4jlfktg","pricing_plan_id":"cebpf4jnsgd1na2vs0mg"},{"bike_id":"e27e81e7-d6f5-4a7d-aa5d-d125bd3e95c8","system_id":"levelo_inurba_marseille","lat":43.27901,"lon":5.38021,"is_reserved":false,"is_disabled":false,"rental_uris":{"android":"levelo://app?vid=e27e81e7-d6f5-4a7d-aa5d-d125bd3e95c8","ios":"levelo://app?vid=e27e81e7-d6f5-4a7d-aa5d-d125bd3e95c8"},"vehicle_type_id":"4","last_reported":1738854579,"current_range_meters":2800,"station_id":"ce4bhf92rcd13ifvqf50","pricing_plan_id":"cebpf4jnsgd1na2vs0mg"},{"bike_id":"e0b2e6e3-cf3f-43ff-a27b-9a7676c8271e","system_id":"levelo_inurba_marseille","lat":43.23179,"lon":5.39986,"is_reserved":false,"is_disabled":false,"rental_uris":{"android":"levelo://app?vid=e0b2e6e3-cf3f-43ff-a27b-9a7676c8271e","ios":"levelo://app?vid=e0b2e6e3-cf3f-43ff-a27b-9a7676c8271e"},"vehicle_type_id":"4","last_reported":1738854579,"current_range_meters":16800,"station_id":"ce4bhn12rcd13ifvqgqg","pricing_plan_id":"cebpf4jnsgd1na2vs0mg"},{"bike_id":"d5b37db6-16da-4f4d-8819-316ead4e67a1","system_id":"levelo_inurba_marseille","lat":43.27914,"lon":5.3958,"is_reserved":false,"is_disabled":false,"rental_uris":{"android":"levelo://app?vid=d5b37db6-16da-4f4d-8819-316ead4e67a1","ios":"levelo://app?vid=d5b37db6-16da-4f4d-8819-316ead4e67a1"},"vehicle_type_id":"4","last_reported":1738854579,"current_range_meters":29600,"station_id":"ce4bhf92rcd13ifvqf40","pricing_plan_id":"cebpf4jnsgd1na2vs0mg"},{"bike_id":"2d98ff86-3f94-4b31-9dce-0e174f27ffc5","system_id":"levelo_inurba_marseille","lat":43.259316,"lon":5.408872,"is_reserved":false,"is_disabled":false,"rental_uris":{"android":"levelo://app?vid=2d98ff86-3f94-4b31-9dce-0e174f27ffc5","ios":"levelo://app?vid=2d98ff86-3f94-4b31-9dce-0e174f27ffc5"},"vehicle_type_id":"4","last_reported":1738854579,"current_range_meters":22400,"station_id":"ce4bhm92rcd13ifvqglg","pricing_plan_id":"cebpf4jnsgd1na2vs0mg"},{"bike_id":"e22f94dc-e975-4e2e-af70-afb33d91f643","system_id":"levelo_inurba_marseille","lat":43.29369,"lon":5.37854,"is_reserved":false,"is_disabled":false,"rental_uris":{"android":"levelo://app?vid=e22f94dc-e975-4e2e-af70-afb33d91f643","ios":"levelo://app?vid=e22f94dc-e975-4e2e-af70-afb33d91f643"},"vehicle_type_id":"4","last_reported":1738854579,"current_range_meters":39200,"station_id":"ce4bgjh2rcd13ifvqbf0","pricing_plan_id":"cebpf4jnsgd1na2vs0mg"},{"bike_id":"88cbe04e-dd45-4e70-9780-4d6b99bb0bc1","system_id":"levelo_inurba_marseille","lat":43.31329,"lon":5.39684,"is_reserved":false,"is_disabled":false,"rental_uris":{"android":"levelo://app?vid=88cbe04e-dd45-4e70-9780-4d6b99bb0bc1","ios":"levelo://app?vid=88cbe04e-dd45-4e70-9780-4d6b99bb0bc1"},"vehicle_type_id":"4","last_reported":1738854579,"current_range_meters":7200,"station_id":"ce4bgvp2rcd13ifvqcu0","pricing_plan_id":"cebpf4jnsgd1na2vs0mg"},{"bike_id":"709ce14b-cfc9-4755-a640-f66258545c74","system_id":"levelo_inurba_marseille","lat":43.30885,"lon":5.39656,"is_reserved":false,"is_disabled":false,"rental_uris":{"android":"levelo://app?vid=709ce14b-cfc9-4755-a640-f66258545c74","ios":"levelo://app?vid=709ce14b-cfc9-4755-a640-f66258545c74"},"vehicle_type_id":"4","last_reported":1738854579,"current_range_meters":20000,"station_id":"ce4bh012rcd13ifvqcv0","pricing_plan_id":"cebpf4jnsgd1na2vs0mg"},{"bike_id":"86151073-5ab6-4193-b2fc-49345d53c5ef","system_id":"levelo_inurba_marseille","lat":43.283473,"lon":5.381045,"is_reserved":false,"is_disabled":false,"rental_uris":{"android":"levelo://app?vid=86151073-5ab6-4193-b2fc-49345d53c5ef","ios":"levelo://app?vid=86151073-5ab6-4193-b2fc-49345d53c5ef"},"vehicle_type_id":"4","last_reported":1738854579,"current_range_meters":33200,"station_id":"ce4bh412rcd13ifvqdr0","pricing_plan_id":"cebpf4jnsgd1na2vs0mg"},{"bike_id":"3459a023-cb2f-4ad6-ae80-3901e6f4e65a","system_id":"levelo_inurba_marseille","lat":43.25006,"lon":5.38911,"is_reserved":false,"is_disabled":false,"rental_uris":{"android":"levelo://app?vid=3459a023-cb2f-4ad6-ae80-3901e6f4e65a","ios":"levelo://app?vid=3459a023-cb2f-4ad6-ae80-3901e6f4e65a"},"vehicle_type_id":"4","last_reported":1738854579,"current_range_meters":36400,"station_id":"ce4bhgp2rcd13ifvqfd0","pricing_plan_id":"cebpf4jnsgd1na2vs0mg"},{"bike_id":"41c1cf47-37de-4159-b012-644d45dfb96d","system_id":"levelo_inurba_marseille","lat":43.25842,"lon":5.39416,"is_reserved":false,"is_disabled":false,"rental_uris":{"android":"levelo://app?vid=41c1cf47-37de-4159-b012-644d45dfb96d","ios":"levelo://app?vid=41c1cf47-37de-4159-b012-644d45dfb96d"},"vehicle_type_id":"4","last_reported":1738854579,"current_range_meters":10800,"station_id":"ce4bhip2rcd13ifvqft0","pricing_plan_id":"cebpf4jnsgd1na2vs0mg"},{"bike_id":"9a6c390a-9207-4796-b855-17826ae69ef5","system_id":"levelo_inurba_marseille","lat":43.32544,"lon":5.4144,"is_reserved":false,"is_disabled":false,"rental_uris":{"android":"levelo://app?vid=9a6c390a-9207-4796-b855-17826ae69ef5","ios":"levelo://app?vid=9a6c390a-9207-4796-b855-17826ae69ef5"},"vehicle_type_id":"4","last_reported":1738854579,"current_range_meters":32800,"station_id":"ce4bhq12rcd13ifvqhhg","pricing_plan_id":"cebpf4jnsgd1na2vs0mg"},{"bike_id":"5d524f49-c8d7-4c2c-b150-58b91b2ef2e6","system_id":"levelo_inurba_marseille","lat":43.30554,"lon":5.36705,"is_reserved":false,"is_disabled":false,"rental_uris":{"android":"levelo://app?vid=5d524f49-c8d7-4c2c-b150-58b91b2ef2e6","ios":"levelo://app?vid=5d524f49-c8d7-4c2c-b150-58b91b2ef2e6"},"vehicle_type_id":"4","last_reported":1738854579,"current_range_meters":30800,"station_id":"ce4bgrp2rcd13ifvqc9g","pricing_plan_id":"cebpf4jnsgd1na2vs0mg"},{"bike_id":"475f847f-2abd-407e-85c1-23b5103f485f","system_id":"levelo_inurba_marseille","lat":43.26212,"lon":5.37443,"is_reserved":false,"is_disabled":false,"rental_uris":{"android":"levelo://app?vid=475f847f-2abd-407e-85c1-23b5103f485f","ios":"levelo://app?vid=475f847f-2abd-407e-85c1-23b5103f485f"},"vehicle_type_id":"4","last_reported":1738854579,"current_range_meters":38800,"station_id":"ce4bhgp2rcd13ifvqfc0","pricing_plan_id":"cebpf4jnsgd1na2vs0mg"},{"bike_id":"f71cfc37-58ac-4619-b554-407a661a0b99","system_id":"levelo_inurba_marseille","lat":43.29829,"lon":5.39747,"is_reserved":false,"is_disabled":false,"rental_uris":{"android":"levelo://app?vid=f71cfc37-58ac-4619-b554-407a661a0b99","ios":"levelo://app?vid=f71cfc37-58ac-4619-b554-407a661a0b99"},"vehicle_type_id":"4","last_reported":1738854579,"current_range_meters":16400,"station_id":"ce4bh0h2rcd13ifvqd50","pricing_plan_id":"cebpf4jnsgd1na2vs0mg"},{"bike_id":"aa874f21-4899-4c94-ac56-d6c355723cbb","system_id":"levelo_inurba_marseille","lat":43.231864,"lon":5.399832,"is_reserved":false,"is_disabled":false,"rental_uris":{"android":"levelo://app?vid=aa874f21-4899-4c94-ac56-d6c355723cbb","ios":"levelo://app?vid=aa874f21-4899-4c94-ac56-d6c355723cbb"},"vehicle_type_id":"4","last_reported":1738854579,"current_range_meters":37600,"station_id":"ce4bhn12rcd13ifvqgqg","pricing_plan_id":"cebpf4jnsgd1na2vs0mg"},{"bike_id":"19b11498-b7da-498a-a065-c091cc335a9f","system_id":"levelo_inurba_marseille","lat":43.23177,"lon":5.39999,"is_reserved":false,"is_disabled":false,"rental_uris":{"android":"levelo://app?vid=19b11498-b7da-498a-a065-c091cc335a9f","ios":"levelo://app?vid=19b11498-b7da-498a-a065-c091cc335a9f"},"vehicle_type_id":"4","last_reported":1738854579,"current_range_meters":13600,"station_id":"ce4bhn12rcd13ifvqgqg","pricing_plan_id":"cebpf4jnsgd1na2vs0mg"},{"bike_id":"284f419e-1ba3-4540-8f7e-0406975637e4","system_id":"levelo_inurba_marseille","lat":43.26192,"lon":5.37947,"is_reserved":false,"is_disabled":false,"rental_uris":{"android":"levelo://app?vid=284f419e-1ba3-4540-8f7e-0406975637e4","ios":"levelo://app?vid=284f419e-1ba3-4540-8f7e-0406975637e4"},"vehicle_type_id":"4","last_reported":1738854579,"current_range_meters":23200,"station_id":"ce4bhjp2rcd13ifvqg90","pricing_plan_id":"cebpf4jnsgd1na2vs0mg"},{"bike_id":"6f91536c-0692-49af-b13c-940af07ae667","system_id":"levelo_inurba_marseille","lat":43.28942,"lon":5.36382,"is_reserved":false,"is_disabled":false,"rental_uris":{"android":"levelo://app?vid=6f91536c-0692-49af-b13c-940af07ae667","ios":"levelo://app?vid=6f91536c-0692-49af-b13c-940af07ae667"},"vehicle_type_id":"4","last_reported":1738854579,"current_range_meters":38800,"station_id":"ce4bhc92rcd13ifvqetg","pricing_plan_id":"cebpf4jnsgd1na2vs0mg"},{"bike_id":"1f9c3dec-3722-4e4a-ae65-add96f3de071","system_id":"levelo_inurba_marseille","lat":43.30778,"lon":5.3766,"is_reserved":false,"is_disabled":false,"rental_uris":{"android":"levelo://app?vid=1f9c3dec-3722-4e4a-ae65-add96f3de071","ios":"levelo://app?vid=1f9c3dec-3722-4e4a-ae65-add96f3de071"},"vehicle_type_id":"4","last_reported":1738854579,"current_range_meters":38400,"station_id":"ce4bgv92rcd13ifvqcq0","pricing_plan_id":"cebpf4jnsgd1na2vs0mg"},{"bike_id":"9fec94a3-63a2-45db-be25-96144d6de85c","system_id":"levelo_inurba_marseille","lat":43.30139,"lon":5.37424,"is_reserved":false,"is_disabled":false,"rental_uris":{"android":"levelo://app?vid=9fec94a3-63a2-45db-be25-96144d6de85c","ios":"levelo://app?vid=9fec94a3-63a2-45db-be25-96144d6de85c"},"vehicle_type_id":"4","last_reported":1738854579,"current_range_meters":25600,"station_id":"ce4bgs92rcd13ifvqcc0","pricing_plan_id":"cebpf4jnsgd1na2vs0mg"},{"bike_id":"d327d221-a4ae-4ce7-8941-3960805fc399","system_id":"levelo_inurba_marseille","lat":43.33761,"lon":5.37475,"is_reserved":false,"is_disabled":true,"rental_uris":{"android":"levelo://app?vid=d327d221-a4ae-4ce7-8941-3960805fc399","ios":"levelo://app?vid=d327d221-a4ae-4ce7-8941-3960805fc399"},"vehicle_type_id":"4","last_reported":1738854579,"current_range_meters":34000,"station_id":"","pricing_plan_id":"cebpf4jnsgd1na2vs0mg"},{"bike_id":"5f1e7994-9cde-4f2a-a54a-77f0c7205420","system_id":"levelo_inurba_marseille","lat":43.30148,"lon":5.38104,"is_reserved":false,"is_disabled":false,"rental_uris":{"android":"levelo://app?vid=5f1e7994-9cde-4f2a-a54a-77f0c7205420","ios":"levelo://app?vid=5f1e7994-9cde-4f2a-a54a-77f0c7205420"},"vehicle_type_id":"4","last_reported":1738854579,"current_range_meters":35200,"station_id":"ce4bgjp2rcd13ifvqbh0","pricing_plan_id":"cebpf4jnsgd1na2vs0mg"},{"bike_id":"098d220b-e449-43ea-8d6d-9fc78e0abad9","system_id":"levelo_inurba_marseille","lat":43.22924,"lon":5.35384,"is_reserved":false,"is_disabled":false,"rental_uris":{"android":"levelo://app?vid=098d220b-e449-43ea-8d6d-9fc78e0abad9","ios":"levelo://app?vid=098d220b-e449-43ea-8d6d-9fc78e0abad9"},"vehicle_type_id":"4","last_reported":1738854579,"current_range_meters":38800,"station_id":"cpo3532slgdg3j2ikp40","pricing_plan_id":"cebpf4jnsgd1na2vs0mg"},{"bike_id":"3de2a62f-ee8b-4633-8581-80f610f7d857","system_id":"levelo_inurba_marseille","lat":43.24548,"lon":5.39531,"is_reserved":false,"is_disabled":true,"rental_uris":{"android":"levelo://app?vid=3de2a62f-ee8b-4633-8581-80f610f7d857","ios":"levelo://app?vid=3de2a62f-ee8b-4633-8581-80f610f7d857"},"vehicle_type_id":"4","last_reported":1738854579,"current_range_meters":1200,"station_id":"ce4bhlp2rcd13ifvqgjg","pricing_plan_id":"cebpf4jnsgd1na2vs0mg"},{"bike_id":"279e43ac-97f0-44b4-a346-9ee8b89526d5","system_id":"levelo_inurba_marseille","lat":43.30644,"lon":5.40096,"is_reserved":false,"is_disabled":false,"rental_uris":{"android":"levelo://app?vid=279e43ac-97f0-44b4-a346-9ee8b89526d5","ios":"levelo://app?vid=279e43ac-97f0-44b4-a346-9ee8b89526d5"},"vehicle_type_id":"4","last_reported":1738854579,"current_range_meters":26800,"station_id":"ce4bh112rcd13ifvqda0","pricing_plan_id":"cebpf4jnsgd1na2vs0mg"},{"bike_id":"fd091c5e-7a5b-48dc-a17f-2379e1b4480b","system_id":"levelo_inurba_marseille","lat":43.29165,"lon":5.37168,"is_reserved":false,"is_disabled":false,"rental_uris":{"android":"levelo://app?vid=fd091c5e-7a5b-48dc-a17f-2379e1b4480b","ios":"levelo://app?vid=fd091c5e-7a5b-48dc-a17f-2379e1b4480b"},"vehicle_type_id":"4","last_reported":1738854579,"current_range_meters":22800,"station_id":"ce4bha92rcd13ifvqeh0","pricing_plan_id":"cebpf4jnsgd1na2vs0mg"},{"bike_id":"6359c5d0-b167-4b2c-8041-c73ccc4aa64a","system_id":"levelo_inurba_marseille","lat":43.33629,"lon":5.37452,"is_reserved":false,"is_disabled":false,"rental_uris":{"android":"levelo://app?vid=6359c5d0-b167-4b2c-8041-c73ccc4aa64a","ios":"levelo://app?vid=6359c5d0-b167-4b2c-8041-c73ccc4aa64a"},"vehicle_type_id":"4","last_reported":1738854579,"current_range_meters":30400,"station_id":"","pricing_plan_id":"cebpf4jnsgd1na2vs0mg"},{"bike_id":"1658a0ca-41ec-4f56-8ee5-d0dcdc0decda","system_id":"levelo_inurba_marseille","lat":43.29057,"lon":5.37571,"is_reserved":false,"is_disabled":false,"rental_uris":{"android":"levelo://app?vid=1658a0ca-41ec-4f56-8ee5-d0dcdc0decda","ios":"levelo://app?vid=1658a0ca-41ec-4f56-8ee5-d0dcdc0decda"},"vehicle_type_id":"4","last_reported":1738854579,"current_range_meters":38400,"station_id":"ce4bh692rcd13ifvqe90","pricing_plan_id":"cebpf4jnsgd1na2vs0mg"},{"bike_id":"24e2e121-1f5b-42e9-8de4-b3678a590200","system_id":"levelo_inurba_marseille","lat":43.28009,"lon":5.40014,"is_reserved":false,"is_disabled":false,"rental_uris":{"android":"levelo://app?vid=24e2e121-1f5b-42e9-8de4-b3678a590200","ios":"levelo://app?vid=24e2e121-1f5b-42e9-8de4-b3678a590200"},"vehicle_type_id":"4","last_reported":1738854579,"current_range_meters":6000,"station_id":"ce4bho92rcd13ifvqh4g","pricing_plan_id":"cebpf4jnsgd1na2vs0mg"},{"bike_id":"7e40d6e1-23c8-4186-a2b2-f3c1488950a6","system_id":"levelo_inurba_marseille","lat":43.29019,"lon":5.3864,"is_reserved":false,"is_disabled":false,"rental_uris":{"android":"levelo://app?vid=7e40d6e1-23c8-4186-a2b2-f3c1488950a6","ios":"levelo://app?vid=7e40d6e1-23c8-4186-a2b2-f3c1488950a6"},"vehicle_type_id":"4","last_reported":1738854579,"current_range_meters":28400,"station_id":"ce4bh4p2rcd13ifvqe0g","pricing_plan_id":"cebpf4jnsgd1na2vs0mg"},{"bike_id":"1e7c606f-a85a-43c4-b7a8-6ba6093c0445","system_id":"levelo_inurba_marseille","lat":43.2976,"lon":5.37687,"is_reserved":false,"is_disabled":false,"rental_uris":{"android":"levelo://app?vid=1e7c606f-a85a-43c4-b7a8-6ba6093c0445","ios":"levelo://app?vid=1e7c606f-a85a-43c4-b7a8-6ba6093c0445"},"vehicle_type_id":"4","last_reported":1738854579,"current_range_meters":30400,"station_id":"ce4bgkh2rcd13ifvqbl0","pricing_plan_id":"cebpf4jnsgd1na2vs0mg"},{"bike_id":"e8d66d40-3111-45eb-b1e1-1ba36d04e48c","system_id":"levelo_inurba_marseille","lat":43.26513,"lon":5.39549,"is_reserved":false,"is_disabled":false,"rental_uris":{"android":"levelo://app?vid=e8d66d40-3111-45eb-b1e1-1ba36d04e48c","ios":"levelo://app?vid=e8d66d40-3111-45eb-b1e1-1ba36d04e48c"},"vehicle_type_id":"4","last_reported":1738854579,"current_range_meters":22400,"station_id":"ce4bhi12rcd13ifvqfq0","pricing_plan_id":"cebpf4jnsgd1na2vs0mg"},{"bike_id":"012187ac-d00a-4f5f-b1cc-95f2049f531f","system_id":"levelo_inurba_marseille","lat":43.27888,"lon":5.38012,"is_reserved":false,"is_disabled":false,"rental_uris":{"android":"levelo://app?vid=012187ac-d00a-4f5f-b1cc-95f2049f531f","ios":"levelo://app?vid=012187ac-d00a-4f5f-b1cc-95f2049f531f"},"vehicle_type_id":"4","last_reported":1738854579,"current_range_meters":38800,"station_id":"ce4bhf92rcd13ifvqf50","pricing_plan_id":"cebpf4jnsgd1na2vs0mg"},{"bike_id":"4ed068d3-7355-4fe3-983e-d958d680cef4","system_id":"levelo_inurba_marseille","lat":43.30801,"lon":5.43527,"is_reserved":false,"is_disabled":false,"rental_uris":{"android":"levelo://app?vid=4ed068d3-7355-4fe3-983e-d958d680cef4","ios":"levelo://app?vid=4ed068d3-7355-4fe3-983e-d958d680cef4"},"vehicle_type_id":"4","last_reported":1738854579,"current_range_meters":35600,"station_id":"ce4bhph2rcd13ifvqheg","pricing_plan_id":"cebpf4jnsgd1na2vs0mg"},{"bike_id":"3078e8ce-5d59-4082-8b1a-8d753b4f6935","system_id":"levelo_inurba_marseille","lat":43.23186,"lon":5.39982,"is_reserved":false,"is_disabled":false,"rental_uris":{"android":"levelo://app?vid=3078e8ce-5d59-4082-8b1a-8d753b4f6935","ios":"levelo://app?vid=3078e8ce-5d59-4082-8b1a-8d753b4f6935"},"vehicle_type_id":"4","last_reported":1738854579,"current_range_meters":38800,"station_id":"ce4bhn12rcd13ifvqgqg","pricing_plan_id":"cebpf4jnsgd1na2vs0mg"},{"bike_id":"b1e15155-8511-43e5-bd75-fed6364538ed","system_id":"levelo_inurba_marseille","lat":43.33019,"lon":5.3903,"is_reserved":false,"is_disabled":false,"rental_uris":{"android":"levelo://app?vid=b1e15155-8511-43e5-bd75-fed6364538ed","ios":"levelo://app?vid=b1e15155-8511-43e5-bd75-fed6364538ed"},"vehicle_type_id":"4","last_reported":1738854579,"current_range_meters":33200,"station_id":"ce4bhr92rcd13ifvqhrg","pricing_plan_id":"cebpf4jnsgd1na2vs0mg"},{"bike_id":"5b8bf03d-3fd9-4de9-97b2-1813cc6e1a2b","system_id":"levelo_inurba_marseille","lat":43.29036,"lon":5.38112,"is_reserved":false,"is_disabled":false,"rental_uris":{"android":"levelo://app?vid=5b8bf03d-3fd9-4de9-97b2-1813cc6e1a2b","ios":"levelo://app?vid=5b8bf03d-3fd9-4de9-97b2-1813cc6e1a2b"},"vehicle_type_id":"4","last_reported":1738854579,"current_range_meters":29600,"station_id":"ce4bh4p2rcd13ifvqe1g","pricing_plan_id":"cebpf4jnsgd1na2vs0mg"},{"bike_id":"180b4ded-5f49-4b37-b23e-a170a0e565b7","system_id":"levelo_inurba_marseille","lat":43.24068,"lon":5.37762,"is_reserved":false,"is_disabled":false,"rental_uris":{"android":"levelo://app?vid=180b4ded-5f49-4b37-b23e-a170a0e565b7","ios":"levelo://app?vid=180b4ded-5f49-4b37-b23e-a170a0e565b7"},"vehicle_type_id":"4","last_reported":1738854579,"current_range_meters":8000,"station_id":"ce4bhnp2rcd13ifvqgvg","pricing_plan_id":"cebpf4jnsgd1na2vs0mg"},{"bike_id":"12040d18-1054-4261-b22a-087b2e066e16","system_id":"levelo_inurba_marseille","lat":43.28611,"lon":5.35103,"is_reserved":false,"is_disabled":false,"rental_uris":{"android":"levelo://app?vid=12040d18-1054-4261-b22a-087b2e066e16","ios":"levelo://app?vid=12040d18-1054-4261-b22a-087b2e066e16"},"vehicle_type_id":"4","last_reported":1738854579,"current_range_meters":23200,"station_id":"ce4bhch2rcd13ifvqeug","pricing_plan_id":"cebpf4jnsgd1na2vs0mg"},{"bike_id":"34c894d6-f9e6-4841-b8d1-d5e681d7b632","system_id":"levelo_inurba_marseille","lat":43.27361,"lon":5.36256,"is_reserved":false,"is_disabled":false,"rental_uris":{"android":"levelo://app?vid=34c894d6-f9e6-4841-b8d1-d5e681d7b632","ios":"levelo://app?vid=34c894d6-f9e6-4841-b8d1-d5e681d7b632"},"vehicle_type_id":"4","last_reported":1738854579,"current_range_meters":32000,"station_id":"ce4bhbh2rcd13ifvqeo0","pricing_plan_id":"cebpf4jnsgd1na2vs0mg"},{"bike_id":"7fa24844-ee2d-4b02-aca8-f85b5f94504e","system_id":"levelo_inurba_marseille","lat":43.29265,"lon":5.38442,"is_reserved":false,"is_disabled":false,"rental_uris":{"android":"levelo://app?vid=7fa24844-ee2d-4b02-aca8-f85b5f94504e","ios":"levelo://app?vid=7fa24844-ee2d-4b02-aca8-f85b5f94504e"},"vehicle_type_id":"4","last_reported":1738854579,"current_range_meters":6000,"station_id":"ce4bh692rcd13ifvqea0","pricing_plan_id":"cebpf4jnsgd1na2vs0mg"},{"bike_id":"2b157902-4668-4cea-bc61-7408f735457b","system_id":"levelo_inurba_marseille","lat":43.33021,"lon":5.3903,"is_reserved":false,"is_disabled":false,"rental_uris":{"android":"levelo://app?vid=2b157902-4668-4cea-bc61-7408f735457b","ios":"levelo://app?vid=2b157902-4668-4cea-bc61-7408f735457b"},"vehicle_type_id":"4","last_reported":1738854579,"current_range_meters":27600,"station_id":"ce4bhr92rcd13ifvqhrg","pricing_plan_id":"cebpf4jnsgd1na2vs0mg"},{"bike_id":"9e51cbc3-02ef-41d5-8133-248a9daf9090","system_id":"levelo_inurba_marseille","lat":43.27496,"lon":5.4244,"is_reserved":false,"is_disabled":false,"rental_uris":{"android":"levelo://app?vid=9e51cbc3-02ef-41d5-8133-248a9daf9090","ios":"levelo://app?vid=9e51cbc3-02ef-41d5-8133-248a9daf9090"},"vehicle_type_id":"4","last_reported":1738854579,"current_range_meters":11600,"station_id":"ce4bhn92rcd13ifvqgrg","pricing_plan_id":"cebpf4jnsgd1na2vs0mg"},{"bike_id":"5c57bbac-bf63-47c0-8ef7-e92217416071","system_id":"levelo_inurba_marseille","lat":43.265,"lon":5.39547,"is_reserved":false,"is_disabled":true,"rental_uris":{"android":"levelo://app?vid=5c57bbac-bf63-47c0-8ef7-e92217416071","ios":"levelo://app?vid=5c57bbac-bf63-47c0-8ef7-e92217416071"},"vehicle_type_id":"4","last_reported":1738854579,"current_range_meters":800,"station_id":"ce4bhi12rcd13ifvqfq0","pricing_plan_id":"cebpf4jnsgd1na2vs0mg"},{"bike_id":"700efa15-5962-4bad-be09-cf93ebb13daf","system_id":"levelo_inurba_marseille","lat":43.27192,"lon":5.40988,"is_reserved":false,"is_disabled":false,"rental_uris":{"android":"levelo://app?vid=700efa15-5962-4bad-be09-cf93ebb13daf","ios":"levelo://app?vid=700efa15-5962-4bad-be09-cf93ebb13daf"},"vehicle_type_id":"4","last_reported":1738854579,"current_range_meters":22400,"station_id":"ce4bhl12rcd13ifvqgf0","pricing_plan_id":"cebpf4jnsgd1na2vs0mg"},{"bike_id":"9460ef59-9cf0-43f8-a889-8b500162b5fd","system_id":"levelo_inurba_marseille","lat":43.30457,"lon":5.37918,"is_reserved":false,"is_disabled":false,"rental_uris":{"android":"levelo://app?vid=9460ef59-9cf0-43f8-a889-8b500162b5fd","ios":"levelo://app?vid=9460ef59-9cf0-43f8-a889-8b500162b5fd"},"vehicle_type_id":"4","last_reported":1738854579,"current_range_meters":22000,"station_id":"ce4bgup2rcd13ifvqcn0","pricing_plan_id":"cebpf4jnsgd1na2vs0mg"},{"bike_id":"5a5b80ba-8013-44c5-879f-2acc1f3bac10","system_id":"levelo_inurba_marseille","lat":43.26558,"lon":5.38999,"is_reserved":false,"is_disabled":false,"rental_uris":{"android":"levelo://app?vid=5a5b80ba-8013-44c5-879f-2acc1f3bac10","ios":"levelo://app?vid=5a5b80ba-8013-44c5-879f-2acc1f3bac10"},"vehicle_type_id":"4","last_reported":1738854579,"current_range_meters":38800,"station_id":"ce4bhe12rcd13ifvqf30","pricing_plan_id":"cebpf4jnsgd1na2vs0mg"},{"bike_id":"b73937ba-05e4-41c7-8959-6f24613e2797","system_id":"levelo_inurba_marseille","lat":43.22933,"lon":5.35381,"is_reserved":false,"is_disabled":false,"rental_uris":{"android":"levelo://app?vid=b73937ba-05e4-41c7-8959-6f24613e2797","ios":"levelo://app?vid=b73937ba-05e4-41c7-8959-6f24613e2797"},"vehicle_type_id":"4","last_reported":1738854579,"current_range_meters":37600,"station_id":"cpo3532slgdg3j2ikp40","pricing_plan_id":"cebpf4jnsgd1na2vs0mg"},{"bike_id":"80ca3de2-8e47-407e-9802-c25eebce431b","system_id":"levelo_inurba_marseille","lat":43.29799,"lon":5.38071,"is_reserved":false,"is_disabled":false,"rental_uris":{"android":"levelo://app?vid=80ca3de2-8e47-407e-9802-c25eebce431b","ios":"levelo://app?vid=80ca3de2-8e47-407e-9802-c25eebce431b"},"vehicle_type_id":"4","last_reported":1738854579,"current_range_meters":15200,"station_id":"ce4bgip2rcd13ifvqbb0","pricing_plan_id":"cebpf4jnsgd1na2vs0mg"},{"bike_id":"adf204e2-df93-4113-afb2-27e4090b795e","system_id":"levelo_inurba_marseille","lat":43.30427,"lon":5.38887,"is_reserved":false,"is_disabled":false,"rental_uris":{"android":"levelo://app?vid=adf204e2-df93-4113-afb2-27e4090b795e","ios":"levelo://app?vid=adf204e2-df93-4113-afb2-27e4090b795e"},"vehicle_type_id":"4","last_reported":1738854579,"current_range_meters":4800,"station_id":"ce4bgk12rcd13ifvqbi0","pricing_plan_id":"cebpf4jnsgd1na2vs0mg"},{"bike_id":"ab54e2d0-4c2c-486a-84c7-811ed9008ddc","system_id":"levelo_inurba_marseille","lat":43.27847,"lon":5.42527,"is_reserved":false,"is_disabled":false,"rental_uris":{"android":"levelo://app?vid=ab54e2d0-4c2c-486a-84c7-811ed9008ddc","ios":"levelo://app?vid=ab54e2d0-4c2c-486a-84c7-811ed9008ddc"},"vehicle_type_id":"4","last_reported":1738854579,"current_range_meters":4000,"station_id":"","pricing_plan_id":"cebpf4jnsgd1na2vs0mg"},{"bike_id":"73b0d961-80a8-458c-90ed-fc1557aa62a2","system_id":"levelo_inurba_marseille","lat":43.30154,"lon":5.38092,"is_reserved":false,"is_disabled":false,"rental_uris":{"android":"levelo://app?vid=73b0d961-80a8-458c-90ed-fc1557aa62a2","ios":"levelo://app?vid=73b0d961-80a8-458c-90ed-fc1557aa62a2"},"vehicle_type_id":"4","last_reported":1738854579,"current_range_meters":24800,"station_id":"ce4bgjp2rcd13ifvqbh0","pricing_plan_id":"cebpf4jnsgd1na2vs0mg"},{"bike_id":"10d931e5-652d-4dae-b595-5a46e59ed638","system_id":"levelo_inurba_marseille","lat":43.30295,"lon":5.377,"is_reserved":false,"is_disabled":false,"rental_uris":{"android":"levelo://app?vid=10d931e5-652d-4dae-b595-5a46e59ed638","ios":"levelo://app?vid=10d931e5-652d-4dae-b595-5a46e59ed638"},"vehicle_type_id":"4","last_reported":1738854579,"current_range_meters":39200,"station_id":"ce4bguh2rcd13ifvqcj0","pricing_plan_id":"cebpf4jnsgd1na2vs0mg"},{"bike_id":"92afbf6a-b8f8-4353-9054-8f4559b6b5e0","system_id":"levelo_inurba_marseille","lat":43.28108,"lon":5.37839,"is_reserved":false,"is_disabled":false,"rental_uris":{"android":"levelo://app?vid=92afbf6a-b8f8-4353-9054-8f4559b6b5e0","ios":"levelo://app?vid=92afbf6a-b8f8-4353-9054-8f4559b6b5e0"},"vehicle_type_id":"4","last_reported":1738854579,"current_range_meters":24400,"station_id":"ce4bha12rcd13ifvqee0","pricing_plan_id":"cebpf4jnsgd1na2vs0mg"},{"bike_id":"ca5b70b3-6a05-458d-8777-682b072a5081","system_id":"levelo_inurba_marseille","lat":43.30139,"lon":5.37399,"is_reserved":false,"is_disabled":false,"rental_uris":{"android":"levelo://app?vid=ca5b70b3-6a05-458d-8777-682b072a5081","ios":"levelo://app?vid=ca5b70b3-6a05-458d-8777-682b072a5081"},"vehicle_type_id":"4","last_reported":1738854579,"current_range_meters":38800,"station_id":"ce4bgs92rcd13ifvqcc0","pricing_plan_id":"cebpf4jnsgd1na2vs0mg"},{"bike_id":"c2841518-aa75-4235-82a4-fbfcffdd42b4","system_id":"levelo_inurba_marseille","lat":43.27178,"lon":5.40996,"is_reserved":false,"is_disabled":false,"rental_uris":{"android":"levelo://app?vid=c2841518-aa75-4235-82a4-fbfcffdd42b4","ios":"levelo://app?vid=c2841518-aa75-4235-82a4-fbfcffdd42b4"},"vehicle_type_id":"4","last_reported":1738854579,"current_range_meters":37600,"station_id":"ce4bhl12rcd13ifvqgf0","pricing_plan_id":"cebpf4jnsgd1na2vs0mg"},{"bike_id":"82782ff9-b13a-4def-9e30-b11ef6bff10b","system_id":"levelo_inurba_marseille","lat":43.29414,"lon":5.38641,"is_reserved":false,"is_disabled":false,"rental_uris":{"android":"levelo://app?vid=82782ff9-b13a-4def-9e30-b11ef6bff10b","ios":"levelo://app?vid=82782ff9-b13a-4def-9e30-b11ef6bff10b"},"vehicle_type_id":"4","last_reported":1738854579,"current_range_meters":37600,"station_id":"ce4bh2h2rcd13ifvqdh0","pricing_plan_id":"cebpf4jnsgd1na2vs0mg"},{"bike_id":"9abb8541-f0e4-475d-8c17-01388cf984ad","system_id":"levelo_inurba_marseille","lat":43.2716,"lon":5.40991,"is_reserved":false,"is_disabled":false,"rental_uris":{"android":"levelo://app?vid=9abb8541-f0e4-475d-8c17-01388cf984ad","ios":"levelo://app?vid=9abb8541-f0e4-475d-8c17-01388cf984ad"},"vehicle_type_id":"4","last_reported":1738854579,"current_range_meters":38800,"station_id":"ce4bhl12rcd13ifvqgf0","pricing_plan_id":"cebpf4jnsgd1na2vs0mg"},{"bike_id":"3c0191ea-fe29-40e3-ba71-3b250be79011","system_id":"levelo_inurba_marseille","lat":43.29887,"lon":5.39733,"is_reserved":false,"is_disabled":false,"rental_uris":{"android":"levelo://app?vid=3c0191ea-fe29-40e3-ba71-3b250be79011","ios":"levelo://app?vid=3c0191ea-fe29-40e3-ba71-3b250be79011"},"vehicle_type_id":"4","last_reported":1738854579,"current_range_meters":38800,"station_id":"ce4bh0h2rcd13ifvqd50","pricing_plan_id":"cebpf4jnsgd1na2vs0mg"},{"bike_id":"3f7fb16e-7522-4b02-a062-e4dbdc7b7a7b","system_id":"levelo_inurba_marseille","lat":43.26564,"lon":5.39013,"is_reserved":false,"is_disabled":false,"rental_uris":{"android":"levelo://app?vid=3f7fb16e-7522-4b02-a062-e4dbdc7b7a7b","ios":"levelo://app?vid=3f7fb16e-7522-4b02-a062-e4dbdc7b7a7b"},"vehicle_type_id":"4","last_reported":1738854579,"current_range_meters":24000,"station_id":"ce4bhe12rcd13ifvqf30","pricing_plan_id":"cebpf4jnsgd1na2vs0mg"},{"bike_id":"8f1602fb-4182-4563-b5c3-30084be00e2f","system_id":"levelo_inurba_marseille","lat":43.24082,"lon":5.3775,"is_reserved":false,"is_disabled":false,"rental_uris":{"android":"levelo://app?vid=8f1602fb-4182-4563-b5c3-30084be00e2f","ios":"levelo://app?vid=8f1602fb-4182-4563-b5c3-30084be00e2f"},"vehicle_type_id":"4","last_reported":1738854579,"current_range_meters":20000,"station_id":"ce4bhnp2rcd13ifvqgvg","pricing_plan_id":"cebpf4jnsgd1na2vs0mg"},{"bike_id":"632f095e-ba47-44f5-9fe0-292b6de9a0b0","system_id":"levelo_inurba_marseille","lat":43.28372,"lon":5.38639,"is_reserved":false,"is_disabled":false,"rental_uris":{"android":"levelo://app?vid=632f095e-ba47-44f5-9fe0-292b6de9a0b0","ios":"levelo://app?vid=632f095e-ba47-44f5-9fe0-292b6de9a0b0"},"vehicle_type_id":"4","last_reported":1738854579,"current_range_meters":39200,"station_id":"ce4bh492rcd13ifvqdvg","pricing_plan_id":"cebpf4jnsgd1na2vs0mg"},{"bike_id":"fb556a3c-6c94-4b6c-bee1-d43c3e7702f9","system_id":"levelo_inurba_marseille","lat":43.23154,"lon":5.43721,"is_reserved":false,"is_disabled":false,"rental_uris":{"android":"levelo://app?vid=fb556a3c-6c94-4b6c-bee1-d43c3e7702f9","ios":"levelo://app?vid=fb556a3c-6c94-4b6c-bee1-d43c3e7702f9"},"vehicle_type_id":"4","last_reported":1738854579,"current_range_meters":16800,"station_id":"ce4bhmp2rcd13ifvqgog","pricing_plan_id":"cebpf4jnsgd1na2vs0mg"},{"bike_id":"2dfe1edc-d9db-435e-a95d-6a47eaaa69bd","system_id":"levelo_inurba_marseille","lat":43.29363,"lon":5.37838,"is_reserved":false,"is_disabled":false,"rental_uris":{"android":"levelo://app?vid=2dfe1edc-d9db-435e-a95d-6a47eaaa69bd","ios":"levelo://app?vid=2dfe1edc-d9db-435e-a95d-6a47eaaa69bd"},"vehicle_type_id":"4","last_reported":1738854579,"current_range_meters":26000,"station_id":"ce4bgjh2rcd13ifvqbf0","pricing_plan_id":"cebpf4jnsgd1na2vs0mg"},{"bike_id":"86b0879b-2b11-4414-9515-650f3aea6411","system_id":"levelo_inurba_marseille","lat":43.28473,"lon":5.38563,"is_reserved":false,"is_disabled":false,"rental_uris":{"android":"levelo://app?vid=86b0879b-2b11-4414-9515-650f3aea6411","ios":"levelo://app?vid=86b0879b-2b11-4414-9515-650f3aea6411"},"vehicle_type_id":"4","last_reported":1738854579,"current_range_meters":16800,"station_id":"ce4bh8p2rcd13ifvqeb0","pricing_plan_id":"cebpf4jnsgd1na2vs0mg"},{"bike_id":"30c11024-b96a-4c0a-8a3e-8b171049fe3d","system_id":"levelo_inurba_marseille","lat":43.27175,"lon":5.40999,"is_reserved":false,"is_disabled":true,"rental_uris":{"android":"levelo://app?vid=30c11024-b96a-4c0a-8a3e-8b171049fe3d","ios":"levelo://app?vid=30c11024-b96a-4c0a-8a3e-8b171049fe3d"},"vehicle_type_id":"4","last_reported":1738854579,"current_range_meters":0,"station_id":"ce4bhl12rcd13ifvqgf0","pricing_plan_id":"cebpf4jnsgd1na2vs0mg"},{"bike_id":"551da7d4-b8af-48ec-96b8-e95829a204e3","system_id":"levelo_inurba_marseille","lat":43.29686,"lon":5.37287,"is_reserved":false,"is_disabled":false,"rental_uris":{"android":"levelo://app?vid=551da7d4-b8af-48ec-96b8-e95829a204e3","ios":"levelo://app?vid=551da7d4-b8af-48ec-96b8-e95829a204e3"},"vehicle_type_id":"4","last_reported":1738854579,"current_range_meters":27200,"station_id":"ce4bgk12rcd13ifvqbj0","pricing_plan_id":"cebpf4jnsgd1na2vs0mg"},{"bike_id":"18d20254-e117-40cd-a81a-17b2ce45a29b","system_id":"levelo_inurba_marseille","lat":43.29854,"lon":5.36299,"is_reserved":false,"is_disabled":false,"rental_uris":{"android":"levelo://app?vid=18d20254-e117-40cd-a81a-17b2ce45a29b","ios":"levelo://app?vid=18d20254-e117-40cd-a81a-17b2ce45a29b"},"vehicle_type_id":"4","last_reported":1738854579,"current_range_meters":29600,"station_id":"ce4bgpp2rcd13ifvqc3g","pricing_plan_id":"cebpf4jnsgd1na2vs0mg"},{"bike_id":"ccfe8317-c9c4-4522-a09a-3973d991a960","system_id":"levelo_inurba_marseille","lat":43.23192,"lon":5.43662,"is_reserved":false,"is_disabled":false,"rental_uris":{"android":"levelo://app?vid=ccfe8317-c9c4-4522-a09a-3973d991a960","ios":"levelo://app?vid=ccfe8317-c9c4-4522-a09a-3973d991a960"},"vehicle_type_id":"4","last_reported":1738854579,"current_range_meters":16400,"station_id":"ce4bhmp2rcd13ifvqgog","pricing_plan_id":"cebpf4jnsgd1na2vs0mg"},{"bike_id":"9be3b565-b6f9-46b5-9221-0fd014269acb","system_id":"levelo_inurba_marseille","lat":43.29673,"lon":5.37708,"is_reserved":false,"is_disabled":false,"rental_uris":{"android":"levelo://app?vid=9be3b565-b6f9-46b5-9221-0fd014269acb","ios":"levelo://app?vid=9be3b565-b6f9-46b5-9221-0fd014269acb"},"vehicle_type_id":"4","last_reported":1738854579,"current_range_meters":39200,"station_id":"ce4bgkh2rcd13ifvqbl0","pricing_plan_id":"cebpf4jnsgd1na2vs0mg"},{"bike_id":"fc2ced2e-cad0-4ed2-97a5-709bb1f8e6cb","system_id":"levelo_inurba_marseille","lat":43.30566,"lon":5.36683,"is_reserved":false,"is_disabled":false,"rental_uris":{"android":"levelo://app?vid=fc2ced2e-cad0-4ed2-97a5-709bb1f8e6cb","ios":"levelo://app?vid=fc2ced2e-cad0-4ed2-97a5-709bb1f8e6cb"},"vehicle_type_id":"4","last_reported":1738854579,"current_range_meters":30000,"station_id":"ce4bgrp2rcd13ifvqc9g","pricing_plan_id":"cebpf4jnsgd1na2vs0mg"},{"bike_id":"a1f855dc-c0e1-4ee5-a72d-824fb71227fe","system_id":"levelo_inurba_marseille","lat":43.31161,"lon":5.38722,"is_reserved":false,"is_disabled":false,"rental_uris":{"android":"levelo://app?vid=a1f855dc-c0e1-4ee5-a72d-824fb71227fe","ios":"levelo://app?vid=a1f855dc-c0e1-4ee5-a72d-824fb71227fe"},"vehicle_type_id":"4","last_reported":1738854579,"current_range_meters":14800,"station_id":"ce4bgv12rcd13ifvqcp0","pricing_plan_id":"cebpf4jnsgd1na2vs0mg"},{"bike_id":"ccc0d99a-4f06-4847-88ea-bfbf26a9a708","system_id":"levelo_inurba_marseille","lat":43.27365,"lon":5.36257,"is_reserved":false,"is_disabled":false,"rental_uris":{"android":"levelo://app?vid=ccc0d99a-4f06-4847-88ea-bfbf26a9a708","ios":"levelo://app?vid=ccc0d99a-4f06-4847-88ea-bfbf26a9a708"},"vehicle_type_id":"4","last_reported":1738854579,"current_range_meters":38800,"station_id":"ce4bhbh2rcd13ifvqeo0","pricing_plan_id":"cebpf4jnsgd1na2vs0mg"},{"bike_id":"b9672fd9-009f-4629-a6e0-862d59aa1332","system_id":"levelo_inurba_marseille","lat":43.30209,"lon":5.39464,"is_reserved":false,"is_disabled":false,"rental_uris":{"android":"levelo://app?vid=b9672fd9-009f-4629-a6e0-862d59aa1332","ios":"levelo://app?vid=b9672fd9-009f-4629-a6e0-862d59aa1332"},"vehicle_type_id":"4","last_reported":1738854579,"current_range_meters":36000,"station_id":"ce4bh0p2rcd13ifvqd70","pricing_plan_id":"cebpf4jnsgd1na2vs0mg"},{"bike_id":"d90800d2-0b28-4666-b04d-68e5f6c3e9ab","system_id":"levelo_inurba_marseille","lat":43.23188,"lon":5.39989,"is_reserved":false,"is_disabled":true,"rental_uris":{"android":"levelo://app?vid=d90800d2-0b28-4666-b04d-68e5f6c3e9ab","ios":"levelo://app?vid=d90800d2-0b28-4666-b04d-68e5f6c3e9ab"},"vehicle_type_id":"4","last_reported":1738854579,"current_range_meters":0,"station_id":"ce4bhn12rcd13ifvqgqg","pricing_plan_id":"cebpf4jnsgd1na2vs0mg"},{"bike_id":"338ac385-7eab-41bb-a7e0-6e473e0d57ef","system_id":"levelo_inurba_marseille","lat":43.29531,"lon":5.38546,"is_reserved":false,"is_disabled":false,"rental_uris":{"android":"levelo://app?vid=338ac385-7eab-41bb-a7e0-6e473e0d57ef","ios":"levelo://app?vid=338ac385-7eab-41bb-a7e0-6e473e0d57ef"},"vehicle_type_id":"4","last_reported":1738854579,"current_range_meters":34800,"station_id":"ce4bgih2rcd13ifvqba0","pricing_plan_id":"cebpf4jnsgd1na2vs0mg"},{"bike_id":"bf4e2eaf-780c-4039-986a-ec339e802cbb","system_id":"levelo_inurba_marseille","lat":43.3176,"lon":5.39006,"is_reserved":false,"is_disabled":false,"rental_uris":{"android":"levelo://app?vid=bf4e2eaf-780c-4039-986a-ec339e802cbb","ios":"levelo://app?vid=bf4e2eaf-780c-4039-986a-ec339e802cbb"},"vehicle_type_id":"4","last_reported":1738854579,"current_range_meters":39200,"station_id":"ce4bhqp2rcd13ifvqhng","pricing_plan_id":"cebpf4jnsgd1na2vs0mg"},{"bike_id":"a7b6ad48-21d7-4276-84ba-6592a858ef3e","system_id":"levelo_inurba_marseille","lat":43.29701,"lon":5.37704,"is_reserved":false,"is_disabled":false,"rental_uris":{"android":"levelo://app?vid=a7b6ad48-21d7-4276-84ba-6592a858ef3e","ios":"levelo://app?vid=a7b6ad48-21d7-4276-84ba-6592a858ef3e"},"vehicle_type_id":"4","last_reported":1738854579,"current_range_meters":38400,"station_id":"ce4bgkh2rcd13ifvqbl0","pricing_plan_id":"cebpf4jnsgd1na2vs0mg"},{"bike_id":"c354cf93-bfa4-4986-b5e4-4e29c24f8f09","system_id":"levelo_inurba_marseille","lat":43.30349,"lon":5.41872,"is_reserved":false,"is_disabled":false,"rental_uris":{"android":"levelo://app?vid=c354cf93-bfa4-4986-b5e4-4e29c24f8f09","ios":"levelo://app?vid=c354cf93-bfa4-4986-b5e4-4e29c24f8f09"},"vehicle_type_id":"4","last_reported":1738854579,"current_range_meters":38800,"station_id":"ce4bhop2rcd13ifvqh7g","pricing_plan_id":"cebpf4jnsgd1na2vs0mg"},{"bike_id":"5354080c-156c-4650-b9ef-8f142763101f","system_id":"levelo_inurba_marseille","lat":43.32108,"lon":5.36778,"is_reserved":false,"is_disabled":false,"rental_uris":{"android":"levelo://app?vid=5354080c-156c-4650-b9ef-8f142763101f","ios":"levelo://app?vid=5354080c-156c-4650-b9ef-8f142763101f"},"vehicle_type_id":"4","last_reported":1738854579,"current_range_meters":37600,"station_id":"ce4bhrh2rcd13ifvqhug","pricing_plan_id":"cebpf4jnsgd1na2vs0mg"},{"bike_id":"25584dfc-d5ff-4811-85c5-933f3dfbdae8","system_id":"levelo_inurba_marseille","lat":43.23967,"lon":5.36619,"is_reserved":false,"is_disabled":false,"rental_uris":{"android":"levelo://app?vid=25584dfc-d5ff-4811-85c5-933f3dfbdae8","ios":"levelo://app?vid=25584dfc-d5ff-4811-85c5-933f3dfbdae8"},"vehicle_type_id":"4","last_reported":1738854579,"current_range_meters":38000,"station_id":"ce4bhi12rcd13ifvqfp0","pricing_plan_id":"cebpf4jnsgd1na2vs0mg"},{"bike_id":"3b6fc1a1-1e64-4698-a113-588a2563418f","system_id":"levelo_inurba_marseille","lat":43.28033,"lon":5.36953,"is_reserved":false,"is_disabled":true,"rental_uris":{"android":"levelo://app?vid=3b6fc1a1-1e64-4698-a113-588a2563418f","ios":"levelo://app?vid=3b6fc1a1-1e64-4698-a113-588a2563418f"},"vehicle_type_id":"4","last_reported":1738854579,"current_range_meters":0,"station_id":"ce4bha12rcd13ifvqef0","pricing_plan_id":"cebpf4jnsgd1na2vs0mg"},{"bike_id":"2dba6b41-4bee-4424-a195-52a257442222","system_id":"levelo_inurba_marseille","lat":43.27556,"lon":5.38393,"is_reserved":false,"is_disabled":false,"rental_uris":{"android":"levelo://app?vid=2dba6b41-4bee-4424-a195-52a257442222","ios":"levelo://app?vid=2dba6b41-4bee-4424-a195-52a257442222"},"vehicle_type_id":"4","last_reported":1738854579,"current_range_meters":38800,"station_id":"ce4bhh92rcd13ifvqfi0","pricing_plan_id":"cebpf4jnsgd1na2vs0mg"},{"bike_id":"8d57476c-6d67-4c76-b423-8c0a0602ee87","system_id":"levelo_inurba_marseille","lat":43.28,"lon":5.40011,"is_reserved":false,"is_disabled":false,"rental_uris":{"android":"levelo://app?vid=8d57476c-6d67-4c76-b423-8c0a0602ee87","ios":"levelo://app?vid=8d57476c-6d67-4c76-b423-8c0a0602ee87"},"vehicle_type_id":"4","last_reported":1738854579,"current_range_meters":38800,"station_id":"ce4bho92rcd13ifvqh4g","pricing_plan_id":"cebpf4jnsgd1na2vs0mg"},{"bike_id":"c130fff7-2faf-4f2e-82f9-62c219cfeda5","system_id":"levelo_inurba_marseille","lat":43.28149,"lon":5.42642,"is_reserved":false,"is_disabled":false,"rental_uris":{"android":"levelo://app?vid=c130fff7-2faf-4f2e-82f9-62c219cfeda5","ios":"levelo://app?vid=c130fff7-2faf-4f2e-82f9-62c219cfeda5"},"vehicle_type_id":"4","last_reported":1738854579,"current_range_meters":28000,"station_id":"ce4bhnh2rcd13ifvqgug","pricing_plan_id":"cebpf4jnsgd1na2vs0mg"},{"bike_id":"317d72d2-2e51-46f0-8731-17b6093664ea","system_id":"levelo_inurba_marseille","lat":43.24144,"lon":5.39737,"is_reserved":false,"is_disabled":false,"rental_uris":{"android":"levelo://app?vid=317d72d2-2e51-46f0-8731-17b6093664ea","ios":"levelo://app?vid=317d72d2-2e51-46f0-8731-17b6093664ea"},"vehicle_type_id":"4","last_reported":1738854579,"current_range_meters":38400,"station_id":"ce4bhn12rcd13ifvqgpg","pricing_plan_id":"cebpf4jnsgd1na2vs0mg"},{"bike_id":"2c8db765-8422-4405-931f-0adec8eb0ebe","system_id":"levelo_inurba_marseille","lat":43.29096,"lon":5.38121,"is_reserved":false,"is_disabled":false,"rental_uris":{"android":"levelo://app?vid=2c8db765-8422-4405-931f-0adec8eb0ebe","ios":"levelo://app?vid=2c8db765-8422-4405-931f-0adec8eb0ebe"},"vehicle_type_id":"4","last_reported":1738854579,"current_range_meters":27600,"station_id":"ce4bh512rcd13ifvqe2g","pricing_plan_id":"cebpf4jnsgd1na2vs0mg"},{"bike_id":"129c1aeb-ddb1-409b-8a8f-37ea00811ec6","system_id":"levelo_inurba_marseille","lat":43.25112,"lon":5.40328,"is_reserved":false,"is_disabled":false,"rental_uris":{"android":"levelo://app?vid=129c1aeb-ddb1-409b-8a8f-37ea00811ec6","ios":"levelo://app?vid=129c1aeb-ddb1-409b-8a8f-37ea00811ec6"},"vehicle_type_id":"4","last_reported":1738854579,"current_range_meters":13600,"station_id":"ce4bhlh2rcd13ifvqgig","pricing_plan_id":"cebpf4jnsgd1na2vs0mg"},{"bike_id":"33286a12-89b0-45e1-8069-00e6841a4c91","system_id":"levelo_inurba_marseille","lat":43.28653,"lon":5.36344,"is_reserved":false,"is_disabled":false,"rental_uris":{"android":"levelo://app?vid=33286a12-89b0-45e1-8069-00e6841a4c91","ios":"levelo://app?vid=33286a12-89b0-45e1-8069-00e6841a4c91"},"vehicle_type_id":"4","last_reported":1738854579,"current_range_meters":25600,"station_id":"ce4bhah2rcd13ifvqej0","pricing_plan_id":"cebpf4jnsgd1na2vs0mg"},{"bike_id":"1da8b17b-ad28-4780-a711-431647c244ed","system_id":"levelo_inurba_marseille","lat":43.23952,"lon":5.36627,"is_reserved":false,"is_disabled":false,"rental_uris":{"android":"levelo://app?vid=1da8b17b-ad28-4780-a711-431647c244ed","ios":"levelo://app?vid=1da8b17b-ad28-4780-a711-431647c244ed"},"vehicle_type_id":"4","last_reported":1738854579,"current_range_meters":32000,"station_id":"ce4bhi12rcd13ifvqfp0","pricing_plan_id":"cebpf4jnsgd1na2vs0mg"},{"bike_id":"171eb02f-aa7a-4325-9962-a5589a9569a0","system_id":"levelo_inurba_marseille","lat":43.27368,"lon":5.36253,"is_reserved":false,"is_disabled":false,"rental_uris":{"android":"levelo://app?vid=171eb02f-aa7a-4325-9962-a5589a9569a0","ios":"levelo://app?vid=171eb02f-aa7a-4325-9962-a5589a9569a0"},"vehicle_type_id":"4","last_reported":1738854579,"current_range_meters":27600,"station_id":"ce4bhbh2rcd13ifvqeo0","pricing_plan_id":"cebpf4jnsgd1na2vs0mg"},{"bike_id":"1c187044-f156-4dbb-83f4-3d328cf05e97","system_id":"levelo_inurba_marseille","lat":43.29686,"lon":5.37296,"is_reserved":false,"is_disabled":false,"rental_uris":{"android":"levelo://app?vid=1c187044-f156-4dbb-83f4-3d328cf05e97","ios":"levelo://app?vid=1c187044-f156-4dbb-83f4-3d328cf05e97"},"vehicle_type_id":"4","last_reported":1738854579,"current_range_meters":38800,"station_id":"ce4bgk12rcd13ifvqbj0","pricing_plan_id":"cebpf4jnsgd1na2vs0mg"},{"bike_id":"0599b78d-3473-4571-a7e0-85c933cb1c65","system_id":"levelo_inurba_marseille","lat":43.24085,"lon":5.37747,"is_reserved":false,"is_disabled":false,"rental_uris":{"android":"levelo://app?vid=0599b78d-3473-4571-a7e0-85c933cb1c65","ios":"levelo://app?vid=0599b78d-3473-4571-a7e0-85c933cb1c65"},"vehicle_type_id":"4","last_reported":1738854579,"current_range_meters":22800,"station_id":"ce4bhnp2rcd13ifvqgvg","pricing_plan_id":"cebpf4jnsgd1na2vs0mg"},{"bike_id":"be81c371-6f2b-405a-ac77-7a4aa90d032a","system_id":"levelo_inurba_marseille","lat":43.28415,"lon":5.35004,"is_reserved":false,"is_disabled":false,"rental_uris":{"android":"levelo://app?vid=be81c371-6f2b-405a-ac77-7a4aa90d032a","ios":"levelo://app?vid=be81c371-6f2b-405a-ac77-7a4aa90d032a"},"vehicle_type_id":"4","last_reported":1738854579,"current_range_meters":38800,"station_id":"ce4bhbh2rcd13ifvqepg","pricing_plan_id":"cebpf4jnsgd1na2vs0mg"},{"bike_id":"39c1e9e3-f1bf-4a83-bd06-62f23997ed13","system_id":"levelo_inurba_marseille","lat":43.25014,"lon":5.38915,"is_reserved":false,"is_disabled":false,"rental_uris":{"android":"levelo://app?vid=39c1e9e3-f1bf-4a83-bd06-62f23997ed13","ios":"levelo://app?vid=39c1e9e3-f1bf-4a83-bd06-62f23997ed13"},"vehicle_type_id":"4","last_reported":1738854579,"current_range_meters":17600,"station_id":"ce4bhgp2rcd13ifvqfd0","pricing_plan_id":"cebpf4jnsgd1na2vs0mg"},{"bike_id":"5b325077-969c-4d21-88e1-d74b079f50f0","system_id":"levelo_inurba_marseille","lat":43.28107,"lon":5.37832,"is_reserved":false,"is_disabled":false,"rental_uris":{"android":"levelo://app?vid=5b325077-969c-4d21-88e1-d74b079f50f0","ios":"levelo://app?vid=5b325077-969c-4d21-88e1-d74b079f50f0"},"vehicle_type_id":"4","last_reported":1738854579,"current_range_meters":27600,"station_id":"ce4bha12rcd13ifvqee0","pricing_plan_id":"cebpf4jnsgd1na2vs0mg"},{"bike_id":"1a39c200-67b8-4c60-9e03-ceb72328893d","system_id":"levelo_inurba_marseille","lat":43.27904,"lon":5.38011,"is_reserved":false,"is_disabled":false,"rental_uris":{"android":"levelo://app?vid=1a39c200-67b8-4c60-9e03-ceb72328893d","ios":"levelo://app?vid=1a39c200-67b8-4c60-9e03-ceb72328893d"},"vehicle_type_id":"4","last_reported":1738854579,"current_range_meters":16000,"station_id":"ce4bhf92rcd13ifvqf50","pricing_plan_id":"cebpf4jnsgd1na2vs0mg"},{"bike_id":"02475cfb-0ab5-4dbe-a950-abba74b1c272","system_id":"levelo_inurba_marseille","lat":43.24811,"lon":5.37455,"is_reserved":false,"is_disabled":false,"rental_uris":{"android":"levelo://app?vid=02475cfb-0ab5-4dbe-a950-abba74b1c272","ios":"levelo://app?vid=02475cfb-0ab5-4dbe-a950-abba74b1c272"},"vehicle_type_id":"4","last_reported":1738854579,"current_range_meters":38800,"station_id":"ce4bhgh2rcd13ifvqfb0","pricing_plan_id":"cebpf4jnsgd1na2vs0mg"},{"bike_id":"bad8c055-a613-44b9-ab8f-69d3bf610408","system_id":"levelo_inurba_marseille","lat":43.28273,"lon":5.35072,"is_reserved":false,"is_disabled":false,"rental_uris":{"android":"levelo://app?vid=bad8c055-a613-44b9-ab8f-69d3bf610408","ios":"levelo://app?vid=bad8c055-a613-44b9-ab8f-69d3bf610408"},"vehicle_type_id":"4","last_reported":1738854579,"current_range_meters":34000,"station_id":"ce4bhbp2rcd13ifvqerg","pricing_plan_id":"cebpf4jnsgd1na2vs0mg"},{"bike_id":"f386c8a4-5640-42aa-8fb4-bd400843ecee","system_id":"levelo_inurba_marseille","lat":43.33023,"lon":5.3904,"is_reserved":false,"is_disabled":false,"rental_uris":{"android":"levelo://app?vid=f386c8a4-5640-42aa-8fb4-bd400843ecee","ios":"levelo://app?vid=f386c8a4-5640-42aa-8fb4-bd400843ecee"},"vehicle_type_id":"4","last_reported":1738854579,"current_range_meters":39200,"station_id":"ce4bhr92rcd13ifvqhrg","pricing_plan_id":"cebpf4jnsgd1na2vs0mg"},{"bike_id":"e1f88ee7-5690-46ae-b1be-2e6e4cee9755","system_id":"levelo_inurba_marseille","lat":43.33015,"lon":5.3904,"is_reserved":false,"is_disabled":false,"rental_uris":{"android":"levelo://app?vid=e1f88ee7-5690-46ae-b1be-2e6e4cee9755","ios":"levelo://app?vid=e1f88ee7-5690-46ae-b1be-2e6e4cee9755"},"vehicle_type_id":"4","last_reported":1738854579,"current_range_meters":32000,"station_id":"ce4bhr92rcd13ifvqhrg","pricing_plan_id":"cebpf4jnsgd1na2vs0mg"},{"bike_id":"50f17da0-0053-46eb-8437-f9449a8433c0","system_id":"levelo_inurba_marseille","lat":43.32076,"lon":5.41533,"is_reserved":false,"is_disabled":false,"rental_uris":{"android":"levelo://app?vid=50f17da0-0053-46eb-8437-f9449a8433c0","ios":"levelo://app?vid=50f17da0-0053-46eb-8437-f9449a8433c0"},"vehicle_type_id":"4","last_reported":1738854579,"current_range_meters":38400,"station_id":"ce4bhq92rcd13ifvqhkg","pricing_plan_id":"cebpf4jnsgd1na2vs0mg"},{"bike_id":"38c47b95-ad7d-4d74-ab3c-fbd6a0ae4207","system_id":"levelo_inurba_marseille","lat":43.28406,"lon":5.37522,"is_reserved":false,"is_disabled":false,"rental_uris":{"android":"levelo://app?vid=38c47b95-ad7d-4d74-ab3c-fbd6a0ae4207","ios":"levelo://app?vid=38c47b95-ad7d-4d74-ab3c-fbd6a0ae4207"},"vehicle_type_id":"4","last_reported":1738854579,"current_range_meters":4400,"station_id":"ce4bh412rcd13ifvqds0","pricing_plan_id":"cebpf4jnsgd1na2vs0mg"},{"bike_id":"a9540ad5-3d7c-4a90-9cfc-b4e05b313910","system_id":"levelo_inurba_marseille","lat":43.31074,"lon":5.38369,"is_reserved":false,"is_disabled":false,"rental_uris":{"android":"levelo://app?vid=a9540ad5-3d7c-4a90-9cfc-b4e05b313910","ios":"levelo://app?vid=a9540ad5-3d7c-4a90-9cfc-b4e05b313910"},"vehicle_type_id":"4","last_reported":1738854579,"current_range_meters":36800,"station_id":"ce4bgv92rcd13ifvqcr0","pricing_plan_id":"cebpf4jnsgd1na2vs0mg"},{"bike_id":"47776104-e68d-4b1e-8337-df984b1c0c93","system_id":"levelo_inurba_marseille","lat":43.28279,"lon":5.35085,"is_reserved":false,"is_disabled":false,"rental_uris":{"android":"levelo://app?vid=47776104-e68d-4b1e-8337-df984b1c0c93","ios":"levelo://app?vid=47776104-e68d-4b1e-8337-df984b1c0c93"},"vehicle_type_id":"4","last_reported":1738854579,"current_range_meters":19600,"station_id":"ce4bhbp2rcd13ifvqerg","pricing_plan_id":"cebpf4jnsgd1na2vs0mg"},{"bike_id":"424c18bd-ddf4-4fe9-947e-87ca219aba98","system_id":"levelo_inurba_marseille","lat":43.2804,"lon":5.36945,"is_reserved":false,"is_disabled":false,"rental_uris":{"android":"levelo://app?vid=424c18bd-ddf4-4fe9-947e-87ca219aba98","ios":"levelo://app?vid=424c18bd-ddf4-4fe9-947e-87ca219aba98"},"vehicle_type_id":"4","last_reported":1738854579,"current_range_meters":29600,"station_id":"ce4bha12rcd13ifvqef0","pricing_plan_id":"cebpf4jnsgd1na2vs0mg"},{"bike_id":"3d4f00b6-3410-4cf9-bec7-cfa85716e97e","system_id":"levelo_inurba_marseille","lat":43.25711,"lon":5.41107,"is_reserved":false,"is_disabled":false,"rental_uris":{"android":"levelo://app?vid=3d4f00b6-3410-4cf9-bec7-cfa85716e97e","ios":"levelo://app?vid=3d4f00b6-3410-4cf9-bec7-cfa85716e97e"},"vehicle_type_id":"4","last_reported":1738854579,"current_range_meters":38800,"station_id":"ce4bhkp2rcd13ifvqgd0","pricing_plan_id":"cebpf4jnsgd1na2vs0mg"},{"bike_id":"6068af08-8983-4255-8380-a1917fd17497","system_id":"levelo_inurba_marseille","lat":43.28417,"lon":5.34997,"is_reserved":false,"is_disabled":false,"rental_uris":{"android":"levelo://app?vid=6068af08-8983-4255-8380-a1917fd17497","ios":"levelo://app?vid=6068af08-8983-4255-8380-a1917fd17497"},"vehicle_type_id":"4","last_reported":1738854579,"current_range_meters":31200,"station_id":"ce4bhbh2rcd13ifvqepg","pricing_plan_id":"cebpf4jnsgd1na2vs0mg"},{"bike_id":"1e64c20b-4c2f-4196-850e-d991a4590467","system_id":"levelo_inurba_marseille","lat":43.241844,"lon":5.39738,"is_reserved":false,"is_disabled":false,"rental_uris":{"android":"levelo://app?vid=1e64c20b-4c2f-4196-850e-d991a4590467","ios":"levelo://app?vid=1e64c20b-4c2f-4196-850e-d991a4590467"},"vehicle_type_id":"4","last_reported":1738854579,"current_range_meters":19200,"station_id":"ce4bhn12rcd13ifvqgpg","pricing_plan_id":"cebpf4jnsgd1na2vs0mg"},{"bike_id":"c73e9aba-ed51-4e64-aa90-a18f98fb3525","system_id":"levelo_inurba_marseille","lat":43.31732,"lon":5.42392,"is_reserved":false,"is_disabled":false,"rental_uris":{"android":"levelo://app?vid=c73e9aba-ed51-4e64-aa90-a18f98fb3525","ios":"levelo://app?vid=c73e9aba-ed51-4e64-aa90-a18f98fb3525"},"vehicle_type_id":"4","last_reported":1738854579,"current_range_meters":32000,"station_id":"ce4bhp92rcd13ifvqhbg","pricing_plan_id":"cebpf4jnsgd1na2vs0mg"},{"bike_id":"fe4f45fa-1ccb-482f-8690-10b72699dc34","system_id":"levelo_inurba_marseille","lat":43.30893,"lon":5.37192,"is_reserved":false,"is_disabled":false,"rental_uris":{"android":"levelo://app?vid=fe4f45fa-1ccb-482f-8690-10b72699dc34","ios":"levelo://app?vid=fe4f45fa-1ccb-482f-8690-10b72699dc34"},"vehicle_type_id":"4","last_reported":1738854579,"current_range_meters":36800,"station_id":"ce4bguh2rcd13ifvqckg","pricing_plan_id":"cebpf4jnsgd1na2vs0mg"},{"bike_id":"d3b6aa38-245d-490f-9423-71d024f7e46f","system_id":"levelo_inurba_marseille","lat":43.25104,"lon":5.4032,"is_reserved":false,"is_disabled":false,"rental_uris":{"android":"levelo://app?vid=d3b6aa38-245d-490f-9423-71d024f7e46f","ios":"levelo://app?vid=d3b6aa38-245d-490f-9423-71d024f7e46f"},"vehicle_type_id":"4","last_reported":1738854579,"current_range_meters":21600,"station_id":"ce4bhlh2rcd13ifvqgig","pricing_plan_id":"cebpf4jnsgd1na2vs0mg"},{"bike_id":"38644321-9860-4181-8480-f5af658b5328","system_id":"levelo_inurba_marseille","lat":43.29877,"lon":5.39734,"is_reserved":false,"is_disabled":false,"rental_uris":{"android":"levelo://app?vid=38644321-9860-4181-8480-f5af658b5328","ios":"levelo://app?vid=38644321-9860-4181-8480-f5af658b5328"},"vehicle_type_id":"4","last_reported":1738854579,"current_range_meters":26800,"station_id":"ce4bh0h2rcd13ifvqd50","pricing_plan_id":"cebpf4jnsgd1na2vs0mg"},{"bike_id":"d24de62b-f43d-4ee9-8636-eae3f9e1d596","system_id":"levelo_inurba_marseille","lat":43.27175,"lon":5.40999,"is_reserved":false,"is_disabled":false,"rental_uris":{"android":"levelo://app?vid=d24de62b-f43d-4ee9-8636-eae3f9e1d596","ios":"levelo://app?vid=d24de62b-f43d-4ee9-8636-eae3f9e1d596"},"vehicle_type_id":"4","last_reported":1738854579,"current_range_meters":36400,"station_id":"ce4bhl12rcd13ifvqgf0","pricing_plan_id":"cebpf4jnsgd1na2vs0mg"},{"bike_id":"5bb34246-7df1-4035-9dc2-a0a5a607a1fa","system_id":"levelo_inurba_marseille","lat":43.31753,"lon":5.39011,"is_reserved":false,"is_disabled":false,"rental_uris":{"android":"levelo://app?vid=5bb34246-7df1-4035-9dc2-a0a5a607a1fa","ios":"levelo://app?vid=5bb34246-7df1-4035-9dc2-a0a5a607a1fa"},"vehicle_type_id":"4","last_reported":1738854579,"current_range_meters":38800,"station_id":"ce4bhqp2rcd13ifvqhng","pricing_plan_id":"cebpf4jnsgd1na2vs0mg"},{"bike_id":"b4400f86-e521-4bde-9c95-41cc028a944d","system_id":"levelo_inurba_marseille","lat":43.29382,"lon":5.37855,"is_reserved":false,"is_disabled":false,"rental_uris":{"android":"levelo://app?vid=b4400f86-e521-4bde-9c95-41cc028a944d","ios":"levelo://app?vid=b4400f86-e521-4bde-9c95-41cc028a944d"},"vehicle_type_id":"4","last_reported":1738854579,"current_range_meters":39200,"station_id":"ce4bgjh2rcd13ifvqbf0","pricing_plan_id":"cebpf4jnsgd1na2vs0mg"},{"bike_id":"35d58b3f-3516-448d-a377-957ad2585687","system_id":"levelo_inurba_marseille","lat":43.29729,"lon":5.377,"is_reserved":false,"is_disabled":false,"rental_uris":{"android":"levelo://app?vid=35d58b3f-3516-448d-a377-957ad2585687","ios":"levelo://app?vid=35d58b3f-3516-448d-a377-957ad2585687"},"vehicle_type_id":"4","last_reported":1738854579,"current_range_meters":39200,"station_id":"ce4bgkh2rcd13ifvqbl0","pricing_plan_id":"cebpf4jnsgd1na2vs0mg"},{"bike_id":"33aa4f66-c44e-435c-99d5-1fa32069242d","system_id":"levelo_inurba_marseille","lat":43.26037,"lon":5.37549,"is_reserved":false,"is_disabled":false,"rental_uris":{"android":"levelo://app?vid=33aa4f66-c44e-435c-99d5-1fa32069242d","ios":"levelo://app?vid=33aa4f66-c44e-435c-99d5-1fa32069242d"},"vehicle_type_id":"4","last_reported":1738854579,"current_range_meters":3600,"station_id":"ce4bhgh2rcd13ifvqfa0","pricing_plan_id":"cebpf4jnsgd1na2vs0mg"},{"bike_id":"65352c4c-1c7a-4184-af38-68d6891c7b86","system_id":"levelo_inurba_marseille","lat":43.24063,"lon":5.37755,"is_reserved":false,"is_disabled":false,"rental_uris":{"android":"levelo://app?vid=65352c4c-1c7a-4184-af38-68d6891c7b86","ios":"levelo://app?vid=65352c4c-1c7a-4184-af38-68d6891c7b86"},"vehicle_type_id":"4","last_reported":1738854579,"current_range_meters":28000,"station_id":"ce4bhnp2rcd13ifvqgvg","pricing_plan_id":"cebpf4jnsgd1na2vs0mg"},{"bike_id":"6c8da517-3f53-4dca-8613-d56443d9822a","system_id":"levelo_inurba_marseille","lat":43.28152,"lon":5.42641,"is_reserved":false,"is_disabled":false,"rental_uris":{"android":"levelo://app?vid=6c8da517-3f53-4dca-8613-d56443d9822a","ios":"levelo://app?vid=6c8da517-3f53-4dca-8613-d56443d9822a"},"vehicle_type_id":"4","last_reported":1738854579,"current_range_meters":23200,"station_id":"ce4bhnh2rcd13ifvqgug","pricing_plan_id":"cebpf4jnsgd1na2vs0mg"},{"bike_id":"afc5a89b-3d60-4347-8635-42003f9393d8","system_id":"levelo_inurba_marseille","lat":43.30209,"lon":5.39475,"is_reserved":false,"is_disabled":false,"rental_uris":{"android":"levelo://app?vid=afc5a89b-3d60-4347-8635-42003f9393d8","ios":"levelo://app?vid=afc5a89b-3d60-4347-8635-42003f9393d8"},"vehicle_type_id":"4","last_reported":1738854579,"current_range_meters":28800,"station_id":"ce4bh0p2rcd13ifvqd70","pricing_plan_id":"cebpf4jnsgd1na2vs0mg"},{"bike_id":"6319f86e-ab70-41a7-9b31-45325048be41","system_id":"levelo_inurba_marseille","lat":43.29573,"lon":5.36737,"is_reserved":false,"is_disabled":false,"rental_uris":{"android":"levelo://app?vid=6319f86e-ab70-41a7-9b31-45325048be41","ios":"levelo://app?vid=6319f86e-ab70-41a7-9b31-45325048be41"},"vehicle_type_id":"4","last_reported":1738854579,"current_range_meters":37600,"station_id":"ce4bgph2rcd13ifvqc2g","pricing_plan_id":"cebpf4jnsgd1na2vs0mg"},{"bike_id":"9cbb75a4-21af-455e-8b0f-3fbbc5d09fef","system_id":"levelo_inurba_marseille","lat":43.29629,"lon":5.37175,"is_reserved":false,"is_disabled":false,"rental_uris":{"android":"levelo://app?vid=9cbb75a4-21af-455e-8b0f-3fbbc5d09fef","ios":"levelo://app?vid=9cbb75a4-21af-455e-8b0f-3fbbc5d09fef"},"vehicle_type_id":"4","last_reported":1738854579,"current_range_meters":18800,"station_id":"ce4bgnh2rcd13ifvqc0g","pricing_plan_id":"cebpf4jnsgd1na2vs0mg"},{"bike_id":"b431af75-13a5-414d-bc34-5aada4b6d104","system_id":"levelo_inurba_marseille","lat":43.28088,"lon":5.37838,"is_reserved":false,"is_disabled":false,"rental_uris":{"android":"levelo://app?vid=b431af75-13a5-414d-bc34-5aada4b6d104","ios":"levelo://app?vid=b431af75-13a5-414d-bc34-5aada4b6d104"},"vehicle_type_id":"4","last_reported":1738854579,"current_range_meters":36400,"station_id":"ce4bha12rcd13ifvqee0","pricing_plan_id":"cebpf4jnsgd1na2vs0mg"},{"bike_id":"484b0a78-c1cb-4960-bb65-9ccbbd8f04d9","system_id":"levelo_inurba_marseille","lat":43.28343,"lon":5.38096,"is_reserved":false,"is_disabled":false,"rental_uris":{"android":"levelo://app?vid=484b0a78-c1cb-4960-bb65-9ccbbd8f04d9","ios":"levelo://app?vid=484b0a78-c1cb-4960-bb65-9ccbbd8f04d9"},"vehicle_type_id":"4","last_reported":1738854579,"current_range_meters":28800,"station_id":"ce4bh412rcd13ifvqdr0","pricing_plan_id":"cebpf4jnsgd1na2vs0mg"},{"bike_id":"a6b4f428-8d14-4dc9-b3bb-8bc731f54abd","system_id":"levelo_inurba_marseille","lat":43.2781,"lon":5.40711,"is_reserved":false,"is_disabled":false,"rental_uris":{"android":"levelo://app?vid=a6b4f428-8d14-4dc9-b3bb-8bc731f54abd","ios":"levelo://app?vid=a6b4f428-8d14-4dc9-b3bb-8bc731f54abd"},"vehicle_type_id":"4","last_reported":1738854579,"current_range_meters":39200,"station_id":"ce4bhnh2rcd13ifvqgtg","pricing_plan_id":"cebpf4jnsgd1na2vs0mg"},{"bike_id":"eef57110-ad5d-4a20-90d3-877af4175835","system_id":"levelo_inurba_marseille","lat":43.29434,"lon":5.39745,"is_reserved":false,"is_disabled":false,"rental_uris":{"android":"levelo://app?vid=eef57110-ad5d-4a20-90d3-877af4175835","ios":"levelo://app?vid=eef57110-ad5d-4a20-90d3-877af4175835"},"vehicle_type_id":"4","last_reported":1738854579,"current_range_meters":38400,"station_id":"ce4bh3h2rcd13ifvqdo0","pricing_plan_id":"cebpf4jnsgd1na2vs0mg"},{"bike_id":"77788adc-e90a-4e5f-aa1d-7e77c11698e5","system_id":"levelo_inurba_marseille","lat":43.23966,"lon":5.36633,"is_reserved":false,"is_disabled":false,"rental_uris":{"android":"levelo://app?vid=77788adc-e90a-4e5f-aa1d-7e77c11698e5","ios":"levelo://app?vid=77788adc-e90a-4e5f-aa1d-7e77c11698e5"},"vehicle_type_id":"4","last_reported":1738854579,"current_range_meters":11600,"station_id":"ce4bhi12rcd13ifvqfp0","pricing_plan_id":"cebpf4jnsgd1na2vs0mg"},{"bike_id":"504f5ed2-4121-4fce-a743-61572b70b490","system_id":"levelo_inurba_marseille","lat":43.28415,"lon":5.37529,"is_reserved":false,"is_disabled":false,"rental_uris":{"android":"levelo://app?vid=504f5ed2-4121-4fce-a743-61572b70b490","ios":"levelo://app?vid=504f5ed2-4121-4fce-a743-61572b70b490"},"vehicle_type_id":"4","last_reported":1738854579,"current_range_meters":11200,"station_id":"ce4bh412rcd13ifvqds0","pricing_plan_id":"cebpf4jnsgd1na2vs0mg"},{"bike_id":"204fac92-7246-4044-9f76-613da4881d14","system_id":"levelo_inurba_marseille","lat":43.305447,"lon":5.365298,"is_reserved":false,"is_disabled":false,"rental_uris":{"android":"levelo://app?vid=204fac92-7246-4044-9f76-613da4881d14","ios":"levelo://app?vid=204fac92-7246-4044-9f76-613da4881d14"},"vehicle_type_id":"4","last_reported":1738854579,"current_range_meters":33200,"station_id":"ce4bgs12rcd13ifvqcag","pricing_plan_id":"cebpf4jnsgd1na2vs0mg"},{"bike_id":"7cc59337-82bf-4d77-bc3e-212890c77ddd","system_id":"levelo_inurba_marseille","lat":43.23179,"lon":5.35568,"is_reserved":false,"is_disabled":false,"rental_uris":{"android":"levelo://app?vid=7cc59337-82bf-4d77-bc3e-212890c77ddd","ios":"levelo://app?vid=7cc59337-82bf-4d77-bc3e-212890c77ddd"},"vehicle_type_id":"4","last_reported":1738854579,"current_range_meters":32800,"station_id":"ce4bhu92rcd13ifvqi70","pricing_plan_id":"cebpf4jnsgd1na2vs0mg"},{"bike_id":"b84b1eed-a7a2-41ae-a41a-45c86bb41a79","system_id":"levelo_inurba_marseille","lat":43.32548,"lon":5.41446,"is_reserved":false,"is_disabled":false,"rental_uris":{"android":"levelo://app?vid=b84b1eed-a7a2-41ae-a41a-45c86bb41a79","ios":"levelo://app?vid=b84b1eed-a7a2-41ae-a41a-45c86bb41a79"},"vehicle_type_id":"4","last_reported":1738854579,"current_range_meters":26800,"station_id":"ce4bhq12rcd13ifvqhhg","pricing_plan_id":"cebpf4jnsgd1na2vs0mg"},{"bike_id":"62c60fab-2295-4b5d-b024-30bcd0ca6737","system_id":"levelo_inurba_marseille","lat":43.255777,"lon":5.382308,"is_reserved":false,"is_disabled":false,"rental_uris":{"android":"levelo://app?vid=62c60fab-2295-4b5d-b024-30bcd0ca6737","ios":"levelo://app?vid=62c60fab-2295-4b5d-b024-30bcd0ca6737"},"vehicle_type_id":"4","last_reported":1738854579,"current_range_meters":39200,"station_id":"ce4bhih2rcd13ifvqfs0","pricing_plan_id":"cebpf4jnsgd1na2vs0mg"},{"bike_id":"09904bc2-7c58-472a-a686-475a22cbc56d","system_id":"levelo_inurba_marseille","lat":43.24076,"lon":5.37752,"is_reserved":false,"is_disabled":false,"rental_uris":{"android":"levelo://app?vid=09904bc2-7c58-472a-a686-475a22cbc56d","ios":"levelo://app?vid=09904bc2-7c58-472a-a686-475a22cbc56d"},"vehicle_type_id":"4","last_reported":1738854579,"current_range_meters":19200,"station_id":"ce4bhnp2rcd13ifvqgvg","pricing_plan_id":"cebpf4jnsgd1na2vs0mg"},{"bike_id":"1e6bd623-b9e9-4650-9f6f-8b4d5252096e","system_id":"levelo_inurba_marseille","lat":43.30806,"lon":5.43502,"is_reserved":false,"is_disabled":false,"rental_uris":{"android":"levelo://app?vid=1e6bd623-b9e9-4650-9f6f-8b4d5252096e","ios":"levelo://app?vid=1e6bd623-b9e9-4650-9f6f-8b4d5252096e"},"vehicle_type_id":"4","last_reported":1738854579,"current_range_meters":39200,"station_id":"ce4bhph2rcd13ifvqheg","pricing_plan_id":"cebpf4jnsgd1na2vs0mg"},{"bike_id":"8e76b729-0eda-4a45-8817-f621541762f1","system_id":"levelo_inurba_marseille","lat":43.30463,"lon":5.37911,"is_reserved":false,"is_disabled":false,"rental_uris":{"android":"levelo://app?vid=8e76b729-0eda-4a45-8817-f621541762f1","ios":"levelo://app?vid=8e76b729-0eda-4a45-8817-f621541762f1"},"vehicle_type_id":"4","last_reported":1738854579,"current_range_meters":28400,"station_id":"ce4bgup2rcd13ifvqcn0","pricing_plan_id":"cebpf4jnsgd1na2vs0mg"},{"bike_id":"e2f55a13-505c-4b0a-b562-d053d8e549d1","system_id":"levelo_inurba_marseille","lat":43.32547,"lon":5.41445,"is_reserved":false,"is_disabled":false,"rental_uris":{"android":"levelo://app?vid=e2f55a13-505c-4b0a-b562-d053d8e549d1","ios":"levelo://app?vid=e2f55a13-505c-4b0a-b562-d053d8e549d1"},"vehicle_type_id":"4","last_reported":1738854579,"current_range_meters":38800,"station_id":"ce4bhq12rcd13ifvqhhg","pricing_plan_id":"cebpf4jnsgd1na2vs0mg"},{"bike_id":"5f637f24-6e34-4f46-912d-56b4d090c451","system_id":"levelo_inurba_marseille","lat":43.30456,"lon":5.37922,"is_reserved":false,"is_disabled":true,"rental_uris":{"android":"levelo://app?vid=5f637f24-6e34-4f46-912d-56b4d090c451","ios":"levelo://app?vid=5f637f24-6e34-4f46-912d-56b4d090c451"},"vehicle_type_id":"4","last_reported":1738854579,"current_range_meters":13600,"station_id":"ce4bho92rcd13ifvqh3g","pricing_plan_id":"cebpf4jnsgd1na2vs0mg"},{"bike_id":"b461e7a4-d96d-46da-90bc-b23e17086420","system_id":"levelo_inurba_marseille","lat":43.27381,"lon":5.36238,"is_reserved":false,"is_disabled":false,"rental_uris":{"android":"levelo://app?vid=b461e7a4-d96d-46da-90bc-b23e17086420","ios":"levelo://app?vid=b461e7a4-d96d-46da-90bc-b23e17086420"},"vehicle_type_id":"4","last_reported":1738854579,"current_range_meters":8400,"station_id":"ce4bhbh2rcd13ifvqeo0","pricing_plan_id":"cebpf4jnsgd1na2vs0mg"},{"bike_id":"adea3fe0-0d5f-493f-bc7a-8db19cd779cc","system_id":"levelo_inurba_marseille","lat":43.26203,"lon":5.37922,"is_reserved":false,"is_disabled":false,"rental_uris":{"android":"levelo://app?vid=adea3fe0-0d5f-493f-bc7a-8db19cd779cc","ios":"levelo://app?vid=adea3fe0-0d5f-493f-bc7a-8db19cd779cc"},"vehicle_type_id":"4","last_reported":1738854579,"current_range_meters":38800,"station_id":"ce4bhjp2rcd13ifvqg90","pricing_plan_id":"cebpf4jnsgd1na2vs0mg"},{"bike_id":"4fab0f00-add3-49e3-8857-15cabf7ef569","system_id":"levelo_inurba_marseille","lat":43.2984,"lon":5.3627,"is_reserved":false,"is_disabled":false,"rental_uris":{"android":"levelo://app?vid=4fab0f00-add3-49e3-8857-15cabf7ef569","ios":"levelo://app?vid=4fab0f00-add3-49e3-8857-15cabf7ef569"},"vehicle_type_id":"4","last_reported":1738854579,"current_range_meters":33200,"station_id":"ce4bgpp2rcd13ifvqc3g","pricing_plan_id":"cebpf4jnsgd1na2vs0mg"},{"bike_id":"681642bf-9494-4407-bca7-9b3eaecda7bb","system_id":"levelo_inurba_marseille","lat":43.25718,"lon":5.41084,"is_reserved":false,"is_disabled":false,"rental_uris":{"android":"levelo://app?vid=681642bf-9494-4407-bca7-9b3eaecda7bb","ios":"levelo://app?vid=681642bf-9494-4407-bca7-9b3eaecda7bb"},"vehicle_type_id":"4","last_reported":1738854579,"current_range_meters":20800,"station_id":"ce4bhkp2rcd13ifvqgd0","pricing_plan_id":"cebpf4jnsgd1na2vs0mg"},{"bike_id":"d23c7b00-facb-4ee8-b980-597eb067bf60","system_id":"levelo_inurba_marseille","lat":43.2572,"lon":5.41113,"is_reserved":false,"is_disabled":false,"rental_uris":{"android":"levelo://app?vid=d23c7b00-facb-4ee8-b980-597eb067bf60","ios":"levelo://app?vid=d23c7b00-facb-4ee8-b980-597eb067bf60"},"vehicle_type_id":"4","last_reported":1738854579,"current_range_meters":38800,"station_id":"ce4bhkp2rcd13ifvqgd0","pricing_plan_id":"cebpf4jnsgd1na2vs0mg"},{"bike_id":"d95c18ed-b921-4c02-9853-51dfa08f3464","system_id":"levelo_inurba_marseille","lat":43.29676,"lon":5.37299,"is_reserved":false,"is_disabled":false,"rental_uris":{"android":"levelo://app?vid=d95c18ed-b921-4c02-9853-51dfa08f3464","ios":"levelo://app?vid=d95c18ed-b921-4c02-9853-51dfa08f3464"},"vehicle_type_id":"4","last_reported":1738854579,"current_range_meters":16000,"station_id":"ce4bgk12rcd13ifvqbj0","pricing_plan_id":"cebpf4jnsgd1na2vs0mg"},{"bike_id":"f9cc3301-55f7-490b-8131-a32d55a7eb3e","system_id":"levelo_inurba_marseille","lat":43.30363,"lon":5.4188,"is_reserved":false,"is_disabled":false,"rental_uris":{"android":"levelo://app?vid=f9cc3301-55f7-490b-8131-a32d55a7eb3e","ios":"levelo://app?vid=f9cc3301-55f7-490b-8131-a32d55a7eb3e"},"vehicle_type_id":"4","last_reported":1738854579,"current_range_meters":14800,"station_id":"ce4bhop2rcd13ifvqh7g","pricing_plan_id":"cebpf4jnsgd1na2vs0mg"},{"bike_id":"ea47c0e8-3b47-474f-83b7-b953704fe466","system_id":"levelo_inurba_marseille","lat":43.25128,"lon":5.40305,"is_reserved":false,"is_disabled":false,"rental_uris":{"android":"levelo://app?vid=ea47c0e8-3b47-474f-83b7-b953704fe466","ios":"levelo://app?vid=ea47c0e8-3b47-474f-83b7-b953704fe466"},"vehicle_type_id":"4","last_reported":1738854579,"current_range_meters":39200,"station_id":"ce4bhlh2rcd13ifvqgig","pricing_plan_id":"cebpf4jnsgd1na2vs0mg"},{"bike_id":"f9fd413a-dce0-444e-b344-7218021a1818","system_id":"levelo_inurba_marseille","lat":43.29848,"lon":5.36264,"is_reserved":false,"is_disabled":false,"rental_uris":{"android":"levelo://app?vid=f9fd413a-dce0-444e-b344-7218021a1818","ios":"levelo://app?vid=f9fd413a-dce0-444e-b344-7218021a1818"},"vehicle_type_id":"4","last_reported":1738854579,"current_range_meters":17200,"station_id":"ce4bgpp2rcd13ifvqc3g","pricing_plan_id":"cebpf4jnsgd1na2vs0mg"},{"bike_id":"94e65be6-5b5c-4ab2-9830-fce2b715dd4f","system_id":"levelo_inurba_marseille","lat":43.29854,"lon":5.36271,"is_reserved":false,"is_disabled":false,"rental_uris":{"android":"levelo://app?vid=94e65be6-5b5c-4ab2-9830-fce2b715dd4f","ios":"levelo://app?vid=94e65be6-5b5c-4ab2-9830-fce2b715dd4f"},"vehicle_type_id":"4","last_reported":1738854579,"current_range_meters":38800,"station_id":"ce4bgpp2rcd13ifvqc3g","pricing_plan_id":"cebpf4jnsgd1na2vs0mg"},{"bike_id":"34ce6a74-2309-43f0-8054-fa5f00422683","system_id":"levelo_inurba_marseille","lat":43.23066,"lon":5.355,"is_reserved":false,"is_disabled":false,"rental_uris":{"android":"levelo://app?vid=34ce6a74-2309-43f0-8054-fa5f00422683","ios":"levelo://app?vid=34ce6a74-2309-43f0-8054-fa5f00422683"},"vehicle_type_id":"4","last_reported":1738854579,"current_range_meters":36000,"station_id":"cpo3342slgdg3j2ifvpg","pricing_plan_id":"cebpf4jnsgd1na2vs0mg"},{"bike_id":"59db9156-837c-4bef-bdf0-6cb05d00fb23","system_id":"levelo_inurba_marseille","lat":43.24172,"lon":5.36394,"is_reserved":false,"is_disabled":false,"rental_uris":{"android":"levelo://app?vid=59db9156-837c-4bef-bdf0-6cb05d00fb23","ios":"levelo://app?vid=59db9156-837c-4bef-bdf0-6cb05d00fb23"},"vehicle_type_id":"4","last_reported":1738854579,"current_range_meters":36000,"station_id":"cpo36qri1sfpv3e86is0","pricing_plan_id":"cebpf4jnsgd1na2vs0mg"},{"bike_id":"214cb8fd-5c10-46f2-9ac4-945072a73ae1","system_id":"levelo_inurba_marseille","lat":43.2872,"lon":5.37957,"is_reserved":false,"is_disabled":false,"rental_uris":{"android":"levelo://app?vid=214cb8fd-5c10-46f2-9ac4-945072a73ae1","ios":"levelo://app?vid=214cb8fd-5c10-46f2-9ac4-945072a73ae1"},"vehicle_type_id":"4","last_reported":1738854579,"current_range_meters":23200,"station_id":"ce4bh9p2rcd13ifvqec0","pricing_plan_id":"cebpf4jnsgd1na2vs0mg"},{"bike_id":"d7080149-7e59-4a17-b2d0-4462637b5ebd","system_id":"levelo_inurba_marseille","lat":43.24178,"lon":5.39724,"is_reserved":false,"is_disabled":false,"rental_uris":{"android":"levelo://app?vid=d7080149-7e59-4a17-b2d0-4462637b5ebd","ios":"levelo://app?vid=d7080149-7e59-4a17-b2d0-4462637b5ebd"},"vehicle_type_id":"4","last_reported":1738854579,"current_range_meters":36000,"station_id":"ce4bhn12rcd13ifvqgpg","pricing_plan_id":"cebpf4jnsgd1na2vs0mg"},{"bike_id":"19c91191-64ee-4803-94d7-14a4a66340df","system_id":"levelo_inurba_marseille","lat":43.31698,"lon":5.42396,"is_reserved":false,"is_disabled":true,"rental_uris":{"android":"levelo://app?vid=19c91191-64ee-4803-94d7-14a4a66340df","ios":"levelo://app?vid=19c91191-64ee-4803-94d7-14a4a66340df"},"vehicle_type_id":"4","last_reported":1738854579,"current_range_meters":0,"station_id":"ce4bhp92rcd13ifvqhbg","pricing_plan_id":"cebpf4jnsgd1na2vs0mg"},{"bike_id":"0a6a90a0-b9a1-4553-942b-9cc8f0c94f66","system_id":"levelo_inurba_marseille","lat":43.29256,"lon":5.40903,"is_reserved":false,"is_disabled":true,"rental_uris":{"android":"levelo://app?vid=0a6a90a0-b9a1-4553-942b-9cc8f0c94f66","ios":"levelo://app?vid=0a6a90a0-b9a1-4553-942b-9cc8f0c94f66"},"vehicle_type_id":"4","last_reported":1738854579,"current_range_meters":18800,"station_id":"ce4bh192rcd13ifvqdc0","pricing_plan_id":"cebpf4jnsgd1na2vs0mg"},{"bike_id":"fef1bd1d-2ad2-48f6-a1bb-d87aafe8c512","system_id":"levelo_inurba_marseille","lat":43.28935,"lon":5.36398,"is_reserved":false,"is_disabled":true,"rental_uris":{"android":"levelo://app?vid=fef1bd1d-2ad2-48f6-a1bb-d87aafe8c512","ios":"levelo://app?vid=fef1bd1d-2ad2-48f6-a1bb-d87aafe8c512"},"vehicle_type_id":"4","last_reported":1738854579,"current_range_meters":400,"station_id":"ce4bhc92rcd13ifvqetg","pricing_plan_id":"cebpf4jnsgd1na2vs0mg"},{"bike_id":"d4603b7b-9274-4e2c-9ca1-db3da1976d9f","system_id":"levelo_inurba_marseille","lat":43.29981,"lon":5.38485,"is_reserved":false,"is_disabled":false,"rental_uris":{"android":"levelo://app?vid=d4603b7b-9274-4e2c-9ca1-db3da1976d9f","ios":"levelo://app?vid=d4603b7b-9274-4e2c-9ca1-db3da1976d9f"},"vehicle_type_id":"4","last_reported":1738854579,"current_range_meters":10000,"station_id":"ce4bgj92rcd13ifvqbd0","pricing_plan_id":"cebpf4jnsgd1na2vs0mg"},{"bike_id":"243b7b0f-8643-4cf9-81d4-9429ff18488c","system_id":"levelo_inurba_marseille","lat":43.26789,"lon":5.39414,"is_reserved":false,"is_disabled":false,"rental_uris":{"android":"levelo://app?vid=243b7b0f-8643-4cf9-81d4-9429ff18488c","ios":"levelo://app?vid=243b7b0f-8643-4cf9-81d4-9429ff18488c"},"vehicle_type_id":"4","last_reported":1738854579,"current_range_meters":22000,"station_id":"ce4bhh12rcd13ifvqfg0","pricing_plan_id":"cebpf4jnsgd1na2vs0mg"},{"bike_id":"f4141aa1-ee82-4a0c-b918-2ba5e51fa1c1","system_id":"levelo_inurba_marseille","lat":43.27077,"lon":5.42277,"is_reserved":false,"is_disabled":false,"rental_uris":{"android":"levelo://app?vid=f4141aa1-ee82-4a0c-b918-2ba5e51fa1c1","ios":"levelo://app?vid=f4141aa1-ee82-4a0c-b918-2ba5e51fa1c1"},"vehicle_type_id":"4","last_reported":1738854579,"current_range_meters":28400,"station_id":"ce4bhk92rcd13ifvqgb0","pricing_plan_id":"cebpf4jnsgd1na2vs0mg"},{"bike_id":"dcedf653-d673-4220-942c-a1d707eec285","system_id":"levelo_inurba_marseille","lat":43.28,"lon":5.40016,"is_reserved":false,"is_disabled":false,"rental_uris":{"android":"levelo://app?vid=dcedf653-d673-4220-942c-a1d707eec285","ios":"levelo://app?vid=dcedf653-d673-4220-942c-a1d707eec285"},"vehicle_type_id":"4","last_reported":1738854579,"current_range_meters":32400,"station_id":"ce4bho92rcd13ifvqh4g","pricing_plan_id":"cebpf4jnsgd1na2vs0mg"},{"bike_id":"2ce23d75-a5ae-4911-b475-9c48dc415d5a","system_id":"levelo_inurba_marseille","lat":43.29617,"lon":5.37722,"is_reserved":false,"is_disabled":false,"rental_uris":{"android":"levelo://app?vid=2ce23d75-a5ae-4911-b475-9c48dc415d5a","ios":"levelo://app?vid=2ce23d75-a5ae-4911-b475-9c48dc415d5a"},"vehicle_type_id":"4","last_reported":1738854579,"current_range_meters":35600,"station_id":"ce4bgi92rcd13ifvqb90","pricing_plan_id":"cebpf4jnsgd1na2vs0mg"},{"bike_id":"c24ae054-ed29-4cb8-9f31-257a5f09d458","system_id":"levelo_inurba_marseille","lat":43.27926,"lon":5.38717,"is_reserved":false,"is_disabled":false,"rental_uris":{"android":"levelo://app?vid=c24ae054-ed29-4cb8-9f31-257a5f09d458","ios":"levelo://app?vid=c24ae054-ed29-4cb8-9f31-257a5f09d458"},"vehicle_type_id":"4","last_reported":1738854579,"current_range_meters":37600,"station_id":"","pricing_plan_id":"cebpf4jnsgd1na2vs0mg"},{"bike_id":"5d1dacf3-3fa1-40ba-8373-ce163dd2d283","system_id":"levelo_inurba_marseille","lat":43.26193,"lon":5.37929,"is_reserved":false,"is_disabled":false,"rental_uris":{"android":"levelo://app?vid=5d1dacf3-3fa1-40ba-8373-ce163dd2d283","ios":"levelo://app?vid=5d1dacf3-3fa1-40ba-8373-ce163dd2d283"},"vehicle_type_id":"4","last_reported":1738854579,"current_range_meters":39200,"station_id":"ce4bhjp2rcd13ifvqg90","pricing_plan_id":"cebpf4jnsgd1na2vs0mg"},{"bike_id":"22a1aca8-7237-4f72-9ad2-37a4dc8763d5","system_id":"levelo_inurba_marseille","lat":43.31719,"lon":5.42401,"is_reserved":false,"is_disabled":false,"rental_uris":{"android":"levelo://app?vid=22a1aca8-7237-4f72-9ad2-37a4dc8763d5","ios":"levelo://app?vid=22a1aca8-7237-4f72-9ad2-37a4dc8763d5"},"vehicle_type_id":"4","last_reported":1738854579,"current_range_meters":30400,"station_id":"ce4bhp92rcd13ifvqhbg","pricing_plan_id":"cebpf4jnsgd1na2vs0mg"},{"bike_id":"53407726-3ca3-4dc7-b23c-d204f09a40e0","system_id":"levelo_inurba_marseille","lat":43.27181,"lon":5.40982,"is_reserved":false,"is_disabled":false,"rental_uris":{"android":"levelo://app?vid=53407726-3ca3-4dc7-b23c-d204f09a40e0","ios":"levelo://app?vid=53407726-3ca3-4dc7-b23c-d204f09a40e0"},"vehicle_type_id":"4","last_reported":1738854579,"current_range_meters":38800,"station_id":"ce4bhl12rcd13ifvqgf0","pricing_plan_id":"cebpf4jnsgd1na2vs0mg"},{"bike_id":"da5615d1-f485-4b6c-bb5d-66e5df34ceb7","system_id":"levelo_inurba_marseille","lat":43.29979,"lon":5.3849,"is_reserved":false,"is_disabled":false,"rental_uris":{"android":"levelo://app?vid=da5615d1-f485-4b6c-bb5d-66e5df34ceb7","ios":"levelo://app?vid=da5615d1-f485-4b6c-bb5d-66e5df34ceb7"},"vehicle_type_id":"4","last_reported":1738854579,"current_range_meters":27600,"station_id":"ce4bgj92rcd13ifvqbd0","pricing_plan_id":"cebpf4jnsgd1na2vs0mg"},{"bike_id":"82516f72-f08a-4e3b-9eae-6cefa7c2d956","system_id":"levelo_inurba_marseille","lat":43.26563,"lon":5.39008,"is_reserved":false,"is_disabled":false,"rental_uris":{"android":"levelo://app?vid=82516f72-f08a-4e3b-9eae-6cefa7c2d956","ios":"levelo://app?vid=82516f72-f08a-4e3b-9eae-6cefa7c2d956"},"vehicle_type_id":"4","last_reported":1738854579,"current_range_meters":19200,"station_id":"ce4bhe12rcd13ifvqf30","pricing_plan_id":"cebpf4jnsgd1na2vs0mg"},{"bike_id":"8f775b03-0f36-4f58-a516-b1e5f1a07e8e","system_id":"levelo_inurba_marseille","lat":43.23191,"lon":5.35552,"is_reserved":false,"is_disabled":false,"rental_uris":{"android":"levelo://app?vid=8f775b03-0f36-4f58-a516-b1e5f1a07e8e","ios":"levelo://app?vid=8f775b03-0f36-4f58-a516-b1e5f1a07e8e"},"vehicle_type_id":"4","last_reported":1738854579,"current_range_meters":23200,"station_id":"ce4bhu92rcd13ifvqi70","pricing_plan_id":"cebpf4jnsgd1na2vs0mg"},{"bike_id":"ce457943-8796-4fc8-b051-ba3a0eda9b81","system_id":"levelo_inurba_marseille","lat":43.239591,"lon":5.366316,"is_reserved":false,"is_disabled":false,"rental_uris":{"android":"levelo://app?vid=ce457943-8796-4fc8-b051-ba3a0eda9b81","ios":"levelo://app?vid=ce457943-8796-4fc8-b051-ba3a0eda9b81"},"vehicle_type_id":"4","last_reported":1738854579,"current_range_meters":18000,"station_id":"ce4bhi12rcd13ifvqfp0","pricing_plan_id":"cebpf4jnsgd1na2vs0mg"},{"bike_id":"b47fb2c4-feb8-4301-8479-986b7990684b","system_id":"levelo_inurba_marseille","lat":43.29181,"lon":5.35797,"is_reserved":false,"is_disabled":false,"rental_uris":{"android":"levelo://app?vid=b47fb2c4-feb8-4301-8479-986b7990684b","ios":"levelo://app?vid=b47fb2c4-feb8-4301-8479-986b7990684b"},"vehicle_type_id":"4","last_reported":1738854579,"current_range_meters":38000,"station_id":"ce4bhb12rcd13ifvqel0","pricing_plan_id":"cebpf4jnsgd1na2vs0mg"},{"bike_id":"41a3b9b2-d357-4945-9b9b-238c867bb3a7","system_id":"levelo_inurba_marseille","lat":43.25727,"lon":5.41094,"is_reserved":false,"is_disabled":false,"rental_uris":{"android":"levelo://app?vid=41a3b9b2-d357-4945-9b9b-238c867bb3a7","ios":"levelo://app?vid=41a3b9b2-d357-4945-9b9b-238c867bb3a7"},"vehicle_type_id":"4","last_reported":1738854579,"current_range_meters":19200,"station_id":"ce4bhkp2rcd13ifvqgd0","pricing_plan_id":"cebpf4jnsgd1na2vs0mg"},{"bike_id":"ed70cd19-117e-4753-bae1-f7f6eecb9817","system_id":"levelo_inurba_marseille","lat":43.29797,"lon":5.38096,"is_reserved":false,"is_disabled":false,"rental_uris":{"android":"levelo://app?vid=ed70cd19-117e-4753-bae1-f7f6eecb9817","ios":"levelo://app?vid=ed70cd19-117e-4753-bae1-f7f6eecb9817"},"vehicle_type_id":"4","last_reported":1738854579,"current_range_meters":6800,"station_id":"ce4bgip2rcd13ifvqbb0","pricing_plan_id":"cebpf4jnsgd1na2vs0mg"},{"bike_id":"c98dac74-8ef2-440f-bb69-0af2b3220a11","system_id":"levelo_inurba_marseille","lat":43.29877,"lon":5.36287,"is_reserved":false,"is_disabled":true,"rental_uris":{"android":"levelo://app?vid=c98dac74-8ef2-440f-bb69-0af2b3220a11","ios":"levelo://app?vid=c98dac74-8ef2-440f-bb69-0af2b3220a11"},"vehicle_type_id":"4","last_reported":1738854579,"current_range_meters":37600,"station_id":"ce4bgpp2rcd13ifvqc3g","pricing_plan_id":"cebpf4jnsgd1na2vs0mg"},{"bike_id":"f10185ed-89b2-4796-a0b4-b52ba86c9b83","system_id":"levelo_inurba_marseille","lat":43.28396,"lon":5.34993,"is_reserved":false,"is_disabled":false,"rental_uris":{"android":"levelo://app?vid=f10185ed-89b2-4796-a0b4-b52ba86c9b83","ios":"levelo://app?vid=f10185ed-89b2-4796-a0b4-b52ba86c9b83"},"vehicle_type_id":"4","last_reported":1738854579,"current_range_meters":28800,"station_id":"ce4bhbh2rcd13ifvqepg","pricing_plan_id":"cebpf4jnsgd1na2vs0mg"},{"bike_id":"5bb7bad7-0053-4f6e-bdab-e6c1758bf09a","system_id":"levelo_inurba_marseille","lat":43.27322,"lon":5.39085,"is_reserved":false,"is_disabled":false,"rental_uris":{"android":"levelo://app?vid=5bb7bad7-0053-4f6e-bdab-e6c1758bf09a","ios":"levelo://app?vid=5bb7bad7-0053-4f6e-bdab-e6c1758bf09a"},"vehicle_type_id":"4","last_reported":1738854579,"current_range_meters":35600,"station_id":"ce4bhgp2rcd13ifvqfe0","pricing_plan_id":"cebpf4jnsgd1na2vs0mg"},{"bike_id":"4a7383d5-a136-4262-a1cd-9ee20da3d92e","system_id":"levelo_inurba_marseille","lat":43.24089,"lon":5.37738,"is_reserved":false,"is_disabled":false,"rental_uris":{"android":"levelo://app?vid=4a7383d5-a136-4262-a1cd-9ee20da3d92e","ios":"levelo://app?vid=4a7383d5-a136-4262-a1cd-9ee20da3d92e"},"vehicle_type_id":"4","last_reported":1738854579,"current_range_meters":38800,"station_id":"ce4bhnp2rcd13ifvqgvg","pricing_plan_id":"cebpf4jnsgd1na2vs0mg"},{"bike_id":"7385bff2-e41b-4fa7-a9c5-324e50518a48","system_id":"levelo_inurba_marseille","lat":43.27208,"lon":5.40984,"is_reserved":false,"is_disabled":false,"rental_uris":{"android":"levelo://app?vid=7385bff2-e41b-4fa7-a9c5-324e50518a48","ios":"levelo://app?vid=7385bff2-e41b-4fa7-a9c5-324e50518a48"},"vehicle_type_id":"4","last_reported":1738854579,"current_range_meters":38800,"station_id":"ce4bhl12rcd13ifvqgf0","pricing_plan_id":"cebpf4jnsgd1na2vs0mg"},{"bike_id":"a1c62c5d-e25e-4adb-99a0-c2b47ff63b14","system_id":"levelo_inurba_marseille","lat":43.24146,"lon":5.36408,"is_reserved":false,"is_disabled":false,"rental_uris":{"android":"levelo://app?vid=a1c62c5d-e25e-4adb-99a0-c2b47ff63b14","ios":"levelo://app?vid=a1c62c5d-e25e-4adb-99a0-c2b47ff63b14"},"vehicle_type_id":"4","last_reported":1738854579,"current_range_meters":38800,"station_id":"cpo36qri1sfpv3e86is0","pricing_plan_id":"cebpf4jnsgd1na2vs0mg"},{"bike_id":"addfcf43-9ed8-4b8f-a5c8-e459cfb93f61","system_id":"levelo_inurba_marseille","lat":43.29875,"lon":5.39735,"is_reserved":false,"is_disabled":false,"rental_uris":{"android":"levelo://app?vid=addfcf43-9ed8-4b8f-a5c8-e459cfb93f61","ios":"levelo://app?vid=addfcf43-9ed8-4b8f-a5c8-e459cfb93f61"},"vehicle_type_id":"4","last_reported":1738854579,"current_range_meters":38800,"station_id":"ce4bh0h2rcd13ifvqd50","pricing_plan_id":"cebpf4jnsgd1na2vs0mg"},{"bike_id":"79eab85b-411d-47b7-ba8c-c70679ea549f","system_id":"levelo_inurba_marseille","lat":43.23169,"lon":5.40014,"is_reserved":false,"is_disabled":false,"rental_uris":{"android":"levelo://app?vid=79eab85b-411d-47b7-ba8c-c70679ea549f","ios":"levelo://app?vid=79eab85b-411d-47b7-ba8c-c70679ea549f"},"vehicle_type_id":"4","last_reported":1738854579,"current_range_meters":19200,"station_id":"ce4bhn12rcd13ifvqgqg","pricing_plan_id":"cebpf4jnsgd1na2vs0mg"},{"bike_id":"0faf4c84-4292-4d8b-84c7-6985087ecd78","system_id":"levelo_inurba_marseille","lat":43.31479,"lon":5.37308,"is_reserved":false,"is_disabled":false,"rental_uris":{"android":"levelo://app?vid=0faf4c84-4292-4d8b-84c7-6985087ecd78","ios":"levelo://app?vid=0faf4c84-4292-4d8b-84c7-6985087ecd78"},"vehicle_type_id":"4","last_reported":1738854579,"current_range_meters":28800,"station_id":"ce4bgt12rcd13ifvqcd0","pricing_plan_id":"cebpf4jnsgd1na2vs0mg"},{"bike_id":"341067f4-d7ed-4f99-954f-691c64a92e97","system_id":"levelo_inurba_marseille","lat":43.23181,"lon":5.39992,"is_reserved":false,"is_disabled":false,"rental_uris":{"android":"levelo://app?vid=341067f4-d7ed-4f99-954f-691c64a92e97","ios":"levelo://app?vid=341067f4-d7ed-4f99-954f-691c64a92e97"},"vehicle_type_id":"4","last_reported":1738854579,"current_range_meters":18000,"station_id":"ce4bhn12rcd13ifvqgqg","pricing_plan_id":"cebpf4jnsgd1na2vs0mg"},{"bike_id":"f63a8a51-334b-4967-9d85-e6174bc1f74e","system_id":"levelo_inurba_marseille","lat":43.27986,"lon":5.38753,"is_reserved":false,"is_disabled":false,"rental_uris":{"android":"levelo://app?vid=f63a8a51-334b-4967-9d85-e6174bc1f74e","ios":"levelo://app?vid=f63a8a51-334b-4967-9d85-e6174bc1f74e"},"vehicle_type_id":"4","last_reported":1738854579,"current_range_meters":36400,"station_id":"ce4bhg12rcd13ifvqf80","pricing_plan_id":"cebpf4jnsgd1na2vs0mg"},{"bike_id":"e4adf93d-6d82-4e1d-8391-a8ec7be13712","system_id":"levelo_inurba_marseille","lat":43.27373,"lon":5.36255,"is_reserved":false,"is_disabled":false,"rental_uris":{"android":"levelo://app?vid=e4adf93d-6d82-4e1d-8391-a8ec7be13712","ios":"levelo://app?vid=e4adf93d-6d82-4e1d-8391-a8ec7be13712"},"vehicle_type_id":"4","last_reported":1738854579,"current_range_meters":38800,"station_id":"ce4bhbh2rcd13ifvqeo0","pricing_plan_id":"cebpf4jnsgd1na2vs0mg"},{"bike_id":"4d2e2bac-0ba5-4b7b-a449-3bdedf2e886a","system_id":"levelo_inurba_marseille","lat":43.28274,"lon":5.35078,"is_reserved":false,"is_disabled":false,"rental_uris":{"android":"levelo://app?vid=4d2e2bac-0ba5-4b7b-a449-3bdedf2e886a","ios":"levelo://app?vid=4d2e2bac-0ba5-4b7b-a449-3bdedf2e886a"},"vehicle_type_id":"4","last_reported":1738854579,"current_range_meters":38800,"station_id":"ce4bhbp2rcd13ifvqerg","pricing_plan_id":"cebpf4jnsgd1na2vs0mg"},{"bike_id":"647c039a-5696-472d-bdae-ed1f8830016b","system_id":"levelo_inurba_marseille","lat":43.30796,"lon":5.38146,"is_reserved":false,"is_disabled":false,"rental_uris":{"android":"levelo://app?vid=647c039a-5696-472d-bdae-ed1f8830016b","ios":"levelo://app?vid=647c039a-5696-472d-bdae-ed1f8830016b"},"vehicle_type_id":"4","last_reported":1738854579,"current_range_meters":12000,"station_id":"ce4bgt12rcd13ifvqce0","pricing_plan_id":"cebpf4jnsgd1na2vs0mg"},{"bike_id":"e7479509-16a8-4a70-ad7c-8eb1177b08ad","system_id":"levelo_inurba_marseille","lat":43.2937,"lon":5.3785,"is_reserved":false,"is_disabled":false,"rental_uris":{"android":"levelo://app?vid=e7479509-16a8-4a70-ad7c-8eb1177b08ad","ios":"levelo://app?vid=e7479509-16a8-4a70-ad7c-8eb1177b08ad"},"vehicle_type_id":"4","last_reported":1738854579,"current_range_meters":12400,"station_id":"ce4bgjh2rcd13ifvqbf0","pricing_plan_id":"cebpf4jnsgd1na2vs0mg"},{"bike_id":"966308f5-13c0-42e8-94a0-48a4c002ea40","system_id":"levelo_inurba_marseille","lat":43.31529,"lon":5.3804,"is_reserved":false,"is_disabled":false,"rental_uris":{"android":"levelo://app?vid=966308f5-13c0-42e8-94a0-48a4c002ea40","ios":"levelo://app?vid=966308f5-13c0-42e8-94a0-48a4c002ea40"},"vehicle_type_id":"4","last_reported":1738854579,"current_range_meters":37600,"station_id":"ce4bhsp2rcd13ifvqi50","pricing_plan_id":"cebpf4jnsgd1na2vs0mg"},{"bike_id":"45b14dab-2a59-4c8f-82bb-ec3d3ffaaa90","system_id":"levelo_inurba_marseille","lat":43.30139,"lon":5.3807,"is_reserved":false,"is_disabled":false,"rental_uris":{"android":"levelo://app?vid=45b14dab-2a59-4c8f-82bb-ec3d3ffaaa90","ios":"levelo://app?vid=45b14dab-2a59-4c8f-82bb-ec3d3ffaaa90"},"vehicle_type_id":"4","last_reported":1738854579,"current_range_meters":38000,"station_id":"ce4bgjp2rcd13ifvqbh0","pricing_plan_id":"cebpf4jnsgd1na2vs0mg"},{"bike_id":"8461dcb5-f99b-425c-9064-bd0f19db3c15","system_id":"levelo_inurba_marseille","lat":43.27651,"lon":5.3896,"is_reserved":false,"is_disabled":false,"rental_uris":{"android":"levelo://app?vid=8461dcb5-f99b-425c-9064-bd0f19db3c15","ios":"levelo://app?vid=8461dcb5-f99b-425c-9064-bd0f19db3c15"},"vehicle_type_id":"4","last_reported":1738854579,"current_range_meters":10800,"station_id":"ce4bhi12rcd13ifvqfo0","pricing_plan_id":"cebpf4jnsgd1na2vs0mg"},{"bike_id":"8501cb1e-62cb-4b3c-bc5a-251db8c5ee60","system_id":"levelo_inurba_marseille","lat":43.28443,"lon":5.39204,"is_reserved":false,"is_disabled":false,"rental_uris":{"android":"levelo://app?vid=8501cb1e-62cb-4b3c-bc5a-251db8c5ee60","ios":"levelo://app?vid=8501cb1e-62cb-4b3c-bc5a-251db8c5ee60"},"vehicle_type_id":"4","last_reported":1738854579,"current_range_meters":16400,"station_id":"ce4bhoh2rcd13ifvqh5g","pricing_plan_id":"cebpf4jnsgd1na2vs0mg"},{"bike_id":"d9e1746e-fb35-4488-8bed-3a26bd5c5605","system_id":"levelo_inurba_marseille","lat":43.30271,"lon":5.39813,"is_reserved":false,"is_disabled":true,"rental_uris":{"android":"levelo://app?vid=d9e1746e-fb35-4488-8bed-3a26bd5c5605","ios":"levelo://app?vid=d9e1746e-fb35-4488-8bed-3a26bd5c5605"},"vehicle_type_id":"4","last_reported":1738854579,"current_range_meters":0,"station_id":"","pricing_plan_id":"cebpf4jnsgd1na2vs0mg"},{"bike_id":"53ef3a01-08e4-437e-bad9-9471577e64b0","system_id":"levelo_inurba_marseille","lat":43.24998,"lon":5.38926,"is_reserved":false,"is_disabled":false,"rental_uris":{"android":"levelo://app?vid=53ef3a01-08e4-437e-bad9-9471577e64b0","ios":"levelo://app?vid=53ef3a01-08e4-437e-bad9-9471577e64b0"},"vehicle_type_id":"4","last_reported":1738854579,"current_range_meters":2800,"station_id":"ce4bhgp2rcd13ifvqfd0","pricing_plan_id":"cebpf4jnsgd1na2vs0mg"},{"bike_id":"03bd6fdb-9b93-4bc3-93f0-b3c7d729ae1c","system_id":"levelo_inurba_marseille","lat":43.27205,"lon":5.39177,"is_reserved":false,"is_disabled":false,"rental_uris":{"android":"levelo://app?vid=03bd6fdb-9b93-4bc3-93f0-b3c7d729ae1c","ios":"levelo://app?vid=03bd6fdb-9b93-4bc3-93f0-b3c7d729ae1c"},"vehicle_type_id":"4","last_reported":1738854579,"current_range_meters":38800,"station_id":"ce4bhhp2rcd13ifvqfm0","pricing_plan_id":"cebpf4jnsgd1na2vs0mg"},{"bike_id":"7fbda91b-0102-40be-9e2a-bf3405dc2abc","system_id":"levelo_inurba_marseille","lat":43.25904,"lon":5.3936,"is_reserved":false,"is_disabled":false,"rental_uris":{"android":"levelo://app?vid=7fbda91b-0102-40be-9e2a-bf3405dc2abc","ios":"levelo://app?vid=7fbda91b-0102-40be-9e2a-bf3405dc2abc"},"vehicle_type_id":"4","last_reported":1738854579,"current_range_meters":35600,"station_id":"","pricing_plan_id":"cebpf4jnsgd1na2vs0mg"},{"bike_id":"4947d659-eb08-4036-9a99-2e500e6a4849","system_id":"levelo_inurba_marseille","lat":43.29267,"lon":5.38443,"is_reserved":false,"is_disabled":false,"rental_uris":{"android":"levelo://app?vid=4947d659-eb08-4036-9a99-2e500e6a4849","ios":"levelo://app?vid=4947d659-eb08-4036-9a99-2e500e6a4849"},"vehicle_type_id":"4","last_reported":1738854579,"current_range_meters":35600,"station_id":"ce4bh692rcd13ifvqea0","pricing_plan_id":"cebpf4jnsgd1na2vs0mg"},{"bike_id":"de6a5300-e73d-4d4a-803b-53437c850bdb","system_id":"levelo_inurba_marseille","lat":43.27665,"lon":5.3888,"is_reserved":false,"is_disabled":false,"rental_uris":{"android":"levelo://app?vid=de6a5300-e73d-4d4a-803b-53437c850bdb","ios":"levelo://app?vid=de6a5300-e73d-4d4a-803b-53437c850bdb"},"vehicle_type_id":"4","last_reported":1738854579,"current_range_meters":33600,"station_id":"ce4bhi12rcd13ifvqfo0","pricing_plan_id":"cebpf4jnsgd1na2vs0mg"},{"bike_id":"28e1b22c-6847-4ca0-94e0-b511e35ff41b","system_id":"levelo_inurba_marseille","lat":43.3036,"lon":5.41885,"is_reserved":false,"is_disabled":false,"rental_uris":{"android":"levelo://app?vid=28e1b22c-6847-4ca0-94e0-b511e35ff41b","ios":"levelo://app?vid=28e1b22c-6847-4ca0-94e0-b511e35ff41b"},"vehicle_type_id":"4","last_reported":1738854579,"current_range_meters":38400,"station_id":"ce4bhop2rcd13ifvqh7g","pricing_plan_id":"cebpf4jnsgd1na2vs0mg"},{"bike_id":"fec0e455-3698-4a60-b364-5b72e7a2774c","system_id":"levelo_inurba_marseille","lat":43.301774,"lon":5.380734,"is_reserved":false,"is_disabled":false,"rental_uris":{"android":"levelo://app?vid=fec0e455-3698-4a60-b364-5b72e7a2774c","ios":"levelo://app?vid=fec0e455-3698-4a60-b364-5b72e7a2774c"},"vehicle_type_id":"4","last_reported":1738854579,"current_range_meters":33600,"station_id":"ce4bgjp2rcd13ifvqbh0","pricing_plan_id":"cebpf4jnsgd1na2vs0mg"},{"bike_id":"0ae7beaa-00f4-40f6-bfa7-6b4d92723ad7","system_id":"levelo_inurba_marseille","lat":43.29544,"lon":5.42281,"is_reserved":false,"is_disabled":true,"rental_uris":{"android":"levelo://app?vid=0ae7beaa-00f4-40f6-bfa7-6b4d92723ad7","ios":"levelo://app?vid=0ae7beaa-00f4-40f6-bfa7-6b4d92723ad7"},"vehicle_type_id":"4","last_reported":1738854579,"current_range_meters":0,"station_id":"ce4bhph2rcd13ifvqhdg","pricing_plan_id":"cebpf4jnsgd1na2vs0mg"},{"bike_id":"42017ae5-d521-4083-83f6-ca44c9615b62","system_id":"levelo_inurba_marseille","lat":43.30879,"lon":5.37208,"is_reserved":false,"is_disabled":false,"rental_uris":{"android":"levelo://app?vid=42017ae5-d521-4083-83f6-ca44c9615b62","ios":"levelo://app?vid=42017ae5-d521-4083-83f6-ca44c9615b62"},"vehicle_type_id":"4","last_reported":1738854579,"current_range_meters":38800,"station_id":"ce4bguh2rcd13ifvqckg","pricing_plan_id":"cebpf4jnsgd1na2vs0mg"},{"bike_id":"63c8956c-b2b5-4faa-8b7d-f821c05dd8c4","system_id":"levelo_inurba_marseille","lat":43.260275,"lon":5.37551,"is_reserved":false,"is_disabled":true,"rental_uris":{"android":"levelo://app?vid=63c8956c-b2b5-4faa-8b7d-f821c05dd8c4","ios":"levelo://app?vid=63c8956c-b2b5-4faa-8b7d-f821c05dd8c4"},"vehicle_type_id":"4","last_reported":1738854579,"current_range_meters":8400,"station_id":"","pricing_plan_id":"cebpf4jnsgd1na2vs0mg"},{"bike_id":"42560082-9214-4ebe-bc19-3059c44cc283","system_id":"levelo_inurba_marseille","lat":43.25826,"lon":5.3943,"is_reserved":false,"is_disabled":false,"rental_uris":{"android":"levelo://app?vid=42560082-9214-4ebe-bc19-3059c44cc283","ios":"levelo://app?vid=42560082-9214-4ebe-bc19-3059c44cc283"},"vehicle_type_id":"4","last_reported":1738854579,"current_range_meters":36000,"station_id":"ce4bhip2rcd13ifvqft0","pricing_plan_id":"cebpf4jnsgd1na2vs0mg"},{"bike_id":"59c1bbc5-1bf5-4631-ab46-5bdad5de7e10","system_id":"levelo_inurba_marseille","lat":43.26497,"lon":5.39532,"is_reserved":false,"is_disabled":false,"rental_uris":{"android":"levelo://app?vid=59c1bbc5-1bf5-4631-ab46-5bdad5de7e10","ios":"levelo://app?vid=59c1bbc5-1bf5-4631-ab46-5bdad5de7e10"},"vehicle_type_id":"4","last_reported":1738854579,"current_range_meters":28800,"station_id":"ce4bhi12rcd13ifvqfq0","pricing_plan_id":"cebpf4jnsgd1na2vs0mg"},{"bike_id":"13ba86d7-7ec4-4aec-831c-82853e7d2ee2","system_id":"levelo_inurba_marseille","lat":43.29035,"lon":5.37567,"is_reserved":false,"is_disabled":false,"rental_uris":{"android":"levelo://app?vid=13ba86d7-7ec4-4aec-831c-82853e7d2ee2","ios":"levelo://app?vid=13ba86d7-7ec4-4aec-831c-82853e7d2ee2"},"vehicle_type_id":"4","last_reported":1738854579,"current_range_meters":18800,"station_id":"ce4bh692rcd13ifvqe90","pricing_plan_id":"cebpf4jnsgd1na2vs0mg"},{"bike_id":"a7b647d9-1a4b-4ec5-8bea-7b331389070f","system_id":"levelo_inurba_marseille","lat":43.32445,"lon":5.45562,"is_reserved":false,"is_disabled":true,"rental_uris":{"android":"levelo://app?vid=a7b647d9-1a4b-4ec5-8bea-7b331389070f","ios":"levelo://app?vid=a7b647d9-1a4b-4ec5-8bea-7b331389070f"},"vehicle_type_id":"4","last_reported":1738854579,"current_range_meters":16000,"station_id":"","pricing_plan_id":"cebpf4jnsgd1na2vs0mg"},{"bike_id":"982f85c5-1a13-4a94-80d4-b8ba54dad086","system_id":"levelo_inurba_marseille","lat":43.28291,"lon":5.35074,"is_reserved":false,"is_disabled":false,"rental_uris":{"android":"levelo://app?vid=982f85c5-1a13-4a94-80d4-b8ba54dad086","ios":"levelo://app?vid=982f85c5-1a13-4a94-80d4-b8ba54dad086"},"vehicle_type_id":"4","last_reported":1738854579,"current_range_meters":36000,"station_id":"ce4bhbp2rcd13ifvqerg","pricing_plan_id":"cebpf4jnsgd1na2vs0mg"},{"bike_id":"507b15d5-ba45-48e8-80b2-0da7459d7c29","system_id":"levelo_inurba_marseille","lat":43.281501,"lon":5.426385,"is_reserved":false,"is_disabled":false,"rental_uris":{"android":"levelo://app?vid=507b15d5-ba45-48e8-80b2-0da7459d7c29","ios":"levelo://app?vid=507b15d5-ba45-48e8-80b2-0da7459d7c29"},"vehicle_type_id":"4","last_reported":1738854579,"current_range_meters":36800,"station_id":"ce4bhnh2rcd13ifvqgug","pricing_plan_id":"cebpf4jnsgd1na2vs0mg"},{"bike_id":"aa2ae2b3-fa3e-4f92-b822-d2abd82b39f4","system_id":"levelo_inurba_marseille","lat":43.29454,"lon":5.38572,"is_reserved":false,"is_disabled":false,"rental_uris":{"android":"levelo://app?vid=aa2ae2b3-fa3e-4f92-b822-d2abd82b39f4","ios":"levelo://app?vid=aa2ae2b3-fa3e-4f92-b822-d2abd82b39f4"},"vehicle_type_id":"4","last_reported":1738854579,"current_range_meters":19600,"station_id":"ce4bh2h2rcd13ifvqdh0","pricing_plan_id":"cebpf4jnsgd1na2vs0mg"},{"bike_id":"a9171698-723d-4e0b-9f6d-b5322e124784","system_id":"levelo_inurba_marseille","lat":43.28721,"lon":5.36092,"is_reserved":false,"is_disabled":false,"rental_uris":{"android":"levelo://app?vid=a9171698-723d-4e0b-9f6d-b5322e124784","ios":"levelo://app?vid=a9171698-723d-4e0b-9f6d-b5322e124784"},"vehicle_type_id":"4","last_reported":1738854579,"current_range_meters":19200,"station_id":"cki0cbj6b192h4jlfktg","pricing_plan_id":"cebpf4jnsgd1na2vs0mg"},{"bike_id":"4e2b8af9-cc2e-4655-a0a5-1d7d885bae0e","system_id":"levelo_inurba_marseille","lat":43.29217,"lon":5.36069,"is_reserved":false,"is_disabled":false,"rental_uris":{"android":"levelo://app?vid=4e2b8af9-cc2e-4655-a0a5-1d7d885bae0e","ios":"levelo://app?vid=4e2b8af9-cc2e-4655-a0a5-1d7d885bae0e"},"vehicle_type_id":"4","last_reported":1738854579,"current_range_meters":38800,"station_id":"ce4bhbh2rcd13ifvqeqg","pricing_plan_id":"cebpf4jnsgd1na2vs0mg"},{"bike_id":"5763888c-527b-4ec2-bacc-2256210be8f7","system_id":"levelo_inurba_marseille","lat":43.29935,"lon":5.36531,"is_reserved":false,"is_disabled":false,"rental_uris":{"android":"levelo://app?vid=5763888c-527b-4ec2-bacc-2256210be8f7","ios":"levelo://app?vid=5763888c-527b-4ec2-bacc-2256210be8f7"},"vehicle_type_id":"4","last_reported":1738854579,"current_range_meters":30400,"station_id":"ce4bgm92rcd13ifvqbr0","pricing_plan_id":"cebpf4jnsgd1na2vs0mg"},{"bike_id":"969feaef-4bde-4003-b492-3c860b94d6b9","system_id":"levelo_inurba_marseille","lat":43.24168,"lon":5.36393,"is_reserved":false,"is_disabled":false,"rental_uris":{"android":"levelo://app?vid=969feaef-4bde-4003-b492-3c860b94d6b9","ios":"levelo://app?vid=969feaef-4bde-4003-b492-3c860b94d6b9"},"vehicle_type_id":"4","last_reported":1738854579,"current_range_meters":26800,"station_id":"cpo36qri1sfpv3e86is0","pricing_plan_id":"cebpf4jnsgd1na2vs0mg"},{"bike_id":"99c1809b-d2c9-4bbb-8e75-87d758ab24ad","system_id":"levelo_inurba_marseille","lat":43.23062,"lon":5.35488,"is_reserved":false,"is_disabled":false,"rental_uris":{"android":"levelo://app?vid=99c1809b-d2c9-4bbb-8e75-87d758ab24ad","ios":"levelo://app?vid=99c1809b-d2c9-4bbb-8e75-87d758ab24ad"},"vehicle_type_id":"4","last_reported":1738854579,"current_range_meters":18000,"station_id":"cpo3342slgdg3j2ifvpg","pricing_plan_id":"cebpf4jnsgd1na2vs0mg"},