{"last_updated":1744150187,"ttl":60,"version":"2.2","data":{"bikes":[{"bike_id":"65045c7f-ee1e-4754-b2c8-2f0a898489fd","system_id":"levelo_inurba_marseille","lat":43.293189,"lon":5.382483,"is_reserved":false,"is_disabled":false,"rental_uris":{"android":"levelo://app?vid=65045c7f-ee1e-4754-b2c8-2f0a898489fd","ios":"levelo://app?vid=65045c7f-ee1e-4754-b2c8-2f0a898489fd"},"vehicle_type_id":"4","last_reported":1744150187,"current_range_meters":2000,"station_id":"ce4bgj92rcd13ifvqbd0","pricing_plan_id":"cebpf4jnsgd1na2vs0mg"},{"bike_id":"e615de16-bf28-45aa-8c0a-faafe76bdcdc","system_id":"levelo_inurba_marseille","lat":43.31336,"lon":5.39723,"is_reserved":false,"is_disabled":true,"rental_uris":{"android":"levelo://app?vid=e615de16-bf28-45aa-8c0a-faafe76bdcdc","ios":"levelo://app?vid=e615de16-bf28-45aa-8c0a-faafe76bdcdc"},"vehicle_type_id":"4","last_reported":1744150187,"current_range_meters":2800,"station_id":"ce4bgvp2rcd13ifvqcu0","pricing_plan_id":"cebpf4jnsgd1na2vs0mg"},{"bike_id":"560e17bf-ac37-4844-88f0-aa3a929cf095","system_id":"levelo_inurba_marseille","lat":43.29416,"lon":5.38623,"is_reserved":false,"is_disabled":true,"rental_uris":{"android":"levelo://app?vid=560e17bf-ac37-4844-88f0-aa3a929cf095","ios":"levelo://app?vid=560e17bf-ac37-4844-88f0-aa3a929cf095"},"vehicle_type_id":"4","last_reported":1744150187,"current_range_meters":2800,"station_id":"ce4bh2h2rcd13ifvqdh0","pricing_plan_id":"cebpf4jnsgd1na2vs0mg"},{"bike_id":"6011ab96-e955-4ca8-95b1-9776ff68c79a","system_id":"levelo_inurba_marseille","lat":43.27378,"lon":5.36253,"is_reserved":false,"is_disabled":true,"rental_uris":{"android":"levelo://app?vid=6011ab96-e955-4ca8-95b1-9776ff68c79a","ios":"levelo://app?vid=6011ab96-e955-4ca8-95b1-9776ff68c79a"},"vehicle_type_id":"4","last_reported":1744150187,"current_range_meters":2800,"station_id":"ce4bhbh2rcd13ifvqeo0","pricing_plan_id":"cebpf4jnsgd1na2vs0mg"},{"bike_id":"587fd3ea-f5bb-441d-8356-dd85355bc281","system_id":"levelo_inurba_marseille","lat":43.33634,"lon":5.35756,"is_reserved":false,"is_disabled":false,"rental_uris":{"android":"levelo://app?vid=587fd3ea-f5bb-441d-8356-dd85355bc281","ios":"levelo://app?vid=587fd3ea-f5bb-441d-8356-dd85355bc281"},"vehicle_type_id":"4","last_reported":1744150187,"current_range_meters":2800,"station_id":"","pricing_plan_id":"cebpf4jnsgd1na2vs0mg"},{"bike_id":"b0b0ae01-7db1-4e37-8de1-1e1c748bd218","system_id":"levelo_inurba_marseille","lat":43.28936,"lon":5.36642,"is_reserved":false,"is_disabled":false,"rental_uris":{"android":"levelo://app?vid=b0b0ae01-7db1-4e37-8de1-1e1c748bd218","ios":"levelo://app?vid=b0b0ae01-7db1-4e37-8de1-1e1c748bd218"},"vehicle_type_id":"4","last_reported":1744150187,"current_range_meters":3200,"station_id":"ce4bhap2rcd13ifvqek0","pricing_plan_id":"cebpf4jnsgd1na2vs0mg"},{"bike_id":"b95f3cd3-0a5b-40e0-b06e-939996ffefa6","system_id":"levelo_inurba_marseille","lat":43.27793,"lon":5.40722,"is_reserved":false,"is_disabled":true,"rental_uris":{"android":"levelo://app?vid=b95f3cd3-0a5b-40e0-b06e-939996ffefa6","ios":"levelo://app?vid=b95f3cd3-0a5b-40e0-b06e-939996ffefa6"},"vehicle_type_id":"4","last_reported":1744150187,"current_range_meters":3200,"station_id":"ce4bhnh2rcd13ifvqgtg","pricing_plan_id":"cebpf4jnsgd1na2vs0mg"},{"bike_id":"86cd6be3-842c-482f-b1f9-0fea60de76c1","system_id":"levelo_inurba_marseille","lat":43.3081,"lon":5.38159,"is_reserved":false,"is_disabled":false,"rental_uris":{"android":"levelo://app?vid=86cd6be3-842c-482f-b1f9-0fea60de76c1","ios":"levelo://app?vid=86cd6be3-842c-482f-b1f9-0fea60de76c1"},"vehicle_type_id":"4","last_reported":1744150187,"current_range_meters":3600,"station_id":"ce4bgt12rcd13ifvqce0","pricing_plan_id":"cebpf4jnsgd1na2vs0mg"},{"bike_id":"a41ed1c8-66a6-494b-a01d-66f32b31d7cf","system_id":"levelo_inurba_marseille","lat":43.26213,"lon":5.37479,"is_reserved":false,"is_disabled":true,"rental_uris":{"android":"levelo://app?vid=a41ed1c8-66a6-494b-a01d-66f32b31d7cf","ios":"levelo://app?vid=a41ed1c8-66a6-494b-a01d-66f32b31d7cf"},"vehicle_type_id":"4","last_reported":1744150187,"current_range_meters":3600,"station_id":"ce4bhgp2rcd13ifvqfc0","pricing_plan_id":"cebpf4jnsgd1na2vs0mg"},{"bike_id":"5b79fd17-71c7-46ba-a08e-72b15d99e820","system_id":"levelo_inurba_marseille","lat":43.2251,"lon":5.34814,"is_reserved":false,"is_disabled":true,"rental_uris":{"android":"levelo://app?vid=5b79fd17-71c7-46ba-a08e-72b15d99e820","ios":"levelo://app?vid=5b79fd17-71c7-46ba-a08e-72b15d99e820"},"vehicle_type_id":"4","last_reported":1744150187,"current_range_meters":3600,"station_id":"st_cvj5dfep6f1abm77gieg","pricing_plan_id":"cebpf4jnsgd1na2vs0mg"},{"bike_id":"400be346-2565-47fe-80c6-062a4dc060b6","system_id":"levelo_inurba_marseille","lat":43.30887,"lon":5.39648,"is_reserved":false,"is_disabled":false,"rental_uris":{"android":"levelo://app?vid=400be346-2565-47fe-80c6-062a4dc060b6","ios":"levelo://app?vid=400be346-2565-47fe-80c6-062a4dc060b6"},"vehicle_type_id":"4","last_reported":1744150187,"current_range_meters":3600,"station_id":"ce4bh012rcd13ifvqcv0","pricing_plan_id":"cebpf4jnsgd1na2vs0mg"},{"bike_id":"60fd0396-a34e-4ccf-b98e-264031028da4","system_id":"levelo_inurba_marseille","lat":43.2848,"lon":5.38422,"is_reserved":false,"is_disabled":false,"rental_uris":{"android":"levelo://app?vid=60fd0396-a34e-4ccf-b98e-264031028da4","ios":"levelo://app?vid=60fd0396-a34e-4ccf-b98e-264031028da4"},"vehicle_type_id":"4","last_reported":1744150187,"current_range_meters":4000,"station_id":"ce4bh512rcd13ifvqe3g","pricing_plan_id":"cebpf4jnsgd1na2vs0mg"},{"bike_id":"d8836b7c-6415-4392-a3f5-2b7b79914c96","system_id":"levelo_inurba_marseille","lat":43.287,"lon":5.39984,"is_reserved":false,"is_disabled":false,"rental_uris":{"android":"levelo://app?vid=d8836b7c-6415-4392-a3f5-2b7b79914c96","ios":"levelo://app?vid=d8836b7c-6415-4392-a3f5-2b7b79914c96"},"vehicle_type_id":"4","last_reported":1744150187,"current_range_meters":4000,"station_id":"ce4bho92rcd13ifvqh3g","pricing_plan_id":"cebpf4jnsgd1na2vs0mg"},{"bike_id":"cc057f14-b1e1-4dee-b107-8741c01c5964","system_id":"levelo_inurba_marseille","lat":43.3212,"lon":5.36773,"is_reserved":false,"is_disabled":true,"rental_uris":{"android":"levelo://app?vid=cc057f14-b1e1-4dee-b107-8741c01c5964","ios":"levelo://app?vid=cc057f14-b1e1-4dee-b107-8741c01c5964"},"vehicle_type_id":"4","last_reported":1744150187,"current_range_meters":4000,"station_id":"ce4bhrh2rcd13ifvqhug","pricing_plan_id":"cebpf4jnsgd1na2vs0mg"},{"bike_id":"87bda883-ac94-49fc-94c2-3a86e52b4f97","system_id":"levelo_inurba_marseille","lat":43.30735,"lon":5.38338,"is_reserved":false,"is_disabled":false,"rental_uris":{"android":"levelo://app?vid=87bda883-ac94-49fc-94c2-3a86e52b4f97","ios":"levelo://app?vid=87bda883-ac94-49fc-94c2-3a86e52b4f97"},"vehicle_type_id":"4","last_reported":1744150187,"current_range_meters":4400,"station_id":"","pricing_plan_id":"cebpf4jnsgd1na2vs0mg"},{"bike_id":"21a5bc84-856d-43a2-b028-f173da65e0c7","system_id":"levelo_inurba_marseille","lat":43.27987,"lon":5.41668,"is_reserved":false,"is_disabled":false,"rental_uris":{"android":"levelo://app?vid=21a5bc84-856d-43a2-b028-f173da65e0c7","ios":"levelo://app?vid=21a5bc84-856d-43a2-b028-f173da65e0c7"},"vehicle_type_id":"4","last_reported":1744150187,"current_range_meters":4400,"station_id":"ce4bho12rcd13ifvqh1g","pricing_plan_id":"cebpf4jnsgd1na2vs0mg"},{"bike_id":"8b4a5c52-3413-49f2-b7f4-7f3508a08342","system_id":"levelo_inurba_marseille","lat":43.30258,"lon":5.40066,"is_reserved":false,"is_disabled":false,"rental_uris":{"android":"levelo://app?vid=8b4a5c52-3413-49f2-b7f4-7f3508a08342","ios":"levelo://app?vid=8b4a5c52-3413-49f2-b7f4-7f3508a08342"},"vehicle_type_id":"4","last_reported":1744150187,"current_range_meters":4800,"station_id":"ce4bgvh2rcd13ifvqcs0","pricing_plan_id":"cebpf4jnsgd1na2vs0mg"},{"bike_id":"3944b4a0-54fb-4d6c-af80-4ca20b89931c","system_id":"levelo_inurba_marseille","lat":43.28005,"lon":5.41647,"is_reserved":false,"is_disabled":false,"rental_uris":{"android":"levelo://app?vid=3944b4a0-54fb-4d6c-af80-4ca20b89931c","ios":"levelo://app?vid=3944b4a0-54fb-4d6c-af80-4ca20b89931c"},"vehicle_type_id":"4","last_reported":1744150187,"current_range_meters":4800,"station_id":"ce4bho12rcd13ifvqh1g","pricing_plan_id":"cebpf4jnsgd1na2vs0mg"},{"bike_id":"97d81599-6c9d-4509-a79c-73a8d98c3d8b","system_id":"levelo_inurba_marseille","lat":43.30379,"lon":5.42487,"is_reserved":false,"is_disabled":true,"rental_uris":{"android":"levelo://app?vid=97d81599-6c9d-4509-a79c-73a8d98c3d8b","ios":"levelo://app?vid=97d81599-6c9d-4509-a79c-73a8d98c3d8b"},"vehicle_type_id":"4","last_reported":1744150187,"current_range_meters":4800,"station_id":"ce4bhoh2rcd13ifvqh6g","pricing_plan_id":"cebpf4jnsgd1na2vs0mg"},{"bike_id":"83048e5e-4a32-4a69-87af-ee93450509d9","system_id":"levelo_inurba_marseille","lat":43.29721,"lon":5.36609,"is_reserved":false,"is_disabled":false,"rental_uris":{"android":"levelo://app?vid=83048e5e-4a32-4a69-87af-ee93450509d9","ios":"levelo://app?vid=83048e5e-4a32-4a69-87af-ee93450509d9"},"vehicle_type_id":"4","last_reported":1744150187,"current_range_meters":5600,"station_id":"ce4bgn12rcd13ifvqbt0","pricing_plan_id":"cebpf4jnsgd1na2vs0mg"},{"bike_id":"5fdb47ce-b4a6-48cf-bcfd-8a1058f2189b","system_id":"levelo_inurba_marseille","lat":43.295278,"lon":5.385384,"is_reserved":false,"is_disabled":false,"rental_uris":{"android":"levelo://app?vid=5fdb47ce-b4a6-48cf-bcfd-8a1058f2189b","ios":"levelo://app?vid=5fdb47ce-b4a6-48cf-bcfd-8a1058f2189b"},"vehicle_type_id":"4","last_reported":1744150187,"current_range_meters":5600,"station_id":"ce4bh192rcd13ifvqdb0","pricing_plan_id":"cebpf4jnsgd1na2vs0mg"},{"bike_id":"e20b304f-0bb8-4157-84de-fcbcf7549ad4","system_id":"levelo_inurba_marseille","lat":43.29965,"lon":5.37181,"is_reserved":false,"is_disabled":false,"rental_uris":{"android":"levelo://app?vid=e20b304f-0bb8-4157-84de-fcbcf7549ad4","ios":"levelo://app?vid=e20b304f-0bb8-4157-84de-fcbcf7549ad4"},"vehicle_type_id":"4","last_reported":1744150187,"current_range_meters":6000,"station_id":"ce4bgr92rcd13ifvqc7g","pricing_plan_id":"cebpf4jnsgd1na2vs0mg"},{"bike_id":"4b8dddbd-4a73-4c7c-a615-40a931cd78e8","system_id":"levelo_inurba_marseille","lat":43.25076,"lon":5.39509,"is_reserved":false,"is_disabled":false,"rental_uris":{"android":"levelo://app?vid=4b8dddbd-4a73-4c7c-a615-40a931cd78e8","ios":"levelo://app?vid=4b8dddbd-4a73-4c7c-a615-40a931cd78e8"},"vehicle_type_id":"4","last_reported":1744150187,"current_range_meters":6400,"station_id":"ce4bhm12rcd13ifvqgkg","pricing_plan_id":"cebpf4jnsgd1na2vs0mg"},{"bike_id":"d3f35d20-0527-45ae-94a7-5416fa0141b3","system_id":"levelo_inurba_marseille","lat":43.2872,"lon":5.36085,"is_reserved":false,"is_disabled":false,"rental_uris":{"android":"levelo://app?vid=d3f35d20-0527-45ae-94a7-5416fa0141b3","ios":"levelo://app?vid=d3f35d20-0527-45ae-94a7-5416fa0141b3"},"vehicle_type_id":"4","last_reported":1744150187,"current_range_meters":6400,"station_id":"cki0cbj6b192h4jlfktg","pricing_plan_id":"cebpf4jnsgd1na2vs0mg"},{"bike_id":"3ea3a003-2b79-4394-9296-9c53c80fdbe9","system_id":"levelo_inurba_marseille","lat":43.27914,"lon":5.39579,"is_reserved":false,"is_disabled":false,"rental_uris":{"android":"levelo://app?vid=3ea3a003-2b79-4394-9296-9c53c80fdbe9","ios":"levelo://app?vid=3ea3a003-2b79-4394-9296-9c53c80fdbe9"},"vehicle_type_id":"4","last_reported":1744150187,"current_range_meters":6400,"station_id":"ce4bhf92rcd13ifvqf40","pricing_plan_id":"cebpf4jnsgd1na2vs0mg"},{"bike_id":"855b20ec-e053-4bba-844a-5942d017758c","system_id":"levelo_inurba_marseille","lat":43.295207,"lon":5.393996,"is_reserved":false,"is_disabled":false,"rental_uris":{"android":"levelo://app?vid=855b20ec-e053-4bba-844a-5942d017758c","ios":"levelo://app?vid=855b20ec-e053-4bba-844a-5942d017758c"},"vehicle_type_id":"4","last_reported":1744150187,"current_range_meters":6400,"station_id":"ce4bh292rcd13ifvqdf0","pricing_plan_id":"cebpf4jnsgd1na2vs0mg"},{"bike_id":"a2bc1534-fa4c-44c0-9bf1-e145e671d810","system_id":"levelo_inurba_marseille","lat":43.30327,"lon":5.40091,"is_reserved":false,"is_disabled":false,"rental_uris":{"android":"levelo://app?vid=a2bc1534-fa4c-44c0-9bf1-e145e671d810","ios":"levelo://app?vid=a2bc1534-fa4c-44c0-9bf1-e145e671d810"},"vehicle_type_id":"4","last_reported":1744150187,"current_range_meters":6400,"station_id":"","pricing_plan_id":"cebpf4jnsgd1na2vs0mg"},{"bike_id":"dbb76cf4-a87a-48e7-9856-e53897e09667","system_id":"levelo_inurba_marseille","lat":43.29562,"lon":5.39977,"is_reserved":false,"is_disabled":false,"rental_uris":{"android":"levelo://app?vid=dbb76cf4-a87a-48e7-9856-e53897e09667","ios":"levelo://app?vid=dbb76cf4-a87a-48e7-9856-e53897e09667"},"vehicle_type_id":"4","last_reported":1744150187,"current_range_meters":6400,"station_id":"ce4bh312rcd13ifvqdj0","pricing_plan_id":"cebpf4jnsgd1na2vs0mg"},{"bike_id":"52a3a737-d744-44aa-901d-daf29012d3d4","system_id":"levelo_inurba_marseille","lat":43.30896,"lon":5.37071,"is_reserved":false,"is_disabled":false,"rental_uris":{"android":"levelo://app?vid=52a3a737-d744-44aa-901d-daf29012d3d4","ios":"levelo://app?vid=52a3a737-d744-44aa-901d-daf29012d3d4"},"vehicle_type_id":"4","last_reported":1744150187,"current_range_meters":6400,"station_id":"","pricing_plan_id":"cebpf4jnsgd1na2vs0mg"},{"bike_id":"6ab4d61d-93c3-47be-b0ad-8677e7354ce9","system_id":"levelo_inurba_marseille","lat":43.2873,"lon":5.36084,"is_reserved":false,"is_disabled":false,"rental_uris":{"android":"levelo://app?vid=6ab4d61d-93c3-47be-b0ad-8677e7354ce9","ios":"levelo://app?vid=6ab4d61d-93c3-47be-b0ad-8677e7354ce9"},"vehicle_type_id":"4","last_reported":1744150187,"current_range_meters":6400,"station_id":"cki0cbj6b192h4jlfktg","pricing_plan_id":"cebpf4jnsgd1na2vs0mg"},{"bike_id":"dd532b22-6418-4e56-b25c-bc56b2ef673c","system_id":"levelo_inurba_marseille","lat":43.30304,"lon":5.39215,"is_reserved":false,"is_disabled":false,"rental_uris":{"android":"levelo://app?vid=dd532b22-6418-4e56-b25c-bc56b2ef673c","ios":"levelo://app?vid=dd532b22-6418-4e56-b25c-bc56b2ef673c"},"vehicle_type_id":"4","last_reported":1744150187,"current_range_meters":6400,"station_id":"ce4bgkh2rcd13ifvqbk0","pricing_plan_id":"cebpf4jnsgd1na2vs0mg"},{"bike_id":"95e4d341-aa1d-45d3-97d4-58ce3861535b","system_id":"levelo_inurba_marseille","lat":43.21185,"lon":5.35072,"is_reserved":false,"is_disabled":true,"rental_uris":{"android":"levelo://app?vid=95e4d341-aa1d-45d3-97d4-58ce3861535b","ios":"levelo://app?vid=95e4d341-aa1d-45d3-97d4-58ce3861535b"},"vehicle_type_id":"4","last_reported":1744150187,"current_range_meters":6400,"station_id":"","pricing_plan_id":"cebpf4jnsgd1na2vs0mg"},{"bike_id":"a2d46cb9-9eeb-44f6-ab18-0e5c210fd7b5","system_id":"levelo_inurba_marseille","lat":43.28937,"lon":5.36648,"is_reserved":false,"is_disabled":true,"rental_uris":{"android":"levelo://app?vid=a2d46cb9-9eeb-44f6-ab18-0e5c210fd7b5","ios":"levelo://app?vid=a2d46cb9-9eeb-44f6-ab18-0e5c210fd7b5"},"vehicle_type_id":"4","last_reported":1744150187,"current_range_meters":6400,"station_id":"ce4bhap2rcd13ifvqek0","pricing_plan_id":"cebpf4jnsgd1na2vs0mg"},{"bike_id":"fe15bbb3-41d5-44a5-be9a-d99b3ed36373","system_id":"levelo_inurba_marseille","lat":43.28459,"lon":5.39196,"is_reserved":false,"is_disabled":true,"rental_uris":{"android":"levelo://app?vid=fe15bbb3-41d5-44a5-be9a-d99b3ed36373","ios":"levelo://app?vid=fe15bbb3-41d5-44a5-be9a-d99b3ed36373"},"vehicle_type_id":"4","last_reported":1744150187,"current_range_meters":6800,"station_id":"ce4bhoh2rcd13ifvqh5g","pricing_plan_id":"cebpf4jnsgd1na2vs0mg"},{"bike_id":"5ab8d7c8-c594-4442-9ba4-d5bd134714e4","system_id":"levelo_inurba_marseille","lat":43.29561,"lon":5.39977,"is_reserved":false,"is_disabled":false,"rental_uris":{"android":"levelo://app?vid=5ab8d7c8-c594-4442-9ba4-d5bd134714e4","ios":"levelo://app?vid=5ab8d7c8-c594-4442-9ba4-d5bd134714e4"},"vehicle_type_id":"4","last_reported":1744150187,"current_range_meters":6800,"station_id":"ce4bh312rcd13ifvqdj0","pricing_plan_id":"cebpf4jnsgd1na2vs0mg"},{"bike_id":"c5fb24e6-da81-4c8b-a57b-0bdcae5727b6","system_id":"levelo_inurba_marseille","lat":43.25069,"lon":5.39508,"is_reserved":false,"is_disabled":false,"rental_uris":{"android":"levelo://app?vid=c5fb24e6-da81-4c8b-a57b-0bdcae5727b6","ios":"levelo://app?vid=c5fb24e6-da81-4c8b-a57b-0bdcae5727b6"},"vehicle_type_id":"4","last_reported":1744150187,"current_range_meters":6800,"station_id":"ce4bhm12rcd13ifvqgkg","pricing_plan_id":"cebpf4jnsgd1na2vs0mg"},{"bike_id":"995e03b4-eefd-46d7-9d4d-abb00a296bb5","system_id":"levelo_inurba_marseille","lat":43.23187,"lon":5.39972,"is_reserved":false,"is_disabled":false,"rental_uris":{"android":"levelo://app?vid=995e03b4-eefd-46d7-9d4d-abb00a296bb5","ios":"levelo://app?vid=995e03b4-eefd-46d7-9d4d-abb00a296bb5"},"vehicle_type_id":"4","last_reported":1744150187,"current_range_meters":6800,"station_id":"ce4bhn12rcd13ifvqgqg","pricing_plan_id":"cebpf4jnsgd1na2vs0mg"},{"bike_id":"94cc02d0-1cba-4ce3-a6ee-2b2a43266460","system_id":"levelo_inurba_marseille","lat":43.25095,"lon":5.3951,"is_reserved":false,"is_disabled":false,"rental_uris":{"android":"levelo://app?vid=94cc02d0-1cba-4ce3-a6ee-2b2a43266460","ios":"levelo://app?vid=94cc02d0-1cba-4ce3-a6ee-2b2a43266460"},"vehicle_type_id":"4","last_reported":1744150187,"current_range_meters":6800,"station_id":"ce4bhm12rcd13ifvqgkg","pricing_plan_id":"cebpf4jnsgd1na2vs0mg"},{"bike_id":"ecef8e9e-03dc-4612-b74e-b978f92e2873","system_id":"levelo_inurba_marseille","lat":43.30095,"lon":5.39099,"is_reserved":false,"is_disabled":true,"rental_uris":{"android":"levelo://app?vid=ecef8e9e-03dc-4612-b74e-b978f92e2873","ios":"levelo://app?vid=ecef8e9e-03dc-4612-b74e-b978f92e2873"},"vehicle_type_id":"4","last_reported":1744150187,"current_range_meters":6800,"station_id":"ce4bh192rcd13ifvqdb0","pricing_plan_id":"cebpf4jnsgd1na2vs0mg"},{"bike_id":"35a9b3bf-fcf8-4f5d-9807-70a22f3ce6b3","system_id":"levelo_inurba_marseille","lat":43.2957,"lon":5.39968,"is_reserved":false,"is_disabled":false,"rental_uris":{"android":"levelo://app?vid=35a9b3bf-fcf8-4f5d-9807-70a22f3ce6b3","ios":"levelo://app?vid=35a9b3bf-fcf8-4f5d-9807-70a22f3ce6b3"},"vehicle_type_id":"4","last_reported":1744150187,"current_range_meters":6800,"station_id":"ce4bh312rcd13ifvqdj0","pricing_plan_id":"cebpf4jnsgd1na2vs0mg"},{"bike_id":"e7e1ab45-7d32-4b6d-ad17-3b30963cb3b2","system_id":"levelo_inurba_marseille","lat":43.25087,"lon":5.3952,"is_reserved":false,"is_disabled":false,"rental_uris":{"android":"levelo://app?vid=e7e1ab45-7d32-4b6d-ad17-3b30963cb3b2","ios":"levelo://app?vid=e7e1ab45-7d32-4b6d-ad17-3b30963cb3b2"},"vehicle_type_id":"4","last_reported":1744150187,"current_range_meters":6800,"station_id":"ce4bhm12rcd13ifvqgkg","pricing_plan_id":"cebpf4jnsgd1na2vs0mg"},{"bike_id":"f39be6f5-2f69-4c37-b021-559d20b299a4","system_id":"levelo_inurba_marseille","lat":43.29999,"lon":5.37639,"is_reserved":false,"is_disabled":false,"rental_uris":{"android":"levelo://app?vid=f39be6f5-2f69-4c37-b021-559d20b299a4","ios":"levelo://app?vid=f39be6f5-2f69-4c37-b021-559d20b299a4"},"vehicle_type_id":"4","last_reported":1744150187,"current_range_meters":6800,"station_id":"","pricing_plan_id":"cebpf4jnsgd1na2vs0mg"},{"bike_id":"d12f9849-f696-402b-b443-63866addb6e9","system_id":"levelo_inurba_marseille","lat":43.29275,"lon":5.40118,"is_reserved":false,"is_disabled":false,"rental_uris":{"android":"levelo://app?vid=d12f9849-f696-402b-b443-63866addb6e9","ios":"levelo://app?vid=d12f9849-f696-402b-b443-63866addb6e9"},"vehicle_type_id":"4","last_reported":1744150187,"current_range_meters":7200,"station_id":"ce4bh312rcd13ifvqdk0","pricing_plan_id":"cebpf4jnsgd1na2vs0mg"},{"bike_id":"937f4cfa-62ca-498b-99de-6c0e232ed573","system_id":"levelo_inurba_marseille","lat":43.32037,"lon":5.41571,"is_reserved":false,"is_disabled":false,"rental_uris":{"android":"levelo://app?vid=937f4cfa-62ca-498b-99de-6c0e232ed573","ios":"levelo://app?vid=937f4cfa-62ca-498b-99de-6c0e232ed573"},"vehicle_type_id":"4","last_reported":1744150187,"current_range_meters":7200,"station_id":"ce4bhq92rcd13ifvqhkg","pricing_plan_id":"cebpf4jnsgd1na2vs0mg"},{"bike_id":"f4822b87-2284-4a37-8410-69cf3e5cbb74","system_id":"levelo_inurba_marseille","lat":43.28647,"lon":5.36345,"is_reserved":false,"is_disabled":false,"rental_uris":{"android":"levelo://app?vid=f4822b87-2284-4a37-8410-69cf3e5cbb74","ios":"levelo://app?vid=f4822b87-2284-4a37-8410-69cf3e5cbb74"},"vehicle_type_id":"4","last_reported":1744150187,"current_range_meters":7200,"station_id":"ce4bhah2rcd13ifvqej0","pricing_plan_id":"cebpf4jnsgd1na2vs0mg"},{"bike_id":"02f5f556-9aca-41a9-928c-e217b6392b4b","system_id":"levelo_inurba_marseille","lat":43.31827,"lon":5.43511,"is_reserved":false,"is_disabled":false,"rental_uris":{"android":"levelo://app?vid=02f5f556-9aca-41a9-928c-e217b6392b4b","ios":"levelo://app?vid=02f5f556-9aca-41a9-928c-e217b6392b4b"},"vehicle_type_id":"4","last_reported":1744150187,"current_range_meters":7200,"station_id":"","pricing_plan_id":"cebpf4jnsgd1na2vs0mg"},{"bike_id":"456b79bb-81b6-42d9-a52b-1ca6c839f098","system_id":"levelo_inurba_marseille","lat":43.30408,"lon":5.41282,"is_reserved":false,"is_disabled":true,"rental_uris":{"android":"levelo://app?vid=456b79bb-81b6-42d9-a52b-1ca6c839f098","ios":"levelo://app?vid=456b79bb-81b6-42d9-a52b-1ca6c839f098"},"vehicle_type_id":"4","last_reported":1744150187,"current_range_meters":7200,"station_id":"ce4bhop2rcd13ifvqh8g","pricing_plan_id":"cebpf4jnsgd1na2vs0mg"},{"bike_id":"2e9000dc-6400-4918-a994-dd60039ca96d","system_id":"levelo_inurba_marseille","lat":43.31994,"lon":5.38125,"is_reserved":false,"is_disabled":true,"rental_uris":{"android":"levelo://app?vid=2e9000dc-6400-4918-a994-dd60039ca96d","ios":"levelo://app?vid=2e9000dc-6400-4918-a994-dd60039ca96d"},"vehicle_type_id":"4","last_reported":1744150187,"current_range_meters":7200,"station_id":"ce4bhr12rcd13ifvqhpg","pricing_plan_id":"cebpf4jnsgd1na2vs0mg"},{"bike_id":"49bd6e77-d561-4866-886e-a2b311584d16","system_id":"levelo_inurba_marseille","lat":43.28666,"lon":5.3634,"is_reserved":false,"is_disabled":false,"rental_uris":{"android":"levelo://app?vid=49bd6e77-d561-4866-886e-a2b311584d16","ios":"levelo://app?vid=49bd6e77-d561-4866-886e-a2b311584d16"},"vehicle_type_id":"4","last_reported":1744150187,"current_range_meters":8000,"station_id":"ce4bhah2rcd13ifvqej0","pricing_plan_id":"cebpf4jnsgd1na2vs0mg"},{"bike_id":"3576b946-70b3-456f-a60a-d98e227f015c","system_id":"levelo_inurba_marseille","lat":43.30091,"lon":5.38217,"is_reserved":false,"is_disabled":false,"rental_uris":{"android":"levelo://app?vid=3576b946-70b3-456f-a60a-d98e227f015c","ios":"levelo://app?vid=3576b946-70b3-456f-a60a-d98e227f015c"},"vehicle_type_id":"4","last_reported":1744150187,"current_range_meters":8000,"station_id":"ce4bgup2rcd13ifvqcn0","pricing_plan_id":"cebpf4jnsgd1na2vs0mg"},{"bike_id":"95e89676-6d6b-4af9-865f-746e9418a845","system_id":"levelo_inurba_marseille","lat":43.32347,"lon":5.36757,"is_reserved":false,"is_disabled":false,"rental_uris":{"android":"levelo://app?vid=95e89676-6d6b-4af9-865f-746e9418a845","ios":"levelo://app?vid=95e89676-6d6b-4af9-865f-746e9418a845"},"vehicle_type_id":"4","last_reported":1744150187,"current_range_meters":1600,"station_id":"ce4bhsh2rcd13ifvqi2g","pricing_plan_id":"cebpf4jnsgd1na2vs0mg"},{"bike_id":"40effb84-61ea-47dd-adb9-cf78a700dc94","system_id":"levelo_inurba_marseille","lat":43.28702,"lon":5.39997,"is_reserved":false,"is_disabled":false,"rental_uris":{"android":"levelo://app?vid=40effb84-61ea-47dd-adb9-cf78a700dc94","ios":"levelo://app?vid=40effb84-61ea-47dd-adb9-cf78a700dc94"},"vehicle_type_id":"4","last_reported":1744150187,"current_range_meters":8000,"station_id":"ce4bho92rcd13ifvqh3g","pricing_plan_id":"cebpf4jnsgd1na2vs0mg"},{"bike_id":"f17ce36f-e80a-4732-89e2-7a7dfab19d87","system_id":"levelo_inurba_marseille","lat":43.29915,"lon":5.43661,"is_reserved":false,"is_disabled":false,"rental_uris":{"android":"levelo://app?vid=f17ce36f-e80a-4732-89e2-7a7dfab19d87","ios":"levelo://app?vid=f17ce36f-e80a-4732-89e2-7a7dfab19d87"},"vehicle_type_id":"4","last_reported":1744150187,"current_range_meters":8400,"station_id":"ce4bhpp2rcd13ifvqhfg","pricing_plan_id":"cebpf4jnsgd1na2vs0mg"},{"bike_id":"82f28cf6-556c-431d-a12b-bd3ce5fc2f28","system_id":"levelo_inurba_marseille","lat":43.27504,"lon":5.37748,"is_reserved":false,"is_disabled":false,"rental_uris":{"android":"levelo://app?vid=82f28cf6-556c-431d-a12b-bd3ce5fc2f28","ios":"levelo://app?vid=82f28cf6-556c-431d-a12b-bd3ce5fc2f28"},"vehicle_type_id":"4","last_reported":1744150187,"current_range_meters":8400,"station_id":"","pricing_plan_id":"cebpf4jnsgd1na2vs0mg"},{"bike_id":"81b4eeec-d26b-4050-a92d-04743fb93072","system_id":"levelo_inurba_marseille","lat":43.23201,"lon":5.39988,"is_reserved":false,"is_disabled":true,"rental_uris":{"android":"levelo://app?vid=81b4eeec-d26b-4050-a92d-04743fb93072","ios":"levelo://app?vid=81b4eeec-d26b-4050-a92d-04743fb93072"},"vehicle_type_id":"4","last_reported":1744150187,"current_range_meters":8400,"station_id":"ce4bhn12rcd13ifvqgqg","pricing_plan_id":"cebpf4jnsgd1na2vs0mg"},{"bike_id":"70810d3e-9936-4863-b211-84f880613e88","system_id":"levelo_inurba_marseille","lat":43.31286,"lon":5.37323,"is_reserved":false,"is_disabled":false,"rental_uris":{"android":"levelo://app?vid=70810d3e-9936-4863-b211-84f880613e88","ios":"levelo://app?vid=70810d3e-9936-4863-b211-84f880613e88"},"vehicle_type_id":"4","last_reported":1744150187,"current_range_meters":8400,"station_id":"","pricing_plan_id":"cebpf4jnsgd1na2vs0mg"},{"bike_id":"ec41b842-c84f-4ab1-894c-fc6101e00efb","system_id":"levelo_inurba_marseille","lat":43.31689,"lon":5.40311,"is_reserved":false,"is_disabled":false,"rental_uris":{"android":"levelo://app?vid=ec41b842-c84f-4ab1-894c-fc6101e00efb","ios":"levelo://app?vid=ec41b842-c84f-4ab1-894c-fc6101e00efb"},"vehicle_type_id":"4","last_reported":1744150187,"current_range_meters":8400,"station_id":"","pricing_plan_id":"cebpf4jnsgd1na2vs0mg"},{"bike_id":"f366ee45-9569-49b7-8d64-bc1957b0e4ec","system_id":"levelo_inurba_marseille","lat":43.30323,"lon":5.36904,"is_reserved":false,"is_disabled":false,"rental_uris":{"android":"levelo://app?vid=f366ee45-9569-49b7-8d64-bc1957b0e4ec","ios":"levelo://app?vid=f366ee45-9569-49b7-8d64-bc1957b0e4ec"},"vehicle_type_id":"4","last_reported":1744150187,"current_range_meters":8400,"station_id":"ce4bgqh2rcd13ifvqc5g","pricing_plan_id":"cebpf4jnsgd1na2vs0mg"},{"bike_id":"0224d821-c779-433c-8ddc-85d75f45b386","system_id":"levelo_inurba_marseille","lat":43.2992,"lon":5.37482,"is_reserved":false,"is_disabled":false,"rental_uris":{"android":"levelo://app?vid=0224d821-c779-433c-8ddc-85d75f45b386","ios":"levelo://app?vid=0224d821-c779-433c-8ddc-85d75f45b386"},"vehicle_type_id":"4","last_reported":1744150187,"current_range_meters":8800,"station_id":"ce4bgjh2rcd13ifvqbg0","pricing_plan_id":"cebpf4jnsgd1na2vs0mg"},{"bike_id":"37b2591d-7265-4820-a87b-554301495f71","system_id":"levelo_inurba_marseille","lat":43.28958,"lon":5.36627,"is_reserved":false,"is_disabled":true,"rental_uris":{"android":"levelo://app?vid=37b2591d-7265-4820-a87b-554301495f71","ios":"levelo://app?vid=37b2591d-7265-4820-a87b-554301495f71"},"vehicle_type_id":"4","last_reported":1744150187,"current_range_meters":8800,"station_id":"ce4bhap2rcd13ifvqek0","pricing_plan_id":"cebpf4jnsgd1na2vs0mg"},{"bike_id":"5cd1fd40-06f1-4a7e-84bc-4417ad88331e","system_id":"levelo_inurba_marseille","lat":43.28106,"lon":5.3783,"is_reserved":false,"is_disabled":false,"rental_uris":{"android":"levelo://app?vid=5cd1fd40-06f1-4a7e-84bc-4417ad88331e","ios":"levelo://app?vid=5cd1fd40-06f1-4a7e-84bc-4417ad88331e"},"vehicle_type_id":"4","last_reported":1744150187,"current_range_meters":8800,"station_id":"ce4bha12rcd13ifvqee0","pricing_plan_id":"cebpf4jnsgd1na2vs0mg"},{"bike_id":"be757470-b529-482c-8aa3-d5e9918b54f1","system_id":"levelo_inurba_marseille","lat":43.28408,"lon":5.37519,"is_reserved":false,"is_disabled":false,"rental_uris":{"android":"levelo://app?vid=be757470-b529-482c-8aa3-d5e9918b54f1","ios":"levelo://app?vid=be757470-b529-482c-8aa3-d5e9918b54f1"},"vehicle_type_id":"4","last_reported":1744150187,"current_range_meters":8800,"station_id":"ce4bh412rcd13ifvqds0","pricing_plan_id":"cebpf4jnsgd1na2vs0mg"},{"bike_id":"ad53d0a4-da1a-47ff-a1fe-f15416737e09","system_id":"levelo_inurba_marseille","lat":43.29216,"lon":5.40172,"is_reserved":false,"is_disabled":false,"rental_uris":{"android":"levelo://app?vid=ad53d0a4-da1a-47ff-a1fe-f15416737e09","ios":"levelo://app?vid=ad53d0a4-da1a-47ff-a1fe-f15416737e09"},"vehicle_type_id":"4","last_reported":1744150187,"current_range_meters":8800,"station_id":"","pricing_plan_id":"cebpf4jnsgd1na2vs0mg"},{"bike_id":"9ae6852b-6b22-43ab-9ed3-b9ba4d298e4b","system_id":"levelo_inurba_marseille","lat":43.26219,"lon":5.40456,"is_reserved":false,"is_disabled":false,"rental_uris":{"android":"levelo://app?vid=9ae6852b-6b22-43ab-9ed3-b9ba4d298e4b","ios":"levelo://app?vid=9ae6852b-6b22-43ab-9ed3-b9ba4d298e4b"},"vehicle_type_id":"4","last_reported":1744150187,"current_range_meters":8800,"station_id":"ce4bhmh2rcd13ifvqgmg","pricing_plan_id":"cebpf4jnsgd1na2vs0mg"},{"bike_id":"9b757910-c3ed-4a06-a368-8bfd9d50c7d2","system_id":"levelo_inurba_marseille","lat":43.28407,"lon":5.37498,"is_reserved":false,"is_disabled":false,"rental_uris":{"android":"levelo://app?vid=9b757910-c3ed-4a06-a368-8bfd9d50c7d2","ios":"levelo://app?vid=9b757910-c3ed-4a06-a368-8bfd9d50c7d2"},"vehicle_type_id":"4","last_reported":1744150187,"current_range_meters":9200,"station_id":"ce4bh412rcd13ifvqds0","pricing_plan_id":"cebpf4jnsgd1na2vs0mg"},{"bike_id":"7f754e4a-077a-469a-a722-7e86af70d5f0","system_id":"levelo_inurba_marseille","lat":43.29566,"lon":5.39968,"is_reserved":false,"is_disabled":false,"rental_uris":{"android":"levelo://app?vid=7f754e4a-077a-469a-a722-7e86af70d5f0","ios":"levelo://app?vid=7f754e4a-077a-469a-a722-7e86af70d5f0"},"vehicle_type_id":"4","last_reported":1744150187,"current_range_meters":9200,"station_id":"ce4bh312rcd13ifvqdj0","pricing_plan_id":"cebpf4jnsgd1na2vs0mg"},{"bike_id":"87babd59-e462-416b-b47f-71c50fccbaf1","system_id":"levelo_inurba_marseille","lat":43.28708,"lon":5.40008,"is_reserved":false,"is_disabled":false,"rental_uris":{"android":"levelo://app?vid=87babd59-e462-416b-b47f-71c50fccbaf1","ios":"levelo://app?vid=87babd59-e462-416b-b47f-71c50fccbaf1"},"vehicle_type_id":"4","last_reported":1744150187,"current_range_meters":9200,"station_id":"ce4bho92rcd13ifvqh3g","pricing_plan_id":"cebpf4jnsgd1na2vs0mg"},{"bike_id":"ffe06810-5584-4421-889d-508aad74984f","system_id":"levelo_inurba_marseille","lat":43.26195,"lon":5.37444,"is_reserved":false,"is_disabled":false,"rental_uris":{"android":"levelo://app?vid=ffe06810-5584-4421-889d-508aad74984f","ios":"levelo://app?vid=ffe06810-5584-4421-889d-508aad74984f"},"vehicle_type_id":"4","last_reported":1744150187,"current_range_meters":9200,"station_id":"ce4bhgp2rcd13ifvqfc0","pricing_plan_id":"cebpf4jnsgd1na2vs0mg"},{"bike_id":"ad441855-87b9-411e-a820-0d4e95a9de12","system_id":"levelo_inurba_marseille","lat":43.30891,"lon":5.39649,"is_reserved":false,"is_disabled":false,"rental_uris":{"android":"levelo://app?vid=ad441855-87b9-411e-a820-0d4e95a9de12","ios":"levelo://app?vid=ad441855-87b9-411e-a820-0d4e95a9de12"},"vehicle_type_id":"4","last_reported":1744150187,"current_range_meters":9200,"station_id":"ce4bh012rcd13ifvqcv0","pricing_plan_id":"cebpf4jnsgd1na2vs0mg"},{"bike_id":"3d0cae43-5b75-4aac-b7cb-471ce1151dd5","system_id":"levelo_inurba_marseille","lat":43.33022,"lon":5.39526,"is_reserved":false,"is_disabled":false,"rental_uris":{"android":"levelo://app?vid=3d0cae43-5b75-4aac-b7cb-471ce1151dd5","ios":"levelo://app?vid=3d0cae43-5b75-4aac-b7cb-471ce1151dd5"},"vehicle_type_id":"4","last_reported":1744150187,"current_range_meters":9200,"station_id":"","pricing_plan_id":"cebpf4jnsgd1na2vs0mg"},{"bike_id":"a173c7c5-8df8-4946-9b1a-2b9f81805751","system_id":"levelo_inurba_marseille","lat":43.28934,"lon":5.39627,"is_reserved":false,"is_disabled":false,"rental_uris":{"android":"levelo://app?vid=a173c7c5-8df8-4946-9b1a-2b9f81805751","ios":"levelo://app?vid=a173c7c5-8df8-4946-9b1a-2b9f81805751"},"vehicle_type_id":"4","last_reported":1744150187,"current_range_meters":9200,"station_id":"ce4bh3h2rcd13ifvqdn0","pricing_plan_id":"cebpf4jnsgd1na2vs0mg"},{"bike_id":"5e6ad826-38da-4531-b4ba-2eda8622ede3","system_id":"levelo_inurba_marseille","lat":43.31096,"lon":5.40453,"is_reserved":false,"is_disabled":false,"rental_uris":{"android":"levelo://app?vid=5e6ad826-38da-4531-b4ba-2eda8622ede3","ios":"levelo://app?vid=5e6ad826-38da-4531-b4ba-2eda8622ede3"},"vehicle_type_id":"4","last_reported":1744150187,"current_range_meters":9200,"station_id":"","pricing_plan_id":"cebpf4jnsgd1na2vs0mg"},{"bike_id":"74b78a6e-275c-47e0-b1ed-2ccf34bd59b9","system_id":"levelo_inurba_marseille","lat":43.30178,"lon":5.36604,"is_reserved":false,"is_disabled":false,"rental_uris":{"android":"levelo://app?vid=74b78a6e-275c-47e0-b1ed-2ccf34bd59b9","ios":"levelo://app?vid=74b78a6e-275c-47e0-b1ed-2ccf34bd59b9"},"vehicle_type_id":"4","last_reported":1744150187,"current_range_meters":9600,"station_id":"ce4bgrh2rcd13ifvqc8g","pricing_plan_id":"cebpf4jnsgd1na2vs0mg"},{"bike_id":"ff85d859-6e25-4ab6-9dd4-461048d94450","system_id":"levelo_inurba_marseille","lat":43.31184,"lon":5.38717,"is_reserved":false,"is_disabled":false,"rental_uris":{"android":"levelo://app?vid=ff85d859-6e25-4ab6-9dd4-461048d94450","ios":"levelo://app?vid=ff85d859-6e25-4ab6-9dd4-461048d94450"},"vehicle_type_id":"4","last_reported":1744150187,"current_range_meters":9600,"station_id":"ce4bgv12rcd13ifvqcp0","pricing_plan_id":"cebpf4jnsgd1na2vs0mg"},{"bike_id":"5e4f02be-903b-4d44-92dc-c18383ac6227","system_id":"levelo_inurba_marseille","lat":43.27067,"lon":5.40239,"is_reserved":false,"is_disabled":false,"rental_uris":{"android":"levelo://app?vid=5e4f02be-903b-4d44-92dc-c18383ac6227","ios":"levelo://app?vid=5e4f02be-903b-4d44-92dc-c18383ac6227"},"vehicle_type_id":"4","last_reported":1744150187,"current_range_meters":9600,"station_id":"ce4bhk92rcd13ifvqgc0","pricing_plan_id":"cebpf4jnsgd1na2vs0mg"},{"bike_id":"7cbc3abb-d96e-46ad-87a3-e0fdd1126f87","system_id":"levelo_inurba_marseille","lat":43.31381,"lon":5.38509,"is_reserved":false,"is_disabled":false,"rental_uris":{"android":"levelo://app?vid=7cbc3abb-d96e-46ad-87a3-e0fdd1126f87","ios":"levelo://app?vid=7cbc3abb-d96e-46ad-87a3-e0fdd1126f87"},"vehicle_type_id":"4","last_reported":1744150187,"current_range_meters":9600,"station_id":"ce4bgt92rcd13ifvqcf0","pricing_plan_id":"cebpf4jnsgd1na2vs0mg"},{"bike_id":"a9a51fd8-61e4-48d3-832b-62d65e9e355e","system_id":"levelo_inurba_marseille","lat":43.25125,"lon":5.40341,"is_reserved":false,"is_disabled":false,"rental_uris":{"android":"levelo://app?vid=a9a51fd8-61e4-48d3-832b-62d65e9e355e","ios":"levelo://app?vid=a9a51fd8-61e4-48d3-832b-62d65e9e355e"},"vehicle_type_id":"4","last_reported":1744150187,"current_range_meters":9600,"station_id":"ce4bhlh2rcd13ifvqgig","pricing_plan_id":"cebpf4jnsgd1na2vs0mg"},{"bike_id":"0c49890d-45d2-4c10-8ab6-f8218cc3c095","system_id":"levelo_inurba_marseille","lat":43.290832,"lon":5.380542,"is_reserved":false,"is_disabled":false,"rental_uris":{"android":"levelo://app?vid=0c49890d-45d2-4c10-8ab6-f8218cc3c095","ios":"levelo://app?vid=0c49890d-45d2-4c10-8ab6-f8218cc3c095"},"vehicle_type_id":"4","last_reported":1744150187,"current_range_meters":9600,"station_id":"ce4bh492rcd13ifvqdvg","pricing_plan_id":"cebpf4jnsgd1na2vs0mg"},{"bike_id":"ca1cb9af-e981-4da8-ae84-4ca0779eecf9","system_id":"levelo_inurba_marseille","lat":43.31484,"lon":5.37306,"is_reserved":false,"is_disabled":false,"rental_uris":{"android":"levelo://app?vid=ca1cb9af-e981-4da8-ae84-4ca0779eecf9","ios":"levelo://app?vid=ca1cb9af-e981-4da8-ae84-4ca0779eecf9"},"vehicle_type_id":"4","last_reported":1744150187,"current_range_meters":9600,"station_id":"ce4bgt12rcd13ifvqcd0","pricing_plan_id":"cebpf4jnsgd1na2vs0mg"},{"bike_id":"5ded2f45-d133-4ba6-84c5-730139f92490","system_id":"levelo_inurba_marseille","lat":43.30802,"lon":5.38158,"is_reserved":false,"is_disabled":false,"rental_uris":{"android":"levelo://app?vid=5ded2f45-d133-4ba6-84c5-730139f92490","ios":"levelo://app?vid=5ded2f45-d133-4ba6-84c5-730139f92490"},"vehicle_type_id":"4","last_reported":1744150187,"current_range_meters":9600,"station_id":"ce4bgt12rcd13ifvqce0","pricing_plan_id":"cebpf4jnsgd1na2vs0mg"},{"bike_id":"92e751ad-a6dc-45f0-b006-3bc25d5954a6","system_id":"levelo_inurba_marseille","lat":43.28938,"lon":5.36626,"is_reserved":false,"is_disabled":false,"rental_uris":{"android":"levelo://app?vid=92e751ad-a6dc-45f0-b006-3bc25d5954a6","ios":"levelo://app?vid=92e751ad-a6dc-45f0-b006-3bc25d5954a6"},"vehicle_type_id":"4","last_reported":1744150187,"current_range_meters":9600,"station_id":"ce4bhap2rcd13ifvqek0","pricing_plan_id":"cebpf4jnsgd1na2vs0mg"},{"bike_id":"df136d95-e79c-413e-88c1-df03fad44875","system_id":"levelo_inurba_marseille","lat":43.31073,"lon":5.38353,"is_reserved":false,"is_disabled":false,"rental_uris":{"android":"levelo://app?vid=df136d95-e79c-413e-88c1-df03fad44875","ios":"levelo://app?vid=df136d95-e79c-413e-88c1-df03fad44875"},"vehicle_type_id":"4","last_reported":1744150187,"current_range_meters":9600,"station_id":"ce4bgv92rcd13ifvqcr0","pricing_plan_id":"cebpf4jnsgd1na2vs0mg"},{"bike_id":"68d1cc33-0218-451e-8e10-d32225c21263","system_id":"levelo_inurba_marseille","lat":43.23174,"lon":5.43706,"is_reserved":false,"is_disabled":true,"rental_uris":{"android":"levelo://app?vid=68d1cc33-0218-451e-8e10-d32225c21263","ios":"levelo://app?vid=68d1cc33-0218-451e-8e10-d32225c21263"},"vehicle_type_id":"4","last_reported":1744150187,"current_range_meters":9600,"station_id":"ce4bhmp2rcd13ifvqgog","pricing_plan_id":"cebpf4jnsgd1na2vs0mg"},{"bike_id":"af2f1370-6ca4-41f1-acda-09dc04497331","system_id":"levelo_inurba_marseille","lat":43.26947,"lon":5.402612,"is_reserved":false,"is_disabled":false,"rental_uris":{"android":"levelo://app?vid=af2f1370-6ca4-41f1-acda-09dc04497331","ios":"levelo://app?vid=af2f1370-6ca4-41f1-acda-09dc04497331"},"vehicle_type_id":"4","last_reported":1744150187,"current_range_meters":9600,"station_id":"ce4bgup2rcd13ifvqco0","pricing_plan_id":"cebpf4jnsgd1na2vs0mg"},{"bike_id":"d9e3bad5-48ae-4b4c-a209-f865e554e558","system_id":"levelo_inurba_marseille","lat":43.29519,"lon":5.394,"is_reserved":false,"is_disabled":false,"rental_uris":{"android":"levelo://app?vid=d9e3bad5-48ae-4b4c-a209-f865e554e558","ios":"levelo://app?vid=d9e3bad5-48ae-4b4c-a209-f865e554e558"},"vehicle_type_id":"4","last_reported":1744150187,"current_range_meters":9600,"station_id":"","pricing_plan_id":"cebpf4jnsgd1na2vs0mg"},{"bike_id":"1b96eb49-ce49-4647-a6d7-d55db9a48315","system_id":"levelo_inurba_marseille","lat":43.3234,"lon":5.40617,"is_reserved":false,"is_disabled":false,"rental_uris":{"android":"levelo://app?vid=1b96eb49-ce49-4647-a6d7-d55db9a48315","ios":"levelo://app?vid=1b96eb49-ce49-4647-a6d7-d55db9a48315"},"vehicle_type_id":"4","last_reported":1744150187,"current_range_meters":9600,"station_id":"ce4bhq92rcd13ifvqhjg","pricing_plan_id":"cebpf4jnsgd1na2vs0mg"},{"bike_id":"b2cee8e0-4c9e-4848-bd0c-91de02906d6a","system_id":"levelo_inurba_marseille","lat":43.27945,"lon":5.41047,"is_reserved":false,"is_disabled":false,"rental_uris":{"android":"levelo://app?vid=b2cee8e0-4c9e-4848-bd0c-91de02906d6a","ios":"levelo://app?vid=b2cee8e0-4c9e-4848-bd0c-91de02906d6a"},"vehicle_type_id":"4","last_reported":1744150187,"current_range_meters":9600,"station_id":"ce4bhnp2rcd13ifvqh0g","pricing_plan_id":"cebpf4jnsgd1na2vs0mg"},{"bike_id":"94d57612-4eb1-4197-b4f5-071cb6a8c87a","system_id":"levelo_inurba_marseille","lat":43.278332,"lon":5.392042,"is_reserved":false,"is_disabled":false,"rental_uris":{"android":"levelo://app?vid=94d57612-4eb1-4197-b4f5-071cb6a8c87a","ios":"levelo://app?vid=94d57612-4eb1-4197-b4f5-071cb6a8c87a"},"vehicle_type_id":"4","last_reported":1744150187,"current_range_meters":7200,"station_id":"ce4bhjp2rcd13ifvqga0","pricing_plan_id":"cebpf4jnsgd1na2vs0mg"},{"bike_id":"d9918c2f-ab7f-450c-9279-5b605a9738a3","system_id":"levelo_inurba_marseille","lat":43.31167,"lon":5.38718,"is_reserved":false,"is_disabled":false,"rental_uris":{"android":"levelo://app?vid=d9918c2f-ab7f-450c-9279-5b605a9738a3","ios":"levelo://app?vid=d9918c2f-ab7f-450c-9279-5b605a9738a3"},"vehicle_type_id":"4","last_reported":1744150187,"current_range_meters":10000,"station_id":"ce4bgv12rcd13ifvqcp0","pricing_plan_id":"cebpf4jnsgd1na2vs0mg"},{"bike_id":"8c3a87bc-d5ff-412d-93d9-dc60835ec37a","system_id":"levelo_inurba_marseille","lat":43.28831,"lon":5.35854,"is_reserved":false,"is_disabled":false,"rental_uris":{"android":"levelo://app?vid=8c3a87bc-d5ff-412d-93d9-dc60835ec37a","ios":"levelo://app?vid=8c3a87bc-d5ff-412d-93d9-dc60835ec37a"},"vehicle_type_id":"4","last_reported":1744150187,"current_range_meters":10000,"station_id":"ce4bhb12rcd13ifvqem0","pricing_plan_id":"cebpf4jnsgd1na2vs0mg"},{"bike_id":"111c76dd-f0f7-46e3-85a8-314ab6ead02d","system_id":"levelo_inurba_marseille","lat":43.24675,"lon":5.38153,"is_reserved":false,"is_disabled":false,"rental_uris":{"android":"levelo://app?vid=111c76dd-f0f7-46e3-85a8-314ab6ead02d","ios":"levelo://app?vid=111c76dd-f0f7-46e3-85a8-314ab6ead02d"},"vehicle_type_id":"4","last_reported":1744150187,"current_range_meters":10000,"station_id":"ce4bhih2rcd13ifvqfr0","pricing_plan_id":"cebpf4jnsgd1na2vs0mg"},{"bike_id":"7dc5c599-1f28-44ab-9cd8-5d0e7c40b09b","system_id":"levelo_inurba_marseille","lat":43.30262,"lon":5.40051,"is_reserved":false,"is_disabled":false,"rental_uris":{"android":"levelo://app?vid=7dc5c599-1f28-44ab-9cd8-5d0e7c40b09b","ios":"levelo://app?vid=7dc5c599-1f28-44ab-9cd8-5d0e7c40b09b"},"vehicle_type_id":"4","last_reported":1744150187,"current_range_meters":10000,"station_id":"ce4bgvh2rcd13ifvqcs0","pricing_plan_id":"cebpf4jnsgd1na2vs0mg"},{"bike_id":"4b2937b2-181e-4485-9356-c12fb210030a","system_id":"levelo_inurba_marseille","lat":43.28424,"lon":5.37506,"is_reserved":false,"is_disabled":false,"rental_uris":{"android":"levelo://app?vid=4b2937b2-181e-4485-9356-c12fb210030a","ios":"levelo://app?vid=4b2937b2-181e-4485-9356-c12fb210030a"},"vehicle_type_id":"4","last_reported":1744150187,"current_range_meters":10000,"station_id":"ce4bh412rcd13ifvqds0","pricing_plan_id":"cebpf4jnsgd1na2vs0mg"},{"bike_id":"0aa02c49-cbb3-4907-a588-f754056f3ba8","system_id":"levelo_inurba_marseille","lat":43.30823,"lon":5.38145,"is_reserved":false,"is_disabled":true,"rental_uris":{"android":"levelo://app?vid=0aa02c49-cbb3-4907-a588-f754056f3ba8","ios":"levelo://app?vid=0aa02c49-cbb3-4907-a588-f754056f3ba8"},"vehicle_type_id":"4","last_reported":1744150187,"current_range_meters":10000,"station_id":"ce4bgt12rcd13ifvqce0","pricing_plan_id":"cebpf4jnsgd1na2vs0mg"},{"bike_id":"16386ba7-1029-4d33-9f96-b519d68cd1b4","system_id":"levelo_inurba_marseille","lat":43.29272,"lon":5.40128,"is_reserved":false,"is_disabled":false,"rental_uris":{"android":"levelo://app?vid=16386ba7-1029-4d33-9f96-b519d68cd1b4","ios":"levelo://app?vid=16386ba7-1029-4d33-9f96-b519d68cd1b4"},"vehicle_type_id":"4","last_reported":1744150187,"current_range_meters":10000,"station_id":"ce4bh312rcd13ifvqdk0","pricing_plan_id":"cebpf4jnsgd1na2vs0mg"},{"bike_id":"19829531-2b5b-4511-917d-4c3d89262461","system_id":"levelo_inurba_marseille","lat":43.304408,"lon":5.388905,"is_reserved":false,"is_disabled":false,"rental_uris":{"android":"levelo://app?vid=19829531-2b5b-4511-917d-4c3d89262461","ios":"levelo://app?vid=19829531-2b5b-4511-917d-4c3d89262461"},"vehicle_type_id":"4","last_reported":1744150187,"current_range_meters":10000,"station_id":"ce4bgk12rcd13ifvqbi0","pricing_plan_id":"cebpf4jnsgd1na2vs0mg"},{"bike_id":"557e216a-f1fd-448c-87dc-bf453f47c735","system_id":"levelo_inurba_marseille","lat":43.29244,"lon":5.40916,"is_reserved":false,"is_disabled":false,"rental_uris":{"android":"levelo://app?vid=557e216a-f1fd-448c-87dc-bf453f47c735","ios":"levelo://app?vid=557e216a-f1fd-448c-87dc-bf453f47c735"},"vehicle_type_id":"4","last_reported":1744150187,"current_range_meters":10000,"station_id":"ce4bh192rcd13ifvqdc0","pricing_plan_id":"cebpf4jnsgd1na2vs0mg"},{"bike_id":"1ca7d0c4-b7aa-4350-ad9f-4e24c2ba029a","system_id":"levelo_inurba_marseille","lat":43.30389,"lon":5.42471,"is_reserved":false,"is_disabled":true,"rental_uris":{"android":"levelo://app?vid=1ca7d0c4-b7aa-4350-ad9f-4e24c2ba029a","ios":"levelo://app?vid=1ca7d0c4-b7aa-4350-ad9f-4e24c2ba029a"},"vehicle_type_id":"4","last_reported":1744150187,"current_range_meters":10800,"station_id":"ce4bhoh2rcd13ifvqh6g","pricing_plan_id":"cebpf4jnsgd1na2vs0mg"},{"bike_id":"2219d906-d8eb-4861-9914-1da6aead283d","system_id":"levelo_inurba_marseille","lat":43.31062,"lon":5.38359,"is_reserved":false,"is_disabled":false,"rental_uris":{"android":"levelo://app?vid=2219d906-d8eb-4861-9914-1da6aead283d","ios":"levelo://app?vid=2219d906-d8eb-4861-9914-1da6aead283d"},"vehicle_type_id":"4","last_reported":1744150187,"current_range_meters":10800,"station_id":"ce4bgv92rcd13ifvqcr0","pricing_plan_id":"cebpf4jnsgd1na2vs0mg"},{"bike_id":"76bf2f0f-ddcc-4a0f-b063-6630015a98b5","system_id":"levelo_inurba_marseille","lat":43.30372,"lon":5.4248,"is_reserved":false,"is_disabled":false,"rental_uris":{"android":"levelo://app?vid=76bf2f0f-ddcc-4a0f-b063-6630015a98b5","ios":"levelo://app?vid=76bf2f0f-ddcc-4a0f-b063-6630015a98b5"},"vehicle_type_id":"4","last_reported":1744150187,"current_range_meters":10800,"station_id":"ce4bhoh2rcd13ifvqh6g","pricing_plan_id":"cebpf4jnsgd1na2vs0mg"},{"bike_id":"08f9c0c8-8b33-4578-8a03-20f44d582241","system_id":"levelo_inurba_marseille","lat":43.30619,"lon":5.37143,"is_reserved":false,"is_disabled":false,"rental_uris":{"android":"levelo://app?vid=08f9c0c8-8b33-4578-8a03-20f44d582241","ios":"levelo://app?vid=08f9c0c8-8b33-4578-8a03-20f44d582241"},"vehicle_type_id":"4","last_reported":1744150187,"current_range_meters":10800,"station_id":"","pricing_plan_id":"cebpf4jnsgd1na2vs0mg"},{"bike_id":"5114018d-021a-49e9-8fa0-8e15e3cc19a5","system_id":"levelo_inurba_marseille","lat":43.2818,"lon":5.42654,"is_reserved":false,"is_disabled":false,"rental_uris":{"android":"levelo://app?vid=5114018d-021a-49e9-8fa0-8e15e3cc19a5","ios":"levelo://app?vid=5114018d-021a-49e9-8fa0-8e15e3cc19a5"},"vehicle_type_id":"4","last_reported":1744150187,"current_range_meters":10800,"station_id":"ce4bhnh2rcd13ifvqgug","pricing_plan_id":"cebpf4jnsgd1na2vs0mg"},{"bike_id":"2fa0986a-72bd-45ca-bd46-d2f0740bfdb0","system_id":"levelo_inurba_marseille","lat":43.293671,"lon":5.37844,"is_reserved":false,"is_disabled":false,"rental_uris":{"android":"levelo://app?vid=2fa0986a-72bd-45ca-bd46-d2f0740bfdb0","ios":"levelo://app?vid=2fa0986a-72bd-45ca-bd46-d2f0740bfdb0"},"vehicle_type_id":"4","last_reported":1744150187,"current_range_meters":10800,"station_id":"ce4bh012rcd13ifvqd10","pricing_plan_id":"cebpf4jnsgd1na2vs0mg"},{"bike_id":"098b34c4-10a2-481f-b2a3-61f7a3b8f4ed","system_id":"levelo_inurba_marseille","lat":43.30921,"lon":5.4016,"is_reserved":false,"is_disabled":false,"rental_uris":{"android":"levelo://app?vid=098b34c4-10a2-481f-b2a3-61f7a3b8f4ed","ios":"levelo://app?vid=098b34c4-10a2-481f-b2a3-61f7a3b8f4ed"},"vehicle_type_id":"4","last_reported":1744150187,"current_range_meters":10800,"station_id":"ce4bgvp2rcd13ifvqct0","pricing_plan_id":"cebpf4jnsgd1na2vs0mg"},{"bike_id":"e2c56090-e658-4d6b-8227-ff1b30247ef9","system_id":"levelo_inurba_marseille","lat":43.24659,"lon":5.38161,"is_reserved":false,"is_disabled":false,"rental_uris":{"android":"levelo://app?vid=e2c56090-e658-4d6b-8227-ff1b30247ef9","ios":"levelo://app?vid=e2c56090-e658-4d6b-8227-ff1b30247ef9"},"vehicle_type_id":"4","last_reported":1744150187,"current_range_meters":10800,"station_id":"ce4bhih2rcd13ifvqfr0","pricing_plan_id":"cebpf4jnsgd1na2vs0mg"},{"bike_id":"f1b3c0ee-1239-478a-87cc-7b3899e208aa","system_id":"levelo_inurba_marseille","lat":43.28355,"lon":5.38095,"is_reserved":false,"is_disabled":false,"rental_uris":{"android":"levelo://app?vid=f1b3c0ee-1239-478a-87cc-7b3899e208aa","ios":"levelo://app?vid=f1b3c0ee-1239-478a-87cc-7b3899e208aa"},"vehicle_type_id":"4","last_reported":1744150187,"current_range_meters":10800,"station_id":"ce4bh412rcd13ifvqdr0","pricing_plan_id":"cebpf4jnsgd1na2vs0mg"},{"bike_id":"947d842b-ea3d-4764-a906-2d35e39fc7b3","system_id":"levelo_inurba_marseille","lat":43.304362,"lon":5.425402,"is_reserved":false,"is_disabled":false,"rental_uris":{"android":"levelo://app?vid=947d842b-ea3d-4764-a906-2d35e39fc7b3","ios":"levelo://app?vid=947d842b-ea3d-4764-a906-2d35e39fc7b3"},"vehicle_type_id":"4","last_reported":1744150187,"current_range_meters":10800,"station_id":"ce4bhp12rcd13ifvqh9g","pricing_plan_id":"cebpf4jnsgd1na2vs0mg"},{"bike_id":"e34f7c01-c5fa-4cd6-8388-b5cd12b4b9c7","system_id":"levelo_inurba_marseille","lat":43.28627,"lon":5.351,"is_reserved":false,"is_disabled":true,"rental_uris":{"android":"levelo://app?vid=e34f7c01-c5fa-4cd6-8388-b5cd12b4b9c7","ios":"levelo://app?vid=e34f7c01-c5fa-4cd6-8388-b5cd12b4b9c7"},"vehicle_type_id":"4","last_reported":1744150187,"current_range_meters":10800,"station_id":"ce4bhch2rcd13ifvqeug","pricing_plan_id":"cebpf4jnsgd1na2vs0mg"},{"bike_id":"03a190ca-23e8-400f-908f-3b8f9979803b","system_id":"levelo_inurba_marseille","lat":43.28699,"lon":5.39992,"is_reserved":false,"is_disabled":false,"rental_uris":{"android":"levelo://app?vid=03a190ca-23e8-400f-908f-3b8f9979803b","ios":"levelo://app?vid=03a190ca-23e8-400f-908f-3b8f9979803b"},"vehicle_type_id":"4","last_reported":1744150187,"current_range_meters":10800,"station_id":"ce4bho92rcd13ifvqh3g","pricing_plan_id":"cebpf4jnsgd1na2vs0mg"},{"bike_id":"b397701f-0d3d-44bf-ab3e-3ccc7e74fb2e","system_id":"levelo_inurba_marseille","lat":43.26459,"lon":5.42294,"is_reserved":false,"is_disabled":false,"rental_uris":{"android":"levelo://app?vid=b397701f-0d3d-44bf-ab3e-3ccc7e74fb2e","ios":"levelo://app?vid=b397701f-0d3d-44bf-ab3e-3ccc7e74fb2e"},"vehicle_type_id":"4","last_reported":1744150187,"current_range_meters":10800,"station_id":"","pricing_plan_id":"cebpf4jnsgd1na2vs0mg"},{"bike_id":"95689897-fa9d-475d-ba89-a3d96e067c50","system_id":"levelo_inurba_marseille","lat":43.30253,"lon":5.40076,"is_reserved":false,"is_disabled":false,"rental_uris":{"android":"levelo://app?vid=95689897-fa9d-475d-ba89-a3d96e067c50","ios":"levelo://app?vid=95689897-fa9d-475d-ba89-a3d96e067c50"},"vehicle_type_id":"4","last_reported":1744150187,"current_range_meters":11200,"station_id":"ce4bgvh2rcd13ifvqcs0","pricing_plan_id":"cebpf4jnsgd1na2vs0mg"},{"bike_id":"9fce7fb9-26b6-4832-9f96-ea1b75c489f0","system_id":"levelo_inurba_marseille","lat":43.23186,"lon":5.35567,"is_reserved":false,"is_disabled":false,"rental_uris":{"android":"levelo://app?vid=9fce7fb9-26b6-4832-9f96-ea1b75c489f0","ios":"levelo://app?vid=9fce7fb9-26b6-4832-9f96-ea1b75c489f0"},"vehicle_type_id":"4","last_reported":1744150187,"current_range_meters":11200,"station_id":"ce4bhu92rcd13ifvqi70","pricing_plan_id":"cebpf4jnsgd1na2vs0mg"},{"bike_id":"80663e12-6b64-446d-88c9-20255bde1a8a","system_id":"levelo_inurba_marseille","lat":43.308867,"lon":5.396453,"is_reserved":false,"is_disabled":true,"rental_uris":{"android":"levelo://app?vid=80663e12-6b64-446d-88c9-20255bde1a8a","ios":"levelo://app?vid=80663e12-6b64-446d-88c9-20255bde1a8a"},"vehicle_type_id":"4","last_reported":1744150187,"current_range_meters":11200,"station_id":"ce4bh012rcd13ifvqcv0","pricing_plan_id":"cebpf4jnsgd1na2vs0mg"},{"bike_id":"8306f42b-da73-4ef1-a983-f4f331d1955e","system_id":"levelo_inurba_marseille","lat":43.27494,"lon":5.42445,"is_reserved":false,"is_disabled":false,"rental_uris":{"android":"levelo://app?vid=8306f42b-da73-4ef1-a983-f4f331d1955e","ios":"levelo://app?vid=8306f42b-da73-4ef1-a983-f4f331d1955e"},"vehicle_type_id":"4","last_reported":1744150187,"current_range_meters":11200,"station_id":"ce4bhn92rcd13ifvqgrg","pricing_plan_id":"cebpf4jnsgd1na2vs0mg"},{"bike_id":"ae8acc12-d36d-43ae-9b5c-d788c29ead74","system_id":"levelo_inurba_marseille","lat":43.24814,"lon":5.37455,"is_reserved":false,"is_disabled":false,"rental_uris":{"android":"levelo://app?vid=ae8acc12-d36d-43ae-9b5c-d788c29ead74","ios":"levelo://app?vid=ae8acc12-d36d-43ae-9b5c-d788c29ead74"},"vehicle_type_id":"4","last_reported":1744150187,"current_range_meters":11200,"station_id":"ce4bhgh2rcd13ifvqfb0","pricing_plan_id":"cebpf4jnsgd1na2vs0mg"},{"bike_id":"a396175d-4372-4172-bc6f-f5acf9ab3e7b","system_id":"levelo_inurba_marseille","lat":43.29555,"lon":5.4,"is_reserved":false,"is_disabled":false,"rental_uris":{"android":"levelo://app?vid=a396175d-4372-4172-bc6f-f5acf9ab3e7b","ios":"levelo://app?vid=a396175d-4372-4172-bc6f-f5acf9ab3e7b"},"vehicle_type_id":"4","last_reported":1744150187,"current_range_meters":11200,"station_id":"ce4bh312rcd13ifvqdj0","pricing_plan_id":"cebpf4jnsgd1na2vs0mg"},{"bike_id":"97c885a5-3656-4131-b3ea-06fe5342a972","system_id":"levelo_inurba_marseille","lat":43.3088,"lon":5.37202,"is_reserved":false,"is_disabled":false,"rental_uris":{"android":"levelo://app?vid=97c885a5-3656-4131-b3ea-06fe5342a972","ios":"levelo://app?vid=97c885a5-3656-4131-b3ea-06fe5342a972"},"vehicle_type_id":"4","last_reported":1744150187,"current_range_meters":11200,"station_id":"ce4bguh2rcd13ifvqckg","pricing_plan_id":"cebpf4jnsgd1na2vs0mg"},{"bike_id":"05ebd012-a397-44d6-8d3a-b4fd8a759a09","system_id":"levelo_inurba_marseille","lat":43.30813,"lon":5.4352,"is_reserved":false,"is_disabled":false,"rental_uris":{"android":"levelo://app?vid=05ebd012-a397-44d6-8d3a-b4fd8a759a09","ios":"levelo://app?vid=05ebd012-a397-44d6-8d3a-b4fd8a759a09"},"vehicle_type_id":"4","last_reported":1744150187,"current_range_meters":11200,"station_id":"ce4bhph2rcd13ifvqheg","pricing_plan_id":"cebpf4jnsgd1na2vs0mg"},{"bike_id":"27b027e0-2b3b-4dbb-8644-29d6a2f5b755","system_id":"levelo_inurba_marseille","lat":43.28726,"lon":5.37928,"is_reserved":false,"is_disabled":false,"rental_uris":{"android":"levelo://app?vid=27b027e0-2b3b-4dbb-8644-29d6a2f5b755","ios":"levelo://app?vid=27b027e0-2b3b-4dbb-8644-29d6a2f5b755"},"vehicle_type_id":"4","last_reported":1744150187,"current_range_meters":11200,"station_id":"ce4bh9p2rcd13ifvqec0","pricing_plan_id":"cebpf4jnsgd1na2vs0mg"},{"bike_id":"9938fe25-3325-4b58-bdc6-7f3108ad51eb","system_id":"levelo_inurba_marseille","lat":43.31522,"lon":5.38036,"is_reserved":false,"is_disabled":false,"rental_uris":{"android":"levelo://app?vid=9938fe25-3325-4b58-bdc6-7f3108ad51eb","ios":"levelo://app?vid=9938fe25-3325-4b58-bdc6-7f3108ad51eb"},"vehicle_type_id":"4","last_reported":1744150187,"current_range_meters":11600,"station_id":"ce4bhsp2rcd13ifvqi50","pricing_plan_id":"cebpf4jnsgd1na2vs0mg"},{"bike_id":"e535150c-3d7c-41d2-8979-998739176c45","system_id":"levelo_inurba_marseille","lat":43.29907,"lon":5.38143,"is_reserved":false,"is_disabled":false,"rental_uris":{"android":"levelo://app?vid=e535150c-3d7c-41d2-8979-998739176c45","ios":"levelo://app?vid=e535150c-3d7c-41d2-8979-998739176c45"},"vehicle_type_id":"4","last_reported":1744150187,"current_range_meters":11600,"station_id":"ce4bgj12rcd13ifvqbc0","pricing_plan_id":"cebpf4jnsgd1na2vs0mg"},{"bike_id":"894923f7-24a8-4f05-8d0c-1af4b4d3211a","system_id":"levelo_inurba_marseille","lat":43.30291,"lon":5.39234,"is_reserved":false,"is_disabled":true,"rental_uris":{"android":"levelo://app?vid=894923f7-24a8-4f05-8d0c-1af4b4d3211a","ios":"levelo://app?vid=894923f7-24a8-4f05-8d0c-1af4b4d3211a"},"vehicle_type_id":"4","last_reported":1744150187,"current_range_meters":12000,"station_id":"ce4bgkh2rcd13ifvqbk0","pricing_plan_id":"cebpf4jnsgd1na2vs0mg"},{"bike_id":"8379372e-c06d-426f-85f9-acdc4eafa151","system_id":"levelo_inurba_marseille","lat":43.21746,"lon":5.34609,"is_reserved":false,"is_disabled":true,"rental_uris":{"android":"levelo://app?vid=8379372e-c06d-426f-85f9-acdc4eafa151","ios":"levelo://app?vid=8379372e-c06d-426f-85f9-acdc4eafa151"},"vehicle_type_id":"4","last_reported":1744150187,"current_range_meters":12000,"station_id":"st_cvj6r9ubvosntc0bgbag","pricing_plan_id":"cebpf4jnsgd1na2vs0mg"},{"bike_id":"0cf8032b-9016-4630-b350-7d0879be21f0","system_id":"levelo_inurba_marseille","lat":43.30903,"lon":5.37207,"is_reserved":false,"is_disabled":false,"rental_uris":{"android":"levelo://app?vid=0cf8032b-9016-4630-b350-7d0879be21f0","ios":"levelo://app?vid=0cf8032b-9016-4630-b350-7d0879be21f0"},"vehicle_type_id":"4","last_reported":1744150187,"current_range_meters":11600,"station_id":"ce4bguh2rcd13ifvqckg","pricing_plan_id":"cebpf4jnsgd1na2vs0mg"},{"bike_id":"e1f3aba4-0665-4f6d-a24f-e88a69d2be56","system_id":"levelo_inurba_marseille","lat":43.27825,"lon":5.39199,"is_reserved":false,"is_disabled":false,"rental_uris":{"android":"levelo://app?vid=e1f3aba4-0665-4f6d-a24f-e88a69d2be56","ios":"levelo://app?vid=e1f3aba4-0665-4f6d-a24f-e88a69d2be56"},"vehicle_type_id":"4","last_reported":1744150187,"current_range_meters":12000,"station_id":"ce4bhjp2rcd13ifvqga0","pricing_plan_id":"cebpf4jnsgd1na2vs0mg"},{"bike_id":"fe554949-79fc-40fb-9308-e13fc7147f59","system_id":"levelo_inurba_marseille","lat":43.31106,"lon":5.42451,"is_reserved":false,"is_disabled":false,"rental_uris":{"android":"levelo://app?vid=fe554949-79fc-40fb-9308-e13fc7147f59","ios":"levelo://app?vid=fe554949-79fc-40fb-9308-e13fc7147f59"},"vehicle_type_id":"4","last_reported":1744150187,"current_range_meters":12000,"station_id":"ce4bhp92rcd13ifvqhag","pricing_plan_id":"cebpf4jnsgd1na2vs0mg"},{"bike_id":"e1093634-14cd-45ac-b4f4-8ee41aa759c8","system_id":"levelo_inurba_marseille","lat":43.27984,"lon":5.38724,"is_reserved":false,"is_disabled":false,"rental_uris":{"android":"levelo://app?vid=e1093634-14cd-45ac-b4f4-8ee41aa759c8","ios":"levelo://app?vid=e1093634-14cd-45ac-b4f4-8ee41aa759c8"},"vehicle_type_id":"4","last_reported":1744150187,"current_range_meters":12400,"station_id":"ce4bhg12rcd13ifvqf80","pricing_plan_id":"cebpf4jnsgd1na2vs0mg"},{"bike_id":"30ef462e-5ed8-43d7-b858-5b3cd802b81c","system_id":"levelo_inurba_marseille","lat":43.30375,"lon":5.42483,"is_reserved":false,"is_disabled":false,"rental_uris":{"android":"levelo://app?vid=30ef462e-5ed8-43d7-b858-5b3cd802b81c","ios":"levelo://app?vid=30ef462e-5ed8-43d7-b858-5b3cd802b81c"},"vehicle_type_id":"4","last_reported":1744150187,"current_range_meters":12400,"station_id":"ce4bhoh2rcd13ifvqh6g","pricing_plan_id":"cebpf4jnsgd1na2vs0mg"},{"bike_id":"ba7c5990-65c8-4d17-bd7d-615ed4e9b2d3","system_id":"levelo_inurba_marseille","lat":43.28437,"lon":5.39182,"is_reserved":false,"is_disabled":false,"rental_uris":{"android":"levelo://app?vid=ba7c5990-65c8-4d17-bd7d-615ed4e9b2d3","ios":"levelo://app?vid=ba7c5990-65c8-4d17-bd7d-615ed4e9b2d3"},"vehicle_type_id":"4","last_reported":1744150187,"current_range_meters":12400,"station_id":"ce4bhoh2rcd13ifvqh5g","pricing_plan_id":"cebpf4jnsgd1na2vs0mg"},{"bike_id":"76055e52-9550-430a-942e-266679872c8d","system_id":"levelo_inurba_marseille","lat":43.286695,"lon":5.363444,"is_reserved":false,"is_disabled":false,"rental_uris":{"android":"levelo://app?vid=76055e52-9550-430a-942e-266679872c8d","ios":"levelo://app?vid=76055e52-9550-430a-942e-266679872c8d"},"vehicle_type_id":"4","last_reported":1744150187,"current_range_meters":12400,"station_id":"ce4bhah2rcd13ifvqej0","pricing_plan_id":"cebpf4jnsgd1na2vs0mg"},{"bike_id":"612731d2-d819-48e3-b425-db5915ef53ee","system_id":"levelo_inurba_marseille","lat":43.28102,"lon":5.37824,"is_reserved":false,"is_disabled":false,"rental_uris":{"android":"levelo://app?vid=612731d2-d819-48e3-b425-db5915ef53ee","ios":"levelo://app?vid=612731d2-d819-48e3-b425-db5915ef53ee"},"vehicle_type_id":"4","last_reported":1744150187,"current_range_meters":12400,"station_id":"ce4bha12rcd13ifvqee0","pricing_plan_id":"cebpf4jnsgd1na2vs0mg"},{"bike_id":"3f17f617-453f-4491-9dec-f765f1e1883e","system_id":"levelo_inurba_marseille","lat":43.25818,"lon":5.39429,"is_reserved":false,"is_disabled":false,"rental_uris":{"android":"levelo://app?vid=3f17f617-453f-4491-9dec-f765f1e1883e","ios":"levelo://app?vid=3f17f617-453f-4491-9dec-f765f1e1883e"},"vehicle_type_id":"4","last_reported":1744150187,"current_range_meters":12400,"station_id":"ce4bhip2rcd13ifvqft0","pricing_plan_id":"cebpf4jnsgd1na2vs0mg"},{"bike_id":"2b539354-2334-4f2e-883c-1328a00d046f","system_id":"levelo_inurba_marseille","lat":43.2783,"lon":5.39207,"is_reserved":false,"is_disabled":false,"rental_uris":{"android":"levelo://app?vid=2b539354-2334-4f2e-883c-1328a00d046f","ios":"levelo://app?vid=2b539354-2334-4f2e-883c-1328a00d046f"},"vehicle_type_id":"4","last_reported":1744150187,"current_range_meters":12800,"station_id":"ce4bhjp2rcd13ifvqga0","pricing_plan_id":"cebpf4jnsgd1na2vs0mg"},{"bike_id":"9dedf862-2431-49cc-a9c6-aaf09e8ed3d1","system_id":"levelo_inurba_marseille","lat":43.29863,"lon":5.39733,"is_reserved":false,"is_disabled":false,"rental_uris":{"android":"levelo://app?vid=9dedf862-2431-49cc-a9c6-aaf09e8ed3d1","ios":"levelo://app?vid=9dedf862-2431-49cc-a9c6-aaf09e8ed3d1"},"vehicle_type_id":"4","last_reported":1744150187,"current_range_meters":12800,"station_id":"ce4bh0h2rcd13ifvqd50","pricing_plan_id":"cebpf4jnsgd1na2vs0mg"},{"bike_id":"7847c22d-422e-4a1b-963b-b43500f3a5a5","system_id":"levelo_inurba_marseille","lat":43.30892,"lon":5.39638,"is_reserved":false,"is_disabled":false,"rental_uris":{"android":"levelo://app?vid=7847c22d-422e-4a1b-963b-b43500f3a5a5","ios":"levelo://app?vid=7847c22d-422e-4a1b-963b-b43500f3a5a5"},"vehicle_type_id":"4","last_reported":1744150187,"current_range_meters":12800,"station_id":"ce4bh012rcd13ifvqcv0","pricing_plan_id":"cebpf4jnsgd1na2vs0mg"},{"bike_id":"e24c6fd3-f9cb-40c7-9e57-dd2c20540e9b","system_id":"levelo_inurba_marseille","lat":43.31727,"lon":5.42411,"is_reserved":false,"is_disabled":false,"rental_uris":{"android":"levelo://app?vid=e24c6fd3-f9cb-40c7-9e57-dd2c20540e9b","ios":"levelo://app?vid=e24c6fd3-f9cb-40c7-9e57-dd2c20540e9b"},"vehicle_type_id":"4","last_reported":1744150187,"current_range_meters":12800,"station_id":"ce4bhp92rcd13ifvqhbg","pricing_plan_id":"cebpf4jnsgd1na2vs0mg"},{"bike_id":"5c1f9b22-9844-4e2e-ba73-dbfef855cf8f","system_id":"levelo_inurba_marseille","lat":43.29705,"lon":5.36598,"is_reserved":false,"is_disabled":false,"rental_uris":{"android":"levelo://app?vid=5c1f9b22-9844-4e2e-ba73-dbfef855cf8f","ios":"levelo://app?vid=5c1f9b22-9844-4e2e-ba73-dbfef855cf8f"},"vehicle_type_id":"4","last_reported":1744150187,"current_range_meters":12400,"station_id":"ce4bgn12rcd13ifvqbt0","pricing_plan_id":"cebpf4jnsgd1na2vs0mg"},{"bike_id":"f4c5a4d2-ae8d-4c51-8b72-96061e060639","system_id":"levelo_inurba_marseille","lat":43.30898,"lon":5.37152,"is_reserved":false,"is_disabled":false,"rental_uris":{"android":"levelo://app?vid=f4c5a4d2-ae8d-4c51-8b72-96061e060639","ios":"levelo://app?vid=f4c5a4d2-ae8d-4c51-8b72-96061e060639"},"vehicle_type_id":"4","last_reported":1744150187,"current_range_meters":12800,"station_id":"ce4bguh2rcd13ifvqckg","pricing_plan_id":"cebpf4jnsgd1na2vs0mg"},{"bike_id":"4612345c-75a3-4189-8a6d-651578d0ecd4","system_id":"levelo_inurba_marseille","lat":43.24824,"lon":5.37449,"is_reserved":false,"is_disabled":true,"rental_uris":{"android":"levelo://app?vid=4612345c-75a3-4189-8a6d-651578d0ecd4","ios":"levelo://app?vid=4612345c-75a3-4189-8a6d-651578d0ecd4"},"vehicle_type_id":"4","last_reported":1744150187,"current_range_meters":13600,"station_id":"ce4bhgh2rcd13ifvqfb0","pricing_plan_id":"cebpf4jnsgd1na2vs0mg"},{"bike_id":"21819b42-8514-4262-aaad-c8a20b5679d4","system_id":"levelo_inurba_marseille","lat":43.2989,"lon":5.39737,"is_reserved":false,"is_disabled":false,"rental_uris":{"android":"levelo://app?vid=21819b42-8514-4262-aaad-c8a20b5679d4","ios":"levelo://app?vid=21819b42-8514-4262-aaad-c8a20b5679d4"},"vehicle_type_id":"4","last_reported":1744150187,"current_range_meters":13600,"station_id":"ce4bh0h2rcd13ifvqd50","pricing_plan_id":"cebpf4jnsgd1na2vs0mg"},{"bike_id":"75d9cc88-2117-44c3-9d56-d428c47d1f06","system_id":"levelo_inurba_marseille","lat":43.25113,"lon":5.40317,"is_reserved":false,"is_disabled":false,"rental_uris":{"android":"levelo://app?vid=75d9cc88-2117-44c3-9d56-d428c47d1f06","ios":"levelo://app?vid=75d9cc88-2117-44c3-9d56-d428c47d1f06"},"vehicle_type_id":"4","last_reported":1744150187,"current_range_meters":13600,"station_id":"ce4bhlh2rcd13ifvqgig","pricing_plan_id":"cebpf4jnsgd1na2vs0mg"},{"bike_id":"cd8480fd-0260-4751-be49-d71de6c347f5","system_id":"levelo_inurba_marseille","lat":43.292603,"lon":5.384464,"is_reserved":false,"is_disabled":false,"rental_uris":{"android":"levelo://app?vid=cd8480fd-0260-4751-be49-d71de6c347f5","ios":"levelo://app?vid=cd8480fd-0260-4751-be49-d71de6c347f5"},"vehicle_type_id":"4","last_reported":1744150187,"current_range_meters":13600,"station_id":"ce4bhip2rcd13ifvqft0","pricing_plan_id":"cebpf4jnsgd1na2vs0mg"},{"bike_id":"606a193b-cd9c-4902-b91a-b77f6adc5e47","system_id":"levelo_inurba_marseille","lat":43.28438,"lon":5.39169,"is_reserved":false,"is_disabled":false,"rental_uris":{"android":"levelo://app?vid=606a193b-cd9c-4902-b91a-b77f6adc5e47","ios":"levelo://app?vid=606a193b-cd9c-4902-b91a-b77f6adc5e47"},"vehicle_type_id":"4","last_reported":1744150187,"current_range_meters":13600,"station_id":"ce4bhoh2rcd13ifvqh5g","pricing_plan_id":"cebpf4jnsgd1na2vs0mg"},{"bike_id":"663e8267-6ff4-49ef-9af7-3fdd5c976062","system_id":"levelo_inurba_marseille","lat":43.26792,"lon":5.39406,"is_reserved":false,"is_disabled":false,"rental_uris":{"android":"levelo://app?vid=663e8267-6ff4-49ef-9af7-3fdd5c976062","ios":"levelo://app?vid=663e8267-6ff4-49ef-9af7-3fdd5c976062"},"vehicle_type_id":"4","last_reported":1744150187,"current_range_meters":13600,"station_id":"ce4bhh12rcd13ifvqfg0","pricing_plan_id":"cebpf4jnsgd1na2vs0mg"},{"bike_id":"dc92e84f-c532-4ea5-ba73-f4002b6f85aa","system_id":"levelo_inurba_marseille","lat":43.298967,"lon":5.436615,"is_reserved":false,"is_disabled":false,"rental_uris":{"android":"levelo://app?vid=dc92e84f-c532-4ea5-ba73-f4002b6f85aa","ios":"levelo://app?vid=dc92e84f-c532-4ea5-ba73-f4002b6f85aa"},"vehicle_type_id":"4","last_reported":1744150187,"current_range_meters":13600,"station_id":"ce4bhpp2rcd13ifvqhfg","pricing_plan_id":"cebpf4jnsgd1na2vs0mg"},{"bike_id":"a0dc90c3-e3a3-4b74-8b3c-7c45d442c462","system_id":"levelo_inurba_marseille","lat":43.29712,"lon":5.36611,"is_reserved":false,"is_disabled":false,"rental_uris":{"android":"levelo://app?vid=a0dc90c3-e3a3-4b74-8b3c-7c45d442c462","ios":"levelo://app?vid=a0dc90c3-e3a3-4b74-8b3c-7c45d442c462"},"vehicle_type_id":"4","last_reported":1744150187,"current_range_meters":13600,"station_id":"ce4bgn12rcd13ifvqbt0","pricing_plan_id":"cebpf4jnsgd1na2vs0mg"},{"bike_id":"ebae96c6-135d-4301-9591-5fd7bb8e5397","system_id":"levelo_inurba_marseille","lat":43.29278,"lon":5.40133,"is_reserved":false,"is_disabled":false,"rental_uris":{"android":"levelo://app?vid=ebae96c6-135d-4301-9591-5fd7bb8e5397","ios":"levelo://app?vid=ebae96c6-135d-4301-9591-5fd7bb8e5397"},"vehicle_type_id":"4","last_reported":1744150187,"current_range_meters":14000,"station_id":"ce4bh312rcd13ifvqdk0","pricing_plan_id":"cebpf4jnsgd1na2vs0mg"},{"bike_id":"fc6adbd9-2933-4ce3-9706-d59df17b53d6","system_id":"levelo_inurba_marseille","lat":43.30895,"lon":5.3708,"is_reserved":false,"is_disabled":false,"rental_uris":{"android":"levelo://app?vid=fc6adbd9-2933-4ce3-9706-d59df17b53d6","ios":"levelo://app?vid=fc6adbd9-2933-4ce3-9706-d59df17b53d6"},"vehicle_type_id":"4","last_reported":1744150187,"current_range_meters":14000,"station_id":"","pricing_plan_id":"cebpf4jnsgd1na2vs0mg"},{"bike_id":"16b4f2e5-2c44-4748-8452-74255aa1b2c8","system_id":"levelo_inurba_marseille","lat":43.28704,"lon":5.39977,"is_reserved":false,"is_disabled":false,"rental_uris":{"android":"levelo://app?vid=16b4f2e5-2c44-4748-8452-74255aa1b2c8","ios":"levelo://app?vid=16b4f2e5-2c44-4748-8452-74255aa1b2c8"},"vehicle_type_id":"4","last_reported":1744150187,"current_range_meters":13600,"station_id":"ce4bho92rcd13ifvqh3g","pricing_plan_id":"cebpf4jnsgd1na2vs0mg"},{"bike_id":"6af5c8a6-6e6f-47d5-8681-346a73801d42","system_id":"levelo_inurba_marseille","lat":43.30811,"lon":5.38131,"is_reserved":false,"is_disabled":false,"rental_uris":{"android":"levelo://app?vid=6af5c8a6-6e6f-47d5-8681-346a73801d42","ios":"levelo://app?vid=6af5c8a6-6e6f-47d5-8681-346a73801d42"},"vehicle_type_id":"4","last_reported":1744150187,"current_range_meters":14000,"station_id":"ce4bgt12rcd13ifvqce0","pricing_plan_id":"cebpf4jnsgd1na2vs0mg"},{"bike_id":"166174fe-f290-444e-8e9e-8a45afafe642","system_id":"levelo_inurba_marseille","lat":43.30805,"lon":5.38171,"is_reserved":false,"is_disabled":false,"rental_uris":{"android":"levelo://app?vid=166174fe-f290-444e-8e9e-8a45afafe642","ios":"levelo://app?vid=166174fe-f290-444e-8e9e-8a45afafe642"},"vehicle_type_id":"4","last_reported":1744150187,"current_range_meters":14000,"station_id":"ce4bgt12rcd13ifvqce0","pricing_plan_id":"cebpf4jnsgd1na2vs0mg"},{"bike_id":"77bf1b8c-314e-4df8-8865-c0b5cdb8fbee","system_id":"levelo_inurba_marseille","lat":43.25082,"lon":5.39512,"is_reserved":false,"is_disabled":false,"rental_uris":{"android":"levelo://app?vid=77bf1b8c-314e-4df8-8865-c0b5cdb8fbee","ios":"levelo://app?vid=77bf1b8c-314e-4df8-8865-c0b5cdb8fbee"},"vehicle_type_id":"4","last_reported":1744150187,"current_range_meters":14000,"station_id":"ce4bhm12rcd13ifvqgkg","pricing_plan_id":"cebpf4jnsgd1na2vs0mg"},{"bike_id":"dd81063c-2d90-4b78-8e3c-126f0d42b175","system_id":"levelo_inurba_marseille","lat":43.28614,"lon":5.35103,"is_reserved":false,"is_disabled":false,"rental_uris":{"android":"levelo://app?vid=dd81063c-2d90-4b78-8e3c-126f0d42b175","ios":"levelo://app?vid=dd81063c-2d90-4b78-8e3c-126f0d42b175"},"vehicle_type_id":"4","last_reported":1744150187,"current_range_meters":14000,"station_id":"ce4bhch2rcd13ifvqeug","pricing_plan_id":"cebpf4jnsgd1na2vs0mg"},{"bike_id":"6a5da187-85f0-4625-ad2b-d61f45a7f391","system_id":"levelo_inurba_marseille","lat":43.30784,"lon":5.37655,"is_reserved":false,"is_disabled":false,"rental_uris":{"android":"levelo://app?vid=6a5da187-85f0-4625-ad2b-d61f45a7f391","ios":"levelo://app?vid=6a5da187-85f0-4625-ad2b-d61f45a7f391"},"vehicle_type_id":"4","last_reported":1744150187,"current_range_meters":14400,"station_id":"ce4bgv92rcd13ifvqcq0","pricing_plan_id":"cebpf4jnsgd1na2vs0mg"},{"bike_id":"7a6c07ab-bbf0-4615-ac96-016f3662591e","system_id":"levelo_inurba_marseille","lat":43.30778,"lon":5.37653,"is_reserved":false,"is_disabled":false,"rental_uris":{"android":"levelo://app?vid=7a6c07ab-bbf0-4615-ac96-016f3662591e","ios":"levelo://app?vid=7a6c07ab-bbf0-4615-ac96-016f3662591e"},"vehicle_type_id":"4","last_reported":1744150187,"current_range_meters":14800,"station_id":"ce4bgv92rcd13ifvqcq0","pricing_plan_id":"cebpf4jnsgd1na2vs0mg"},{"bike_id":"18b15fa9-67be-42a6-a2b6-94a0793b9604","system_id":"levelo_inurba_marseille","lat":43.311755,"lon":5.38719,"is_reserved":false,"is_disabled":false,"rental_uris":{"android":"levelo://app?vid=18b15fa9-67be-42a6-a2b6-94a0793b9604","ios":"levelo://app?vid=18b15fa9-67be-42a6-a2b6-94a0793b9604"},"vehicle_type_id":"4","last_reported":1744150187,"current_range_meters":14800,"station_id":"ce4bgv12rcd13ifvqcp0","pricing_plan_id":"cebpf4jnsgd1na2vs0mg"},{"bike_id":"5e84043f-8df0-4b6b-a0d7-581555c0b430","system_id":"levelo_inurba_marseille","lat":43.31325,"lon":5.39708,"is_reserved":false,"is_disabled":false,"rental_uris":{"android":"levelo://app?vid=5e84043f-8df0-4b6b-a0d7-581555c0b430","ios":"levelo://app?vid=5e84043f-8df0-4b6b-a0d7-581555c0b430"},"vehicle_type_id":"4","last_reported":1744150187,"current_range_meters":14800,"station_id":"ce4bgvp2rcd13ifvqcu0","pricing_plan_id":"cebpf4jnsgd1na2vs0mg"},{"bike_id":"e82d3cbf-6990-4eca-9743-6a7db542c284","system_id":"levelo_inurba_marseille","lat":43.32348,"lon":5.40619,"is_reserved":false,"is_disabled":false,"rental_uris":{"android":"levelo://app?vid=e82d3cbf-6990-4eca-9743-6a7db542c284","ios":"levelo://app?vid=e82d3cbf-6990-4eca-9743-6a7db542c284"},"vehicle_type_id":"4","last_reported":1744150187,"current_range_meters":15200,"station_id":"ce4bhq92rcd13ifvqhjg","pricing_plan_id":"cebpf4jnsgd1na2vs0mg"},{"bike_id":"b2ab7a9b-ab6f-40c3-9641-ca257733fa28","system_id":"levelo_inurba_marseille","lat":43.30791,"lon":5.38186,"is_reserved":false,"is_disabled":false,"rental_uris":{"android":"levelo://app?vid=b2ab7a9b-ab6f-40c3-9641-ca257733fa28","ios":"levelo://app?vid=b2ab7a9b-ab6f-40c3-9641-ca257733fa28"},"vehicle_type_id":"4","last_reported":1744150187,"current_range_meters":15200,"station_id":"ce4bgt12rcd13ifvqce0","pricing_plan_id":"cebpf4jnsgd1na2vs0mg"},{"bike_id":"9d8e814f-79ba-4435-be8b-d6a9383f523e","system_id":"levelo_inurba_marseille","lat":43.31884,"lon":5.40726,"is_reserved":false,"is_disabled":false,"rental_uris":{"android":"levelo://app?vid=9d8e814f-79ba-4435-be8b-d6a9383f523e","ios":"levelo://app?vid=9d8e814f-79ba-4435-be8b-d6a9383f523e"},"vehicle_type_id":"4","last_reported":1744150187,"current_range_meters":15200,"station_id":"ce4bhq12rcd13ifvqhig","pricing_plan_id":"cebpf4jnsgd1na2vs0mg"},{"bike_id":"489d5027-266f-4f78-a468-8cd5294f935a","system_id":"levelo_inurba_marseille","lat":43.24544,"lon":5.39526,"is_reserved":false,"is_disabled":false,"rental_uris":{"android":"levelo://app?vid=489d5027-266f-4f78-a468-8cd5294f935a","ios":"levelo://app?vid=489d5027-266f-4f78-a468-8cd5294f935a"},"vehicle_type_id":"4","last_reported":1744150187,"current_range_meters":16000,"station_id":"ce4bhlp2rcd13ifvqgjg","pricing_plan_id":"cebpf4jnsgd1na2vs0mg"},{"bike_id":"1e099cf5-9456-4ac3-8d36-9153ce8a87f2","system_id":"levelo_inurba_marseille","lat":43.295786,"lon":5.399671,"is_reserved":false,"is_disabled":true,"rental_uris":{"android":"levelo://app?vid=1e099cf5-9456-4ac3-8d36-9153ce8a87f2","ios":"levelo://app?vid=1e099cf5-9456-4ac3-8d36-9153ce8a87f2"},"vehicle_type_id":"4","last_reported":1744150187,"current_range_meters":16000,"station_id":"ce4bh312rcd13ifvqdj0","pricing_plan_id":"cebpf4jnsgd1na2vs0mg"},{"bike_id":"0852d6f8-6117-4ad8-bc82-bc245ca89f3e","system_id":"levelo_inurba_marseille","lat":43.25113,"lon":5.4032,"is_reserved":false,"is_disabled":false,"rental_uris":{"android":"levelo://app?vid=0852d6f8-6117-4ad8-bc82-bc245ca89f3e","ios":"levelo://app?vid=0852d6f8-6117-4ad8-bc82-bc245ca89f3e"},"vehicle_type_id":"4","last_reported":1744150187,"current_range_meters":16000,"station_id":"ce4bhlh2rcd13ifvqgig","pricing_plan_id":"cebpf4jnsgd1na2vs0mg"},{"bike_id":"8608fed8-5511-445a-b382-7039018c22a6","system_id":"levelo_inurba_marseille","lat":43.2707,"lon":5.42287,"is_reserved":false,"is_disabled":false,"rental_uris":{"android":"levelo://app?vid=8608fed8-5511-445a-b382-7039018c22a6","ios":"levelo://app?vid=8608fed8-5511-445a-b382-7039018c22a6"},"vehicle_type_id":"4","last_reported":1744150187,"current_range_meters":16000,"station_id":"ce4bhk92rcd13ifvqgb0","pricing_plan_id":"cebpf4jnsgd1na2vs0mg"},{"bike_id":"7d704dfc-1eb6-49d7-a9df-919a3b5b6c0a","system_id":"levelo_inurba_marseille","lat":43.27827,"lon":5.39212,"is_reserved":false,"is_disabled":false,"rental_uris":{"android":"levelo://app?vid=7d704dfc-1eb6-49d7-a9df-919a3b5b6c0a","ios":"levelo://app?vid=7d704dfc-1eb6-49d7-a9df-919a3b5b6c0a"},"vehicle_type_id":"4","last_reported":1744150187,"current_range_meters":16000,"station_id":"ce4bhjp2rcd13ifvqga0","pricing_plan_id":"cebpf4jnsgd1na2vs0mg"},{"bike_id":"29f00885-458c-420d-a1a8-c636e96dba60","system_id":"levelo_inurba_marseille","lat":43.30782,"lon":5.37647,"is_reserved":false,"is_disabled":false,"rental_uris":{"android":"levelo://app?vid=29f00885-458c-420d-a1a8-c636e96dba60","ios":"levelo://app?vid=29f00885-458c-420d-a1a8-c636e96dba60"},"vehicle_type_id":"4","last_reported":1744150187,"current_range_meters":16000,"station_id":"ce4bgv92rcd13ifvqcq0","pricing_plan_id":"cebpf4jnsgd1na2vs0mg"},{"bike_id":"7e488337-315e-40a4-a3f1-0d4cba19e8a8","system_id":"levelo_inurba_marseille","lat":43.24662,"lon":5.38153,"is_reserved":false,"is_disabled":false,"rental_uris":{"android":"levelo://app?vid=7e488337-315e-40a4-a3f1-0d4cba19e8a8","ios":"levelo://app?vid=7e488337-315e-40a4-a3f1-0d4cba19e8a8"},"vehicle_type_id":"4","last_reported":1744150187,"current_range_meters":16400,"station_id":"ce4bhih2rcd13ifvqfr0","pricing_plan_id":"cebpf4jnsgd1na2vs0mg"},{"bike_id":"4934f893-0caa-47bb-a816-75edde22b784","system_id":"levelo_inurba_marseille","lat":43.31163,"lon":5.38714,"is_reserved":false,"is_disabled":false,"rental_uris":{"android":"levelo://app?vid=4934f893-0caa-47bb-a816-75edde22b784","ios":"levelo://app?vid=4934f893-0caa-47bb-a816-75edde22b784"},"vehicle_type_id":"4","last_reported":1744150187,"current_range_meters":16000,"station_id":"ce4bgv12rcd13ifvqcp0","pricing_plan_id":"cebpf4jnsgd1na2vs0mg"},{"bike_id":"5273534c-3473-4abd-9c4b-e677a5c1499a","system_id":"levelo_inurba_marseille","lat":43.29036,"lon":5.36961,"is_reserved":false,"is_disabled":false,"rental_uris":{"android":"levelo://app?vid=5273534c-3473-4abd-9c4b-e677a5c1499a","ios":"levelo://app?vid=5273534c-3473-4abd-9c4b-e677a5c1499a"},"vehicle_type_id":"4","last_reported":1744150187,"current_range_meters":16000,"station_id":"","pricing_plan_id":"cebpf4jnsgd1na2vs0mg"},{"bike_id":"6530ca4f-a646-4648-8000-b12c2c22a131","system_id":"levelo_inurba_marseille","lat":43.248095,"lon":5.374565,"is_reserved":false,"is_disabled":true,"rental_uris":{"android":"levelo://app?vid=6530ca4f-a646-4648-8000-b12c2c22a131","ios":"levelo://app?vid=6530ca4f-a646-4648-8000-b12c2c22a131"},"vehicle_type_id":"4","last_reported":1744150187,"current_range_meters":16400,"station_id":"ce4bhgh2rcd13ifvqfb0","pricing_plan_id":"cebpf4jnsgd1na2vs0mg"},{"bike_id":"f8fd05f6-b019-4162-a9df-dc82b614e530","system_id":"levelo_inurba_marseille","lat":43.28465,"lon":5.39199,"is_reserved":false,"is_disabled":false,"rental_uris":{"android":"levelo://app?vid=f8fd05f6-b019-4162-a9df-dc82b614e530","ios":"levelo://app?vid=f8fd05f6-b019-4162-a9df-dc82b614e530"},"vehicle_type_id":"4","last_reported":1744150187,"current_range_meters":16400,"station_id":"ce4bhoh2rcd13ifvqh5g","pricing_plan_id":"cebpf4jnsgd1na2vs0mg"},{"bike_id":"87070a76-8d9a-4bee-8346-3ec803fc4d2d","system_id":"levelo_inurba_marseille","lat":43.31487,"lon":5.37306,"is_reserved":false,"is_disabled":false,"rental_uris":{"android":"levelo://app?vid=87070a76-8d9a-4bee-8346-3ec803fc4d2d","ios":"levelo://app?vid=87070a76-8d9a-4bee-8346-3ec803fc4d2d"},"vehicle_type_id":"4","last_reported":1744150187,"current_range_meters":16400,"station_id":"ce4bgt12rcd13ifvqcd0","pricing_plan_id":"cebpf4jnsgd1na2vs0mg"},{"bike_id":"11300ddc-1a84-4f09-8dd3-92ddec87333b","system_id":"levelo_inurba_marseille","lat":43.299316,"lon":5.365587,"is_reserved":false,"is_disabled":false,"rental_uris":{"android":"levelo://app?vid=11300ddc-1a84-4f09-8dd3-92ddec87333b","ios":"levelo://app?vid=11300ddc-1a84-4f09-8dd3-92ddec87333b"},"vehicle_type_id":"4","last_reported":1744150187,"current_range_meters":16400,"station_id":"ce4bgm92rcd13ifvqbr0","pricing_plan_id":"cebpf4jnsgd1na2vs0mg"},{"bike_id":"c75d140a-e17c-4b84-9e69-a98bb193d68b","system_id":"levelo_inurba_marseille","lat":43.33607,"lon":5.41011,"is_reserved":false,"is_disabled":false,"rental_uris":{"android":"levelo://app?vid=c75d140a-e17c-4b84-9e69-a98bb193d68b","ios":"levelo://app?vid=c75d140a-e17c-4b84-9e69-a98bb193d68b"},"vehicle_type_id":"4","last_reported":1744150187,"current_range_meters":16400,"station_id":"ce4bhqh2rcd13ifvqhmg","pricing_plan_id":"cebpf4jnsgd1na2vs0mg"},{"bike_id":"78f62f4d-2fec-4fe3-a0a7-d9b616cf4c7b","system_id":"levelo_inurba_marseille","lat":43.2998,"lon":5.38483,"is_reserved":false,"is_disabled":false,"rental_uris":{"android":"levelo://app?vid=78f62f4d-2fec-4fe3-a0a7-d9b616cf4c7b","ios":"levelo://app?vid=78f62f4d-2fec-4fe3-a0a7-d9b616cf4c7b"},"vehicle_type_id":"4","last_reported":1744150187,"current_range_meters":16400,"station_id":"ce4bgj92rcd13ifvqbd0","pricing_plan_id":"cebpf4jnsgd1na2vs0mg"},{"bike_id":"8eccc3d9-19cb-4c1d-b27f-e3b5feee92ea","system_id":"levelo_inurba_marseille","lat":43.22927,"lon":5.35377,"is_reserved":false,"is_disabled":false,"rental_uris":{"android":"levelo://app?vid=8eccc3d9-19cb-4c1d-b27f-e3b5feee92ea","ios":"levelo://app?vid=8eccc3d9-19cb-4c1d-b27f-e3b5feee92ea"},"vehicle_type_id":"4","last_reported":1744150187,"current_range_meters":16400,"station_id":"cpo3532slgdg3j2ikp40","pricing_plan_id":"cebpf4jnsgd1na2vs0mg"},{"bike_id":"81b593d6-ee15-4f80-80d0-437e82e4e51c","system_id":"levelo_inurba_marseille","lat":43.2718,"lon":5.40986,"is_reserved":false,"is_disabled":false,"rental_uris":{"android":"levelo://app?vid=81b593d6-ee15-4f80-80d0-437e82e4e51c","ios":"levelo://app?vid=81b593d6-ee15-4f80-80d0-437e82e4e51c"},"vehicle_type_id":"4","last_reported":1744150187,"current_range_meters":16400,"station_id":"ce4bhl12rcd13ifvqgf0","pricing_plan_id":"cebpf4jnsgd1na2vs0mg"},{"bike_id":"cfa10923-000d-4d6c-a18c-69dd84627bc9","system_id":"levelo_inurba_marseille","lat":43.302035,"lon":5.38803,"is_reserved":false,"is_disabled":false,"rental_uris":{"android":"levelo://app?vid=cfa10923-000d-4d6c-a18c-69dd84627bc9","ios":"levelo://app?vid=cfa10923-000d-4d6c-a18c-69dd84627bc9"},"vehicle_type_id":"4","last_reported":1744150187,"current_range_meters":16400,"station_id":"ce4bgv92rcd13ifvqcr0","pricing_plan_id":"cebpf4jnsgd1na2vs0mg"},{"bike_id":"f59c962d-e3aa-411f-b6eb-24802869fd2c","system_id":"levelo_inurba_marseille","lat":43.21748,"lon":5.34597,"is_reserved":false,"is_disabled":false,"rental_uris":{"android":"levelo://app?vid=f59c962d-e3aa-411f-b6eb-24802869fd2c","ios":"levelo://app?vid=f59c962d-e3aa-411f-b6eb-24802869fd2c"},"vehicle_type_id":"4","last_reported":1744150187,"current_range_meters":16400,"station_id":"st_cvj6r9ubvosntc0bgbag","pricing_plan_id":"cebpf4jnsgd1na2vs0mg"},{"bike_id":"4ee3f9f5-f76c-43c4-824c-4fe8bb3e3745","system_id":"levelo_inurba_marseille","lat":43.30467,"lon":5.37907,"is_reserved":false,"is_disabled":false,"rental_uris":{"android":"levelo://app?vid=4ee3f9f5-f76c-43c4-824c-4fe8bb3e3745","ios":"levelo://app?vid=4ee3f9f5-f76c-43c4-824c-4fe8bb3e3745"},"vehicle_type_id":"4","last_reported":1744150187,"current_range_meters":16400,"station_id":"ce4bgup2rcd13ifvqcn0","pricing_plan_id":"cebpf4jnsgd1na2vs0mg"},{"bike_id":"edf92683-0c32-4b77-9509-d6f3456c71e1","system_id":"levelo_inurba_marseille","lat":43.30611,"lon":5.39359,"is_reserved":false,"is_disabled":true,"rental_uris":{"android":"levelo://app?vid=edf92683-0c32-4b77-9509-d6f3456c71e1","ios":"levelo://app?vid=edf92683-0c32-4b77-9509-d6f3456c71e1"},"vehicle_type_id":"4","last_reported":1744150187,"current_range_meters":16800,"station_id":"ce4bh0p2rcd13ifvqd80","pricing_plan_id":"cebpf4jnsgd1na2vs0mg"},{"bike_id":"abe869f6-b9c1-4c77-a06e-893567811d7a","system_id":"levelo_inurba_marseille","lat":43.287,"lon":5.39958,"is_reserved":false,"is_disabled":false,"rental_uris":{"android":"levelo://app?vid=abe869f6-b9c1-4c77-a06e-893567811d7a","ios":"levelo://app?vid=abe869f6-b9c1-4c77-a06e-893567811d7a"},"vehicle_type_id":"4","last_reported":1744150187,"current_range_meters":16800,"station_id":"ce4bho92rcd13ifvqh3g","pricing_plan_id":"cebpf4jnsgd1na2vs0mg"},{"bike_id":"52dfef30-eef0-4dd6-a138-a48c8dcc2c3a","system_id":"levelo_inurba_marseille","lat":43.30392,"lon":5.4276,"is_reserved":false,"is_disabled":true,"rental_uris":{"android":"levelo://app?vid=52dfef30-eef0-4dd6-a138-a48c8dcc2c3a","ios":"levelo://app?vid=52dfef30-eef0-4dd6-a138-a48c8dcc2c3a"},"vehicle_type_id":"4","last_reported":1744150187,"current_range_meters":16800,"station_id":"","pricing_plan_id":"cebpf4jnsgd1na2vs0mg"},{"bike_id":"b37944fb-f9c1-4c8e-ac3a-9da227afb433","system_id":"levelo_inurba_marseille","lat":43.308027,"lon":5.381515,"is_reserved":false,"is_disabled":true,"rental_uris":{"android":"levelo://app?vid=b37944fb-f9c1-4c8e-ac3a-9da227afb433","ios":"levelo://app?vid=b37944fb-f9c1-4c8e-ac3a-9da227afb433"},"vehicle_type_id":"4","last_reported":1744150187,"current_range_meters":16800,"station_id":"ce4bgt12rcd13ifvqce0","pricing_plan_id":"cebpf4jnsgd1na2vs0mg"},{"bike_id":"b3014d67-1beb-4a0f-a0f5-829e0d2a4492","system_id":"levelo_inurba_marseille","lat":43.21745,"lon":5.34605,"is_reserved":false,"is_disabled":false,"rental_uris":{"android":"levelo://app?vid=b3014d67-1beb-4a0f-a0f5-829e0d2a4492","ios":"levelo://app?vid=b3014d67-1beb-4a0f-a0f5-829e0d2a4492"},"vehicle_type_id":"4","last_reported":1744150187,"current_range_meters":16800,"station_id":"ce4bhu92rcd13ifvqi70","pricing_plan_id":"cebpf4jnsgd1na2vs0mg"},{"bike_id":"53fb0077-3a65-43ca-a501-d7c36dc0627d","system_id":"levelo_inurba_marseille","lat":43.30448,"lon":5.3786,"is_reserved":false,"is_disabled":false,"rental_uris":{"android":"levelo://app?vid=53fb0077-3a65-43ca-a501-d7c36dc0627d","ios":"levelo://app?vid=53fb0077-3a65-43ca-a501-d7c36dc0627d"},"vehicle_type_id":"4","last_reported":1744150187,"current_range_meters":17200,"station_id":"","pricing_plan_id":"cebpf4jnsgd1na2vs0mg"},{"bike_id":"976cec5e-1d70-490b-bdf7-6c40c593f342","system_id":"levelo_inurba_marseille","lat":43.2919,"lon":5.39329,"is_reserved":false,"is_disabled":false,"rental_uris":{"android":"levelo://app?vid=976cec5e-1d70-490b-bdf7-6c40c593f342","ios":"levelo://app?vid=976cec5e-1d70-490b-bdf7-6c40c593f342"},"vehicle_type_id":"4","last_reported":1744150187,"current_range_meters":17200,"station_id":"ce4bh192rcd13ifvqdd0","pricing_plan_id":"cebpf4jnsgd1na2vs0mg"},{"bike_id":"677bb2e4-e0e9-4384-b985-1575591f715d","system_id":"levelo_inurba_marseille","lat":43.28711,"lon":5.39983,"is_reserved":false,"is_disabled":false,"rental_uris":{"android":"levelo://app?vid=677bb2e4-e0e9-4384-b985-1575591f715d","ios":"levelo://app?vid=677bb2e4-e0e9-4384-b985-1575591f715d"},"vehicle_type_id":"4","last_reported":1744150187,"current_range_meters":17200,"station_id":"ce4bho92rcd13ifvqh3g","pricing_plan_id":"cebpf4jnsgd1na2vs0mg"},{"bike_id":"54525f9c-6729-406c-8f5a-fce95e931823","system_id":"levelo_inurba_marseille","lat":43.30447,"lon":5.37838,"is_reserved":false,"is_disabled":false,"rental_uris":{"android":"levelo://app?vid=54525f9c-6729-406c-8f5a-fce95e931823","ios":"levelo://app?vid=54525f9c-6729-406c-8f5a-fce95e931823"},"vehicle_type_id":"4","last_reported":1744150187,"current_range_meters":16800,"station_id":"","pricing_plan_id":"cebpf4jnsgd1na2vs0mg"},{"bike_id":"c59296e9-f840-4b2b-a1fd-1bd6c3ae233c","system_id":"levelo_inurba_marseille","lat":43.23962,"lon":5.36628,"is_reserved":false,"is_disabled":false,"rental_uris":{"android":"levelo://app?vid=c59296e9-f840-4b2b-a1fd-1bd6c3ae233c","ios":"levelo://app?vid=c59296e9-f840-4b2b-a1fd-1bd6c3ae233c"},"vehicle_type_id":"4","last_reported":1744150187,"current_range_meters":17200,"station_id":"ce4bhi12rcd13ifvqfp0","pricing_plan_id":"cebpf4jnsgd1na2vs0mg"},{"bike_id":"d7b2134e-575c-40f1-9b3b-0ad40ab4b220","system_id":"levelo_inurba_marseille","lat":43.29837,"lon":5.43658,"is_reserved":false,"is_disabled":false,"rental_uris":{"android":"levelo://app?vid=d7b2134e-575c-40f1-9b3b-0ad40ab4b220","ios":"levelo://app?vid=d7b2134e-575c-40f1-9b3b-0ad40ab4b220"},"vehicle_type_id":"4","last_reported":1744150187,"current_range_meters":17200,"station_id":"ce4bhpp2rcd13ifvqhfg","pricing_plan_id":"cebpf4jnsgd1na2vs0mg"},{"bike_id":"d803fa79-8ee9-4084-b199-d3e0b14c5169","system_id":"levelo_inurba_marseille","lat":43.292,"lon":5.39332,"is_reserved":false,"is_disabled":false,"rental_uris":{"android":"levelo://app?vid=d803fa79-8ee9-4084-b199-d3e0b14c5169","ios":"levelo://app?vid=d803fa79-8ee9-4084-b199-d3e0b14c5169"},"vehicle_type_id":"4","last_reported":1744150187,"current_range_meters":17200,"station_id":"ce4bh192rcd13ifvqdd0","pricing_plan_id":"cebpf4jnsgd1na2vs0mg"},{"bike_id":"3a9977f3-3b36-469b-8d49-77830ebfc10f","system_id":"levelo_inurba_marseille","lat":43.26058,"lon":5.39401,"is_reserved":false,"is_disabled":false,"rental_uris":{"android":"levelo://app?vid=3a9977f3-3b36-469b-8d49-77830ebfc10f","ios":"levelo://app?vid=3a9977f3-3b36-469b-8d49-77830ebfc10f"},"vehicle_type_id":"4","last_reported":1744150187,"current_range_meters":17600,"station_id":"ce4bhh92rcd13ifvqfj0","pricing_plan_id":"cebpf4jnsgd1na2vs0mg"},{"bike_id":"524ce5e2-40a1-4d2d-a58b-970b021b8e15","system_id":"levelo_inurba_marseille","lat":43.31271,"lon":5.40158,"is_reserved":false,"is_disabled":false,"rental_uris":{"android":"levelo://app?vid=524ce5e2-40a1-4d2d-a58b-970b021b8e15","ios":"levelo://app?vid=524ce5e2-40a1-4d2d-a58b-970b021b8e15"},"vehicle_type_id":"4","last_reported":1744150187,"current_range_meters":17600,"station_id":"ce4bh092rcd13ifvqd30","pricing_plan_id":"cebpf4jnsgd1na2vs0mg"},{"bike_id":"b4b93a64-d083-4ab2-bbd0-53609c602fb5","system_id":"levelo_inurba_marseille","lat":43.30927,"lon":5.40146,"is_reserved":false,"is_disabled":true,"rental_uris":{"android":"levelo://app?vid=b4b93a64-d083-4ab2-bbd0-53609c602fb5","ios":"levelo://app?vid=b4b93a64-d083-4ab2-bbd0-53609c602fb5"},"vehicle_type_id":"4","last_reported":1744150187,"current_range_meters":17600,"station_id":"ce4bgvp2rcd13ifvqct0","pricing_plan_id":"cebpf4jnsgd1na2vs0mg"},{"bike_id":"8d29c6f3-97bf-4577-8844-066d6065b7aa","system_id":"levelo_inurba_marseille","lat":43.30372,"lon":5.4249,"is_reserved":false,"is_disabled":false,"rental_uris":{"android":"levelo://app?vid=8d29c6f3-97bf-4577-8844-066d6065b7aa","ios":"levelo://app?vid=8d29c6f3-97bf-4577-8844-066d6065b7aa"},"vehicle_type_id":"4","last_reported":1744150187,"current_range_meters":17600,"station_id":"ce4bhoh2rcd13ifvqh6g","pricing_plan_id":"cebpf4jnsgd1na2vs0mg"},{"bike_id":"7bd3f7de-3a74-4fff-b4c6-181d8b119e52","system_id":"levelo_inurba_marseille","lat":43.29802,"lon":5.40419,"is_reserved":false,"is_disabled":true,"rental_uris":{"android":"levelo://app?vid=7bd3f7de-3a74-4fff-b4c6-181d8b119e52","ios":"levelo://app?vid=7bd3f7de-3a74-4fff-b4c6-181d8b119e52"},"vehicle_type_id":"4","last_reported":1744150187,"current_range_meters":17600,"station_id":"ce4bh112rcd13ifvqd90","pricing_plan_id":"cebpf4jnsgd1na2vs0mg"},{"bike_id":"805f64ff-45b0-4422-bda5-8499fd7f4d53","system_id":"levelo_inurba_marseille","lat":43.28715,"lon":5.3609,"is_reserved":false,"is_disabled":false,"rental_uris":{"android":"levelo://app?vid=805f64ff-45b0-4422-bda5-8499fd7f4d53","ios":"levelo://app?vid=805f64ff-45b0-4422-bda5-8499fd7f4d53"},"vehicle_type_id":"4","last_reported":1744150187,"current_range_meters":17600,"station_id":"cki0cbj6b192h4jlfktg","pricing_plan_id":"cebpf4jnsgd1na2vs0mg"},{"bike_id":"297e56fc-7ca2-4eaa-88af-2f8bb3eb7566","system_id":"levelo_inurba_marseille","lat":43.30822,"lon":5.3814,"is_reserved":false,"is_disabled":false,"rental_uris":{"android":"levelo://app?vid=297e56fc-7ca2-4eaa-88af-2f8bb3eb7566","ios":"levelo://app?vid=297e56fc-7ca2-4eaa-88af-2f8bb3eb7566"},"vehicle_type_id":"4","last_reported":1744150187,"current_range_meters":17600,"station_id":"ce4bgt12rcd13ifvqce0","pricing_plan_id":"cebpf4jnsgd1na2vs0mg"},{"bike_id":"c1c63035-c83b-4419-8cbf-133778d95125","system_id":"levelo_inurba_marseille","lat":43.29771,"lon":5.39388,"is_reserved":false,"is_disabled":true,"rental_uris":{"android":"levelo://app?vid=c1c63035-c83b-4419-8cbf-133778d95125","ios":"levelo://app?vid=c1c63035-c83b-4419-8cbf-133778d95125"},"vehicle_type_id":"4","last_reported":1744150187,"current_range_meters":17600,"station_id":"chh1huq6cuj3fo74tm60","pricing_plan_id":"cebpf4jnsgd1na2vs0mg"},{"bike_id":"6278194a-3064-41bd-8565-b8ff44b1552d","system_id":"levelo_inurba_marseille","lat":43.295273,"lon":5.385488,"is_reserved":false,"is_disabled":true,"rental_uris":{"android":"levelo://app?vid=6278194a-3064-41bd-8565-b8ff44b1552d","ios":"levelo://app?vid=6278194a-3064-41bd-8565-b8ff44b1552d"},"vehicle_type_id":"4","last_reported":1744150187,"current_range_meters":17600,"station_id":"ce4bgih2rcd13ifvqba0","pricing_plan_id":"cebpf4jnsgd1na2vs0mg"},{"bike_id":"03463ad5-a25d-43f4-b789-bb8878e17078","system_id":"levelo_inurba_marseille","lat":43.2783,"lon":5.392,"is_reserved":false,"is_disabled":false,"rental_uris":{"android":"levelo://app?vid=03463ad5-a25d-43f4-b789-bb8878e17078","ios":"levelo://app?vid=03463ad5-a25d-43f4-b789-bb8878e17078"},"vehicle_type_id":"4","last_reported":1744150187,"current_range_meters":17200,"station_id":"ce4bhjp2rcd13ifvqga0","pricing_plan_id":"cebpf4jnsgd1na2vs0mg"},{"bike_id":"f01e9d5e-0034-406b-8721-e78591b872b0","system_id":"levelo_inurba_marseille","lat":43.30418,"lon":5.39745,"is_reserved":false,"is_disabled":false,"rental_uris":{"android":"levelo://app?vid=f01e9d5e-0034-406b-8721-e78591b872b0","ios":"levelo://app?vid=f01e9d5e-0034-406b-8721-e78591b872b0"},"vehicle_type_id":"4","last_reported":1744150187,"current_range_meters":17200,"station_id":"ce4bh092rcd13ifvqd20","pricing_plan_id":"cebpf4jnsgd1na2vs0mg"},{"bike_id":"fbcf82be-1619-42ee-9ce5-8f154d8c25d9","system_id":"levelo_inurba_marseille","lat":43.29046,"lon":5.3867,"is_reserved":false,"is_disabled":false,"rental_uris":{"android":"levelo://app?vid=fbcf82be-1619-42ee-9ce5-8f154d8c25d9","ios":"levelo://app?vid=fbcf82be-1619-42ee-9ce5-8f154d8c25d9"},"vehicle_type_id":"4","last_reported":1744150187,"current_range_meters":17600,"station_id":"ce4bh4p2rcd13ifvqe0g","pricing_plan_id":"cebpf4jnsgd1na2vs0mg"},{"bike_id":"800e3e3c-6ab6-48d8-8a69-3938eb1aed86","system_id":"levelo_inurba_marseille","lat":43.31283,"lon":5.37406,"is_reserved":false,"is_disabled":false,"rental_uris":{"android":"levelo://app?vid=800e3e3c-6ab6-48d8-8a69-3938eb1aed86","ios":"levelo://app?vid=800e3e3c-6ab6-48d8-8a69-3938eb1aed86"},"vehicle_type_id":"4","last_reported":1744150187,"current_range_meters":17600,"station_id":"","pricing_plan_id":"cebpf4jnsgd1na2vs0mg"},{"bike_id":"68b2b97c-dfa2-455e-98c0-2b19e9ad3657","system_id":"levelo_inurba_marseille","lat":43.29254,"lon":5.40906,"is_reserved":false,"is_disabled":false,"rental_uris":{"android":"levelo://app?vid=68b2b97c-dfa2-455e-98c0-2b19e9ad3657","ios":"levelo://app?vid=68b2b97c-dfa2-455e-98c0-2b19e9ad3657"},"vehicle_type_id":"4","last_reported":1744150187,"current_range_meters":17600,"station_id":"ce4bh192rcd13ifvqdc0","pricing_plan_id":"cebpf4jnsgd1na2vs0mg"},{"bike_id":"0ad9ee3e-0832-46df-b474-10ed8a5a0c97","system_id":"levelo_inurba_marseille","lat":43.21196,"lon":5.3508,"is_reserved":false,"is_disabled":false,"rental_uris":{"android":"levelo://app?vid=0ad9ee3e-0832-46df-b474-10ed8a5a0c97","ios":"levelo://app?vid=0ad9ee3e-0832-46df-b474-10ed8a5a0c97"},"vehicle_type_id":"4","last_reported":1744150187,"current_range_meters":18000,"station_id":"st_cvj6sg6p6f1abm77japg","pricing_plan_id":"cebpf4jnsgd1na2vs0mg"},{"bike_id":"e50f3dc9-8c8f-43c1-9141-0ee8d31a7229","system_id":"levelo_inurba_marseille","lat":43.28025,"lon":5.36953,"is_reserved":false,"is_disabled":false,"rental_uris":{"android":"levelo://app?vid=e50f3dc9-8c8f-43c1-9141-0ee8d31a7229","ios":"levelo://app?vid=e50f3dc9-8c8f-43c1-9141-0ee8d31a7229"},"vehicle_type_id":"4","last_reported":1744150187,"current_range_meters":17600,"station_id":"ce4bha12rcd13ifvqef0","pricing_plan_id":"cebpf4jnsgd1na2vs0mg"},{"bike_id":"156c0a40-ea07-4d21-a353-8611d33e7c8c","system_id":"levelo_inurba_marseille","lat":43.28933,"lon":5.38397,"is_reserved":false,"is_disabled":false,"rental_uris":{"android":"levelo://app?vid=156c0a40-ea07-4d21-a353-8611d33e7c8c","ios":"levelo://app?vid=156c0a40-ea07-4d21-a353-8611d33e7c8c"},"vehicle_type_id":"4","last_reported":1744150187,"current_range_meters":18000,"station_id":"ce4bh612rcd13ifvqe6g","pricing_plan_id":"cebpf4jnsgd1na2vs0mg"},{"bike_id":"da6b4c20-6800-4147-a280-7d7b779d7771","system_id":"levelo_inurba_marseille","lat":43.30279,"lon":5.40055,"is_reserved":false,"is_disabled":false,"rental_uris":{"android":"levelo://app?vid=da6b4c20-6800-4147-a280-7d7b779d7771","ios":"levelo://app?vid=da6b4c20-6800-4147-a280-7d7b779d7771"},"vehicle_type_id":"4","last_reported":1744150187,"current_range_meters":18800,"station_id":"ce4bgvh2rcd13ifvqcs0","pricing_plan_id":"cebpf4jnsgd1na2vs0mg"},{"bike_id":"681e77fc-97f8-4ff5-b5c4-bb75b5f61b60","system_id":"levelo_inurba_marseille","lat":43.30208,"lon":5.39472,"is_reserved":false,"is_disabled":false,"rental_uris":{"android":"levelo://app?vid=681e77fc-97f8-4ff5-b5c4-bb75b5f61b60","ios":"levelo://app?vid=681e77fc-97f8-4ff5-b5c4-bb75b5f61b60"},"vehicle_type_id":"4","last_reported":1744150187,"current_range_meters":18000,"station_id":"ce4bh0p2rcd13ifvqd70","pricing_plan_id":"cebpf4jnsgd1na2vs0mg"},{"bike_id":"6a58c4b9-5908-4c3e-ba1c-31602d5dfcef","system_id":"levelo_inurba_marseille","lat":43.309298,"lon":5.401395,"is_reserved":false,"is_disabled":false,"rental_uris":{"android":"levelo://app?vid=6a58c4b9-5908-4c3e-ba1c-31602d5dfcef","ios":"levelo://app?vid=6a58c4b9-5908-4c3e-ba1c-31602d5dfcef"},"vehicle_type_id":"4","last_reported":1744150187,"current_range_meters":18800,"station_id":"ce4bgvp2rcd13ifvqct0","pricing_plan_id":"cebpf4jnsgd1na2vs0mg"},{"bike_id":"7d9e2563-642b-4c72-a017-fa18f8457801","system_id":"levelo_inurba_marseille","lat":43.2903,"lon":5.38636,"is_reserved":false,"is_disabled":false,"rental_uris":{"android":"levelo://app?vid=7d9e2563-642b-4c72-a017-fa18f8457801","ios":"levelo://app?vid=7d9e2563-642b-4c72-a017-fa18f8457801"},"vehicle_type_id":"4","last_reported":1744150187,"current_range_meters":18800,"station_id":"ce4bh4p2rcd13ifvqe0g","pricing_plan_id":"cebpf4jnsgd1na2vs0mg"},{"bike_id":"f732e6ee-b929-4d52-b9e6-b13da1311992","system_id":"levelo_inurba_marseille","lat":43.29279,"lon":5.40114,"is_reserved":false,"is_disabled":false,"rental_uris":{"android":"levelo://app?vid=f732e6ee-b929-4d52-b9e6-b13da1311992","ios":"levelo://app?vid=f732e6ee-b929-4d52-b9e6-b13da1311992"},"vehicle_type_id":"4","last_reported":1744150187,"current_range_meters":18800,"station_id":"ce4bh312rcd13ifvqdk0","pricing_plan_id":"cebpf4jnsgd1na2vs0mg"},{"bike_id":"2c3a2b3a-da6d-4e7a-b514-9be1bc0e24a0","system_id":"levelo_inurba_marseille","lat":43.31083,"lon":5.42428,"is_reserved":false,"is_disabled":false,"rental_uris":{"android":"levelo://app?vid=2c3a2b3a-da6d-4e7a-b514-9be1bc0e24a0","ios":"levelo://app?vid=2c3a2b3a-da6d-4e7a-b514-9be1bc0e24a0"},"vehicle_type_id":"4","last_reported":1744150187,"current_range_meters":18800,"station_id":"ce4bhp92rcd13ifvqhag","pricing_plan_id":"cebpf4jnsgd1na2vs0mg"},{"bike_id":"ae1a4e53-cc8d-4686-833e-275252312cd1","system_id":"levelo_inurba_marseille","lat":43.30544,"lon":5.38437,"is_reserved":false,"is_disabled":false,"rental_uris":{"android":"levelo://app?vid=ae1a4e53-cc8d-4686-833e-275252312cd1","ios":"levelo://app?vid=ae1a4e53-cc8d-4686-833e-275252312cd1"},"vehicle_type_id":"4","last_reported":1744150187,"current_range_meters":18800,"station_id":"ce4bgg92rcd13ifvqb30","pricing_plan_id":"cebpf4jnsgd1na2vs0mg"},{"bike_id":"50e3a432-fd98-4720-aa15-8561d1ec2e95","system_id":"levelo_inurba_marseille","lat":43.2464,"lon":5.38176,"is_reserved":false,"is_disabled":false,"rental_uris":{"android":"levelo://app?vid=50e3a432-fd98-4720-aa15-8561d1ec2e95","ios":"levelo://app?vid=50e3a432-fd98-4720-aa15-8561d1ec2e95"},"vehicle_type_id":"4","last_reported":1744150187,"current_range_meters":18800,"station_id":"ce4bhih2rcd13ifvqfr0","pricing_plan_id":"cebpf4jnsgd1na2vs0mg"},{"bike_id":"b84b1d45-729e-47db-8c7e-e88abe2948fb","system_id":"levelo_inurba_marseille","lat":43.31714,"lon":5.42398,"is_reserved":false,"is_disabled":false,"rental_uris":{"android":"levelo://app?vid=b84b1d45-729e-47db-8c7e-e88abe2948fb","ios":"levelo://app?vid=b84b1d45-729e-47db-8c7e-e88abe2948fb"},"vehicle_type_id":"4","last_reported":1744150187,"current_range_meters":18800,"station_id":"ce4bhp92rcd13ifvqhbg","pricing_plan_id":"cebpf4jnsgd1na2vs0mg"},{"bike_id":"2b94f7f1-ba53-4d8d-9140-cb87849dbd30","system_id":"levelo_inurba_marseille","lat":43.30648,"lon":5.4007,"is_reserved":false,"is_disabled":false,"rental_uris":{"android":"levelo://app?vid=2b94f7f1-ba53-4d8d-9140-cb87849dbd30","ios":"levelo://app?vid=2b94f7f1-ba53-4d8d-9140-cb87849dbd30"},"vehicle_type_id":"4","last_reported":1744150187,"current_range_meters":18800,"station_id":"ce4bh112rcd13ifvqda0","pricing_plan_id":"cebpf4jnsgd1na2vs0mg"},{"bike_id":"24a119ef-6e80-49b9-80af-273e42ef54b7","system_id":"levelo_inurba_marseille","lat":43.288,"lon":5.37564,"is_reserved":false,"is_disabled":false,"rental_uris":{"android":"levelo://app?vid=24a119ef-6e80-49b9-80af-273e42ef54b7","ios":"levelo://app?vid=24a119ef-6e80-49b9-80af-273e42ef54b7"},