{"last_updated":1729903425,"ttl":60,"version":"2.2","data":{"bikes":[{"bike_id":"d2ceb7b1-8be1-4a18-aa66-e1d46306bf80","system_id":"levelo_inurba_marseille","lat":43.26061,"lon":5.39397,"is_reserved":false,"is_disabled":false,"rental_uris":{"android":"levelo://app?vid=d2ceb7b1-8be1-4a18-aa66-e1d46306bf80","ios":"levelo://app?vid=d2ceb7b1-8be1-4a18-aa66-e1d46306bf80"},"vehicle_type_id":"4","last_reported":1729903425,"current_range_meters":37600,"station_id":"ce4bhh92rcd13ifvqfj0","pricing_plan_id":"cebpf4jnsgd1na2vs0mg"},{"bike_id":"f4a12ea7-75df-4c48-9db9-c584e2d01b59","system_id":"levelo_inurba_marseille","lat":43.29891,"lon":5.39731,"is_reserved":false,"is_disabled":false,"rental_uris":{"android":"levelo://app?vid=f4a12ea7-75df-4c48-9db9-c584e2d01b59","ios":"levelo://app?vid=f4a12ea7-75df-4c48-9db9-c584e2d01b59"},"vehicle_type_id":"4","last_reported":1729903425,"current_range_meters":38800,"station_id":"ce4bh0h2rcd13ifvqd50","pricing_plan_id":"cebpf4jnsgd1na2vs0mg"},{"bike_id":"163eddd4-107c-441d-b897-daa82cca5a31","system_id":"levelo_inurba_marseille","lat":43.28083,"lon":5.39667,"is_reserved":false,"is_disabled":false,"rental_uris":{"android":"levelo://app?vid=163eddd4-107c-441d-b897-daa82cca5a31","ios":"levelo://app?vid=163eddd4-107c-441d-b897-daa82cca5a31"},"vehicle_type_id":"4","last_reported":1729903425,"current_range_meters":38800,"station_id":"ce4bho12rcd13ifvqh2g","pricing_plan_id":"cebpf4jnsgd1na2vs0mg"},{"bike_id":"68359522-a6bc-4d67-a106-7c3acf76ac10","system_id":"levelo_inurba_marseille","lat":43.29252,"lon":5.40896,"is_reserved":false,"is_disabled":false,"rental_uris":{"android":"levelo://app?vid=68359522-a6bc-4d67-a106-7c3acf76ac10","ios":"levelo://app?vid=68359522-a6bc-4d67-a106-7c3acf76ac10"},"vehicle_type_id":"4","last_reported":1729903425,"current_range_meters":10000,"station_id":"ce4bh192rcd13ifvqdc0","pricing_plan_id":"cebpf4jnsgd1na2vs0mg"},{"bike_id":"607fa9b8-1815-47a3-97ba-59ab08c0f8bf","system_id":"levelo_inurba_marseille","lat":43.25577,"lon":5.3824,"is_reserved":false,"is_disabled":false,"rental_uris":{"android":"levelo://app?vid=607fa9b8-1815-47a3-97ba-59ab08c0f8bf","ios":"levelo://app?vid=607fa9b8-1815-47a3-97ba-59ab08c0f8bf"},"vehicle_type_id":"4","last_reported":1729903425,"current_range_meters":28400,"station_id":"ce4bhih2rcd13ifvqfs0","pricing_plan_id":"cebpf4jnsgd1na2vs0mg"},{"bike_id":"7b6aaf83-8cdd-4ae0-abe8-d162e1381dc3","system_id":"levelo_inurba_marseille","lat":43.28658,"lon":5.3634,"is_reserved":false,"is_disabled":false,"rental_uris":{"android":"levelo://app?vid=7b6aaf83-8cdd-4ae0-abe8-d162e1381dc3","ios":"levelo://app?vid=7b6aaf83-8cdd-4ae0-abe8-d162e1381dc3"},"vehicle_type_id":"4","last_reported":1729903425,"current_range_meters":38000,"station_id":"ce4bhah2rcd13ifvqej0","pricing_plan_id":"cebpf4jnsgd1na2vs0mg"},{"bike_id":"92a05bb6-9848-44f6-a68e-d10c7e2e418e","system_id":"levelo_inurba_marseille","lat":43.31321,"lon":5.39696,"is_reserved":false,"is_disabled":false,"rental_uris":{"android":"levelo://app?vid=92a05bb6-9848-44f6-a68e-d10c7e2e418e","ios":"levelo://app?vid=92a05bb6-9848-44f6-a68e-d10c7e2e418e"},"vehicle_type_id":"4","last_reported":1729903425,"current_range_meters":36000,"station_id":"ce4bgvp2rcd13ifvqcu0","pricing_plan_id":"cebpf4jnsgd1na2vs0mg"},{"bike_id":"3381cd79-1316-4c50-ad86-ee5056cd0e14","system_id":"levelo_inurba_marseille","lat":43.25115,"lon":5.40326,"is_reserved":false,"is_disabled":false,"rental_uris":{"android":"levelo://app?vid=3381cd79-1316-4c50-ad86-ee5056cd0e14","ios":"levelo://app?vid=3381cd79-1316-4c50-ad86-ee5056cd0e14"},"vehicle_type_id":"4","last_reported":1729903425,"current_range_meters":38400,"station_id":"ce4bhlh2rcd13ifvqgig","pricing_plan_id":"cebpf4jnsgd1na2vs0mg"},{"bike_id":"ef9d1303-b3a7-4f64-b1ea-62f7e508d231","system_id":"levelo_inurba_marseille","lat":43.28084,"lon":5.39659,"is_reserved":false,"is_disabled":false,"rental_uris":{"android":"levelo://app?vid=ef9d1303-b3a7-4f64-b1ea-62f7e508d231","ios":"levelo://app?vid=ef9d1303-b3a7-4f64-b1ea-62f7e508d231"},"vehicle_type_id":"4","last_reported":1729903425,"current_range_meters":28000,"station_id":"ce4bho12rcd13ifvqh2g","pricing_plan_id":"cebpf4jnsgd1na2vs0mg"},{"bike_id":"1d38aed8-5ab9-4104-b2a5-fe53b77398b8","system_id":"levelo_inurba_marseille","lat":43.30305,"lon":5.3921,"is_reserved":false,"is_disabled":false,"rental_uris":{"android":"levelo://app?vid=1d38aed8-5ab9-4104-b2a5-fe53b77398b8","ios":"levelo://app?vid=1d38aed8-5ab9-4104-b2a5-fe53b77398b8"},"vehicle_type_id":"4","last_reported":1729903425,"current_range_meters":20800,"station_id":"ce4bgkh2rcd13ifvqbk0","pricing_plan_id":"cebpf4jnsgd1na2vs0mg"},{"bike_id":"d33b21ec-4310-4291-b133-a0ac75f58382","system_id":"levelo_inurba_marseille","lat":43.306549,"lon":5.40105,"is_reserved":false,"is_disabled":false,"rental_uris":{"android":"levelo://app?vid=d33b21ec-4310-4291-b133-a0ac75f58382","ios":"levelo://app?vid=d33b21ec-4310-4291-b133-a0ac75f58382"},"vehicle_type_id":"4","last_reported":1729903425,"current_range_meters":28800,"station_id":"ce4bh112rcd13ifvqda0","pricing_plan_id":"cebpf4jnsgd1na2vs0mg"},{"bike_id":"1e6e2bfc-7583-41d7-8b7b-c4a99bfe72bb","system_id":"levelo_inurba_marseille","lat":43.28416,"lon":5.34991,"is_reserved":false,"is_disabled":false,"rental_uris":{"android":"levelo://app?vid=1e6e2bfc-7583-41d7-8b7b-c4a99bfe72bb","ios":"levelo://app?vid=1e6e2bfc-7583-41d7-8b7b-c4a99bfe72bb"},"vehicle_type_id":"4","last_reported":1729903425,"current_range_meters":38800,"station_id":"ce4bhbh2rcd13ifvqepg","pricing_plan_id":"cebpf4jnsgd1na2vs0mg"},{"bike_id":"f50afdfb-c8b7-47d3-8499-3e6c5b7b9729","system_id":"levelo_inurba_marseille","lat":43.29872,"lon":5.39729,"is_reserved":false,"is_disabled":false,"rental_uris":{"android":"levelo://app?vid=f50afdfb-c8b7-47d3-8499-3e6c5b7b9729","ios":"levelo://app?vid=f50afdfb-c8b7-47d3-8499-3e6c5b7b9729"},"vehicle_type_id":"4","last_reported":1729903425,"current_range_meters":19200,"station_id":"ce4bh0h2rcd13ifvqd50","pricing_plan_id":"cebpf4jnsgd1na2vs0mg"},{"bike_id":"783a38b9-a972-475c-913e-3785a3b5ae70","system_id":"levelo_inurba_marseille","lat":43.28033,"lon":5.36951,"is_reserved":false,"is_disabled":false,"rental_uris":{"android":"levelo://app?vid=783a38b9-a972-475c-913e-3785a3b5ae70","ios":"levelo://app?vid=783a38b9-a972-475c-913e-3785a3b5ae70"},"vehicle_type_id":"4","last_reported":1729903425,"current_range_meters":38800,"station_id":"ce4bha12rcd13ifvqef0","pricing_plan_id":"cebpf4jnsgd1na2vs0mg"},{"bike_id":"6d97c9ce-6318-4bf4-bc58-f46fdd834007","system_id":"levelo_inurba_marseille","lat":43.32366,"lon":5.3888,"is_reserved":false,"is_disabled":false,"rental_uris":{"android":"levelo://app?vid=6d97c9ce-6318-4bf4-bc58-f46fdd834007","ios":"levelo://app?vid=6d97c9ce-6318-4bf4-bc58-f46fdd834007"},"vehicle_type_id":"4","last_reported":1729903425,"current_range_meters":28000,"station_id":"ce4bhqp2rcd13ifvqhog","pricing_plan_id":"cebpf4jnsgd1na2vs0mg"},{"bike_id":"ce1af6ce-1013-4cbc-9290-2657ed6e2401","system_id":"levelo_inurba_marseille","lat":43.26804,"lon":5.40273,"is_reserved":false,"is_disabled":false,"rental_uris":{"android":"levelo://app?vid=ce1af6ce-1013-4cbc-9290-2657ed6e2401","ios":"levelo://app?vid=ce1af6ce-1013-4cbc-9290-2657ed6e2401"},"vehicle_type_id":"4","last_reported":1729903425,"current_range_meters":28000,"station_id":"ce501612rcd8frsf0b60","pricing_plan_id":"cebpf4jnsgd1na2vs0mg"},{"bike_id":"790dc2e2-ffc7-4e35-9bec-95eb915e5548","system_id":"levelo_inurba_marseille","lat":43.31175,"lon":5.38721,"is_reserved":false,"is_disabled":false,"rental_uris":{"android":"levelo://app?vid=790dc2e2-ffc7-4e35-9bec-95eb915e5548","ios":"levelo://app?vid=790dc2e2-ffc7-4e35-9bec-95eb915e5548"},"vehicle_type_id":"4","last_reported":1729903425,"current_range_meters":7200,"station_id":"ce4bgv12rcd13ifvqcp0","pricing_plan_id":"cebpf4jnsgd1na2vs0mg"},{"bike_id":"c51ff988-e0ce-4051-81bd-b205835f4a62","system_id":"levelo_inurba_marseille","lat":43.28699,"lon":5.39986,"is_reserved":false,"is_disabled":false,"rental_uris":{"android":"levelo://app?vid=c51ff988-e0ce-4051-81bd-b205835f4a62","ios":"levelo://app?vid=c51ff988-e0ce-4051-81bd-b205835f4a62"},"vehicle_type_id":"4","last_reported":1729903425,"current_range_meters":30000,"station_id":"ce4bho92rcd13ifvqh3g","pricing_plan_id":"cebpf4jnsgd1na2vs0mg"},{"bike_id":"9dba7589-b9fd-4fa4-a085-6c653f324b29","system_id":"levelo_inurba_marseille","lat":43.31335,"lon":5.39699,"is_reserved":false,"is_disabled":false,"rental_uris":{"android":"levelo://app?vid=9dba7589-b9fd-4fa4-a085-6c653f324b29","ios":"levelo://app?vid=9dba7589-b9fd-4fa4-a085-6c653f324b29"},"vehicle_type_id":"4","last_reported":1729903425,"current_range_meters":12800,"station_id":"ce4bgvp2rcd13ifvqcu0","pricing_plan_id":"cebpf4jnsgd1na2vs0mg"},{"bike_id":"a5add820-9e4b-49c7-bd27-b9ddeb22681d","system_id":"levelo_inurba_marseille","lat":43.28265,"lon":5.35066,"is_reserved":false,"is_disabled":false,"rental_uris":{"android":"levelo://app?vid=a5add820-9e4b-49c7-bd27-b9ddeb22681d","ios":"levelo://app?vid=a5add820-9e4b-49c7-bd27-b9ddeb22681d"},"vehicle_type_id":"4","last_reported":1729903425,"current_range_meters":16400,"station_id":"ce4bhbp2rcd13ifvqerg","pricing_plan_id":"cebpf4jnsgd1na2vs0mg"},{"bike_id":"e46cc6d2-800b-46ae-9361-0f88e7022a54","system_id":"levelo_inurba_marseille","lat":43.28668,"lon":5.3635,"is_reserved":false,"is_disabled":false,"rental_uris":{"android":"levelo://app?vid=e46cc6d2-800b-46ae-9361-0f88e7022a54","ios":"levelo://app?vid=e46cc6d2-800b-46ae-9361-0f88e7022a54"},"vehicle_type_id":"4","last_reported":1729903425,"current_range_meters":38800,"station_id":"ce4bhah2rcd13ifvqej0","pricing_plan_id":"cebpf4jnsgd1na2vs0mg"},{"bike_id":"3b2e3407-d523-40de-9f77-51385e2cb297","system_id":"levelo_inurba_marseille","lat":43.25002,"lon":5.38916,"is_reserved":false,"is_disabled":false,"rental_uris":{"android":"levelo://app?vid=3b2e3407-d523-40de-9f77-51385e2cb297","ios":"levelo://app?vid=3b2e3407-d523-40de-9f77-51385e2cb297"},"vehicle_type_id":"4","last_reported":1729903425,"current_range_meters":8000,"station_id":"ce4bhgp2rcd13ifvqfd0","pricing_plan_id":"cebpf4jnsgd1na2vs0mg"},{"bike_id":"ab585607-30c7-4fc1-af46-cb28449af514","system_id":"levelo_inurba_marseille","lat":43.28698,"lon":5.39983,"is_reserved":false,"is_disabled":false,"rental_uris":{"android":"levelo://app?vid=ab585607-30c7-4fc1-af46-cb28449af514","ios":"levelo://app?vid=ab585607-30c7-4fc1-af46-cb28449af514"},"vehicle_type_id":"4","last_reported":1729903425,"current_range_meters":32000,"station_id":"ce4bho92rcd13ifvqh3g","pricing_plan_id":"cebpf4jnsgd1na2vs0mg"},{"bike_id":"633bdd84-8a27-486c-8d5a-62bd9dd56f9f","system_id":"levelo_inurba_marseille","lat":43.26946,"lon":5.40247,"is_reserved":false,"is_disabled":false,"rental_uris":{"android":"levelo://app?vid=633bdd84-8a27-486c-8d5a-62bd9dd56f9f","ios":"levelo://app?vid=633bdd84-8a27-486c-8d5a-62bd9dd56f9f"},"vehicle_type_id":"4","last_reported":1729903425,"current_range_meters":38800,"station_id":"cjm6bp8fraef2m0cb0m0","pricing_plan_id":"cebpf4jnsgd1na2vs0mg"},{"bike_id":"034b0df2-1eed-443a-9b6a-1ec1fc138adc","system_id":"levelo_inurba_marseille","lat":43.28723,"lon":5.36095,"is_reserved":false,"is_disabled":false,"rental_uris":{"android":"levelo://app?vid=034b0df2-1eed-443a-9b6a-1ec1fc138adc","ios":"levelo://app?vid=034b0df2-1eed-443a-9b6a-1ec1fc138adc"},"vehicle_type_id":"4","last_reported":1729903425,"current_range_meters":36000,"station_id":"cki0cbj6b192h4jlfktg","pricing_plan_id":"cebpf4jnsgd1na2vs0mg"},{"bike_id":"b5023f02-4d75-4c00-9db0-8150b0d877da","system_id":"levelo_inurba_marseille","lat":43.33611,"lon":5.41043,"is_reserved":false,"is_disabled":false,"rental_uris":{"android":"levelo://app?vid=b5023f02-4d75-4c00-9db0-8150b0d877da","ios":"levelo://app?vid=b5023f02-4d75-4c00-9db0-8150b0d877da"},"vehicle_type_id":"4","last_reported":1729903425,"current_range_meters":10000,"station_id":"ce4bhqh2rcd13ifvqhmg","pricing_plan_id":"cebpf4jnsgd1na2vs0mg"},{"bike_id":"451f8e35-dbd4-4645-8afb-a5f3f54384b4","system_id":"levelo_inurba_marseille","lat":43.29041,"lon":5.39951,"is_reserved":false,"is_disabled":false,"rental_uris":{"android":"levelo://app?vid=451f8e35-dbd4-4645-8afb-a5f3f54384b4","ios":"levelo://app?vid=451f8e35-dbd4-4645-8afb-a5f3f54384b4"},"vehicle_type_id":"4","last_reported":1729903425,"current_range_meters":32800,"station_id":"ce4bh392rcd13ifvqdm0","pricing_plan_id":"cebpf4jnsgd1na2vs0mg"},{"bike_id":"090d6208-0a1b-4739-846f-ee75a9ed97d4","system_id":"levelo_inurba_marseille","lat":43.27827,"lon":5.39204,"is_reserved":false,"is_disabled":false,"rental_uris":{"android":"levelo://app?vid=090d6208-0a1b-4739-846f-ee75a9ed97d4","ios":"levelo://app?vid=090d6208-0a1b-4739-846f-ee75a9ed97d4"},"vehicle_type_id":"4","last_reported":1729903425,"current_range_meters":38800,"station_id":"ce4bhjp2rcd13ifvqga0","pricing_plan_id":"cebpf4jnsgd1na2vs0mg"},{"bike_id":"dd6c780f-d10c-4c09-a3fe-5581d2735032","system_id":"levelo_inurba_marseille","lat":43.30137,"lon":5.37427,"is_reserved":false,"is_disabled":false,"rental_uris":{"android":"levelo://app?vid=dd6c780f-d10c-4c09-a3fe-5581d2735032","ios":"levelo://app?vid=dd6c780f-d10c-4c09-a3fe-5581d2735032"},"vehicle_type_id":"4","last_reported":1729903425,"current_range_meters":33200,"station_id":"ce4bgs92rcd13ifvqcc0","pricing_plan_id":"cebpf4jnsgd1na2vs0mg"},{"bike_id":"d44187ab-306f-4bed-b6aa-0d68527ab8c2","system_id":"levelo_inurba_marseille","lat":43.2841,"lon":5.34976,"is_reserved":false,"is_disabled":false,"rental_uris":{"android":"levelo://app?vid=d44187ab-306f-4bed-b6aa-0d68527ab8c2","ios":"levelo://app?vid=d44187ab-306f-4bed-b6aa-0d68527ab8c2"},"vehicle_type_id":"4","last_reported":1729903425,"current_range_meters":8000,"station_id":"ce4bhbh2rcd13ifvqepg","pricing_plan_id":"cebpf4jnsgd1na2vs0mg"},{"bike_id":"2acf30df-8280-459a-9517-b601c87d8e29","system_id":"levelo_inurba_marseille","lat":43.2649,"lon":5.39546,"is_reserved":false,"is_disabled":false,"rental_uris":{"android":"levelo://app?vid=2acf30df-8280-459a-9517-b601c87d8e29","ios":"levelo://app?vid=2acf30df-8280-459a-9517-b601c87d8e29"},"vehicle_type_id":"4","last_reported":1729903425,"current_range_meters":38800,"station_id":"ce4bhi12rcd13ifvqfq0","pricing_plan_id":"cebpf4jnsgd1na2vs0mg"},{"bike_id":"c8f33dbe-8d46-4679-b0bd-686b38e43e1d","system_id":"levelo_inurba_marseille","lat":43.24545,"lon":5.39523,"is_reserved":false,"is_disabled":false,"rental_uris":{"android":"levelo://app?vid=c8f33dbe-8d46-4679-b0bd-686b38e43e1d","ios":"levelo://app?vid=c8f33dbe-8d46-4679-b0bd-686b38e43e1d"},"vehicle_type_id":"4","last_reported":1729903425,"current_range_meters":37600,"station_id":"ce4bhlp2rcd13ifvqgjg","pricing_plan_id":"cebpf4jnsgd1na2vs0mg"},{"bike_id":"be85cbfc-55ff-46d3-bc5a-9eb864ef58d1","system_id":"levelo_inurba_marseille","lat":43.2857,"lon":5.39509,"is_reserved":false,"is_disabled":false,"rental_uris":{"android":"levelo://app?vid=be85cbfc-55ff-46d3-bc5a-9eb864ef58d1","ios":"levelo://app?vid=be85cbfc-55ff-46d3-bc5a-9eb864ef58d1"},"vehicle_type_id":"4","last_reported":1729903425,"current_range_meters":39200,"station_id":"ce4bh292rcd13ifvqdg0","pricing_plan_id":"cebpf4jnsgd1na2vs0mg"},{"bike_id":"0bab06ec-8c32-4868-9c09-532eb4277a15","system_id":"levelo_inurba_marseille","lat":43.28667,"lon":5.36349,"is_reserved":false,"is_disabled":false,"rental_uris":{"android":"levelo://app?vid=0bab06ec-8c32-4868-9c09-532eb4277a15","ios":"levelo://app?vid=0bab06ec-8c32-4868-9c09-532eb4277a15"},"vehicle_type_id":"4","last_reported":1729903425,"current_range_meters":24000,"station_id":"ce4bhah2rcd13ifvqej0","pricing_plan_id":"cebpf4jnsgd1na2vs0mg"},{"bike_id":"45824d76-330a-4917-813d-b7e673501ccc","system_id":"levelo_inurba_marseille","lat":43.30244,"lon":5.40066,"is_reserved":false,"is_disabled":false,"rental_uris":{"android":"levelo://app?vid=45824d76-330a-4917-813d-b7e673501ccc","ios":"levelo://app?vid=45824d76-330a-4917-813d-b7e673501ccc"},"vehicle_type_id":"4","last_reported":1729903425,"current_range_meters":27200,"station_id":"ce4bgvh2rcd13ifvqcs0","pricing_plan_id":"cebpf4jnsgd1na2vs0mg"},{"bike_id":"7403c571-2d2b-4cdd-81dd-d9c90450ceaa","system_id":"levelo_inurba_marseille","lat":43.27998,"lon":5.40022,"is_reserved":false,"is_disabled":false,"rental_uris":{"android":"levelo://app?vid=7403c571-2d2b-4cdd-81dd-d9c90450ceaa","ios":"levelo://app?vid=7403c571-2d2b-4cdd-81dd-d9c90450ceaa"},"vehicle_type_id":"4","last_reported":1729903425,"current_range_meters":35200,"station_id":"ce4bho92rcd13ifvqh4g","pricing_plan_id":"cebpf4jnsgd1na2vs0mg"},{"bike_id":"39df7709-191d-43fc-a536-f583de4e7e33","system_id":"levelo_inurba_marseille","lat":43.29874,"lon":5.38918,"is_reserved":false,"is_disabled":false,"rental_uris":{"android":"levelo://app?vid=39df7709-191d-43fc-a536-f583de4e7e33","ios":"levelo://app?vid=39df7709-191d-43fc-a536-f583de4e7e33"},"vehicle_type_id":"4","last_reported":1729903425,"current_range_meters":38800,"station_id":"ce4bh392rcd13ifvqdl0","pricing_plan_id":"cebpf4jnsgd1na2vs0mg"},{"bike_id":"ab690427-c9be-4ad1-aa55-0e72f1abafdf","system_id":"levelo_inurba_marseille","lat":43.2925,"lon":5.40907,"is_reserved":false,"is_disabled":false,"rental_uris":{"android":"levelo://app?vid=ab690427-c9be-4ad1-aa55-0e72f1abafdf","ios":"levelo://app?vid=ab690427-c9be-4ad1-aa55-0e72f1abafdf"},"vehicle_type_id":"4","last_reported":1729903425,"current_range_meters":9200,"station_id":"ce4bh192rcd13ifvqdc0","pricing_plan_id":"cebpf4jnsgd1na2vs0mg"},{"bike_id":"faa198e3-1685-444f-a744-5a783158aeff","system_id":"levelo_inurba_marseille","lat":43.32344,"lon":5.40624,"is_reserved":false,"is_disabled":false,"rental_uris":{"android":"levelo://app?vid=faa198e3-1685-444f-a744-5a783158aeff","ios":"levelo://app?vid=faa198e3-1685-444f-a744-5a783158aeff"},"vehicle_type_id":"4","last_reported":1729903425,"current_range_meters":38800,"station_id":"ce4bhq92rcd13ifvqhjg","pricing_plan_id":"cebpf4jnsgd1na2vs0mg"},{"bike_id":"fa83ecf3-a6ef-4106-9cdb-5ab89addbba4","system_id":"levelo_inurba_marseille","lat":43.26937,"lon":5.40243,"is_reserved":false,"is_disabled":false,"rental_uris":{"android":"levelo://app?vid=fa83ecf3-a6ef-4106-9cdb-5ab89addbba4","ios":"levelo://app?vid=fa83ecf3-a6ef-4106-9cdb-5ab89addbba4"},"vehicle_type_id":"4","last_reported":1729903425,"current_range_meters":32800,"station_id":"cjm6bp8fraef2m0cb0m0","pricing_plan_id":"cebpf4jnsgd1na2vs0mg"},{"bike_id":"5378be0b-d09d-4e45-9176-ecdfd95681a1","system_id":"levelo_inurba_marseille","lat":43.27813,"lon":5.40713,"is_reserved":false,"is_disabled":false,"rental_uris":{"android":"levelo://app?vid=5378be0b-d09d-4e45-9176-ecdfd95681a1","ios":"levelo://app?vid=5378be0b-d09d-4e45-9176-ecdfd95681a1"},"vehicle_type_id":"4","last_reported":1729903425,"current_range_meters":38000,"station_id":"ce4bhnh2rcd13ifvqgtg","pricing_plan_id":"cebpf4jnsgd1na2vs0mg"},{"bike_id":"b24e0fd3-2a5f-4760-8d2c-03b817af8d22","system_id":"levelo_inurba_marseille","lat":43.32334,"lon":5.40613,"is_reserved":false,"is_disabled":false,"rental_uris":{"android":"levelo://app?vid=b24e0fd3-2a5f-4760-8d2c-03b817af8d22","ios":"levelo://app?vid=b24e0fd3-2a5f-4760-8d2c-03b817af8d22"},"vehicle_type_id":"4","last_reported":1729903425,"current_range_meters":26000,"station_id":"ce4bhq92rcd13ifvqhjg","pricing_plan_id":"cebpf4jnsgd1na2vs0mg"},{"bike_id":"383d530c-da88-4c80-99fa-ac5e847f828f","system_id":"levelo_inurba_marseille","lat":43.28459,"lon":5.35882,"is_reserved":false,"is_disabled":false,"rental_uris":{"android":"levelo://app?vid=383d530c-da88-4c80-99fa-ac5e847f828f","ios":"levelo://app?vid=383d530c-da88-4c80-99fa-ac5e847f828f"},"vehicle_type_id":"4","last_reported":1729903425,"current_range_meters":32000,"station_id":"ce4bhah2rcd13ifvqei0","pricing_plan_id":"cebpf4jnsgd1na2vs0mg"},{"bike_id":"c3aa7bb4-1be5-4d6d-ab93-efb450cee9de","system_id":"levelo_inurba_marseille","lat":43.27559,"lon":5.38423,"is_reserved":false,"is_disabled":false,"rental_uris":{"android":"levelo://app?vid=c3aa7bb4-1be5-4d6d-ab93-efb450cee9de","ios":"levelo://app?vid=c3aa7bb4-1be5-4d6d-ab93-efb450cee9de"},"vehicle_type_id":"4","last_reported":1729903425,"current_range_meters":30400,"station_id":"ce4bhh92rcd13ifvqfi0","pricing_plan_id":"cebpf4jnsgd1na2vs0mg"},{"bike_id":"e7360508-6978-487a-a79b-5e2dad5d0ea3","system_id":"levelo_inurba_marseille","lat":43.22931,"lon":5.35377,"is_reserved":false,"is_disabled":false,"rental_uris":{"android":"levelo://app?vid=e7360508-6978-487a-a79b-5e2dad5d0ea3","ios":"levelo://app?vid=e7360508-6978-487a-a79b-5e2dad5d0ea3"},"vehicle_type_id":"4","last_reported":1729903425,"current_range_meters":33600,"station_id":"cpo3532slgdg3j2ikp40","pricing_plan_id":"cebpf4jnsgd1na2vs0mg"},{"bike_id":"e14a3be8-667d-453f-9025-4363e9942e60","system_id":"levelo_inurba_marseille","lat":43.29004,"lon":5.35606,"is_reserved":false,"is_disabled":false,"rental_uris":{"android":"levelo://app?vid=e14a3be8-667d-453f-9025-4363e9942e60","ios":"levelo://app?vid=e14a3be8-667d-453f-9025-4363e9942e60"},"vehicle_type_id":"4","last_reported":1729903425,"current_range_meters":38000,"station_id":"ce4bhb92rcd13ifvqen0","pricing_plan_id":"cebpf4jnsgd1na2vs0mg"},{"bike_id":"6bf933d1-15d6-4475-bebc-10f17937f409","system_id":"levelo_inurba_marseille","lat":43.31223,"lon":5.37654,"is_reserved":false,"is_disabled":false,"rental_uris":{"android":"levelo://app?vid=6bf933d1-15d6-4475-bebc-10f17937f409","ios":"levelo://app?vid=6bf933d1-15d6-4475-bebc-10f17937f409"},"vehicle_type_id":"4","last_reported":1729903425,"current_range_meters":38800,"station_id":"","pricing_plan_id":"cebpf4jnsgd1na2vs0mg"},{"bike_id":"af93a380-0759-48b4-9f91-7f87a3c1cd66","system_id":"levelo_inurba_marseille","lat":43.30536,"lon":5.3726,"is_reserved":false,"is_disabled":false,"rental_uris":{"android":"levelo://app?vid=af93a380-0759-48b4-9f91-7f87a3c1cd66","ios":"levelo://app?vid=af93a380-0759-48b4-9f91-7f87a3c1cd66"},"vehicle_type_id":"4","last_reported":1729903425,"current_range_meters":16800,"station_id":"ce4bgj92rcd13ifvqbd0","pricing_plan_id":"cebpf4jnsgd1na2vs0mg"},{"bike_id":"dfc22c95-97a7-4f16-b272-ec1032f6e482","system_id":"levelo_inurba_marseille","lat":43.28344,"lon":5.3811,"is_reserved":false,"is_disabled":false,"rental_uris":{"android":"levelo://app?vid=dfc22c95-97a7-4f16-b272-ec1032f6e482","ios":"levelo://app?vid=dfc22c95-97a7-4f16-b272-ec1032f6e482"},"vehicle_type_id":"4","last_reported":1729903425,"current_range_meters":39200,"station_id":"ce4bh412rcd13ifvqdr0","pricing_plan_id":"cebpf4jnsgd1na2vs0mg"},{"bike_id":"6925803b-ad34-4af7-be87-e1c380a12c9a","system_id":"levelo_inurba_marseille","lat":43.28728,"lon":5.36081,"is_reserved":false,"is_disabled":false,"rental_uris":{"android":"levelo://app?vid=6925803b-ad34-4af7-be87-e1c380a12c9a","ios":"levelo://app?vid=6925803b-ad34-4af7-be87-e1c380a12c9a"},"vehicle_type_id":"4","last_reported":1729903425,"current_range_meters":35600,"station_id":"cki0cbj6b192h4jlfktg","pricing_plan_id":"cebpf4jnsgd1na2vs0mg"},{"bike_id":"f727defd-d84d-4e2d-b964-b7a7399c1611","system_id":"levelo_inurba_marseille","lat":43.28717,"lon":5.37938,"is_reserved":false,"is_disabled":false,"rental_uris":{"android":"levelo://app?vid=f727defd-d84d-4e2d-b964-b7a7399c1611","ios":"levelo://app?vid=f727defd-d84d-4e2d-b964-b7a7399c1611"},"vehicle_type_id":"4","last_reported":1729903425,"current_range_meters":24400,"station_id":"ce4bh9p2rcd13ifvqec0","pricing_plan_id":"cebpf4jnsgd1na2vs0mg"},{"bike_id":"34c0b19e-e327-425b-bf09-25bec92dd9c4","system_id":"levelo_inurba_marseille","lat":43.29325,"lon":5.45471,"is_reserved":false,"is_disabled":false,"rental_uris":{"android":"levelo://app?vid=34c0b19e-e327-425b-bf09-25bec92dd9c4","ios":"levelo://app?vid=34c0b19e-e327-425b-bf09-25bec92dd9c4"},"vehicle_type_id":"4","last_reported":1729903425,"current_range_meters":23200,"station_id":"","pricing_plan_id":"cebpf4jnsgd1na2vs0mg"},{"bike_id":"e835d4c8-7653-415c-9c95-ebedbb4d78f7","system_id":"levelo_inurba_marseille","lat":43.22928,"lon":5.3538,"is_reserved":false,"is_disabled":false,"rental_uris":{"android":"levelo://app?vid=e835d4c8-7653-415c-9c95-ebedbb4d78f7","ios":"levelo://app?vid=e835d4c8-7653-415c-9c95-ebedbb4d78f7"},"vehicle_type_id":"4","last_reported":1729903425,"current_range_meters":16800,"station_id":"cpo3532slgdg3j2ikp40","pricing_plan_id":"cebpf4jnsgd1na2vs0mg"},{"bike_id":"1d1d656f-4780-4c04-b7aa-1044f7f3ec42","system_id":"levelo_inurba_marseille","lat":43.31524,"lon":5.38036,"is_reserved":false,"is_disabled":false,"rental_uris":{"android":"levelo://app?vid=1d1d656f-4780-4c04-b7aa-1044f7f3ec42","ios":"levelo://app?vid=1d1d656f-4780-4c04-b7aa-1044f7f3ec42"},"vehicle_type_id":"4","last_reported":1729903425,"current_range_meters":38800,"station_id":"ce4bhsp2rcd13ifvqi50","pricing_plan_id":"cebpf4jnsgd1na2vs0mg"},{"bike_id":"4a913422-3032-46a5-acaf-76f9216860d5","system_id":"levelo_inurba_marseille","lat":43.27561,"lon":5.38422,"is_reserved":false,"is_disabled":false,"rental_uris":{"android":"levelo://app?vid=4a913422-3032-46a5-acaf-76f9216860d5","ios":"levelo://app?vid=4a913422-3032-46a5-acaf-76f9216860d5"},"vehicle_type_id":"4","last_reported":1729903425,"current_range_meters":33200,"station_id":"ce4bhh92rcd13ifvqfi0","pricing_plan_id":"cebpf4jnsgd1na2vs0mg"},{"bike_id":"5063f4af-2df5-4a8d-971c-2e45b710db02","system_id":"levelo_inurba_marseille","lat":43.25577,"lon":5.38251,"is_reserved":false,"is_disabled":false,"rental_uris":{"android":"levelo://app?vid=5063f4af-2df5-4a8d-971c-2e45b710db02","ios":"levelo://app?vid=5063f4af-2df5-4a8d-971c-2e45b710db02"},"vehicle_type_id":"4","last_reported":1729903425,"current_range_meters":38800,"station_id":"ce4bhih2rcd13ifvqfs0","pricing_plan_id":"cebpf4jnsgd1na2vs0mg"},{"bike_id":"e16ba0fb-c8f9-4074-a1c8-ad626ad5602f","system_id":"levelo_inurba_marseille","lat":43.26941,"lon":5.40251,"is_reserved":false,"is_disabled":false,"rental_uris":{"android":"levelo://app?vid=e16ba0fb-c8f9-4074-a1c8-ad626ad5602f","ios":"levelo://app?vid=e16ba0fb-c8f9-4074-a1c8-ad626ad5602f"},"vehicle_type_id":"4","last_reported":1729903425,"current_range_meters":37600,"station_id":"cjm6bp8fraef2m0cb0m0","pricing_plan_id":"cebpf4jnsgd1na2vs0mg"},{"bike_id":"d442d14a-9d56-4dc0-bb62-0822a5b2b897","system_id":"levelo_inurba_marseille","lat":43.28567,"lon":5.39503,"is_reserved":false,"is_disabled":false,"rental_uris":{"android":"levelo://app?vid=d442d14a-9d56-4dc0-bb62-0822a5b2b897","ios":"levelo://app?vid=d442d14a-9d56-4dc0-bb62-0822a5b2b897"},"vehicle_type_id":"4","last_reported":1729903425,"current_range_meters":36800,"station_id":"ce4bh292rcd13ifvqdg0","pricing_plan_id":"cebpf4jnsgd1na2vs0mg"},{"bike_id":"1fd4c7b6-17d7-44d4-b4ef-ad0d587e9d81","system_id":"levelo_inurba_marseille","lat":43.3089,"lon":5.37197,"is_reserved":false,"is_disabled":false,"rental_uris":{"android":"levelo://app?vid=1fd4c7b6-17d7-44d4-b4ef-ad0d587e9d81","ios":"levelo://app?vid=1fd4c7b6-17d7-44d4-b4ef-ad0d587e9d81"},"vehicle_type_id":"4","last_reported":1729903425,"current_range_meters":34800,"station_id":"ce4bguh2rcd13ifvqckg","pricing_plan_id":"cebpf4jnsgd1na2vs0mg"},{"bike_id":"88f0b2cc-53b3-42b9-84d9-bfcb4174f6d9","system_id":"levelo_inurba_marseille","lat":43.2872,"lon":5.36087,"is_reserved":false,"is_disabled":false,"rental_uris":{"android":"levelo://app?vid=88f0b2cc-53b3-42b9-84d9-bfcb4174f6d9","ios":"levelo://app?vid=88f0b2cc-53b3-42b9-84d9-bfcb4174f6d9"},"vehicle_type_id":"4","last_reported":1729903425,"current_range_meters":37600,"station_id":"cki0cbj6b192h4jlfktg","pricing_plan_id":"cebpf4jnsgd1na2vs0mg"},{"bike_id":"50257f77-4112-46e7-96a7-9117a22623c5","system_id":"levelo_inurba_marseille","lat":43.29281,"lon":5.401302,"is_reserved":false,"is_disabled":false,"rental_uris":{"android":"levelo://app?vid=50257f77-4112-46e7-96a7-9117a22623c5","ios":"levelo://app?vid=50257f77-4112-46e7-96a7-9117a22623c5"},"vehicle_type_id":"4","last_reported":1729903425,"current_range_meters":12400,"station_id":"ce4bh312rcd13ifvqdk0","pricing_plan_id":"cebpf4jnsgd1na2vs0mg"},{"bike_id":"ec460466-73dd-49ac-a641-a480e1847cfe","system_id":"levelo_inurba_marseille","lat":43.25823,"lon":5.39438,"is_reserved":false,"is_disabled":false,"rental_uris":{"android":"levelo://app?vid=ec460466-73dd-49ac-a641-a480e1847cfe","ios":"levelo://app?vid=ec460466-73dd-49ac-a641-a480e1847cfe"},"vehicle_type_id":"4","last_reported":1729903425,"current_range_meters":38800,"station_id":"ce4bhip2rcd13ifvqft0","pricing_plan_id":"cebpf4jnsgd1na2vs0mg"},{"bike_id":"f6ab2a9d-22dd-4f39-a862-023e0bda893c","system_id":"levelo_inurba_marseille","lat":43.29956,"lon":5.41322,"is_reserved":false,"is_disabled":false,"rental_uris":{"android":"levelo://app?vid=f6ab2a9d-22dd-4f39-a862-023e0bda893c","ios":"levelo://app?vid=f6ab2a9d-22dd-4f39-a862-023e0bda893c"},"vehicle_type_id":"4","last_reported":1729903425,"current_range_meters":26800,"station_id":"ce4bhp12rcd13ifvqh9g","pricing_plan_id":"cebpf4jnsgd1na2vs0mg"},{"bike_id":"81a79566-0322-46ac-900d-8d127f21c4ba","system_id":"levelo_inurba_marseille","lat":43.31766,"lon":5.39011,"is_reserved":false,"is_disabled":false,"rental_uris":{"android":"levelo://app?vid=81a79566-0322-46ac-900d-8d127f21c4ba","ios":"levelo://app?vid=81a79566-0322-46ac-900d-8d127f21c4ba"},"vehicle_type_id":"4","last_reported":1729903425,"current_range_meters":39200,"station_id":"ce4bhqp2rcd13ifvqhng","pricing_plan_id":"cebpf4jnsgd1na2vs0mg"},{"bike_id":"422509bb-657f-4af3-a452-01661c937b71","system_id":"levelo_inurba_marseille","lat":43.28442,"lon":5.39191,"is_reserved":false,"is_disabled":false,"rental_uris":{"android":"levelo://app?vid=422509bb-657f-4af3-a452-01661c937b71","ios":"levelo://app?vid=422509bb-657f-4af3-a452-01661c937b71"},"vehicle_type_id":"4","last_reported":1729903425,"current_range_meters":20000,"station_id":"ce4bhoh2rcd13ifvqh5g","pricing_plan_id":"cebpf4jnsgd1na2vs0mg"},{"bike_id":"3a9bfb16-0c1d-4441-a397-be908d793bb9","system_id":"levelo_inurba_marseille","lat":43.25491,"lon":5.37648,"is_reserved":false,"is_disabled":false,"rental_uris":{"android":"levelo://app?vid=3a9bfb16-0c1d-4441-a397-be908d793bb9","ios":"levelo://app?vid=3a9bfb16-0c1d-4441-a397-be908d793bb9"},"vehicle_type_id":"4","last_reported":1729903425,"current_range_meters":36800,"station_id":"ce4bhh12rcd13ifvqff0","pricing_plan_id":"cebpf4jnsgd1na2vs0mg"},{"bike_id":"6c990c37-116e-41cb-a5de-cb44083ded54","system_id":"levelo_inurba_marseille","lat":43.28079,"lon":5.39658,"is_reserved":false,"is_disabled":false,"rental_uris":{"android":"levelo://app?vid=6c990c37-116e-41cb-a5de-cb44083ded54","ios":"levelo://app?vid=6c990c37-116e-41cb-a5de-cb44083ded54"},"vehicle_type_id":"4","last_reported":1729903425,"current_range_meters":38800,"station_id":"ce4bho12rcd13ifvqh2g","pricing_plan_id":"cebpf4jnsgd1na2vs0mg"},{"bike_id":"7477d48d-ca51-4712-96a0-851a7d6a2338","system_id":"levelo_inurba_marseille","lat":43.28037,"lon":5.36955,"is_reserved":false,"is_disabled":false,"rental_uris":{"android":"levelo://app?vid=7477d48d-ca51-4712-96a0-851a7d6a2338","ios":"levelo://app?vid=7477d48d-ca51-4712-96a0-851a7d6a2338"},"vehicle_type_id":"4","last_reported":1729903425,"current_range_meters":39200,"station_id":"ce4bha12rcd13ifvqef0","pricing_plan_id":"cebpf4jnsgd1na2vs0mg"},{"bike_id":"5a2d60ec-7a22-4bee-9354-dac06b2e08b0","system_id":"levelo_inurba_marseille","lat":43.30528,"lon":5.38432,"is_reserved":false,"is_disabled":false,"rental_uris":{"android":"levelo://app?vid=5a2d60ec-7a22-4bee-9354-dac06b2e08b0","ios":"levelo://app?vid=5a2d60ec-7a22-4bee-9354-dac06b2e08b0"},"vehicle_type_id":"4","last_reported":1729903425,"current_range_meters":36400,"station_id":"ce4bgg92rcd13ifvqb30","pricing_plan_id":"cebpf4jnsgd1na2vs0mg"},{"bike_id":"afb6496d-524d-4e4c-a835-a9db0d103750","system_id":"levelo_inurba_marseille","lat":43.33605,"lon":5.41034,"is_reserved":false,"is_disabled":false,"rental_uris":{"android":"levelo://app?vid=afb6496d-524d-4e4c-a835-a9db0d103750","ios":"levelo://app?vid=afb6496d-524d-4e4c-a835-a9db0d103750"},"vehicle_type_id":"4","last_reported":1729903425,"current_range_meters":38400,"station_id":"ce4bhqh2rcd13ifvqhmg","pricing_plan_id":"cebpf4jnsgd1na2vs0mg"},{"bike_id":"aa396cde-d0da-410d-9cdf-1538d4b7e19d","system_id":"levelo_inurba_marseille","lat":43.32231,"lon":5.39228,"is_reserved":false,"is_disabled":false,"rental_uris":{"android":"levelo://app?vid=aa396cde-d0da-410d-9cdf-1538d4b7e19d","ios":"levelo://app?vid=aa396cde-d0da-410d-9cdf-1538d4b7e19d"},"vehicle_type_id":"4","last_reported":1729903425,"current_range_meters":12400,"station_id":"","pricing_plan_id":"cebpf4jnsgd1na2vs0mg"},{"bike_id":"aa81e96c-501c-4839-a90b-5bf5210c0769","system_id":"levelo_inurba_marseille","lat":43.28487,"lon":5.38549,"is_reserved":false,"is_disabled":false,"rental_uris":{"android":"levelo://app?vid=aa81e96c-501c-4839-a90b-5bf5210c0769","ios":"levelo://app?vid=aa81e96c-501c-4839-a90b-5bf5210c0769"},"vehicle_type_id":"4","last_reported":1729903425,"current_range_meters":33200,"station_id":"ce4bh8p2rcd13ifvqeb0","pricing_plan_id":"cebpf4jnsgd1na2vs0mg"},{"bike_id":"073949a6-760d-41ad-99cd-aeba5d3f39da","system_id":"levelo_inurba_marseille","lat":43.25932,"lon":5.40912,"is_reserved":false,"is_disabled":false,"rental_uris":{"android":"levelo://app?vid=073949a6-760d-41ad-99cd-aeba5d3f39da","ios":"levelo://app?vid=073949a6-760d-41ad-99cd-aeba5d3f39da"},"vehicle_type_id":"4","last_reported":1729903425,"current_range_meters":36800,"station_id":"ce4bhm92rcd13ifvqglg","pricing_plan_id":"cebpf4jnsgd1na2vs0mg"},{"bike_id":"e9305f8e-5e80-4442-a998-75172541de94","system_id":"levelo_inurba_marseille","lat":43.31361,"lon":5.38491,"is_reserved":false,"is_disabled":false,"rental_uris":{"android":"levelo://app?vid=e9305f8e-5e80-4442-a998-75172541de94","ios":"levelo://app?vid=e9305f8e-5e80-4442-a998-75172541de94"},"vehicle_type_id":"4","last_reported":1729903425,"current_range_meters":38800,"station_id":"ce4bgt92rcd13ifvqcf0","pricing_plan_id":"cebpf4jnsgd1na2vs0mg"},{"bike_id":"72d4fe02-7ad5-4cd4-aa12-822b9a78e2cb","system_id":"levelo_inurba_marseille","lat":43.30932,"lon":5.40147,"is_reserved":false,"is_disabled":false,"rental_uris":{"android":"levelo://app?vid=72d4fe02-7ad5-4cd4-aa12-822b9a78e2cb","ios":"levelo://app?vid=72d4fe02-7ad5-4cd4-aa12-822b9a78e2cb"},"vehicle_type_id":"4","last_reported":1729903425,"current_range_meters":38800,"station_id":"ce4bgvp2rcd13ifvqct0","pricing_plan_id":"cebpf4jnsgd1na2vs0mg"},{"bike_id":"c620abc8-2626-440f-878c-1efbd192a62e","system_id":"levelo_inurba_marseille","lat":43.25002,"lon":5.38924,"is_reserved":false,"is_disabled":false,"rental_uris":{"android":"levelo://app?vid=c620abc8-2626-440f-878c-1efbd192a62e","ios":"levelo://app?vid=c620abc8-2626-440f-878c-1efbd192a62e"},"vehicle_type_id":"4","last_reported":1729903425,"current_range_meters":11600,"station_id":"ce4bhgp2rcd13ifvqfd0","pricing_plan_id":"cebpf4jnsgd1na2vs0mg"},{"bike_id":"2b75fb34-9b9e-445c-b7a1-8df407992b64","system_id":"levelo_inurba_marseille","lat":43.28726,"lon":5.36088,"is_reserved":false,"is_disabled":false,"rental_uris":{"android":"levelo://app?vid=2b75fb34-9b9e-445c-b7a1-8df407992b64","ios":"levelo://app?vid=2b75fb34-9b9e-445c-b7a1-8df407992b64"},"vehicle_type_id":"4","last_reported":1729903425,"current_range_meters":38000,"station_id":"cki0cbj6b192h4jlfktg","pricing_plan_id":"cebpf4jnsgd1na2vs0mg"},{"bike_id":"f73eb936-9c2a-478f-b577-3db04ff09a3e","system_id":"levelo_inurba_marseille","lat":43.29257,"lon":5.40904,"is_reserved":false,"is_disabled":false,"rental_uris":{"android":"levelo://app?vid=f73eb936-9c2a-478f-b577-3db04ff09a3e","ios":"levelo://app?vid=f73eb936-9c2a-478f-b577-3db04ff09a3e"},"vehicle_type_id":"4","last_reported":1729903425,"current_range_meters":31200,"station_id":"ce4bh192rcd13ifvqdc0","pricing_plan_id":"cebpf4jnsgd1na2vs0mg"},{"bike_id":"e00cefd2-b35f-4c6b-a657-0ed9ac2806c3","system_id":"levelo_inurba_marseille","lat":43.25122,"lon":5.40319,"is_reserved":false,"is_disabled":false,"rental_uris":{"android":"levelo://app?vid=e00cefd2-b35f-4c6b-a657-0ed9ac2806c3","ios":"levelo://app?vid=e00cefd2-b35f-4c6b-a657-0ed9ac2806c3"},"vehicle_type_id":"4","last_reported":1729903425,"current_range_meters":9200,"station_id":"ce4bhlh2rcd13ifvqgig","pricing_plan_id":"cebpf4jnsgd1na2vs0mg"},{"bike_id":"7bcda441-e7e1-4dea-935c-4fff656fbf9f","system_id":"levelo_inurba_marseille","lat":43.28354,"lon":5.38102,"is_reserved":false,"is_disabled":false,"rental_uris":{"android":"levelo://app?vid=7bcda441-e7e1-4dea-935c-4fff656fbf9f","ios":"levelo://app?vid=7bcda441-e7e1-4dea-935c-4fff656fbf9f"},"vehicle_type_id":"4","last_reported":1729903425,"current_range_meters":36000,"station_id":"ce4bh412rcd13ifvqdr0","pricing_plan_id":"cebpf4jnsgd1na2vs0mg"},{"bike_id":"0746b5ef-d14c-48d4-b50d-3a9822f0004c","system_id":"levelo_inurba_marseille","lat":43.22933,"lon":5.35376,"is_reserved":false,"is_disabled":false,"rental_uris":{"android":"levelo://app?vid=0746b5ef-d14c-48d4-b50d-3a9822f0004c","ios":"levelo://app?vid=0746b5ef-d14c-48d4-b50d-3a9822f0004c"},"vehicle_type_id":"4","last_reported":1729903425,"current_range_meters":38400,"station_id":"cpo3532slgdg3j2ikp40","pricing_plan_id":"cebpf4jnsgd1na2vs0mg"},{"bike_id":"914d2947-3b26-4608-bb0d-9b1e8fb3aa40","system_id":"levelo_inurba_marseille","lat":43.28155,"lon":5.4265,"is_reserved":false,"is_disabled":false,"rental_uris":{"android":"levelo://app?vid=914d2947-3b26-4608-bb0d-9b1e8fb3aa40","ios":"levelo://app?vid=914d2947-3b26-4608-bb0d-9b1e8fb3aa40"},"vehicle_type_id":"4","last_reported":1729903425,"current_range_meters":27200,"station_id":"ce4bhnh2rcd13ifvqgug","pricing_plan_id":"cebpf4jnsgd1na2vs0mg"},{"bike_id":"fcc3a32b-6373-425b-be0a-b1a445ac3c61","system_id":"levelo_inurba_marseille","lat":43.30486,"lon":5.40178,"is_reserved":false,"is_disabled":false,"rental_uris":{"android":"levelo://app?vid=fcc3a32b-6373-425b-be0a-b1a445ac3c61","ios":"levelo://app?vid=fcc3a32b-6373-425b-be0a-b1a445ac3c61"},"vehicle_type_id":"4","last_reported":1729903425,"current_range_meters":6400,"station_id":"ce4bgh92rcd13ifvqb50","pricing_plan_id":"cebpf4jnsgd1na2vs0mg"},{"bike_id":"6a512a72-7ab1-4a6c-ad4f-96715c1d3ba0","system_id":"levelo_inurba_marseille","lat":43.23195,"lon":5.39986,"is_reserved":false,"is_disabled":false,"rental_uris":{"android":"levelo://app?vid=6a512a72-7ab1-4a6c-ad4f-96715c1d3ba0","ios":"levelo://app?vid=6a512a72-7ab1-4a6c-ad4f-96715c1d3ba0"},"vehicle_type_id":"4","last_reported":1729903425,"current_range_meters":29600,"station_id":"ce4bhn12rcd13ifvqgqg","pricing_plan_id":"cebpf4jnsgd1na2vs0mg"},{"bike_id":"390643ba-64c4-4db5-ac2a-2b26eb43c28f","system_id":"levelo_inurba_marseille","lat":43.280377,"lon":5.369389,"is_reserved":false,"is_disabled":false,"rental_uris":{"android":"levelo://app?vid=390643ba-64c4-4db5-ac2a-2b26eb43c28f","ios":"levelo://app?vid=390643ba-64c4-4db5-ac2a-2b26eb43c28f"},"vehicle_type_id":"4","last_reported":1729903425,"current_range_meters":16000,"station_id":"ce4bha12rcd13ifvqef0","pricing_plan_id":"cebpf4jnsgd1na2vs0mg"},{"bike_id":"ef136fa5-257b-4ee5-bd73-f0de7405e6ba","system_id":"levelo_inurba_marseille","lat":43.24542,"lon":5.3952,"is_reserved":false,"is_disabled":false,"rental_uris":{"android":"levelo://app?vid=ef136fa5-257b-4ee5-bd73-f0de7405e6ba","ios":"levelo://app?vid=ef136fa5-257b-4ee5-bd73-f0de7405e6ba"},"vehicle_type_id":"4","last_reported":1729903425,"current_range_meters":32400,"station_id":"ce4bhlp2rcd13ifvqgjg","pricing_plan_id":"cebpf4jnsgd1na2vs0mg"},{"bike_id":"e256b553-dcf1-4269-9617-dc810ebecef1","system_id":"levelo_inurba_marseille","lat":43.30286,"lon":5.36898,"is_reserved":false,"is_disabled":false,"rental_uris":{"android":"levelo://app?vid=e256b553-dcf1-4269-9617-dc810ebecef1","ios":"levelo://app?vid=e256b553-dcf1-4269-9617-dc810ebecef1"},"vehicle_type_id":"4","last_reported":1729903425,"current_range_meters":36400,"station_id":"ce4bgk12rcd13ifvqbi0","pricing_plan_id":"cebpf4jnsgd1na2vs0mg"},{"bike_id":"5004519a-eca4-4739-9620-0c1d565549c1","system_id":"levelo_inurba_marseille","lat":43.23055,"lon":5.35495,"is_reserved":false,"is_disabled":false,"rental_uris":{"android":"levelo://app?vid=5004519a-eca4-4739-9620-0c1d565549c1","ios":"levelo://app?vid=5004519a-eca4-4739-9620-0c1d565549c1"},"vehicle_type_id":"4","last_reported":1729903425,"current_range_meters":18000,"station_id":"cpo3342slgdg3j2ifvpg","pricing_plan_id":"cebpf4jnsgd1na2vs0mg"},{"bike_id":"9488ca84-aa5e-4311-bde9-38d634703444","system_id":"levelo_inurba_marseille","lat":43.32482,"lon":5.36558,"is_reserved":false,"is_disabled":false,"rental_uris":{"android":"levelo://app?vid=9488ca84-aa5e-4311-bde9-38d634703444","ios":"levelo://app?vid=9488ca84-aa5e-4311-bde9-38d634703444"},"vehicle_type_id":"4","last_reported":1729903425,"current_range_meters":36400,"station_id":"ce4bhs12rcd13ifvqhvg","pricing_plan_id":"cebpf4jnsgd1na2vs0mg"},{"bike_id":"db34918a-7907-4f64-b210-203667d3bbe6","system_id":"levelo_inurba_marseille","lat":43.30094,"lon":5.39089,"is_reserved":false,"is_disabled":false,"rental_uris":{"android":"levelo://app?vid=db34918a-7907-4f64-b210-203667d3bbe6","ios":"levelo://app?vid=db34918a-7907-4f64-b210-203667d3bbe6"},"vehicle_type_id":"4","last_reported":1729903425,"current_range_meters":37600,"station_id":"ce4bh192rcd13ifvqdb0","pricing_plan_id":"cebpf4jnsgd1na2vs0mg"},{"bike_id":"59505185-eab3-4cf7-8f8a-97c761a74191","system_id":"levelo_inurba_marseille","lat":43.24807,"lon":5.3746,"is_reserved":false,"is_disabled":false,"rental_uris":{"android":"levelo://app?vid=59505185-eab3-4cf7-8f8a-97c761a74191","ios":"levelo://app?vid=59505185-eab3-4cf7-8f8a-97c761a74191"},"vehicle_type_id":"4","last_reported":1729903425,"current_range_meters":36400,"station_id":"ce4bhgh2rcd13ifvqfb0","pricing_plan_id":"cebpf4jnsgd1na2vs0mg"},{"bike_id":"3c5ddb2f-20a7-4146-ac62-db8b76c8aa3c","system_id":"levelo_inurba_marseille","lat":43.26806,"lon":5.40264,"is_reserved":false,"is_disabled":false,"rental_uris":{"android":"levelo://app?vid=3c5ddb2f-20a7-4146-ac62-db8b76c8aa3c","ios":"levelo://app?vid=3c5ddb2f-20a7-4146-ac62-db8b76c8aa3c"},"vehicle_type_id":"4","last_reported":1729903425,"current_range_meters":30000,"station_id":"ce501612rcd8frsf0b60","pricing_plan_id":"cebpf4jnsgd1na2vs0mg"},{"bike_id":"19842355-7deb-4315-b718-98ced67fcc85","system_id":"levelo_inurba_marseille","lat":43.30419,"lon":5.39763,"is_reserved":false,"is_disabled":false,"rental_uris":{"android":"levelo://app?vid=19842355-7deb-4315-b718-98ced67fcc85","ios":"levelo://app?vid=19842355-7deb-4315-b718-98ced67fcc85"},"vehicle_type_id":"4","last_reported":1729903425,"current_range_meters":37600,"station_id":"ce4bh092rcd13ifvqd20","pricing_plan_id":"cebpf4jnsgd1na2vs0mg"},{"bike_id":"cfea328f-6487-4312-bb87-23b7c566f96d","system_id":"levelo_inurba_marseille","lat":43.27987,"lon":5.41664,"is_reserved":false,"is_disabled":false,"rental_uris":{"android":"levelo://app?vid=cfea328f-6487-4312-bb87-23b7c566f96d","ios":"levelo://app?vid=cfea328f-6487-4312-bb87-23b7c566f96d"},"vehicle_type_id":"4","last_reported":1729903425,"current_range_meters":21600,"station_id":"ce4bho12rcd13ifvqh1g","pricing_plan_id":"cebpf4jnsgd1na2vs0mg"},{"bike_id":"b4930aef-1e61-4824-8bc4-f63f1ec0274f","system_id":"levelo_inurba_marseille","lat":43.30601,"lon":5.37225,"is_reserved":false,"is_disabled":false,"rental_uris":{"android":"levelo://app?vid=b4930aef-1e61-4824-8bc4-f63f1ec0274f","ios":"levelo://app?vid=b4930aef-1e61-4824-8bc4-f63f1ec0274f"},"vehicle_type_id":"4","last_reported":1729903425,"current_range_meters":36400,"station_id":"ce4bgqh2rcd13ifvqc4g","pricing_plan_id":"cebpf4jnsgd1na2vs0mg"},{"bike_id":"a5c10523-9e0d-428e-859e-d6234f3b6b9f","system_id":"levelo_inurba_marseille","lat":43.29807,"lon":5.40401,"is_reserved":false,"is_disabled":false,"rental_uris":{"android":"levelo://app?vid=a5c10523-9e0d-428e-859e-d6234f3b6b9f","ios":"levelo://app?vid=a5c10523-9e0d-428e-859e-d6234f3b6b9f"},"vehicle_type_id":"4","last_reported":1729903425,"current_range_meters":26000,"station_id":"ce4bh112rcd13ifvqd90","pricing_plan_id":"cebpf4jnsgd1na2vs0mg"},{"bike_id":"601916c5-3274-4e01-863c-d96df39ce3b1","system_id":"levelo_inurba_marseille","lat":43.26562,"lon":5.39003,"is_reserved":false,"is_disabled":false,"rental_uris":{"android":"levelo://app?vid=601916c5-3274-4e01-863c-d96df39ce3b1","ios":"levelo://app?vid=601916c5-3274-4e01-863c-d96df39ce3b1"},"vehicle_type_id":"4","last_reported":1729903425,"current_range_meters":38000,"station_id":"ce4bhe12rcd13ifvqf30","pricing_plan_id":"cebpf4jnsgd1na2vs0mg"},{"bike_id":"984e63ce-1eef-4c39-9bbb-805e5d521fd4","system_id":"levelo_inurba_marseille","lat":43.279405,"lon":5.410437,"is_reserved":false,"is_disabled":false,"rental_uris":{"android":"levelo://app?vid=984e63ce-1eef-4c39-9bbb-805e5d521fd4","ios":"levelo://app?vid=984e63ce-1eef-4c39-9bbb-805e5d521fd4"},"vehicle_type_id":"4","last_reported":1729903425,"current_range_meters":28400,"station_id":"ce4bhnp2rcd13ifvqh0g","pricing_plan_id":"cebpf4jnsgd1na2vs0mg"},{"bike_id":"4d94334a-643e-4bf1-b359-91bb8e088c4f","system_id":"levelo_inurba_marseille","lat":43.27422,"lon":5.39418,"is_reserved":false,"is_disabled":false,"rental_uris":{"android":"levelo://app?vid=4d94334a-643e-4bf1-b359-91bb8e088c4f","ios":"levelo://app?vid=4d94334a-643e-4bf1-b359-91bb8e088c4f"},"vehicle_type_id":"4","last_reported":1729903425,"current_range_meters":22800,"station_id":"ce4bhdp2rcd13ifvqf20","pricing_plan_id":"cebpf4jnsgd1na2vs0mg"},{"bike_id":"dc72e49c-b26a-401b-87fe-367cb03380d0","system_id":"levelo_inurba_marseille","lat":43.28081,"lon":5.39651,"is_reserved":false,"is_disabled":false,"rental_uris":{"android":"levelo://app?vid=dc72e49c-b26a-401b-87fe-367cb03380d0","ios":"levelo://app?vid=dc72e49c-b26a-401b-87fe-367cb03380d0"},"vehicle_type_id":"4","last_reported":1729903425,"current_range_meters":20400,"station_id":"ce4bho12rcd13ifvqh2g","pricing_plan_id":"cebpf4jnsgd1na2vs0mg"},{"bike_id":"1fafbe93-2ba4-4077-bfcf-7b3992b30a25","system_id":"levelo_inurba_marseille","lat":43.29557,"lon":5.4229,"is_reserved":false,"is_disabled":false,"rental_uris":{"android":"levelo://app?vid=1fafbe93-2ba4-4077-bfcf-7b3992b30a25","ios":"levelo://app?vid=1fafbe93-2ba4-4077-bfcf-7b3992b30a25"},"vehicle_type_id":"4","last_reported":1729903425,"current_range_meters":39200,"station_id":"ce4bhph2rcd13ifvqhdg","pricing_plan_id":"cebpf4jnsgd1na2vs0mg"},{"bike_id":"7b9bb9f6-2747-4f5c-a936-06f552492e45","system_id":"levelo_inurba_marseille","lat":43.31726,"lon":5.42405,"is_reserved":false,"is_disabled":false,"rental_uris":{"android":"levelo://app?vid=7b9bb9f6-2747-4f5c-a936-06f552492e45","ios":"levelo://app?vid=7b9bb9f6-2747-4f5c-a936-06f552492e45"},"vehicle_type_id":"4","last_reported":1729903425,"current_range_meters":37600,"station_id":"ce4bhp92rcd13ifvqhbg","pricing_plan_id":"cebpf4jnsgd1na2vs0mg"},{"bike_id":"7bd06b76-a288-4c9d-a4d6-fa61eae36916","system_id":"levelo_inurba_marseille","lat":43.30922,"lon":5.40145,"is_reserved":false,"is_disabled":false,"rental_uris":{"android":"levelo://app?vid=7bd06b76-a288-4c9d-a4d6-fa61eae36916","ios":"levelo://app?vid=7bd06b76-a288-4c9d-a4d6-fa61eae36916"},"vehicle_type_id":"4","last_reported":1729903425,"current_range_meters":37600,"station_id":"ce4bgvp2rcd13ifvqct0","pricing_plan_id":"cebpf4jnsgd1na2vs0mg"},{"bike_id":"a6a5412d-25cc-4ab7-8978-8b51410244f5","system_id":"levelo_inurba_marseille","lat":43.27919,"lon":5.39582,"is_reserved":false,"is_disabled":false,"rental_uris":{"android":"levelo://app?vid=a6a5412d-25cc-4ab7-8978-8b51410244f5","ios":"levelo://app?vid=a6a5412d-25cc-4ab7-8978-8b51410244f5"},"vehicle_type_id":"4","last_reported":1729903425,"current_range_meters":27200,"station_id":"ce4bhf92rcd13ifvqf40","pricing_plan_id":"cebpf4jnsgd1na2vs0mg"},{"bike_id":"8a55373d-8f54-4890-9729-5db301ba9fa0","system_id":"levelo_inurba_marseille","lat":43.25003,"lon":5.38916,"is_reserved":false,"is_disabled":false,"rental_uris":{"android":"levelo://app?vid=8a55373d-8f54-4890-9729-5db301ba9fa0","ios":"levelo://app?vid=8a55373d-8f54-4890-9729-5db301ba9fa0"},"vehicle_type_id":"4","last_reported":1729903425,"current_range_meters":38800,"station_id":"ce4bhgp2rcd13ifvqfd0","pricing_plan_id":"cebpf4jnsgd1na2vs0mg"},{"bike_id":"b1e65eb1-5ea7-4ef4-9535-714de92c2353","system_id":"levelo_inurba_marseille","lat":43.29248,"lon":5.40911,"is_reserved":false,"is_disabled":false,"rental_uris":{"android":"levelo://app?vid=b1e65eb1-5ea7-4ef4-9535-714de92c2353","ios":"levelo://app?vid=b1e65eb1-5ea7-4ef4-9535-714de92c2353"},"vehicle_type_id":"4","last_reported":1729903425,"current_range_meters":23200,"station_id":"ce4bh192rcd13ifvqdc0","pricing_plan_id":"cebpf4jnsgd1na2vs0mg"},{"bike_id":"89316ac8-d5cc-4a4a-8f21-31addc19f7a0","system_id":"levelo_inurba_marseille","lat":43.29037,"lon":5.39968,"is_reserved":false,"is_disabled":false,"rental_uris":{"android":"levelo://app?vid=89316ac8-d5cc-4a4a-8f21-31addc19f7a0","ios":"levelo://app?vid=89316ac8-d5cc-4a4a-8f21-31addc19f7a0"},"vehicle_type_id":"4","last_reported":1729903425,"current_range_meters":38000,"station_id":"ce4bh392rcd13ifvqdm0","pricing_plan_id":"cebpf4jnsgd1na2vs0mg"},{"bike_id":"afa23e77-e665-4a1b-ab37-fab2d23ab01e","system_id":"levelo_inurba_marseille","lat":43.295733,"lon":5.399762,"is_reserved":false,"is_disabled":false,"rental_uris":{"android":"levelo://app?vid=afa23e77-e665-4a1b-ab37-fab2d23ab01e","ios":"levelo://app?vid=afa23e77-e665-4a1b-ab37-fab2d23ab01e"},"vehicle_type_id":"4","last_reported":1729903425,"current_range_meters":38400,"station_id":"ce4bh312rcd13ifvqdj0","pricing_plan_id":"cebpf4jnsgd1na2vs0mg"},{"bike_id":"2419ef05-7e67-41c4-b57d-69bea9f77492","system_id":"levelo_inurba_marseille","lat":43.29903,"lon":5.37478,"is_reserved":false,"is_disabled":false,"rental_uris":{"android":"levelo://app?vid=2419ef05-7e67-41c4-b57d-69bea9f77492","ios":"levelo://app?vid=2419ef05-7e67-41c4-b57d-69bea9f77492"},"vehicle_type_id":"4","last_reported":1729903425,"current_range_meters":6400,"station_id":"ce4bgjh2rcd13ifvqbg0","pricing_plan_id":"cebpf4jnsgd1na2vs0mg"},{"bike_id":"f8c112c1-ce5c-4900-bc07-e4dd36cd6c03","system_id":"levelo_inurba_marseille","lat":43.31081,"lon":5.42432,"is_reserved":false,"is_disabled":false,"rental_uris":{"android":"levelo://app?vid=f8c112c1-ce5c-4900-bc07-e4dd36cd6c03","ios":"levelo://app?vid=f8c112c1-ce5c-4900-bc07-e4dd36cd6c03"},"vehicle_type_id":"4","last_reported":1729903425,"current_range_meters":38800,"station_id":"ce4bhp92rcd13ifvqhag","pricing_plan_id":"cebpf4jnsgd1na2vs0mg"},{"bike_id":"b1868a13-7208-439c-aa83-ff794adf1a87","system_id":"levelo_inurba_marseille","lat":43.2656,"lon":5.37288,"is_reserved":false,"is_disabled":false,"rental_uris":{"android":"levelo://app?vid=b1868a13-7208-439c-aa83-ff794adf1a87","ios":"levelo://app?vid=b1868a13-7208-439c-aa83-ff794adf1a87"},"vehicle_type_id":"4","last_reported":1729903425,"current_range_meters":33600,"station_id":"ce4bhg12rcd13ifvqf70","pricing_plan_id":"cebpf4jnsgd1na2vs0mg"},{"bike_id":"5b1d1827-f9aa-4cf9-bf3d-7f0214d518b2","system_id":"levelo_inurba_marseille","lat":43.28466,"lon":5.38415,"is_reserved":false,"is_disabled":false,"rental_uris":{"android":"levelo://app?vid=5b1d1827-f9aa-4cf9-bf3d-7f0214d518b2","ios":"levelo://app?vid=5b1d1827-f9aa-4cf9-bf3d-7f0214d518b2"},"vehicle_type_id":"4","last_reported":1729903425,"current_range_meters":16000,"station_id":"ce4bh512rcd13ifvqe3g","pricing_plan_id":"cebpf4jnsgd1na2vs0mg"},{"bike_id":"5637d737-cee0-49b3-a5f5-cbb922172331","system_id":"levelo_inurba_marseille","lat":43.28034,"lon":5.36943,"is_reserved":false,"is_disabled":false,"rental_uris":{"android":"levelo://app?vid=5637d737-cee0-49b3-a5f5-cbb922172331","ios":"levelo://app?vid=5637d737-cee0-49b3-a5f5-cbb922172331"},"vehicle_type_id":"4","last_reported":1729903425,"current_range_meters":25600,"station_id":"ce4bha12rcd13ifvqef0","pricing_plan_id":"cebpf4jnsgd1na2vs0mg"},{"bike_id":"25f4d08b-c18e-43b3-a718-4e720f73e699","system_id":"levelo_inurba_marseille","lat":43.24663,"lon":5.38161,"is_reserved":false,"is_disabled":false,"rental_uris":{"android":"levelo://app?vid=25f4d08b-c18e-43b3-a718-4e720f73e699","ios":"levelo://app?vid=25f4d08b-c18e-43b3-a718-4e720f73e699"},"vehicle_type_id":"4","last_reported":1729903425,"current_range_meters":18000,"station_id":"ce4bhih2rcd13ifvqfr0","pricing_plan_id":"cebpf4jnsgd1na2vs0mg"},{"bike_id":"79e08287-a5bd-4f7d-8d11-293e54e91432","system_id":"levelo_inurba_marseille","lat":43.28666,"lon":5.36351,"is_reserved":false,"is_disabled":false,"rental_uris":{"android":"levelo://app?vid=79e08287-a5bd-4f7d-8d11-293e54e91432","ios":"levelo://app?vid=79e08287-a5bd-4f7d-8d11-293e54e91432"},"vehicle_type_id":"4","last_reported":1729903425,"current_range_meters":38800,"station_id":"ce4bhah2rcd13ifvqej0","pricing_plan_id":"cebpf4jnsgd1na2vs0mg"},{"bike_id":"35c61cd2-9197-48d2-8665-7c960a8052f0","system_id":"levelo_inurba_marseille","lat":43.25576,"lon":5.3825,"is_reserved":false,"is_disabled":false,"rental_uris":{"android":"levelo://app?vid=35c61cd2-9197-48d2-8665-7c960a8052f0","ios":"levelo://app?vid=35c61cd2-9197-48d2-8665-7c960a8052f0"},"vehicle_type_id":"4","last_reported":1729903425,"current_range_meters":32800,"station_id":"ce4bhih2rcd13ifvqfs0","pricing_plan_id":"cebpf4jnsgd1na2vs0mg"},{"bike_id":"704ff70b-3044-4cc0-a1b3-72bc6b15acdb","system_id":"levelo_inurba_marseille","lat":43.28486,"lon":5.38544,"is_reserved":false,"is_disabled":false,"rental_uris":{"android":"levelo://app?vid=704ff70b-3044-4cc0-a1b3-72bc6b15acdb","ios":"levelo://app?vid=704ff70b-3044-4cc0-a1b3-72bc6b15acdb"},"vehicle_type_id":"4","last_reported":1729903425,"current_range_meters":38800,"station_id":"ce4bh8p2rcd13ifvqeb0","pricing_plan_id":"cebpf4jnsgd1na2vs0mg"},{"bike_id":"79c7ebe1-7a54-4b93-b68a-abae41a12b29","system_id":"levelo_inurba_marseille","lat":43.25009,"lon":5.38919,"is_reserved":false,"is_disabled":false,"rental_uris":{"android":"levelo://app?vid=79c7ebe1-7a54-4b93-b68a-abae41a12b29","ios":"levelo://app?vid=79c7ebe1-7a54-4b93-b68a-abae41a12b29"},"vehicle_type_id":"4","last_reported":1729903425,"current_range_meters":38400,"station_id":"ce4bhgp2rcd13ifvqfd0","pricing_plan_id":"cebpf4jnsgd1na2vs0mg"},{"bike_id":"a8ab7e04-b03c-4a20-9a08-1b69124a069d","system_id":"levelo_inurba_marseille","lat":43.29878,"lon":5.38906,"is_reserved":false,"is_disabled":false,"rental_uris":{"android":"levelo://app?vid=a8ab7e04-b03c-4a20-9a08-1b69124a069d","ios":"levelo://app?vid=a8ab7e04-b03c-4a20-9a08-1b69124a069d"},"vehicle_type_id":"4","last_reported":1729903425,"current_range_meters":22800,"station_id":"ce4bh392rcd13ifvqdl0","pricing_plan_id":"cebpf4jnsgd1na2vs0mg"},{"bike_id":"5e840611-e92f-421a-a7b9-a27075e76721","system_id":"levelo_inurba_marseille","lat":43.27915,"lon":5.39585,"is_reserved":false,"is_disabled":false,"rental_uris":{"android":"levelo://app?vid=5e840611-e92f-421a-a7b9-a27075e76721","ios":"levelo://app?vid=5e840611-e92f-421a-a7b9-a27075e76721"},"vehicle_type_id":"4","last_reported":1729903425,"current_range_meters":29600,"station_id":"ce4bhf92rcd13ifvqf40","pricing_plan_id":"cebpf4jnsgd1na2vs0mg"},{"bike_id":"763f5dbb-276a-40ae-aed0-f11835e3b041","system_id":"levelo_inurba_marseille","lat":43.22933,"lon":5.35386,"is_reserved":false,"is_disabled":false,"rental_uris":{"android":"levelo://app?vid=763f5dbb-276a-40ae-aed0-f11835e3b041","ios":"levelo://app?vid=763f5dbb-276a-40ae-aed0-f11835e3b041"},"vehicle_type_id":"4","last_reported":1729903425,"current_range_meters":25200,"station_id":"cpo3532slgdg3j2ikp40","pricing_plan_id":"cebpf4jnsgd1na2vs0mg"},{"bike_id":"0e9ef244-19d1-45ac-abf8-e0aac227ebeb","system_id":"levelo_inurba_marseille","lat":43.31116,"lon":5.37768,"is_reserved":false,"is_disabled":false,"rental_uris":{"android":"levelo://app?vid=0e9ef244-19d1-45ac-abf8-e0aac227ebeb","ios":"levelo://app?vid=0e9ef244-19d1-45ac-abf8-e0aac227ebeb"},"vehicle_type_id":"4","last_reported":1729903425,"current_range_meters":26800,"station_id":"ce4bgt92rcd13ifvqcg0","pricing_plan_id":"cebpf4jnsgd1na2vs0mg"},{"bike_id":"a4cdb9e2-dcee-478e-b833-1e72009d3ae3","system_id":"levelo_inurba_marseille","lat":43.30411,"lon":5.41283,"is_reserved":false,"is_disabled":false,"rental_uris":{"android":"levelo://app?vid=a4cdb9e2-dcee-478e-b833-1e72009d3ae3","ios":"levelo://app?vid=a4cdb9e2-dcee-478e-b833-1e72009d3ae3"},"vehicle_type_id":"4","last_reported":1729903425,"current_range_meters":8000,"station_id":"ce4bhop2rcd13ifvqh8g","pricing_plan_id":"cebpf4jnsgd1na2vs0mg"},{"bike_id":"e1ccd76e-2e57-40bf-9d19-91efe5b51e12","system_id":"levelo_inurba_marseille","lat":43.27955,"lon":5.38713,"is_reserved":false,"is_disabled":false,"rental_uris":{"android":"levelo://app?vid=e1ccd76e-2e57-40bf-9d19-91efe5b51e12","ios":"levelo://app?vid=e1ccd76e-2e57-40bf-9d19-91efe5b51e12"},"vehicle_type_id":"4","last_reported":1729903425,"current_range_meters":28400,"station_id":"ce4bhg12rcd13ifvqf80","pricing_plan_id":"cebpf4jnsgd1na2vs0mg"},{"bike_id":"ff525f11-b341-4978-9c79-b7653983bb50","system_id":"levelo_inurba_marseille","lat":43.29706,"lon":5.36613,"is_reserved":false,"is_disabled":false,"rental_uris":{"android":"levelo://app?vid=ff525f11-b341-4978-9c79-b7653983bb50","ios":"levelo://app?vid=ff525f11-b341-4978-9c79-b7653983bb50"},"vehicle_type_id":"4","last_reported":1729903425,"current_range_meters":16000,"station_id":"ce4bgn12rcd13ifvqbt0","pricing_plan_id":"cebpf4jnsgd1na2vs0mg"},{"bike_id":"d7ff7165-6d5c-4f76-865c-b2ea1a2a3c7a","system_id":"levelo_inurba_marseille","lat":43.27497,"lon":5.42452,"is_reserved":false,"is_disabled":false,"rental_uris":{"android":"levelo://app?vid=d7ff7165-6d5c-4f76-865c-b2ea1a2a3c7a","ios":"levelo://app?vid=d7ff7165-6d5c-4f76-865c-b2ea1a2a3c7a"},"vehicle_type_id":"4","last_reported":1729903425,"current_range_meters":14400,"station_id":"ce4bhn92rcd13ifvqgrg","pricing_plan_id":"cebpf4jnsgd1na2vs0mg"},{"bike_id":"34feaba3-ab33-468f-92b0-3a6e95672a78","system_id":"levelo_inurba_marseille","lat":43.27825,"lon":5.39208,"is_reserved":false,"is_disabled":false,"rental_uris":{"android":"levelo://app?vid=34feaba3-ab33-468f-92b0-3a6e95672a78","ios":"levelo://app?vid=34feaba3-ab33-468f-92b0-3a6e95672a78"},"vehicle_type_id":"4","last_reported":1729903425,"current_range_meters":32400,"station_id":"ce4bhjp2rcd13ifvqga0","pricing_plan_id":"cebpf4jnsgd1na2vs0mg"},{"bike_id":"dd5a3ad0-b572-488a-a296-aa191645cb55","system_id":"levelo_inurba_marseille","lat":43.28703,"lon":5.39982,"is_reserved":false,"is_disabled":false,"rental_uris":{"android":"levelo://app?vid=dd5a3ad0-b572-488a-a296-aa191645cb55","ios":"levelo://app?vid=dd5a3ad0-b572-488a-a296-aa191645cb55"},"vehicle_type_id":"4","last_reported":1729903425,"current_range_meters":24800,"station_id":"ce4bho92rcd13ifvqh3g","pricing_plan_id":"cebpf4jnsgd1na2vs0mg"},{"bike_id":"6e741f56-2372-478e-abd8-56fec2a720be","system_id":"levelo_inurba_marseille","lat":43.30934,"lon":5.40147,"is_reserved":false,"is_disabled":false,"rental_uris":{"android":"levelo://app?vid=6e741f56-2372-478e-abd8-56fec2a720be","ios":"levelo://app?vid=6e741f56-2372-478e-abd8-56fec2a720be"},"vehicle_type_id":"4","last_reported":1729903425,"current_range_meters":36400,"station_id":"ce4bgvp2rcd13ifvqct0","pricing_plan_id":"cebpf4jnsgd1na2vs0mg"},{"bike_id":"8001b44d-9ab0-46f5-80ea-c34d9f92effc","system_id":"levelo_inurba_marseille","lat":43.26942,"lon":5.40253,"is_reserved":false,"is_disabled":false,"rental_uris":{"android":"levelo://app?vid=8001b44d-9ab0-46f5-80ea-c34d9f92effc","ios":"levelo://app?vid=8001b44d-9ab0-46f5-80ea-c34d9f92effc"},"vehicle_type_id":"4","last_reported":1729903425,"current_range_meters":39200,"station_id":"cjm6bp8fraef2m0cb0m0","pricing_plan_id":"cebpf4jnsgd1na2vs0mg"},{"bike_id":"dbf22486-50b5-4519-9968-932eec589f87","system_id":"levelo_inurba_marseille","lat":43.281,"lon":5.3784,"is_reserved":false,"is_disabled":false,"rental_uris":{"android":"levelo://app?vid=dbf22486-50b5-4519-9968-932eec589f87","ios":"levelo://app?vid=dbf22486-50b5-4519-9968-932eec589f87"},"vehicle_type_id":"4","last_reported":1729903425,"current_range_meters":38000,"station_id":"ce4bha12rcd13ifvqee0","pricing_plan_id":"cebpf4jnsgd1na2vs0mg"},{"bike_id":"df0e2338-b040-448c-b163-ee68aff3e832","system_id":"levelo_inurba_marseille","lat":43.25819,"lon":5.39431,"is_reserved":false,"is_disabled":false,"rental_uris":{"android":"levelo://app?vid=df0e2338-b040-448c-b163-ee68aff3e832","ios":"levelo://app?vid=df0e2338-b040-448c-b163-ee68aff3e832"},"vehicle_type_id":"4","last_reported":1729903425,"current_range_meters":38800,"station_id":"ce4bhip2rcd13ifvqft0","pricing_plan_id":"cebpf4jnsgd1na2vs0mg"},{"bike_id":"28c3e1e4-e1b5-4e9c-b493-956ac9bd0c5f","system_id":"levelo_inurba_marseille","lat":43.28273,"lon":5.35066,"is_reserved":false,"is_disabled":false,"rental_uris":{"android":"levelo://app?vid=28c3e1e4-e1b5-4e9c-b493-956ac9bd0c5f","ios":"levelo://app?vid=28c3e1e4-e1b5-4e9c-b493-956ac9bd0c5f"},"vehicle_type_id":"4","last_reported":1729903425,"current_range_meters":25600,"station_id":"ce4bhbp2rcd13ifvqerg","pricing_plan_id":"cebpf4jnsgd1na2vs0mg"},{"bike_id":"48c23bc6-39da-469f-abae-008bbb890b3e","system_id":"levelo_inurba_marseille","lat":43.31487,"lon":5.37308,"is_reserved":false,"is_disabled":false,"rental_uris":{"android":"levelo://app?vid=48c23bc6-39da-469f-abae-008bbb890b3e","ios":"levelo://app?vid=48c23bc6-39da-469f-abae-008bbb890b3e"},"vehicle_type_id":"4","last_reported":1729903425,"current_range_meters":26800,"station_id":"ce4bgt12rcd13ifvqcd0","pricing_plan_id":"cebpf4jnsgd1na2vs0mg"},{"bike_id":"d4aec44f-ddca-4104-91b2-0d4ceaa50166","system_id":"levelo_inurba_marseille","lat":43.28079,"lon":5.39652,"is_reserved":false,"is_disabled":false,"rental_uris":{"android":"levelo://app?vid=d4aec44f-ddca-4104-91b2-0d4ceaa50166","ios":"levelo://app?vid=d4aec44f-ddca-4104-91b2-0d4ceaa50166"},"vehicle_type_id":"4","last_reported":1729903425,"current_range_meters":38800,"station_id":"ce4bho12rcd13ifvqh2g","pricing_plan_id":"cebpf4jnsgd1na2vs0mg"},{"bike_id":"3d52c75e-21c8-425b-a6d2-0cf7c2a167ed","system_id":"levelo_inurba_marseille","lat":43.28632,"lon":5.40775,"is_reserved":false,"is_disabled":false,"rental_uris":{"android":"levelo://app?vid=3d52c75e-21c8-425b-a6d2-0cf7c2a167ed","ios":"levelo://app?vid=3d52c75e-21c8-425b-a6d2-0cf7c2a167ed"},"vehicle_type_id":"4","last_reported":1729903425,"current_range_meters":11600,"station_id":"","pricing_plan_id":"cebpf4jnsgd1na2vs0mg"},{"bike_id":"f9dd0103-b045-4d3e-97f0-feaf4a2d3923","system_id":"levelo_inurba_marseille","lat":43.25003,"lon":5.38911,"is_reserved":false,"is_disabled":false,"rental_uris":{"android":"levelo://app?vid=f9dd0103-b045-4d3e-97f0-feaf4a2d3923","ios":"levelo://app?vid=f9dd0103-b045-4d3e-97f0-feaf4a2d3923"},"vehicle_type_id":"4","last_reported":1729903425,"current_range_meters":11600,"station_id":"ce4bhgp2rcd13ifvqfd0","pricing_plan_id":"cebpf4jnsgd1na2vs0mg"},{"bike_id":"225be540-bd75-4636-8a6a-362c5613f52a","system_id":"levelo_inurba_marseille","lat":43.27918,"lon":5.39583,"is_reserved":false,"is_disabled":false,"rental_uris":{"android":"levelo://app?vid=225be540-bd75-4636-8a6a-362c5613f52a","ios":"levelo://app?vid=225be540-bd75-4636-8a6a-362c5613f52a"},"vehicle_type_id":"4","last_reported":1729903425,"current_range_meters":19600,"station_id":"ce4bhf92rcd13ifvqf40","pricing_plan_id":"cebpf4jnsgd1na2vs0mg"},{"bike_id":"45762a51-15f0-4a01-8913-533a2ec0e59b","system_id":"levelo_inurba_marseille","lat":43.31082,"lon":5.42434,"is_reserved":false,"is_disabled":false,"rental_uris":{"android":"levelo://app?vid=45762a51-15f0-4a01-8913-533a2ec0e59b","ios":"levelo://app?vid=45762a51-15f0-4a01-8913-533a2ec0e59b"},"vehicle_type_id":"4","last_reported":1729903425,"current_range_meters":35600,"station_id":"ce4bhp92rcd13ifvqhag","pricing_plan_id":"cebpf4jnsgd1na2vs0mg"},{"bike_id":"0e73c01f-f920-4de5-b91d-072800f63acd","system_id":"levelo_inurba_marseille","lat":43.29784,"lon":5.37097,"is_reserved":false,"is_disabled":false,"rental_uris":{"android":"levelo://app?vid=0e73c01f-f920-4de5-b91d-072800f63acd","ios":"levelo://app?vid=0e73c01f-f920-4de5-b91d-072800f63acd"},"vehicle_type_id":"4","last_reported":1729903425,"current_range_meters":38000,"station_id":"ce4bgop2rcd13ifvqc1g","pricing_plan_id":"cebpf4jnsgd1na2vs0mg"},{"bike_id":"82250e14-e2bb-45c2-968b-c92f4d251f74","system_id":"levelo_inurba_marseille","lat":43.30884,"lon":5.39641,"is_reserved":false,"is_disabled":false,"rental_uris":{"android":"levelo://app?vid=82250e14-e2bb-45c2-968b-c92f4d251f74","ios":"levelo://app?vid=82250e14-e2bb-45c2-968b-c92f4d251f74"},"vehicle_type_id":"4","last_reported":1729903425,"current_range_meters":36000,"station_id":"ce4bh012rcd13ifvqcv0","pricing_plan_id":"cebpf4jnsgd1na2vs0mg"},{"bike_id":"f421c4bf-57fd-4999-8b5f-022f8ccbc780","system_id":"levelo_inurba_marseille","lat":43.28105,"lon":5.37842,"is_reserved":false,"is_disabled":false,"rental_uris":{"android":"levelo://app?vid=f421c4bf-57fd-4999-8b5f-022f8ccbc780","ios":"levelo://app?vid=f421c4bf-57fd-4999-8b5f-022f8ccbc780"},"vehicle_type_id":"4","last_reported":1729903425,"current_range_meters":7200,"station_id":"ce4bha12rcd13ifvqee0","pricing_plan_id":"cebpf4jnsgd1na2vs0mg"},{"bike_id":"5c6fc753-9f83-4903-9415-114b4e291efe","system_id":"levelo_inurba_marseille","lat":43.29867,"lon":5.39738,"is_reserved":false,"is_disabled":false,"rental_uris":{"android":"levelo://app?vid=5c6fc753-9f83-4903-9415-114b4e291efe","ios":"levelo://app?vid=5c6fc753-9f83-4903-9415-114b4e291efe"},"vehicle_type_id":"4","last_reported":1729903425,"current_range_meters":21600,"station_id":"ce4bh0h2rcd13ifvqd50","pricing_plan_id":"cebpf4jnsgd1na2vs0mg"},{"bike_id":"9710488d-6aae-4f66-a1e4-52e8e4c71cf2","system_id":"levelo_inurba_marseille","lat":43.32365,"lon":5.38878,"is_reserved":false,"is_disabled":false,"rental_uris":{"android":"levelo://app?vid=9710488d-6aae-4f66-a1e4-52e8e4c71cf2","ios":"levelo://app?vid=9710488d-6aae-4f66-a1e4-52e8e4c71cf2"},"vehicle_type_id":"4","last_reported":1729903425,"current_range_meters":11600,"station_id":"ce4bhqp2rcd13ifvqhog","pricing_plan_id":"cebpf4jnsgd1na2vs0mg"},{"bike_id":"f2c75ef3-8b59-406f-8b72-f6f25124fcba","system_id":"levelo_inurba_marseille","lat":43.28572,"lon":5.39507,"is_reserved":false,"is_disabled":false,"rental_uris":{"android":"levelo://app?vid=f2c75ef3-8b59-406f-8b72-f6f25124fcba","ios":"levelo://app?vid=f2c75ef3-8b59-406f-8b72-f6f25124fcba"},"vehicle_type_id":"4","last_reported":1729903425,"current_range_meters":34000,"station_id":"ce4bh292rcd13ifvqdg0","pricing_plan_id":"cebpf4jnsgd1na2vs0mg"},{"bike_id":"02f22de0-43a3-419b-ab86-64ec1edb08c8","system_id":"levelo_inurba_marseille","lat":43.31331,"lon":5.39691,"is_reserved":false,"is_disabled":false,"rental_uris":{"android":"levelo://app?vid=02f22de0-43a3-419b-ab86-64ec1edb08c8","ios":"levelo://app?vid=02f22de0-43a3-419b-ab86-64ec1edb08c8"},"vehicle_type_id":"4","last_reported":1729903425,"current_range_meters":32800,"station_id":"ce4bgvp2rcd13ifvqcu0","pricing_plan_id":"cebpf4jnsgd1na2vs0mg"},{"bike_id":"5037e2e2-f258-48c6-a031-6f1a1dd240dc","system_id":"levelo_inurba_marseille","lat":43.30412,"lon":5.41294,"is_reserved":false,"is_disabled":false,"rental_uris":{"android":"levelo://app?vid=5037e2e2-f258-48c6-a031-6f1a1dd240dc","ios":"levelo://app?vid=5037e2e2-f258-48c6-a031-6f1a1dd240dc"},"vehicle_type_id":"4","last_reported":1729903425,"current_range_meters":30000,"station_id":"ce4bhop2rcd13ifvqh8g","pricing_plan_id":"cebpf4jnsgd1na2vs0mg"},{"bike_id":"6e655b33-042a-4dc3-aeb8-76814f29bb50","system_id":"levelo_inurba_marseille","lat":43.27812,"lon":5.40705,"is_reserved":false,"is_disabled":false,"rental_uris":{"android":"levelo://app?vid=6e655b33-042a-4dc3-aeb8-76814f29bb50","ios":"levelo://app?vid=6e655b33-042a-4dc3-aeb8-76814f29bb50"},"vehicle_type_id":"4","last_reported":1729903425,"current_range_meters":38800,"station_id":"ce4bhnh2rcd13ifvqgtg","pricing_plan_id":"cebpf4jnsgd1na2vs0mg"},{"bike_id":"5f2af7bc-264a-43e2-9197-e3220c4819fd","system_id":"levelo_inurba_marseille","lat":43.32421,"lon":5.369737,"is_reserved":false,"is_disabled":false,"rental_uris":{"android":"levelo://app?vid=5f2af7bc-264a-43e2-9197-e3220c4819fd","ios":"levelo://app?vid=5f2af7bc-264a-43e2-9197-e3220c4819fd"},"vehicle_type_id":"4","last_reported":1729903425,"current_range_meters":6000,"station_id":"","pricing_plan_id":"cebpf4jnsgd1na2vs0mg"},{"bike_id":"3601caff-2d90-416b-976e-17b7c0b24701","system_id":"levelo_inurba_marseille","lat":43.28455,"lon":5.35884,"is_reserved":false,"is_disabled":false,"rental_uris":{"android":"levelo://app?vid=3601caff-2d90-416b-976e-17b7c0b24701","ios":"levelo://app?vid=3601caff-2d90-416b-976e-17b7c0b24701"},"vehicle_type_id":"4","last_reported":1729903425,"current_range_meters":34800,"station_id":"ce4bhah2rcd13ifvqei0","pricing_plan_id":"cebpf4jnsgd1na2vs0mg"},{"bike_id":"7d588577-bc2a-4592-9242-f82e8e35c359","system_id":"levelo_inurba_marseille","lat":43.24806,"lon":5.37454,"is_reserved":false,"is_disabled":false,"rental_uris":{"android":"levelo://app?vid=7d588577-bc2a-4592-9242-f82e8e35c359","ios":"levelo://app?vid=7d588577-bc2a-4592-9242-f82e8e35c359"},"vehicle_type_id":"4","last_reported":1729903425,"current_range_meters":3200,"station_id":"ce4bhgh2rcd13ifvqfb0","pricing_plan_id":"cebpf4jnsgd1na2vs0mg"},{"bike_id":"e37957ed-f5f8-4cfe-a795-d93f2b341fe5","system_id":"levelo_inurba_marseille","lat":43.28445,"lon":5.39189,"is_reserved":false,"is_disabled":false,"rental_uris":{"android":"levelo://app?vid=e37957ed-f5f8-4cfe-a795-d93f2b341fe5","ios":"levelo://app?vid=e37957ed-f5f8-4cfe-a795-d93f2b341fe5"},"vehicle_type_id":"4","last_reported":1729903425,"current_range_meters":28800,"station_id":"ce4bhoh2rcd13ifvqh5g","pricing_plan_id":"cebpf4jnsgd1na2vs0mg"},{"bike_id":"801bde10-64b4-4b2e-8d19-3020dc5e6258","system_id":"levelo_inurba_marseille","lat":43.29295,"lon":5.3747,"is_reserved":false,"is_disabled":false,"rental_uris":{"android":"levelo://app?vid=801bde10-64b4-4b2e-8d19-3020dc5e6258","ios":"levelo://app?vid=801bde10-64b4-4b2e-8d19-3020dc5e6258"},"vehicle_type_id":"4","last_reported":1729903425,"current_range_meters":37600,"station_id":"ce4bgi12rcd13ifvqb70","pricing_plan_id":"cebpf4jnsgd1na2vs0mg"},{"bike_id":"4746fe8f-a6ef-4e1b-aaef-5a4b9fc83054","system_id":"levelo_inurba_marseille","lat":43.29901,"lon":5.43669,"is_reserved":false,"is_disabled":false,"rental_uris":{"android":"levelo://app?vid=4746fe8f-a6ef-4e1b-aaef-5a4b9fc83054","ios":"levelo://app?vid=4746fe8f-a6ef-4e1b-aaef-5a4b9fc83054"},"vehicle_type_id":"4","last_reported":1729903425,"current_range_meters":38800,"station_id":"ce4bhpp2rcd13ifvqhfg","pricing_plan_id":"cebpf4jnsgd1na2vs0mg"},{"bike_id":"4e638b58-5cf0-405e-95fe-39dbe3c5f18c","system_id":"levelo_inurba_marseille","lat":43.24655,"lon":5.38901,"is_reserved":false,"is_disabled":false,"rental_uris":{"android":"levelo://app?vid=4e638b58-5cf0-405e-95fe-39dbe3c5f18c","ios":"levelo://app?vid=4e638b58-5cf0-405e-95fe-39dbe3c5f18c"},"vehicle_type_id":"4","last_reported":1729903425,"current_range_meters":23200,"station_id":"ce4bhg12rcd13ifvqf60","pricing_plan_id":"cebpf4jnsgd1na2vs0mg"},{"bike_id":"386c6a7e-cd6c-4112-aa78-c50040cf1776","system_id":"levelo_inurba_marseille","lat":43.25085,"lon":5.3952,"is_reserved":false,"is_disabled":false,"rental_uris":{"android":"levelo://app?vid=386c6a7e-cd6c-4112-aa78-c50040cf1776","ios":"levelo://app?vid=386c6a7e-cd6c-4112-aa78-c50040cf1776"},"vehicle_type_id":"4","last_reported":1729903425,"current_range_meters":38000,"station_id":"ce4bhm12rcd13ifvqgkg","pricing_plan_id":"cebpf4jnsgd1na2vs0mg"},{"bike_id":"6f6794c9-8922-4f2d-b362-0060a734acdd","system_id":"levelo_inurba_marseille","lat":43.29567,"lon":5.3998,"is_reserved":false,"is_disabled":false,"rental_uris":{"android":"levelo://app?vid=6f6794c9-8922-4f2d-b362-0060a734acdd","ios":"levelo://app?vid=6f6794c9-8922-4f2d-b362-0060a734acdd"},"vehicle_type_id":"4","last_reported":1729903425,"current_range_meters":26800,"station_id":"ce4bh312rcd13ifvqdj0","pricing_plan_id":"cebpf4jnsgd1na2vs0mg"},{"bike_id":"2d6ae458-641c-4b25-8403-1aa6e9113023","system_id":"levelo_inurba_marseille","lat":43.29805,"lon":5.37136,"is_reserved":false,"is_disabled":false,"rental_uris":{"android":"levelo://app?vid=2d6ae458-641c-4b25-8403-1aa6e9113023","ios":"levelo://app?vid=2d6ae458-641c-4b25-8403-1aa6e9113023"},"vehicle_type_id":"4","last_reported":1729903425,"current_range_meters":26800,"station_id":"ce4bgop2rcd13ifvqc1g","pricing_plan_id":"cebpf4jnsgd1na2vs0mg"},{"bike_id":"d0637418-25a0-4407-98d1-47ab6883e34c","system_id":"levelo_inurba_marseille","lat":43.30144,"lon":5.37417,"is_reserved":false,"is_disabled":false,"rental_uris":{"android":"levelo://app?vid=d0637418-25a0-4407-98d1-47ab6883e34c","ios":"levelo://app?vid=d0637418-25a0-4407-98d1-47ab6883e34c"},"vehicle_type_id":"4","last_reported":1729903425,"current_range_meters":38800,"station_id":"ce4bgs92rcd13ifvqcc0","pricing_plan_id":"cebpf4jnsgd1na2vs0mg"},{"bike_id":"df9c8671-6383-46e2-af96-c49cea052fec","system_id":"levelo_inurba_marseille","lat":43.28437,"lon":5.39187,"is_reserved":false,"is_disabled":false,"rental_uris":{"android":"levelo://app?vid=df9c8671-6383-46e2-af96-c49cea052fec","ios":"levelo://app?vid=df9c8671-6383-46e2-af96-c49cea052fec"},"vehicle_type_id":"4","last_reported":1729903425,"current_range_meters":8000,"station_id":"ce4bhoh2rcd13ifvqh5g","pricing_plan_id":"cebpf4jnsgd1na2vs0mg"},{"bike_id":"b5c3b916-9cba-42bd-ac7b-7ae08a96e7eb","system_id":"levelo_inurba_marseille","lat":43.278333,"lon":5.39213,"is_reserved":false,"is_disabled":false,"rental_uris":{"android":"levelo://app?vid=b5c3b916-9cba-42bd-ac7b-7ae08a96e7eb","ios":"levelo://app?vid=b5c3b916-9cba-42bd-ac7b-7ae08a96e7eb"},"vehicle_type_id":"4","last_reported":1729903425,"current_range_meters":35600,"station_id":"ce4bhjp2rcd13ifvqga0","pricing_plan_id":"cebpf4jnsgd1na2vs0mg"},{"bike_id":"233675c9-1452-4773-9b48-f42a8db67c1c","system_id":"levelo_inurba_marseille","lat":43.28409,"lon":5.34996,"is_reserved":false,"is_disabled":false,"rental_uris":{"android":"levelo://app?vid=233675c9-1452-4773-9b48-f42a8db67c1c","ios":"levelo://app?vid=233675c9-1452-4773-9b48-f42a8db67c1c"},"vehicle_type_id":"4","last_reported":1729903425,"current_range_meters":38000,"station_id":"ce4bhbh2rcd13ifvqepg","pricing_plan_id":"cebpf4jnsgd1na2vs0mg"},{"bike_id":"1178cda2-5c3a-4d86-b4d3-b676154bd669","system_id":"levelo_inurba_marseille","lat":43.27175,"lon":5.40988,"is_reserved":false,"is_disabled":false,"rental_uris":{"android":"levelo://app?vid=1178cda2-5c3a-4d86-b4d3-b676154bd669","ios":"levelo://app?vid=1178cda2-5c3a-4d86-b4d3-b676154bd669"},"vehicle_type_id":"4","last_reported":1729903425,"current_range_meters":37600,"station_id":"ce4bhl12rcd13ifvqgf0","pricing_plan_id":"cebpf4jnsgd1na2vs0mg"},{"bike_id":"9f741eb8-4308-4511-8be3-1cde4f07cf7e","system_id":"levelo_inurba_marseille","lat":43.25869,"lon":5.39903,"is_reserved":false,"is_disabled":false,"rental_uris":{"android":"levelo://app?vid=9f741eb8-4308-4511-8be3-1cde4f07cf7e","ios":"levelo://app?vid=9f741eb8-4308-4511-8be3-1cde4f07cf7e"},"vehicle_type_id":"4","last_reported":1729903425,"current_range_meters":36400,"station_id":"ce4bhl92rcd13ifvqghg","pricing_plan_id":"cebpf4jnsgd1na2vs0mg"},{"bike_id":"d7aeddca-b396-4955-bda4-8822ec0349ac","system_id":"levelo_inurba_marseille","lat":43.30185,"lon":5.3662,"is_reserved":false,"is_disabled":false,"rental_uris":{"android":"levelo://app?vid=d7aeddca-b396-4955-bda4-8822ec0349ac","ios":"levelo://app?vid=d7aeddca-b396-4955-bda4-8822ec0349ac"},"vehicle_type_id":"4","last_reported":1729903425,"current_range_meters":38800,"station_id":"ce4bgrh2rcd13ifvqc8g","pricing_plan_id":"cebpf4jnsgd1na2vs0mg"},{"bike_id":"dba5c0e4-c4fb-4939-bd85-1709479c42ed","system_id":"levelo_inurba_marseille","lat":43.287,"lon":5.39975,"is_reserved":false,"is_disabled":false,"rental_uris":{"android":"levelo://app?vid=dba5c0e4-c4fb-4939-bd85-1709479c42ed","ios":"levelo://app?vid=dba5c0e4-c4fb-4939-bd85-1709479c42ed"},"vehicle_type_id":"4","last_reported":1729903425,"current_range_meters":37600,"station_id":"ce4bho92rcd13ifvqh3g","pricing_plan_id":"cebpf4jnsgd1na2vs0mg"},{"bike_id":"fa0d9b42-8430-42f7-b028-e598c8f32fe4","system_id":"levelo_inurba_marseille","lat":43.27567,"lon":5.38423,"is_reserved":false,"is_disabled":false,"rental_uris":{"android":"levelo://app?vid=fa0d9b42-8430-42f7-b028-e598c8f32fe4","ios":"levelo://app?vid=fa0d9b42-8430-42f7-b028-e598c8f32fe4"},"vehicle_type_id":"4","last_reported":1729903425,"current_range_meters":17600,"station_id":"ce4bhh92rcd13ifvqfi0","pricing_plan_id":"cebpf4jnsgd1na2vs0mg"},{"bike_id":"29a6c093-88d6-4372-9735-e054adbf6a09","system_id":"levelo_inurba_marseille","lat":43.29253,"lon":5.40908,"is_reserved":false,"is_disabled":false,"rental_uris":{"android":"levelo://app?vid=29a6c093-88d6-4372-9735-e054adbf6a09","ios":"levelo://app?vid=29a6c093-88d6-4372-9735-e054adbf6a09"},"vehicle_type_id":"4","last_reported":1729903425,"current_range_meters":28800,"station_id":"ce4bh192rcd13ifvqdc0","pricing_plan_id":"cebpf4jnsgd1na2vs0mg"},{"bike_id":"0f3c8ac4-6ddb-4ab9-bf74-403d7db9e9b9","system_id":"levelo_inurba_marseille","lat":43.24644,"lon":5.38906,"is_reserved":false,"is_disabled":false,"rental_uris":{"android":"levelo://app?vid=0f3c8ac4-6ddb-4ab9-bf74-403d7db9e9b9","ios":"levelo://app?vid=0f3c8ac4-6ddb-4ab9-bf74-403d7db9e9b9"},"vehicle_type_id":"4","last_reported":1729903425,"current_range_meters":38400,"station_id":"ce4bhg12rcd13ifvqf60","pricing_plan_id":"cebpf4jnsgd1na2vs0mg"},{"bike_id":"83c44b3b-2d14-4901-8634-cf118b0742d2","system_id":"levelo_inurba_marseille","lat":43.29714,"lon":5.36617,"is_reserved":false,"is_disabled":false,"rental_uris":{"android":"levelo://app?vid=83c44b3b-2d14-4901-8634-cf118b0742d2","ios":"levelo://app?vid=83c44b3b-2d14-4901-8634-cf118b0742d2"},"vehicle_type_id":"4","last_reported":1729903425,"current_range_meters":30000,"station_id":"ce4bgn12rcd13ifvqbt0","pricing_plan_id":"cebpf4jnsgd1na2vs0mg"},{"bike_id":"8ab0d76d-4ceb-4684-b4f1-d5f38f173df6","system_id":"levelo_inurba_marseille","lat":43.30131,"lon":5.38787,"is_reserved":false,"is_disabled":false,"rental_uris":{"android":"levelo://app?vid=8ab0d76d-4ceb-4684-b4f1-d5f38f173df6","ios":"levelo://app?vid=8ab0d76d-4ceb-4684-b4f1-d5f38f173df6"},"vehicle_type_id":"4","last_reported":1729903425,"current_range_meters":16400,"station_id":"ce4bghh2rcd13ifvqb60","pricing_plan_id":"cebpf4jnsgd1na2vs0mg"},{"bike_id":"f092f188-890e-415c-bcfe-54d392c6e1bb","system_id":"levelo_inurba_marseille","lat":43.30421,"lon":5.41287,"is_reserved":false,"is_disabled":false,"rental_uris":{"android":"levelo://app?vid=f092f188-890e-415c-bcfe-54d392c6e1bb","ios":"levelo://app?vid=f092f188-890e-415c-bcfe-54d392c6e1bb"},"vehicle_type_id":"4","last_reported":1729903425,"current_range_meters":38800,"station_id":"ce4bhop2rcd13ifvqh8g","pricing_plan_id":"cebpf4jnsgd1na2vs0mg"},{"bike_id":"d3704e1b-0827-4edc-8eee-9682c34394c6","system_id":"levelo_inurba_marseille","lat":43.24811,"lon":5.37459,"is_reserved":false,"is_disabled":false,"rental_uris":{"android":"levelo://app?vid=d3704e1b-0827-4edc-8eee-9682c34394c6","ios":"levelo://app?vid=d3704e1b-0827-4edc-8eee-9682c34394c6"},"vehicle_type_id":"4","last_reported":1729903425,"current_range_meters":22800,"station_id":"ce4bhgh2rcd13ifvqfb0","pricing_plan_id":"cebpf4jnsgd1na2vs0mg"},{"bike_id":"3ae03342-7864-45cc-b526-255b882b8a68","system_id":"levelo_inurba_marseille","lat":43.28367,"lon":5.38625,"is_reserved":false,"is_disabled":false,"rental_uris":{"android":"levelo://app?vid=3ae03342-7864-45cc-b526-255b882b8a68","ios":"levelo://app?vid=3ae03342-7864-45cc-b526-255b882b8a68"},"vehicle_type_id":"4","last_reported":1729903425,"current_range_meters":15200,"station_id":"ce4bh492rcd13ifvqdvg","pricing_plan_id":"cebpf4jnsgd1na2vs0mg"},{"bike_id":"2f26cbff-3a6a-4e96-ba80-64f35bb4ddd5","system_id":"levelo_inurba_marseille","lat":43.28346,"lon":5.38101,"is_reserved":false,"is_disabled":false,"rental_uris":{"android":"levelo://app?vid=2f26cbff-3a6a-4e96-ba80-64f35bb4ddd5","ios":"levelo://app?vid=2f26cbff-3a6a-4e96-ba80-64f35bb4ddd5"},"vehicle_type_id":"4","last_reported":1729903425,"current_range_meters":15200,"station_id":"ce4bh412rcd13ifvqdr0","pricing_plan_id":"cebpf4jnsgd1na2vs0mg"},{"bike_id":"ebffced7-9b99-4e21-b2e3-8377d1f9fd70","system_id":"levelo_inurba_marseille","lat":43.31075,"lon":5.38354,"is_reserved":false,"is_disabled":false,"rental_uris":{"android":"levelo://app?vid=ebffced7-9b99-4e21-b2e3-8377d1f9fd70","ios":"levelo://app?vid=ebffced7-9b99-4e21-b2e3-8377d1f9fd70"},"vehicle_type_id":"4","last_reported":1729903425,"current_range_meters":38800,"station_id":"ce4bgv92rcd13ifvqcr0","pricing_plan_id":"cebpf4jnsgd1na2vs0mg"},{"bike_id":"d3cc5ab0-9e3a-41ba-9860-c06c0ddb4613","system_id":"levelo_inurba_marseille","lat":43.22929,"lon":5.35382,"is_reserved":false,"is_disabled":false,"rental_uris":{"android":"levelo://app?vid=d3cc5ab0-9e3a-41ba-9860-c06c0ddb4613","ios":"levelo://app?vid=d3cc5ab0-9e3a-41ba-9860-c06c0ddb4613"},"vehicle_type_id":"4","last_reported":1729903425,"current_range_meters":38000,"station_id":"cpo3532slgdg3j2ikp40","pricing_plan_id":"cebpf4jnsgd1na2vs0mg"},{"bike_id":"d65d931e-09c6-43bf-b88d-6bd16c19bf54","system_id":"levelo_inurba_marseille","lat":43.27992,"lon":5.41672,"is_reserved":false,"is_disabled":false,"rental_uris":{"android":"levelo://app?vid=d65d931e-09c6-43bf-b88d-6bd16c19bf54","ios":"levelo://app?vid=d65d931e-09c6-43bf-b88d-6bd16c19bf54"},"vehicle_type_id":"4","last_reported":1729903425,"current_range_meters":23200,"station_id":"ce4bho12rcd13ifvqh1g","pricing_plan_id":"cebpf4jnsgd1na2vs0mg"},{"bike_id":"efb5599a-a16c-409d-816a-e16bb979a087","system_id":"levelo_inurba_marseille","lat":43.295804,"lon":5.375299,"is_reserved":false,"is_disabled":false,"rental_uris":{"android":"levelo://app?vid=efb5599a-a16c-409d-816a-e16bb979a087","ios":"levelo://app?vid=efb5599a-a16c-409d-816a-e16bb979a087"},"vehicle_type_id":"4","last_reported":1729903425,"current_range_meters":24000,"station_id":"","pricing_plan_id":"cebpf4jnsgd1na2vs0mg"},{"bike_id":"97bd6ba0-ba29-4ea1-9877-c1f7cfba9e3a","system_id":"levelo_inurba_marseille","lat":43.31367,"lon":5.38499,"is_reserved":false,"is_disabled":false,"rental_uris":{"android":"levelo://app?vid=97bd6ba0-ba29-4ea1-9877-c1f7cfba9e3a","ios":"levelo://app?vid=97bd6ba0-ba29-4ea1-9877-c1f7cfba9e3a"},"vehicle_type_id":"4","last_reported":1729903425,"current_range_meters":8000,"station_id":"ce4bgt92rcd13ifvqcf0","pricing_plan_id":"cebpf4jnsgd1na2vs0mg"},{"bike_id":"fe843b57-dcca-4cb9-9d71-f358a66a0543","system_id":"levelo_inurba_marseille","lat":43.31354,"lon":5.38495,"is_reserved":false,"is_disabled":false,"rental_uris":{"android":"levelo://app?vid=fe843b57-dcca-4cb9-9d71-f358a66a0543","ios":"levelo://app?vid=fe843b57-dcca-4cb9-9d71-f358a66a0543"},"vehicle_type_id":"4","last_reported":1729903425,"current_range_meters":12000,"station_id":"ce4bgt92rcd13ifvqcf0","pricing_plan_id":"cebpf4jnsgd1na2vs0mg"},{"bike_id":"27d748bc-f052-4b22-bdad-8c6f4400f23b","system_id":"levelo_inurba_marseille","lat":43.32657,"lon":5.40992,"is_reserved":false,"is_disabled":false,"rental_uris":{"android":"levelo://app?vid=27d748bc-f052-4b22-bdad-8c6f4400f23b","ios":"levelo://app?vid=27d748bc-f052-4b22-bdad-8c6f4400f23b"},"vehicle_type_id":"4","last_reported":1729903425,"current_range_meters":20800,"station_id":"ce4bhpp2rcd13ifvqhgg","pricing_plan_id":"cebpf4jnsgd1na2vs0mg"},{"bike_id":"2a607cf2-02a1-4c65-ba09-d444ec15b621","system_id":"levelo_inurba_marseille","lat":43.28032,"lon":5.36953,"is_reserved":false,"is_disabled":false,"rental_uris":{"android":"levelo://app?vid=2a607cf2-02a1-4c65-ba09-d444ec15b621","ios":"levelo://app?vid=2a607cf2-02a1-4c65-ba09-d444ec15b621"},"vehicle_type_id":"4","last_reported":1729903425,"current_range_meters":16400,"station_id":"ce4bha12rcd13ifvqef0","pricing_plan_id":"cebpf4jnsgd1na2vs0mg"},{"bike_id":"f3dc97dd-30d5-41ce-bece-3c05434a04bb","system_id":"levelo_inurba_marseille","lat":43.29251,"lon":5.40902,"is_reserved":false,"is_disabled":false,"rental_uris":{"android":"levelo://app?vid=f3dc97dd-30d5-41ce-bece-3c05434a04bb","ios":"levelo://app?vid=f3dc97dd-30d5-41ce-bece-3c05434a04bb"},"vehicle_type_id":"4","last_reported":1729903425,"current_range_meters":26000,"station_id":"ce4bh192rcd13ifvqdc0","pricing_plan_id":"cebpf4jnsgd1na2vs0mg"},{"bike_id":"1feeeea7-6a24-4611-b050-cf179d411849","system_id":"levelo_inurba_marseille","lat":43.29863,"lon":5.39742,"is_reserved":false,"is_disabled":false,"rental_uris":{"android":"levelo://app?vid=1feeeea7-6a24-4611-b050-cf179d411849","ios":"levelo://app?vid=1feeeea7-6a24-4611-b050-cf179d411849"},"vehicle_type_id":"4","last_reported":1729903425,"current_range_meters":38800,"station_id":"ce4bh0h2rcd13ifvqd50","pricing_plan_id":"cebpf4jnsgd1na2vs0mg"},{"bike_id":"138e7038-a459-4d3e-834c-67a6fa6d396f","system_id":"levelo_inurba_marseille","lat":43.27944,"lon":5.41037,"is_reserved":false,"is_disabled":false,"rental_uris":{"android":"levelo://app?vid=138e7038-a459-4d3e-834c-67a6fa6d396f","ios":"levelo://app?vid=138e7038-a459-4d3e-834c-67a6fa6d396f"},"vehicle_type_id":"4","last_reported":1729903425,"current_range_meters":12400,"station_id":"ce4bhnp2rcd13ifvqh0g","pricing_plan_id":"cebpf4jnsgd1na2vs0mg"},{"bike_id":"39788a4e-7446-4607-bac2-8312c3a3925a","system_id":"levelo_inurba_marseille","lat":43.31171,"lon":5.38723,"is_reserved":false,"is_disabled":false,"rental_uris":{"android":"levelo://app?vid=39788a4e-7446-4607-bac2-8312c3a3925a","ios":"levelo://app?vid=39788a4e-7446-4607-bac2-8312c3a3925a"},"vehicle_type_id":"4","last_reported":1729903425,"current_range_meters":9600,"station_id":"ce4bgv12rcd13ifvqcp0","pricing_plan_id":"cebpf4jnsgd1na2vs0mg"},{"bike_id":"8a7083e9-0da5-41d0-8a20-8f1495319822","system_id":"levelo_inurba_marseille","lat":43.28469,"lon":5.38414,"is_reserved":false,"is_disabled":false,"rental_uris":{"android":"levelo://app?vid=8a7083e9-0da5-41d0-8a20-8f1495319822","ios":"levelo://app?vid=8a7083e9-0da5-41d0-8a20-8f1495319822"},"vehicle_type_id":"4","last_reported":1729903425,"current_range_meters":38000,"station_id":"ce4bh512rcd13ifvqe3g","pricing_plan_id":"cebpf4jnsgd1na2vs0mg"},{"bike_id":"5b344818-85af-4463-b4b9-76115e480045","system_id":"levelo_inurba_marseille","lat":43.29036,"lon":5.39965,"is_reserved":false,"is_disabled":false,"rental_uris":{"android":"levelo://app?vid=5b344818-85af-4463-b4b9-76115e480045","ios":"levelo://app?vid=5b344818-85af-4463-b4b9-76115e480045"},"vehicle_type_id":"4","last_reported":1729903425,"current_range_meters":36800,"station_id":"ce4bh392rcd13ifvqdm0","pricing_plan_id":"cebpf4jnsgd1na2vs0mg"},{"bike_id":"1f64965d-b6d0-4db2-9f67-5e1e698e47fb","system_id":"levelo_inurba_marseille","lat":43.27072,"lon":5.42279,"is_reserved":false,"is_disabled":false,"rental_uris":{"android":"levelo://app?vid=1f64965d-b6d0-4db2-9f67-5e1e698e47fb","ios":"levelo://app?vid=1f64965d-b6d0-4db2-9f67-5e1e698e47fb"},"vehicle_type_id":"4","last_reported":1729903425,"current_range_meters":33600,"station_id":"ce4bhk92rcd13ifvqgb0","pricing_plan_id":"cebpf4jnsgd1na2vs0mg"},{"bike_id":"63656750-c27f-4fc2-85f0-4b558fdcef12","system_id":"levelo_inurba_marseille","lat":43.3059,"lon":5.37229,"is_reserved":false,"is_disabled":false,"rental_uris":{"android":"levelo://app?vid=63656750-c27f-4fc2-85f0-4b558fdcef12","ios":"levelo://app?vid=63656750-c27f-4fc2-85f0-4b558fdcef12"},"vehicle_type_id":"4","last_reported":1729903425,"current_range_meters":37600,"station_id":"ce4bgqh2rcd13ifvqc4g","pricing_plan_id":"cebpf4jnsgd1na2vs0mg"},{"bike_id":"7fe8d0d9-0e13-448f-8f43-ebff0f378a29","system_id":"levelo_inurba_marseille","lat":43.2572,"lon":5.41116,"is_reserved":false,"is_disabled":false,"rental_uris":{"android":"levelo://app?vid=7fe8d0d9-0e13-448f-8f43-ebff0f378a29","ios":"levelo://app?vid=7fe8d0d9-0e13-448f-8f43-ebff0f378a29"},"vehicle_type_id":"4","last_reported":1729903425,"current_range_meters":3200,"station_id":"ce4bhkp2rcd13ifvqgd0","pricing_plan_id":"cebpf4jnsgd1na2vs0mg"},{"bike_id":"4ff0e20e-4bbb-4a55-bee2-9a19402933cb","system_id":"levelo_inurba_marseille","lat":43.30928,"lon":5.40154,"is_reserved":false,"is_disabled":false,"rental_uris":{"android":"levelo://app?vid=4ff0e20e-4bbb-4a55-bee2-9a19402933cb","ios":"levelo://app?vid=4ff0e20e-4bbb-4a55-bee2-9a19402933cb"},"vehicle_type_id":"4","last_reported":1729903425,"current_range_meters":38400,"station_id":"ce4bgvp2rcd13ifvqct0","pricing_plan_id":"cebpf4jnsgd1na2vs0mg"},{"bike_id":"03415616-291c-4269-b40b-81bf3c5c1a95","system_id":"levelo_inurba_marseille","lat":43.28943,"lon":5.36398,"is_reserved":false,"is_disabled":false,"rental_uris":{"android":"levelo://app?vid=03415616-291c-4269-b40b-81bf3c5c1a95","ios":"levelo://app?vid=03415616-291c-4269-b40b-81bf3c5c1a95"},"vehicle_type_id":"4","last_reported":1729903425,"current_range_meters":37600,"station_id":"ce4bhc92rcd13ifvqetg","pricing_plan_id":"cebpf4jnsgd1na2vs0mg"},{"bike_id":"63b96804-7183-46a3-8d6b-53d631692dce","system_id":"levelo_inurba_marseille","lat":43.2885,"lon":5.39306,"is_reserved":false,"is_disabled":false,"rental_uris":{"android":"levelo://app?vid=63b96804-7183-46a3-8d6b-53d631692dce","ios":"levelo://app?vid=63b96804-7183-46a3-8d6b-53d631692dce"},"vehicle_type_id":"4","last_reported":1729903425,"current_range_meters":30400,"station_id":"ce4bh2p2rcd13ifvqdi0","pricing_plan_id":"cebpf4jnsgd1na2vs0mg"},{"bike_id":"8365043f-fc93-45bb-aa6e-8779cf363ca1","system_id":"levelo_inurba_marseille","lat":43.30889,"lon":5.37194,"is_reserved":false,"is_disabled":false,"rental_uris":{"android":"levelo://app?vid=8365043f-fc93-45bb-aa6e-8779cf363ca1","ios":"levelo://app?vid=8365043f-fc93-45bb-aa6e-8779cf363ca1"},"vehicle_type_id":"4","last_reported":1729903425,"current_range_meters":37600,"station_id":"ce4bguh2rcd13ifvqckg","pricing_plan_id":"cebpf4jnsgd1na2vs0mg"},{"bike_id":"db97a606-2f59-41c8-8cd6-75aba7fa29a7","system_id":"levelo_inurba_marseille","lat":43.24808,"lon":5.37459,"is_reserved":false,"is_disabled":false,"rental_uris":{"android":"levelo://app?vid=db97a606-2f59-41c8-8cd6-75aba7fa29a7","ios":"levelo://app?vid=db97a606-2f59-41c8-8cd6-75aba7fa29a7"},"vehicle_type_id":"4","last_reported":1729903425,"current_range_meters":40000,"station_id":"ce4bhgh2rcd13ifvqfb0","pricing_plan_id":"cebpf4jnsgd1na2vs0mg"},{"bike_id":"cd54751d-ae9c-4087-89b1-3251331520c5","system_id":"levelo_inurba_marseille","lat":43.3171,"lon":5.43704,"is_reserved":false,"is_disabled":false,"rental_uris":{"android":"levelo://app?vid=cd54751d-ae9c-4087-89b1-3251331520c5","ios":"levelo://app?vid=cd54751d-ae9c-4087-89b1-3251331520c5"},"vehicle_type_id":"4","last_reported":1729903425,"current_range_meters":10000,"station_id":"ce4bhp92rcd13ifvqhcg","pricing_plan_id":"cebpf4jnsgd1na2vs0mg"},{"bike_id":"60528b55-e747-4a9e-8ca0-272ea3a19644","system_id":"levelo_inurba_marseille","lat":43.27824,"lon":5.39209,"is_reserved":false,"is_disabled":false,"rental_uris":{"android":"levelo://app?vid=60528b55-e747-4a9e-8ca0-272ea3a19644","ios":"levelo://app?vid=60528b55-e747-4a9e-8ca0-272ea3a19644"},"vehicle_type_id":"4","last_reported":1729903425,"current_range_meters":38400,"station_id":"ce4bhjp2rcd13ifvqga0","pricing_plan_id":"cebpf4jnsgd1na2vs0mg"},{"bike_id":"2f0a948c-14c5-4b12-9619-013938f5847f","system_id":"levelo_inurba_marseille","lat":43.28076,"lon":5.39659,"is_reserved":false,"is_disabled":false,"rental_uris":{"android":"levelo://app?vid=2f0a948c-14c5-4b12-9619-013938f5847f","ios":"levelo://app?vid=2f0a948c-14c5-4b12-9619-013938f5847f"},"vehicle_type_id":"4","last_reported":1729903425,"current_range_meters":7200,"station_id":"ce4bho12rcd13ifvqh2g","pricing_plan_id":"cebpf4jnsgd1na2vs0mg"},{"bike_id":"4475e448-ff5f-4d53-a231-0fc04263b1a5","system_id":"levelo_inurba_marseille","lat":43.23151,"lon":5.43716,"is_reserved":false,"is_disabled":false,"rental_uris":{"android":"levelo://app?vid=4475e448-ff5f-4d53-a231-0fc04263b1a5","ios":"levelo://app?vid=4475e448-ff5f-4d53-a231-0fc04263b1a5"},"vehicle_type_id":"4","last_reported":1729903425,"current_range_meters":8400,"station_id":"ce4bhmp2rcd13ifvqgog","pricing_plan_id":"cebpf4jnsgd1na2vs0mg"},{"bike_id":"5eb3e4b4-0cb4-44f9-bcb8-bab213399d21","system_id":"levelo_inurba_marseille","lat":43.24804,"lon":5.37457,"is_reserved":false,"is_disabled":false,"rental_uris":{"android":"levelo://app?vid=5eb3e4b4-0cb4-44f9-bcb8-bab213399d21","ios":"levelo://app?vid=5eb3e4b4-0cb4-44f9-bcb8-bab213399d21"},"vehicle_type_id":"4","last_reported":1729903425,"current_range_meters":28400,"station_id":"ce4bhgh2rcd13ifvqfb0","pricing_plan_id":"cebpf4jnsgd1na2vs0mg"},{"bike_id":"af1b7666-9b80-420b-9813-5e92940fca09","system_id":"levelo_inurba_marseille","lat":43.28857,"lon":5.35848,"is_reserved":false,"is_disabled":false,"rental_uris":{"android":"levelo://app?vid=af1b7666-9b80-420b-9813-5e92940fca09","ios":"levelo://app?vid=af1b7666-9b80-420b-9813-5e92940fca09"},"vehicle_type_id":"4","last_reported":1729903425,"current_range_meters":37600,"station_id":"ce4bhb12rcd13ifvqem0","pricing_plan_id":"cebpf4jnsgd1na2vs0mg"},{"bike_id":"960c25fd-a513-4486-9205-28e40f919a67","system_id":"levelo_inurba_marseille","lat":43.28445,"lon":5.39198,"is_reserved":false,"is_disabled":false,"rental_uris":{"android":"levelo://app?vid=960c25fd-a513-4486-9205-28e40f919a67","ios":"levelo://app?vid=960c25fd-a513-4486-9205-28e40f919a67"},"vehicle_type_id":"4","last_reported":1729903425,"current_range_meters":34800,"station_id":"ce4bhoh2rcd13ifvqh5g","pricing_plan_id":"cebpf4jnsgd1na2vs0mg"},{"bike_id":"51e7fbf3-5f4c-4f84-b609-a54a49a60eac","system_id":"levelo_inurba_marseille","lat":43.287048,"lon":5.400037,"is_reserved":false,"is_disabled":false,"rental_uris":{"android":"levelo://app?vid=51e7fbf3-5f4c-4f84-b609-a54a49a60eac","ios":"levelo://app?vid=51e7fbf3-5f4c-4f84-b609-a54a49a60eac"},"vehicle_type_id":"4","last_reported":1729903425,"current_range_meters":28400,"station_id":"ce4bho92rcd13ifvqh3g","pricing_plan_id":"cebpf4jnsgd1na2vs0mg"},{"bike_id":"f8741be9-23ab-4388-ae43-ded41f991a9e","system_id":"levelo_inurba_marseille","lat":43.29873,"lon":5.39737,"is_reserved":false,"is_disabled":false,"rental_uris":{"android":"levelo://app?vid=f8741be9-23ab-4388-ae43-ded41f991a9e","ios":"levelo://app?vid=f8741be9-23ab-4388-ae43-ded41f991a9e"},"vehicle_type_id":"4","last_reported":1729903425,"current_range_meters":13600,"station_id":"ce4bh0h2rcd13ifvqd50","pricing_plan_id":"cebpf4jnsgd1na2vs0mg"},{"bike_id":"870bcb64-314e-474c-8861-bfebe67c7251","system_id":"levelo_inurba_marseille","lat":43.28454,"lon":5.39201,"is_reserved":false,"is_disabled":false,"rental_uris":{"android":"levelo://app?vid=870bcb64-314e-474c-8861-bfebe67c7251","ios":"levelo://app?vid=870bcb64-314e-474c-8861-bfebe67c7251"},"vehicle_type_id":"4","last_reported":1729903425,"current_range_meters":27600,"station_id":"ce4bhoh2rcd13ifvqh5g","pricing_plan_id":"cebpf4jnsgd1na2vs0mg"},{"bike_id":"8f8f1fde-6360-4477-9a30-9c9a1fe34deb","system_id":"levelo_inurba_marseille","lat":43.27428,"lon":5.39423,"is_reserved":false,"is_disabled":false,"rental_uris":{"android":"levelo://app?vid=8f8f1fde-6360-4477-9a30-9c9a1fe34deb","ios":"levelo://app?vid=8f8f1fde-6360-4477-9a30-9c9a1fe34deb"},"vehicle_type_id":"4","last_reported":1729903425,"current_range_meters":38800,"station_id":"ce4bhdp2rcd13ifvqf20","pricing_plan_id":"cebpf4jnsgd1na2vs0mg"},{"bike_id":"956abcec-9a79-4c6b-87de-517e6228b14b","system_id":"levelo_inurba_marseille","lat":43.29698,"lon":5.36616,"is_reserved":false,"is_disabled":false,"rental_uris":{"android":"levelo://app?vid=956abcec-9a79-4c6b-87de-517e6228b14b","ios":"levelo://app?vid=956abcec-9a79-4c6b-87de-517e6228b14b"},"vehicle_type_id":"4","last_reported":1729903425,"current_range_meters":24400,"station_id":"ce4bgn12rcd13ifvqbt0","pricing_plan_id":"cebpf4jnsgd1na2vs0mg"},{"bike_id":"8753ab59-4dcf-46ec-81b7-b8caa2c49b97","system_id":"levelo_inurba_marseille","lat":43.2957,"lon":5.39982,"is_reserved":false,"is_disabled":false,"rental_uris":{"android":"levelo://app?vid=8753ab59-4dcf-46ec-81b7-b8caa2c49b97","ios":"levelo://app?vid=8753ab59-4dcf-46ec-81b7-b8caa2c49b97"},"vehicle_type_id":"4","last_reported":1729903425,"current_range_meters":38800,"station_id":"ce4bh312rcd13ifvqdj0","pricing_plan_id":"cebpf4jnsgd1na2vs0mg"},{"bike_id":"c825a735-65fe-44b0-9387-58137a8bc8ed","system_id":"levelo_inurba_marseille","lat":43.24386,"lon":5.37054,"is_reserved":false,"is_disabled":false,"rental_uris":{"android":"levelo://app?vid=c825a735-65fe-44b0-9387-58137a8bc8ed","ios":"levelo://app?vid=c825a735-65fe-44b0-9387-58137a8bc8ed"},"vehicle_type_id":"4","last_reported":1729903425,"current_range_meters":32800,"station_id":"ce4bhhh2rcd13ifvqfk0","pricing_plan_id":"cebpf4jnsgd1na2vs0mg"},{"bike_id":"5eed2165-33a1-4567-aff8-ee40ba3e1cf2","system_id":"levelo_inurba_marseille","lat":43.28934,"lon":5.36397,"is_reserved":false,"is_disabled":false,"rental_uris":{"android":"levelo://app?vid=5eed2165-33a1-4567-aff8-ee40ba3e1cf2","ios":"levelo://app?vid=5eed2165-33a1-4567-aff8-ee40ba3e1cf2"},"vehicle_type_id":"4","last_reported":1729903425,"current_range_meters":38800,"station_id":"ce4bhc92rcd13ifvqetg","pricing_plan_id":"cebpf4jnsgd1na2vs0mg"},{"bike_id":"4f07ad21-5b4a-48fd-b5e5-da89c71cf8b1","system_id":"levelo_inurba_marseille","lat":43.24177,"lon":5.39722,"is_reserved":false,"is_disabled":false,"rental_uris":{"android":"levelo://app?vid=4f07ad21-5b4a-48fd-b5e5-da89c71cf8b1","ios":"levelo://app?vid=4f07ad21-5b4a-48fd-b5e5-da89c71cf8b1"},"vehicle_type_id":"4","last_reported":1729903425,"current_range_meters":6400,"station_id":"ce4bhn12rcd13ifvqgpg","pricing_plan_id":"cebpf4jnsgd1na2vs0mg"},{"bike_id":"deaca964-b047-425d-bdba-c4b57463f8ec","system_id":"levelo_inurba_marseille","lat":43.30431,"lon":5.3889,"is_reserved":false,"is_disabled":false,"rental_uris":{"android":"levelo://app?vid=deaca964-b047-425d-bdba-c4b57463f8ec","ios":"levelo://app?vid=deaca964-b047-425d-bdba-c4b57463f8ec"},"vehicle_type_id":"4","last_reported":1729903425,"current_range_meters":33200,"station_id":"ce4bgk12rcd13ifvqbi0","pricing_plan_id":"cebpf4jnsgd1na2vs0mg"},{"bike_id":"fa30867d-31fd-449d-bf86-f380d61b29ca","system_id":"levelo_inurba_marseille","lat":43.28424,"lon":5.34983,"is_reserved":false,"is_disabled":false,"rental_uris":{"android":"levelo://app?vid=fa30867d-31fd-449d-bf86-f380d61b29ca","ios":"levelo://app?vid=fa30867d-31fd-449d-bf86-f380d61b29ca"},"vehicle_type_id":"4","last_reported":1729903425,"current_range_meters":38400,"station_id":"ce4bhbh2rcd13ifvqepg","pricing_plan_id":"cebpf4jnsgd1na2vs0mg"},{"bike_id":"b642362b-af87-43b2-abdf-f69eb531702d","system_id":"levelo_inurba_marseille","lat":43.27949,"lon":5.41044,"is_reserved":false,"is_disabled":false,"rental_uris":{"android":"levelo://app?vid=b642362b-af87-43b2-abdf-f69eb531702d","ios":"levelo://app?vid=b642362b-af87-43b2-abdf-f69eb531702d"},"vehicle_type_id":"4","last_reported":1729903425,"current_range_meters":14000,"station_id":"ce4bhnp2rcd13ifvqh0g","pricing_plan_id":"cebpf4jnsgd1na2vs0mg"},{"bike_id":"20bc8438-3663-4554-bffb-2e1b29d847af","system_id":"levelo_inurba_marseille","lat":43.22937,"lon":5.35381,"is_reserved":false,"is_disabled":false,"rental_uris":{"android":"levelo://app?vid=20bc8438-3663-4554-bffb-2e1b29d847af","ios":"levelo://app?vid=20bc8438-3663-4554-bffb-2e1b29d847af"},"vehicle_type_id":"4","last_reported":1729903425,"current_range_meters":16000,"station_id":"cpo3532slgdg3j2ikp40","pricing_plan_id":"cebpf4jnsgd1na2vs0mg"},{"bike_id":"2fc86fc5-142f-4299-9dd2-b641c436b5ba","system_id":"levelo_inurba_marseille","lat":43.29714,"lon":5.36607,"is_reserved":false,"is_disabled":false,"rental_uris":{"android":"levelo://app?vid=2fc86fc5-142f-4299-9dd2-b641c436b5ba","ios":"levelo://app?vid=2fc86fc5-142f-4299-9dd2-b641c436b5ba"},"vehicle_type_id":"4","last_reported":1729903425,"current_range_meters":38800,"station_id":"ce4bgn12rcd13ifvqbt0","pricing_plan_id":"cebpf4jnsgd1na2vs0mg"},{"bike_id":"b144efec-2b8a-42bf-9718-41b8dcc52cac","system_id":"levelo_inurba_marseille","lat":43.28719,"lon":5.36095,"is_reserved":false,"is_disabled":false,"rental_uris":{"android":"levelo://app?vid=b144efec-2b8a-42bf-9718-41b8dcc52cac","ios":"levelo://app?vid=b144efec-2b8a-42bf-9718-41b8dcc52cac"},"vehicle_type_id":"4","last_reported":1729903425,"current_range_meters":16800,"station_id":"cki0cbj6b192h4jlfktg","pricing_plan_id":"cebpf4jnsgd1na2vs0mg"},