{"last_updated":1784584920,"ttl":60,"version":"2.2","data":{"bikes":[{"bike_id":"7ef36254-6bb3-448c-8d77-979d957d54b6","system_id":"levelo_inurba_marseille","lat":43.337444,"lon":5.374475,"is_reserved":false,"is_disabled":false,"rental_uris":{"android":"levelo://app?vid=7ef36254-6bb3-448c-8d77-979d957d54b6","ios":"levelo://app?vid=7ef36254-6bb3-448c-8d77-979d957d54b6"},"vehicle_type_id":"4","last_reported":1784584921,"current_range_meters":0,"station_id":"","pricing_plan_id":"cebpf4jnsgd1na2vs0mg"},{"bike_id":"21fe2e98-0432-4b40-a81f-10dd00b0f57d","system_id":"levelo_inurba_marseille","lat":43.337444,"lon":5.374475,"is_reserved":false,"is_disabled":false,"rental_uris":{"android":"levelo://app?vid=21fe2e98-0432-4b40-a81f-10dd00b0f57d","ios":"levelo://app?vid=21fe2e98-0432-4b40-a81f-10dd00b0f57d"},"vehicle_type_id":"4","last_reported":1784584921,"current_range_meters":0,"station_id":"","pricing_plan_id":"cebpf4jnsgd1na2vs0mg"},{"bike_id":"7da9d4e9-8b01-43f4-837a-0ebe51162822","system_id":"levelo_inurba_marseille","lat":43.28865,"lon":5.35841,"is_reserved":false,"is_disabled":false,"rental_uris":{"android":"levelo://app?vid=7da9d4e9-8b01-43f4-837a-0ebe51162822","ios":"levelo://app?vid=7da9d4e9-8b01-43f4-837a-0ebe51162822"},"vehicle_type_id":"4","last_reported":1784584921,"current_range_meters":2800,"station_id":"ce4bhb12rcd13ifvqem0","pricing_plan_id":"cebpf4jnsgd1na2vs0mg"},{"bike_id":"f4132644-ee4a-4cd5-bfb3-04f32bb04f42","system_id":"levelo_inurba_marseille","lat":43.29883,"lon":5.38898,"is_reserved":false,"is_disabled":false,"rental_uris":{"android":"levelo://app?vid=f4132644-ee4a-4cd5-bfb3-04f32bb04f42","ios":"levelo://app?vid=f4132644-ee4a-4cd5-bfb3-04f32bb04f42"},"vehicle_type_id":"4","last_reported":1784584921,"current_range_meters":2800,"station_id":"ce4bh392rcd13ifvqdl0","pricing_plan_id":"cebpf4jnsgd1na2vs0mg"},{"bike_id":"ac4f953a-c0a0-402f-a834-8d608e64cf26","system_id":"levelo_inurba_marseille","lat":43.21745,"lon":5.34608,"is_reserved":false,"is_disabled":true,"rental_uris":{"android":"levelo://app?vid=ac4f953a-c0a0-402f-a834-8d608e64cf26","ios":"levelo://app?vid=ac4f953a-c0a0-402f-a834-8d608e64cf26"},"vehicle_type_id":"4","last_reported":1784584921,"current_range_meters":2800,"station_id":"st_cvj6r9ubvosntc0bgbag","pricing_plan_id":"cebpf4jnsgd1na2vs0mg"},{"bike_id":"27f7e0e1-ca13-417b-90e5-81c66276f522","system_id":"levelo_inurba_marseille","lat":43.28723,"lon":5.36096,"is_reserved":false,"is_disabled":false,"rental_uris":{"android":"levelo://app?vid=27f7e0e1-ca13-417b-90e5-81c66276f522","ios":"levelo://app?vid=27f7e0e1-ca13-417b-90e5-81c66276f522"},"vehicle_type_id":"4","last_reported":1784584921,"current_range_meters":2800,"station_id":"cki0cbj6b192h4jlfktg","pricing_plan_id":"cebpf4jnsgd1na2vs0mg"},{"bike_id":"10153bbf-cff2-43ba-961f-c94935879f24","system_id":"levelo_inurba_marseille","lat":43.27231,"lon":5.39075,"is_reserved":false,"is_disabled":false,"rental_uris":{"android":"levelo://app?vid=10153bbf-cff2-43ba-961f-c94935879f24","ios":"levelo://app?vid=10153bbf-cff2-43ba-961f-c94935879f24"},"vehicle_type_id":"4","last_reported":1784584921,"current_range_meters":2800,"station_id":"","pricing_plan_id":"cebpf4jnsgd1na2vs0mg"},{"bike_id":"ae9d1787-5102-4874-81a4-27a638567ec6","system_id":"levelo_inurba_marseille","lat":43.27027,"lon":5.38745,"is_reserved":false,"is_disabled":false,"rental_uris":{"android":"levelo://app?vid=ae9d1787-5102-4874-81a4-27a638567ec6","ios":"levelo://app?vid=ae9d1787-5102-4874-81a4-27a638567ec6"},"vehicle_type_id":"4","last_reported":1784584921,"current_range_meters":2800,"station_id":"","pricing_plan_id":"cebpf4jnsgd1na2vs0mg"},{"bike_id":"c50b39c4-ea54-4404-b098-717b16815967","system_id":"levelo_inurba_marseille","lat":43.29538,"lon":5.42267,"is_reserved":false,"is_disabled":true,"rental_uris":{"android":"levelo://app?vid=c50b39c4-ea54-4404-b098-717b16815967","ios":"levelo://app?vid=c50b39c4-ea54-4404-b098-717b16815967"},"vehicle_type_id":"4","last_reported":1784584921,"current_range_meters":2800,"station_id":"ce4bhph2rcd13ifvqhdg","pricing_plan_id":"cebpf4jnsgd1na2vs0mg"},{"bike_id":"7764970a-34ed-47ec-8822-620f6c0f8a78","system_id":"levelo_inurba_marseille","lat":43.24977,"lon":5.38971,"is_reserved":false,"is_disabled":false,"rental_uris":{"android":"levelo://app?vid=7764970a-34ed-47ec-8822-620f6c0f8a78","ios":"levelo://app?vid=7764970a-34ed-47ec-8822-620f6c0f8a78"},"vehicle_type_id":"4","last_reported":1784584921,"current_range_meters":3200,"station_id":"","pricing_plan_id":"cebpf4jnsgd1na2vs0mg"},{"bike_id":"00395a07-7c4a-4f08-9e9a-1c53d1a51b8d","system_id":"levelo_inurba_marseille","lat":43.27388,"lon":5.39396,"is_reserved":false,"is_disabled":false,"rental_uris":{"android":"levelo://app?vid=00395a07-7c4a-4f08-9e9a-1c53d1a51b8d","ios":"levelo://app?vid=00395a07-7c4a-4f08-9e9a-1c53d1a51b8d"},"vehicle_type_id":"4","last_reported":1784584921,"current_range_meters":3200,"station_id":"ce4bhdp2rcd13ifvqf20","pricing_plan_id":"cebpf4jnsgd1na2vs0mg"},{"bike_id":"ee9f4bb9-eff4-4190-a9f4-7c63d6ca05c7","system_id":"levelo_inurba_marseille","lat":43.25726,"lon":5.4113,"is_reserved":false,"is_disabled":false,"rental_uris":{"android":"levelo://app?vid=ee9f4bb9-eff4-4190-a9f4-7c63d6ca05c7","ios":"levelo://app?vid=ee9f4bb9-eff4-4190-a9f4-7c63d6ca05c7"},"vehicle_type_id":"4","last_reported":1784584921,"current_range_meters":3200,"station_id":"ce4bhkp2rcd13ifvqgd0","pricing_plan_id":"cebpf4jnsgd1na2vs0mg"},{"bike_id":"9065ba41-e583-4269-b6b4-98c757747d34","system_id":"levelo_inurba_marseille","lat":43.296889,"lon":5.367336,"is_reserved":false,"is_disabled":false,"rental_uris":{"android":"levelo://app?vid=9065ba41-e583-4269-b6b4-98c757747d34","ios":"levelo://app?vid=9065ba41-e583-4269-b6b4-98c757747d34"},"vehicle_type_id":"4","last_reported":1784584921,"current_range_meters":3200,"station_id":"ce4bgn12rcd13ifvqbt0","pricing_plan_id":"cebpf4jnsgd1na2vs0mg"},{"bike_id":"b8dc2bb4-49b3-450b-8172-b1a58edaa12e","system_id":"levelo_inurba_marseille","lat":43.239,"lon":5.37394,"is_reserved":false,"is_disabled":false,"rental_uris":{"android":"levelo://app?vid=b8dc2bb4-49b3-450b-8172-b1a58edaa12e","ios":"levelo://app?vid=b8dc2bb4-49b3-450b-8172-b1a58edaa12e"},"vehicle_type_id":"4","last_reported":1784584921,"current_range_meters":3200,"station_id":"","pricing_plan_id":"cebpf4jnsgd1na2vs0mg"},{"bike_id":"6260e841-6fcc-45a1-b646-911e9f8da15f","system_id":"levelo_inurba_marseille","lat":43.29054,"lon":5.46268,"is_reserved":false,"is_disabled":false,"rental_uris":{"android":"levelo://app?vid=6260e841-6fcc-45a1-b646-911e9f8da15f","ios":"levelo://app?vid=6260e841-6fcc-45a1-b646-911e9f8da15f"},"vehicle_type_id":"4","last_reported":1784584921,"current_range_meters":3200,"station_id":"","pricing_plan_id":"cebpf4jnsgd1na2vs0mg"},{"bike_id":"1ace4f7d-1ecd-4319-bc79-8029362741b6","system_id":"levelo_inurba_marseille","lat":43.2925,"lon":5.36543,"is_reserved":false,"is_disabled":false,"rental_uris":{"android":"levelo://app?vid=1ace4f7d-1ecd-4319-bc79-8029362741b6","ios":"levelo://app?vid=1ace4f7d-1ecd-4319-bc79-8029362741b6"},"vehicle_type_id":"4","last_reported":1784584921,"current_range_meters":3200,"station_id":"","pricing_plan_id":"cebpf4jnsgd1na2vs0mg"},{"bike_id":"13f4ef8f-b2ad-4aa8-83d5-915faabaa063","system_id":"levelo_inurba_marseille","lat":43.26494,"lon":5.39527,"is_reserved":false,"is_disabled":true,"rental_uris":{"android":"levelo://app?vid=13f4ef8f-b2ad-4aa8-83d5-915faabaa063","ios":"levelo://app?vid=13f4ef8f-b2ad-4aa8-83d5-915faabaa063"},"vehicle_type_id":"4","last_reported":1784584921,"current_range_meters":3200,"station_id":"ce4bhi12rcd13ifvqfq0","pricing_plan_id":"cebpf4jnsgd1na2vs0mg"},{"bike_id":"a154435e-d3fa-4c0d-8d6f-8d6752ca4345","system_id":"levelo_inurba_marseille","lat":43.2886,"lon":5.42524,"is_reserved":false,"is_disabled":false,"rental_uris":{"android":"levelo://app?vid=a154435e-d3fa-4c0d-8d6f-8d6752ca4345","ios":"levelo://app?vid=a154435e-d3fa-4c0d-8d6f-8d6752ca4345"},"vehicle_type_id":"4","last_reported":1784584921,"current_range_meters":3200,"station_id":"st_d3b462108ojc7389ooeg","pricing_plan_id":"cebpf4jnsgd1na2vs0mg"},{"bike_id":"8f72131b-408e-4d9e-9ba3-d5ddcb231aac","system_id":"levelo_inurba_marseille","lat":43.28265,"lon":5.35064,"is_reserved":false,"is_disabled":false,"rental_uris":{"android":"levelo://app?vid=8f72131b-408e-4d9e-9ba3-d5ddcb231aac","ios":"levelo://app?vid=8f72131b-408e-4d9e-9ba3-d5ddcb231aac"},"vehicle_type_id":"4","last_reported":1784584921,"current_range_meters":3200,"station_id":"ce4bhbp2rcd13ifvqerg","pricing_plan_id":"cebpf4jnsgd1na2vs0mg"},{"bike_id":"53dd2d4a-9b11-4f89-b4e7-f54900e3039a","system_id":"levelo_inurba_marseille","lat":43.29983,"lon":5.38504,"is_reserved":false,"is_disabled":false,"rental_uris":{"android":"levelo://app?vid=53dd2d4a-9b11-4f89-b4e7-f54900e3039a","ios":"levelo://app?vid=53dd2d4a-9b11-4f89-b4e7-f54900e3039a"},"vehicle_type_id":"4","last_reported":1784584921,"current_range_meters":3200,"station_id":"ce4bgj92rcd13ifvqbd0","pricing_plan_id":"cebpf4jnsgd1na2vs0mg"},{"bike_id":"74740108-b76d-44f0-852b-6ab4bf185173","system_id":"levelo_inurba_marseille","lat":43.23153,"lon":5.43723,"is_reserved":false,"is_disabled":false,"rental_uris":{"android":"levelo://app?vid=74740108-b76d-44f0-852b-6ab4bf185173","ios":"levelo://app?vid=74740108-b76d-44f0-852b-6ab4bf185173"},"vehicle_type_id":"4","last_reported":1784584921,"current_range_meters":3200,"station_id":"ce4bhmp2rcd13ifvqgog","pricing_plan_id":"cebpf4jnsgd1na2vs0mg"},{"bike_id":"954cd3b9-fd0d-489f-ad9f-20a72dd4ea63","system_id":"levelo_inurba_marseille","lat":43.29874,"lon":5.39718,"is_reserved":false,"is_disabled":false,"rental_uris":{"android":"levelo://app?vid=954cd3b9-fd0d-489f-ad9f-20a72dd4ea63","ios":"levelo://app?vid=954cd3b9-fd0d-489f-ad9f-20a72dd4ea63"},"vehicle_type_id":"4","last_reported":1784584921,"current_range_meters":3200,"station_id":"ce4bh0h2rcd13ifvqd50","pricing_plan_id":"cebpf4jnsgd1na2vs0mg"},{"bike_id":"a31f95c6-2916-404e-beb9-3488ea435921","system_id":"levelo_inurba_marseille","lat":43.30822,"lon":5.4095,"is_reserved":false,"is_disabled":false,"rental_uris":{"android":"levelo://app?vid=a31f95c6-2916-404e-beb9-3488ea435921","ios":"levelo://app?vid=a31f95c6-2916-404e-beb9-3488ea435921"},"vehicle_type_id":"4","last_reported":1784584921,"current_range_meters":3200,"station_id":"","pricing_plan_id":"cebpf4jnsgd1na2vs0mg"},{"bike_id":"3adaa436-b43b-48cb-8b46-f9ab5d9a6fa2","system_id":"levelo_inurba_marseille","lat":43.29018,"lon":5.43279,"is_reserved":false,"is_disabled":false,"rental_uris":{"android":"levelo://app?vid=3adaa436-b43b-48cb-8b46-f9ab5d9a6fa2","ios":"levelo://app?vid=3adaa436-b43b-48cb-8b46-f9ab5d9a6fa2"},"vehicle_type_id":"4","last_reported":1784584921,"current_range_meters":3200,"station_id":"","pricing_plan_id":"cebpf4jnsgd1na2vs0mg"},{"bike_id":"7a862a7c-d382-43d5-9136-5b64aa682c6a","system_id":"levelo_inurba_marseille","lat":43.28726,"lon":5.37921,"is_reserved":false,"is_disabled":false,"rental_uris":{"android":"levelo://app?vid=7a862a7c-d382-43d5-9136-5b64aa682c6a","ios":"levelo://app?vid=7a862a7c-d382-43d5-9136-5b64aa682c6a"},"vehicle_type_id":"4","last_reported":1784584921,"current_range_meters":3200,"station_id":"ce4bh9p2rcd13ifvqec0","pricing_plan_id":"cebpf4jnsgd1na2vs0mg"},{"bike_id":"e41e1e86-d0d0-498a-a825-33e3de92c678","system_id":"levelo_inurba_marseille","lat":43.295774,"lon":5.367373,"is_reserved":false,"is_disabled":false,"rental_uris":{"android":"levelo://app?vid=e41e1e86-d0d0-498a-a825-33e3de92c678","ios":"levelo://app?vid=e41e1e86-d0d0-498a-a825-33e3de92c678"},"vehicle_type_id":"4","last_reported":1784584921,"current_range_meters":3200,"station_id":"","pricing_plan_id":"cebpf4jnsgd1na2vs0mg"},{"bike_id":"92239602-23d5-4fd0-950a-3393966d6f2b","system_id":"levelo_inurba_marseille","lat":43.28926,"lon":5.38811,"is_reserved":false,"is_disabled":false,"rental_uris":{"android":"levelo://app?vid=92239602-23d5-4fd0-950a-3393966d6f2b","ios":"levelo://app?vid=92239602-23d5-4fd0-950a-3393966d6f2b"},"vehicle_type_id":"4","last_reported":1784584921,"current_range_meters":3200,"station_id":"","pricing_plan_id":"cebpf4jnsgd1na2vs0mg"},{"bike_id":"134ed701-9182-4c12-bab7-2fd9709954d7","system_id":"levelo_inurba_marseille","lat":43.26521,"lon":5.39395,"is_reserved":false,"is_disabled":false,"rental_uris":{"android":"levelo://app?vid=134ed701-9182-4c12-bab7-2fd9709954d7","ios":"levelo://app?vid=134ed701-9182-4c12-bab7-2fd9709954d7"},"vehicle_type_id":"4","last_reported":1784584921,"current_range_meters":3600,"station_id":"","pricing_plan_id":"cebpf4jnsgd1na2vs0mg"},{"bike_id":"4d3b10d1-996e-4806-b24d-43530cb183c5","system_id":"levelo_inurba_marseille","lat":43.23196,"lon":5.35561,"is_reserved":false,"is_disabled":true,"rental_uris":{"android":"levelo://app?vid=4d3b10d1-996e-4806-b24d-43530cb183c5","ios":"levelo://app?vid=4d3b10d1-996e-4806-b24d-43530cb183c5"},"vehicle_type_id":"4","last_reported":1784584921,"current_range_meters":3600,"station_id":"ce4bhu92rcd13ifvqi70","pricing_plan_id":"cebpf4jnsgd1na2vs0mg"},{"bike_id":"c60e6587-b06d-4899-88be-2d360d8d9662","system_id":"levelo_inurba_marseille","lat":43.29489,"lon":5.43307,"is_reserved":false,"is_disabled":false,"rental_uris":{"android":"levelo://app?vid=c60e6587-b06d-4899-88be-2d360d8d9662","ios":"levelo://app?vid=c60e6587-b06d-4899-88be-2d360d8d9662"},"vehicle_type_id":"4","last_reported":1784584921,"current_range_meters":3600,"station_id":"st_d3j5ugp08ojc73fj9d10","pricing_plan_id":"cebpf4jnsgd1na2vs0mg"},{"bike_id":"3d10cc4c-3258-4110-b06e-afffa86d892a","system_id":"levelo_inurba_marseille","lat":43.25399,"lon":5.42797,"is_reserved":false,"is_disabled":false,"rental_uris":{"android":"levelo://app?vid=3d10cc4c-3258-4110-b06e-afffa86d892a","ios":"levelo://app?vid=3d10cc4c-3258-4110-b06e-afffa86d892a"},"vehicle_type_id":"4","last_reported":1784584921,"current_range_meters":3600,"station_id":"","pricing_plan_id":"cebpf4jnsgd1na2vs0mg"},{"bike_id":"bb2d32f3-2cde-4738-9e86-3377072d5e08","system_id":"levelo_inurba_marseille","lat":43.29268,"lon":5.384336,"is_reserved":false,"is_disabled":false,"rental_uris":{"android":"levelo://app?vid=bb2d32f3-2cde-4738-9e86-3377072d5e08","ios":"levelo://app?vid=bb2d32f3-2cde-4738-9e86-3377072d5e08"},"vehicle_type_id":"4","last_reported":1784584921,"current_range_meters":3600,"station_id":"ce4bh692rcd13ifvqea0","pricing_plan_id":"cebpf4jnsgd1na2vs0mg"},{"bike_id":"d8250cc1-5884-4305-8b40-ce543b627382","system_id":"levelo_inurba_marseille","lat":43.28848,"lon":5.39309,"is_reserved":false,"is_disabled":false,"rental_uris":{"android":"levelo://app?vid=d8250cc1-5884-4305-8b40-ce543b627382","ios":"levelo://app?vid=d8250cc1-5884-4305-8b40-ce543b627382"},"vehicle_type_id":"4","last_reported":1784584921,"current_range_meters":3600,"station_id":"ce4bh2p2rcd13ifvqdi0","pricing_plan_id":"cebpf4jnsgd1na2vs0mg"},{"bike_id":"8437a272-56f0-4e40-9e2b-b475c6eae482","system_id":"levelo_inurba_marseille","lat":43.28874,"lon":5.39023,"is_reserved":false,"is_disabled":false,"rental_uris":{"android":"levelo://app?vid=8437a272-56f0-4e40-9e2b-b475c6eae482","ios":"levelo://app?vid=8437a272-56f0-4e40-9e2b-b475c6eae482"},"vehicle_type_id":"4","last_reported":1784584921,"current_range_meters":3600,"station_id":"","pricing_plan_id":"cebpf4jnsgd1na2vs0mg"},{"bike_id":"4e225e6f-0b04-4a00-879a-8ce6200a3dde","system_id":"levelo_inurba_marseille","lat":43.292565,"lon":5.376245,"is_reserved":false,"is_disabled":false,"rental_uris":{"android":"levelo://app?vid=4e225e6f-0b04-4a00-879a-8ce6200a3dde","ios":"levelo://app?vid=4e225e6f-0b04-4a00-879a-8ce6200a3dde"},"vehicle_type_id":"4","last_reported":1784584921,"current_range_meters":3600,"station_id":"ce4bgi12rcd13ifvqb80","pricing_plan_id":"cebpf4jnsgd1na2vs0mg"},{"bike_id":"1777f9d9-58e6-4173-930b-da80206e8034","system_id":"levelo_inurba_marseille","lat":43.29368,"lon":5.37865,"is_reserved":false,"is_disabled":false,"rental_uris":{"android":"levelo://app?vid=1777f9d9-58e6-4173-930b-da80206e8034","ios":"levelo://app?vid=1777f9d9-58e6-4173-930b-da80206e8034"},"vehicle_type_id":"4","last_reported":1784584921,"current_range_meters":3600,"station_id":"ce4bgjh2rcd13ifvqbf0","pricing_plan_id":"cebpf4jnsgd1na2vs0mg"},{"bike_id":"8a77da99-db26-4f5a-9699-c3401955aa08","system_id":"levelo_inurba_marseille","lat":43.29041,"lon":5.39965,"is_reserved":false,"is_disabled":false,"rental_uris":{"android":"levelo://app?vid=8a77da99-db26-4f5a-9699-c3401955aa08","ios":"levelo://app?vid=8a77da99-db26-4f5a-9699-c3401955aa08"},"vehicle_type_id":"4","last_reported":1784584921,"current_range_meters":3600,"station_id":"ce4bh392rcd13ifvqdm0","pricing_plan_id":"cebpf4jnsgd1na2vs0mg"},{"bike_id":"78875fa6-b4f0-4f5b-84a4-a374ca0c1396","system_id":"levelo_inurba_marseille","lat":43.2894,"lon":5.36623,"is_reserved":false,"is_disabled":false,"rental_uris":{"android":"levelo://app?vid=78875fa6-b4f0-4f5b-84a4-a374ca0c1396","ios":"levelo://app?vid=78875fa6-b4f0-4f5b-84a4-a374ca0c1396"},"vehicle_type_id":"4","last_reported":1784584921,"current_range_meters":3600,"station_id":"ce4bhap2rcd13ifvqek0","pricing_plan_id":"cebpf4jnsgd1na2vs0mg"},{"bike_id":"63795698-8fc2-4609-9437-a9c9e481a9e7","system_id":"levelo_inurba_marseille","lat":43.27561,"lon":5.38425,"is_reserved":false,"is_disabled":false,"rental_uris":{"android":"levelo://app?vid=63795698-8fc2-4609-9437-a9c9e481a9e7","ios":"levelo://app?vid=63795698-8fc2-4609-9437-a9c9e481a9e7"},"vehicle_type_id":"4","last_reported":1784584921,"current_range_meters":3600,"station_id":"ce4bhh92rcd13ifvqfi0","pricing_plan_id":"cebpf4jnsgd1na2vs0mg"},{"bike_id":"04b95196-a4eb-4516-9379-2c265e378380","system_id":"levelo_inurba_marseille","lat":43.29853,"lon":5.38412,"is_reserved":false,"is_disabled":false,"rental_uris":{"android":"levelo://app?vid=04b95196-a4eb-4516-9379-2c265e378380","ios":"levelo://app?vid=04b95196-a4eb-4516-9379-2c265e378380"},"vehicle_type_id":"4","last_reported":1784584921,"current_range_meters":3600,"station_id":"","pricing_plan_id":"cebpf4jnsgd1na2vs0mg"},{"bike_id":"e2807d51-a235-457f-b22a-ddeff49dac2b","system_id":"levelo_inurba_marseille","lat":43.2862,"lon":5.35099,"is_reserved":false,"is_disabled":true,"rental_uris":{"android":"levelo://app?vid=e2807d51-a235-457f-b22a-ddeff49dac2b","ios":"levelo://app?vid=e2807d51-a235-457f-b22a-ddeff49dac2b"},"vehicle_type_id":"4","last_reported":1784584921,"current_range_meters":3600,"station_id":"ce4bhch2rcd13ifvqeug","pricing_plan_id":"cebpf4jnsgd1na2vs0mg"},{"bike_id":"e4e6a986-9e84-4ff1-92e8-8d8ea47ac2cf","system_id":"levelo_inurba_marseille","lat":43.28414,"lon":5.49397,"is_reserved":false,"is_disabled":false,"rental_uris":{"android":"levelo://app?vid=e4e6a986-9e84-4ff1-92e8-8d8ea47ac2cf","ios":"levelo://app?vid=e4e6a986-9e84-4ff1-92e8-8d8ea47ac2cf"},"vehicle_type_id":"4","last_reported":1784584921,"current_range_meters":3600,"station_id":"","pricing_plan_id":"cebpf4jnsgd1na2vs0mg"},{"bike_id":"8229c02c-ac67-4633-98e2-39162eeadd91","system_id":"levelo_inurba_marseille","lat":43.27151,"lon":5.41439,"is_reserved":false,"is_disabled":false,"rental_uris":{"android":"levelo://app?vid=8229c02c-ac67-4633-98e2-39162eeadd91","ios":"levelo://app?vid=8229c02c-ac67-4633-98e2-39162eeadd91"},"vehicle_type_id":"4","last_reported":1784584921,"current_range_meters":3600,"station_id":"","pricing_plan_id":"cebpf4jnsgd1na2vs0mg"},{"bike_id":"c17dccf4-48a9-4151-920c-ca8a7291db82","system_id":"levelo_inurba_marseille","lat":43.30658,"lon":5.40075,"is_reserved":false,"is_disabled":false,"rental_uris":{"android":"levelo://app?vid=c17dccf4-48a9-4151-920c-ca8a7291db82","ios":"levelo://app?vid=c17dccf4-48a9-4151-920c-ca8a7291db82"},"vehicle_type_id":"4","last_reported":1784584921,"current_range_meters":3600,"station_id":"ce4bh112rcd13ifvqda0","pricing_plan_id":"cebpf4jnsgd1na2vs0mg"},{"bike_id":"436fc909-1e3b-44c0-b92e-5ee8e5c56863","system_id":"levelo_inurba_marseille","lat":43.29321,"lon":5.39169,"is_reserved":false,"is_disabled":false,"rental_uris":{"android":"levelo://app?vid=436fc909-1e3b-44c0-b92e-5ee8e5c56863","ios":"levelo://app?vid=436fc909-1e3b-44c0-b92e-5ee8e5c56863"},"vehicle_type_id":"4","last_reported":1784584921,"current_range_meters":3600,"station_id":"","pricing_plan_id":"cebpf4jnsgd1na2vs0mg"},{"bike_id":"bbb6d84d-52b2-4523-b78b-60cb354411ef","system_id":"levelo_inurba_marseille","lat":43.32092,"lon":5.36769,"is_reserved":false,"is_disabled":false,"rental_uris":{"android":"levelo://app?vid=bbb6d84d-52b2-4523-b78b-60cb354411ef","ios":"levelo://app?vid=bbb6d84d-52b2-4523-b78b-60cb354411ef"},"vehicle_type_id":"4","last_reported":1784584921,"current_range_meters":4000,"station_id":"ce4bhrh2rcd13ifvqhug","pricing_plan_id":"cebpf4jnsgd1na2vs0mg"},{"bike_id":"ebfe9d04-d34e-4bb1-90c9-79f7b73604ae","system_id":"levelo_inurba_marseille","lat":43.27044,"lon":5.42903,"is_reserved":false,"is_disabled":false,"rental_uris":{"android":"levelo://app?vid=ebfe9d04-d34e-4bb1-90c9-79f7b73604ae","ios":"levelo://app?vid=ebfe9d04-d34e-4bb1-90c9-79f7b73604ae"},"vehicle_type_id":"4","last_reported":1784584921,"current_range_meters":4000,"station_id":"","pricing_plan_id":"cebpf4jnsgd1na2vs0mg"},{"bike_id":"4aa9b431-4568-48de-ab61-9aea9a7d2b57","system_id":"levelo_inurba_marseille","lat":43.28543,"lon":5.44097,"is_reserved":false,"is_disabled":false,"rental_uris":{"android":"levelo://app?vid=4aa9b431-4568-48de-ab61-9aea9a7d2b57","ios":"levelo://app?vid=4aa9b431-4568-48de-ab61-9aea9a7d2b57"},"vehicle_type_id":"4","last_reported":1784584921,"current_range_meters":4000,"station_id":"st_d3j3df2ikq2c7380ej80","pricing_plan_id":"cebpf4jnsgd1na2vs0mg"},{"bike_id":"4839ef8b-0a45-4291-abdc-3ddc6ba4b3b9","system_id":"levelo_inurba_marseille","lat":43.26673,"lon":5.3829,"is_reserved":false,"is_disabled":false,"rental_uris":{"android":"levelo://app?vid=4839ef8b-0a45-4291-abdc-3ddc6ba4b3b9","ios":"levelo://app?vid=4839ef8b-0a45-4291-abdc-3ddc6ba4b3b9"},"vehicle_type_id":"4","last_reported":1784584921,"current_range_meters":4000,"station_id":"ce4bhg92rcd13ifvqf90","pricing_plan_id":"cebpf4jnsgd1na2vs0mg"},{"bike_id":"6a1d1bd9-0c71-4024-9188-4c8b8cc8703e","system_id":"levelo_inurba_marseille","lat":43.28466,"lon":5.35888,"is_reserved":false,"is_disabled":false,"rental_uris":{"android":"levelo://app?vid=6a1d1bd9-0c71-4024-9188-4c8b8cc8703e","ios":"levelo://app?vid=6a1d1bd9-0c71-4024-9188-4c8b8cc8703e"},"vehicle_type_id":"4","last_reported":1784584921,"current_range_meters":4000,"station_id":"ce4bhah2rcd13ifvqei0","pricing_plan_id":"cebpf4jnsgd1na2vs0mg"},{"bike_id":"c8f40867-0c7d-4e41-b9a7-a40b7f2fc64a","system_id":"levelo_inurba_marseille","lat":43.25407,"lon":5.38127,"is_reserved":false,"is_disabled":false,"rental_uris":{"android":"levelo://app?vid=c8f40867-0c7d-4e41-b9a7-a40b7f2fc64a","ios":"levelo://app?vid=c8f40867-0c7d-4e41-b9a7-a40b7f2fc64a"},"vehicle_type_id":"4","last_reported":1784584921,"current_range_meters":4000,"station_id":"","pricing_plan_id":"cebpf4jnsgd1na2vs0mg"},{"bike_id":"ae4d27fa-7d78-4dd5-b966-6508a465aefc","system_id":"levelo_inurba_marseille","lat":43.3137,"lon":5.38491,"is_reserved":false,"is_disabled":false,"rental_uris":{"android":"levelo://app?vid=ae4d27fa-7d78-4dd5-b966-6508a465aefc","ios":"levelo://app?vid=ae4d27fa-7d78-4dd5-b966-6508a465aefc"},"vehicle_type_id":"4","last_reported":1784584921,"current_range_meters":4000,"station_id":"ce4bgt92rcd13ifvqcf0","pricing_plan_id":"cebpf4jnsgd1na2vs0mg"},{"bike_id":"db422ed4-5d5d-4143-8082-a86c417c9acc","system_id":"levelo_inurba_marseille","lat":43.28901,"lon":5.37821,"is_reserved":false,"is_disabled":false,"rental_uris":{"android":"levelo://app?vid=db422ed4-5d5d-4143-8082-a86c417c9acc","ios":"levelo://app?vid=db422ed4-5d5d-4143-8082-a86c417c9acc"},"vehicle_type_id":"4","last_reported":1784584921,"current_range_meters":4000,"station_id":"","pricing_plan_id":"cebpf4jnsgd1na2vs0mg"},{"bike_id":"44056026-483f-4a30-af66-6158b4ce04ad","system_id":"levelo_inurba_marseille","lat":43.21178,"lon":5.351,"is_reserved":false,"is_disabled":true,"rental_uris":{"android":"levelo://app?vid=44056026-483f-4a30-af66-6158b4ce04ad","ios":"levelo://app?vid=44056026-483f-4a30-af66-6158b4ce04ad"},"vehicle_type_id":"4","last_reported":1784584921,"current_range_meters":4000,"station_id":"st_cvj6sg6p6f1abm77japg","pricing_plan_id":"cebpf4jnsgd1na2vs0mg"},{"bike_id":"46cf8ae5-7127-4b21-8a09-851f2928b5d5","system_id":"levelo_inurba_marseille","lat":43.27962,"lon":5.36315,"is_reserved":false,"is_disabled":false,"rental_uris":{"android":"levelo://app?vid=46cf8ae5-7127-4b21-8a09-851f2928b5d5","ios":"levelo://app?vid=46cf8ae5-7127-4b21-8a09-851f2928b5d5"},"vehicle_type_id":"4","last_reported":1784584921,"current_range_meters":4000,"station_id":"","pricing_plan_id":"cebpf4jnsgd1na2vs0mg"},{"bike_id":"5e059ee5-0f27-4d2f-bbfb-c350a3957174","system_id":"levelo_inurba_marseille","lat":43.21186,"lon":5.35075,"is_reserved":false,"is_disabled":false,"rental_uris":{"android":"levelo://app?vid=5e059ee5-0f27-4d2f-bbfb-c350a3957174","ios":"levelo://app?vid=5e059ee5-0f27-4d2f-bbfb-c350a3957174"},"vehicle_type_id":"4","last_reported":1784584921,"current_range_meters":4000,"station_id":"st_cvj6sg6p6f1abm77japg","pricing_plan_id":"cebpf4jnsgd1na2vs0mg"},{"bike_id":"1a94b727-8b96-4ab9-a321-2c10999ebe0e","system_id":"levelo_inurba_marseille","lat":43.27969,"lon":5.38736,"is_reserved":false,"is_disabled":false,"rental_uris":{"android":"levelo://app?vid=1a94b727-8b96-4ab9-a321-2c10999ebe0e","ios":"levelo://app?vid=1a94b727-8b96-4ab9-a321-2c10999ebe0e"},"vehicle_type_id":"4","last_reported":1784584921,"current_range_meters":4000,"station_id":"ce4bhg12rcd13ifvqf80","pricing_plan_id":"cebpf4jnsgd1na2vs0mg"},{"bike_id":"792fe599-0f1a-4096-be62-f46c6f1b54c9","system_id":"levelo_inurba_marseille","lat":43.28455,"lon":5.40038,"is_reserved":false,"is_disabled":false,"rental_uris":{"android":"levelo://app?vid=792fe599-0f1a-4096-be62-f46c6f1b54c9","ios":"levelo://app?vid=792fe599-0f1a-4096-be62-f46c6f1b54c9"},"vehicle_type_id":"4","last_reported":1784584921,"current_range_meters":4000,"station_id":"","pricing_plan_id":"cebpf4jnsgd1na2vs0mg"},{"bike_id":"3a80e04f-8593-4ad6-a55c-63f0cf7709cf","system_id":"levelo_inurba_marseille","lat":43.29198,"lon":5.41101,"is_reserved":false,"is_disabled":true,"rental_uris":{"android":"levelo://app?vid=3a80e04f-8593-4ad6-a55c-63f0cf7709cf","ios":"levelo://app?vid=3a80e04f-8593-4ad6-a55c-63f0cf7709cf"},"vehicle_type_id":"4","last_reported":1784584921,"current_range_meters":4000,"station_id":"","pricing_plan_id":"cebpf4jnsgd1na2vs0mg"},{"bike_id":"0973248c-0364-46d5-b81a-a9563667e009","system_id":"levelo_inurba_marseille","lat":43.28454,"lon":5.3588,"is_reserved":false,"is_disabled":false,"rental_uris":{"android":"levelo://app?vid=0973248c-0364-46d5-b81a-a9563667e009","ios":"levelo://app?vid=0973248c-0364-46d5-b81a-a9563667e009"},"vehicle_type_id":"4","last_reported":1784584921,"current_range_meters":4000,"station_id":"ce4bhah2rcd13ifvqei0","pricing_plan_id":"cebpf4jnsgd1na2vs0mg"},{"bike_id":"b8a0803f-637f-47d7-83be-24b9f26cc7e9","system_id":"levelo_inurba_marseille","lat":43.32183,"lon":5.38253,"is_reserved":false,"is_disabled":false,"rental_uris":{"android":"levelo://app?vid=b8a0803f-637f-47d7-83be-24b9f26cc7e9","ios":"levelo://app?vid=b8a0803f-637f-47d7-83be-24b9f26cc7e9"},"vehicle_type_id":"4","last_reported":1784584921,"current_range_meters":4000,"station_id":"","pricing_plan_id":"cebpf4jnsgd1na2vs0mg"},{"bike_id":"d7eeb564-a2b4-4942-8e27-d40af6dfb463","system_id":"levelo_inurba_marseille","lat":43.31704,"lon":5.37745,"is_reserved":false,"is_disabled":false,"rental_uris":{"android":"levelo://app?vid=d7eeb564-a2b4-4942-8e27-d40af6dfb463","ios":"levelo://app?vid=d7eeb564-a2b4-4942-8e27-d40af6dfb463"},"vehicle_type_id":"4","last_reported":1784584921,"current_range_meters":4000,"station_id":"ce4bgth2rcd13ifvqch0","pricing_plan_id":"cebpf4jnsgd1na2vs0mg"},{"bike_id":"ea3c9c7e-74a4-4582-a6c7-6c6d5b536807","system_id":"levelo_inurba_marseille","lat":43.29243,"lon":5.35714,"is_reserved":false,"is_disabled":false,"rental_uris":{"android":"levelo://app?vid=ea3c9c7e-74a4-4582-a6c7-6c6d5b536807","ios":"levelo://app?vid=ea3c9c7e-74a4-4582-a6c7-6c6d5b536807"},"vehicle_type_id":"4","last_reported":1784584921,"current_range_meters":4000,"station_id":"","pricing_plan_id":"cebpf4jnsgd1na2vs0mg"},{"bike_id":"6bf0a33e-fbdb-450b-ba74-f564e561ddfb","system_id":"levelo_inurba_marseille","lat":43.24975,"lon":5.41661,"is_reserved":false,"is_disabled":false,"rental_uris":{"android":"levelo://app?vid=6bf0a33e-fbdb-450b-ba74-f564e561ddfb","ios":"levelo://app?vid=6bf0a33e-fbdb-450b-ba74-f564e561ddfb"},"vehicle_type_id":"4","last_reported":1784584921,"current_range_meters":4000,"station_id":"","pricing_plan_id":"cebpf4jnsgd1na2vs0mg"},{"bike_id":"f8cfacc1-37b5-4d93-b89b-bd250454f9f4","system_id":"levelo_inurba_marseille","lat":43.29964,"lon":5.37188,"is_reserved":false,"is_disabled":false,"rental_uris":{"android":"levelo://app?vid=f8cfacc1-37b5-4d93-b89b-bd250454f9f4","ios":"levelo://app?vid=f8cfacc1-37b5-4d93-b89b-bd250454f9f4"},"vehicle_type_id":"4","last_reported":1784584921,"current_range_meters":4000,"station_id":"ce4bgr92rcd13ifvqc7g","pricing_plan_id":"cebpf4jnsgd1na2vs0mg"},{"bike_id":"8aab447f-8b3a-4aaf-9575-0053723224f5","system_id":"levelo_inurba_marseille","lat":43.27364,"lon":5.36259,"is_reserved":false,"is_disabled":false,"rental_uris":{"android":"levelo://app?vid=8aab447f-8b3a-4aaf-9575-0053723224f5","ios":"levelo://app?vid=8aab447f-8b3a-4aaf-9575-0053723224f5"},"vehicle_type_id":"4","last_reported":1784584921,"current_range_meters":4400,"station_id":"ce4bhbh2rcd13ifvqeo0","pricing_plan_id":"cebpf4jnsgd1na2vs0mg"},{"bike_id":"d47a6461-fcb7-4c72-8f38-db1576ed5368","system_id":"levelo_inurba_marseille","lat":43.309451,"lon":5.390288,"is_reserved":false,"is_disabled":false,"rental_uris":{"android":"levelo://app?vid=d47a6461-fcb7-4c72-8f38-db1576ed5368","ios":"levelo://app?vid=d47a6461-fcb7-4c72-8f38-db1576ed5368"},"vehicle_type_id":"4","last_reported":1784584921,"current_range_meters":4400,"station_id":"","pricing_plan_id":"cebpf4jnsgd1na2vs0mg"},{"bike_id":"74162b45-2f0c-4389-a673-119afc3b84cd","system_id":"levelo_inurba_marseille","lat":43.28544,"lon":5.44094,"is_reserved":false,"is_disabled":false,"rental_uris":{"android":"levelo://app?vid=74162b45-2f0c-4389-a673-119afc3b84cd","ios":"levelo://app?vid=74162b45-2f0c-4389-a673-119afc3b84cd"},"vehicle_type_id":"4","last_reported":1784584921,"current_range_meters":4400,"station_id":"st_d3j3df2ikq2c7380ej80","pricing_plan_id":"cebpf4jnsgd1na2vs0mg"},{"bike_id":"82cf5c3f-81b5-4ff9-8f1f-ec8f60c4c737","system_id":"levelo_inurba_marseille","lat":43.29009,"lon":5.3812,"is_reserved":false,"is_disabled":false,"rental_uris":{"android":"levelo://app?vid=82cf5c3f-81b5-4ff9-8f1f-ec8f60c4c737","ios":"levelo://app?vid=82cf5c3f-81b5-4ff9-8f1f-ec8f60c4c737"},"vehicle_type_id":"4","last_reported":1784584921,"current_range_meters":4400,"station_id":"ce4bh4p2rcd13ifvqe1g","pricing_plan_id":"cebpf4jnsgd1na2vs0mg"},{"bike_id":"f8025a68-5088-44db-b902-4a8a392f25ea","system_id":"levelo_inurba_marseille","lat":43.29997,"lon":5.39884,"is_reserved":false,"is_disabled":false,"rental_uris":{"android":"levelo://app?vid=f8025a68-5088-44db-b902-4a8a392f25ea","ios":"levelo://app?vid=f8025a68-5088-44db-b902-4a8a392f25ea"},"vehicle_type_id":"4","last_reported":1784584921,"current_range_meters":4400,"station_id":"","pricing_plan_id":"cebpf4jnsgd1na2vs0mg"},{"bike_id":"2bb99dd5-5572-47bd-943f-0f7f06482886","system_id":"levelo_inurba_marseille","lat":43.27994,"lon":5.40012,"is_reserved":false,"is_disabled":false,"rental_uris":{"android":"levelo://app?vid=2bb99dd5-5572-47bd-943f-0f7f06482886","ios":"levelo://app?vid=2bb99dd5-5572-47bd-943f-0f7f06482886"},"vehicle_type_id":"4","last_reported":1784584921,"current_range_meters":4400,"station_id":"ce4bho92rcd13ifvqh4g","pricing_plan_id":"cebpf4jnsgd1na2vs0mg"},{"bike_id":"6fbf2cc4-1d68-4ec2-a2af-1cf5b69f7ca8","system_id":"levelo_inurba_marseille","lat":43.26352,"lon":5.37867,"is_reserved":false,"is_disabled":false,"rental_uris":{"android":"levelo://app?vid=6fbf2cc4-1d68-4ec2-a2af-1cf5b69f7ca8","ios":"levelo://app?vid=6fbf2cc4-1d68-4ec2-a2af-1cf5b69f7ca8"},"vehicle_type_id":"4","last_reported":1784584921,"current_range_meters":4400,"station_id":"","pricing_plan_id":"cebpf4jnsgd1na2vs0mg"},{"bike_id":"1e371c83-8616-467b-a740-e8e0b33f6094","system_id":"levelo_inurba_marseille","lat":43.33763,"lon":5.37446,"is_reserved":false,"is_disabled":false,"rental_uris":{"android":"levelo://app?vid=1e371c83-8616-467b-a740-e8e0b33f6094","ios":"levelo://app?vid=1e371c83-8616-467b-a740-e8e0b33f6094"},"vehicle_type_id":"4","last_reported":1784584921,"current_range_meters":4400,"station_id":"","pricing_plan_id":"cebpf4jnsgd1na2vs0mg"},{"bike_id":"bf3c332c-5b4f-466f-825f-344034478776","system_id":"levelo_inurba_marseille","lat":43.25332,"lon":5.42189,"is_reserved":false,"is_disabled":false,"rental_uris":{"android":"levelo://app?vid=bf3c332c-5b4f-466f-825f-344034478776","ios":"levelo://app?vid=bf3c332c-5b4f-466f-825f-344034478776"},"vehicle_type_id":"4","last_reported":1784584921,"current_range_meters":4400,"station_id":"st_d2m65c5bi1j21697t3ng","pricing_plan_id":"cebpf4jnsgd1na2vs0mg"},{"bike_id":"534e1454-611d-44e3-9fb6-0280736ef35e","system_id":"levelo_inurba_marseille","lat":43.27817,"lon":5.40716,"is_reserved":false,"is_disabled":false,"rental_uris":{"android":"levelo://app?vid=534e1454-611d-44e3-9fb6-0280736ef35e","ios":"levelo://app?vid=534e1454-611d-44e3-9fb6-0280736ef35e"},"vehicle_type_id":"4","last_reported":1784584921,"current_range_meters":4800,"station_id":"ce4bhnh2rcd13ifvqgtg","pricing_plan_id":"cebpf4jnsgd1na2vs0mg"},{"bike_id":"deab0385-0efa-4bfa-9d6c-fc9e57b19cd0","system_id":"levelo_inurba_marseille","lat":43.30044,"lon":5.37001,"is_reserved":false,"is_disabled":false,"rental_uris":{"android":"levelo://app?vid=deab0385-0efa-4bfa-9d6c-fc9e57b19cd0","ios":"levelo://app?vid=deab0385-0efa-4bfa-9d6c-fc9e57b19cd0"},"vehicle_type_id":"4","last_reported":1784584921,"current_range_meters":4800,"station_id":"","pricing_plan_id":"cebpf4jnsgd1na2vs0mg"},{"bike_id":"e9dec098-23bc-4c7c-9c4c-e7ab518e6e4c","system_id":"levelo_inurba_marseille","lat":43.30254,"lon":5.40049,"is_reserved":false,"is_disabled":false,"rental_uris":{"android":"levelo://app?vid=e9dec098-23bc-4c7c-9c4c-e7ab518e6e4c","ios":"levelo://app?vid=e9dec098-23bc-4c7c-9c4c-e7ab518e6e4c"},"vehicle_type_id":"4","last_reported":1784584921,"current_range_meters":4800,"station_id":"","pricing_plan_id":"cebpf4jnsgd1na2vs0mg"},{"bike_id":"d82de7dd-722b-4555-94b1-e576adf6f822","system_id":"levelo_inurba_marseille","lat":43.29522,"lon":5.3903,"is_reserved":false,"is_disabled":false,"rental_uris":{"android":"levelo://app?vid=d82de7dd-722b-4555-94b1-e576adf6f822","ios":"levelo://app?vid=d82de7dd-722b-4555-94b1-e576adf6f822"},"vehicle_type_id":"4","last_reported":1784584921,"current_range_meters":4800,"station_id":"ce4bh3p2rcd13ifvqdp0","pricing_plan_id":"cebpf4jnsgd1na2vs0mg"},{"bike_id":"2ec5af26-9300-4a2f-97f7-81e26fff9212","system_id":"levelo_inurba_marseille","lat":43.2921,"lon":5.36045,"is_reserved":false,"is_disabled":false,"rental_uris":{"android":"levelo://app?vid=2ec5af26-9300-4a2f-97f7-81e26fff9212","ios":"levelo://app?vid=2ec5af26-9300-4a2f-97f7-81e26fff9212"},"vehicle_type_id":"4","last_reported":1784584921,"current_range_meters":4800,"station_id":"","pricing_plan_id":"cebpf4jnsgd1na2vs0mg"},{"bike_id":"f4cc111d-ecb6-4d83-a739-5a9a81743609","system_id":"levelo_inurba_marseille","lat":43.26186,"lon":5.3747,"is_reserved":false,"is_disabled":false,"rental_uris":{"android":"levelo://app?vid=f4cc111d-ecb6-4d83-a739-5a9a81743609","ios":"levelo://app?vid=f4cc111d-ecb6-4d83-a739-5a9a81743609"},"vehicle_type_id":"4","last_reported":1784584921,"current_range_meters":4800,"station_id":"ce4bhgp2rcd13ifvqfc0","pricing_plan_id":"cebpf4jnsgd1na2vs0mg"},{"bike_id":"d2adeea6-d6cf-44b4-9744-2074c9fb2d92","system_id":"levelo_inurba_marseille","lat":43.23063,"lon":5.35497,"is_reserved":false,"is_disabled":false,"rental_uris":{"android":"levelo://app?vid=d2adeea6-d6cf-44b4-9744-2074c9fb2d92","ios":"levelo://app?vid=d2adeea6-d6cf-44b4-9744-2074c9fb2d92"},"vehicle_type_id":"4","last_reported":1784584921,"current_range_meters":4800,"station_id":"cpo3342slgdg3j2ifvpg","pricing_plan_id":"cebpf4jnsgd1na2vs0mg"},{"bike_id":"70a19ae9-058d-429d-a9ba-01827f18c26e","system_id":"levelo_inurba_marseille","lat":43.26796,"lon":5.39418,"is_reserved":false,"is_disabled":false,"rental_uris":{"android":"levelo://app?vid=70a19ae9-058d-429d-a9ba-01827f18c26e","ios":"levelo://app?vid=70a19ae9-058d-429d-a9ba-01827f18c26e"},"vehicle_type_id":"4","last_reported":1784584921,"current_range_meters":4800,"station_id":"ce4bhh12rcd13ifvqfg0","pricing_plan_id":"cebpf4jnsgd1na2vs0mg"},{"bike_id":"5dc86a63-8761-48d2-b285-5c06dc0a6fd9","system_id":"levelo_inurba_marseille","lat":43.24158,"lon":5.36411,"is_reserved":false,"is_disabled":false,"rental_uris":{"android":"levelo://app?vid=5dc86a63-8761-48d2-b285-5c06dc0a6fd9","ios":"levelo://app?vid=5dc86a63-8761-48d2-b285-5c06dc0a6fd9"},"vehicle_type_id":"4","last_reported":1784584921,"current_range_meters":4800,"station_id":"cpo36qri1sfpv3e86is0","pricing_plan_id":"cebpf4jnsgd1na2vs0mg"},{"bike_id":"94f1b0ad-aaa9-4b51-806c-9eae39355e9b","system_id":"levelo_inurba_marseille","lat":43.27366,"lon":5.36253,"is_reserved":false,"is_disabled":false,"rental_uris":{"android":"levelo://app?vid=94f1b0ad-aaa9-4b51-806c-9eae39355e9b","ios":"levelo://app?vid=94f1b0ad-aaa9-4b51-806c-9eae39355e9b"},"vehicle_type_id":"4","last_reported":1784584921,"current_range_meters":5600,"station_id":"ce4bhbh2rcd13ifvqeo0","pricing_plan_id":"cebpf4jnsgd1na2vs0mg"},{"bike_id":"ac445e2a-093f-4545-aa79-84eb5da1eda9","system_id":"levelo_inurba_marseille","lat":43.28341,"lon":5.38092,"is_reserved":false,"is_disabled":false,"rental_uris":{"android":"levelo://app?vid=ac445e2a-093f-4545-aa79-84eb5da1eda9","ios":"levelo://app?vid=ac445e2a-093f-4545-aa79-84eb5da1eda9"},"vehicle_type_id":"4","last_reported":1784584921,"current_range_meters":5600,"station_id":"ce4bh412rcd13ifvqdr0","pricing_plan_id":"cebpf4jnsgd1na2vs0mg"},{"bike_id":"2313e680-94a4-4c48-a5d4-fb7a28b6f30b","system_id":"levelo_inurba_marseille","lat":43.28701,"lon":5.37949,"is_reserved":false,"is_disabled":false,"rental_uris":{"android":"levelo://app?vid=2313e680-94a4-4c48-a5d4-fb7a28b6f30b","ios":"levelo://app?vid=2313e680-94a4-4c48-a5d4-fb7a28b6f30b"},"vehicle_type_id":"4","last_reported":1784584921,"current_range_meters":5600,"station_id":"ce4bh9p2rcd13ifvqec0","pricing_plan_id":"cebpf4jnsgd1na2vs0mg"},{"bike_id":"29cc19a2-8224-45c7-b593-325d1d10dfe2","system_id":"levelo_inurba_marseille","lat":43.23778,"lon":5.36633,"is_reserved":false,"is_disabled":false,"rental_uris":{"android":"levelo://app?vid=29cc19a2-8224-45c7-b593-325d1d10dfe2","ios":"levelo://app?vid=29cc19a2-8224-45c7-b593-325d1d10dfe2"},"vehicle_type_id":"4","last_reported":1784584921,"current_range_meters":5600,"station_id":"st_d3nk18o9ro0c73en2l3g","pricing_plan_id":"cebpf4jnsgd1na2vs0mg"},{"bike_id":"66ddd3ee-ffa8-412f-bf02-0875e844d113","system_id":"levelo_inurba_marseille","lat":43.311,"lon":5.37763,"is_reserved":false,"is_disabled":false,"rental_uris":{"android":"levelo://app?vid=66ddd3ee-ffa8-412f-bf02-0875e844d113","ios":"levelo://app?vid=66ddd3ee-ffa8-412f-bf02-0875e844d113"},"vehicle_type_id":"4","last_reported":1784584921,"current_range_meters":5600,"station_id":"ce4bgt92rcd13ifvqcg0","pricing_plan_id":"cebpf4jnsgd1na2vs0mg"},{"bike_id":"1d70dd79-878a-4c25-ba15-12c7d23c8b7f","system_id":"levelo_inurba_marseille","lat":43.30668,"lon":5.38125,"is_reserved":false,"is_disabled":false,"rental_uris":{"android":"levelo://app?vid=1d70dd79-878a-4c25-ba15-12c7d23c8b7f","ios":"levelo://app?vid=1d70dd79-878a-4c25-ba15-12c7d23c8b7f"},"vehicle_type_id":"4","last_reported":1784584921,"current_range_meters":5600,"station_id":"","pricing_plan_id":"cebpf4jnsgd1na2vs0mg"},{"bike_id":"efccd49c-0535-4cfb-8a2b-9c7eef7b94aa","system_id":"levelo_inurba_marseille","lat":43.29368,"lon":5.37851,"is_reserved":false,"is_disabled":false,"rental_uris":{"android":"levelo://app?vid=efccd49c-0535-4cfb-8a2b-9c7eef7b94aa","ios":"levelo://app?vid=efccd49c-0535-4cfb-8a2b-9c7eef7b94aa"},"vehicle_type_id":"4","last_reported":1784584921,"current_range_meters":6000,"station_id":"ce4bgjh2rcd13ifvqbf0","pricing_plan_id":"cebpf4jnsgd1na2vs0mg"},{"bike_id":"d289bf61-8180-4650-8a0b-cd5d340f4013","system_id":"levelo_inurba_marseille","lat":43.24056,"lon":5.37768,"is_reserved":false,"is_disabled":false,"rental_uris":{"android":"levelo://app?vid=d289bf61-8180-4650-8a0b-cd5d340f4013","ios":"levelo://app?vid=d289bf61-8180-4650-8a0b-cd5d340f4013"},"vehicle_type_id":"4","last_reported":1784584921,"current_range_meters":6000,"station_id":"ce4bhnp2rcd13ifvqgvg","pricing_plan_id":"cebpf4jnsgd1na2vs0mg"},{"bike_id":"ec9941e2-f8b6-40b6-b56d-6a6096b22312","system_id":"levelo_inurba_marseille","lat":43.29694,"lon":5.37272,"is_reserved":false,"is_disabled":true,"rental_uris":{"android":"levelo://app?vid=ec9941e2-f8b6-40b6-b56d-6a6096b22312","ios":"levelo://app?vid=ec9941e2-f8b6-40b6-b56d-6a6096b22312"},"vehicle_type_id":"4","last_reported":1784584921,"current_range_meters":6000,"station_id":"ce4bgk12rcd13ifvqbj0","pricing_plan_id":"cebpf4jnsgd1na2vs0mg"},{"bike_id":"0db7b115-7881-416f-ba7b-d797743fcb37","system_id":"levelo_inurba_marseille","lat":43.27609,"lon":5.3612,"is_reserved":false,"is_disabled":true,"rental_uris":{"android":"levelo://app?vid=0db7b115-7881-416f-ba7b-d797743fcb37","ios":"levelo://app?vid=0db7b115-7881-416f-ba7b-d797743fcb37"},"vehicle_type_id":"4","last_reported":1784584921,"current_range_meters":6000,"station_id":"ce4bgj92rcd13ifvqbe0","pricing_plan_id":"cebpf4jnsgd1na2vs0mg"},{"bike_id":"5fae6156-33c3-4e73-86c1-951faa8e27af","system_id":"levelo_inurba_marseille","lat":43.28697,"lon":5.46689,"is_reserved":false,"is_disabled":true,"rental_uris":{"android":"levelo://app?vid=5fae6156-33c3-4e73-86c1-951faa8e27af","ios":"levelo://app?vid=5fae6156-33c3-4e73-86c1-951faa8e27af"},"vehicle_type_id":"4","last_reported":1784584921,"current_range_meters":6000,"station_id":"st_d6tc3vkotcvc738tfjhg","pricing_plan_id":"cebpf4jnsgd1na2vs0mg"},{"bike_id":"4eaa2552-d720-4339-9d67-1212f70f9ce0","system_id":"levelo_inurba_marseille","lat":43.2944,"lon":5.39742,"is_reserved":false,"is_disabled":false,"rental_uris":{"android":"levelo://app?vid=4eaa2552-d720-4339-9d67-1212f70f9ce0","ios":"levelo://app?vid=4eaa2552-d720-4339-9d67-1212f70f9ce0"},"vehicle_type_id":"4","last_reported":1784584921,"current_range_meters":6000,"station_id":"ce4bh3h2rcd13ifvqdo0","pricing_plan_id":"cebpf4jnsgd1na2vs0mg"},{"bike_id":"0696fc55-38df-479e-b165-8c888c8f4f52","system_id":"levelo_inurba_marseille","lat":43.30599,"lon":5.37394,"is_reserved":false,"is_disabled":false,"rental_uris":{"android":"levelo://app?vid=0696fc55-38df-479e-b165-8c888c8f4f52","ios":"levelo://app?vid=0696fc55-38df-479e-b165-8c888c8f4f52"},"vehicle_type_id":"4","last_reported":1784584921,"current_range_meters":6000,"station_id":"","pricing_plan_id":"cebpf4jnsgd1na2vs0mg"},{"bike_id":"ea5cbed4-1f71-48d2-8659-25549309fc06","system_id":"levelo_inurba_marseille","lat":43.29569,"lon":5.39983,"is_reserved":false,"is_disabled":false,"rental_uris":{"android":"levelo://app?vid=ea5cbed4-1f71-48d2-8659-25549309fc06","ios":"levelo://app?vid=ea5cbed4-1f71-48d2-8659-25549309fc06"},"vehicle_type_id":"4","last_reported":1784584921,"current_range_meters":6000,"station_id":"ce4bh312rcd13ifvqdj0","pricing_plan_id":"cebpf4jnsgd1na2vs0mg"},{"bike_id":"8c435f9d-8376-4111-9b72-bb9089274187","system_id":"levelo_inurba_marseille","lat":43.24579,"lon":5.39352,"is_reserved":false,"is_disabled":false,"rental_uris":{"android":"levelo://app?vid=8c435f9d-8376-4111-9b72-bb9089274187","ios":"levelo://app?vid=8c435f9d-8376-4111-9b72-bb9089274187"},"vehicle_type_id":"4","last_reported":1784584921,"current_range_meters":6000,"station_id":"","pricing_plan_id":"cebpf4jnsgd1na2vs0mg"},{"bike_id":"264f4df4-00a7-4422-a53a-457b9c511ed8","system_id":"levelo_inurba_marseille","lat":43.23195,"lon":5.35552,"is_reserved":false,"is_disabled":false,"rental_uris":{"android":"levelo://app?vid=264f4df4-00a7-4422-a53a-457b9c511ed8","ios":"levelo://app?vid=264f4df4-00a7-4422-a53a-457b9c511ed8"},"vehicle_type_id":"4","last_reported":1784584921,"current_range_meters":6000,"station_id":"ce4bhu92rcd13ifvqi70","pricing_plan_id":"cebpf4jnsgd1na2vs0mg"},{"bike_id":"ed731a76-3376-4881-8760-68d2ddf0ba22","system_id":"levelo_inurba_marseille","lat":43.29885,"lon":5.3746,"is_reserved":false,"is_disabled":false,"rental_uris":{"android":"levelo://app?vid=ed731a76-3376-4881-8760-68d2ddf0ba22","ios":"levelo://app?vid=ed731a76-3376-4881-8760-68d2ddf0ba22"},"vehicle_type_id":"4","last_reported":1784584921,"current_range_meters":6000,"station_id":"ce4bgjh2rcd13ifvqbg0","pricing_plan_id":"cebpf4jnsgd1na2vs0mg"},{"bike_id":"5bc72dc3-83be-4a6b-89ac-b484cf13d2ff","system_id":"levelo_inurba_marseille","lat":43.26417,"lon":5.39902,"is_reserved":false,"is_disabled":false,"rental_uris":{"android":"levelo://app?vid=5bc72dc3-83be-4a6b-89ac-b484cf13d2ff","ios":"levelo://app?vid=5bc72dc3-83be-4a6b-89ac-b484cf13d2ff"},"vehicle_type_id":"4","last_reported":1784584921,"current_range_meters":6000,"station_id":"","pricing_plan_id":"cebpf4jnsgd1na2vs0mg"},{"bike_id":"95b08736-dba0-4839-89cf-e8445aa369f7","system_id":"levelo_inurba_marseille","lat":43.29872,"lon":5.37188,"is_reserved":false,"is_disabled":false,"rental_uris":{"android":"levelo://app?vid=95b08736-dba0-4839-89cf-e8445aa369f7","ios":"levelo://app?vid=95b08736-dba0-4839-89cf-e8445aa369f7"},"vehicle_type_id":"4","last_reported":1784584921,"current_range_meters":6000,"station_id":"","pricing_plan_id":"cebpf4jnsgd1na2vs0mg"},{"bike_id":"5feb6120-99f3-40ac-88a0-a92ec4ec9659","system_id":"levelo_inurba_marseille","lat":43.3169,"lon":5.3759,"is_reserved":false,"is_disabled":false,"rental_uris":{"android":"levelo://app?vid=5feb6120-99f3-40ac-88a0-a92ec4ec9659","ios":"levelo://app?vid=5feb6120-99f3-40ac-88a0-a92ec4ec9659"},"vehicle_type_id":"4","last_reported":1784584921,"current_range_meters":6400,"station_id":"","pricing_plan_id":"cebpf4jnsgd1na2vs0mg"},{"bike_id":"db999bc5-0f76-4923-aa00-34338e2d9c6f","system_id":"levelo_inurba_marseille","lat":43.28921,"lon":5.38401,"is_reserved":false,"is_disabled":false,"rental_uris":{"android":"levelo://app?vid=db999bc5-0f76-4923-aa00-34338e2d9c6f","ios":"levelo://app?vid=db999bc5-0f76-4923-aa00-34338e2d9c6f"},"vehicle_type_id":"4","last_reported":1784584921,"current_range_meters":6400,"station_id":"ce4bh612rcd13ifvqe6g","pricing_plan_id":"cebpf4jnsgd1na2vs0mg"},{"bike_id":"9526f04a-aee1-44d2-9e29-f0e05e66d45f","system_id":"levelo_inurba_marseille","lat":43.21192,"lon":5.35072,"is_reserved":false,"is_disabled":false,"rental_uris":{"android":"levelo://app?vid=9526f04a-aee1-44d2-9e29-f0e05e66d45f","ios":"levelo://app?vid=9526f04a-aee1-44d2-9e29-f0e05e66d45f"},"vehicle_type_id":"4","last_reported":1784584921,"current_range_meters":6400,"station_id":"st_cvj6sg6p6f1abm77japg","pricing_plan_id":"cebpf4jnsgd1na2vs0mg"},{"bike_id":"4fd11863-6daa-4870-93fb-616354f83f1c","system_id":"levelo_inurba_marseille","lat":43.3012,"lon":5.37431,"is_reserved":false,"is_disabled":false,"rental_uris":{"android":"levelo://app?vid=4fd11863-6daa-4870-93fb-616354f83f1c","ios":"levelo://app?vid=4fd11863-6daa-4870-93fb-616354f83f1c"},"vehicle_type_id":"4","last_reported":1784584921,"current_range_meters":6400,"station_id":"ce4bgs92rcd13ifvqcc0","pricing_plan_id":"cebpf4jnsgd1na2vs0mg"},{"bike_id":"aac34d38-aa3e-4446-ab30-258bc8ca4528","system_id":"levelo_inurba_marseille","lat":43.28107,"lon":5.37851,"is_reserved":false,"is_disabled":true,"rental_uris":{"android":"levelo://app?vid=aac34d38-aa3e-4446-ab30-258bc8ca4528","ios":"levelo://app?vid=aac34d38-aa3e-4446-ab30-258bc8ca4528"},"vehicle_type_id":"4","last_reported":1784584921,"current_range_meters":6400,"station_id":"ce4bha12rcd13ifvqee0","pricing_plan_id":"cebpf4jnsgd1na2vs0mg"},{"bike_id":"b23f787b-b488-45bb-8dc9-9e79fd621d82","system_id":"levelo_inurba_marseille","lat":43.24939,"lon":5.3819,"is_reserved":false,"is_disabled":false,"rental_uris":{"android":"levelo://app?vid=b23f787b-b488-45bb-8dc9-9e79fd621d82","ios":"levelo://app?vid=b23f787b-b488-45bb-8dc9-9e79fd621d82"},"vehicle_type_id":"4","last_reported":1784584921,"current_range_meters":6400,"station_id":"","pricing_plan_id":"cebpf4jnsgd1na2vs0mg"},{"bike_id":"c34b300f-e48e-45bf-9194-cb7ab70fd104","system_id":"levelo_inurba_marseille","lat":43.2936,"lon":5.38182,"is_reserved":false,"is_disabled":false,"rental_uris":{"android":"levelo://app?vid=c34b300f-e48e-45bf-9194-cb7ab70fd104","ios":"levelo://app?vid=c34b300f-e48e-45bf-9194-cb7ab70fd104"},"vehicle_type_id":"4","last_reported":1784584921,"current_range_meters":6400,"station_id":"","pricing_plan_id":"cebpf4jnsgd1na2vs0mg"},{"bike_id":"03bd4918-2c3b-41d3-bc65-d933092822da","system_id":"levelo_inurba_marseille","lat":43.25342,"lon":5.42174,"is_reserved":false,"is_disabled":false,"rental_uris":{"android":"levelo://app?vid=03bd4918-2c3b-41d3-bc65-d933092822da","ios":"levelo://app?vid=03bd4918-2c3b-41d3-bc65-d933092822da"},"vehicle_type_id":"4","last_reported":1784584921,"current_range_meters":6400,"station_id":"st_d2m65c5bi1j21697t3ng","pricing_plan_id":"cebpf4jnsgd1na2vs0mg"},{"bike_id":"1321278a-c2ee-40d0-90a7-b5464337fdb6","system_id":"levelo_inurba_marseille","lat":43.28193,"lon":5.38446,"is_reserved":false,"is_disabled":false,"rental_uris":{"android":"levelo://app?vid=1321278a-c2ee-40d0-90a7-b5464337fdb6","ios":"levelo://app?vid=1321278a-c2ee-40d0-90a7-b5464337fdb6"},"vehicle_type_id":"4","last_reported":1784584921,"current_range_meters":6400,"station_id":"","pricing_plan_id":"cebpf4jnsgd1na2vs0mg"},{"bike_id":"29068d7e-b90d-4d00-b364-968baa506b10","system_id":"levelo_inurba_marseille","lat":43.28029,"lon":5.36942,"is_reserved":false,"is_disabled":false,"rental_uris":{"android":"levelo://app?vid=29068d7e-b90d-4d00-b364-968baa506b10","ios":"levelo://app?vid=29068d7e-b90d-4d00-b364-968baa506b10"},"vehicle_type_id":"4","last_reported":1784584921,"current_range_meters":6400,"station_id":"ce4bha12rcd13ifvqef0","pricing_plan_id":"cebpf4jnsgd1na2vs0mg"},{"bike_id":"981dcf25-8fd3-4270-bb95-5042f2485900","system_id":"levelo_inurba_marseille","lat":43.29261,"lon":5.38442,"is_reserved":false,"is_disabled":false,"rental_uris":{"android":"levelo://app?vid=981dcf25-8fd3-4270-bb95-5042f2485900","ios":"levelo://app?vid=981dcf25-8fd3-4270-bb95-5042f2485900"},"vehicle_type_id":"4","last_reported":1784584921,"current_range_meters":6400,"station_id":"ce4bh692rcd13ifvqea0","pricing_plan_id":"cebpf4jnsgd1na2vs0mg"},{"bike_id":"f8e3d2eb-a93d-4a3a-8b97-f787befa96a4","system_id":"levelo_inurba_marseille","lat":43.30087,"lon":5.39086,"is_reserved":false,"is_disabled":false,"rental_uris":{"android":"levelo://app?vid=f8e3d2eb-a93d-4a3a-8b97-f787befa96a4","ios":"levelo://app?vid=f8e3d2eb-a93d-4a3a-8b97-f787befa96a4"},"vehicle_type_id":"4","last_reported":1784584921,"current_range_meters":6400,"station_id":"ce4bh192rcd13ifvqdb0","pricing_plan_id":"cebpf4jnsgd1na2vs0mg"},{"bike_id":"2ae74ab1-2241-45b7-b76d-4ba3522ac210","system_id":"levelo_inurba_marseille","lat":43.225544,"lon":5.348445,"is_reserved":false,"is_disabled":false,"rental_uris":{"android":"levelo://app?vid=2ae74ab1-2241-45b7-b76d-4ba3522ac210","ios":"levelo://app?vid=2ae74ab1-2241-45b7-b76d-4ba3522ac210"},"vehicle_type_id":"4","last_reported":1784584921,"current_range_meters":6400,"station_id":"st_cvj5dfep6f1abm77gieg","pricing_plan_id":"cebpf4jnsgd1na2vs0mg"},{"bike_id":"143b0326-bcc2-41fe-ac94-ce3903ac509a","system_id":"levelo_inurba_marseille","lat":43.30849,"lon":5.40417,"is_reserved":false,"is_disabled":false,"rental_uris":{"android":"levelo://app?vid=143b0326-bcc2-41fe-ac94-ce3903ac509a","ios":"levelo://app?vid=143b0326-bcc2-41fe-ac94-ce3903ac509a"},"vehicle_type_id":"4","last_reported":1784584921,"current_range_meters":6800,"station_id":"","pricing_plan_id":"cebpf4jnsgd1na2vs0mg"},{"bike_id":"1206006c-d72f-4336-8b8d-3b69984f5769","system_id":"levelo_inurba_marseille","lat":43.27359,"lon":5.36248,"is_reserved":false,"is_disabled":false,"rental_uris":{"android":"levelo://app?vid=1206006c-d72f-4336-8b8d-3b69984f5769","ios":"levelo://app?vid=1206006c-d72f-4336-8b8d-3b69984f5769"},"vehicle_type_id":"4","last_reported":1784584921,"current_range_meters":6800,"station_id":"ce4bhbh2rcd13ifvqeo0","pricing_plan_id":"cebpf4jnsgd1na2vs0mg"},{"bike_id":"da71d4b3-7cc9-4621-86ba-42c864fecc9f","system_id":"levelo_inurba_marseille","lat":43.27496,"lon":5.42556,"is_reserved":false,"is_disabled":false,"rental_uris":{"android":"levelo://app?vid=da71d4b3-7cc9-4621-86ba-42c864fecc9f","ios":"levelo://app?vid=da71d4b3-7cc9-4621-86ba-42c864fecc9f"},"vehicle_type_id":"4","last_reported":1784584921,"current_range_meters":6800,"station_id":"st_d8t4bh7nbrqs73arha60","pricing_plan_id":"cebpf4jnsgd1na2vs0mg"},{"bike_id":"035b72c3-8b50-44e6-ae85-7713a0ad4a46","system_id":"levelo_inurba_marseille","lat":43.292699,"lon":5.376331,"is_reserved":false,"is_disabled":false,"rental_uris":{"android":"levelo://app?vid=035b72c3-8b50-44e6-ae85-7713a0ad4a46","ios":"levelo://app?vid=035b72c3-8b50-44e6-ae85-7713a0ad4a46"},"vehicle_type_id":"4","last_reported":1784584921,"current_range_meters":6800,"station_id":"ce4bgi12rcd13ifvqb80","pricing_plan_id":"cebpf4jnsgd1na2vs0mg"},{"bike_id":"3dc5c94a-91b9-4004-95ec-7064c9b53155","system_id":"levelo_inurba_marseille","lat":43.28701,"lon":5.46687,"is_reserved":false,"is_disabled":false,"rental_uris":{"android":"levelo://app?vid=3dc5c94a-91b9-4004-95ec-7064c9b53155","ios":"levelo://app?vid=3dc5c94a-91b9-4004-95ec-7064c9b53155"},"vehicle_type_id":"4","last_reported":1784584921,"current_range_meters":6800,"station_id":"st_d6tc3vkotcvc738tfjhg","pricing_plan_id":"cebpf4jnsgd1na2vs0mg"},{"bike_id":"c959a0d8-a43b-4b91-be9a-464342ecdbcb","system_id":"levelo_inurba_marseille","lat":43.29258,"lon":5.36843,"is_reserved":false,"is_disabled":true,"rental_uris":{"android":"levelo://app?vid=c959a0d8-a43b-4b91-be9a-464342ecdbcb","ios":"levelo://app?vid=c959a0d8-a43b-4b91-be9a-464342ecdbcb"},"vehicle_type_id":"4","last_reported":1784584921,"current_range_meters":6800,"station_id":"","pricing_plan_id":"cebpf4jnsgd1na2vs0mg"},{"bike_id":"98046f9a-c531-4ac5-8f69-aa62094d7217","system_id":"levelo_inurba_marseille","lat":43.2315,"lon":5.43713,"is_reserved":false,"is_disabled":false,"rental_uris":{"android":"levelo://app?vid=98046f9a-c531-4ac5-8f69-aa62094d7217","ios":"levelo://app?vid=98046f9a-c531-4ac5-8f69-aa62094d7217"},"vehicle_type_id":"4","last_reported":1784584921,"current_range_meters":6800,"station_id":"ce4bhmp2rcd13ifvqgog","pricing_plan_id":"cebpf4jnsgd1na2vs0mg"},{"bike_id":"38486c5c-1454-4fa2-aebe-039fe166d872","system_id":"levelo_inurba_marseille","lat":43.24813,"lon":5.37442,"is_reserved":false,"is_disabled":false,"rental_uris":{"android":"levelo://app?vid=38486c5c-1454-4fa2-aebe-039fe166d872","ios":"levelo://app?vid=38486c5c-1454-4fa2-aebe-039fe166d872"},"vehicle_type_id":"4","last_reported":1784584921,"current_range_meters":6800,"station_id":"ce4bhgh2rcd13ifvqfb0","pricing_plan_id":"cebpf4jnsgd1na2vs0mg"},{"bike_id":"e4a8b9e3-c52a-4443-b1d6-b105c6d39104","system_id":"levelo_inurba_marseille","lat":43.2644,"lon":5.37111,"is_reserved":false,"is_disabled":true,"rental_uris":{"android":"levelo://app?vid=e4a8b9e3-c52a-4443-b1d6-b105c6d39104","ios":"levelo://app?vid=e4a8b9e3-c52a-4443-b1d6-b105c6d39104"},"vehicle_type_id":"4","last_reported":1784584921,"current_range_meters":6800,"station_id":"","pricing_plan_id":"cebpf4jnsgd1na2vs0mg"},{"bike_id":"f5af531f-29ef-4e8c-b911-24635b5abf5e","system_id":"levelo_inurba_marseille","lat":43.27496,"lon":5.42553,"is_reserved":false,"is_disabled":false,"rental_uris":{"android":"levelo://app?vid=f5af531f-29ef-4e8c-b911-24635b5abf5e","ios":"levelo://app?vid=f5af531f-29ef-4e8c-b911-24635b5abf5e"},"vehicle_type_id":"4","last_reported":1784584921,"current_range_meters":6800,"station_id":"st_d8t4bh7nbrqs73arha60","pricing_plan_id":"cebpf4jnsgd1na2vs0mg"},{"bike_id":"407d8d0a-b1ba-4172-99a7-ffac837d8fcd","system_id":"levelo_inurba_marseille","lat":43.30879,"lon":5.37184,"is_reserved":false,"is_disabled":false,"rental_uris":{"android":"levelo://app?vid=407d8d0a-b1ba-4172-99a7-ffac837d8fcd","ios":"levelo://app?vid=407d8d0a-b1ba-4172-99a7-ffac837d8fcd"},"vehicle_type_id":"4","last_reported":1784584921,"current_range_meters":6800,"station_id":"ce4bguh2rcd13ifvqckg","pricing_plan_id":"cebpf4jnsgd1na2vs0mg"},{"bike_id":"4cb6d7a5-af8c-435e-bb03-1f3a5bf5c169","system_id":"levelo_inurba_marseille","lat":43.29328,"lon":5.37853,"is_reserved":false,"is_disabled":false,"rental_uris":{"android":"levelo://app?vid=4cb6d7a5-af8c-435e-bb03-1f3a5bf5c169","ios":"levelo://app?vid=4cb6d7a5-af8c-435e-bb03-1f3a5bf5c169"},"vehicle_type_id":"4","last_reported":1784584921,"current_range_meters":6800,"station_id":"ce4bgjh2rcd13ifvqbf0","pricing_plan_id":"cebpf4jnsgd1na2vs0mg"},{"bike_id":"5f1edecc-0b28-4439-b2d3-6bb4d383b444","system_id":"levelo_inurba_marseille","lat":43.2834,"lon":5.38115,"is_reserved":false,"is_disabled":false,"rental_uris":{"android":"levelo://app?vid=5f1edecc-0b28-4439-b2d3-6bb4d383b444","ios":"levelo://app?vid=5f1edecc-0b28-4439-b2d3-6bb4d383b444"},"vehicle_type_id":"4","last_reported":1784584921,"current_range_meters":6800,"station_id":"ce4bh412rcd13ifvqdr0","pricing_plan_id":"cebpf4jnsgd1na2vs0mg"},{"bike_id":"c78588e5-e842-46d1-9397-b2b42bcbb509","system_id":"levelo_inurba_marseille","lat":43.26683,"lon":5.38752,"is_reserved":false,"is_disabled":false,"rental_uris":{"android":"levelo://app?vid=c78588e5-e842-46d1-9397-b2b42bcbb509","ios":"levelo://app?vid=c78588e5-e842-46d1-9397-b2b42bcbb509"},"vehicle_type_id":"4","last_reported":1784584921,"current_range_meters":6800,"station_id":"","pricing_plan_id":"cebpf4jnsgd1na2vs0mg"},{"bike_id":"472db486-7bf9-44da-865a-2d96eba81268","system_id":"levelo_inurba_marseille","lat":43.29536,"lon":5.38124,"is_reserved":false,"is_disabled":false,"rental_uris":{"android":"levelo://app?vid=472db486-7bf9-44da-865a-2d96eba81268","ios":"levelo://app?vid=472db486-7bf9-44da-865a-2d96eba81268"},"vehicle_type_id":"4","last_reported":1784584921,"current_range_meters":6800,"station_id":"","pricing_plan_id":"cebpf4jnsgd1na2vs0mg"},{"bike_id":"68cd9d2d-18a8-47e9-95f4-0306992689e0","system_id":"levelo_inurba_marseille","lat":43.30789,"lon":5.37639,"is_reserved":false,"is_disabled":false,"rental_uris":{"android":"levelo://app?vid=68cd9d2d-18a8-47e9-95f4-0306992689e0","ios":"levelo://app?vid=68cd9d2d-18a8-47e9-95f4-0306992689e0"},"vehicle_type_id":"4","last_reported":1784584921,"current_range_meters":6800,"station_id":"ce4bgv92rcd13ifvqcq0","pricing_plan_id":"cebpf4jnsgd1na2vs0mg"},{"bike_id":"965c213d-63c4-4cf1-9017-f661f523d87b","system_id":"levelo_inurba_marseille","lat":43.32408,"lon":5.40792,"is_reserved":false,"is_disabled":false,"rental_uris":{"android":"levelo://app?vid=965c213d-63c4-4cf1-9017-f661f523d87b","ios":"levelo://app?vid=965c213d-63c4-4cf1-9017-f661f523d87b"},"vehicle_type_id":"4","last_reported":1784584921,"current_range_meters":6800,"station_id":"","pricing_plan_id":"cebpf4jnsgd1na2vs0mg"},{"bike_id":"7ece8d1b-baca-4661-b7f2-6d765d7cc13b","system_id":"levelo_inurba_marseille","lat":43.25545,"lon":5.39173,"is_reserved":false,"is_disabled":false,"rental_uris":{"android":"levelo://app?vid=7ece8d1b-baca-4661-b7f2-6d765d7cc13b","ios":"levelo://app?vid=7ece8d1b-baca-4661-b7f2-6d765d7cc13b"},"vehicle_type_id":"4","last_reported":1784584921,"current_range_meters":6800,"station_id":"","pricing_plan_id":"cebpf4jnsgd1na2vs0mg"},{"bike_id":"356b767c-1e90-4b03-93d5-437a8080ccae","system_id":"levelo_inurba_marseille","lat":43.3053,"lon":5.40072,"is_reserved":false,"is_disabled":false,"rental_uris":{"android":"levelo://app?vid=356b767c-1e90-4b03-93d5-437a8080ccae","ios":"levelo://app?vid=356b767c-1e90-4b03-93d5-437a8080ccae"},"vehicle_type_id":"4","last_reported":1784584921,"current_range_meters":6800,"station_id":"","pricing_plan_id":"cebpf4jnsgd1na2vs0mg"},{"bike_id":"6c041af7-f5df-4538-800e-54cf876993a0","system_id":"levelo_inurba_marseille","lat":43.29308,"lon":5.35784,"is_reserved":false,"is_disabled":false,"rental_uris":{"android":"levelo://app?vid=6c041af7-f5df-4538-800e-54cf876993a0","ios":"levelo://app?vid=6c041af7-f5df-4538-800e-54cf876993a0"},"vehicle_type_id":"4","last_reported":1784584921,"current_range_meters":6800,"station_id":"","pricing_plan_id":"cebpf4jnsgd1na2vs0mg"},{"bike_id":"639bb5e5-6f9b-4396-bdef-5f6f2819f9a9","system_id":"levelo_inurba_marseille","lat":43.31264,"lon":5.36837,"is_reserved":false,"is_disabled":false,"rental_uris":{"android":"levelo://app?vid=639bb5e5-6f9b-4396-bdef-5f6f2819f9a9","ios":"levelo://app?vid=639bb5e5-6f9b-4396-bdef-5f6f2819f9a9"},"vehicle_type_id":"4","last_reported":1784584921,"current_range_meters":7200,"station_id":"ce4bgl92rcd13ifvqbq0","pricing_plan_id":"cebpf4jnsgd1na2vs0mg"},{"bike_id":"7c98a8d2-b3b3-4130-89c5-bb5b5c194fab","system_id":"levelo_inurba_marseille","lat":43.26201,"lon":5.3879,"is_reserved":false,"is_disabled":false,"rental_uris":{"android":"levelo://app?vid=7c98a8d2-b3b3-4130-89c5-bb5b5c194fab","ios":"levelo://app?vid=7c98a8d2-b3b3-4130-89c5-bb5b5c194fab"},"vehicle_type_id":"4","last_reported":1784584921,"current_range_meters":7200,"station_id":"st_d8gjfg747rts73coq3b0","pricing_plan_id":"cebpf4jnsgd1na2vs0mg"},{"bike_id":"c091b465-50fa-46be-b510-ad9d80313f38","system_id":"levelo_inurba_marseille","lat":43.27562,"lon":5.38421,"is_reserved":false,"is_disabled":false,"rental_uris":{"android":"levelo://app?vid=c091b465-50fa-46be-b510-ad9d80313f38","ios":"levelo://app?vid=c091b465-50fa-46be-b510-ad9d80313f38"},"vehicle_type_id":"4","last_reported":1784584921,"current_range_meters":7200,"station_id":"ce4bhh92rcd13ifvqfi0","pricing_plan_id":"cebpf4jnsgd1na2vs0mg"},{"bike_id":"005662b5-9e4b-4f98-834e-caea135f9576","system_id":"levelo_inurba_marseille","lat":43.26223,"lon":5.40461,"is_reserved":false,"is_disabled":false,"rental_uris":{"android":"levelo://app?vid=005662b5-9e4b-4f98-834e-caea135f9576","ios":"levelo://app?vid=005662b5-9e4b-4f98-834e-caea135f9576"},"vehicle_type_id":"4","last_reported":1784584921,"current_range_meters":7200,"station_id":"ce4bhmh2rcd13ifvqgmg","pricing_plan_id":"cebpf4jnsgd1na2vs0mg"},{"bike_id":"990d6af6-c1a6-4047-bf05-22b4d1f2bc3e","system_id":"levelo_inurba_marseille","lat":43.23959,"lon":5.38506,"is_reserved":false,"is_disabled":false,"rental_uris":{"android":"levelo://app?vid=990d6af6-c1a6-4047-bf05-22b4d1f2bc3e","ios":"levelo://app?vid=990d6af6-c1a6-4047-bf05-22b4d1f2bc3e"},"vehicle_type_id":"4","last_reported":1784584921,"current_range_meters":7200,"station_id":"","pricing_plan_id":"cebpf4jnsgd1na2vs0mg"},{"bike_id":"0d309a6b-3e2c-42ee-b89f-ed34b6006a61","system_id":"levelo_inurba_marseille","lat":43.26779,"lon":5.37546,"is_reserved":false,"is_disabled":false,"rental_uris":{"android":"levelo://app?vid=0d309a6b-3e2c-42ee-b89f-ed34b6006a61","ios":"levelo://app?vid=0d309a6b-3e2c-42ee-b89f-ed34b6006a61"},"vehicle_type_id":"4","last_reported":1784584921,"current_range_meters":7200,"station_id":"","pricing_plan_id":"cebpf4jnsgd1na2vs0mg"},{"bike_id":"07b8219c-ab94-4e61-bddd-0197765e5be9","system_id":"levelo_inurba_marseille","lat":43.31031,"lon":5.37168,"is_reserved":false,"is_disabled":false,"rental_uris":{"android":"levelo://app?vid=07b8219c-ab94-4e61-bddd-0197765e5be9","ios":"levelo://app?vid=07b8219c-ab94-4e61-bddd-0197765e5be9"},"vehicle_type_id":"4","last_reported":1784584921,"current_range_meters":7200,"station_id":"st_d4kl2rp97mjs73e7tdfg","pricing_plan_id":"cebpf4jnsgd1na2vs0mg"},{"bike_id":"d4d5d44b-172e-4687-9041-16f2a42c13d2","system_id":"levelo_inurba_marseille","lat":43.23701,"lon":5.37425,"is_reserved":false,"is_disabled":false,"rental_uris":{"android":"levelo://app?vid=d4d5d44b-172e-4687-9041-16f2a42c13d2","ios":"levelo://app?vid=d4d5d44b-172e-4687-9041-16f2a42c13d2"},"vehicle_type_id":"4","last_reported":1784584921,"current_range_meters":7200,"station_id":"","pricing_plan_id":"cebpf4jnsgd1na2vs0mg"},{"bike_id":"2e9878cf-7418-46c3-9e30-36d228d851ef","system_id":"levelo_inurba_marseille","lat":43.30593,"lon":5.37237,"is_reserved":false,"is_disabled":true,"rental_uris":{"android":"levelo://app?vid=2e9878cf-7418-46c3-9e30-36d228d851ef","ios":"levelo://app?vid=2e9878cf-7418-46c3-9e30-36d228d851ef"},"vehicle_type_id":"4","last_reported":1784584921,"current_range_meters":7200,"station_id":"ce4bgqh2rcd13ifvqc4g","pricing_plan_id":"cebpf4jnsgd1na2vs0mg"},{"bike_id":"4cb23012-67fa-4500-9ec5-8f3ee09d5e3a","system_id":"levelo_inurba_marseille","lat":43.28598,"lon":5.37073,"is_reserved":false,"is_disabled":false,"rental_uris":{"android":"levelo://app?vid=4cb23012-67fa-4500-9ec5-8f3ee09d5e3a","ios":"levelo://app?vid=4cb23012-67fa-4500-9ec5-8f3ee09d5e3a"},"vehicle_type_id":"4","last_reported":1784584921,"current_range_meters":7200,"station_id":"ce4bht12rcd13ifvqi60","pricing_plan_id":"cebpf4jnsgd1na2vs0mg"},{"bike_id":"5b20148a-30f7-4708-aa25-2de15aab68ea","system_id":"levelo_inurba_marseille","lat":43.30926,"lon":5.40146,"is_reserved":false,"is_disabled":false,"rental_uris":{"android":"levelo://app?vid=5b20148a-30f7-4708-aa25-2de15aab68ea","ios":"levelo://app?vid=5b20148a-30f7-4708-aa25-2de15aab68ea"},"vehicle_type_id":"4","last_reported":1784584921,"current_range_meters":7200,"station_id":"ce4bgvp2rcd13ifvqct0","pricing_plan_id":"cebpf4jnsgd1na2vs0mg"},{"bike_id":"f9a4978c-66bc-414a-b059-ba0305add237","system_id":"levelo_inurba_marseille","lat":43.33074,"lon":5.43119,"is_reserved":false,"is_disabled":false,"rental_uris":{"android":"levelo://app?vid=f9a4978c-66bc-414a-b059-ba0305add237","ios":"levelo://app?vid=f9a4978c-66bc-414a-b059-ba0305add237"},"vehicle_type_id":"4","last_reported":1784584921,"current_range_meters":7200,"station_id":"","pricing_plan_id":"cebpf4jnsgd1na2vs0mg"},{"bike_id":"996aec46-887c-4c90-bfff-10977e2a64dd","system_id":"levelo_inurba_marseille","lat":43.284265,"lon":5.349866,"is_reserved":false,"is_disabled":true,"rental_uris":{"android":"levelo://app?vid=996aec46-887c-4c90-bfff-10977e2a64dd","ios":"levelo://app?vid=996aec46-887c-4c90-bfff-10977e2a64dd"},"vehicle_type_id":"4","last_reported":1784584921,"current_range_meters":7200,"station_id":"ce4bhbh2rcd13ifvqepg","pricing_plan_id":"cebpf4jnsgd1na2vs0mg"},{"bike_id":"abdb5ee3-5bad-402e-ac11-21db522415f5","system_id":"levelo_inurba_marseille","lat":43.27427,"lon":5.43459,"is_reserved":false,"is_disabled":false,"rental_uris":{"android":"levelo://app?vid=abdb5ee3-5bad-402e-ac11-21db522415f5","ios":"levelo://app?vid=abdb5ee3-5bad-402e-ac11-21db522415f5"},"vehicle_type_id":"4","last_reported":1784584921,"current_range_meters":7200,"station_id":"","pricing_plan_id":"cebpf4jnsgd1na2vs0mg"},{"bike_id":"be22fb77-7a45-4603-87ea-c9bb8485c008","system_id":"levelo_inurba_marseille","lat":43.22524,"lon":5.34834,"is_reserved":false,"is_disabled":false,"rental_uris":{"android":"levelo://app?vid=be22fb77-7a45-4603-87ea-c9bb8485c008","ios":"levelo://app?vid=be22fb77-7a45-4603-87ea-c9bb8485c008"},"vehicle_type_id":"4","last_reported":1784584921,"current_range_meters":7200,"station_id":"st_cvj5dfep6f1abm77gieg","pricing_plan_id":"cebpf4jnsgd1na2vs0mg"},{"bike_id":"14c58f5c-5159-4f74-b24f-cc07dfc07cdb","system_id":"levelo_inurba_marseille","lat":43.2255,"lon":5.41631,"is_reserved":false,"is_disabled":false,"rental_uris":{"android":"levelo://app?vid=14c58f5c-5159-4f74-b24f-cc07dfc07cdb","ios":"levelo://app?vid=14c58f5c-5159-4f74-b24f-cc07dfc07cdb"},"vehicle_type_id":"4","last_reported":1784584921,"current_range_meters":7200,"station_id":"st_d2o4gvlbi1j2169b742g","pricing_plan_id":"cebpf4jnsgd1na2vs0mg"},{"bike_id":"1d9536b0-bb9c-45fd-88cf-878234fc39a5","system_id":"levelo_inurba_marseille","lat":43.24654,"lon":5.41605,"is_reserved":false,"is_disabled":false,"rental_uris":{"android":"levelo://app?vid=1d9536b0-bb9c-45fd-88cf-878234fc39a5","ios":"levelo://app?vid=1d9536b0-bb9c-45fd-88cf-878234fc39a5"},"vehicle_type_id":"4","last_reported":1784584921,"current_range_meters":7200,"station_id":"","pricing_plan_id":"cebpf4jnsgd1na2vs0mg"},{"bike_id":"e9a0c281-81d6-4277-a506-005196f11db9","system_id":"levelo_inurba_marseille","lat":43.28967,"lon":5.3966,"is_reserved":false,"is_disabled":false,"rental_uris":{"android":"levelo://app?vid=e9a0c281-81d6-4277-a506-005196f11db9","ios":"levelo://app?vid=e9a0c281-81d6-4277-a506-005196f11db9"},"vehicle_type_id":"4","last_reported":1784584921,"current_range_meters":7200,"station_id":"ce4bh3h2rcd13ifvqdn0","pricing_plan_id":"cebpf4jnsgd1na2vs0mg"},{"bike_id":"7dccde2c-5021-4d4d-8a7b-5d7e8b9dcc4b","system_id":"levelo_inurba_marseille","lat":43.28427,"lon":5.40776,"is_reserved":false,"is_disabled":false,"rental_uris":{"android":"levelo://app?vid=7dccde2c-5021-4d4d-8a7b-5d7e8b9dcc4b","ios":"levelo://app?vid=7dccde2c-5021-4d4d-8a7b-5d7e8b9dcc4b"},"vehicle_type_id":"4","last_reported":1784584921,"current_range_meters":7200,"station_id":"","pricing_plan_id":"cebpf4jnsgd1na2vs0mg"},{"bike_id":"e36b1d96-7ea9-4a8c-b48b-2b7f965661e2","system_id":"levelo_inurba_marseille","lat":43.27992,"lon":5.41656,"is_reserved":false,"is_disabled":false,"rental_uris":{"android":"levelo://app?vid=e36b1d96-7ea9-4a8c-b48b-2b7f965661e2","ios":"levelo://app?vid=e36b1d96-7ea9-4a8c-b48b-2b7f965661e2"},"vehicle_type_id":"4","last_reported":1784584921,"current_range_meters":7200,"station_id":"ce4bho12rcd13ifvqh1g","pricing_plan_id":"cebpf4jnsgd1na2vs0mg"},{"bike_id":"1ba97fbf-7d91-421d-a808-6a17558ce6c9","system_id":"levelo_inurba_marseille","lat":43.2972,"lon":5.35945,"is_reserved":false,"is_disabled":false,"rental_uris":{"android":"levelo://app?vid=1ba97fbf-7d91-421d-a808-6a17558ce6c9","ios":"levelo://app?vid=1ba97fbf-7d91-421d-a808-6a17558ce6c9"},"vehicle_type_id":"4","last_reported":1784584921,"current_range_meters":7200,"station_id":"","pricing_plan_id":"cebpf4jnsgd1na2vs0mg"},{"bike_id":"f2c26268-2002-48c9-a2f8-8f76ed8a8540","system_id":"levelo_inurba_marseille","lat":43.23897,"lon":5.37454,"is_reserved":false,"is_disabled":false,"rental_uris":{"android":"levelo://app?vid=f2c26268-2002-48c9-a2f8-8f76ed8a8540","ios":"levelo://app?vid=f2c26268-2002-48c9-a2f8-8f76ed8a8540"},"vehicle_type_id":"4","last_reported":1784584921,"current_range_meters":8000,"station_id":"st_d6sm7csbq4hs73f8fpjg","pricing_plan_id":"cebpf4jnsgd1na2vs0mg"},{"bike_id":"52ea9115-dbf4-48f5-a8cd-024a3cdffed1","system_id":"levelo_inurba_marseille","lat":43.27667,"lon":5.39413,"is_reserved":false,"is_disabled":false,"rental_uris":{"android":"levelo://app?vid=52ea9115-dbf4-48f5-a8cd-024a3cdffed1","ios":"levelo://app?vid=52ea9115-dbf4-48f5-a8cd-024a3cdffed1"},"vehicle_type_id":"4","last_reported":1784584921,"current_range_meters":8000,"station_id":"","pricing_plan_id":"cebpf4jnsgd1na2vs0mg"},{"bike_id":"1ae20384-5ccd-4145-9a1d-f626b16c7a9e","system_id":"levelo_inurba_marseille","lat":43.31152,"lon":5.46418,"is_reserved":false,"is_disabled":false,"rental_uris":{"android":"levelo://app?vid=1ae20384-5ccd-4145-9a1d-f626b16c7a9e","ios":"levelo://app?vid=1ae20384-5ccd-4145-9a1d-f626b16c7a9e"},"vehicle_type_id":"4","last_reported":1784584921,"current_range_meters":8000,"station_id":"","pricing_plan_id":"cebpf4jnsgd1na2vs0mg"},{"bike_id":"d331106d-3ab8-4190-bdd8-e90d16e3c547","system_id":"levelo_inurba_marseille","lat":43.27964,"lon":5.38708,"is_reserved":false,"is_disabled":false,"rental_uris":{"android":"levelo://app?vid=d331106d-3ab8-4190-bdd8-e90d16e3c547","ios":"levelo://app?vid=d331106d-3ab8-4190-bdd8-e90d16e3c547"},"vehicle_type_id":"4","last_reported":1784584921,"current_range_meters":8000,"station_id":"ce4bhg12rcd13ifvqf80","pricing_plan_id":"cebpf4jnsgd1na2vs0mg"},{"bike_id":"f9f9078c-f485-4964-8c1c-7e07d657d71b","system_id":"levelo_inurba_marseille","lat":43.23198,"lon":5.35552,"is_reserved":false,"is_disabled":true,"rental_uris":{"android":"levelo://app?vid=f9f9078c-f485-4964-8c1c-7e07d657d71b","ios":"levelo://app?vid=f9f9078c-f485-4964-8c1c-7e07d657d71b"},"vehicle_type_id":"4","last_reported":1784584921,"current_range_meters":8000,"station_id":"ce4bhu92rcd13ifvqi70","pricing_plan_id":"cebpf4jnsgd1na2vs0mg"},{"bike_id":"914c5b30-067a-485c-88e6-588f7ae339b8","system_id":"levelo_inurba_marseille","lat":43.28029,"lon":5.36946,"is_reserved":false,"is_disabled":false,"rental_uris":{"android":"levelo://app?vid=914c5b30-067a-485c-88e6-588f7ae339b8","ios":"levelo://app?vid=914c5b30-067a-485c-88e6-588f7ae339b8"},"vehicle_type_id":"4","last_reported":1784584921,"current_range_meters":8000,"station_id":"ce4bha12rcd13ifvqef0","pricing_plan_id":"cebpf4jnsgd1na2vs0mg"},{"bike_id":"498724e2-2cc3-4aa4-bf5b-98412a6a60f3","system_id":"levelo_inurba_marseille","lat":43.29053,"lon":5.37146,"is_reserved":false,"is_disabled":false,"rental_uris":{"android":"levelo://app?vid=498724e2-2cc3-4aa4-bf5b-98412a6a60f3","ios":"levelo://app?vid=498724e2-2cc3-4aa4-bf5b-98412a6a60f3"},"vehicle_type_id":"4","last_reported":1784584921,"current_range_meters":8000,"station_id":"ce4bh5p2rcd13ifvqe4g","pricing_plan_id":"cebpf4jnsgd1na2vs0mg"},{"bike_id":"f07902e8-bab7-4fab-8a5b-abe7dedcfe8a","system_id":"levelo_inurba_marseille","lat":43.22835,"lon":5.44105,"is_reserved":false,"is_disabled":false,"rental_uris":{"android":"levelo://app?vid=f07902e8-bab7-4fab-8a5b-abe7dedcfe8a","ios":"levelo://app?vid=f07902e8-bab7-4fab-8a5b-abe7dedcfe8a"},"vehicle_type_id":"4","last_reported":1784584921,"current_range_meters":8000,"station_id":"","pricing_plan_id":"cebpf4jnsgd1na2vs0mg"},{"bike_id":"82c094ba-6621-432a-9b61-3b9614be9311","system_id":"levelo_inurba_marseille","lat":43.27538,"lon":5.4094,"is_reserved":false,"is_disabled":false,"rental_uris":{"android":"levelo://app?vid=82c094ba-6621-432a-9b61-3b9614be9311","ios":"levelo://app?vid=82c094ba-6621-432a-9b61-3b9614be9311"},"vehicle_type_id":"4","last_reported":1784584921,"current_range_meters":8000,"station_id":"","pricing_plan_id":"cebpf4jnsgd1na2vs0mg"},{"bike_id":"d1b481bb-d544-45d6-9945-511153576ee9","system_id":"levelo_inurba_marseille","lat":43.29912,"lon":5.37466,"is_reserved":false,"is_disabled":false,"rental_uris":{"android":"levelo://app?vid=d1b481bb-d544-45d6-9945-511153576ee9","ios":"levelo://app?vid=d1b481bb-d544-45d6-9945-511153576ee9"},"vehicle_type_id":"4","last_reported":1784584921,"current_range_meters":8000,"station_id":"ce4bgjh2rcd13ifvqbg0","pricing_plan_id":"cebpf4jnsgd1na2vs0mg"},{"bike_id":"a9962570-c2a2-41c8-a29d-154b817fefaa","system_id":"levelo_inurba_marseille","lat":43.24473,"lon":5.41089,"is_reserved":false,"is_disabled":false,"rental_uris":{"android":"levelo://app?vid=a9962570-c2a2-41c8-a29d-154b817fefaa","ios":"levelo://app?vid=a9962570-c2a2-41c8-a29d-154b817fefaa"},"vehicle_type_id":"4","last_reported":1784584921,"current_range_meters":8000,"station_id":"","pricing_plan_id":"cebpf4jnsgd1na2vs0mg"},{"bike_id":"28e54f41-c859-41aa-9a52-e55ff669bcaf","system_id":"levelo_inurba_marseille","lat":43.309327,"lon":5.401415,"is_reserved":false,"is_disabled":false,"rental_uris":{"android":"levelo://app?vid=28e54f41-c859-41aa-9a52-e55ff669bcaf","ios":"levelo://app?vid=28e54f41-c859-41aa-9a52-e55ff669bcaf"},"vehicle_type_id":"4","last_reported":1784584921,"current_range_meters":8000,"station_id":"ce4bgvp2rcd13ifvqct0","pricing_plan_id":"cebpf4jnsgd1na2vs0mg"},{"bike_id":"24544ffd-19e1-4cf4-9f27-2ad59a957ee2","system_id":"levelo_inurba_marseille","lat":43.30319,"lon":5.36877,"is_reserved":false,"is_disabled":false,"rental_uris":{"android":"levelo://app?vid=24544ffd-19e1-4cf4-9f27-2ad59a957ee2","ios":"levelo://app?vid=24544ffd-19e1-4cf4-9f27-2ad59a957ee2"},"vehicle_type_id":"4","last_reported":1784584921,"current_range_meters":8000,"station_id":"ce4bgqh2rcd13ifvqc5g","pricing_plan_id":"cebpf4jnsgd1na2vs0mg"},{"bike_id":"4830954b-87bd-41e6-bcbd-098c690adfa7","system_id":"levelo_inurba_marseille","lat":43.23191,"lon":5.35561,"is_reserved":false,"is_disabled":false,"rental_uris":{"android":"levelo://app?vid=4830954b-87bd-41e6-bcbd-098c690adfa7","ios":"levelo://app?vid=4830954b-87bd-41e6-bcbd-098c690adfa7"},"vehicle_type_id":"4","last_reported":1784584921,"current_range_meters":8000,"station_id":"ce4bhu92rcd13ifvqi70","pricing_plan_id":"cebpf4jnsgd1na2vs0mg"},{"bike_id":"826761b0-1e57-4d1e-85f2-0d14650b252a","system_id":"levelo_inurba_marseille","lat":43.23186,"lon":5.35558,"is_reserved":false,"is_disabled":false,"rental_uris":{"android":"levelo://app?vid=826761b0-1e57-4d1e-85f2-0d14650b252a","ios":"levelo://app?vid=826761b0-1e57-4d1e-85f2-0d14650b252a"},"vehicle_type_id":"4","last_reported":1784584921,"current_range_meters":8000,"station_id":"ce4bhu92rcd13ifvqi70","pricing_plan_id":"cebpf4jnsgd1na2vs0mg"},{"bike_id":"24dc90f4-f0a7-4193-81b3-32e03126099f","system_id":"levelo_inurba_marseille","lat":43.3087,"lon":5.39663,"is_reserved":false,"is_disabled":false,"rental_uris":{"android":"levelo://app?vid=24dc90f4-f0a7-4193-81b3-32e03126099f","ios":"levelo://app?vid=24dc90f4-f0a7-4193-81b3-32e03126099f"},"vehicle_type_id":"4","last_reported":1784584921,"current_range_meters":8000,"station_id":"ce4bh012rcd13ifvqcv0","pricing_plan_id":"cebpf4jnsgd1na2vs0mg"},{"bike_id":"80929600-400d-42fc-90c5-c1ecc4f022ba","system_id":"levelo_inurba_marseille","lat":43.297605,"lon":5.381137,"is_reserved":false,"is_disabled":false,"rental_uris":{"android":"levelo://app?vid=80929600-400d-42fc-90c5-c1ecc4f022ba","ios":"levelo://app?vid=80929600-400d-42fc-90c5-c1ecc4f022ba"},"vehicle_type_id":"4","last_reported":1784584921,"current_range_meters":8000,"station_id":"ce4bgip2rcd13ifvqbb0","pricing_plan_id":"cebpf4jnsgd1na2vs0mg"},{"bike_id":"4aa5a905-31f1-4c01-ad91-0d5c9d431de7","system_id":"levelo_inurba_marseille","lat":43.27892,"lon":5.38006,"is_reserved":false,"is_disabled":false,"rental_uris":{"android":"levelo://app?vid=4aa5a905-31f1-4c01-ad91-0d5c9d431de7","ios":"levelo://app?vid=4aa5a905-31f1-4c01-ad91-0d5c9d431de7"},"vehicle_type_id":"4","last_reported":1784584921,"current_range_meters":8000,"station_id":"ce4bhf92rcd13ifvqf50","pricing_plan_id":"cebpf4jnsgd1na2vs0mg"},{"bike_id":"cab0e1bc-bb0c-489b-9886-5b5efda838d4","system_id":"levelo_inurba_marseille","lat":43.28677,"lon":5.46697,"is_reserved":false,"is_disabled":false,"rental_uris":{"android":"levelo://app?vid=cab0e1bc-bb0c-489b-9886-5b5efda838d4","ios":"levelo://app?vid=cab0e1bc-bb0c-489b-9886-5b5efda838d4"},"vehicle_type_id":"4","last_reported":1784584921,"current_range_meters":8000,"station_id":"st_d6tc3vkotcvc738tfjhg","pricing_plan_id":"cebpf4jnsgd1na2vs0mg"},{"bike_id":"4c468adf-1d9e-45f4-9455-4a3d97321091","system_id":"levelo_inurba_marseille","lat":43.24371,"lon":5.38463,"is_reserved":false,"is_disabled":false,"rental_uris":{"android":"levelo://app?vid=4c468adf-1d9e-45f4-9455-4a3d97321091","ios":"levelo://app?vid=4c468adf-1d9e-45f4-9455-4a3d97321091"},"vehicle_type_id":"4","last_reported":1784584921,"current_range_meters":8000,"station_id":"","pricing_plan_id":"cebpf4jnsgd1na2vs0mg"},{"bike_id":"cd0c0ca5-46de-45f6-bea6-a3f03f51b513","system_id":"levelo_inurba_marseille","lat":43.30152,"lon":5.3815,"is_reserved":false,"is_disabled":false,"rental_uris":{"android":"levelo://app?vid=cd0c0ca5-46de-45f6-bea6-a3f03f51b513","ios":"levelo://app?vid=cd0c0ca5-46de-45f6-bea6-a3f03f51b513"},"vehicle_type_id":"4","last_reported":1784584921,"current_range_meters":8000,"station_id":"ce4bgjp2rcd13ifvqbh0","pricing_plan_id":"cebpf4jnsgd1na2vs0mg"},{"bike_id":"61f46f00-12a6-469d-86ba-03b4c49102bd","system_id":"levelo_inurba_marseille","lat":43.31372,"lon":5.38612,"is_reserved":false,"is_disabled":false,"rental_uris":{"android":"levelo://app?vid=61f46f00-12a6-469d-86ba-03b4c49102bd","ios":"levelo://app?vid=61f46f00-12a6-469d-86ba-03b4c49102bd"},"vehicle_type_id":"4","last_reported":1784584921,"current_range_meters":8000,"station_id":"","pricing_plan_id":"cebpf4jnsgd1na2vs0mg"},{"bike_id":"e7990a5d-b83f-4fb5-b6ee-0627c1418e66","system_id":"levelo_inurba_marseille","lat":43.29252,"lon":5.40902,"is_reserved":false,"is_disabled":false,"rental_uris":{"android":"levelo://app?vid=e7990a5d-b83f-4fb5-b6ee-0627c1418e66","ios":"levelo://app?vid=e7990a5d-b83f-4fb5-b6ee-0627c1418e66"},"vehicle_type_id":"4","last_reported":1784584921,"current_range_meters":8000,"station_id":"ce4bh192rcd13ifvqdc0","pricing_plan_id":"cebpf4jnsgd1na2vs0mg"},{"bike_id":"37b9cd5a-6561-475d-8eb9-349a29a0c4e1","system_id":"levelo_inurba_marseille","lat":43.27502,"lon":5.42544,"is_reserved":false,"is_disabled":false,"rental_uris":{"android":"levelo://app?vid=37b9cd5a-6561-475d-8eb9-349a29a0c4e1","ios":"levelo://app?vid=37b9cd5a-6561-475d-8eb9-349a29a0c4e1"},"vehicle_type_id":"4","last_reported":1784584921,"current_range_meters":8400,"station_id":"st_d8t4bh7nbrqs73arha60","pricing_plan_id":"cebpf4jnsgd1na2vs0mg"},{"bike_id":"fa8776c3-bcb0-4bfc-9753-50a5e9500d03","system_id":"levelo_inurba_marseille","lat":43.27808,"lon":5.38499,"is_reserved":false,"is_disabled":false,"rental_uris":{"android":"levelo://app?vid=fa8776c3-bcb0-4bfc-9753-50a5e9500d03","ios":"levelo://app?vid=fa8776c3-bcb0-4bfc-9753-50a5e9500d03"},"vehicle_type_id":"4","last_reported":1784584921,"current_range_meters":8400,"station_id":"","pricing_plan_id":"cebpf4jnsgd1na2vs0mg"},{"bike_id":"489d4e83-3aa3-449d-a2ce-274b8bbe70f0","system_id":"levelo_inurba_marseille","lat":43.30111,"lon":5.43082,"is_reserved":false,"is_disabled":false,"rental_uris":{"android":"levelo://app?vid=489d4e83-3aa3-449d-a2ce-274b8bbe70f0","ios":"levelo://app?vid=489d4e83-3aa3-449d-a2ce-274b8bbe70f0"},"vehicle_type_id":"4","last_reported":1784584921,"current_range_meters":8400,"station_id":"st_d3js3co5814s73ftftug","pricing_plan_id":"cebpf4jnsgd1na2vs0mg"},{"bike_id":"1fc8443c-ce65-4cef-9e27-7a7fe91135f0","system_id":"levelo_inurba_marseille","lat":43.32946,"lon":5.36255,"is_reserved":false,"is_disabled":false,"rental_uris":{"android":"levelo://app?vid=1fc8443c-ce65-4cef-9e27-7a7fe91135f0","ios":"levelo://app?vid=1fc8443c-ce65-4cef-9e27-7a7fe91135f0"},"vehicle_type_id":"4","last_reported":1784584921,"current_range_meters":8400,"station_id":"","pricing_plan_id":"cebpf4jnsgd1na2vs0mg"},{"bike_id":"2579bf3d-f1f8-4484-8f57-db533dfc4340","system_id":"levelo_inurba_marseille","lat":43.29558,"lon":5.38072,"is_reserved":false,"is_disabled":false,"rental_uris":{"android":"levelo://app?vid=2579bf3d-f1f8-4484-8f57-db533dfc4340","ios":"levelo://app?vid=2579bf3d-f1f8-4484-8f57-db533dfc4340"},"vehicle_type_id":"4","last_reported":1784584921,"current_range_meters":8400,"station_id":"","pricing_plan_id":"cebpf4jnsgd1na2vs0mg"},{"bike_id":"132b6709-3d68-4f44-a04d-5ee10702a548","system_id":"levelo_inurba_marseille","lat":43.28496,"lon":5.35411,"is_reserved":false,"is_disabled":false,"rental_uris":{"android":"levelo://app?vid=132b6709-3d68-4f44-a04d-5ee10702a548","ios":"levelo://app?vid=132b6709-3d68-4f44-a04d-5ee10702a548"},"vehicle_type_id":"4","last_reported":1784584921,"current_range_meters":8400,"station_id":"","pricing_plan_id":"cebpf4jnsgd1na2vs0mg"},{"bike_id":"437ee7d7-af87-4b64-8a51-76db938abfdb","system_id":"levelo_inurba_marseille","lat":43.23196,"lon":5.3556,"is_reserved":false,"is_disabled":false,"rental_uris":{"android":"levelo://app?vid=437ee7d7-af87-4b64-8a51-76db938abfdb","ios":"levelo://app?vid=437ee7d7-af87-4b64-8a51-76db938abfdb"},"vehicle_type_id":"4","last_reported":1784584921,"current_range_meters":8400,"station_id":"ce4bhu92rcd13ifvqi70","pricing_plan_id":"cebpf4jnsgd1na2vs0mg"},{"bike_id":"92b8271e-f974-4ce4-901e-1647b0b656e7","system_id":"levelo_inurba_marseille","lat":43.29259,"lon":5.38421,"is_reserved":false,"is_disabled":true,"rental_uris":{"android":"levelo://app?vid=92b8271e-f974-4ce4-901e-1647b0b656e7","ios":"levelo://app?vid=92b8271e-f974-4ce4-901e-1647b0b656e7"},"vehicle_type_id":"4","last_reported":1784584921,"current_range_meters":8400,"station_id":"ce4bh692rcd13ifvqea0","pricing_plan_id":"cebpf4jnsgd1na2vs0mg"},{"bike_id":"8e4e02a7-259c-44d8-8e71-7ad230efc6de","system_id":"levelo_inurba_marseille","lat":43.31095,"lon":5.36729,"is_reserved":false,"is_disabled":false,"rental_uris":{"android":"levelo://app?vid=8e4e02a7-259c-44d8-8e71-7ad230efc6de","ios":"levelo://app?vid=8e4e02a7-259c-44d8-8e71-7ad230efc6de"},"vehicle_type_id":"4","last_reported":1784584921,"current_range_meters":8400,"station_id":"","pricing_plan_id":"cebpf4jnsgd1na2vs0mg"},{"bike_id":"4f83eb58-6faa-4e44-a427-cd67bf62307f","system_id":"levelo_inurba_marseille","lat":43.29301,"lon":5.37483,"is_reserved":false,"is_disabled":false,"rental_uris":{"android":"levelo://app?vid=4f83eb58-6faa-4e44-a427-cd67bf62307f","ios":"levelo://app?vid=4f83eb58-6faa-4e44-a427-cd67bf62307f"},"vehicle_type_id":"4","last_reported":1784584921,"current_range_meters":8400,"station_id":"ce4bgi12rcd13ifvqb70","pricing_plan_id":"cebpf4jnsgd1na2vs0mg"},{"bike_id":"e23299d6-255c-436f-8a8a-7c1fac66ecb1","system_id":"levelo_inurba_marseille","lat":43.24679,"lon":5.38128,"is_reserved":false,"is_disabled":false,"rental_uris":{"android":"levelo://app?vid=e23299d6-255c-436f-8a8a-7c1fac66ecb1","ios":"levelo://app?vid=e23299d6-255c-436f-8a8a-7c1fac66ecb1"},"vehicle_type_id":"4","last_reported":1784584921,"current_range_meters":8400,"station_id":"ce4bhih2rcd13ifvqfr0","pricing_plan_id":"cebpf4jnsgd1na2vs0mg"},{"bike_id":"5709a98b-74cd-4b46-8a15-924b0b1c37ef","system_id":"levelo_inurba_marseille","lat":43.24465,"lon":5.42551,"is_reserved":false,"is_disabled":false,"rental_uris":{"android":"levelo://app?vid=5709a98b-74cd-4b46-8a15-924b0b1c37ef","ios":"levelo://app?vid=5709a98b-74cd-4b46-8a15-924b0b1c37ef"},"vehicle_type_id":"4","last_reported":1784584921,"current_range_meters":8400,"station_id":"st_d4a3vfp97mjs738cd8kg","pricing_plan_id":"cebpf4jnsgd1na2vs0mg"},{"bike_id":"1851f267-3c7a-40a0-a5ac-e447a9a29f87","system_id":"levelo_inurba_marseille","lat":43.28476,"lon":5.48403,"is_reserved":false,"is_disabled":false,"rental_uris":{"android":"levelo://app?vid=1851f267-3c7a-40a0-a5ac-e447a9a29f87","ios":"levelo://app?vid=1851f267-3c7a-40a0-a5ac-e447a9a29f87"},"vehicle_type_id":"4","last_reported":1784584921,"current_range_meters":8400,"station_id":"st_d3svhcjqgbts73a3dn0g","pricing_plan_id":"cebpf4jnsgd1na2vs0mg"},{"bike_id":"78a9452e-d7bb-4ced-825c-72a7702f242e","system_id":"levelo_inurba_marseille","lat":43.27476,"lon":5.4256,"is_reserved":false,"is_disabled":false,"rental_uris":{"android":"levelo://app?vid=78a9452e-d7bb-4ced-825c-72a7702f242e","ios":"levelo://app?vid=78a9452e-d7bb-4ced-825c-72a7702f242e"},"vehicle_type_id":"4","last_reported":1784584921,"current_range_meters":8400,"station_id":"st_d8t4bh7nbrqs73arha60","pricing_plan_id":"cebpf4jnsgd1na2vs0mg"},{"bike_id":"b8d8303b-5ef2-4c54-a4f3-a08255e2bea5","system_id":"levelo_inurba_marseille","lat":43.29035,"lon":5.42847,"is_reserved":false,"is_disabled":false,"rental_uris":{"android":"levelo://app?vid=b8d8303b-5ef2-4c54-a4f3-a08255e2bea5","ios":"levelo://app?vid=b8d8303b-5ef2-4c54-a4f3-a08255e2bea5"},"vehicle_type_id":"4","last_reported":1784584921,"current_range_meters":8400,"station_id":"","pricing_plan_id":"cebpf4jnsgd1na2vs0mg"},{"bike_id":"0cc6f3fb-356a-4061-a2ec-24133fe27490","system_id":"levelo_inurba_marseille","lat":43.30142,"lon":5.38076,"is_reserved":false,"is_disabled":false,"rental_uris":{"android":"levelo://app?vid=0cc6f3fb-356a-4061-a2ec-24133fe27490","ios":"levelo://app?vid=0cc6f3fb-356a-4061-a2ec-24133fe27490"},"vehicle_type_id":"4","last_reported":1784584921,"current_range_meters":8400,"station_id":"ce4bgjp2rcd13ifvqbh0","pricing_plan_id":"cebpf4jnsgd1na2vs0mg"},{"bike_id":"116fcf50-2918-4991-9286-f9dc796b3841","system_id":"levelo_inurba_marseille","lat":43.29265,"lon":5.40911,"is_reserved":false,"is_disabled":true,"rental_uris":{"android":"levelo://app?vid=116fcf50-2918-4991-9286-f9dc796b3841","ios":"levelo://app?vid=116fcf50-2918-4991-9286-f9dc796b3841"},"vehicle_type_id":"4","last_reported":1784584921,"current_range_meters":8400,"station_id":"ce4bh192rcd13ifvqdc0","pricing_plan_id":"cebpf4jnsgd1na2vs0mg"},{"bike_id":"58bcdb7a-2668-4455-9fcc-14981bc33e2e","system_id":"levelo_inurba_marseille","lat":43.24934,"lon":5.40506,"is_reserved":false,"is_disabled":false,"rental_uris":{"android":"levelo://app?vid=58bcdb7a-2668-4455-9fcc-14981bc33e2e","ios":"levelo://app?vid=58bcdb7a-2668-4455-9fcc-14981bc33e2e"},"vehicle_type_id":"4","last_reported":1784584921,"current_range_meters":8400,"station_id":"st_d2ngiaodas8pm72gd1h0","pricing_plan_id":"cebpf4jnsgd1na2vs0mg"},{"bike_id":"b2d800e5-3728-49d1-8ac5-c09df2267af1","system_id":"levelo_inurba_marseille","lat":43.26139,"lon":5.38164,"is_reserved":false,"is_disabled":false,"rental_uris":{"android":"levelo://app?vid=b2d800e5-3728-49d1-8ac5-c09df2267af1","ios":"levelo://app?vid=b2d800e5-3728-49d1-8ac5-c09df2267af1"},"vehicle_type_id":"4","last_reported":1784584921,"current_range_meters":8400,"station_id":"","pricing_plan_id":"cebpf4jnsgd1na2vs0mg"},{"bike_id":"4a910c87-d9b5-4149-b244-be238f237b60","system_id":"levelo_inurba_marseille","lat":43.23177,"lon":5.35514,"is_reserved":false,"is_disabled":false,"rental_uris":{"android":"levelo://app?vid=4a910c87-d9b5-4149-b244-be238f237b60","ios":"levelo://app?vid=4a910c87-d9b5-4149-b244-be238f237b60"},"vehicle_type_id":"4","last_reported":1784584921,"current_range_meters":8400,"station_id":"ce4bhu92rcd13ifvqi70","pricing_plan_id":"cebpf4jnsgd1na2vs0mg"},{"bike_id":"882561c2-90d7-4fc0-be5a-ec1d3845fd59","system_id":"levelo_inurba_marseille","lat":43.29781,"lon":5.3933,"is_reserved":false,"is_disabled":false,"rental_uris":{"android":"levelo://app?vid=882561c2-90d7-4fc0-be5a-ec1d3845fd59","ios":"levelo://app?vid=882561c2-90d7-4fc0-be5a-ec1d3845fd59"},"vehicle_type_id":"4","last_reported":1784584921,"current_range_meters":8400,"station_id":"chh1huq6cuj3fo74tm60","pricing_plan_id":"cebpf4jnsgd1na2vs0mg"},{"bike_id":"905a544e-70cb-4672-994c-b1424afdc048","system_id":"levelo_inurba_marseille","lat":43.28088,"lon":5.37879,"is_reserved":false,"is_disabled":false,"rental_uris":{"android":"levelo://app?vid=905a544e-70cb-4672-994c-b1424afdc048","ios":"levelo://app?vid=905a544e-70cb-4672-994c-b1424afdc048"},"vehicle_type_id":"4","last_reported":1784584921,"current_range_meters":8800,"station_id":"ce4bha12rcd13ifvqee0","pricing_plan_id":"cebpf4jnsgd1na2vs0mg"},{"bike_id":"65ad9de8-7135-4e55-bf82-697b44118451","system_id":"levelo_inurba_marseille","lat":43.31914,"lon":5.36893,"is_reserved":false,"is_disabled":false,"rental_uris":{"android":"levelo://app?vid=65ad9de8-7135-4e55-bf82-697b44118451","ios":"levelo://app?vid=65ad9de8-7135-4e55-bf82-697b44118451"},"vehicle_type_id":"4","last_reported":1784584921,"current_range_meters":8800,"station_id":"","pricing_plan_id":"cebpf4jnsgd1na2vs0mg"},{"bike_id":"18814497-5724-46e1-ac10-ad46ebd53e18","system_id":"levelo_inurba_marseille","lat":43.32043,"lon":5.36763,"is_reserved":false,"is_disabled":false,"rental_uris":{"android":"levelo://app?vid=18814497-5724-46e1-ac10-ad46ebd53e18","ios":"levelo://app?vid=18814497-5724-46e1-ac10-ad46ebd53e18"},"vehicle_type_id":"4","last_reported":1784584921,"current_range_meters":8800,"station_id":"","pricing_plan_id":"cebpf4jnsgd1na2vs0mg"},{"bike_id":"be7033ce-6349-45aa-896a-387ca8ede0b4","system_id":"levelo_inurba_marseille","lat":43.28474,"lon":5.48408,"is_reserved":false,"is_disabled":false,"rental_uris":{"android":"levelo://app?vid=be7033ce-6349-45aa-896a-387ca8ede0b4","ios":"levelo://app?vid=be7033ce-6349-45aa-896a-387ca8ede0b4"},"vehicle_type_id":"4","last_reported":1784584921,"current_range_meters":8800,"station_id":"st_d3svhcjqgbts73a3dn0g","pricing_plan_id":"cebpf4jnsgd1na2vs0mg"},{"bike_id":"f3a2fc94-a240-4342-b4f6-d12b52562937","system_id":"levelo_inurba_marseille","lat":43.26187,"lon":5.37459,"is_reserved":false,"is_disabled":false,"rental_uris":{"android":"levelo://app?vid=f3a2fc94-a240-4342-b4f6-d12b52562937","ios":"levelo://app?vid=f3a2fc94-a240-4342-b4f6-d12b52562937"},"vehicle_type_id":"4","last_reported":1784584921,"current_range_meters":8800,"station_id":"ce4bhgp2rcd13ifvqfc0","pricing_plan_id":"cebpf4jnsgd1na2vs0mg"},{"bike_id":"b7d0daec-2262-4506-be14-b80a00056655","system_id":"levelo_inurba_marseille","lat":43.25651,"lon":5.38141,"is_reserved":false,"is_disabled":false,"rental_uris":{"android":"levelo://app?vid=b7d0daec-2262-4506-be14-b80a00056655","ios":"levelo://app?vid=b7d0daec-2262-4506-be14-b80a00056655"},"vehicle_type_id":"4","last_reported":1784584921,"current_range_meters":8800,"station_id":"","pricing_plan_id":"cebpf4jnsgd1na2vs0mg"},{"bike_id":"49f3186b-ad52-4e0d-93ce-0e0571affebc","system_id":"levelo_inurba_marseille","lat":43.29976,"lon":5.37173,"is_reserved":false,"is_disabled":false,"rental_uris":{"android":"levelo://app?vid=49f3186b-ad52-4e0d-93ce-0e0571affebc","ios":"levelo://app?vid=49f3186b-ad52-4e0d-93ce-0e0571affebc"},"vehicle_type_id":"4","last_reported":1784584921,"current_range_meters":8800,"station_id":"ce4bgr92rcd13ifvqc7g","pricing_plan_id":"cebpf4jnsgd1na2vs0mg"},{"bike_id":"eef3444d-63f1-4c8b-89bc-bee6e21db29e","system_id":"levelo_inurba_marseille","lat":43.28931,"lon":5.36635,"is_reserved":false,"is_disabled":false,"rental_uris":{"android":"levelo://app?vid=eef3444d-63f1-4c8b-89bc-bee6e21db29e","ios":"levelo://app?vid=eef3444d-63f1-4c8b-89bc-bee6e21db29e"},"vehicle_type_id":"4","last_reported":1784584921,"current_range_meters":8800,"station_id":"ce4bhap2rcd13ifvqek0","pricing_plan_id":"cebpf4jnsgd1na2vs0mg"},{"bike_id":"0887bece-2d4f-4e80-973b-13908d13331a","system_id":"levelo_inurba_marseille","lat":43.24872,"lon":5.3734,"is_reserved":false,"is_disabled":false,"rental_uris":{"android":"levelo://app?vid=0887bece-2d4f-4e80-973b-13908d13331a","ios":"levelo://app?vid=0887bece-2d4f-4e80-973b-13908d13331a"},"vehicle_type_id":"4","last_reported":1784584921,"current_range_meters":8800,"station_id":"","pricing_plan_id":"cebpf4jnsgd1na2vs0mg"},{"bike_id":"256eddac-1e3b-4459-82e6-7f612c9774d0","system_id":"levelo_inurba_marseille","lat":43.29232,"lon":5.40919,"is_reserved":false,"is_disabled":false,"rental_uris":{"android":"levelo://app?vid=256eddac-1e3b-4459-82e6-7f612c9774d0","ios":"levelo://app?vid=256eddac-1e3b-4459-82e6-7f612c9774d0"},"vehicle_type_id":"4","last_reported":1784584921,"current_range_meters":8800,"station_id":"ce4bh192rcd13ifvqdc0","pricing_plan_id":"cebpf4jnsgd1na2vs0mg"},{"bike_id":"0a5d5ea4-c96d-404c-888a-350d27650c25","system_id":"levelo_inurba_marseille","lat":43.24163,"lon":5.36396,"is_reserved":false,"is_disabled":false,"rental_uris":{"android":"levelo://app?vid=0a5d5ea4-c96d-404c-888a-350d27650c25","ios":"levelo://app?vid=0a5d5ea4-c96d-404c-888a-350d27650c25"},"vehicle_type_id":"4","last_reported":1784584921,"current_range_meters":8800,"station_id":"cpo36qri1sfpv3e86is0","pricing_plan_id":"cebpf4jnsgd1na2vs0mg"},{"bike_id":"99658ac7-ded3-4ee7-ba39-9b4876cc618a","system_id":"levelo_inurba_marseille","lat":43.30192,"lon":5.3662,"is_reserved":false,"is_disabled":true,"rental_uris":{"android":"levelo://app?vid=99658ac7-ded3-4ee7-ba39-9b4876cc618a","ios":"levelo://app?vid=99658ac7-ded3-4ee7-ba39-9b4876cc618a"},"vehicle_type_id":"4","last_reported":1784584921,"current_range_meters":8800,"station_id":"ce4bgrh2rcd13ifvqc8g","pricing_plan_id":"cebpf4jnsgd1na2vs0mg"},{"bike_id":"2df5cc25-2f6b-494c-a68c-9bd8fe4c5fd7","system_id":"levelo_inurba_marseille","lat":43.30611,"lon":5.37203,"is_reserved":false,"is_disabled":false,"rental_uris":{"android":"levelo://app?vid=2df5cc25-2f6b-494c-a68c-9bd8fe4c5fd7","ios":"levelo://app?vid=2df5cc25-2f6b-494c-a68c-9bd8fe4c5fd7"},"vehicle_type_id":"4","last_reported":1784584921,"current_range_meters":8800,"station_id":"ce4bgqh2rcd13ifvqc4g","pricing_plan_id":"cebpf4jnsgd1na2vs0mg"},{"bike_id":"bff2d32f-e0b4-4d9c-a4ca-c192990d98e4","system_id":"levelo_inurba_marseille","lat":43.30302,"lon":5.36917,"is_reserved":false,"is_disabled":false,"rental_uris":{"android":"levelo://app?vid=bff2d32f-e0b4-4d9c-a4ca-c192990d98e4","ios":"levelo://app?vid=bff2d32f-e0b4-4d9c-a4ca-c192990d98e4"},"vehicle_type_id":"4","last_reported":1784584921,"current_range_meters":8800,"station_id":"ce4bgqh2rcd13ifvqc5g","pricing_plan_id":"cebpf4jnsgd1na2vs0mg"},{"bike_id":"2b30d243-bc41-48f3-a014-51b61e961772","system_id":"levelo_inurba_marseille","lat":43.28669,"lon":5.36357,"is_reserved":false,"is_disabled":false,"rental_uris":{"android":"levelo://app?vid=2b30d243-bc41-48f3-a014-51b61e961772","ios":"levelo://app?vid=2b30d243-bc41-48f3-a014-51b61e961772"},"vehicle_type_id":"4","last_reported":1784584921,"current_range_meters":8800,"station_id":"ce4bhah2rcd13ifvqej0","pricing_plan_id":"cebpf4jnsgd1na2vs0mg"},{"bike_id":"e2701541-cf25-4239-b843-aa7eb7669457","system_id":"levelo_inurba_marseille","lat":43.28145,"lon":5.37501,"is_reserved":false,"is_disabled":false,"rental_uris":{"android":"levelo://app?vid=e2701541-cf25-4239-b843-aa7eb7669457","ios":"levelo://app?vid=e2701541-cf25-4239-b843-aa7eb7669457"},"vehicle_type_id":"4","last_reported":1784584921,"current_range_meters":8800,"station_id":"","pricing_plan_id":"cebpf4jnsgd1na2vs0mg"},{"bike_id":"06a3e00d-0441-40bc-b041-659ec92dc450","system_id":"levelo_inurba_marseille","lat":43.23219,"lon":5.39934,"is_reserved":false,"is_disabled":false,"rental_uris":{"android":"levelo://app?vid=06a3e00d-0441-40bc-b041-659ec92dc450","ios":"levelo://app?vid=06a3e00d-0441-40bc-b041-659ec92dc450"},"vehicle_type_id":"4","last_reported":1784584921,"current_range_meters":8800,"station_id":"ce4bhn12rcd13ifvqgqg","pricing_plan_id":"cebpf4jnsgd1na2vs0mg"},{"bike_id":"179c615d-fb89-42e5-96b8-99cf07e875c8","system_id":"levelo_inurba_marseille","lat":43.25106,"lon":5.40292,"is_reserved":false,"is_disabled":false,"rental_uris":{"android":"levelo://app?vid=179c615d-fb89-42e5-96b8-99cf07e875c8","ios":"levelo://app?vid=179c615d-fb89-42e5-96b8-99cf07e875c8"},"vehicle_type_id":"4","last_reported":1784584921,"current_range_meters":8800,"station_id":"ce4bhlh2rcd13ifvqgig","pricing_plan_id":"cebpf4jnsgd1na2vs0mg"},{"bike_id":"2db81b0a-ef04-4ec5-a209-4f032da9ad84","system_id":"levelo_inurba_marseille","lat":43.287,"lon":5.46678,"is_reserved":false,"is_disabled":false,"rental_uris":{"android":"levelo://app?vid=2db81b0a-ef04-4ec5-a209-4f032da9ad84","ios":"levelo://app?vid=2db81b0a-ef04-4ec5-a209-4f032da9ad84"},"vehicle_type_id":"4","last_reported":1784584921,"current_range_meters":8800,"station_id":"st_d6tc3vkotcvc738tfjhg","pricing_plan_id":"cebpf4jnsgd1na2vs0mg"},{"bike_id":"7da6432d-71df-4bae-9533-ae41a965eaec","system_id":"levelo_inurba_marseille","lat":43.23172,"lon":5.39999,"is_reserved":false,"is_disabled":true,"rental_uris":{"android":"levelo://app?vid=7da6432d-71df-4bae-9533-ae41a965eaec","ios":"levelo://app?vid=7da6432d-71df-4bae-9533-ae41a965eaec"},"vehicle_type_id":"4","last_reported":1784584921,"current_range_meters":8800,"station_id":"ce4bhn12rcd13ifvqgqg","pricing_plan_id":"cebpf4jnsgd1na2vs0mg"},{"bike_id":"fef89543-4a38-4fe7-9e82-f59d5dad9c63","system_id":"levelo_inurba_marseille","lat":43.23126,"lon":5.43715,"is_reserved":false,"is_disabled":false,"rental_uris":{"android":"levelo://app?vid=fef89543-4a38-4fe7-9e82-f59d5dad9c63","ios":"levelo://app?vid=fef89543-4a38-4fe7-9e82-f59d5dad9c63"},"vehicle_type_id":"4","last_reported":1784584921,"current_range_meters":8800,"station_id":"ce4bhmp2rcd13ifvqgog","pricing_plan_id":"cebpf4jnsgd1na2vs0mg"},{"bike_id":"9b59fbb1-f7bc-4b43-9e0d-62919213d062","system_id":"levelo_inurba_marseille","lat":43.25342,"lon":5.42169,"is_reserved":false,"is_disabled":false,"rental_uris":{"android":"levelo://app?vid=9b59fbb1-f7bc-4b43-9e0d-62919213d062","ios":"levelo://app?vid=9b59fbb1-f7bc-4b43-9e0d-62919213d062"},"vehicle_type_id":"4","last_reported":1784584921,"current_range_meters":8800,"station_id":"st_d2m65c5bi1j21697t3ng","pricing_plan_id":"cebpf4jnsgd1na2vs0mg"},