{"last_updated":1729385415,"ttl":60,"version":"2.2","data":{"bikes":[{"bike_id":"834fec7b-d4c0-427b-b877-186743eeea27","system_id":"levelo_inurba_marseille","lat":43.26949,"lon":5.38639,"is_reserved":false,"is_disabled":false,"rental_uris":{"android":"levelo://app?vid=834fec7b-d4c0-427b-b877-186743eeea27","ios":"levelo://app?vid=834fec7b-d4c0-427b-b877-186743eeea27"},"vehicle_type_id":"4","last_reported":1729385415,"current_range_meters":4000,"station_id":"ce4bhh92rcd13ifvqfh0","pricing_plan_id":"cebpf4jnsgd1na2vs0mg"},{"bike_id":"4e48fe99-a3b8-424e-8829-620aa30b499f","system_id":"levelo_inurba_marseille","lat":43.30875,"lon":5.39656,"is_reserved":false,"is_disabled":false,"rental_uris":{"android":"levelo://app?vid=4e48fe99-a3b8-424e-8829-620aa30b499f","ios":"levelo://app?vid=4e48fe99-a3b8-424e-8829-620aa30b499f"},"vehicle_type_id":"4","last_reported":1729385415,"current_range_meters":35600,"station_id":"ce4bh012rcd13ifvqcv0","pricing_plan_id":"cebpf4jnsgd1na2vs0mg"},{"bike_id":"9b9a7cfe-944f-49a6-84c3-af9eec72cacc","system_id":"levelo_inurba_marseille","lat":43.31117,"lon":5.37767,"is_reserved":false,"is_disabled":false,"rental_uris":{"android":"levelo://app?vid=9b9a7cfe-944f-49a6-84c3-af9eec72cacc","ios":"levelo://app?vid=9b9a7cfe-944f-49a6-84c3-af9eec72cacc"},"vehicle_type_id":"4","last_reported":1729385415,"current_range_meters":22800,"station_id":"ce4bgt92rcd13ifvqcg0","pricing_plan_id":"cebpf4jnsgd1na2vs0mg"},{"bike_id":"fdb41b86-91e8-41df-a8d1-a5e8fb23ebab","system_id":"levelo_inurba_marseille","lat":43.29973,"lon":5.37175,"is_reserved":false,"is_disabled":false,"rental_uris":{"android":"levelo://app?vid=fdb41b86-91e8-41df-a8d1-a5e8fb23ebab","ios":"levelo://app?vid=fdb41b86-91e8-41df-a8d1-a5e8fb23ebab"},"vehicle_type_id":"4","last_reported":1729385415,"current_range_meters":32000,"station_id":"ce4bgr92rcd13ifvqc7g","pricing_plan_id":"cebpf4jnsgd1na2vs0mg"},{"bike_id":"fd765641-ae82-4334-aaff-fe1a1e085919","system_id":"levelo_inurba_marseille","lat":43.28716,"lon":5.37948,"is_reserved":false,"is_disabled":false,"rental_uris":{"android":"levelo://app?vid=fd765641-ae82-4334-aaff-fe1a1e085919","ios":"levelo://app?vid=fd765641-ae82-4334-aaff-fe1a1e085919"},"vehicle_type_id":"4","last_reported":1729385415,"current_range_meters":38800,"station_id":"ce4bh9p2rcd13ifvqec0","pricing_plan_id":"cebpf4jnsgd1na2vs0mg"},{"bike_id":"9b720767-01f9-43e0-97e9-3a90a402ffce","system_id":"levelo_inurba_marseille","lat":43.28849,"lon":5.3586,"is_reserved":false,"is_disabled":false,"rental_uris":{"android":"levelo://app?vid=9b720767-01f9-43e0-97e9-3a90a402ffce","ios":"levelo://app?vid=9b720767-01f9-43e0-97e9-3a90a402ffce"},"vehicle_type_id":"4","last_reported":1729385415,"current_range_meters":37600,"station_id":"ce4bhb12rcd13ifvqem0","pricing_plan_id":"cebpf4jnsgd1na2vs0mg"},{"bike_id":"cc7efa44-13df-4e12-a405-4e45667f6687","system_id":"levelo_inurba_marseille","lat":43.311162,"lon":5.377643,"is_reserved":false,"is_disabled":false,"rental_uris":{"android":"levelo://app?vid=cc7efa44-13df-4e12-a405-4e45667f6687","ios":"levelo://app?vid=cc7efa44-13df-4e12-a405-4e45667f6687"},"vehicle_type_id":"4","last_reported":1729385415,"current_range_meters":5600,"station_id":"ce4bgt92rcd13ifvqcg0","pricing_plan_id":"cebpf4jnsgd1na2vs0mg"},{"bike_id":"fe93bfb2-7aeb-4c17-8248-6549ba71e9ff","system_id":"levelo_inurba_marseille","lat":43.28276,"lon":5.35072,"is_reserved":false,"is_disabled":false,"rental_uris":{"android":"levelo://app?vid=fe93bfb2-7aeb-4c17-8248-6549ba71e9ff","ios":"levelo://app?vid=fe93bfb2-7aeb-4c17-8248-6549ba71e9ff"},"vehicle_type_id":"4","last_reported":1729385415,"current_range_meters":8000,"station_id":"ce4bhbp2rcd13ifvqerg","pricing_plan_id":"cebpf4jnsgd1na2vs0mg"},{"bike_id":"80c3c568-3aff-44e9-89ed-0b394b6cfe85","system_id":"levelo_inurba_marseille","lat":43.27993,"lon":5.40014,"is_reserved":false,"is_disabled":false,"rental_uris":{"android":"levelo://app?vid=80c3c568-3aff-44e9-89ed-0b394b6cfe85","ios":"levelo://app?vid=80c3c568-3aff-44e9-89ed-0b394b6cfe85"},"vehicle_type_id":"4","last_reported":1729385415,"current_range_meters":11600,"station_id":"ce4bho92rcd13ifvqh4g","pricing_plan_id":"cebpf4jnsgd1na2vs0mg"},{"bike_id":"d442fc99-60f2-4b9e-b8c4-89c48d40c996","system_id":"levelo_inurba_marseille","lat":43.28616,"lon":5.35103,"is_reserved":false,"is_disabled":false,"rental_uris":{"android":"levelo://app?vid=d442fc99-60f2-4b9e-b8c4-89c48d40c996","ios":"levelo://app?vid=d442fc99-60f2-4b9e-b8c4-89c48d40c996"},"vehicle_type_id":"4","last_reported":1729385415,"current_range_meters":21600,"station_id":"ce4bhch2rcd13ifvqeug","pricing_plan_id":"cebpf4jnsgd1na2vs0mg"},{"bike_id":"814a8b4c-43f0-4f31-87f7-0f70c081bccd","system_id":"levelo_inurba_marseille","lat":43.24804,"lon":5.37454,"is_reserved":false,"is_disabled":false,"rental_uris":{"android":"levelo://app?vid=814a8b4c-43f0-4f31-87f7-0f70c081bccd","ios":"levelo://app?vid=814a8b4c-43f0-4f31-87f7-0f70c081bccd"},"vehicle_type_id":"4","last_reported":1729385415,"current_range_meters":38800,"station_id":"ce4bhgh2rcd13ifvqfb0","pricing_plan_id":"cebpf4jnsgd1na2vs0mg"},{"bike_id":"1d123306-76de-4e99-b18a-f2b54d4716f7","system_id":"levelo_inurba_marseille","lat":43.32343,"lon":5.40619,"is_reserved":false,"is_disabled":false,"rental_uris":{"android":"levelo://app?vid=1d123306-76de-4e99-b18a-f2b54d4716f7","ios":"levelo://app?vid=1d123306-76de-4e99-b18a-f2b54d4716f7"},"vehicle_type_id":"4","last_reported":1729385415,"current_range_meters":19200,"station_id":"ce4bhq92rcd13ifvqhjg","pricing_plan_id":"cebpf4jnsgd1na2vs0mg"},{"bike_id":"e0879c3f-10eb-4d3b-8053-605cb1c6310c","system_id":"levelo_inurba_marseille","lat":43.26059,"lon":5.39392,"is_reserved":false,"is_disabled":false,"rental_uris":{"android":"levelo://app?vid=e0879c3f-10eb-4d3b-8053-605cb1c6310c","ios":"levelo://app?vid=e0879c3f-10eb-4d3b-8053-605cb1c6310c"},"vehicle_type_id":"4","last_reported":1729385415,"current_range_meters":24400,"station_id":"ce4bhh92rcd13ifvqfj0","pricing_plan_id":"cebpf4jnsgd1na2vs0mg"},{"bike_id":"5670cc1a-3b42-4baf-84dd-24fbe4175a33","system_id":"levelo_inurba_marseille","lat":43.30836,"lon":5.381183,"is_reserved":false,"is_disabled":false,"rental_uris":{"android":"levelo://app?vid=5670cc1a-3b42-4baf-84dd-24fbe4175a33","ios":"levelo://app?vid=5670cc1a-3b42-4baf-84dd-24fbe4175a33"},"vehicle_type_id":"4","last_reported":1729385415,"current_range_meters":9600,"station_id":"ce4bgt12rcd13ifvqce0","pricing_plan_id":"cebpf4jnsgd1na2vs0mg"},{"bike_id":"24c32aa7-5ed6-480d-8d5d-3e82a33f4c84","system_id":"levelo_inurba_marseille","lat":43.2956,"lon":5.42295,"is_reserved":false,"is_disabled":false,"rental_uris":{"android":"levelo://app?vid=24c32aa7-5ed6-480d-8d5d-3e82a33f4c84","ios":"levelo://app?vid=24c32aa7-5ed6-480d-8d5d-3e82a33f4c84"},"vehicle_type_id":"4","last_reported":1729385415,"current_range_meters":28800,"station_id":"ce4bhph2rcd13ifvqhdg","pricing_plan_id":"cebpf4jnsgd1na2vs0mg"},{"bike_id":"a9128e19-daf5-4e1f-b719-f7b1a144d711","system_id":"levelo_inurba_marseille","lat":43.33729,"lon":5.39186,"is_reserved":false,"is_disabled":false,"rental_uris":{"android":"levelo://app?vid=a9128e19-daf5-4e1f-b719-f7b1a144d711","ios":"levelo://app?vid=a9128e19-daf5-4e1f-b719-f7b1a144d711"},"vehicle_type_id":"4","last_reported":1729385415,"current_range_meters":36800,"station_id":"ce4bhr92rcd13ifvqhsg","pricing_plan_id":"cebpf4jnsgd1na2vs0mg"},{"bike_id":"3fbb8f30-0d80-4328-ab5c-f746ad375e95","system_id":"levelo_inurba_marseille","lat":43.27943,"lon":5.41051,"is_reserved":false,"is_disabled":false,"rental_uris":{"android":"levelo://app?vid=3fbb8f30-0d80-4328-ab5c-f746ad375e95","ios":"levelo://app?vid=3fbb8f30-0d80-4328-ab5c-f746ad375e95"},"vehicle_type_id":"4","last_reported":1729385415,"current_range_meters":24400,"station_id":"ce4bhnp2rcd13ifvqh0g","pricing_plan_id":"cebpf4jnsgd1na2vs0mg"},{"bike_id":"3c542d24-c53e-4899-8c72-748e72210bc5","system_id":"levelo_inurba_marseille","lat":43.22925,"lon":5.35374,"is_reserved":false,"is_disabled":false,"rental_uris":{"android":"levelo://app?vid=3c542d24-c53e-4899-8c72-748e72210bc5","ios":"levelo://app?vid=3c542d24-c53e-4899-8c72-748e72210bc5"},"vehicle_type_id":"4","last_reported":1729385415,"current_range_meters":38800,"station_id":"cpo3532slgdg3j2ikp40","pricing_plan_id":"cebpf4jnsgd1na2vs0mg"},{"bike_id":"c58ed48b-aaab-4c0d-84e3-ca838cd2a4ea","system_id":"levelo_inurba_marseille","lat":43.25113,"lon":5.40324,"is_reserved":false,"is_disabled":false,"rental_uris":{"android":"levelo://app?vid=c58ed48b-aaab-4c0d-84e3-ca838cd2a4ea","ios":"levelo://app?vid=c58ed48b-aaab-4c0d-84e3-ca838cd2a4ea"},"vehicle_type_id":"4","last_reported":1729385415,"current_range_meters":27600,"station_id":"ce4bhlh2rcd13ifvqgig","pricing_plan_id":"cebpf4jnsgd1na2vs0mg"},{"bike_id":"1e1137d6-f6bf-499e-9ccf-0a40cee1b32b","system_id":"levelo_inurba_marseille","lat":43.24077,"lon":5.37757,"is_reserved":false,"is_disabled":false,"rental_uris":{"android":"levelo://app?vid=1e1137d6-f6bf-499e-9ccf-0a40cee1b32b","ios":"levelo://app?vid=1e1137d6-f6bf-499e-9ccf-0a40cee1b32b"},"vehicle_type_id":"4","last_reported":1729385415,"current_range_meters":29600,"station_id":"ce4bhnp2rcd13ifvqgvg","pricing_plan_id":"cebpf4jnsgd1na2vs0mg"},{"bike_id":"048efadc-285b-4323-a781-bd6c372c6495","system_id":"levelo_inurba_marseille","lat":43.2956,"lon":5.42284,"is_reserved":false,"is_disabled":false,"rental_uris":{"android":"levelo://app?vid=048efadc-285b-4323-a781-bd6c372c6495","ios":"levelo://app?vid=048efadc-285b-4323-a781-bd6c372c6495"},"vehicle_type_id":"4","last_reported":1729385415,"current_range_meters":37600,"station_id":"ce4bhph2rcd13ifvqhdg","pricing_plan_id":"cebpf4jnsgd1na2vs0mg"},{"bike_id":"481cffd0-bd3a-4827-9e2c-2ef60f9d0829","system_id":"levelo_inurba_marseille","lat":43.28466,"lon":5.35884,"is_reserved":false,"is_disabled":false,"rental_uris":{"android":"levelo://app?vid=481cffd0-bd3a-4827-9e2c-2ef60f9d0829","ios":"levelo://app?vid=481cffd0-bd3a-4827-9e2c-2ef60f9d0829"},"vehicle_type_id":"4","last_reported":1729385415,"current_range_meters":26000,"station_id":"ce4bhah2rcd13ifvqei0","pricing_plan_id":"cebpf4jnsgd1na2vs0mg"},{"bike_id":"f002ff7c-8d7f-4b30-a59b-b17d6e6e6eba","system_id":"levelo_inurba_marseille","lat":43.3266,"lon":5.40988,"is_reserved":false,"is_disabled":false,"rental_uris":{"android":"levelo://app?vid=f002ff7c-8d7f-4b30-a59b-b17d6e6e6eba","ios":"levelo://app?vid=f002ff7c-8d7f-4b30-a59b-b17d6e6e6eba"},"vehicle_type_id":"4","last_reported":1729385415,"current_range_meters":12400,"station_id":"ce4bhpp2rcd13ifvqhgg","pricing_plan_id":"cebpf4jnsgd1na2vs0mg"},{"bike_id":"474ccd54-d884-4c48-ac27-1f7190ae4438","system_id":"levelo_inurba_marseille","lat":43.33728,"lon":5.39193,"is_reserved":false,"is_disabled":false,"rental_uris":{"android":"levelo://app?vid=474ccd54-d884-4c48-ac27-1f7190ae4438","ios":"levelo://app?vid=474ccd54-d884-4c48-ac27-1f7190ae4438"},"vehicle_type_id":"4","last_reported":1729385415,"current_range_meters":9600,"station_id":"ce4bhr92rcd13ifvqhsg","pricing_plan_id":"cebpf4jnsgd1na2vs0mg"},{"bike_id":"e07dac2c-5cff-4a50-b639-04e0bb7be902","system_id":"levelo_inurba_marseille","lat":43.28466,"lon":5.35896,"is_reserved":false,"is_disabled":false,"rental_uris":{"android":"levelo://app?vid=e07dac2c-5cff-4a50-b639-04e0bb7be902","ios":"levelo://app?vid=e07dac2c-5cff-4a50-b639-04e0bb7be902"},"vehicle_type_id":"4","last_reported":1729385415,"current_range_meters":38800,"station_id":"ce4bhah2rcd13ifvqei0","pricing_plan_id":"cebpf4jnsgd1na2vs0mg"},{"bike_id":"ca3a98fb-1eae-48f5-aca4-b718a35664a0","system_id":"levelo_inurba_marseille","lat":43.32336,"lon":5.40625,"is_reserved":false,"is_disabled":false,"rental_uris":{"android":"levelo://app?vid=ca3a98fb-1eae-48f5-aca4-b718a35664a0","ios":"levelo://app?vid=ca3a98fb-1eae-48f5-aca4-b718a35664a0"},"vehicle_type_id":"4","last_reported":1729385415,"current_range_meters":14800,"station_id":"ce4bhq92rcd13ifvqhjg","pricing_plan_id":"cebpf4jnsgd1na2vs0mg"},{"bike_id":"f75bac43-de1c-46ee-b029-720a38aa18a4","system_id":"levelo_inurba_marseille","lat":43.28619,"lon":5.35108,"is_reserved":false,"is_disabled":false,"rental_uris":{"android":"levelo://app?vid=f75bac43-de1c-46ee-b029-720a38aa18a4","ios":"levelo://app?vid=f75bac43-de1c-46ee-b029-720a38aa18a4"},"vehicle_type_id":"4","last_reported":1729385415,"current_range_meters":38800,"station_id":"ce4bhch2rcd13ifvqeug","pricing_plan_id":"cebpf4jnsgd1na2vs0mg"},{"bike_id":"c67f145f-7856-4a65-a534-a20609b9ebfe","system_id":"levelo_inurba_marseille","lat":43.30778,"lon":5.37654,"is_reserved":false,"is_disabled":false,"rental_uris":{"android":"levelo://app?vid=c67f145f-7856-4a65-a534-a20609b9ebfe","ios":"levelo://app?vid=c67f145f-7856-4a65-a534-a20609b9ebfe"},"vehicle_type_id":"4","last_reported":1729385415,"current_range_meters":38000,"station_id":"ce4bgv92rcd13ifvqcq0","pricing_plan_id":"cebpf4jnsgd1na2vs0mg"},{"bike_id":"736b8fa1-3177-4558-9d6e-81abc0207e97","system_id":"levelo_inurba_marseille","lat":43.279065,"lon":5.380104,"is_reserved":false,"is_disabled":false,"rental_uris":{"android":"levelo://app?vid=736b8fa1-3177-4558-9d6e-81abc0207e97","ios":"levelo://app?vid=736b8fa1-3177-4558-9d6e-81abc0207e97"},"vehicle_type_id":"4","last_reported":1729385415,"current_range_meters":20400,"station_id":"ce4bhf92rcd13ifvqf50","pricing_plan_id":"cebpf4jnsgd1na2vs0mg"},{"bike_id":"f3b69c34-10e7-4317-9526-21af752e0d86","system_id":"levelo_inurba_marseille","lat":43.27612,"lon":5.36115,"is_reserved":false,"is_disabled":false,"rental_uris":{"android":"levelo://app?vid=f3b69c34-10e7-4317-9526-21af752e0d86","ios":"levelo://app?vid=f3b69c34-10e7-4317-9526-21af752e0d86"},"vehicle_type_id":"4","last_reported":1729385415,"current_range_meters":39200,"station_id":"ce4bgj92rcd13ifvqbe0","pricing_plan_id":"cebpf4jnsgd1na2vs0mg"},{"bike_id":"45ceb560-a8c0-4a30-8f76-689582c39d38","system_id":"levelo_inurba_marseille","lat":43.30888,"lon":5.39638,"is_reserved":false,"is_disabled":false,"rental_uris":{"android":"levelo://app?vid=45ceb560-a8c0-4a30-8f76-689582c39d38","ios":"levelo://app?vid=45ceb560-a8c0-4a30-8f76-689582c39d38"},"vehicle_type_id":"4","last_reported":1729385415,"current_range_meters":16400,"station_id":"ce4bh012rcd13ifvqcv0","pricing_plan_id":"cebpf4jnsgd1na2vs0mg"},{"bike_id":"e3ef4e97-e3a9-4a73-b782-e2f3ed3ea67f","system_id":"levelo_inurba_marseille","lat":43.30264,"lon":5.40086,"is_reserved":false,"is_disabled":false,"rental_uris":{"android":"levelo://app?vid=e3ef4e97-e3a9-4a73-b782-e2f3ed3ea67f","ios":"levelo://app?vid=e3ef4e97-e3a9-4a73-b782-e2f3ed3ea67f"},"vehicle_type_id":"4","last_reported":1729385415,"current_range_meters":33600,"station_id":"ce4bgvh2rcd13ifvqcs0","pricing_plan_id":"cebpf4jnsgd1na2vs0mg"},{"bike_id":"596789b2-096b-422c-a2ab-9e8ac2acde6b","system_id":"levelo_inurba_marseille","lat":43.25085,"lon":5.39525,"is_reserved":false,"is_disabled":false,"rental_uris":{"android":"levelo://app?vid=596789b2-096b-422c-a2ab-9e8ac2acde6b","ios":"levelo://app?vid=596789b2-096b-422c-a2ab-9e8ac2acde6b"},"vehicle_type_id":"4","last_reported":1729385415,"current_range_meters":3200,"station_id":"ce4bhm12rcd13ifvqgkg","pricing_plan_id":"cebpf4jnsgd1na2vs0mg"},{"bike_id":"110bcc43-1716-4e48-b02f-c951f66b433a","system_id":"levelo_inurba_marseille","lat":43.29418,"lon":5.38626,"is_reserved":false,"is_disabled":false,"rental_uris":{"android":"levelo://app?vid=110bcc43-1716-4e48-b02f-c951f66b433a","ios":"levelo://app?vid=110bcc43-1716-4e48-b02f-c951f66b433a"},"vehicle_type_id":"4","last_reported":1729385415,"current_range_meters":26000,"station_id":"ce4bh2h2rcd13ifvqdh0","pricing_plan_id":"cebpf4jnsgd1na2vs0mg"},{"bike_id":"7aa259b1-98ce-4330-9b3b-74957bda49bd","system_id":"levelo_inurba_marseille","lat":43.25868,"lon":5.39904,"is_reserved":false,"is_disabled":false,"rental_uris":{"android":"levelo://app?vid=7aa259b1-98ce-4330-9b3b-74957bda49bd","ios":"levelo://app?vid=7aa259b1-98ce-4330-9b3b-74957bda49bd"},"vehicle_type_id":"4","last_reported":1729385415,"current_range_meters":39200,"station_id":"ce4bhl92rcd13ifvqghg","pricing_plan_id":"cebpf4jnsgd1na2vs0mg"},{"bike_id":"d85aed35-4005-4c2e-863d-273016e09085","system_id":"levelo_inurba_marseille","lat":43.24388,"lon":5.37063,"is_reserved":false,"is_disabled":false,"rental_uris":{"android":"levelo://app?vid=d85aed35-4005-4c2e-863d-273016e09085","ios":"levelo://app?vid=d85aed35-4005-4c2e-863d-273016e09085"},"vehicle_type_id":"4","last_reported":1729385415,"current_range_meters":31200,"station_id":"ce4bhhh2rcd13ifvqfk0","pricing_plan_id":"cebpf4jnsgd1na2vs0mg"},{"bike_id":"a271bdd0-8735-4737-9887-7e1fad0a3b13","system_id":"levelo_inurba_marseille","lat":43.2756,"lon":5.38424,"is_reserved":false,"is_disabled":false,"rental_uris":{"android":"levelo://app?vid=a271bdd0-8735-4737-9887-7e1fad0a3b13","ios":"levelo://app?vid=a271bdd0-8735-4737-9887-7e1fad0a3b13"},"vehicle_type_id":"4","last_reported":1729385415,"current_range_meters":15200,"station_id":"ce4bhh92rcd13ifvqfi0","pricing_plan_id":"cebpf4jnsgd1na2vs0mg"},{"bike_id":"9fa7c963-2f9d-4588-8236-ff860a4358c6","system_id":"levelo_inurba_marseille","lat":43.27376,"lon":5.36256,"is_reserved":false,"is_disabled":false,"rental_uris":{"android":"levelo://app?vid=9fa7c963-2f9d-4588-8236-ff860a4358c6","ios":"levelo://app?vid=9fa7c963-2f9d-4588-8236-ff860a4358c6"},"vehicle_type_id":"4","last_reported":1729385415,"current_range_meters":38800,"station_id":"ce4bhbh2rcd13ifvqeo0","pricing_plan_id":"cebpf4jnsgd1na2vs0mg"},{"bike_id":"68ecf5b1-3e27-4073-bcfd-9b4d888b6f5c","system_id":"levelo_inurba_marseille","lat":43.32107,"lon":5.36782,"is_reserved":false,"is_disabled":false,"rental_uris":{"android":"levelo://app?vid=68ecf5b1-3e27-4073-bcfd-9b4d888b6f5c","ios":"levelo://app?vid=68ecf5b1-3e27-4073-bcfd-9b4d888b6f5c"},"vehicle_type_id":"4","last_reported":1729385415,"current_range_meters":38400,"station_id":"ce4bhrh2rcd13ifvqhug","pricing_plan_id":"cebpf4jnsgd1na2vs0mg"},{"bike_id":"289b0bcc-b64b-401a-b6bf-b24c6264c2b9","system_id":"levelo_inurba_marseille","lat":43.32538,"lon":5.41462,"is_reserved":false,"is_disabled":false,"rental_uris":{"android":"levelo://app?vid=289b0bcc-b64b-401a-b6bf-b24c6264c2b9","ios":"levelo://app?vid=289b0bcc-b64b-401a-b6bf-b24c6264c2b9"},"vehicle_type_id":"4","last_reported":1729385415,"current_range_meters":30400,"station_id":"ce4bhq12rcd13ifvqhhg","pricing_plan_id":"cebpf4jnsgd1na2vs0mg"},{"bike_id":"fc6e513b-da81-4d34-a427-493e42edd768","system_id":"levelo_inurba_marseille","lat":43.2953,"lon":5.39229,"is_reserved":false,"is_disabled":false,"rental_uris":{"android":"levelo://app?vid=fc6e513b-da81-4d34-a427-493e42edd768","ios":"levelo://app?vid=fc6e513b-da81-4d34-a427-493e42edd768"},"vehicle_type_id":"4","last_reported":1729385415,"current_range_meters":19200,"station_id":"","pricing_plan_id":"cebpf4jnsgd1na2vs0mg"},{"bike_id":"04b74244-2296-4716-9d79-8f96ed6acdb1","system_id":"levelo_inurba_marseille","lat":43.26933,"lon":5.38923,"is_reserved":false,"is_disabled":false,"rental_uris":{"android":"levelo://app?vid=04b74244-2296-4716-9d79-8f96ed6acdb1","ios":"levelo://app?vid=04b74244-2296-4716-9d79-8f96ed6acdb1"},"vehicle_type_id":"4","last_reported":1729385415,"current_range_meters":38800,"station_id":"ce4bhhh2rcd13ifvqfl0","pricing_plan_id":"cebpf4jnsgd1na2vs0mg"},{"bike_id":"6f225c14-db6e-4f5e-8f96-9afab9ef29f7","system_id":"levelo_inurba_marseille","lat":43.297028,"lon":5.376888,"is_reserved":false,"is_disabled":false,"rental_uris":{"android":"levelo://app?vid=6f225c14-db6e-4f5e-8f96-9afab9ef29f7","ios":"levelo://app?vid=6f225c14-db6e-4f5e-8f96-9afab9ef29f7"},"vehicle_type_id":"4","last_reported":1729385415,"current_range_meters":28000,"station_id":"ce4bgkh2rcd13ifvqbl0","pricing_plan_id":"cebpf4jnsgd1na2vs0mg"},{"bike_id":"f7207608-1141-4390-a077-b1eca2449690","system_id":"levelo_inurba_marseille","lat":43.26205,"lon":5.37933,"is_reserved":false,"is_disabled":false,"rental_uris":{"android":"levelo://app?vid=f7207608-1141-4390-a077-b1eca2449690","ios":"levelo://app?vid=f7207608-1141-4390-a077-b1eca2449690"},"vehicle_type_id":"4","last_reported":1729385415,"current_range_meters":31200,"station_id":"ce4bhjp2rcd13ifvqg90","pricing_plan_id":"cebpf4jnsgd1na2vs0mg"},{"bike_id":"c383b0bc-8cf0-443d-964d-86062b4cbbef","system_id":"levelo_inurba_marseille","lat":43.281102,"lon":5.378442,"is_reserved":false,"is_disabled":false,"rental_uris":{"android":"levelo://app?vid=c383b0bc-8cf0-443d-964d-86062b4cbbef","ios":"levelo://app?vid=c383b0bc-8cf0-443d-964d-86062b4cbbef"},"vehicle_type_id":"4","last_reported":1729385415,"current_range_meters":38000,"station_id":"ce4bha12rcd13ifvqee0","pricing_plan_id":"cebpf4jnsgd1na2vs0mg"},{"bike_id":"ecb85f99-17b9-4bf1-829c-0f61a2cf1ee6","system_id":"levelo_inurba_marseille","lat":43.27974,"lon":5.41684,"is_reserved":false,"is_disabled":false,"rental_uris":{"android":"levelo://app?vid=ecb85f99-17b9-4bf1-829c-0f61a2cf1ee6","ios":"levelo://app?vid=ecb85f99-17b9-4bf1-829c-0f61a2cf1ee6"},"vehicle_type_id":"4","last_reported":1729385415,"current_range_meters":10800,"station_id":"ce4bho12rcd13ifvqh1g","pricing_plan_id":"cebpf4jnsgd1na2vs0mg"},{"bike_id":"d0201ef7-288d-41c0-a113-a9447266d47b","system_id":"levelo_inurba_marseille","lat":43.30889,"lon":5.39645,"is_reserved":false,"is_disabled":false,"rental_uris":{"android":"levelo://app?vid=d0201ef7-288d-41c0-a113-a9447266d47b","ios":"levelo://app?vid=d0201ef7-288d-41c0-a113-a9447266d47b"},"vehicle_type_id":"4","last_reported":1729385415,"current_range_meters":37600,"station_id":"ce4bh012rcd13ifvqcv0","pricing_plan_id":"cebpf4jnsgd1na2vs0mg"},{"bike_id":"0ff9a694-224b-4754-9e30-c3bd7207b123","system_id":"levelo_inurba_marseille","lat":43.30645,"lon":5.40076,"is_reserved":false,"is_disabled":false,"rental_uris":{"android":"levelo://app?vid=0ff9a694-224b-4754-9e30-c3bd7207b123","ios":"levelo://app?vid=0ff9a694-224b-4754-9e30-c3bd7207b123"},"vehicle_type_id":"4","last_reported":1729385415,"current_range_meters":28000,"station_id":"ce4bh112rcd13ifvqda0","pricing_plan_id":"cebpf4jnsgd1na2vs0mg"},{"bike_id":"57dd0012-e7c2-43e3-90a1-087125ac63fa","system_id":"levelo_inurba_marseille","lat":43.33753,"lon":5.37454,"is_reserved":false,"is_disabled":false,"rental_uris":{"android":"levelo://app?vid=57dd0012-e7c2-43e3-90a1-087125ac63fa","ios":"levelo://app?vid=57dd0012-e7c2-43e3-90a1-087125ac63fa"},"vehicle_type_id":"4","last_reported":1729385415,"current_range_meters":37600,"station_id":"","pricing_plan_id":"cebpf4jnsgd1na2vs0mg"},{"bike_id":"d0c5a1c1-66a9-4933-b464-9142a7c2b7a1","system_id":"levelo_inurba_marseille","lat":43.2845,"lon":5.35905,"is_reserved":false,"is_disabled":false,"rental_uris":{"android":"levelo://app?vid=d0c5a1c1-66a9-4933-b464-9142a7c2b7a1","ios":"levelo://app?vid=d0c5a1c1-66a9-4933-b464-9142a7c2b7a1"},"vehicle_type_id":"4","last_reported":1729385415,"current_range_meters":27600,"station_id":"ce4bhah2rcd13ifvqei0","pricing_plan_id":"cebpf4jnsgd1na2vs0mg"},{"bike_id":"580fd143-444b-4424-b5bb-4b9e450f75b5","system_id":"levelo_inurba_marseille","lat":43.27943,"lon":5.41043,"is_reserved":false,"is_disabled":false,"rental_uris":{"android":"levelo://app?vid=580fd143-444b-4424-b5bb-4b9e450f75b5","ios":"levelo://app?vid=580fd143-444b-4424-b5bb-4b9e450f75b5"},"vehicle_type_id":"4","last_reported":1729385415,"current_range_meters":34000,"station_id":"ce4bhnp2rcd13ifvqh0g","pricing_plan_id":"cebpf4jnsgd1na2vs0mg"},{"bike_id":"6c1b64c9-0069-4446-9a35-0d7e9f31b0c9","system_id":"levelo_inurba_marseille","lat":43.30599,"lon":5.39367,"is_reserved":false,"is_disabled":false,"rental_uris":{"android":"levelo://app?vid=6c1b64c9-0069-4446-9a35-0d7e9f31b0c9","ios":"levelo://app?vid=6c1b64c9-0069-4446-9a35-0d7e9f31b0c9"},"vehicle_type_id":"4","last_reported":1729385415,"current_range_meters":28400,"station_id":"ce4bh0p2rcd13ifvqd80","pricing_plan_id":"cebpf4jnsgd1na2vs0mg"},{"bike_id":"1a6a4619-f26e-4970-b3c0-a933218f2e6c","system_id":"levelo_inurba_marseille","lat":43.30599,"lon":5.39366,"is_reserved":false,"is_disabled":false,"rental_uris":{"android":"levelo://app?vid=1a6a4619-f26e-4970-b3c0-a933218f2e6c","ios":"levelo://app?vid=1a6a4619-f26e-4970-b3c0-a933218f2e6c"},"vehicle_type_id":"4","last_reported":1729385415,"current_range_meters":6400,"station_id":"ce4bh0p2rcd13ifvqd80","pricing_plan_id":"cebpf4jnsgd1na2vs0mg"},{"bike_id":"c07aa588-db55-4016-bbed-4511d4ffd744","system_id":"levelo_inurba_marseille","lat":43.2791,"lon":5.39582,"is_reserved":false,"is_disabled":false,"rental_uris":{"android":"levelo://app?vid=c07aa588-db55-4016-bbed-4511d4ffd744","ios":"levelo://app?vid=c07aa588-db55-4016-bbed-4511d4ffd744"},"vehicle_type_id":"4","last_reported":1729385415,"current_range_meters":17600,"station_id":"ce4bhf92rcd13ifvqf40","pricing_plan_id":"cebpf4jnsgd1na2vs0mg"},{"bike_id":"390c511b-54c3-4464-9557-2ac33896af8d","system_id":"levelo_inurba_marseille","lat":43.30936,"lon":5.40145,"is_reserved":false,"is_disabled":false,"rental_uris":{"android":"levelo://app?vid=390c511b-54c3-4464-9557-2ac33896af8d","ios":"levelo://app?vid=390c511b-54c3-4464-9557-2ac33896af8d"},"vehicle_type_id":"4","last_reported":1729385415,"current_range_meters":8400,"station_id":"ce4bgvp2rcd13ifvqct0","pricing_plan_id":"cebpf4jnsgd1na2vs0mg"},{"bike_id":"b30b616a-d9e9-4a64-8666-6a9ecbb10e70","system_id":"levelo_inurba_marseille","lat":43.311504,"lon":5.387522,"is_reserved":false,"is_disabled":false,"rental_uris":{"android":"levelo://app?vid=b30b616a-d9e9-4a64-8666-6a9ecbb10e70","ios":"levelo://app?vid=b30b616a-d9e9-4a64-8666-6a9ecbb10e70"},"vehicle_type_id":"4","last_reported":1729385415,"current_range_meters":24400,"station_id":"ce4bgv12rcd13ifvqcp0","pricing_plan_id":"cebpf4jnsgd1na2vs0mg"},{"bike_id":"970ce056-93b7-4b51-889b-8fcf2f52c05f","system_id":"levelo_inurba_marseille","lat":43.24536,"lon":5.39518,"is_reserved":false,"is_disabled":false,"rental_uris":{"android":"levelo://app?vid=970ce056-93b7-4b51-889b-8fcf2f52c05f","ios":"levelo://app?vid=970ce056-93b7-4b51-889b-8fcf2f52c05f"},"vehicle_type_id":"4","last_reported":1729385415,"current_range_meters":9600,"station_id":"ce4bhlp2rcd13ifvqgjg","pricing_plan_id":"cebpf4jnsgd1na2vs0mg"},{"bike_id":"5d1f039e-663b-4cac-b00a-0cacc8a50d1f","system_id":"levelo_inurba_marseille","lat":43.30241,"lon":5.40078,"is_reserved":false,"is_disabled":false,"rental_uris":{"android":"levelo://app?vid=5d1f039e-663b-4cac-b00a-0cacc8a50d1f","ios":"levelo://app?vid=5d1f039e-663b-4cac-b00a-0cacc8a50d1f"},"vehicle_type_id":"4","last_reported":1729385415,"current_range_meters":27600,"station_id":"ce4bgvh2rcd13ifvqcs0","pricing_plan_id":"cebpf4jnsgd1na2vs0mg"},{"bike_id":"9e927d85-4215-47b3-8d8f-01fc49f32640","system_id":"levelo_inurba_marseille","lat":43.26486,"lon":5.39547,"is_reserved":false,"is_disabled":false,"rental_uris":{"android":"levelo://app?vid=9e927d85-4215-47b3-8d8f-01fc49f32640","ios":"levelo://app?vid=9e927d85-4215-47b3-8d8f-01fc49f32640"},"vehicle_type_id":"4","last_reported":1729385415,"current_range_meters":38800,"station_id":"ce4bhi12rcd13ifvqfq0","pricing_plan_id":"cebpf4jnsgd1na2vs0mg"},{"bike_id":"a533abe5-dac1-401a-9d02-f2c113b84f4f","system_id":"levelo_inurba_marseille","lat":43.28939,"lon":5.36398,"is_reserved":false,"is_disabled":false,"rental_uris":{"android":"levelo://app?vid=a533abe5-dac1-401a-9d02-f2c113b84f4f","ios":"levelo://app?vid=a533abe5-dac1-401a-9d02-f2c113b84f4f"},"vehicle_type_id":"4","last_reported":1729385415,"current_range_meters":39200,"station_id":"ce4bhc92rcd13ifvqetg","pricing_plan_id":"cebpf4jnsgd1na2vs0mg"},{"bike_id":"e8b3df60-01e0-45e7-8b61-61d52e175cbb","system_id":"levelo_inurba_marseille","lat":43.28108,"lon":5.37843,"is_reserved":false,"is_disabled":false,"rental_uris":{"android":"levelo://app?vid=e8b3df60-01e0-45e7-8b61-61d52e175cbb","ios":"levelo://app?vid=e8b3df60-01e0-45e7-8b61-61d52e175cbb"},"vehicle_type_id":"4","last_reported":1729385415,"current_range_meters":38800,"station_id":"ce4bha12rcd13ifvqee0","pricing_plan_id":"cebpf4jnsgd1na2vs0mg"},{"bike_id":"b88b0471-3e76-49b0-9ff7-c71e4fc07cd2","system_id":"levelo_inurba_marseille","lat":43.26569,"lon":5.39009,"is_reserved":false,"is_disabled":false,"rental_uris":{"android":"levelo://app?vid=b88b0471-3e76-49b0-9ff7-c71e4fc07cd2","ios":"levelo://app?vid=b88b0471-3e76-49b0-9ff7-c71e4fc07cd2"},"vehicle_type_id":"4","last_reported":1729385415,"current_range_meters":38800,"station_id":"ce4bhe12rcd13ifvqf30","pricing_plan_id":"cebpf4jnsgd1na2vs0mg"},{"bike_id":"3fef2927-2365-4b87-8c34-d36fcb4879cb","system_id":"levelo_inurba_marseille","lat":43.24809,"lon":5.3746,"is_reserved":false,"is_disabled":false,"rental_uris":{"android":"levelo://app?vid=3fef2927-2365-4b87-8c34-d36fcb4879cb","ios":"levelo://app?vid=3fef2927-2365-4b87-8c34-d36fcb4879cb"},"vehicle_type_id":"4","last_reported":1729385415,"current_range_meters":20800,"station_id":"ce4bhgh2rcd13ifvqfb0","pricing_plan_id":"cebpf4jnsgd1na2vs0mg"},{"bike_id":"d0b74b4c-87c9-4924-85a0-970b3e238c13","system_id":"levelo_inurba_marseille","lat":43.29555,"lon":5.42297,"is_reserved":false,"is_disabled":false,"rental_uris":{"android":"levelo://app?vid=d0b74b4c-87c9-4924-85a0-970b3e238c13","ios":"levelo://app?vid=d0b74b4c-87c9-4924-85a0-970b3e238c13"},"vehicle_type_id":"4","last_reported":1729385415,"current_range_meters":35200,"station_id":"ce4bhph2rcd13ifvqhdg","pricing_plan_id":"cebpf4jnsgd1na2vs0mg"},{"bike_id":"a42f8a0c-f3e0-452b-bac1-9832801ca34c","system_id":"levelo_inurba_marseille","lat":43.28457,"lon":5.35878,"is_reserved":false,"is_disabled":false,"rental_uris":{"android":"levelo://app?vid=a42f8a0c-f3e0-452b-bac1-9832801ca34c","ios":"levelo://app?vid=a42f8a0c-f3e0-452b-bac1-9832801ca34c"},"vehicle_type_id":"4","last_reported":1729385415,"current_range_meters":8000,"station_id":"ce4bhah2rcd13ifvqei0","pricing_plan_id":"cebpf4jnsgd1na2vs0mg"},{"bike_id":"a9247564-b71c-42d3-a7af-078e1531397e","system_id":"levelo_inurba_marseille","lat":43.25089,"lon":5.39506,"is_reserved":false,"is_disabled":false,"rental_uris":{"android":"levelo://app?vid=a9247564-b71c-42d3-a7af-078e1531397e","ios":"levelo://app?vid=a9247564-b71c-42d3-a7af-078e1531397e"},"vehicle_type_id":"4","last_reported":1729385415,"current_range_meters":38800,"station_id":"ce4bhm12rcd13ifvqgkg","pricing_plan_id":"cebpf4jnsgd1na2vs0mg"},{"bike_id":"e2198d75-ec0b-45d7-b6f6-08bbbe60882a","system_id":"levelo_inurba_marseille","lat":43.33026,"lon":5.39048,"is_reserved":false,"is_disabled":false,"rental_uris":{"android":"levelo://app?vid=e2198d75-ec0b-45d7-b6f6-08bbbe60882a","ios":"levelo://app?vid=e2198d75-ec0b-45d7-b6f6-08bbbe60882a"},"vehicle_type_id":"4","last_reported":1729385415,"current_range_meters":38800,"station_id":"ce4bhr92rcd13ifvqhrg","pricing_plan_id":"cebpf4jnsgd1na2vs0mg"},{"bike_id":"e3b6f8d6-715d-433b-8ab0-718ff6b21ad1","system_id":"levelo_inurba_marseille","lat":43.2707,"lon":5.42281,"is_reserved":false,"is_disabled":false,"rental_uris":{"android":"levelo://app?vid=e3b6f8d6-715d-433b-8ab0-718ff6b21ad1","ios":"levelo://app?vid=e3b6f8d6-715d-433b-8ab0-718ff6b21ad1"},"vehicle_type_id":"4","last_reported":1729385415,"current_range_meters":15200,"station_id":"ce4bhk92rcd13ifvqgb0","pricing_plan_id":"cebpf4jnsgd1na2vs0mg"},{"bike_id":"fca55886-769e-4104-8bc2-0030b8dbff79","system_id":"levelo_inurba_marseille","lat":43.24077,"lon":5.37721,"is_reserved":false,"is_disabled":false,"rental_uris":{"android":"levelo://app?vid=fca55886-769e-4104-8bc2-0030b8dbff79","ios":"levelo://app?vid=fca55886-769e-4104-8bc2-0030b8dbff79"},"vehicle_type_id":"4","last_reported":1729385415,"current_range_meters":38800,"station_id":"ce4bhnp2rcd13ifvqgvg","pricing_plan_id":"cebpf4jnsgd1na2vs0mg"},{"bike_id":"6bd60844-0daf-48b6-b3fe-59f881da13ca","system_id":"levelo_inurba_marseille","lat":43.32483,"lon":5.36583,"is_reserved":false,"is_disabled":false,"rental_uris":{"android":"levelo://app?vid=6bd60844-0daf-48b6-b3fe-59f881da13ca","ios":"levelo://app?vid=6bd60844-0daf-48b6-b3fe-59f881da13ca"},"vehicle_type_id":"4","last_reported":1729385415,"current_range_meters":38800,"station_id":"ce4bhs12rcd13ifvqhvg","pricing_plan_id":"cebpf4jnsgd1na2vs0mg"},{"bike_id":"35e7f867-368c-476c-a860-684a9be05389","system_id":"levelo_inurba_marseille","lat":43.26561,"lon":5.39003,"is_reserved":false,"is_disabled":false,"rental_uris":{"android":"levelo://app?vid=35e7f867-368c-476c-a860-684a9be05389","ios":"levelo://app?vid=35e7f867-368c-476c-a860-684a9be05389"},"vehicle_type_id":"4","last_reported":1729385415,"current_range_meters":36800,"station_id":"ce4bhe12rcd13ifvqf30","pricing_plan_id":"cebpf4jnsgd1na2vs0mg"},{"bike_id":"25ab302b-1201-45e2-9143-4ec4ea699a05","system_id":"levelo_inurba_marseille","lat":43.27918,"lon":5.39589,"is_reserved":false,"is_disabled":false,"rental_uris":{"android":"levelo://app?vid=25ab302b-1201-45e2-9143-4ec4ea699a05","ios":"levelo://app?vid=25ab302b-1201-45e2-9143-4ec4ea699a05"},"vehicle_type_id":"4","last_reported":1729385415,"current_range_meters":23200,"station_id":"ce4bhf92rcd13ifvqf40","pricing_plan_id":"cebpf4jnsgd1na2vs0mg"},{"bike_id":"4ea5aef8-ce0c-4408-90ea-0be5c9c1920f","system_id":"levelo_inurba_marseille","lat":43.29424,"lon":5.37767,"is_reserved":false,"is_disabled":false,"rental_uris":{"android":"levelo://app?vid=4ea5aef8-ce0c-4408-90ea-0be5c9c1920f","ios":"levelo://app?vid=4ea5aef8-ce0c-4408-90ea-0be5c9c1920f"},"vehicle_type_id":"4","last_reported":1729385415,"current_range_meters":16800,"station_id":"","pricing_plan_id":"cebpf4jnsgd1na2vs0mg"},{"bike_id":"13253f8f-1e84-4c87-9b63-9991a2d5f0ba","system_id":"levelo_inurba_marseille","lat":43.313302,"lon":5.384932,"is_reserved":false,"is_disabled":false,"rental_uris":{"android":"levelo://app?vid=13253f8f-1e84-4c87-9b63-9991a2d5f0ba","ios":"levelo://app?vid=13253f8f-1e84-4c87-9b63-9991a2d5f0ba"},"vehicle_type_id":"4","last_reported":1729385415,"current_range_meters":5600,"station_id":"ce4bgt92rcd13ifvqcf0","pricing_plan_id":"cebpf4jnsgd1na2vs0mg"},{"bike_id":"d9924d9a-3ffb-4166-8795-96d1e1801940","system_id":"levelo_inurba_marseille","lat":43.25002,"lon":5.38929,"is_reserved":false,"is_disabled":false,"rental_uris":{"android":"levelo://app?vid=d9924d9a-3ffb-4166-8795-96d1e1801940","ios":"levelo://app?vid=d9924d9a-3ffb-4166-8795-96d1e1801940"},"vehicle_type_id":"4","last_reported":1729385415,"current_range_meters":38400,"station_id":"ce4bhgp2rcd13ifvqfd0","pricing_plan_id":"cebpf4jnsgd1na2vs0mg"},{"bike_id":"d234dac7-4ce3-4348-b72f-a62abb04355c","system_id":"levelo_inurba_marseille","lat":43.27922,"lon":5.39585,"is_reserved":false,"is_disabled":false,"rental_uris":{"android":"levelo://app?vid=d234dac7-4ce3-4348-b72f-a62abb04355c","ios":"levelo://app?vid=d234dac7-4ce3-4348-b72f-a62abb04355c"},"vehicle_type_id":"4","last_reported":1729385415,"current_range_meters":12400,"station_id":"ce4bhf92rcd13ifvqf40","pricing_plan_id":"cebpf4jnsgd1na2vs0mg"},{"bike_id":"83f2dbb8-5f53-40b6-a7b4-0d514c1ebb41","system_id":"levelo_inurba_marseille","lat":43.26948,"lon":5.38643,"is_reserved":false,"is_disabled":false,"rental_uris":{"android":"levelo://app?vid=83f2dbb8-5f53-40b6-a7b4-0d514c1ebb41","ios":"levelo://app?vid=83f2dbb8-5f53-40b6-a7b4-0d514c1ebb41"},"vehicle_type_id":"4","last_reported":1729385415,"current_range_meters":20400,"station_id":"ce4bhh92rcd13ifvqfh0","pricing_plan_id":"cebpf4jnsgd1na2vs0mg"},{"bike_id":"b10181cc-41ff-4bd7-8376-48a23e3dc7f1","system_id":"levelo_inurba_marseille","lat":43.25863,"lon":5.39905,"is_reserved":false,"is_disabled":false,"rental_uris":{"android":"levelo://app?vid=b10181cc-41ff-4bd7-8376-48a23e3dc7f1","ios":"levelo://app?vid=b10181cc-41ff-4bd7-8376-48a23e3dc7f1"},"vehicle_type_id":"4","last_reported":1729385415,"current_range_meters":31200,"station_id":"ce4bhl92rcd13ifvqghg","pricing_plan_id":"cebpf4jnsgd1na2vs0mg"},{"bike_id":"bdc9eb1f-e84a-472b-9728-39e6924ff743","system_id":"levelo_inurba_marseille","lat":43.26557,"lon":5.37288,"is_reserved":false,"is_disabled":false,"rental_uris":{"android":"levelo://app?vid=bdc9eb1f-e84a-472b-9728-39e6924ff743","ios":"levelo://app?vid=bdc9eb1f-e84a-472b-9728-39e6924ff743"},"vehicle_type_id":"4","last_reported":1729385415,"current_range_meters":38800,"station_id":"ce4bhg12rcd13ifvqf70","pricing_plan_id":"cebpf4jnsgd1na2vs0mg"},{"bike_id":"0c07120c-6a22-4d0f-a500-32eb140d4f3a","system_id":"levelo_inurba_marseille","lat":43.28703,"lon":5.39997,"is_reserved":false,"is_disabled":false,"rental_uris":{"android":"levelo://app?vid=0c07120c-6a22-4d0f-a500-32eb140d4f3a","ios":"levelo://app?vid=0c07120c-6a22-4d0f-a500-32eb140d4f3a"},"vehicle_type_id":"4","last_reported":1729385415,"current_range_meters":38400,"station_id":"ce4bho92rcd13ifvqh3g","pricing_plan_id":"cebpf4jnsgd1na2vs0mg"},{"bike_id":"8d99d55a-7b47-40c1-ad7b-8d15db9ce591","system_id":"levelo_inurba_marseille","lat":43.25116,"lon":5.4032,"is_reserved":false,"is_disabled":false,"rental_uris":{"android":"levelo://app?vid=8d99d55a-7b47-40c1-ad7b-8d15db9ce591","ios":"levelo://app?vid=8d99d55a-7b47-40c1-ad7b-8d15db9ce591"},"vehicle_type_id":"4","last_reported":1729385415,"current_range_meters":38800,"station_id":"ce4bhlh2rcd13ifvqgig","pricing_plan_id":"cebpf4jnsgd1na2vs0mg"},{"bike_id":"d7a7b4e2-55cf-4e90-b6b5-7ac744cd79b4","system_id":"levelo_inurba_marseille","lat":43.28701,"lon":5.37389,"is_reserved":false,"is_disabled":false,"rental_uris":{"android":"levelo://app?vid=d7a7b4e2-55cf-4e90-b6b5-7ac744cd79b4","ios":"levelo://app?vid=d7a7b4e2-55cf-4e90-b6b5-7ac744cd79b4"},"vehicle_type_id":"4","last_reported":1729385415,"current_range_meters":38800,"station_id":"ce4bh3p2rcd13ifvqdq0","pricing_plan_id":"cebpf4jnsgd1na2vs0mg"},{"bike_id":"55b3a8f5-19d1-4d08-bf99-ccf2c312bc04","system_id":"levelo_inurba_marseille","lat":43.2319,"lon":5.35558,"is_reserved":false,"is_disabled":false,"rental_uris":{"android":"levelo://app?vid=55b3a8f5-19d1-4d08-bf99-ccf2c312bc04","ios":"levelo://app?vid=55b3a8f5-19d1-4d08-bf99-ccf2c312bc04"},"vehicle_type_id":"4","last_reported":1729385415,"current_range_meters":38800,"station_id":"ce4bhu92rcd13ifvqi70","pricing_plan_id":"cebpf4jnsgd1na2vs0mg"},{"bike_id":"03c65ff2-e039-4d25-904f-97cbb588f2b4","system_id":"levelo_inurba_marseille","lat":43.33024,"lon":5.39046,"is_reserved":false,"is_disabled":false,"rental_uris":{"android":"levelo://app?vid=03c65ff2-e039-4d25-904f-97cbb588f2b4","ios":"levelo://app?vid=03c65ff2-e039-4d25-904f-97cbb588f2b4"},"vehicle_type_id":"4","last_reported":1729385415,"current_range_meters":25600,"station_id":"ce4bhr92rcd13ifvqhrg","pricing_plan_id":"cebpf4jnsgd1na2vs0mg"},{"bike_id":"b9a67f3d-b2eb-443d-98a9-e1167058c7fb","system_id":"levelo_inurba_marseille","lat":43.24074,"lon":5.37765,"is_reserved":false,"is_disabled":false,"rental_uris":{"android":"levelo://app?vid=b9a67f3d-b2eb-443d-98a9-e1167058c7fb","ios":"levelo://app?vid=b9a67f3d-b2eb-443d-98a9-e1167058c7fb"},"vehicle_type_id":"4","last_reported":1729385415,"current_range_meters":38800,"station_id":"ce4bhnp2rcd13ifvqgvg","pricing_plan_id":"cebpf4jnsgd1na2vs0mg"},{"bike_id":"b7de9dd9-5cc2-4cc4-a2fe-9e58cc422c15","system_id":"levelo_inurba_marseille","lat":43.32343,"lon":5.40624,"is_reserved":false,"is_disabled":false,"rental_uris":{"android":"levelo://app?vid=b7de9dd9-5cc2-4cc4-a2fe-9e58cc422c15","ios":"levelo://app?vid=b7de9dd9-5cc2-4cc4-a2fe-9e58cc422c15"},"vehicle_type_id":"4","last_reported":1729385415,"current_range_meters":25600,"station_id":"ce4bhq92rcd13ifvqhjg","pricing_plan_id":"cebpf4jnsgd1na2vs0mg"},{"bike_id":"43d24770-4ece-4a77-a029-fe46e9bde13b","system_id":"levelo_inurba_marseille","lat":43.31568,"lon":5.37416,"is_reserved":false,"is_disabled":false,"rental_uris":{"android":"levelo://app?vid=43d24770-4ece-4a77-a029-fe46e9bde13b","ios":"levelo://app?vid=43d24770-4ece-4a77-a029-fe46e9bde13b"},"vehicle_type_id":"4","last_reported":1729385415,"current_range_meters":38400,"station_id":"","pricing_plan_id":"cebpf4jnsgd1na2vs0mg"},{"bike_id":"28db4370-84ab-40a1-ba5d-f49d506458f1","system_id":"levelo_inurba_marseille","lat":43.28456,"lon":5.35892,"is_reserved":false,"is_disabled":false,"rental_uris":{"android":"levelo://app?vid=28db4370-84ab-40a1-ba5d-f49d506458f1","ios":"levelo://app?vid=28db4370-84ab-40a1-ba5d-f49d506458f1"},"vehicle_type_id":"4","last_reported":1729385415,"current_range_meters":11200,"station_id":"ce4bhah2rcd13ifvqei0","pricing_plan_id":"cebpf4jnsgd1na2vs0mg"},{"bike_id":"df0764bb-73ac-46d7-903f-a26945b45d7c","system_id":"levelo_inurba_marseille","lat":43.24622,"lon":5.41608,"is_reserved":false,"is_disabled":false,"rental_uris":{"android":"levelo://app?vid=df0764bb-73ac-46d7-903f-a26945b45d7c","ios":"levelo://app?vid=df0764bb-73ac-46d7-903f-a26945b45d7c"},"vehicle_type_id":"4","last_reported":1729385415,"current_range_meters":26800,"station_id":"","pricing_plan_id":"cebpf4jnsgd1na2vs0mg"},{"bike_id":"766da900-471d-42f5-8cfa-8db494f945d7","system_id":"levelo_inurba_marseille","lat":43.28904,"lon":5.46052,"is_reserved":false,"is_disabled":false,"rental_uris":{"android":"levelo://app?vid=766da900-471d-42f5-8cfa-8db494f945d7","ios":"levelo://app?vid=766da900-471d-42f5-8cfa-8db494f945d7"},"vehicle_type_id":"4","last_reported":1729385415,"current_range_meters":27200,"station_id":"","pricing_plan_id":"cebpf4jnsgd1na2vs0mg"},{"bike_id":"c9f3cf75-b192-46a2-bccb-22bf83a32319","system_id":"levelo_inurba_marseille","lat":43.29263,"lon":5.4092,"is_reserved":false,"is_disabled":false,"rental_uris":{"android":"levelo://app?vid=c9f3cf75-b192-46a2-bccb-22bf83a32319","ios":"levelo://app?vid=c9f3cf75-b192-46a2-bccb-22bf83a32319"},"vehicle_type_id":"4","last_reported":1729385415,"current_range_meters":11600,"station_id":"ce4bh192rcd13ifvqdc0","pricing_plan_id":"cebpf4jnsgd1na2vs0mg"},{"bike_id":"1466942e-504e-4c7c-be31-f6fec790f80a","system_id":"levelo_inurba_marseille","lat":43.30213,"lon":5.3946,"is_reserved":false,"is_disabled":false,"rental_uris":{"android":"levelo://app?vid=1466942e-504e-4c7c-be31-f6fec790f80a","ios":"levelo://app?vid=1466942e-504e-4c7c-be31-f6fec790f80a"},"vehicle_type_id":"4","last_reported":1729385415,"current_range_meters":34000,"station_id":"ce4bh0p2rcd13ifvqd70","pricing_plan_id":"cebpf4jnsgd1na2vs0mg"},{"bike_id":"e1ecab31-db81-4fd3-a9d4-3da40b8c0ede","system_id":"levelo_inurba_marseille","lat":43.29548,"lon":5.42288,"is_reserved":false,"is_disabled":false,"rental_uris":{"android":"levelo://app?vid=e1ecab31-db81-4fd3-a9d4-3da40b8c0ede","ios":"levelo://app?vid=e1ecab31-db81-4fd3-a9d4-3da40b8c0ede"},"vehicle_type_id":"4","last_reported":1729385415,"current_range_meters":36800,"station_id":"ce4bhph2rcd13ifvqhdg","pricing_plan_id":"cebpf4jnsgd1na2vs0mg"},{"bike_id":"e567248c-cc07-4ac3-93e3-3f51dcec5d60","system_id":"levelo_inurba_marseille","lat":43.28462,"lon":5.35889,"is_reserved":false,"is_disabled":false,"rental_uris":{"android":"levelo://app?vid=e567248c-cc07-4ac3-93e3-3f51dcec5d60","ios":"levelo://app?vid=e567248c-cc07-4ac3-93e3-3f51dcec5d60"},"vehicle_type_id":"4","last_reported":1729385415,"current_range_meters":24400,"station_id":"ce4bhah2rcd13ifvqei0","pricing_plan_id":"cebpf4jnsgd1na2vs0mg"},{"bike_id":"4bd36cb7-eed3-4018-bebe-72376c8fe152","system_id":"levelo_inurba_marseille","lat":43.29261,"lon":5.38435,"is_reserved":false,"is_disabled":false,"rental_uris":{"android":"levelo://app?vid=4bd36cb7-eed3-4018-bebe-72376c8fe152","ios":"levelo://app?vid=4bd36cb7-eed3-4018-bebe-72376c8fe152"},"vehicle_type_id":"4","last_reported":1729385415,"current_range_meters":28400,"station_id":"ce4bhg12rcd13ifvqf70","pricing_plan_id":"cebpf4jnsgd1na2vs0mg"},{"bike_id":"ab3708dc-2324-4d77-ac1a-38c928b735aa","system_id":"levelo_inurba_marseille","lat":43.28103,"lon":5.37843,"is_reserved":false,"is_disabled":false,"rental_uris":{"android":"levelo://app?vid=ab3708dc-2324-4d77-ac1a-38c928b735aa","ios":"levelo://app?vid=ab3708dc-2324-4d77-ac1a-38c928b735aa"},"vehicle_type_id":"4","last_reported":1729385415,"current_range_meters":30800,"station_id":"ce4bha12rcd13ifvqee0","pricing_plan_id":"cebpf4jnsgd1na2vs0mg"},{"bike_id":"e16d903d-5fd2-4302-b63f-8ed6075b38cd","system_id":"levelo_inurba_marseille","lat":43.30262,"lon":5.40083,"is_reserved":false,"is_disabled":false,"rental_uris":{"android":"levelo://app?vid=e16d903d-5fd2-4302-b63f-8ed6075b38cd","ios":"levelo://app?vid=e16d903d-5fd2-4302-b63f-8ed6075b38cd"},"vehicle_type_id":"4","last_reported":1729385415,"current_range_meters":24000,"station_id":"ce4bgvh2rcd13ifvqcs0","pricing_plan_id":"cebpf4jnsgd1na2vs0mg"},{"bike_id":"707eb2f1-a40c-4580-8f44-11408cac020b","system_id":"levelo_inurba_marseille","lat":43.26804,"lon":5.40265,"is_reserved":false,"is_disabled":false,"rental_uris":{"android":"levelo://app?vid=707eb2f1-a40c-4580-8f44-11408cac020b","ios":"levelo://app?vid=707eb2f1-a40c-4580-8f44-11408cac020b"},"vehicle_type_id":"4","last_reported":1729385415,"current_range_meters":6800,"station_id":"ce501612rcd8frsf0b60","pricing_plan_id":"cebpf4jnsgd1na2vs0mg"},{"bike_id":"8400a97e-ed46-4d37-b5cf-926b69826c1f","system_id":"levelo_inurba_marseille","lat":43.28104,"lon":5.37849,"is_reserved":false,"is_disabled":false,"rental_uris":{"android":"levelo://app?vid=8400a97e-ed46-4d37-b5cf-926b69826c1f","ios":"levelo://app?vid=8400a97e-ed46-4d37-b5cf-926b69826c1f"},"vehicle_type_id":"4","last_reported":1729385415,"current_range_meters":18800,"station_id":"ce4bha12rcd13ifvqee0","pricing_plan_id":"cebpf4jnsgd1na2vs0mg"},{"bike_id":"fbe5e5b4-3e44-4487-a73e-284854502401","system_id":"levelo_inurba_marseille","lat":43.24068,"lon":5.37765,"is_reserved":false,"is_disabled":false,"rental_uris":{"android":"levelo://app?vid=fbe5e5b4-3e44-4487-a73e-284854502401","ios":"levelo://app?vid=fbe5e5b4-3e44-4487-a73e-284854502401"},"vehicle_type_id":"4","last_reported":1729385415,"current_range_meters":20400,"station_id":"ce4bhnp2rcd13ifvqgvg","pricing_plan_id":"cebpf4jnsgd1na2vs0mg"},{"bike_id":"38f10f2c-6c25-4c35-88e6-5eb9c416cd03","system_id":"levelo_inurba_marseille","lat":43.31327,"lon":5.39696,"is_reserved":false,"is_disabled":false,"rental_uris":{"android":"levelo://app?vid=38f10f2c-6c25-4c35-88e6-5eb9c416cd03","ios":"levelo://app?vid=38f10f2c-6c25-4c35-88e6-5eb9c416cd03"},"vehicle_type_id":"4","last_reported":1729385415,"current_range_meters":22000,"station_id":"ce4bgvp2rcd13ifvqcu0","pricing_plan_id":"cebpf4jnsgd1na2vs0mg"},{"bike_id":"05172b3b-0223-41db-b5bd-b978ecbff7d5","system_id":"levelo_inurba_marseille","lat":43.30414,"lon":5.4129,"is_reserved":false,"is_disabled":false,"rental_uris":{"android":"levelo://app?vid=05172b3b-0223-41db-b5bd-b978ecbff7d5","ios":"levelo://app?vid=05172b3b-0223-41db-b5bd-b978ecbff7d5"},"vehicle_type_id":"4","last_reported":1729385415,"current_range_meters":36800,"station_id":"ce4bhop2rcd13ifvqh8g","pricing_plan_id":"cebpf4jnsgd1na2vs0mg"},{"bike_id":"800f51d2-65f5-405b-bfa5-4aae62bb1f8a","system_id":"levelo_inurba_marseille","lat":43.30807,"lon":5.38144,"is_reserved":false,"is_disabled":false,"rental_uris":{"android":"levelo://app?vid=800f51d2-65f5-405b-bfa5-4aae62bb1f8a","ios":"levelo://app?vid=800f51d2-65f5-405b-bfa5-4aae62bb1f8a"},"vehicle_type_id":"4","last_reported":1729385415,"current_range_meters":19200,"station_id":"ce4bgt12rcd13ifvqce0","pricing_plan_id":"cebpf4jnsgd1na2vs0mg"},{"bike_id":"4158d4ef-7d68-469c-9874-e49eaf6f57e9","system_id":"levelo_inurba_marseille","lat":43.29261,"lon":5.40926,"is_reserved":false,"is_disabled":false,"rental_uris":{"android":"levelo://app?vid=4158d4ef-7d68-469c-9874-e49eaf6f57e9","ios":"levelo://app?vid=4158d4ef-7d68-469c-9874-e49eaf6f57e9"},"vehicle_type_id":"4","last_reported":1729385415,"current_range_meters":38800,"station_id":"ce4bh192rcd13ifvqdc0","pricing_plan_id":"cebpf4jnsgd1na2vs0mg"},{"bike_id":"324858e4-203d-4ee7-978a-6d71fa9de74f","system_id":"levelo_inurba_marseille","lat":43.29802,"lon":5.40401,"is_reserved":false,"is_disabled":false,"rental_uris":{"android":"levelo://app?vid=324858e4-203d-4ee7-978a-6d71fa9de74f","ios":"levelo://app?vid=324858e4-203d-4ee7-978a-6d71fa9de74f"},"vehicle_type_id":"4","last_reported":1729385415,"current_range_meters":12400,"station_id":"ce4bh112rcd13ifvqd90","pricing_plan_id":"cebpf4jnsgd1na2vs0mg"},{"bike_id":"9869e7c1-2a64-4fc5-aa7f-0b200518280c","system_id":"levelo_inurba_marseille","lat":43.28851,"lon":5.39319,"is_reserved":false,"is_disabled":false,"rental_uris":{"android":"levelo://app?vid=9869e7c1-2a64-4fc5-aa7f-0b200518280c","ios":"levelo://app?vid=9869e7c1-2a64-4fc5-aa7f-0b200518280c"},"vehicle_type_id":"4","last_reported":1729385415,"current_range_meters":26800,"station_id":"ce4bh2p2rcd13ifvqdi0","pricing_plan_id":"cebpf4jnsgd1na2vs0mg"},{"bike_id":"8b92e632-8e83-4b7e-bf35-34ac8bc288f0","system_id":"levelo_inurba_marseille","lat":43.29258,"lon":5.38439,"is_reserved":false,"is_disabled":false,"rental_uris":{"android":"levelo://app?vid=8b92e632-8e83-4b7e-bf35-34ac8bc288f0","ios":"levelo://app?vid=8b92e632-8e83-4b7e-bf35-34ac8bc288f0"},"vehicle_type_id":"4","last_reported":1729385415,"current_range_meters":30800,"station_id":"ce4bhgp2rcd13ifvqfc0","pricing_plan_id":"cebpf4jnsgd1na2vs0mg"},{"bike_id":"2910eaad-da2f-4396-abed-6a24ceae014b","system_id":"levelo_inurba_marseille","lat":43.30388,"lon":5.37338,"is_reserved":false,"is_disabled":false,"rental_uris":{"android":"levelo://app?vid=2910eaad-da2f-4396-abed-6a24ceae014b","ios":"levelo://app?vid=2910eaad-da2f-4396-abed-6a24ceae014b"},"vehicle_type_id":"4","last_reported":1729385415,"current_range_meters":19200,"station_id":"","pricing_plan_id":"cebpf4jnsgd1na2vs0mg"},{"bike_id":"0326ee85-d660-4331-a018-7d6617a93caf","system_id":"levelo_inurba_marseille","lat":43.30649,"lon":5.40091,"is_reserved":false,"is_disabled":false,"rental_uris":{"android":"levelo://app?vid=0326ee85-d660-4331-a018-7d6617a93caf","ios":"levelo://app?vid=0326ee85-d660-4331-a018-7d6617a93caf"},"vehicle_type_id":"4","last_reported":1729385415,"current_range_meters":39200,"station_id":"ce4bh112rcd13ifvqda0","pricing_plan_id":"cebpf4jnsgd1na2vs0mg"},{"bike_id":"dd1d57da-ac31-4466-ab54-f12f1ad20cf1","system_id":"levelo_inurba_marseille","lat":43.29554,"lon":5.42284,"is_reserved":false,"is_disabled":false,"rental_uris":{"android":"levelo://app?vid=dd1d57da-ac31-4466-ab54-f12f1ad20cf1","ios":"levelo://app?vid=dd1d57da-ac31-4466-ab54-f12f1ad20cf1"},"vehicle_type_id":"4","last_reported":1729385415,"current_range_meters":12400,"station_id":"ce4bhph2rcd13ifvqhdg","pricing_plan_id":"cebpf4jnsgd1na2vs0mg"},{"bike_id":"6e706dcb-6e41-41b6-a172-73765c66fdaa","system_id":"levelo_inurba_marseille","lat":43.26239,"lon":5.37589,"is_reserved":false,"is_disabled":false,"rental_uris":{"android":"levelo://app?vid=6e706dcb-6e41-41b6-a172-73765c66fdaa","ios":"levelo://app?vid=6e706dcb-6e41-41b6-a172-73765c66fdaa"},"vehicle_type_id":"4","last_reported":1729385415,"current_range_meters":36400,"station_id":"ce4bhhp2rcd13ifvqfm0","pricing_plan_id":"cebpf4jnsgd1na2vs0mg"},{"bike_id":"80f9bb87-fd46-4ad9-a153-d24e9870383e","system_id":"levelo_inurba_marseille","lat":43.24072,"lon":5.37763,"is_reserved":false,"is_disabled":false,"rental_uris":{"android":"levelo://app?vid=80f9bb87-fd46-4ad9-a153-d24e9870383e","ios":"levelo://app?vid=80f9bb87-fd46-4ad9-a153-d24e9870383e"},"vehicle_type_id":"4","last_reported":1729385415,"current_range_meters":28400,"station_id":"ce4bhnp2rcd13ifvqgvg","pricing_plan_id":"cebpf4jnsgd1na2vs0mg"},{"bike_id":"522bb5dc-efc4-45ac-a026-aafe838b2839","system_id":"levelo_inurba_marseille","lat":43.29794,"lon":5.37091,"is_reserved":false,"is_disabled":false,"rental_uris":{"android":"levelo://app?vid=522bb5dc-efc4-45ac-a026-aafe838b2839","ios":"levelo://app?vid=522bb5dc-efc4-45ac-a026-aafe838b2839"},"vehicle_type_id":"4","last_reported":1729385415,"current_range_meters":38800,"station_id":"ce4bgop2rcd13ifvqc1g","pricing_plan_id":"cebpf4jnsgd1na2vs0mg"},{"bike_id":"1d0123a6-a46a-4f0d-aa90-d1ca1d1a44c9","system_id":"levelo_inurba_marseille","lat":43.31328,"lon":5.39699,"is_reserved":false,"is_disabled":false,"rental_uris":{"android":"levelo://app?vid=1d0123a6-a46a-4f0d-aa90-d1ca1d1a44c9","ios":"levelo://app?vid=1d0123a6-a46a-4f0d-aa90-d1ca1d1a44c9"},"vehicle_type_id":"4","last_reported":1729385415,"current_range_meters":38800,"station_id":"ce4bgvp2rcd13ifvqcu0","pricing_plan_id":"cebpf4jnsgd1na2vs0mg"},{"bike_id":"d20c7772-6069-4e2f-ba39-8859dbd770a5","system_id":"levelo_inurba_marseille","lat":43.31121,"lon":5.37784,"is_reserved":false,"is_disabled":false,"rental_uris":{"android":"levelo://app?vid=d20c7772-6069-4e2f-ba39-8859dbd770a5","ios":"levelo://app?vid=d20c7772-6069-4e2f-ba39-8859dbd770a5"},"vehicle_type_id":"4","last_reported":1729385415,"current_range_meters":18000,"station_id":"ce4bgt92rcd13ifvqcg0","pricing_plan_id":"cebpf4jnsgd1na2vs0mg"},{"bike_id":"7085069e-310b-483c-9929-953b118ba0f9","system_id":"levelo_inurba_marseille","lat":43.31709,"lon":5.37764,"is_reserved":false,"is_disabled":false,"rental_uris":{"android":"levelo://app?vid=7085069e-310b-483c-9929-953b118ba0f9","ios":"levelo://app?vid=7085069e-310b-483c-9929-953b118ba0f9"},"vehicle_type_id":"4","last_reported":1729385415,"current_range_meters":35200,"station_id":"ce4bgth2rcd13ifvqch0","pricing_plan_id":"cebpf4jnsgd1na2vs0mg"},{"bike_id":"7ebb0999-b842-42c3-8bf6-b9590dc64824","system_id":"levelo_inurba_marseille","lat":43.32661,"lon":5.4099,"is_reserved":false,"is_disabled":false,"rental_uris":{"android":"levelo://app?vid=7ebb0999-b842-42c3-8bf6-b9590dc64824","ios":"levelo://app?vid=7ebb0999-b842-42c3-8bf6-b9590dc64824"},"vehicle_type_id":"4","last_reported":1729385415,"current_range_meters":38800,"station_id":"ce4bhpp2rcd13ifvqhgg","pricing_plan_id":"cebpf4jnsgd1na2vs0mg"},{"bike_id":"7772d39f-5e28-445c-af91-069b0cf63793","system_id":"levelo_inurba_marseille","lat":43.33765,"lon":5.37438,"is_reserved":false,"is_disabled":false,"rental_uris":{"android":"levelo://app?vid=7772d39f-5e28-445c-af91-069b0cf63793","ios":"levelo://app?vid=7772d39f-5e28-445c-af91-069b0cf63793"},"vehicle_type_id":"4","last_reported":1729385415,"current_range_meters":6800,"station_id":"","pricing_plan_id":"cebpf4jnsgd1na2vs0mg"},{"bike_id":"733eb2c5-00ab-4d49-8038-dfb888b12557","system_id":"levelo_inurba_marseille","lat":43.31992,"lon":5.38175,"is_reserved":false,"is_disabled":false,"rental_uris":{"android":"levelo://app?vid=733eb2c5-00ab-4d49-8038-dfb888b12557","ios":"levelo://app?vid=733eb2c5-00ab-4d49-8038-dfb888b12557"},"vehicle_type_id":"4","last_reported":1729385415,"current_range_meters":36000,"station_id":"ce4bhr12rcd13ifvqhpg","pricing_plan_id":"cebpf4jnsgd1na2vs0mg"},{"bike_id":"3213665e-989c-4d22-9f5a-31c8522597dd","system_id":"levelo_inurba_marseille","lat":43.296,"lon":5.36142,"is_reserved":false,"is_disabled":false,"rental_uris":{"android":"levelo://app?vid=3213665e-989c-4d22-9f5a-31c8522597dd","ios":"levelo://app?vid=3213665e-989c-4d22-9f5a-31c8522597dd"},"vehicle_type_id":"4","last_reported":1729385415,"current_range_meters":17200,"station_id":"","pricing_plan_id":"cebpf4jnsgd1na2vs0mg"},{"bike_id":"de3c0b44-6e5a-4b2f-b7ca-4323db124234","system_id":"levelo_inurba_marseille","lat":43.29059,"lon":5.37187,"is_reserved":false,"is_disabled":false,"rental_uris":{"android":"levelo://app?vid=de3c0b44-6e5a-4b2f-b7ca-4323db124234","ios":"levelo://app?vid=de3c0b44-6e5a-4b2f-b7ca-4323db124234"},"vehicle_type_id":"4","last_reported":1729385415,"current_range_meters":38800,"station_id":"ce4bh5p2rcd13ifvqe4g","pricing_plan_id":"cebpf4jnsgd1na2vs0mg"},{"bike_id":"1e931b7a-6471-42e1-bb92-ada9bafacbe6","system_id":"levelo_inurba_marseille","lat":43.29066,"lon":5.37156,"is_reserved":false,"is_disabled":false,"rental_uris":{"android":"levelo://app?vid=1e931b7a-6471-42e1-bb92-ada9bafacbe6","ios":"levelo://app?vid=1e931b7a-6471-42e1-bb92-ada9bafacbe6"},"vehicle_type_id":"4","last_reported":1729385415,"current_range_meters":0,"station_id":"ce4bh5p2rcd13ifvqe4g","pricing_plan_id":"cebpf4jnsgd1na2vs0mg"},{"bike_id":"09a1c59c-9906-4c94-966e-411f5a9bb215","system_id":"levelo_inurba_marseille","lat":43.2795,"lon":5.41049,"is_reserved":false,"is_disabled":false,"rental_uris":{"android":"levelo://app?vid=09a1c59c-9906-4c94-966e-411f5a9bb215","ios":"levelo://app?vid=09a1c59c-9906-4c94-966e-411f5a9bb215"},"vehicle_type_id":"4","last_reported":1729385415,"current_range_meters":7200,"station_id":"ce4bhnp2rcd13ifvqh0g","pricing_plan_id":"cebpf4jnsgd1na2vs0mg"},{"bike_id":"3f3c663d-a6fd-4091-8533-6c09ca965902","system_id":"levelo_inurba_marseille","lat":43.3119,"lon":5.37715,"is_reserved":false,"is_disabled":false,"rental_uris":{"android":"levelo://app?vid=3f3c663d-a6fd-4091-8533-6c09ca965902","ios":"levelo://app?vid=3f3c663d-a6fd-4091-8533-6c09ca965902"},"vehicle_type_id":"4","last_reported":1729385415,"current_range_meters":17200,"station_id":"","pricing_plan_id":"cebpf4jnsgd1na2vs0mg"},{"bike_id":"275e8b97-c257-4f5b-9606-c19c9133569b","system_id":"levelo_inurba_marseille","lat":43.29485,"lon":5.36324,"is_reserved":false,"is_disabled":false,"rental_uris":{"android":"levelo://app?vid=275e8b97-c257-4f5b-9606-c19c9133569b","ios":"levelo://app?vid=275e8b97-c257-4f5b-9606-c19c9133569b"},"vehicle_type_id":"4","last_reported":1729385415,"current_range_meters":13600,"station_id":"","pricing_plan_id":"cebpf4jnsgd1na2vs0mg"},{"bike_id":"9a2117f0-c5b0-4dc2-891b-026a24af23f1","system_id":"levelo_inurba_marseille","lat":43.3105,"lon":5.40092,"is_reserved":false,"is_disabled":false,"rental_uris":{"android":"levelo://app?vid=9a2117f0-c5b0-4dc2-891b-026a24af23f1","ios":"levelo://app?vid=9a2117f0-c5b0-4dc2-891b-026a24af23f1"},"vehicle_type_id":"4","last_reported":1729385415,"current_range_meters":36000,"station_id":"","pricing_plan_id":"cebpf4jnsgd1na2vs0mg"},{"bike_id":"eb63ba09-6f9d-4cf6-88df-f95385f23699","system_id":"levelo_inurba_marseille","lat":43.25823,"lon":5.39441,"is_reserved":false,"is_disabled":false,"rental_uris":{"android":"levelo://app?vid=eb63ba09-6f9d-4cf6-88df-f95385f23699","ios":"levelo://app?vid=eb63ba09-6f9d-4cf6-88df-f95385f23699"},"vehicle_type_id":"4","last_reported":1729385415,"current_range_meters":38800,"station_id":"ce4bhip2rcd13ifvqft0","pricing_plan_id":"cebpf4jnsgd1na2vs0mg"},{"bike_id":"0ff056ef-c083-468c-897f-16891fa545e9","system_id":"levelo_inurba_marseille","lat":43.30152,"lon":5.37403,"is_reserved":false,"is_disabled":false,"rental_uris":{"android":"levelo://app?vid=0ff056ef-c083-468c-897f-16891fa545e9","ios":"levelo://app?vid=0ff056ef-c083-468c-897f-16891fa545e9"},"vehicle_type_id":"4","last_reported":1729385415,"current_range_meters":38000,"station_id":"ce4bgs92rcd13ifvqcc0","pricing_plan_id":"cebpf4jnsgd1na2vs0mg"},{"bike_id":"5dd719ab-a213-4094-b2e1-609f6924f39b","system_id":"levelo_inurba_marseille","lat":43.31996,"lon":5.38162,"is_reserved":false,"is_disabled":false,"rental_uris":{"android":"levelo://app?vid=5dd719ab-a213-4094-b2e1-609f6924f39b","ios":"levelo://app?vid=5dd719ab-a213-4094-b2e1-609f6924f39b"},"vehicle_type_id":"4","last_reported":1729385415,"current_range_meters":39200,"station_id":"ce4bhr12rcd13ifvqhpg","pricing_plan_id":"cebpf4jnsgd1na2vs0mg"},{"bike_id":"d1eaed94-2ffc-4609-a3b8-b0df4a991b21","system_id":"levelo_inurba_marseille","lat":43.31237,"lon":5.38485,"is_reserved":false,"is_disabled":false,"rental_uris":{"android":"levelo://app?vid=d1eaed94-2ffc-4609-a3b8-b0df4a991b21","ios":"levelo://app?vid=d1eaed94-2ffc-4609-a3b8-b0df4a991b21"},"vehicle_type_id":"4","last_reported":1729385415,"current_range_meters":16800,"station_id":"","pricing_plan_id":"cebpf4jnsgd1na2vs0mg"},{"bike_id":"32ff2e1c-64bb-4140-95a4-ec9bf3a327bc","system_id":"levelo_inurba_marseille","lat":43.31506,"lon":5.37316,"is_reserved":false,"is_disabled":false,"rental_uris":{"android":"levelo://app?vid=32ff2e1c-64bb-4140-95a4-ec9bf3a327bc","ios":"levelo://app?vid=32ff2e1c-64bb-4140-95a4-ec9bf3a327bc"},"vehicle_type_id":"4","last_reported":1729385415,"current_range_meters":36400,"station_id":"ce4bgt12rcd13ifvqcd0","pricing_plan_id":"cebpf4jnsgd1na2vs0mg"},{"bike_id":"3a553d37-94eb-4024-abd0-f1450ee14b60","system_id":"levelo_inurba_marseille","lat":43.31532,"lon":5.38028,"is_reserved":false,"is_disabled":false,"rental_uris":{"android":"levelo://app?vid=3a553d37-94eb-4024-abd0-f1450ee14b60","ios":"levelo://app?vid=3a553d37-94eb-4024-abd0-f1450ee14b60"},"vehicle_type_id":"4","last_reported":1729385415,"current_range_meters":20800,"station_id":"ce4bhsp2rcd13ifvqi50","pricing_plan_id":"cebpf4jnsgd1na2vs0mg"},{"bike_id":"0d6f3071-7fa8-4c47-8404-1323c3c58d3f","system_id":"levelo_inurba_marseille","lat":43.29053,"lon":5.35916,"is_reserved":false,"is_disabled":false,"rental_uris":{"android":"levelo://app?vid=0d6f3071-7fa8-4c47-8404-1323c3c58d3f","ios":"levelo://app?vid=0d6f3071-7fa8-4c47-8404-1323c3c58d3f"},"vehicle_type_id":"4","last_reported":1729385415,"current_range_meters":14400,"station_id":"ce4bha92rcd13ifvqeg0","pricing_plan_id":"cebpf4jnsgd1na2vs0mg"},{"bike_id":"a1b1b91b-2111-4609-9821-37de293bd5d8","system_id":"levelo_inurba_marseille","lat":43.29092,"lon":5.381618,"is_reserved":false,"is_disabled":false,"rental_uris":{"android":"levelo://app?vid=a1b1b91b-2111-4609-9821-37de293bd5d8","ios":"levelo://app?vid=a1b1b91b-2111-4609-9821-37de293bd5d8"},"vehicle_type_id":"4","last_reported":1729385415,"current_range_meters":38800,"station_id":"ce4bh512rcd13ifvqe2g","pricing_plan_id":"cebpf4jnsgd1na2vs0mg"},{"bike_id":"00e7f300-5489-4a7b-806b-f9a497338933","system_id":"levelo_inurba_marseille","lat":43.23154,"lon":5.43709,"is_reserved":false,"is_disabled":false,"rental_uris":{"android":"levelo://app?vid=00e7f300-5489-4a7b-806b-f9a497338933","ios":"levelo://app?vid=00e7f300-5489-4a7b-806b-f9a497338933"},"vehicle_type_id":"4","last_reported":1729385415,"current_range_meters":8000,"station_id":"ce4bhmp2rcd13ifvqgog","pricing_plan_id":"cebpf4jnsgd1na2vs0mg"},{"bike_id":"4cc5727d-b9bc-4c19-9396-1b26b139dc2a","system_id":"levelo_inurba_marseille","lat":43.278419,"lon":5.388299,"is_reserved":false,"is_disabled":false,"rental_uris":{"android":"levelo://app?vid=4cc5727d-b9bc-4c19-9396-1b26b139dc2a","ios":"levelo://app?vid=4cc5727d-b9bc-4c19-9396-1b26b139dc2a"},"vehicle_type_id":"4","last_reported":1729385415,"current_range_meters":30800,"station_id":"ce4bh012rcd13ifvqd00","pricing_plan_id":"cebpf4jnsgd1na2vs0mg"},{"bike_id":"6b95e607-5252-40d1-9c48-bec0d67493f0","system_id":"levelo_inurba_marseille","lat":43.2981,"lon":5.40403,"is_reserved":false,"is_disabled":false,"rental_uris":{"android":"levelo://app?vid=6b95e607-5252-40d1-9c48-bec0d67493f0","ios":"levelo://app?vid=6b95e607-5252-40d1-9c48-bec0d67493f0"},"vehicle_type_id":"4","last_reported":1729385415,"current_range_meters":39200,"station_id":"ce4bh112rcd13ifvqd90","pricing_plan_id":"cebpf4jnsgd1na2vs0mg"},{"bike_id":"87c17c36-36dd-4e03-bf69-43b54f6bf481","system_id":"levelo_inurba_marseille","lat":43.29278,"lon":5.40142,"is_reserved":false,"is_disabled":false,"rental_uris":{"android":"levelo://app?vid=87c17c36-36dd-4e03-bf69-43b54f6bf481","ios":"levelo://app?vid=87c17c36-36dd-4e03-bf69-43b54f6bf481"},"vehicle_type_id":"4","last_reported":1729385415,"current_range_meters":13600,"station_id":"ce4bh312rcd13ifvqdk0","pricing_plan_id":"cebpf4jnsgd1na2vs0mg"},{"bike_id":"297429bd-98f1-40c1-bbdf-259b54483857","system_id":"levelo_inurba_marseille","lat":43.29021,"lon":5.37572,"is_reserved":false,"is_disabled":false,"rental_uris":{"android":"levelo://app?vid=297429bd-98f1-40c1-bbdf-259b54483857","ios":"levelo://app?vid=297429bd-98f1-40c1-bbdf-259b54483857"},"vehicle_type_id":"4","last_reported":1729385415,"current_range_meters":38000,"station_id":"ce4bh692rcd13ifvqe90","pricing_plan_id":"cebpf4jnsgd1na2vs0mg"},{"bike_id":"5f181de5-971b-4e62-8fe1-4fbba3f53f7e","system_id":"levelo_inurba_marseille","lat":43.31327,"lon":5.39698,"is_reserved":false,"is_disabled":false,"rental_uris":{"android":"levelo://app?vid=5f181de5-971b-4e62-8fe1-4fbba3f53f7e","ios":"levelo://app?vid=5f181de5-971b-4e62-8fe1-4fbba3f53f7e"},"vehicle_type_id":"4","last_reported":1729385415,"current_range_meters":27200,"station_id":"ce4bgvp2rcd13ifvqcu0","pricing_plan_id":"cebpf4jnsgd1na2vs0mg"},{"bike_id":"d7670e2f-6d79-4baf-984c-c731db01bd6c","system_id":"levelo_inurba_marseille","lat":43.25871,"lon":5.39902,"is_reserved":false,"is_disabled":false,"rental_uris":{"android":"levelo://app?vid=d7670e2f-6d79-4baf-984c-c731db01bd6c","ios":"levelo://app?vid=d7670e2f-6d79-4baf-984c-c731db01bd6c"},"vehicle_type_id":"4","last_reported":1729385415,"current_range_meters":6800,"station_id":"ce4bhl92rcd13ifvqghg","pricing_plan_id":"cebpf4jnsgd1na2vs0mg"},{"bike_id":"88a6c16e-2cb9-4142-9434-e66382622780","system_id":"levelo_inurba_marseille","lat":43.32338,"lon":5.40621,"is_reserved":false,"is_disabled":false,"rental_uris":{"android":"levelo://app?vid=88a6c16e-2cb9-4142-9434-e66382622780","ios":"levelo://app?vid=88a6c16e-2cb9-4142-9434-e66382622780"},"vehicle_type_id":"4","last_reported":1729385415,"current_range_meters":33600,"station_id":"ce4bhq92rcd13ifvqhjg","pricing_plan_id":"cebpf4jnsgd1na2vs0mg"},{"bike_id":"cf273a89-6a8e-481b-ae0b-31b8ee1c3722","system_id":"levelo_inurba_marseille","lat":43.29896,"lon":5.43667,"is_reserved":false,"is_disabled":false,"rental_uris":{"android":"levelo://app?vid=cf273a89-6a8e-481b-ae0b-31b8ee1c3722","ios":"levelo://app?vid=cf273a89-6a8e-481b-ae0b-31b8ee1c3722"},"vehicle_type_id":"4","last_reported":1729385415,"current_range_meters":32000,"station_id":"ce4bhpp2rcd13ifvqhfg","pricing_plan_id":"cebpf4jnsgd1na2vs0mg"},{"bike_id":"458ea35d-002e-408e-9aa8-4958d0742e29","system_id":"levelo_inurba_marseille","lat":43.32363,"lon":5.38886,"is_reserved":false,"is_disabled":false,"rental_uris":{"android":"levelo://app?vid=458ea35d-002e-408e-9aa8-4958d0742e29","ios":"levelo://app?vid=458ea35d-002e-408e-9aa8-4958d0742e29"},"vehicle_type_id":"4","last_reported":1729385415,"current_range_meters":16000,"station_id":"ce4bhqp2rcd13ifvqhog","pricing_plan_id":"cebpf4jnsgd1na2vs0mg"},{"bike_id":"63faa7e1-f0a3-40aa-92bb-a68a3bd909f5","system_id":"levelo_inurba_marseille","lat":43.31121,"lon":5.37779,"is_reserved":false,"is_disabled":false,"rental_uris":{"android":"levelo://app?vid=63faa7e1-f0a3-40aa-92bb-a68a3bd909f5","ios":"levelo://app?vid=63faa7e1-f0a3-40aa-92bb-a68a3bd909f5"},"vehicle_type_id":"4","last_reported":1729385415,"current_range_meters":32000,"station_id":"ce4bgt92rcd13ifvqcg0","pricing_plan_id":"cebpf4jnsgd1na2vs0mg"},{"bike_id":"1c4ce82e-f03f-4873-b4e8-87353cd83dbd","system_id":"levelo_inurba_marseille","lat":43.29896,"lon":5.43671,"is_reserved":false,"is_disabled":false,"rental_uris":{"android":"levelo://app?vid=1c4ce82e-f03f-4873-b4e8-87353cd83dbd","ios":"levelo://app?vid=1c4ce82e-f03f-4873-b4e8-87353cd83dbd"},"vehicle_type_id":"4","last_reported":1729385415,"current_range_meters":38800,"station_id":"ce4bhpp2rcd13ifvqhfg","pricing_plan_id":"cebpf4jnsgd1na2vs0mg"},{"bike_id":"a50da574-03c5-475b-b6c5-e3885a5b2ef0","system_id":"levelo_inurba_marseille","lat":43.28153,"lon":5.42643,"is_reserved":false,"is_disabled":false,"rental_uris":{"android":"levelo://app?vid=a50da574-03c5-475b-b6c5-e3885a5b2ef0","ios":"levelo://app?vid=a50da574-03c5-475b-b6c5-e3885a5b2ef0"},"vehicle_type_id":"4","last_reported":1729385415,"current_range_meters":20000,"station_id":"ce4bhnh2rcd13ifvqgug","pricing_plan_id":"cebpf4jnsgd1na2vs0mg"},{"bike_id":"fac9a3a2-2dd0-4efd-afd6-73cc4f4edd9a","system_id":"levelo_inurba_marseille","lat":43.24809,"lon":5.37459,"is_reserved":false,"is_disabled":false,"rental_uris":{"android":"levelo://app?vid=fac9a3a2-2dd0-4efd-afd6-73cc4f4edd9a","ios":"levelo://app?vid=fac9a3a2-2dd0-4efd-afd6-73cc4f4edd9a"},"vehicle_type_id":"4","last_reported":1729385415,"current_range_meters":38400,"station_id":"ce4bhgh2rcd13ifvqfb0","pricing_plan_id":"cebpf4jnsgd1na2vs0mg"},{"bike_id":"fd2afc5d-cd0d-4191-adc5-69c9bf150c10","system_id":"levelo_inurba_marseille","lat":43.29277,"lon":5.40117,"is_reserved":false,"is_disabled":false,"rental_uris":{"android":"levelo://app?vid=fd2afc5d-cd0d-4191-adc5-69c9bf150c10","ios":"levelo://app?vid=fd2afc5d-cd0d-4191-adc5-69c9bf150c10"},"vehicle_type_id":"4","last_reported":1729385415,"current_range_meters":13600,"station_id":"ce4bh312rcd13ifvqdk0","pricing_plan_id":"cebpf4jnsgd1na2vs0mg"},{"bike_id":"a459c14b-29d1-40c4-80a7-950dfaa34a2b","system_id":"levelo_inurba_marseille","lat":43.298821,"lon":5.389211,"is_reserved":false,"is_disabled":false,"rental_uris":{"android":"levelo://app?vid=a459c14b-29d1-40c4-80a7-950dfaa34a2b","ios":"levelo://app?vid=a459c14b-29d1-40c4-80a7-950dfaa34a2b"},"vehicle_type_id":"4","last_reported":1729385415,"current_range_meters":19600,"station_id":"ce4bh012rcd13ifvqcv0","pricing_plan_id":"cebpf4jnsgd1na2vs0mg"},{"bike_id":"b3f98fe2-11aa-4c01-9421-393386aa4971","system_id":"levelo_inurba_marseille","lat":43.292938,"lon":5.374713,"is_reserved":false,"is_disabled":false,"rental_uris":{"android":"levelo://app?vid=b3f98fe2-11aa-4c01-9421-393386aa4971","ios":"levelo://app?vid=b3f98fe2-11aa-4c01-9421-393386aa4971"},"vehicle_type_id":"4","last_reported":1729385415,"current_range_meters":25200,"station_id":"ce4bh0p2rcd13ifvqd70","pricing_plan_id":"cebpf4jnsgd1na2vs0mg"},{"bike_id":"dd7781fa-faee-4f5a-a4ec-a0d7113eef43","system_id":"levelo_inurba_marseille","lat":43.30645,"lon":5.40073,"is_reserved":false,"is_disabled":false,"rental_uris":{"android":"levelo://app?vid=dd7781fa-faee-4f5a-a4ec-a0d7113eef43","ios":"levelo://app?vid=dd7781fa-faee-4f5a-a4ec-a0d7113eef43"},"vehicle_type_id":"4","last_reported":1729385415,"current_range_meters":14400,"station_id":"ce4bh112rcd13ifvqda0","pricing_plan_id":"cebpf4jnsgd1na2vs0mg"},{"bike_id":"65bdf8a7-581b-4618-bccb-c8132147d71a","system_id":"levelo_inurba_marseille","lat":43.27557,"lon":5.36026,"is_reserved":false,"is_disabled":false,"rental_uris":{"android":"levelo://app?vid=65bdf8a7-581b-4618-bccb-c8132147d71a","ios":"levelo://app?vid=65bdf8a7-581b-4618-bccb-c8132147d71a"},"vehicle_type_id":"4","last_reported":1729385415,"current_range_meters":16000,"station_id":"","pricing_plan_id":"cebpf4jnsgd1na2vs0mg"},{"bike_id":"3b4ba1e5-ac30-42f2-bc8a-d6e4130c1c65","system_id":"levelo_inurba_marseille","lat":43.26195,"lon":5.3745,"is_reserved":false,"is_disabled":false,"rental_uris":{"android":"levelo://app?vid=3b4ba1e5-ac30-42f2-bc8a-d6e4130c1c65","ios":"levelo://app?vid=3b4ba1e5-ac30-42f2-bc8a-d6e4130c1c65"},"vehicle_type_id":"4","last_reported":1729385415,"current_range_meters":38800,"station_id":"ce4bhgp2rcd13ifvqfc0","pricing_plan_id":"cebpf4jnsgd1na2vs0mg"},{"bike_id":"528fef3b-bb8b-42d1-985d-ca1adbc390f0","system_id":"levelo_inurba_marseille","lat":43.24389,"lon":5.37059,"is_reserved":false,"is_disabled":false,"rental_uris":{"android":"levelo://app?vid=528fef3b-bb8b-42d1-985d-ca1adbc390f0","ios":"levelo://app?vid=528fef3b-bb8b-42d1-985d-ca1adbc390f0"},"vehicle_type_id":"4","last_reported":1729385415,"current_range_meters":12800,"station_id":"ce4bhhh2rcd13ifvqfk0","pricing_plan_id":"cebpf4jnsgd1na2vs0mg"},{"bike_id":"9fbaf6d7-d66f-469e-ad7b-e24f4ad62bf2","system_id":"levelo_inurba_marseille","lat":43.31117,"lon":5.37786,"is_reserved":false,"is_disabled":false,"rental_uris":{"android":"levelo://app?vid=9fbaf6d7-d66f-469e-ad7b-e24f4ad62bf2","ios":"levelo://app?vid=9fbaf6d7-d66f-469e-ad7b-e24f4ad62bf2"},"vehicle_type_id":"4","last_reported":1729385415,"current_range_meters":38800,"station_id":"ce4bgt92rcd13ifvqcg0","pricing_plan_id":"cebpf4jnsgd1na2vs0mg"},{"bike_id":"ceb1603d-2c49-4a2f-971f-80e7a3348d6a","system_id":"levelo_inurba_marseille","lat":43.33027,"lon":5.39045,"is_reserved":false,"is_disabled":false,"rental_uris":{"android":"levelo://app?vid=ceb1603d-2c49-4a2f-971f-80e7a3348d6a","ios":"levelo://app?vid=ceb1603d-2c49-4a2f-971f-80e7a3348d6a"},"vehicle_type_id":"4","last_reported":1729385415,"current_range_meters":38800,"station_id":"ce4bhr92rcd13ifvqhrg","pricing_plan_id":"cebpf4jnsgd1na2vs0mg"},{"bike_id":"39091d2a-1e32-4b79-8a97-b035e7040a98","system_id":"levelo_inurba_marseille","lat":43.27974,"lon":5.38735,"is_reserved":false,"is_disabled":false,"rental_uris":{"android":"levelo://app?vid=39091d2a-1e32-4b79-8a97-b035e7040a98","ios":"levelo://app?vid=39091d2a-1e32-4b79-8a97-b035e7040a98"},"vehicle_type_id":"4","last_reported":1729385415,"current_range_meters":36000,"station_id":"ce4bhg12rcd13ifvqf80","pricing_plan_id":"cebpf4jnsgd1na2vs0mg"},{"bike_id":"9844e503-d4bc-48f3-9db5-980e55dc4bec","system_id":"levelo_inurba_marseille","lat":43.28456,"lon":5.35884,"is_reserved":false,"is_disabled":false,"rental_uris":{"android":"levelo://app?vid=9844e503-d4bc-48f3-9db5-980e55dc4bec","ios":"levelo://app?vid=9844e503-d4bc-48f3-9db5-980e55dc4bec"},"vehicle_type_id":"4","last_reported":1729385415,"current_range_meters":30400,"station_id":"ce4bhah2rcd13ifvqei0","pricing_plan_id":"cebpf4jnsgd1na2vs0mg"},{"bike_id":"8f3e897c-091e-428e-92e2-05d32fbfe4e7","system_id":"levelo_inurba_marseille","lat":43.30594,"lon":5.39355,"is_reserved":false,"is_disabled":false,"rental_uris":{"android":"levelo://app?vid=8f3e897c-091e-428e-92e2-05d32fbfe4e7","ios":"levelo://app?vid=8f3e897c-091e-428e-92e2-05d32fbfe4e7"},"vehicle_type_id":"4","last_reported":1729385415,"current_range_meters":38800,"station_id":"ce4bh0p2rcd13ifvqd80","pricing_plan_id":"cebpf4jnsgd1na2vs0mg"},{"bike_id":"d5bf55e4-c772-4d64-a32e-de2ce4f23f4c","system_id":"levelo_inurba_marseille","lat":43.30886,"lon":5.37196,"is_reserved":false,"is_disabled":false,"rental_uris":{"android":"levelo://app?vid=d5bf55e4-c772-4d64-a32e-de2ce4f23f4c","ios":"levelo://app?vid=d5bf55e4-c772-4d64-a32e-de2ce4f23f4c"},"vehicle_type_id":"4","last_reported":1729385415,"current_range_meters":36400,"station_id":"ce4bguh2rcd13ifvqckg","pricing_plan_id":"cebpf4jnsgd1na2vs0mg"},{"bike_id":"4cf3e5d8-4f9a-4007-b965-622ecd99339e","system_id":"levelo_inurba_marseille","lat":43.31074,"lon":5.40085,"is_reserved":false,"is_disabled":false,"rental_uris":{"android":"levelo://app?vid=4cf3e5d8-4f9a-4007-b965-622ecd99339e","ios":"levelo://app?vid=4cf3e5d8-4f9a-4007-b965-622ecd99339e"},"vehicle_type_id":"4","last_reported":1729385415,"current_range_meters":9600,"station_id":"","pricing_plan_id":"cebpf4jnsgd1na2vs0mg"},{"bike_id":"c34e2acb-3afe-4aa1-8cdb-c481d100b683","system_id":"levelo_inurba_marseille","lat":43.32487,"lon":5.36577,"is_reserved":false,"is_disabled":false,"rental_uris":{"android":"levelo://app?vid=c34e2acb-3afe-4aa1-8cdb-c481d100b683","ios":"levelo://app?vid=c34e2acb-3afe-4aa1-8cdb-c481d100b683"},"vehicle_type_id":"4","last_reported":1729385415,"current_range_meters":22800,"station_id":"ce4bhs12rcd13ifvqhvg","pricing_plan_id":"cebpf4jnsgd1na2vs0mg"},{"bike_id":"19e0c7ba-a3f7-43e2-aca8-366f22e4e87d","system_id":"levelo_inurba_marseille","lat":43.33719,"lon":5.39184,"is_reserved":false,"is_disabled":false,"rental_uris":{"android":"levelo://app?vid=19e0c7ba-a3f7-43e2-aca8-366f22e4e87d","ios":"levelo://app?vid=19e0c7ba-a3f7-43e2-aca8-366f22e4e87d"},"vehicle_type_id":"4","last_reported":1729385415,"current_range_meters":38400,"station_id":"ce4bhr92rcd13ifvqhsg","pricing_plan_id":"cebpf4jnsgd1na2vs0mg"},{"bike_id":"dc1671ee-37a9-4563-85ac-9c05583fa151","system_id":"levelo_inurba_marseille","lat":43.30483,"lon":5.37902,"is_reserved":false,"is_disabled":false,"rental_uris":{"android":"levelo://app?vid=dc1671ee-37a9-4563-85ac-9c05583fa151","ios":"levelo://app?vid=dc1671ee-37a9-4563-85ac-9c05583fa151"},"vehicle_type_id":"4","last_reported":1729385415,"current_range_meters":38400,"station_id":"ce4bgup2rcd13ifvqcn0","pricing_plan_id":"cebpf4jnsgd1na2vs0mg"},{"bike_id":"f9928a1b-5e01-4359-8549-3825d8c7f41a","system_id":"levelo_inurba_marseille","lat":43.22922,"lon":5.35378,"is_reserved":false,"is_disabled":false,"rental_uris":{"android":"levelo://app?vid=f9928a1b-5e01-4359-8549-3825d8c7f41a","ios":"levelo://app?vid=f9928a1b-5e01-4359-8549-3825d8c7f41a"},"vehicle_type_id":"4","last_reported":1729385415,"current_range_meters":38800,"station_id":"cpo3532slgdg3j2ikp40","pricing_plan_id":"cebpf4jnsgd1na2vs0mg"},{"bike_id":"a1a7d3ed-365b-4260-b205-0c746b54ce25","system_id":"levelo_inurba_marseille","lat":43.2757,"lon":5.3841,"is_reserved":false,"is_disabled":false,"rental_uris":{"android":"levelo://app?vid=a1a7d3ed-365b-4260-b205-0c746b54ce25","ios":"levelo://app?vid=a1a7d3ed-365b-4260-b205-0c746b54ce25"},"vehicle_type_id":"4","last_reported":1729385415,"current_range_meters":28000,"station_id":"ce4bhh92rcd13ifvqfi0","pricing_plan_id":"cebpf4jnsgd1na2vs0mg"},{"bike_id":"d8ec393f-4484-4f65-969b-8ae2145a9b2b","system_id":"levelo_inurba_marseille","lat":43.31897,"lon":5.40733,"is_reserved":false,"is_disabled":false,"rental_uris":{"android":"levelo://app?vid=d8ec393f-4484-4f65-969b-8ae2145a9b2b","ios":"levelo://app?vid=d8ec393f-4484-4f65-969b-8ae2145a9b2b"},"vehicle_type_id":"4","last_reported":1729385415,"current_range_meters":25600,"station_id":"ce4bhq12rcd13ifvqhig","pricing_plan_id":"cebpf4jnsgd1na2vs0mg"},{"bike_id":"b3da6c3a-2a10-4172-a1ac-14d12204275b","system_id":"levelo_inurba_marseille","lat":43.275,"lon":5.42459,"is_reserved":false,"is_disabled":false,"rental_uris":{"android":"levelo://app?vid=b3da6c3a-2a10-4172-a1ac-14d12204275b","ios":"levelo://app?vid=b3da6c3a-2a10-4172-a1ac-14d12204275b"},"vehicle_type_id":"4","last_reported":1729385415,"current_range_meters":32400,"station_id":"ce4bhn92rcd13ifvqgrg","pricing_plan_id":"cebpf4jnsgd1na2vs0mg"},{"bike_id":"da57fedc-7e7e-49e9-b674-21ebe804bbf1","system_id":"levelo_inurba_marseille","lat":43.31117,"lon":5.37773,"is_reserved":false,"is_disabled":false,"rental_uris":{"android":"levelo://app?vid=da57fedc-7e7e-49e9-b674-21ebe804bbf1","ios":"levelo://app?vid=da57fedc-7e7e-49e9-b674-21ebe804bbf1"},"vehicle_type_id":"4","last_reported":1729385415,"current_range_meters":32800,"station_id":"ce4bgt92rcd13ifvqcg0","pricing_plan_id":"cebpf4jnsgd1na2vs0mg"},{"bike_id":"a7b7a404-4daf-4700-b81b-e63a35f02840","system_id":"levelo_inurba_marseille","lat":43.24389,"lon":5.37065,"is_reserved":false,"is_disabled":false,"rental_uris":{"android":"levelo://app?vid=a7b7a404-4daf-4700-b81b-e63a35f02840","ios":"levelo://app?vid=a7b7a404-4daf-4700-b81b-e63a35f02840"},"vehicle_type_id":"4","last_reported":1729385415,"current_range_meters":37600,"station_id":"ce4bhhh2rcd13ifvqfk0","pricing_plan_id":"cebpf4jnsgd1na2vs0mg"},{"bike_id":"721de7b0-fa5f-415e-9794-62464485acc5","system_id":"levelo_inurba_marseille","lat":43.2795,"lon":5.41051,"is_reserved":false,"is_disabled":false,"rental_uris":{"android":"levelo://app?vid=721de7b0-fa5f-415e-9794-62464485acc5","ios":"levelo://app?vid=721de7b0-fa5f-415e-9794-62464485acc5"},"vehicle_type_id":"4","last_reported":1729385415,"current_range_meters":37600,"station_id":"ce4bhnp2rcd13ifvqh0g","pricing_plan_id":"cebpf4jnsgd1na2vs0mg"},{"bike_id":"ee026ab5-3618-48cd-990a-86fb331daa48","system_id":"levelo_inurba_marseille","lat":43.2873,"lon":5.36078,"is_reserved":false,"is_disabled":false,"rental_uris":{"android":"levelo://app?vid=ee026ab5-3618-48cd-990a-86fb331daa48","ios":"levelo://app?vid=ee026ab5-3618-48cd-990a-86fb331daa48"},"vehicle_type_id":"4","last_reported":1729385415,"current_range_meters":36800,"station_id":"cki0cbj6b192h4jlfktg","pricing_plan_id":"cebpf4jnsgd1na2vs0mg"},{"bike_id":"a0b4c194-1974-4888-85e2-7cfc7aeed116","system_id":"levelo_inurba_marseille","lat":43.31711,"lon":5.43704,"is_reserved":false,"is_disabled":false,"rental_uris":{"android":"levelo://app?vid=a0b4c194-1974-4888-85e2-7cfc7aeed116","ios":"levelo://app?vid=a0b4c194-1974-4888-85e2-7cfc7aeed116"},"vehicle_type_id":"4","last_reported":1729385415,"current_range_meters":38800,"station_id":"ce4bhp92rcd13ifvqhcg","pricing_plan_id":"cebpf4jnsgd1na2vs0mg"},{"bike_id":"84683f0d-cf9c-47e1-a697-233126fe0789","system_id":"levelo_inurba_marseille","lat":43.24661,"lon":5.38172,"is_reserved":false,"is_disabled":false,"rental_uris":{"android":"levelo://app?vid=84683f0d-cf9c-47e1-a697-233126fe0789","ios":"levelo://app?vid=84683f0d-cf9c-47e1-a697-233126fe0789"},"vehicle_type_id":"4","last_reported":1729385415,"current_range_meters":38800,"station_id":"ce4bhih2rcd13ifvqfr0","pricing_plan_id":"cebpf4jnsgd1na2vs0mg"},{"bike_id":"7e9d02a5-c6a9-4358-bf17-12bcec4e63e0","system_id":"levelo_inurba_marseille","lat":43.29553,"lon":5.42281,"is_reserved":false,"is_disabled":false,"rental_uris":{"android":"levelo://app?vid=7e9d02a5-c6a9-4358-bf17-12bcec4e63e0","ios":"levelo://app?vid=7e9d02a5-c6a9-4358-bf17-12bcec4e63e0"},"vehicle_type_id":"4","last_reported":1729385415,"current_range_meters":36400,"station_id":"ce4bhph2rcd13ifvqhdg","pricing_plan_id":"cebpf4jnsgd1na2vs0mg"},{"bike_id":"1295ea7d-f71f-4fef-89cf-b3573f4f4730","system_id":"levelo_inurba_marseille","lat":43.27952,"lon":5.41045,"is_reserved":false,"is_disabled":false,"rental_uris":{"android":"levelo://app?vid=1295ea7d-f71f-4fef-89cf-b3573f4f4730","ios":"levelo://app?vid=1295ea7d-f71f-4fef-89cf-b3573f4f4730"},"vehicle_type_id":"4","last_reported":1729385415,"current_range_meters":10000,"station_id":"ce4bhnp2rcd13ifvqh0g","pricing_plan_id":"cebpf4jnsgd1na2vs0mg"},{"bike_id":"78d24d41-71e6-4e87-9147-735fa7bb813d","system_id":"levelo_inurba_marseille","lat":43.30886,"lon":5.37201,"is_reserved":false,"is_disabled":false,"rental_uris":{"android":"levelo://app?vid=78d24d41-71e6-4e87-9147-735fa7bb813d","ios":"levelo://app?vid=78d24d41-71e6-4e87-9147-735fa7bb813d"},"vehicle_type_id":"4","last_reported":1729385415,"current_range_meters":30000,"station_id":"ce4bguh2rcd13ifvqckg","pricing_plan_id":"cebpf4jnsgd1na2vs0mg"},{"bike_id":"4c3e28bf-213c-4946-b921-ef977474a094","system_id":"levelo_inurba_marseille","lat":43.30301,"lon":5.39219,"is_reserved":false,"is_disabled":false,"rental_uris":{"android":"levelo://app?vid=4c3e28bf-213c-4946-b921-ef977474a094","ios":"levelo://app?vid=4c3e28bf-213c-4946-b921-ef977474a094"},"vehicle_type_id":"4","last_reported":1729385415,"current_range_meters":38400,"station_id":"ce4bgkh2rcd13ifvqbk0","pricing_plan_id":"cebpf4jnsgd1na2vs0mg"},{"bike_id":"3049b589-f7d6-4889-a21b-17618fe6b55b","system_id":"levelo_inurba_marseille","lat":43.27812,"lon":5.40709,"is_reserved":false,"is_disabled":false,"rental_uris":{"android":"levelo://app?vid=3049b589-f7d6-4889-a21b-17618fe6b55b","ios":"levelo://app?vid=3049b589-f7d6-4889-a21b-17618fe6b55b"},"vehicle_type_id":"4","last_reported":1729385415,"current_range_meters":4000,"station_id":"ce4bhnh2rcd13ifvqgtg","pricing_plan_id":"cebpf4jnsgd1na2vs0mg"},{"bike_id":"fbdac3bf-82a9-48aa-9126-a52507838ce3","system_id":"levelo_inurba_marseille","lat":43.2965,"lon":5.3737,"is_reserved":false,"is_disabled":false,"rental_uris":{"android":"levelo://app?vid=fbdac3bf-82a9-48aa-9126-a52507838ce3","ios":"levelo://app?vid=fbdac3bf-82a9-48aa-9126-a52507838ce3"},"vehicle_type_id":"4","last_reported":1729385415,"current_range_meters":3600,"station_id":"","pricing_plan_id":"cebpf4jnsgd1na2vs0mg"},{"bike_id":"251c2ece-8912-4dfb-9847-d8f9ff013dd6","system_id":"levelo_inurba_marseille","lat":43.24667,"lon":5.38172,"is_reserved":false,"is_disabled":false,"rental_uris":{"android":"levelo://app?vid=251c2ece-8912-4dfb-9847-d8f9ff013dd6","ios":"levelo://app?vid=251c2ece-8912-4dfb-9847-d8f9ff013dd6"},"vehicle_type_id":"4","last_reported":1729385415,"current_range_meters":24400,"station_id":"ce4bhih2rcd13ifvqfr0","pricing_plan_id":"cebpf4jnsgd1na2vs0mg"},{"bike_id":"b22f64ce-5aa5-42af-a34d-2263d2943d6f","system_id":"levelo_inurba_marseille","lat":43.3026,"lon":5.4008,"is_reserved":false,"is_disabled":false,"rental_uris":{"android":"levelo://app?vid=b22f64ce-5aa5-42af-a34d-2263d2943d6f","ios":"levelo://app?vid=b22f64ce-5aa5-42af-a34d-2263d2943d6f"},"vehicle_type_id":"4","last_reported":1729385415,"current_range_meters":30800,"station_id":"ce4bgvh2rcd13ifvqcs0","pricing_plan_id":"cebpf4jnsgd1na2vs0mg"},{"bike_id":"831694b9-27d1-4291-a73b-97f20f1db91f","system_id":"levelo_inurba_marseille","lat":43.25084,"lon":5.39529,"is_reserved":false,"is_disabled":false,"rental_uris":{"android":"levelo://app?vid=831694b9-27d1-4291-a73b-97f20f1db91f","ios":"levelo://app?vid=831694b9-27d1-4291-a73b-97f20f1db91f"},"vehicle_type_id":"4","last_reported":1729385415,"current_range_meters":38800,"station_id":"ce4bhm12rcd13ifvqgkg","pricing_plan_id":"cebpf4jnsgd1na2vs0mg"},{"bike_id":"0c4829f6-ddc4-4463-b763-9fb4711c5979","system_id":"levelo_inurba_marseille","lat":43.28577,"lon":5.39501,"is_reserved":false,"is_disabled":false,"rental_uris":{"android":"levelo://app?vid=0c4829f6-ddc4-4463-b763-9fb4711c5979","ios":"levelo://app?vid=0c4829f6-ddc4-4463-b763-9fb4711c5979"},"vehicle_type_id":"4","last_reported":1729385415,"current_range_meters":38800,"station_id":"ce4bh292rcd13ifvqdg0","pricing_plan_id":"cebpf4jnsgd1na2vs0mg"},{"bike_id":"48cfdb9c-e73d-4b76-a21b-179a33e07bed","system_id":"levelo_inurba_marseille","lat":43.27937,"lon":5.4104,"is_reserved":false,"is_disabled":false,"rental_uris":{"android":"levelo://app?vid=48cfdb9c-e73d-4b76-a21b-179a33e07bed","ios":"levelo://app?vid=48cfdb9c-e73d-4b76-a21b-179a33e07bed"},"vehicle_type_id":"4","last_reported":1729385415,"current_range_meters":34000,"station_id":"ce4bhnp2rcd13ifvqh0g","pricing_plan_id":"cebpf4jnsgd1na2vs0mg"},{"bike_id":"96c0370a-2117-4376-938b-85413456106b","system_id":"levelo_inurba_marseille","lat":43.31705,"lon":5.3777,"is_reserved":false,"is_disabled":false,"rental_uris":{"android":"levelo://app?vid=96c0370a-2117-4376-938b-85413456106b","ios":"levelo://app?vid=96c0370a-2117-4376-938b-85413456106b"},"vehicle_type_id":"4","last_reported":1729385415,"current_range_meters":30000,"station_id":"ce4bgth2rcd13ifvqch0","pricing_plan_id":"cebpf4jnsgd1na2vs0mg"},{"bike_id":"d66bd0ae-b590-4029-ae7d-0fa65a35f925","system_id":"levelo_inurba_marseille","lat":43.33606,"lon":5.41018,"is_reserved":false,"is_disabled":false,"rental_uris":{"android":"levelo://app?vid=d66bd0ae-b590-4029-ae7d-0fa65a35f925","ios":"levelo://app?vid=d66bd0ae-b590-4029-ae7d-0fa65a35f925"},"vehicle_type_id":"4","last_reported":1729385415,"current_range_meters":20000,"station_id":"ce4bhqh2rcd13ifvqhmg","pricing_plan_id":"cebpf4jnsgd1na2vs0mg"},{"bike_id":"872090ed-b88c-40de-97cb-0a8e4a87ae59","system_id":"levelo_inurba_marseille","lat":43.30547,"lon":5.38438,"is_reserved":false,"is_disabled":false,"rental_uris":{"android":"levelo://app?vid=872090ed-b88c-40de-97cb-0a8e4a87ae59","ios":"levelo://app?vid=872090ed-b88c-40de-97cb-0a8e4a87ae59"},"vehicle_type_id":"4","last_reported":1729385415,"current_range_meters":38800,"station_id":"ce4bgg92rcd13ifvqb30","pricing_plan_id":"cebpf4jnsgd1na2vs0mg"},{"bike_id":"0070ae3c-019c-45a4-b7c4-cac83bbfa099","system_id":"levelo_inurba_marseille","lat":43.28461,"lon":5.35882,"is_reserved":false,"is_disabled":false,"rental_uris":{"android":"levelo://app?vid=0070ae3c-019c-45a4-b7c4-cac83bbfa099","ios":"levelo://app?vid=0070ae3c-019c-45a4-b7c4-cac83bbfa099"},"vehicle_type_id":"4","last_reported":1729385415,"current_range_meters":12800,"station_id":"ce4bhah2rcd13ifvqei0","pricing_plan_id":"cebpf4jnsgd1na2vs0mg"},{"bike_id":"02b99d41-0727-45dd-8b05-f76d6d331f44","system_id":"levelo_inurba_marseille","lat":43.28105,"lon":5.37845,"is_reserved":false,"is_disabled":false,"rental_uris":{"android":"levelo://app?vid=02b99d41-0727-45dd-8b05-f76d6d331f44","ios":"levelo://app?vid=02b99d41-0727-45dd-8b05-f76d6d331f44"},"vehicle_type_id":"4","last_reported":1729385415,"current_range_meters":11200,"station_id":"ce4bha12rcd13ifvqee0","pricing_plan_id":"cebpf4jnsgd1na2vs0mg"},{"bike_id":"cfdbc031-1d29-43df-9f69-452b0c9f4985","system_id":"levelo_inurba_marseille","lat":43.31271,"lon":5.40175,"is_reserved":false,"is_disabled":false,"rental_uris":{"android":"levelo://app?vid=cfdbc031-1d29-43df-9f69-452b0c9f4985","ios":"levelo://app?vid=cfdbc031-1d29-43df-9f69-452b0c9f4985"},"vehicle_type_id":"4","last_reported":1729385415,"current_range_meters":10800,"station_id":"ce4bh092rcd13ifvqd30","pricing_plan_id":"cebpf4jnsgd1na2vs0mg"},{"bike_id":"f3b18d4c-688e-4e02-9104-7f1d559134af","system_id":"levelo_inurba_marseille","lat":43.32094,"lon":5.3678,"is_reserved":false,"is_disabled":false,"rental_uris":{"android":"levelo://app?vid=f3b18d4c-688e-4e02-9104-7f1d559134af","ios":"levelo://app?vid=f3b18d4c-688e-4e02-9104-7f1d559134af"},"vehicle_type_id":"4","last_reported":1729385415,"current_range_meters":38800,"station_id":"ce4bhrh2rcd13ifvqhug","pricing_plan_id":"cebpf4jnsgd1na2vs0mg"},{"bike_id":"044e7643-e166-4e08-bae3-a8ed673622ad","system_id":"levelo_inurba_marseille","lat":43.270703,"lon":5.422782,"is_reserved":false,"is_disabled":false,"rental_uris":{"android":"levelo://app?vid=044e7643-e166-4e08-bae3-a8ed673622ad","ios":"levelo://app?vid=044e7643-e166-4e08-bae3-a8ed673622ad"},"vehicle_type_id":"4","last_reported":1729385415,"current_range_meters":38400,"station_id":"ce4bhk92rcd13ifvqgb0","pricing_plan_id":"cebpf4jnsgd1na2vs0mg"},{"bike_id":"fc9b3fc1-600b-416a-b916-9cf37562dae6","system_id":"levelo_inurba_marseille","lat":43.31325,"lon":5.39699,"is_reserved":false,"is_disabled":false,"rental_uris":{"android":"levelo://app?vid=fc9b3fc1-600b-416a-b916-9cf37562dae6","ios":"levelo://app?vid=fc9b3fc1-600b-416a-b916-9cf37562dae6"},"vehicle_type_id":"4","last_reported":1729385415,"current_range_meters":37600,"station_id":"ce4bgvp2rcd13ifvqcu0","pricing_plan_id":"cebpf4jnsgd1na2vs0mg"},{"bike_id":"8a61b0d3-96ba-49fc-af75-dd8176297036","system_id":"levelo_inurba_marseille","lat":43.23955,"lon":5.36634,"is_reserved":false,"is_disabled":false,"rental_uris":{"android":"levelo://app?vid=8a61b0d3-96ba-49fc-af75-dd8176297036","ios":"levelo://app?vid=8a61b0d3-96ba-49fc-af75-dd8176297036"},"vehicle_type_id":"4","last_reported":1729385415,"current_range_meters":11600,"station_id":"ce4bhi12rcd13ifvqfp0","pricing_plan_id":"cebpf4jnsgd1na2vs0mg"},{"bike_id":"43a74c10-126e-43b7-bf16-08823aeada9d","system_id":"levelo_inurba_marseille","lat":43.31328,"lon":5.39696,"is_reserved":false,"is_disabled":false,"rental_uris":{"android":"levelo://app?vid=43a74c10-126e-43b7-bf16-08823aeada9d","ios":"levelo://app?vid=43a74c10-126e-43b7-bf16-08823aeada9d"},"vehicle_type_id":"4","last_reported":1729385415,"current_range_meters":11600,"station_id":"ce4bgvp2rcd13ifvqcu0","pricing_plan_id":"cebpf4jnsgd1na2vs0mg"},{"bike_id":"e357430e-eaa5-45e0-8900-0e311e9ca630","system_id":"levelo_inurba_marseille","lat":43.31374,"lon":5.38501,"is_reserved":false,"is_disabled":false,"rental_uris":{"android":"levelo://app?vid=e357430e-eaa5-45e0-8900-0e311e9ca630","ios":"levelo://app?vid=e357430e-eaa5-45e0-8900-0e311e9ca630"},"vehicle_type_id":"4","last_reported":1729385415,"current_range_meters":28800,"station_id":"ce4bgt92rcd13ifvqcf0","pricing_plan_id":"cebpf4jnsgd1na2vs0mg"},{"bike_id":"f5b23b9e-9fc1-4540-8918-a3079fbfde07","system_id":"levelo_inurba_marseille","lat":43.31708,"lon":5.377642,"is_reserved":false,"is_disabled":false,"rental_uris":{"android":"levelo://app?vid=f5b23b9e-9fc1-4540-8918-a3079fbfde07","ios":"levelo://app?vid=f5b23b9e-9fc1-4540-8918-a3079fbfde07"},"vehicle_type_id":"4","last_reported":1729385415,"current_range_meters":38800,"station_id":"ce4bgth2rcd13ifvqch0","pricing_plan_id":"cebpf4jnsgd1na2vs0mg"},{"bike_id":"9c497ad2-efe2-43fd-bf15-52d799773880","system_id":"levelo_inurba_marseille","lat":43.292684,"lon":5.384309,"is_reserved":false,"is_disabled":false,"rental_uris":{"android":"levelo://app?vid=9c497ad2-efe2-43fd-bf15-52d799773880","ios":"levelo://app?vid=9c497ad2-efe2-43fd-bf15-52d799773880"},"vehicle_type_id":"4","last_reported":1729385415,"current_range_meters":27200,"station_id":"","pricing_plan_id":"cebpf4jnsgd1na2vs0mg"},{"bike_id":"85d3ade6-3665-431a-a885-89ce0aed83ce","system_id":"levelo_inurba_marseille","lat":43.33602,"lon":5.41026,"is_reserved":false,"is_disabled":false,"rental_uris":{"android":"levelo://app?vid=85d3ade6-3665-431a-a885-89ce0aed83ce","ios":"levelo://app?vid=85d3ade6-3665-431a-a885-89ce0aed83ce"},"vehicle_type_id":"4","last_reported":1729385415,"current_range_meters":19600,"station_id":"ce4bhqh2rcd13ifvqhmg","pricing_plan_id":"cebpf4jnsgd1na2vs0mg"},{"bike_id":"bd5f2645-e134-4e6d-ab8b-4ff7eeac7eca","system_id":"levelo_inurba_marseille","lat":43.28447,"lon":5.35895,"is_reserved":false,"is_disabled":false,"rental_uris":{"android":"levelo://app?vid=bd5f2645-e134-4e6d-ab8b-4ff7eeac7eca","ios":"levelo://app?vid=bd5f2645-e134-4e6d-ab8b-4ff7eeac7eca"},"vehicle_type_id":"4","last_reported":1729385415,"current_range_meters":3600,"station_id":"ce4bhah2rcd13ifvqei0","pricing_plan_id":"cebpf4jnsgd1na2vs0mg"},{"bike_id":"afd39bc6-368f-4daf-ac5d-67663829f686","system_id":"levelo_inurba_marseille","lat":43.29893,"lon":5.4367,"is_reserved":false,"is_disabled":false,"rental_uris":{"android":"levelo://app?vid=afd39bc6-368f-4daf-ac5d-67663829f686","ios":"levelo://app?vid=afd39bc6-368f-4daf-ac5d-67663829f686"},"vehicle_type_id":"4","last_reported":1729385415,"current_range_meters":37600,"station_id":"ce4bhpp2rcd13ifvqhfg","pricing_plan_id":"cebpf4jnsgd1na2vs0mg"},{"bike_id":"82361134-3c2b-4158-bc46-39bf59bb2c55","system_id":"levelo_inurba_marseille","lat":43.28105,"lon":5.37842,"is_reserved":false,"is_disabled":false,"rental_uris":{"android":"levelo://app?vid=82361134-3c2b-4158-bc46-39bf59bb2c55","ios":"levelo://app?vid=82361134-3c2b-4158-bc46-39bf59bb2c55"},"vehicle_type_id":"4","last_reported":1729385415,"current_range_meters":34000,"station_id":"ce4bha12rcd13ifvqee0","pricing_plan_id":"cebpf4jnsgd1na2vs0mg"},{"bike_id":"a1ab3cf9-0115-47bf-b9a0-6a9bedeae6e6","system_id":"levelo_inurba_marseille","lat":43.29012,"lon":5.35618,"is_reserved":false,"is_disabled":false,"rental_uris":{"android":"levelo://app?vid=a1ab3cf9-0115-47bf-b9a0-6a9bedeae6e6","ios":"levelo://app?vid=a1ab3cf9-0115-47bf-b9a0-6a9bedeae6e6"},"vehicle_type_id":"4","last_reported":1729385415,"current_range_meters":38800,"station_id":"ce4bhb92rcd13ifvqen0","pricing_plan_id":"cebpf4jnsgd1na2vs0mg"},{"bike_id":"e24da76d-1239-4a66-b114-60823fe40503","system_id":"levelo_inurba_marseille","lat":43.32483,"lon":5.36568,"is_reserved":false,"is_disabled":false,"rental_uris":{"android":"levelo://app?vid=e24da76d-1239-4a66-b114-60823fe40503","ios":"levelo://app?vid=e24da76d-1239-4a66-b114-60823fe40503"},"vehicle_type_id":"4","last_reported":1729385415,"current_range_meters":38800,"station_id":"ce4bhs12rcd13ifvqhvg","pricing_plan_id":"cebpf4jnsgd1na2vs0mg"},{"bike_id":"f9b3de78-0a7a-448f-900c-725df95752d1","system_id":"levelo_inurba_marseille","lat":43.27371,"lon":5.36268,"is_reserved":false,"is_disabled":false,"rental_uris":{"android":"levelo://app?vid=f9b3de78-0a7a-448f-900c-725df95752d1","ios":"levelo://app?vid=f9b3de78-0a7a-448f-900c-725df95752d1"},"vehicle_type_id":"4","last_reported":1729385415,"current_range_meters":38800,"station_id":"ce4bhbh2rcd13ifvqeo0","pricing_plan_id":"cebpf4jnsgd1na2vs0mg"},{"bike_id":"0b192f51-7551-4a7a-8349-7eb03dc37a20","system_id":"levelo_inurba_marseille","lat":43.26556,"lon":5.3729,"is_reserved":false,"is_disabled":false,"rental_uris":{"android":"levelo://app?vid=0b192f51-7551-4a7a-8349-7eb03dc37a20","ios":"levelo://app?vid=0b192f51-7551-4a7a-8349-7eb03dc37a20"},"vehicle_type_id":"4","last_reported":1729385415,"current_range_meters":38800,"station_id":"ce4bhg12rcd13ifvqf70","pricing_plan_id":"cebpf4jnsgd1na2vs0mg"},{"bike_id":"4f357a8f-803f-4ef1-b82a-19fa9f305e74","system_id":"levelo_inurba_marseille","lat":43.23193,"lon":5.35554,"is_reserved":false,"is_disabled":false,"rental_uris":{"android":"levelo://app?vid=4f357a8f-803f-4ef1-b82a-19fa9f305e74","ios":"levelo://app?vid=4f357a8f-803f-4ef1-b82a-19fa9f305e74"},"vehicle_type_id":"4","last_reported":1729385415,"current_range_meters":38800,"station_id":"ce4bhu92rcd13ifvqi70","pricing_plan_id":"cebpf4jnsgd1na2vs0mg"},{"bike_id":"00403e0e-a4d1-45d1-9881-2a89be04bc3f","system_id":"levelo_inurba_marseille","lat":43.2928,"lon":5.40152,"is_reserved":false,"is_disabled":false,"rental_uris":{"android":"levelo://app?vid=00403e0e-a4d1-45d1-9881-2a89be04bc3f","ios":"levelo://app?vid=00403e0e-a4d1-45d1-9881-2a89be04bc3f"},"vehicle_type_id":"4","last_reported":1729385415,"current_range_meters":24400,"station_id":"ce4bh312rcd13ifvqdk0","pricing_plan_id":"cebpf4jnsgd1na2vs0mg"},{"bike_id":"5394e624-c4df-478f-8acb-d0dfad33bd36","system_id":"levelo_inurba_marseille","lat":43.290009,"lon":5.356181,"is_reserved":false,"is_disabled":false,"rental_uris":{"android":"levelo://app?vid=5394e624-c4df-478f-8acb-d0dfad33bd36","ios":"levelo://app?vid=5394e624-c4df-478f-8acb-d0dfad33bd36"},"vehicle_type_id":"4","last_reported":1729385415,"current_range_meters":22000,"station_id":"","pricing_plan_id":"cebpf4jnsgd1na2vs0mg"},{"bike_id":"bdaf4cca-3144-4b46-87aa-d2e662c78d1a","system_id":"levelo_inurba_marseille","lat":43.30889,"lon":5.39638,"is_reserved":false,"is_disabled":false,"rental_uris":{"android":"levelo://app?vid=bdaf4cca-3144-4b46-87aa-d2e662c78d1a","ios":"levelo://app?vid=bdaf4cca-3144-4b46-87aa-d2e662c78d1a"},"vehicle_type_id":"4","last_reported":1729385415,"current_range_meters":38800,"station_id":"ce4bh012rcd13ifvqcv0","pricing_plan_id":"cebpf4jnsgd1na2vs0mg"},{"bike_id":"21ae7915-82aa-4065-94ce-21441fecf809","system_id":"levelo_inurba_marseille","lat":43.31119,"lon":5.3778,"is_reserved":false,"is_disabled":false,"rental_uris":{"android":"levelo://app?vid=21ae7915-82aa-4065-94ce-21441fecf809","ios":"levelo://app?vid=21ae7915-82aa-4065-94ce-21441fecf809"},"vehicle_type_id":"4","last_reported":1729385415,"current_range_meters":30000,"station_id":"ce4bgt92rcd13ifvqcg0","pricing_plan_id":"cebpf4jnsgd1na2vs0mg"},{"bike_id":"e78e5b07-8aad-4233-8caa-3a2852780ccb","system_id":"levelo_inurba_marseille","lat":43.23952,"lon":5.36646,"is_reserved":false,"is_disabled":false,"rental_uris":{"android":"levelo://app?vid=e78e5b07-8aad-4233-8caa-3a2852780ccb","ios":"levelo://app?vid=e78e5b07-8aad-4233-8caa-3a2852780ccb"},"vehicle_type_id":"4","last_reported":1729385415,"current_range_meters":15200,"station_id":"ce4bhi12rcd13ifvqfp0","pricing_plan_id":"cebpf4jnsgd1na2vs0mg"},{"bike_id":"91f81752-8770-4b0a-9e40-955fd247e0d8","system_id":"levelo_inurba_marseille","lat":43.2586,"lon":5.39906,"is_reserved":false,"is_disabled":false,"rental_uris":{"android":"levelo://app?vid=91f81752-8770-4b0a-9e40-955fd247e0d8","ios":"levelo://app?vid=91f81752-8770-4b0a-9e40-955fd247e0d8"},"vehicle_type_id":"4","last_reported":1729385415,"current_range_meters":38800,"station_id":"ce4bhl92rcd13ifvqghg","pricing_plan_id":"cebpf4jnsgd1na2vs0mg"},{"bike_id":"35ad3b2b-aed2-40ac-9d12-ceed8d94ee92","system_id":"levelo_inurba_marseille","lat":43.290369,"lon":5.359164,"is_reserved":false,"is_disabled":false,"rental_uris":{"android":"levelo://app?vid=35ad3b2b-aed2-40ac-9d12-ceed8d94ee92","ios":"levelo://app?vid=35ad3b2b-aed2-40ac-9d12-ceed8d94ee92"},"vehicle_type_id":"4","last_reported":1729385415,"current_range_meters":4000,"station_id":"","pricing_plan_id":"cebpf4jnsgd1na2vs0mg"},{"bike_id":"73271028-318f-4d67-92c5-035fbb7f6859","system_id":"levelo_inurba_marseille","lat":43.24648,"lon":5.38897,"is_reserved":false,"is_disabled":false,"rental_uris":{"android":"levelo://app?vid=73271028-318f-4d67-92c5-035fbb7f6859","ios":"levelo://app?vid=73271028-318f-4d67-92c5-035fbb7f6859"},"vehicle_type_id":"4","last_reported":1729385415,"current_range_meters":37600,"station_id":"ce4bhg12rcd13ifvqf60","pricing_plan_id":"cebpf4jnsgd1na2vs0mg"},{"bike_id":"12a13e60-fa80-4ea5-9e90-b03269c2d76b","system_id":"levelo_inurba_marseille","lat":43.2795,"lon":5.4105,"is_reserved":false,"is_disabled":false,"rental_uris":{"android":"levelo://app?vid=12a13e60-fa80-4ea5-9e90-b03269c2d76b","ios":"levelo://app?vid=12a13e60-fa80-4ea5-9e90-b03269c2d76b"},"vehicle_type_id":"4","last_reported":1729385415,"current_range_meters":36800,"station_id":"ce4bhnp2rcd13ifvqh0g","pricing_plan_id":"cebpf4jnsgd1na2vs0mg"},{"bike_id":"9362a3c1-a524-424a-8405-9c9a41216ff5","system_id":"levelo_inurba_marseille","lat":43.28276,"lon":5.3507,"is_reserved":false,"is_disabled":false,"rental_uris":{"android":"levelo://app?vid=9362a3c1-a524-424a-8405-9c9a41216ff5","ios":"levelo://app?vid=9362a3c1-a524-424a-8405-9c9a41216ff5"},"vehicle_type_id":"4","last_reported":1729385415,"current_range_meters":38000,"station_id":"ce4bhbp2rcd13ifvqerg","pricing_plan_id":"cebpf4jnsgd1na2vs0mg"},