{"last_updated":1745079047,"ttl":60,"version":"2.2","data":{"bikes":[{"bike_id":"a61b5dea-076e-41cd-9cb3-cb50d3c78968","system_id":"levelo_inurba_marseille","lat":43.30104,"lon":5.39093,"is_reserved":false,"is_disabled":false,"rental_uris":{"android":"levelo://app?vid=a61b5dea-076e-41cd-9cb3-cb50d3c78968","ios":"levelo://app?vid=a61b5dea-076e-41cd-9cb3-cb50d3c78968"},"vehicle_type_id":"4","last_reported":1745079047,"current_range_meters":2800,"station_id":"ce4bh192rcd13ifvqdb0","pricing_plan_id":"cebpf4jnsgd1na2vs0mg"},{"bike_id":"14d3e0af-d6f4-4be9-8e7e-a57a187e6b6d","system_id":"levelo_inurba_marseille","lat":43.30923,"lon":5.40155,"is_reserved":false,"is_disabled":false,"rental_uris":{"android":"levelo://app?vid=14d3e0af-d6f4-4be9-8e7e-a57a187e6b6d","ios":"levelo://app?vid=14d3e0af-d6f4-4be9-8e7e-a57a187e6b6d"},"vehicle_type_id":"4","last_reported":1745079047,"current_range_meters":2800,"station_id":"ce4bgvp2rcd13ifvqct0","pricing_plan_id":"cebpf4jnsgd1na2vs0mg"},{"bike_id":"a168c2a9-54c3-4460-aaab-4dd8dcd0dd15","system_id":"levelo_inurba_marseille","lat":43.27908,"lon":5.38085,"is_reserved":false,"is_disabled":false,"rental_uris":{"android":"levelo://app?vid=a168c2a9-54c3-4460-aaab-4dd8dcd0dd15","ios":"levelo://app?vid=a168c2a9-54c3-4460-aaab-4dd8dcd0dd15"},"vehicle_type_id":"4","last_reported":1745079047,"current_range_meters":2800,"station_id":"ce4bhf92rcd13ifvqf50","pricing_plan_id":"cebpf4jnsgd1na2vs0mg"},{"bike_id":"354259a4-433c-44ee-9f74-f212e4f5e264","system_id":"levelo_inurba_marseille","lat":43.29623,"lon":5.37152,"is_reserved":false,"is_disabled":false,"rental_uris":{"android":"levelo://app?vid=354259a4-433c-44ee-9f74-f212e4f5e264","ios":"levelo://app?vid=354259a4-433c-44ee-9f74-f212e4f5e264"},"vehicle_type_id":"4","last_reported":1745079047,"current_range_meters":2800,"station_id":"ce4bgnh2rcd13ifvqc0g","pricing_plan_id":"cebpf4jnsgd1na2vs0mg"},{"bike_id":"be0b8282-065e-44f0-80cd-68909203e91f","system_id":"levelo_inurba_marseille","lat":43.21192,"lon":5.35072,"is_reserved":false,"is_disabled":false,"rental_uris":{"android":"levelo://app?vid=be0b8282-065e-44f0-80cd-68909203e91f","ios":"levelo://app?vid=be0b8282-065e-44f0-80cd-68909203e91f"},"vehicle_type_id":"4","last_reported":1745079047,"current_range_meters":2800,"station_id":"st_cvj6sg6p6f1abm77japg","pricing_plan_id":"cebpf4jnsgd1na2vs0mg"},{"bike_id":"873ce162-5241-4368-beb4-3bda35fd38aa","system_id":"levelo_inurba_marseille","lat":43.29935,"lon":5.3655,"is_reserved":false,"is_disabled":false,"rental_uris":{"android":"levelo://app?vid=873ce162-5241-4368-beb4-3bda35fd38aa","ios":"levelo://app?vid=873ce162-5241-4368-beb4-3bda35fd38aa"},"vehicle_type_id":"4","last_reported":1745079047,"current_range_meters":2800,"station_id":"ce4bgm92rcd13ifvqbr0","pricing_plan_id":"cebpf4jnsgd1na2vs0mg"},{"bike_id":"1e9ef5d8-bfad-4c71-83e3-7474e608f10b","system_id":"levelo_inurba_marseille","lat":43.29423,"lon":5.3862,"is_reserved":false,"is_disabled":false,"rental_uris":{"android":"levelo://app?vid=1e9ef5d8-bfad-4c71-83e3-7474e608f10b","ios":"levelo://app?vid=1e9ef5d8-bfad-4c71-83e3-7474e608f10b"},"vehicle_type_id":"4","last_reported":1745079047,"current_range_meters":4000,"station_id":"ce4bh2h2rcd13ifvqdh0","pricing_plan_id":"cebpf4jnsgd1na2vs0mg"},{"bike_id":"326ffc46-83b3-4c99-9cc6-ae03a234458e","system_id":"levelo_inurba_marseille","lat":43.26026,"lon":5.37548,"is_reserved":false,"is_disabled":false,"rental_uris":{"android":"levelo://app?vid=326ffc46-83b3-4c99-9cc6-ae03a234458e","ios":"levelo://app?vid=326ffc46-83b3-4c99-9cc6-ae03a234458e"},"vehicle_type_id":"4","last_reported":1745079047,"current_range_meters":2800,"station_id":"ce4bhgh2rcd13ifvqfa0","pricing_plan_id":"cebpf4jnsgd1na2vs0mg"},{"bike_id":"e0a704f8-665f-48bc-95a3-5a2b550f6a40","system_id":"levelo_inurba_marseille","lat":43.29275,"lon":5.3844,"is_reserved":false,"is_disabled":false,"rental_uris":{"android":"levelo://app?vid=e0a704f8-665f-48bc-95a3-5a2b550f6a40","ios":"levelo://app?vid=e0a704f8-665f-48bc-95a3-5a2b550f6a40"},"vehicle_type_id":"4","last_reported":1745079047,"current_range_meters":3200,"station_id":"ce4bh692rcd13ifvqea0","pricing_plan_id":"cebpf4jnsgd1na2vs0mg"},{"bike_id":"5adfd0fb-f679-4bcc-aa22-8db4d94bb97f","system_id":"levelo_inurba_marseille","lat":43.270752,"lon":5.422734,"is_reserved":false,"is_disabled":false,"rental_uris":{"android":"levelo://app?vid=5adfd0fb-f679-4bcc-aa22-8db4d94bb97f","ios":"levelo://app?vid=5adfd0fb-f679-4bcc-aa22-8db4d94bb97f"},"vehicle_type_id":"4","last_reported":1745079047,"current_range_meters":3200,"station_id":"","pricing_plan_id":"cebpf4jnsgd1na2vs0mg"},{"bike_id":"d73b22f8-2747-4dd6-b21a-dacd11741a6f","system_id":"levelo_inurba_marseille","lat":43.30145,"lon":5.37418,"is_reserved":false,"is_disabled":false,"rental_uris":{"android":"levelo://app?vid=d73b22f8-2747-4dd6-b21a-dacd11741a6f","ios":"levelo://app?vid=d73b22f8-2747-4dd6-b21a-dacd11741a6f"},"vehicle_type_id":"4","last_reported":1745079047,"current_range_meters":3200,"station_id":"ce4bgs92rcd13ifvqcc0","pricing_plan_id":"cebpf4jnsgd1na2vs0mg"},{"bike_id":"6f4bf21d-0257-4169-acd9-47affa8e232f","system_id":"levelo_inurba_marseille","lat":43.313602,"lon":5.38484,"is_reserved":false,"is_disabled":false,"rental_uris":{"android":"levelo://app?vid=6f4bf21d-0257-4169-acd9-47affa8e232f","ios":"levelo://app?vid=6f4bf21d-0257-4169-acd9-47affa8e232f"},"vehicle_type_id":"4","last_reported":1745079047,"current_range_meters":3200,"station_id":"ce4bgt92rcd13ifvqcf0","pricing_plan_id":"cebpf4jnsgd1na2vs0mg"},{"bike_id":"210d3669-e710-4cfb-bac4-2059f4fa7eea","system_id":"levelo_inurba_marseille","lat":43.24664,"lon":5.38168,"is_reserved":false,"is_disabled":false,"rental_uris":{"android":"levelo://app?vid=210d3669-e710-4cfb-bac4-2059f4fa7eea","ios":"levelo://app?vid=210d3669-e710-4cfb-bac4-2059f4fa7eea"},"vehicle_type_id":"4","last_reported":1745079047,"current_range_meters":3200,"station_id":"ce4bh2h2rcd13ifvqdh0","pricing_plan_id":"cebpf4jnsgd1na2vs0mg"},{"bike_id":"71cc9a5c-bdef-42ca-8ce4-5e77fe2c683a","system_id":"levelo_inurba_marseille","lat":43.2957,"lon":5.42316,"is_reserved":false,"is_disabled":false,"rental_uris":{"android":"levelo://app?vid=71cc9a5c-bdef-42ca-8ce4-5e77fe2c683a","ios":"levelo://app?vid=71cc9a5c-bdef-42ca-8ce4-5e77fe2c683a"},"vehicle_type_id":"4","last_reported":1745079047,"current_range_meters":3200,"station_id":"ce4bhph2rcd13ifvqhdg","pricing_plan_id":"cebpf4jnsgd1na2vs0mg"},{"bike_id":"ed14a336-aec3-42de-974c-c6767f3f6a8c","system_id":"levelo_inurba_marseille","lat":43.29572,"lon":5.39982,"is_reserved":false,"is_disabled":false,"rental_uris":{"android":"levelo://app?vid=ed14a336-aec3-42de-974c-c6767f3f6a8c","ios":"levelo://app?vid=ed14a336-aec3-42de-974c-c6767f3f6a8c"},"vehicle_type_id":"4","last_reported":1745079047,"current_range_meters":800,"station_id":"ce4bh312rcd13ifvqdj0","pricing_plan_id":"cebpf4jnsgd1na2vs0mg"},{"bike_id":"2f1cd205-943d-45f6-bfea-07c29bfe93bc","system_id":"levelo_inurba_marseille","lat":43.28151,"lon":5.42624,"is_reserved":false,"is_disabled":false,"rental_uris":{"android":"levelo://app?vid=2f1cd205-943d-45f6-bfea-07c29bfe93bc","ios":"levelo://app?vid=2f1cd205-943d-45f6-bfea-07c29bfe93bc"},"vehicle_type_id":"4","last_reported":1745079047,"current_range_meters":3600,"station_id":"","pricing_plan_id":"cebpf4jnsgd1na2vs0mg"},{"bike_id":"ce7e7f40-dc27-4bb6-81bc-19c6304d9d2f","system_id":"levelo_inurba_marseille","lat":43.29533,"lon":5.385436,"is_reserved":false,"is_disabled":false,"rental_uris":{"android":"levelo://app?vid=ce7e7f40-dc27-4bb6-81bc-19c6304d9d2f","ios":"levelo://app?vid=ce7e7f40-dc27-4bb6-81bc-19c6304d9d2f"},"vehicle_type_id":"4","last_reported":1745079047,"current_range_meters":3600,"station_id":"ce4bgih2rcd13ifvqba0","pricing_plan_id":"cebpf4jnsgd1na2vs0mg"},{"bike_id":"39783330-5b8c-4efa-a51f-b0c977415a28","system_id":"levelo_inurba_marseille","lat":43.29293,"lon":5.37457,"is_reserved":false,"is_disabled":true,"rental_uris":{"android":"levelo://app?vid=39783330-5b8c-4efa-a51f-b0c977415a28","ios":"levelo://app?vid=39783330-5b8c-4efa-a51f-b0c977415a28"},"vehicle_type_id":"4","last_reported":1745079047,"current_range_meters":3600,"station_id":"ce4bgi12rcd13ifvqb70","pricing_plan_id":"cebpf4jnsgd1na2vs0mg"},{"bike_id":"5031a17f-bf65-4710-928e-2b359b65d8c9","system_id":"levelo_inurba_marseille","lat":43.26683,"lon":5.38272,"is_reserved":false,"is_disabled":false,"rental_uris":{"android":"levelo://app?vid=5031a17f-bf65-4710-928e-2b359b65d8c9","ios":"levelo://app?vid=5031a17f-bf65-4710-928e-2b359b65d8c9"},"vehicle_type_id":"4","last_reported":1745079047,"current_range_meters":3600,"station_id":"ce4bhg92rcd13ifvqf90","pricing_plan_id":"cebpf4jnsgd1na2vs0mg"},{"bike_id":"3dc71fea-d550-4e59-8539-34c4e2217296","system_id":"levelo_inurba_marseille","lat":43.29268,"lon":5.36843,"is_reserved":false,"is_disabled":false,"rental_uris":{"android":"levelo://app?vid=3dc71fea-d550-4e59-8539-34c4e2217296","ios":"levelo://app?vid=3dc71fea-d550-4e59-8539-34c4e2217296"},"vehicle_type_id":"4","last_reported":1745079047,"current_range_meters":3600,"station_id":"ce4bhbp2rcd13ifvqesg","pricing_plan_id":"cebpf4jnsgd1na2vs0mg"},{"bike_id":"bcd4aeea-0f28-4914-a100-8da2277d6609","system_id":"levelo_inurba_marseille","lat":43.297023,"lon":5.366044,"is_reserved":false,"is_disabled":false,"rental_uris":{"android":"levelo://app?vid=bcd4aeea-0f28-4914-a100-8da2277d6609","ios":"levelo://app?vid=bcd4aeea-0f28-4914-a100-8da2277d6609"},"vehicle_type_id":"4","last_reported":1745079047,"current_range_meters":3600,"station_id":"ce4bgn12rcd13ifvqbt0","pricing_plan_id":"cebpf4jnsgd1na2vs0mg"},{"bike_id":"8c7924ca-ad95-4f3b-af3f-2a6cb5489589","system_id":"levelo_inurba_marseille","lat":43.27312,"lon":5.39086,"is_reserved":false,"is_disabled":false,"rental_uris":{"android":"levelo://app?vid=8c7924ca-ad95-4f3b-af3f-2a6cb5489589","ios":"levelo://app?vid=8c7924ca-ad95-4f3b-af3f-2a6cb5489589"},"vehicle_type_id":"4","last_reported":1745079047,"current_range_meters":3600,"station_id":"ce4bhgp2rcd13ifvqfe0","pricing_plan_id":"cebpf4jnsgd1na2vs0mg"},{"bike_id":"1f45ecb2-b4bf-44ff-99f8-1e68c42a3aa0","system_id":"levelo_inurba_marseille","lat":43.301138,"lon":5.398415,"is_reserved":false,"is_disabled":false,"rental_uris":{"android":"levelo://app?vid=1f45ecb2-b4bf-44ff-99f8-1e68c42a3aa0","ios":"levelo://app?vid=1f45ecb2-b4bf-44ff-99f8-1e68c42a3aa0"},"vehicle_type_id":"4","last_reported":1745079047,"current_range_meters":4000,"station_id":"ce4bhip2rcd13ifvqft0","pricing_plan_id":"cebpf4jnsgd1na2vs0mg"},{"bike_id":"466f9f64-0cb8-494b-890e-7dbbfa1bdcf8","system_id":"levelo_inurba_marseille","lat":43.28373,"lon":5.38629,"is_reserved":false,"is_disabled":false,"rental_uris":{"android":"levelo://app?vid=466f9f64-0cb8-494b-890e-7dbbfa1bdcf8","ios":"levelo://app?vid=466f9f64-0cb8-494b-890e-7dbbfa1bdcf8"},"vehicle_type_id":"4","last_reported":1745079047,"current_range_meters":4000,"station_id":"ce4bh492rcd13ifvqdvg","pricing_plan_id":"cebpf4jnsgd1na2vs0mg"},{"bike_id":"4addd690-439d-4f7a-9efa-6f2489334330","system_id":"levelo_inurba_marseille","lat":43.29712,"lon":5.36601,"is_reserved":false,"is_disabled":false,"rental_uris":{"android":"levelo://app?vid=4addd690-439d-4f7a-9efa-6f2489334330","ios":"levelo://app?vid=4addd690-439d-4f7a-9efa-6f2489334330"},"vehicle_type_id":"4","last_reported":1745079047,"current_range_meters":4000,"station_id":"ce4bgn12rcd13ifvqbt0","pricing_plan_id":"cebpf4jnsgd1na2vs0mg"},{"bike_id":"44f8bed3-dad2-47de-b73d-37d9689d599a","system_id":"levelo_inurba_marseille","lat":43.27568,"lon":5.3842,"is_reserved":false,"is_disabled":false,"rental_uris":{"android":"levelo://app?vid=44f8bed3-dad2-47de-b73d-37d9689d599a","ios":"levelo://app?vid=44f8bed3-dad2-47de-b73d-37d9689d599a"},"vehicle_type_id":"4","last_reported":1745079047,"current_range_meters":4000,"station_id":"ce4bhh92rcd13ifvqfi0","pricing_plan_id":"cebpf4jnsgd1na2vs0mg"},{"bike_id":"1c037c01-c5dc-4da5-b270-a3cdb5080fa7","system_id":"levelo_inurba_marseille","lat":43.27308,"lon":5.39103,"is_reserved":false,"is_disabled":false,"rental_uris":{"android":"levelo://app?vid=1c037c01-c5dc-4da5-b270-a3cdb5080fa7","ios":"levelo://app?vid=1c037c01-c5dc-4da5-b270-a3cdb5080fa7"},"vehicle_type_id":"4","last_reported":1745079047,"current_range_meters":3600,"station_id":"ce4bhgp2rcd13ifvqfe0","pricing_plan_id":"cebpf4jnsgd1na2vs0mg"},{"bike_id":"25db16be-e670-4690-b250-4417a023fd26","system_id":"levelo_inurba_marseille","lat":43.29913,"lon":5.38131,"is_reserved":false,"is_disabled":false,"rental_uris":{"android":"levelo://app?vid=25db16be-e670-4690-b250-4417a023fd26","ios":"levelo://app?vid=25db16be-e670-4690-b250-4417a023fd26"},"vehicle_type_id":"4","last_reported":1745079047,"current_range_meters":4000,"station_id":"ce4bgj12rcd13ifvqbc0","pricing_plan_id":"cebpf4jnsgd1na2vs0mg"},{"bike_id":"bd5aa58f-ce42-4a8a-8899-1cf572c880b9","system_id":"levelo_inurba_marseille","lat":43.27809,"lon":5.4071,"is_reserved":false,"is_disabled":false,"rental_uris":{"android":"levelo://app?vid=bd5aa58f-ce42-4a8a-8899-1cf572c880b9","ios":"levelo://app?vid=bd5aa58f-ce42-4a8a-8899-1cf572c880b9"},"vehicle_type_id":"4","last_reported":1745079047,"current_range_meters":4400,"station_id":"ce4bhnh2rcd13ifvqgtg","pricing_plan_id":"cebpf4jnsgd1na2vs0mg"},{"bike_id":"fb5ccb87-217b-4ef1-aca9-acca2b2d3621","system_id":"levelo_inurba_marseille","lat":43.30336,"lon":5.40436,"is_reserved":false,"is_disabled":false,"rental_uris":{"android":"levelo://app?vid=fb5ccb87-217b-4ef1-aca9-acca2b2d3621","ios":"levelo://app?vid=fb5ccb87-217b-4ef1-aca9-acca2b2d3621"},"vehicle_type_id":"4","last_reported":1745079047,"current_range_meters":4400,"station_id":"ce4bh012rcd13ifvqd10","pricing_plan_id":"cebpf4jnsgd1na2vs0mg"},{"bike_id":"5c2d66c7-d566-457a-b5f4-00100088efbb","system_id":"levelo_inurba_marseille","lat":43.297087,"lon":5.365958,"is_reserved":false,"is_disabled":false,"rental_uris":{"android":"levelo://app?vid=5c2d66c7-d566-457a-b5f4-00100088efbb","ios":"levelo://app?vid=5c2d66c7-d566-457a-b5f4-00100088efbb"},"vehicle_type_id":"4","last_reported":1745079047,"current_range_meters":4400,"station_id":"ce4bgn12rcd13ifvqbt0","pricing_plan_id":"cebpf4jnsgd1na2vs0mg"},{"bike_id":"6987c513-b50c-45b1-80e3-356055d982d5","system_id":"levelo_inurba_marseille","lat":43.29965,"lon":5.37763,"is_reserved":false,"is_disabled":true,"rental_uris":{"android":"levelo://app?vid=6987c513-b50c-45b1-80e3-356055d982d5","ios":"levelo://app?vid=6987c513-b50c-45b1-80e3-356055d982d5"},"vehicle_type_id":"4","last_reported":1745079047,"current_range_meters":4800,"station_id":"","pricing_plan_id":"cebpf4jnsgd1na2vs0mg"},{"bike_id":"8ff3876f-4e58-4cb7-b3a3-e264a04fd0b6","system_id":"levelo_inurba_marseille","lat":43.26687,"lon":5.38281,"is_reserved":false,"is_disabled":true,"rental_uris":{"android":"levelo://app?vid=8ff3876f-4e58-4cb7-b3a3-e264a04fd0b6","ios":"levelo://app?vid=8ff3876f-4e58-4cb7-b3a3-e264a04fd0b6"},"vehicle_type_id":"4","last_reported":1745079047,"current_range_meters":4800,"station_id":"ce4bhg92rcd13ifvqf90","pricing_plan_id":"cebpf4jnsgd1na2vs0mg"},{"bike_id":"ee082db3-5466-46d3-af33-a460d44564ad","system_id":"levelo_inurba_marseille","lat":43.28479,"lon":5.38423,"is_reserved":false,"is_disabled":false,"rental_uris":{"android":"levelo://app?vid=ee082db3-5466-46d3-af33-a460d44564ad","ios":"levelo://app?vid=ee082db3-5466-46d3-af33-a460d44564ad"},"vehicle_type_id":"4","last_reported":1745079047,"current_range_meters":4800,"station_id":"ce4bh512rcd13ifvqe3g","pricing_plan_id":"cebpf4jnsgd1na2vs0mg"},{"bike_id":"106587aa-8649-4877-9550-0a7815bb5833","system_id":"levelo_inurba_marseille","lat":43.29537,"lon":5.38541,"is_reserved":false,"is_disabled":false,"rental_uris":{"android":"levelo://app?vid=106587aa-8649-4877-9550-0a7815bb5833","ios":"levelo://app?vid=106587aa-8649-4877-9550-0a7815bb5833"},"vehicle_type_id":"4","last_reported":1745079047,"current_range_meters":4800,"station_id":"ce4bgih2rcd13ifvqba0","pricing_plan_id":"cebpf4jnsgd1na2vs0mg"},{"bike_id":"ec9a197c-8f24-429d-b6af-f6dd97a9e017","system_id":"levelo_inurba_marseille","lat":43.28862,"lon":5.35849,"is_reserved":false,"is_disabled":false,"rental_uris":{"android":"levelo://app?vid=ec9a197c-8f24-429d-b6af-f6dd97a9e017","ios":"levelo://app?vid=ec9a197c-8f24-429d-b6af-f6dd97a9e017"},"vehicle_type_id":"4","last_reported":1745079047,"current_range_meters":4800,"station_id":"ce4bhb12rcd13ifvqem0","pricing_plan_id":"cebpf4jnsgd1na2vs0mg"},{"bike_id":"2c117de9-e2d7-482d-8d26-f52209273d78","system_id":"levelo_inurba_marseille","lat":43.30535,"lon":5.38426,"is_reserved":false,"is_disabled":false,"rental_uris":{"android":"levelo://app?vid=2c117de9-e2d7-482d-8d26-f52209273d78","ios":"levelo://app?vid=2c117de9-e2d7-482d-8d26-f52209273d78"},"vehicle_type_id":"4","last_reported":1745079047,"current_range_meters":4800,"station_id":"ce4bgg92rcd13ifvqb30","pricing_plan_id":"cebpf4jnsgd1na2vs0mg"},{"bike_id":"071b931f-38cc-4110-816f-4b8414733324","system_id":"levelo_inurba_marseille","lat":43.24649,"lon":5.38893,"is_reserved":false,"is_disabled":false,"rental_uris":{"android":"levelo://app?vid=071b931f-38cc-4110-816f-4b8414733324","ios":"levelo://app?vid=071b931f-38cc-4110-816f-4b8414733324"},"vehicle_type_id":"4","last_reported":1745079047,"current_range_meters":4800,"station_id":"ce4bhg12rcd13ifvqf60","pricing_plan_id":"cebpf4jnsgd1na2vs0mg"},{"bike_id":"f25ef54a-9e8f-488d-8732-1b01d6064b44","system_id":"levelo_inurba_marseille","lat":43.29717,"lon":5.36603,"is_reserved":false,"is_disabled":false,"rental_uris":{"android":"levelo://app?vid=f25ef54a-9e8f-488d-8732-1b01d6064b44","ios":"levelo://app?vid=f25ef54a-9e8f-488d-8732-1b01d6064b44"},"vehicle_type_id":"4","last_reported":1745079047,"current_range_meters":4400,"station_id":"ce4bgn12rcd13ifvqbt0","pricing_plan_id":"cebpf4jnsgd1na2vs0mg"},{"bike_id":"9c65ac09-2d1b-4e35-8c7e-3e8d5c47e416","system_id":"levelo_inurba_marseille","lat":43.26201,"lon":5.37931,"is_reserved":false,"is_disabled":false,"rental_uris":{"android":"levelo://app?vid=9c65ac09-2d1b-4e35-8c7e-3e8d5c47e416","ios":"levelo://app?vid=9c65ac09-2d1b-4e35-8c7e-3e8d5c47e416"},"vehicle_type_id":"4","last_reported":1745079047,"current_range_meters":5600,"station_id":"ce4bhjp2rcd13ifvqg90","pricing_plan_id":"cebpf4jnsgd1na2vs0mg"},{"bike_id":"3d442c5e-2ab9-452b-a9df-3aba8c7d37d8","system_id":"levelo_inurba_marseille","lat":43.29024,"lon":5.3813,"is_reserved":false,"is_disabled":false,"rental_uris":{"android":"levelo://app?vid=3d442c5e-2ab9-452b-a9df-3aba8c7d37d8","ios":"levelo://app?vid=3d442c5e-2ab9-452b-a9df-3aba8c7d37d8"},"vehicle_type_id":"4","last_reported":1745079047,"current_range_meters":2800,"station_id":"ce4bh4p2rcd13ifvqe1g","pricing_plan_id":"cebpf4jnsgd1na2vs0mg"},{"bike_id":"bcd0d1bb-b0fb-44d6-9dbf-42cd840bb5f6","system_id":"levelo_inurba_marseille","lat":43.295262,"lon":5.385379,"is_reserved":false,"is_disabled":false,"rental_uris":{"android":"levelo://app?vid=bcd0d1bb-b0fb-44d6-9dbf-42cd840bb5f6","ios":"levelo://app?vid=bcd0d1bb-b0fb-44d6-9dbf-42cd840bb5f6"},"vehicle_type_id":"4","last_reported":1745079047,"current_range_meters":5600,"station_id":"ce4bh3h2rcd13ifvqdn0","pricing_plan_id":"cebpf4jnsgd1na2vs0mg"},{"bike_id":"e02e2a24-a8bc-4c14-be77-a5c144bce9de","system_id":"levelo_inurba_marseille","lat":43.28999,"lon":5.35609,"is_reserved":false,"is_disabled":false,"rental_uris":{"android":"levelo://app?vid=e02e2a24-a8bc-4c14-be77-a5c144bce9de","ios":"levelo://app?vid=e02e2a24-a8bc-4c14-be77-a5c144bce9de"},"vehicle_type_id":"4","last_reported":1745079047,"current_range_meters":5600,"station_id":"ce4bhb92rcd13ifvqen0","pricing_plan_id":"cebpf4jnsgd1na2vs0mg"},{"bike_id":"a968bc14-c848-422a-b8e8-61f50cb7032f","system_id":"levelo_inurba_marseille","lat":43.30803,"lon":5.43541,"is_reserved":false,"is_disabled":false,"rental_uris":{"android":"levelo://app?vid=a968bc14-c848-422a-b8e8-61f50cb7032f","ios":"levelo://app?vid=a968bc14-c848-422a-b8e8-61f50cb7032f"},"vehicle_type_id":"4","last_reported":1745079047,"current_range_meters":5600,"station_id":"ce4bhph2rcd13ifvqheg","pricing_plan_id":"cebpf4jnsgd1na2vs0mg"},{"bike_id":"0ea790f3-79ef-4002-a541-f67a691aae21","system_id":"levelo_inurba_marseille","lat":43.23198,"lon":5.35546,"is_reserved":false,"is_disabled":false,"rental_uris":{"android":"levelo://app?vid=0ea790f3-79ef-4002-a541-f67a691aae21","ios":"levelo://app?vid=0ea790f3-79ef-4002-a541-f67a691aae21"},"vehicle_type_id":"4","last_reported":1745079047,"current_range_meters":6000,"station_id":"ce4bhu92rcd13ifvqi70","pricing_plan_id":"cebpf4jnsgd1na2vs0mg"},{"bike_id":"a4ee9808-c56f-429a-bd9e-2837e81985cb","system_id":"levelo_inurba_marseille","lat":43.27996,"lon":5.41654,"is_reserved":false,"is_disabled":true,"rental_uris":{"android":"levelo://app?vid=a4ee9808-c56f-429a-bd9e-2837e81985cb","ios":"levelo://app?vid=a4ee9808-c56f-429a-bd9e-2837e81985cb"},"vehicle_type_id":"4","last_reported":1745079047,"current_range_meters":6000,"station_id":"ce4bho12rcd13ifvqh1g","pricing_plan_id":"cebpf4jnsgd1na2vs0mg"},{"bike_id":"e48f77ab-a37a-488e-8983-18a019999725","system_id":"levelo_inurba_marseille","lat":43.27373,"lon":5.3626,"is_reserved":false,"is_disabled":false,"rental_uris":{"android":"levelo://app?vid=e48f77ab-a37a-488e-8983-18a019999725","ios":"levelo://app?vid=e48f77ab-a37a-488e-8983-18a019999725"},"vehicle_type_id":"4","last_reported":1745079047,"current_range_meters":6000,"station_id":"ce4bhbh2rcd13ifvqeo0","pricing_plan_id":"cebpf4jnsgd1na2vs0mg"},{"bike_id":"207d27f7-56d8-4311-ba7b-4cdf0adb2d2c","system_id":"levelo_inurba_marseille","lat":43.22498,"lon":5.34819,"is_reserved":false,"is_disabled":false,"rental_uris":{"android":"levelo://app?vid=207d27f7-56d8-4311-ba7b-4cdf0adb2d2c","ios":"levelo://app?vid=207d27f7-56d8-4311-ba7b-4cdf0adb2d2c"},"vehicle_type_id":"4","last_reported":1745079047,"current_range_meters":6000,"station_id":"st_cvj5dfep6f1abm77gieg","pricing_plan_id":"cebpf4jnsgd1na2vs0mg"},{"bike_id":"29b9002a-ee4b-49f9-a05c-66371bf48774","system_id":"levelo_inurba_marseille","lat":43.288765,"lon":5.360474,"is_reserved":false,"is_disabled":false,"rental_uris":{"android":"levelo://app?vid=29b9002a-ee4b-49f9-a05c-66371bf48774","ios":"levelo://app?vid=29b9002a-ee4b-49f9-a05c-66371bf48774"},"vehicle_type_id":"4","last_reported":1745079047,"current_range_meters":6000,"station_id":"ce4bhoh2rcd13ifvqh5g","pricing_plan_id":"cebpf4jnsgd1na2vs0mg"},{"bike_id":"57d65d2c-3a95-49a8-be6a-565bf72030aa","system_id":"levelo_inurba_marseille","lat":43.3168,"lon":5.40483,"is_reserved":false,"is_disabled":false,"rental_uris":{"android":"levelo://app?vid=57d65d2c-3a95-49a8-be6a-565bf72030aa","ios":"levelo://app?vid=57d65d2c-3a95-49a8-be6a-565bf72030aa"},"vehicle_type_id":"4","last_reported":1745079047,"current_range_meters":6000,"station_id":"ce4bh012rcd13ifvqd00","pricing_plan_id":"cebpf4jnsgd1na2vs0mg"},{"bike_id":"ab9da56e-72dd-4ce8-89c1-66ee7b6fc0e1","system_id":"levelo_inurba_marseille","lat":43.27921,"lon":5.39576,"is_reserved":false,"is_disabled":false,"rental_uris":{"android":"levelo://app?vid=ab9da56e-72dd-4ce8-89c1-66ee7b6fc0e1","ios":"levelo://app?vid=ab9da56e-72dd-4ce8-89c1-66ee7b6fc0e1"},"vehicle_type_id":"4","last_reported":1745079047,"current_range_meters":6000,"station_id":"ce4bhf92rcd13ifvqf40","pricing_plan_id":"cebpf4jnsgd1na2vs0mg"},{"bike_id":"36685438-3355-4b7c-84b1-b5c59bcbdf38","system_id":"levelo_inurba_marseille","lat":43.29063,"lon":5.37177,"is_reserved":false,"is_disabled":false,"rental_uris":{"android":"levelo://app?vid=36685438-3355-4b7c-84b1-b5c59bcbdf38","ios":"levelo://app?vid=36685438-3355-4b7c-84b1-b5c59bcbdf38"},"vehicle_type_id":"4","last_reported":1745079047,"current_range_meters":6000,"station_id":"ce4bh5p2rcd13ifvqe4g","pricing_plan_id":"cebpf4jnsgd1na2vs0mg"},{"bike_id":"3d26e253-0f92-45b8-895e-112edf050bc9","system_id":"levelo_inurba_marseille","lat":43.26568,"lon":5.39005,"is_reserved":false,"is_disabled":false,"rental_uris":{"android":"levelo://app?vid=3d26e253-0f92-45b8-895e-112edf050bc9","ios":"levelo://app?vid=3d26e253-0f92-45b8-895e-112edf050bc9"},"vehicle_type_id":"4","last_reported":1745079047,"current_range_meters":10000,"station_id":"ce4bhe12rcd13ifvqf30","pricing_plan_id":"cebpf4jnsgd1na2vs0mg"},{"bike_id":"1210dc72-37b8-49f7-b249-6faa54daba28","system_id":"levelo_inurba_marseille","lat":43.32368,"lon":5.36739,"is_reserved":false,"is_disabled":false,"rental_uris":{"android":"levelo://app?vid=1210dc72-37b8-49f7-b249-6faa54daba28","ios":"levelo://app?vid=1210dc72-37b8-49f7-b249-6faa54daba28"},"vehicle_type_id":"4","last_reported":1745079047,"current_range_meters":6400,"station_id":"ce4bhsh2rcd13ifvqi2g","pricing_plan_id":"cebpf4jnsgd1na2vs0mg"},{"bike_id":"709c5515-4e73-41f4-a094-b1cb2d9405da","system_id":"levelo_inurba_marseille","lat":43.241678,"lon":5.363944,"is_reserved":false,"is_disabled":false,"rental_uris":{"android":"levelo://app?vid=709c5515-4e73-41f4-a094-b1cb2d9405da","ios":"levelo://app?vid=709c5515-4e73-41f4-a094-b1cb2d9405da"},"vehicle_type_id":"4","last_reported":1745079047,"current_range_meters":6400,"station_id":"cpo36qri1sfpv3e86is0","pricing_plan_id":"cebpf4jnsgd1na2vs0mg"},{"bike_id":"38d71541-39fa-44bc-b9fa-dad7cbdc7434","system_id":"levelo_inurba_marseille","lat":43.28753,"lon":5.38671,"is_reserved":false,"is_disabled":false,"rental_uris":{"android":"levelo://app?vid=38d71541-39fa-44bc-b9fa-dad7cbdc7434","ios":"levelo://app?vid=38d71541-39fa-44bc-b9fa-dad7cbdc7434"},"vehicle_type_id":"4","last_reported":1745079047,"current_range_meters":6400,"station_id":"","pricing_plan_id":"cebpf4jnsgd1na2vs0mg"},{"bike_id":"da318e44-7c4b-4a36-896d-19172e4bab85","system_id":"levelo_inurba_marseille","lat":43.29525,"lon":5.37503,"is_reserved":false,"is_disabled":false,"rental_uris":{"android":"levelo://app?vid=da318e44-7c4b-4a36-896d-19172e4bab85","ios":"levelo://app?vid=da318e44-7c4b-4a36-896d-19172e4bab85"},"vehicle_type_id":"4","last_reported":1745079047,"current_range_meters":6800,"station_id":"ce4bgkp2rcd13ifvqbmg","pricing_plan_id":"cebpf4jnsgd1na2vs0mg"},{"bike_id":"ee2c42d9-062e-486d-94e5-a8bebc2f1c3b","system_id":"levelo_inurba_marseille","lat":43.251945,"lon":5.375795,"is_reserved":false,"is_disabled":true,"rental_uris":{"android":"levelo://app?vid=ee2c42d9-062e-486d-94e5-a8bebc2f1c3b","ios":"levelo://app?vid=ee2c42d9-062e-486d-94e5-a8bebc2f1c3b"},"vehicle_type_id":"4","last_reported":1745079047,"current_range_meters":6800,"station_id":"","pricing_plan_id":"cebpf4jnsgd1na2vs0mg"},{"bike_id":"999eb4a5-b73c-4816-bd61-f1750f2e5ea3","system_id":"levelo_inurba_marseille","lat":43.26572,"lon":5.39017,"is_reserved":false,"is_disabled":false,"rental_uris":{"android":"levelo://app?vid=999eb4a5-b73c-4816-bd61-f1750f2e5ea3","ios":"levelo://app?vid=999eb4a5-b73c-4816-bd61-f1750f2e5ea3"},"vehicle_type_id":"4","last_reported":1745079047,"current_range_meters":6800,"station_id":"ce4bhe12rcd13ifvqf30","pricing_plan_id":"cebpf4jnsgd1na2vs0mg"},{"bike_id":"aaafad92-d28a-4d17-a0fb-3ff3c58bebc6","system_id":"levelo_inurba_marseille","lat":43.28157,"lon":5.4265,"is_reserved":false,"is_disabled":false,"rental_uris":{"android":"levelo://app?vid=aaafad92-d28a-4d17-a0fb-3ff3c58bebc6","ios":"levelo://app?vid=aaafad92-d28a-4d17-a0fb-3ff3c58bebc6"},"vehicle_type_id":"4","last_reported":1745079047,"current_range_meters":7200,"station_id":"ce4bhnh2rcd13ifvqgug","pricing_plan_id":"cebpf4jnsgd1na2vs0mg"},{"bike_id":"d7ffdde5-8bb0-4684-bb98-92d117031d54","system_id":"levelo_inurba_marseille","lat":43.313677,"lon":5.38471,"is_reserved":false,"is_disabled":false,"rental_uris":{"android":"levelo://app?vid=d7ffdde5-8bb0-4684-bb98-92d117031d54","ios":"levelo://app?vid=d7ffdde5-8bb0-4684-bb98-92d117031d54"},"vehicle_type_id":"4","last_reported":1745079047,"current_range_meters":7200,"station_id":"ce4bgt92rcd13ifvqcf0","pricing_plan_id":"cebpf4jnsgd1na2vs0mg"},{"bike_id":"a6c0f08a-ed03-4080-af78-4beaa4e1052a","system_id":"levelo_inurba_marseille","lat":43.31993,"lon":5.38144,"is_reserved":false,"is_disabled":false,"rental_uris":{"android":"levelo://app?vid=a6c0f08a-ed03-4080-af78-4beaa4e1052a","ios":"levelo://app?vid=a6c0f08a-ed03-4080-af78-4beaa4e1052a"},"vehicle_type_id":"4","last_reported":1745079047,"current_range_meters":7200,"station_id":"ce4bhr12rcd13ifvqhpg","pricing_plan_id":"cebpf4jnsgd1na2vs0mg"},{"bike_id":"52e2b8c1-8ffd-49ea-ba41-02aa4bec09ee","system_id":"levelo_inurba_marseille","lat":43.28038,"lon":5.36948,"is_reserved":false,"is_disabled":false,"rental_uris":{"android":"levelo://app?vid=52e2b8c1-8ffd-49ea-ba41-02aa4bec09ee","ios":"levelo://app?vid=52e2b8c1-8ffd-49ea-ba41-02aa4bec09ee"},"vehicle_type_id":"4","last_reported":1745079047,"current_range_meters":7200,"station_id":"ce4bha12rcd13ifvqef0","pricing_plan_id":"cebpf4jnsgd1na2vs0mg"},{"bike_id":"276d94a9-b91a-47b5-b4e8-19ed1fdcca68","system_id":"levelo_inurba_marseille","lat":43.2955,"lon":5.42284,"is_reserved":false,"is_disabled":true,"rental_uris":{"android":"levelo://app?vid=276d94a9-b91a-47b5-b4e8-19ed1fdcca68","ios":"levelo://app?vid=276d94a9-b91a-47b5-b4e8-19ed1fdcca68"},"vehicle_type_id":"4","last_reported":1745079047,"current_range_meters":7200,"station_id":"ce4bhph2rcd13ifvqhdg","pricing_plan_id":"cebpf4jnsgd1na2vs0mg"},{"bike_id":"911557eb-8c26-4a96-b0d3-6032e220be46","system_id":"levelo_inurba_marseille","lat":43.30894,"lon":5.3719,"is_reserved":false,"is_disabled":false,"rental_uris":{"android":"levelo://app?vid=911557eb-8c26-4a96-b0d3-6032e220be46","ios":"levelo://app?vid=911557eb-8c26-4a96-b0d3-6032e220be46"},"vehicle_type_id":"4","last_reported":1745079047,"current_range_meters":7200,"station_id":"ce4bguh2rcd13ifvqckg","pricing_plan_id":"cebpf4jnsgd1na2vs0mg"},{"bike_id":"d872c5be-2c3c-47f6-9cc0-84aeb212b750","system_id":"levelo_inurba_marseille","lat":43.2407,"lon":5.37765,"is_reserved":false,"is_disabled":false,"rental_uris":{"android":"levelo://app?vid=d872c5be-2c3c-47f6-9cc0-84aeb212b750","ios":"levelo://app?vid=d872c5be-2c3c-47f6-9cc0-84aeb212b750"},"vehicle_type_id":"4","last_reported":1745079047,"current_range_meters":7200,"station_id":"ce4bhnp2rcd13ifvqgvg","pricing_plan_id":"cebpf4jnsgd1na2vs0mg"},{"bike_id":"df1df40f-fd9c-4585-bc36-bdce6918b7d5","system_id":"levelo_inurba_marseille","lat":43.23184,"lon":5.35547,"is_reserved":false,"is_disabled":false,"rental_uris":{"android":"levelo://app?vid=df1df40f-fd9c-4585-bc36-bdce6918b7d5","ios":"levelo://app?vid=df1df40f-fd9c-4585-bc36-bdce6918b7d5"},"vehicle_type_id":"4","last_reported":1745079047,"current_range_meters":7200,"station_id":"ce4bhu92rcd13ifvqi70","pricing_plan_id":"cebpf4jnsgd1na2vs0mg"},{"bike_id":"99040da8-5d08-434a-aabe-1e9f9ade7716","system_id":"levelo_inurba_marseille","lat":43.30147,"lon":5.3807,"is_reserved":false,"is_disabled":false,"rental_uris":{"android":"levelo://app?vid=99040da8-5d08-434a-aabe-1e9f9ade7716","ios":"levelo://app?vid=99040da8-5d08-434a-aabe-1e9f9ade7716"},"vehicle_type_id":"4","last_reported":1745079047,"current_range_meters":8000,"station_id":"ce4bgjp2rcd13ifvqbh0","pricing_plan_id":"cebpf4jnsgd1na2vs0mg"},{"bike_id":"8fc416ec-704a-4139-92e9-aa10689d87e4","system_id":"levelo_inurba_marseille","lat":43.286987,"lon":5.373818,"is_reserved":false,"is_disabled":false,"rental_uris":{"android":"levelo://app?vid=8fc416ec-704a-4139-92e9-aa10689d87e4","ios":"levelo://app?vid=8fc416ec-704a-4139-92e9-aa10689d87e4"},"vehicle_type_id":"4","last_reported":1745079047,"current_range_meters":8000,"station_id":"ce4bh3p2rcd13ifvqdq0","pricing_plan_id":"cebpf4jnsgd1na2vs0mg"},{"bike_id":"b89497da-eac1-40b4-8483-ceb37dfc217c","system_id":"levelo_inurba_marseille","lat":43.26955,"lon":5.38634,"is_reserved":false,"is_disabled":false,"rental_uris":{"android":"levelo://app?vid=b89497da-eac1-40b4-8483-ceb37dfc217c","ios":"levelo://app?vid=b89497da-eac1-40b4-8483-ceb37dfc217c"},"vehicle_type_id":"4","last_reported":1745079047,"current_range_meters":8000,"station_id":"ce4bhh92rcd13ifvqfh0","pricing_plan_id":"cebpf4jnsgd1na2vs0mg"},{"bike_id":"066f1a3f-2f55-42ac-aa57-b561bb82f13e","system_id":"levelo_inurba_marseille","lat":43.30868,"lon":5.37304,"is_reserved":false,"is_disabled":false,"rental_uris":{"android":"levelo://app?vid=066f1a3f-2f55-42ac-aa57-b561bb82f13e","ios":"levelo://app?vid=066f1a3f-2f55-42ac-aa57-b561bb82f13e"},"vehicle_type_id":"4","last_reported":1745079047,"current_range_meters":8000,"station_id":"","pricing_plan_id":"cebpf4jnsgd1na2vs0mg"},{"bike_id":"c42c97dc-851b-476d-ba23-67d0582febc0","system_id":"levelo_inurba_marseille","lat":43.30339,"lon":5.40444,"is_reserved":false,"is_disabled":true,"rental_uris":{"android":"levelo://app?vid=c42c97dc-851b-476d-ba23-67d0582febc0","ios":"levelo://app?vid=c42c97dc-851b-476d-ba23-67d0582febc0"},"vehicle_type_id":"4","last_reported":1745079047,"current_range_meters":8000,"station_id":"ce4bh012rcd13ifvqd10","pricing_plan_id":"cebpf4jnsgd1na2vs0mg"},{"bike_id":"722f9bdc-4186-40ce-8f87-3b284e68c7c0","system_id":"levelo_inurba_marseille","lat":43.28155,"lon":5.42643,"is_reserved":false,"is_disabled":false,"rental_uris":{"android":"levelo://app?vid=722f9bdc-4186-40ce-8f87-3b284e68c7c0","ios":"levelo://app?vid=722f9bdc-4186-40ce-8f87-3b284e68c7c0"},"vehicle_type_id":"4","last_reported":1745079047,"current_range_meters":8000,"station_id":"ce4bhnh2rcd13ifvqgug","pricing_plan_id":"cebpf4jnsgd1na2vs0mg"},{"bike_id":"4a86d0f8-ff65-4446-9521-1002867a3da0","system_id":"levelo_inurba_marseille","lat":43.24535,"lon":5.39527,"is_reserved":false,"is_disabled":true,"rental_uris":{"android":"levelo://app?vid=4a86d0f8-ff65-4446-9521-1002867a3da0","ios":"levelo://app?vid=4a86d0f8-ff65-4446-9521-1002867a3da0"},"vehicle_type_id":"4","last_reported":1745079047,"current_range_meters":8000,"station_id":"ce4bhlp2rcd13ifvqgjg","pricing_plan_id":"cebpf4jnsgd1na2vs0mg"},{"bike_id":"092594a4-7a67-4f88-845c-b2ebcde4f821","system_id":"levelo_inurba_marseille","lat":43.29622,"lon":5.37155,"is_reserved":false,"is_disabled":false,"rental_uris":{"android":"levelo://app?vid=092594a4-7a67-4f88-845c-b2ebcde4f821","ios":"levelo://app?vid=092594a4-7a67-4f88-845c-b2ebcde4f821"},"vehicle_type_id":"4","last_reported":1745079047,"current_range_meters":8000,"station_id":"ce4bgnh2rcd13ifvqc0g","pricing_plan_id":"cebpf4jnsgd1na2vs0mg"},{"bike_id":"46f07c0f-e4f0-4c8d-865d-e775ea876cd0","system_id":"levelo_inurba_marseille","lat":43.29042,"lon":5.39967,"is_reserved":false,"is_disabled":false,"rental_uris":{"android":"levelo://app?vid=46f07c0f-e4f0-4c8d-865d-e775ea876cd0","ios":"levelo://app?vid=46f07c0f-e4f0-4c8d-865d-e775ea876cd0"},"vehicle_type_id":"4","last_reported":1745079047,"current_range_meters":8000,"station_id":"ce4bh392rcd13ifvqdm0","pricing_plan_id":"cebpf4jnsgd1na2vs0mg"},{"bike_id":"71cc0587-e633-47a5-8120-a23ee2fc9730","system_id":"levelo_inurba_marseille","lat":43.28863,"lon":5.35844,"is_reserved":false,"is_disabled":false,"rental_uris":{"android":"levelo://app?vid=71cc0587-e633-47a5-8120-a23ee2fc9730","ios":"levelo://app?vid=71cc0587-e633-47a5-8120-a23ee2fc9730"},"vehicle_type_id":"4","last_reported":1745079047,"current_range_meters":8000,"station_id":"ce4bhb12rcd13ifvqem0","pricing_plan_id":"cebpf4jnsgd1na2vs0mg"},{"bike_id":"934a8fc0-98f8-4aaf-a145-d485dee937c7","system_id":"levelo_inurba_marseille","lat":43.32358,"lon":5.3675,"is_reserved":false,"is_disabled":false,"rental_uris":{"android":"levelo://app?vid=934a8fc0-98f8-4aaf-a145-d485dee937c7","ios":"levelo://app?vid=934a8fc0-98f8-4aaf-a145-d485dee937c7"},"vehicle_type_id":"4","last_reported":1745079047,"current_range_meters":8000,"station_id":"ce4bhsh2rcd13ifvqi2g","pricing_plan_id":"cebpf4jnsgd1na2vs0mg"},{"bike_id":"a0ddb0a5-f7f0-4281-aa27-9e82747cc573","system_id":"levelo_inurba_marseille","lat":43.33754,"lon":5.37491,"is_reserved":false,"is_disabled":false,"rental_uris":{"android":"levelo://app?vid=a0ddb0a5-f7f0-4281-aa27-9e82747cc573","ios":"levelo://app?vid=a0ddb0a5-f7f0-4281-aa27-9e82747cc573"},"vehicle_type_id":"4","last_reported":1745079047,"current_range_meters":8000,"station_id":"","pricing_plan_id":"cebpf4jnsgd1na2vs0mg"},{"bike_id":"9fe8c14c-2d24-41b2-9662-956cdf9f075c","system_id":"levelo_inurba_marseille","lat":43.24478,"lon":5.369175,"is_reserved":false,"is_disabled":false,"rental_uris":{"android":"levelo://app?vid=9fe8c14c-2d24-41b2-9662-956cdf9f075c","ios":"levelo://app?vid=9fe8c14c-2d24-41b2-9662-956cdf9f075c"},"vehicle_type_id":"4","last_reported":1745079047,"current_range_meters":8400,"station_id":"","pricing_plan_id":"cebpf4jnsgd1na2vs0mg"},{"bike_id":"82cf97f6-2d10-439b-a6f0-f962bacaaf34","system_id":"levelo_inurba_marseille","lat":43.3236,"lon":5.38926,"is_reserved":false,"is_disabled":false,"rental_uris":{"android":"levelo://app?vid=82cf97f6-2d10-439b-a6f0-f962bacaaf34","ios":"levelo://app?vid=82cf97f6-2d10-439b-a6f0-f962bacaaf34"},"vehicle_type_id":"4","last_reported":1745079047,"current_range_meters":8400,"station_id":"ce4bhqp2rcd13ifvqhog","pricing_plan_id":"cebpf4jnsgd1na2vs0mg"},{"bike_id":"f3db6b84-95ea-47eb-b4cd-d586544348cb","system_id":"levelo_inurba_marseille","lat":43.24168,"lon":5.36404,"is_reserved":false,"is_disabled":false,"rental_uris":{"android":"levelo://app?vid=f3db6b84-95ea-47eb-b4cd-d586544348cb","ios":"levelo://app?vid=f3db6b84-95ea-47eb-b4cd-d586544348cb"},"vehicle_type_id":"4","last_reported":1745079047,"current_range_meters":8400,"station_id":"cpo36qri1sfpv3e86is0","pricing_plan_id":"cebpf4jnsgd1na2vs0mg"},{"bike_id":"64231533-951d-40c6-9b62-ed2dda9a4a08","system_id":"levelo_inurba_marseille","lat":43.28709,"lon":5.37382,"is_reserved":false,"is_disabled":false,"rental_uris":{"android":"levelo://app?vid=64231533-951d-40c6-9b62-ed2dda9a4a08","ios":"levelo://app?vid=64231533-951d-40c6-9b62-ed2dda9a4a08"},"vehicle_type_id":"4","last_reported":1745079047,"current_range_meters":8400,"station_id":"ce4bh3p2rcd13ifvqdq0","pricing_plan_id":"cebpf4jnsgd1na2vs0mg"},{"bike_id":"fddec96f-f5c3-4088-93d2-e69e79757eaf","system_id":"levelo_inurba_marseille","lat":43.23152,"lon":5.43716,"is_reserved":false,"is_disabled":false,"rental_uris":{"android":"levelo://app?vid=fddec96f-f5c3-4088-93d2-e69e79757eaf","ios":"levelo://app?vid=fddec96f-f5c3-4088-93d2-e69e79757eaf"},"vehicle_type_id":"4","last_reported":1745079047,"current_range_meters":8400,"station_id":"ce4bhmp2rcd13ifvqgog","pricing_plan_id":"cebpf4jnsgd1na2vs0mg"},{"bike_id":"506029f3-934b-4b14-bf28-b9c4802540f9","system_id":"levelo_inurba_marseille","lat":43.23209,"lon":5.35549,"is_reserved":false,"is_disabled":false,"rental_uris":{"android":"levelo://app?vid=506029f3-934b-4b14-bf28-b9c4802540f9","ios":"levelo://app?vid=506029f3-934b-4b14-bf28-b9c4802540f9"},"vehicle_type_id":"4","last_reported":1745079047,"current_range_meters":8400,"station_id":"ce4bhu92rcd13ifvqi70","pricing_plan_id":"cebpf4jnsgd1na2vs0mg"},{"bike_id":"49b13d9b-13d2-4e00-b584-a20abcaa8379","system_id":"levelo_inurba_marseille","lat":43.30136,"lon":5.38823,"is_reserved":false,"is_disabled":false,"rental_uris":{"android":"levelo://app?vid=49b13d9b-13d2-4e00-b584-a20abcaa8379","ios":"levelo://app?vid=49b13d9b-13d2-4e00-b584-a20abcaa8379"},"vehicle_type_id":"4","last_reported":1745079047,"current_range_meters":8400,"station_id":"ce4bghh2rcd13ifvqb60","pricing_plan_id":"cebpf4jnsgd1na2vs0mg"},{"bike_id":"c4b08356-9e62-4277-aa08-9c70d06b3c27","system_id":"levelo_inurba_marseille","lat":43.27675,"lon":5.38873,"is_reserved":false,"is_disabled":false,"rental_uris":{"android":"levelo://app?vid=c4b08356-9e62-4277-aa08-9c70d06b3c27","ios":"levelo://app?vid=c4b08356-9e62-4277-aa08-9c70d06b3c27"},"vehicle_type_id":"4","last_reported":1745079047,"current_range_meters":8400,"station_id":"ce4bhi12rcd13ifvqfo0","pricing_plan_id":"cebpf4jnsgd1na2vs0mg"},{"bike_id":"b12280b5-47f8-46cf-8466-23414e65c72c","system_id":"levelo_inurba_marseille","lat":43.29901,"lon":5.43667,"is_reserved":false,"is_disabled":false,"rental_uris":{"android":"levelo://app?vid=b12280b5-47f8-46cf-8466-23414e65c72c","ios":"levelo://app?vid=b12280b5-47f8-46cf-8466-23414e65c72c"},"vehicle_type_id":"4","last_reported":1745079047,"current_range_meters":8400,"station_id":"ce4bhpp2rcd13ifvqhfg","pricing_plan_id":"cebpf4jnsgd1na2vs0mg"},{"bike_id":"96b65b93-0699-4423-b5f8-631114d23075","system_id":"levelo_inurba_marseille","lat":43.26561,"lon":5.37284,"is_reserved":false,"is_disabled":false,"rental_uris":{"android":"levelo://app?vid=96b65b93-0699-4423-b5f8-631114d23075","ios":"levelo://app?vid=96b65b93-0699-4423-b5f8-631114d23075"},"vehicle_type_id":"4","last_reported":1745079047,"current_range_meters":8800,"station_id":"ce4bhg12rcd13ifvqf70","pricing_plan_id":"cebpf4jnsgd1na2vs0mg"},{"bike_id":"2c7e4771-c869-434b-8176-3c975cdf12aa","system_id":"levelo_inurba_marseille","lat":43.298478,"lon":5.362747,"is_reserved":false,"is_disabled":false,"rental_uris":{"android":"levelo://app?vid=2c7e4771-c869-434b-8176-3c975cdf12aa","ios":"levelo://app?vid=2c7e4771-c869-434b-8176-3c975cdf12aa"},"vehicle_type_id":"4","last_reported":1745079047,"current_range_meters":6000,"station_id":"ce4bgpp2rcd13ifvqc3g","pricing_plan_id":"cebpf4jnsgd1na2vs0mg"},{"bike_id":"d800adbc-43f1-45d2-a8a2-e52bdf96e0cb","system_id":"levelo_inurba_marseille","lat":43.24065,"lon":5.37765,"is_reserved":false,"is_disabled":false,"rental_uris":{"android":"levelo://app?vid=d800adbc-43f1-45d2-a8a2-e52bdf96e0cb","ios":"levelo://app?vid=d800adbc-43f1-45d2-a8a2-e52bdf96e0cb"},"vehicle_type_id":"4","last_reported":1745079047,"current_range_meters":8800,"station_id":"ce4bhnp2rcd13ifvqgvg","pricing_plan_id":"cebpf4jnsgd1na2vs0mg"},{"bike_id":"c76dd66f-29b3-4a9f-9a70-c34fc13db86f","system_id":"levelo_inurba_marseille","lat":43.284029,"lon":5.375169,"is_reserved":false,"is_disabled":false,"rental_uris":{"android":"levelo://app?vid=c76dd66f-29b3-4a9f-9a70-c34fc13db86f","ios":"levelo://app?vid=c76dd66f-29b3-4a9f-9a70-c34fc13db86f"},"vehicle_type_id":"4","last_reported":1745079047,"current_range_meters":8800,"station_id":"ce4bh412rcd13ifvqds0","pricing_plan_id":"cebpf4jnsgd1na2vs0mg"},{"bike_id":"f6ba2129-4c99-433a-9ce5-8a3893340f52","system_id":"levelo_inurba_marseille","lat":43.24168,"lon":5.36412,"is_reserved":false,"is_disabled":false,"rental_uris":{"android":"levelo://app?vid=f6ba2129-4c99-433a-9ce5-8a3893340f52","ios":"levelo://app?vid=f6ba2129-4c99-433a-9ce5-8a3893340f52"},"vehicle_type_id":"4","last_reported":1745079047,"current_range_meters":8800,"station_id":"cpo36qri1sfpv3e86is0","pricing_plan_id":"cebpf4jnsgd1na2vs0mg"},{"bike_id":"58322c73-1223-4824-9f67-a48e510716f5","system_id":"levelo_inurba_marseille","lat":43.27565,"lon":5.38419,"is_reserved":false,"is_disabled":false,"rental_uris":{"android":"levelo://app?vid=58322c73-1223-4824-9f67-a48e510716f5","ios":"levelo://app?vid=58322c73-1223-4824-9f67-a48e510716f5"},"vehicle_type_id":"4","last_reported":1745079047,"current_range_meters":8400,"station_id":"ce4bhh92rcd13ifvqfi0","pricing_plan_id":"cebpf4jnsgd1na2vs0mg"},{"bike_id":"f2d4e09d-5627-4f9e-a42f-f7be8b02dfc7","system_id":"levelo_inurba_marseille","lat":43.28427,"lon":5.34998,"is_reserved":false,"is_disabled":false,"rental_uris":{"android":"levelo://app?vid=f2d4e09d-5627-4f9e-a42f-f7be8b02dfc7","ios":"levelo://app?vid=f2d4e09d-5627-4f9e-a42f-f7be8b02dfc7"},"vehicle_type_id":"4","last_reported":1745079047,"current_range_meters":8800,"station_id":"ce4bhbh2rcd13ifvqepg","pricing_plan_id":"cebpf4jnsgd1na2vs0mg"},{"bike_id":"3a791da5-1c98-4ea9-9749-3edc1cbf827a","system_id":"levelo_inurba_marseille","lat":43.31268,"lon":5.40167,"is_reserved":false,"is_disabled":false,"rental_uris":{"android":"levelo://app?vid=3a791da5-1c98-4ea9-9749-3edc1cbf827a","ios":"levelo://app?vid=3a791da5-1c98-4ea9-9749-3edc1cbf827a"},"vehicle_type_id":"4","last_reported":1745079047,"current_range_meters":8800,"station_id":"ce4bh092rcd13ifvqd30","pricing_plan_id":"cebpf4jnsgd1na2vs0mg"},{"bike_id":"0ece583b-6135-4b90-bfb7-b9b59c752a0c","system_id":"levelo_inurba_marseille","lat":43.30189,"lon":5.36622,"is_reserved":false,"is_disabled":false,"rental_uris":{"android":"levelo://app?vid=0ece583b-6135-4b90-bfb7-b9b59c752a0c","ios":"levelo://app?vid=0ece583b-6135-4b90-bfb7-b9b59c752a0c"},"vehicle_type_id":"4","last_reported":1745079047,"current_range_meters":8800,"station_id":"ce4bgrh2rcd13ifvqc8g","pricing_plan_id":"cebpf4jnsgd1na2vs0mg"},{"bike_id":"629cb732-65d4-4554-81b1-5e32804601e9","system_id":"levelo_inurba_marseille","lat":43.27314,"lon":5.39081,"is_reserved":false,"is_disabled":false,"rental_uris":{"android":"levelo://app?vid=629cb732-65d4-4554-81b1-5e32804601e9","ios":"levelo://app?vid=629cb732-65d4-4554-81b1-5e32804601e9"},"vehicle_type_id":"4","last_reported":1745079047,"current_range_meters":9200,"station_id":"ce4bhgp2rcd13ifvqfe0","pricing_plan_id":"cebpf4jnsgd1na2vs0mg"},{"bike_id":"3127a384-eaf2-4d50-966f-eaade2f216c9","system_id":"levelo_inurba_marseille","lat":43.285363,"lon":5.384001,"is_reserved":false,"is_disabled":false,"rental_uris":{"android":"levelo://app?vid=3127a384-eaf2-4d50-966f-eaade2f216c9","ios":"levelo://app?vid=3127a384-eaf2-4d50-966f-eaade2f216c9"},"vehicle_type_id":"4","last_reported":1745079047,"current_range_meters":9600,"station_id":"ce4bh3h2rcd13ifvqdo0","pricing_plan_id":"cebpf4jnsgd1na2vs0mg"},{"bike_id":"c532428a-d4d9-412f-af07-eb9541780f83","system_id":"levelo_inurba_marseille","lat":43.30079,"lon":5.39059,"is_reserved":false,"is_disabled":false,"rental_uris":{"android":"levelo://app?vid=c532428a-d4d9-412f-af07-eb9541780f83","ios":"levelo://app?vid=c532428a-d4d9-412f-af07-eb9541780f83"},"vehicle_type_id":"4","last_reported":1745079047,"current_range_meters":9600,"station_id":"ce4bh192rcd13ifvqdb0","pricing_plan_id":"cebpf4jnsgd1na2vs0mg"},{"bike_id":"0f1893a8-a23b-4ca2-8c98-0d8f78b63199","system_id":"levelo_inurba_marseille","lat":43.28421,"lon":5.35038,"is_reserved":false,"is_disabled":false,"rental_uris":{"android":"levelo://app?vid=0f1893a8-a23b-4ca2-8c98-0d8f78b63199","ios":"levelo://app?vid=0f1893a8-a23b-4ca2-8c98-0d8f78b63199"},"vehicle_type_id":"4","last_reported":1745079047,"current_range_meters":9600,"station_id":"","pricing_plan_id":"cebpf4jnsgd1na2vs0mg"},{"bike_id":"9c563b07-f6ef-474f-9829-c7d2a8bb17a8","system_id":"levelo_inurba_marseille","lat":43.26029,"lon":5.3755,"is_reserved":false,"is_disabled":false,"rental_uris":{"android":"levelo://app?vid=9c563b07-f6ef-474f-9829-c7d2a8bb17a8","ios":"levelo://app?vid=9c563b07-f6ef-474f-9829-c7d2a8bb17a8"},"vehicle_type_id":"4","last_reported":1745079047,"current_range_meters":9600,"station_id":"ce4bhgh2rcd13ifvqfa0","pricing_plan_id":"cebpf4jnsgd1na2vs0mg"},{"bike_id":"eeaf6715-6d60-46b9-b256-16855f00b1ae","system_id":"levelo_inurba_marseille","lat":43.26781,"lon":5.39422,"is_reserved":false,"is_disabled":false,"rental_uris":{"android":"levelo://app?vid=eeaf6715-6d60-46b9-b256-16855f00b1ae","ios":"levelo://app?vid=eeaf6715-6d60-46b9-b256-16855f00b1ae"},"vehicle_type_id":"4","last_reported":1745079047,"current_range_meters":9600,"station_id":"ce4bhh12rcd13ifvqfg0","pricing_plan_id":"cebpf4jnsgd1na2vs0mg"},{"bike_id":"b1866b71-43d3-4fa1-87e4-c20c06c85e50","system_id":"levelo_inurba_marseille","lat":43.24548,"lon":5.39532,"is_reserved":false,"is_disabled":false,"rental_uris":{"android":"levelo://app?vid=b1866b71-43d3-4fa1-87e4-c20c06c85e50","ios":"levelo://app?vid=b1866b71-43d3-4fa1-87e4-c20c06c85e50"},"vehicle_type_id":"4","last_reported":1745079047,"current_range_meters":9600,"station_id":"ce4bhlp2rcd13ifvqgjg","pricing_plan_id":"cebpf4jnsgd1na2vs0mg"},{"bike_id":"d5ca498f-53fb-495d-b440-f96ed572d532","system_id":"levelo_inurba_marseille","lat":43.28412,"lon":5.3498,"is_reserved":false,"is_disabled":false,"rental_uris":{"android":"levelo://app?vid=d5ca498f-53fb-495d-b440-f96ed572d532","ios":"levelo://app?vid=d5ca498f-53fb-495d-b440-f96ed572d532"},"vehicle_type_id":"4","last_reported":1745079047,"current_range_meters":10000,"station_id":"ce4bhbh2rcd13ifvqepg","pricing_plan_id":"cebpf4jnsgd1na2vs0mg"},{"bike_id":"1eaca8f5-0017-418a-9bfc-52185bf67513","system_id":"levelo_inurba_marseille","lat":43.33729,"lon":5.39192,"is_reserved":false,"is_disabled":false,"rental_uris":{"android":"levelo://app?vid=1eaca8f5-0017-418a-9bfc-52185bf67513","ios":"levelo://app?vid=1eaca8f5-0017-418a-9bfc-52185bf67513"},"vehicle_type_id":"4","last_reported":1745079047,"current_range_meters":10000,"station_id":"ce4bhr92rcd13ifvqhsg","pricing_plan_id":"cebpf4jnsgd1na2vs0mg"},{"bike_id":"fd8995a2-c23c-4f1f-b827-f7deb82fd890","system_id":"levelo_inurba_marseille","lat":43.28622,"lon":5.3511,"is_reserved":false,"is_disabled":false,"rental_uris":{"android":"levelo://app?vid=fd8995a2-c23c-4f1f-b827-f7deb82fd890","ios":"levelo://app?vid=fd8995a2-c23c-4f1f-b827-f7deb82fd890"},"vehicle_type_id":"4","last_reported":1745079047,"current_range_meters":10000,"station_id":"ce4bhch2rcd13ifvqeug","pricing_plan_id":"cebpf4jnsgd1na2vs0mg"},{"bike_id":"e37797b0-4703-4a60-8f72-f671028e5da0","system_id":"levelo_inurba_marseille","lat":43.28708,"lon":5.37384,"is_reserved":false,"is_disabled":false,"rental_uris":{"android":"levelo://app?vid=e37797b0-4703-4a60-8f72-f671028e5da0","ios":"levelo://app?vid=e37797b0-4703-4a60-8f72-f671028e5da0"},"vehicle_type_id":"4","last_reported":1745079047,"current_range_meters":10000,"station_id":"ce4bh3p2rcd13ifvqdq0","pricing_plan_id":"cebpf4jnsgd1na2vs0mg"},{"bike_id":"1965f819-3778-4654-96e5-aaaf9c36cc08","system_id":"levelo_inurba_marseille","lat":43.30389,"lon":5.42491,"is_reserved":false,"is_disabled":false,"rental_uris":{"android":"levelo://app?vid=1965f819-3778-4654-96e5-aaaf9c36cc08","ios":"levelo://app?vid=1965f819-3778-4654-96e5-aaaf9c36cc08"},"vehicle_type_id":"4","last_reported":1745079047,"current_range_meters":10000,"station_id":"ce4bhoh2rcd13ifvqh6g","pricing_plan_id":"cebpf4jnsgd1na2vs0mg"},{"bike_id":"0b40943d-b526-41fb-810d-35e7e3139bd0","system_id":"levelo_inurba_marseille","lat":43.30937,"lon":5.39067,"is_reserved":false,"is_disabled":false,"rental_uris":{"android":"levelo://app?vid=0b40943d-b526-41fb-810d-35e7e3139bd0","ios":"levelo://app?vid=0b40943d-b526-41fb-810d-35e7e3139bd0"},"vehicle_type_id":"4","last_reported":1745079047,"current_range_meters":10800,"station_id":"ce4bgup2rcd13ifvqco0","pricing_plan_id":"cebpf4jnsgd1na2vs0mg"},{"bike_id":"186380b9-3dab-457b-b648-71d123fa0368","system_id":"levelo_inurba_marseille","lat":43.251089,"lon":5.403294,"is_reserved":false,"is_disabled":true,"rental_uris":{"android":"levelo://app?vid=186380b9-3dab-457b-b648-71d123fa0368","ios":"levelo://app?vid=186380b9-3dab-457b-b648-71d123fa0368"},"vehicle_type_id":"4","last_reported":1745079047,"current_range_meters":10000,"station_id":"ce4bhlh2rcd13ifvqgig","pricing_plan_id":"cebpf4jnsgd1na2vs0mg"},{"bike_id":"b786b74c-e715-47b8-b859-d3763f56ed6c","system_id":"levelo_inurba_marseille","lat":43.29022,"lon":5.38143,"is_reserved":false,"is_disabled":false,"rental_uris":{"android":"levelo://app?vid=b786b74c-e715-47b8-b859-d3763f56ed6c","ios":"levelo://app?vid=b786b74c-e715-47b8-b859-d3763f56ed6c"},"vehicle_type_id":"4","last_reported":1745079047,"current_range_meters":10000,"station_id":"ce4bh4p2rcd13ifvqe1g","pricing_plan_id":"cebpf4jnsgd1na2vs0mg"},{"bike_id":"93ebeb62-3ff0-4bb3-9862-d905c7eb4ec7","system_id":"levelo_inurba_marseille","lat":43.295151,"lon":5.395715,"is_reserved":false,"is_disabled":false,"rental_uris":{"android":"levelo://app?vid=93ebeb62-3ff0-4bb3-9862-d905c7eb4ec7","ios":"levelo://app?vid=93ebeb62-3ff0-4bb3-9862-d905c7eb4ec7"},"vehicle_type_id":"4","last_reported":1745079047,"current_range_meters":10800,"station_id":"ce4bh292rcd13ifvqdf0","pricing_plan_id":"cebpf4jnsgd1na2vs0mg"},{"bike_id":"106c5265-7c1a-45be-9031-3c55f8880986","system_id":"levelo_inurba_marseille","lat":43.26205,"lon":5.37945,"is_reserved":false,"is_disabled":false,"rental_uris":{"android":"levelo://app?vid=106c5265-7c1a-45be-9031-3c55f8880986","ios":"levelo://app?vid=106c5265-7c1a-45be-9031-3c55f8880986"},"vehicle_type_id":"4","last_reported":1745079047,"current_range_meters":10800,"station_id":"ce4bhjp2rcd13ifvqg90","pricing_plan_id":"cebpf4jnsgd1na2vs0mg"},{"bike_id":"6b2a2f68-fd74-4a24-a495-23dd8d3467f4","system_id":"levelo_inurba_marseille","lat":43.21195,"lon":5.35069,"is_reserved":false,"is_disabled":false,"rental_uris":{"android":"levelo://app?vid=6b2a2f68-fd74-4a24-a495-23dd8d3467f4","ios":"levelo://app?vid=6b2a2f68-fd74-4a24-a495-23dd8d3467f4"},"vehicle_type_id":"4","last_reported":1745079047,"current_range_meters":10800,"station_id":"st_cvj6sg6p6f1abm77japg","pricing_plan_id":"cebpf4jnsgd1na2vs0mg"},{"bike_id":"d908d3f0-36b8-46a4-9e55-91a3816728ec","system_id":"levelo_inurba_marseille","lat":43.24665,"lon":5.38151,"is_reserved":false,"is_disabled":false,"rental_uris":{"android":"levelo://app?vid=d908d3f0-36b8-46a4-9e55-91a3816728ec","ios":"levelo://app?vid=d908d3f0-36b8-46a4-9e55-91a3816728ec"},"vehicle_type_id":"4","last_reported":1745079047,"current_range_meters":10800,"station_id":"ce4bhih2rcd13ifvqfr0","pricing_plan_id":"cebpf4jnsgd1na2vs0mg"},{"bike_id":"9419630c-68c6-4d86-950a-bfd0f360fa62","system_id":"levelo_inurba_marseille","lat":43.30138,"lon":5.38781,"is_reserved":false,"is_disabled":false,"rental_uris":{"android":"levelo://app?vid=9419630c-68c6-4d86-950a-bfd0f360fa62","ios":"levelo://app?vid=9419630c-68c6-4d86-950a-bfd0f360fa62"},"vehicle_type_id":"4","last_reported":1745079047,"current_range_meters":10800,"station_id":"ce4bghh2rcd13ifvqb60","pricing_plan_id":"cebpf4jnsgd1na2vs0mg"},{"bike_id":"22583896-a653-48d4-8b37-6cfca0e7be93","system_id":"levelo_inurba_marseille","lat":43.21201,"lon":5.35084,"is_reserved":false,"is_disabled":false,"rental_uris":{"android":"levelo://app?vid=22583896-a653-48d4-8b37-6cfca0e7be93","ios":"levelo://app?vid=22583896-a653-48d4-8b37-6cfca0e7be93"},"vehicle_type_id":"4","last_reported":1745079047,"current_range_meters":10800,"station_id":"st_cvj6sg6p6f1abm77japg","pricing_plan_id":"cebpf4jnsgd1na2vs0mg"},{"bike_id":"776b9734-a61c-4372-813c-cd088841282e","system_id":"levelo_inurba_marseille","lat":43.30599,"lon":5.39356,"is_reserved":false,"is_disabled":false,"rental_uris":{"android":"levelo://app?vid=776b9734-a61c-4372-813c-cd088841282e","ios":"levelo://app?vid=776b9734-a61c-4372-813c-cd088841282e"},"vehicle_type_id":"4","last_reported":1745079047,"current_range_meters":10800,"station_id":"ce4bh0p2rcd13ifvqd80","pricing_plan_id":"cebpf4jnsgd1na2vs0mg"},{"bike_id":"811f7924-da6d-45f2-95f9-b27423e454fc","system_id":"levelo_inurba_marseille","lat":43.31367,"lon":5.38503,"is_reserved":false,"is_disabled":false,"rental_uris":{"android":"levelo://app?vid=811f7924-da6d-45f2-95f9-b27423e454fc","ios":"levelo://app?vid=811f7924-da6d-45f2-95f9-b27423e454fc"},"vehicle_type_id":"4","last_reported":1745079047,"current_range_meters":11200,"station_id":"ce4bgt92rcd13ifvqcf0","pricing_plan_id":"cebpf4jnsgd1na2vs0mg"},{"bike_id":"b9324012-7dc4-4232-be19-e0779d7d124d","system_id":"levelo_inurba_marseille","lat":43.27922,"lon":5.39575,"is_reserved":false,"is_disabled":false,"rental_uris":{"android":"levelo://app?vid=b9324012-7dc4-4232-be19-e0779d7d124d","ios":"levelo://app?vid=b9324012-7dc4-4232-be19-e0779d7d124d"},"vehicle_type_id":"4","last_reported":1745079047,"current_range_meters":11200,"station_id":"ce4bhf92rcd13ifvqf40","pricing_plan_id":"cebpf4jnsgd1na2vs0mg"},{"bike_id":"904fb01d-7241-46ce-a67c-332bfceba3ad","system_id":"levelo_inurba_marseille","lat":43.28417,"lon":5.34984,"is_reserved":false,"is_disabled":false,"rental_uris":{"android":"levelo://app?vid=904fb01d-7241-46ce-a67c-332bfceba3ad","ios":"levelo://app?vid=904fb01d-7241-46ce-a67c-332bfceba3ad"},"vehicle_type_id":"4","last_reported":1745079047,"current_range_meters":11200,"station_id":"ce4bhbh2rcd13ifvqepg","pricing_plan_id":"cebpf4jnsgd1na2vs0mg"},{"bike_id":"d6f6d1cf-2b99-4dfb-a8d2-2dfd48bdc8d1","system_id":"levelo_inurba_marseille","lat":43.25827,"lon":5.39443,"is_reserved":false,"is_disabled":false,"rental_uris":{"android":"levelo://app?vid=d6f6d1cf-2b99-4dfb-a8d2-2dfd48bdc8d1","ios":"levelo://app?vid=d6f6d1cf-2b99-4dfb-a8d2-2dfd48bdc8d1"},"vehicle_type_id":"4","last_reported":1745079047,"current_range_meters":11600,"station_id":"ce4bhip2rcd13ifvqft0","pricing_plan_id":"cebpf4jnsgd1na2vs0mg"},{"bike_id":"97e50bb0-9a70-481b-b370-e509345e710a","system_id":"levelo_inurba_marseille","lat":43.28043,"lon":5.36946,"is_reserved":false,"is_disabled":true,"rental_uris":{"android":"levelo://app?vid=97e50bb0-9a70-481b-b370-e509345e710a","ios":"levelo://app?vid=97e50bb0-9a70-481b-b370-e509345e710a"},"vehicle_type_id":"4","last_reported":1745079047,"current_range_meters":11600,"station_id":"ce4bha12rcd13ifvqef0","pricing_plan_id":"cebpf4jnsgd1na2vs0mg"},{"bike_id":"9971c5e6-74cf-4d05-9107-4fcaae6e2c46","system_id":"levelo_inurba_marseille","lat":43.25577,"lon":5.3823,"is_reserved":false,"is_disabled":false,"rental_uris":{"android":"levelo://app?vid=9971c5e6-74cf-4d05-9107-4fcaae6e2c46","ios":"levelo://app?vid=9971c5e6-74cf-4d05-9107-4fcaae6e2c46"},"vehicle_type_id":"4","last_reported":1745079047,"current_range_meters":11600,"station_id":"ce4bhih2rcd13ifvqfs0","pricing_plan_id":"cebpf4jnsgd1na2vs0mg"},{"bike_id":"7f6e7578-55ac-41a1-8441-15abc37900d0","system_id":"levelo_inurba_marseille","lat":43.31272,"lon":5.40172,"is_reserved":false,"is_disabled":false,"rental_uris":{"android":"levelo://app?vid=7f6e7578-55ac-41a1-8441-15abc37900d0","ios":"levelo://app?vid=7f6e7578-55ac-41a1-8441-15abc37900d0"},"vehicle_type_id":"4","last_reported":1745079047,"current_range_meters":11600,"station_id":"ce4bh092rcd13ifvqd30","pricing_plan_id":"cebpf4jnsgd1na2vs0mg"},{"bike_id":"f0b6af0d-1cbf-47a3-af07-dab09fabbbf0","system_id":"levelo_inurba_marseille","lat":43.23197,"lon":5.35549,"is_reserved":false,"is_disabled":false,"rental_uris":{"android":"levelo://app?vid=f0b6af0d-1cbf-47a3-af07-dab09fabbbf0","ios":"levelo://app?vid=f0b6af0d-1cbf-47a3-af07-dab09fabbbf0"},"vehicle_type_id":"4","last_reported":1745079047,"current_range_meters":11600,"station_id":"ce4bhu92rcd13ifvqi70","pricing_plan_id":"cebpf4jnsgd1na2vs0mg"},{"bike_id":"37b99f94-33af-4185-a3a9-84d0bc5829a3","system_id":"levelo_inurba_marseille","lat":43.292816,"lon":5.368692,"is_reserved":false,"is_disabled":false,"rental_uris":{"android":"levelo://app?vid=37b99f94-33af-4185-a3a9-84d0bc5829a3","ios":"levelo://app?vid=37b99f94-33af-4185-a3a9-84d0bc5829a3"},"vehicle_type_id":"4","last_reported":1745079047,"current_range_meters":11600,"station_id":"ce4bhbp2rcd13ifvqesg","pricing_plan_id":"cebpf4jnsgd1na2vs0mg"},{"bike_id":"5e52db98-9990-426b-aa8e-a15df3e57174","system_id":"levelo_inurba_marseille","lat":43.29366,"lon":5.37863,"is_reserved":false,"is_disabled":false,"rental_uris":{"android":"levelo://app?vid=5e52db98-9990-426b-aa8e-a15df3e57174","ios":"levelo://app?vid=5e52db98-9990-426b-aa8e-a15df3e57174"},"vehicle_type_id":"4","last_reported":1745079047,"current_range_meters":12000,"station_id":"ce4bgjh2rcd13ifvqbf0","pricing_plan_id":"cebpf4jnsgd1na2vs0mg"},{"bike_id":"496e3ffc-7928-4374-9cca-866bdff4fbf2","system_id":"levelo_inurba_marseille","lat":43.30538,"lon":5.36561,"is_reserved":false,"is_disabled":false,"rental_uris":{"android":"levelo://app?vid=496e3ffc-7928-4374-9cca-866bdff4fbf2","ios":"levelo://app?vid=496e3ffc-7928-4374-9cca-866bdff4fbf2"},"vehicle_type_id":"4","last_reported":1745079047,"current_range_meters":12000,"station_id":"ce4bgs12rcd13ifvqcag","pricing_plan_id":"cebpf4jnsgd1na2vs0mg"},{"bike_id":"4a80dc29-bee4-4e5c-a7e2-4a272a729ff5","system_id":"levelo_inurba_marseille","lat":43.2991,"lon":5.38135,"is_reserved":false,"is_disabled":false,"rental_uris":{"android":"levelo://app?vid=4a80dc29-bee4-4e5c-a7e2-4a272a729ff5","ios":"levelo://app?vid=4a80dc29-bee4-4e5c-a7e2-4a272a729ff5"},"vehicle_type_id":"4","last_reported":1745079047,"current_range_meters":12000,"station_id":"ce4bgj12rcd13ifvqbc0","pricing_plan_id":"cebpf4jnsgd1na2vs0mg"},{"bike_id":"fa1083ce-7c9f-4659-91c9-b9b7f0d5541d","system_id":"levelo_inurba_marseille","lat":43.301295,"lon":5.398593,"is_reserved":false,"is_disabled":false,"rental_uris":{"android":"levelo://app?vid=fa1083ce-7c9f-4659-91c9-b9b7f0d5541d","ios":"levelo://app?vid=fa1083ce-7c9f-4659-91c9-b9b7f0d5541d"},"vehicle_type_id":"4","last_reported":1745079047,"current_range_meters":12000,"station_id":"ce4bh0h2rcd13ifvqd40","pricing_plan_id":"cebpf4jnsgd1na2vs0mg"},{"bike_id":"714d80aa-3c31-4d54-8673-bc7fa636022e","system_id":"levelo_inurba_marseille","lat":43.295502,"lon":5.37517,"is_reserved":false,"is_disabled":false,"rental_uris":{"android":"levelo://app?vid=714d80aa-3c31-4d54-8673-bc7fa636022e","ios":"levelo://app?vid=714d80aa-3c31-4d54-8673-bc7fa636022e"},"vehicle_type_id":"4","last_reported":1745079047,"current_range_meters":12000,"station_id":"ce4bgn12rcd13ifvqbt0","pricing_plan_id":"cebpf4jnsgd1na2vs0mg"},{"bike_id":"cd96520b-718b-4f61-82af-568b9d17577f","system_id":"levelo_inurba_marseille","lat":43.313536,"lon":5.384967,"is_reserved":false,"is_disabled":false,"rental_uris":{"android":"levelo://app?vid=cd96520b-718b-4f61-82af-568b9d17577f","ios":"levelo://app?vid=cd96520b-718b-4f61-82af-568b9d17577f"},"vehicle_type_id":"4","last_reported":1745079047,"current_range_meters":12000,"station_id":"ce4bgt92rcd13ifvqcf0","pricing_plan_id":"cebpf4jnsgd1na2vs0mg"},{"bike_id":"60659776-7102-4c54-88fa-359dde42a8b5","system_id":"levelo_inurba_marseille","lat":43.29713,"lon":5.36615,"is_reserved":false,"is_disabled":false,"rental_uris":{"android":"levelo://app?vid=60659776-7102-4c54-88fa-359dde42a8b5","ios":"levelo://app?vid=60659776-7102-4c54-88fa-359dde42a8b5"},"vehicle_type_id":"4","last_reported":1745079047,"current_range_meters":12400,"station_id":"ce4bgn92rcd13ifvqbvg","pricing_plan_id":"cebpf4jnsgd1na2vs0mg"},{"bike_id":"f2db642b-f88f-4a3d-846f-4ac598df0bca","system_id":"levelo_inurba_marseille","lat":43.25869,"lon":5.3991,"is_reserved":false,"is_disabled":false,"rental_uris":{"android":"levelo://app?vid=f2db642b-f88f-4a3d-846f-4ac598df0bca","ios":"levelo://app?vid=f2db642b-f88f-4a3d-846f-4ac598df0bca"},"vehicle_type_id":"4","last_reported":1745079047,"current_range_meters":11600,"station_id":"ce4bhl92rcd13ifvqghg","pricing_plan_id":"cebpf4jnsgd1na2vs0mg"},{"bike_id":"4500bcf7-bacd-47ce-8256-01f941bfb534","system_id":"levelo_inurba_marseille","lat":43.29534,"lon":5.37512,"is_reserved":false,"is_disabled":true,"rental_uris":{"android":"levelo://app?vid=4500bcf7-bacd-47ce-8256-01f941bfb534","ios":"levelo://app?vid=4500bcf7-bacd-47ce-8256-01f941bfb534"},"vehicle_type_id":"4","last_reported":1745079047,"current_range_meters":12800,"station_id":"ce4bgkp2rcd13ifvqbmg","pricing_plan_id":"cebpf4jnsgd1na2vs0mg"},{"bike_id":"cd8030b6-9fe0-4ff3-9f1c-cf4818a9a913","system_id":"levelo_inurba_marseille","lat":43.29363,"lon":5.37858,"is_reserved":false,"is_disabled":false,"rental_uris":{"android":"levelo://app?vid=cd8030b6-9fe0-4ff3-9f1c-cf4818a9a913","ios":"levelo://app?vid=cd8030b6-9fe0-4ff3-9f1c-cf4818a9a913"},"vehicle_type_id":"4","last_reported":1745079047,"current_range_meters":12800,"station_id":"ce4bgjh2rcd13ifvqbf0","pricing_plan_id":"cebpf4jnsgd1na2vs0mg"},{"bike_id":"0a2875ca-0ec2-4a6f-8708-ebe27439ce18","system_id":"levelo_inurba_marseille","lat":43.31691,"lon":5.40476,"is_reserved":false,"is_disabled":false,"rental_uris":{"android":"levelo://app?vid=0a2875ca-0ec2-4a6f-8708-ebe27439ce18","ios":"levelo://app?vid=0a2875ca-0ec2-4a6f-8708-ebe27439ce18"},"vehicle_type_id":"4","last_reported":1745079047,"current_range_meters":12800,"station_id":"ce4bh012rcd13ifvqd00","pricing_plan_id":"cebpf4jnsgd1na2vs0mg"},{"bike_id":"faf63310-3836-4ba3-b9b5-94e8e06c30b2","system_id":"levelo_inurba_marseille","lat":43.2954,"lon":5.39394,"is_reserved":false,"is_disabled":false,"rental_uris":{"android":"levelo://app?vid=faf63310-3836-4ba3-b9b5-94e8e06c30b2","ios":"levelo://app?vid=faf63310-3836-4ba3-b9b5-94e8e06c30b2"},"vehicle_type_id":"4","last_reported":1745079047,"current_range_meters":12800,"station_id":"ce4bh292rcd13ifvqdf0","pricing_plan_id":"cebpf4jnsgd1na2vs0mg"},{"bike_id":"b518fc68-29a3-468a-a613-0d45cc3ce4d9","system_id":"levelo_inurba_marseille","lat":43.28658,"lon":5.36364,"is_reserved":false,"is_disabled":false,"rental_uris":{"android":"levelo://app?vid=b518fc68-29a3-468a-a613-0d45cc3ce4d9","ios":"levelo://app?vid=b518fc68-29a3-468a-a613-0d45cc3ce4d9"},"vehicle_type_id":"4","last_reported":1745079047,"current_range_meters":12800,"station_id":"ce4bhah2rcd13ifvqej0","pricing_plan_id":"cebpf4jnsgd1na2vs0mg"},{"bike_id":"8ba832e3-5a2f-49e6-87ce-b9caa665014a","system_id":"levelo_inurba_marseille","lat":43.28044,"lon":5.36943,"is_reserved":false,"is_disabled":false,"rental_uris":{"android":"levelo://app?vid=8ba832e3-5a2f-49e6-87ce-b9caa665014a","ios":"levelo://app?vid=8ba832e3-5a2f-49e6-87ce-b9caa665014a"},"vehicle_type_id":"4","last_reported":1745079047,"current_range_meters":12800,"station_id":"ce4bha12rcd13ifvqef0","pricing_plan_id":"cebpf4jnsgd1na2vs0mg"},{"bike_id":"09e2029e-98bc-4b25-895b-5bb68587da52","system_id":"levelo_inurba_marseille","lat":43.296016,"lon":5.386387,"is_reserved":false,"is_disabled":false,"rental_uris":{"android":"levelo://app?vid=09e2029e-98bc-4b25-895b-5bb68587da52","ios":"levelo://app?vid=09e2029e-98bc-4b25-895b-5bb68587da52"},"vehicle_type_id":"4","last_reported":1745079047,"current_range_meters":13600,"station_id":"ce4bgk12rcd13ifvqbi0","pricing_plan_id":"cebpf4jnsgd1na2vs0mg"},{"bike_id":"24213b37-b766-4d9c-a174-f6bf34920497","system_id":"levelo_inurba_marseille","lat":43.28469,"lon":5.384178,"is_reserved":false,"is_disabled":false,"rental_uris":{"android":"levelo://app?vid=24213b37-b766-4d9c-a174-f6bf34920497","ios":"levelo://app?vid=24213b37-b766-4d9c-a174-f6bf34920497"},"vehicle_type_id":"4","last_reported":1745079047,"current_range_meters":13600,"station_id":"ce4bh512rcd13ifvqe3g","pricing_plan_id":"cebpf4jnsgd1na2vs0mg"},{"bike_id":"97608968-192f-401a-bb03-2f393f53d9a4","system_id":"levelo_inurba_marseille","lat":43.28157,"lon":5.42642,"is_reserved":false,"is_disabled":false,"rental_uris":{"android":"levelo://app?vid=97608968-192f-401a-bb03-2f393f53d9a4","ios":"levelo://app?vid=97608968-192f-401a-bb03-2f393f53d9a4"},"vehicle_type_id":"4","last_reported":1745079047,"current_range_meters":13600,"station_id":"ce4bhnh2rcd13ifvqgug","pricing_plan_id":"cebpf4jnsgd1na2vs0mg"},{"bike_id":"9602d992-c71d-4db2-a039-8f9f77312df1","system_id":"levelo_inurba_marseille","lat":43.28443,"lon":5.392,"is_reserved":false,"is_disabled":false,"rental_uris":{"android":"levelo://app?vid=9602d992-c71d-4db2-a039-8f9f77312df1","ios":"levelo://app?vid=9602d992-c71d-4db2-a039-8f9f77312df1"},"vehicle_type_id":"4","last_reported":1745079047,"current_range_meters":13600,"station_id":"ce4bhoh2rcd13ifvqh5g","pricing_plan_id":"cebpf4jnsgd1na2vs0mg"},{"bike_id":"0acd89bb-62a8-41a6-858f-3373ff91395a","system_id":"levelo_inurba_marseille","lat":43.29175,"lon":5.37156,"is_reserved":false,"is_disabled":false,"rental_uris":{"android":"levelo://app?vid=0acd89bb-62a8-41a6-858f-3373ff91395a","ios":"levelo://app?vid=0acd89bb-62a8-41a6-858f-3373ff91395a"},"vehicle_type_id":"4","last_reported":1745079047,"current_range_meters":13600,"station_id":"ce4bha92rcd13ifvqeh0","pricing_plan_id":"cebpf4jnsgd1na2vs0mg"},{"bike_id":"4e6892ef-dbe3-43e4-bc69-b2da5d802c90","system_id":"levelo_inurba_marseille","lat":43.27387,"lon":5.36256,"is_reserved":false,"is_disabled":true,"rental_uris":{"android":"levelo://app?vid=4e6892ef-dbe3-43e4-bc69-b2da5d802c90","ios":"levelo://app?vid=4e6892ef-dbe3-43e4-bc69-b2da5d802c90"},"vehicle_type_id":"4","last_reported":1745079047,"current_range_meters":14000,"station_id":"ce4bhbh2rcd13ifvqeo0","pricing_plan_id":"cebpf4jnsgd1na2vs0mg"},{"bike_id":"84f5b40f-e167-435d-b2cb-8f97efffc66b","system_id":"levelo_inurba_marseille","lat":43.28941,"lon":5.36384,"is_reserved":false,"is_disabled":false,"rental_uris":{"android":"levelo://app?vid=84f5b40f-e167-435d-b2cb-8f97efffc66b","ios":"levelo://app?vid=84f5b40f-e167-435d-b2cb-8f97efffc66b"},"vehicle_type_id":"4","last_reported":1745079047,"current_range_meters":14000,"station_id":"ce4bhc92rcd13ifvqetg","pricing_plan_id":"cebpf4jnsgd1na2vs0mg"},{"bike_id":"49a1d797-b941-4171-af94-57eb3416bda4","system_id":"levelo_inurba_marseille","lat":43.30809,"lon":5.43556,"is_reserved":false,"is_disabled":false,"rental_uris":{"android":"levelo://app?vid=49a1d797-b941-4171-af94-57eb3416bda4","ios":"levelo://app?vid=49a1d797-b941-4171-af94-57eb3416bda4"},"vehicle_type_id":"4","last_reported":1745079047,"current_range_meters":14000,"station_id":"ce4bhph2rcd13ifvqheg","pricing_plan_id":"cebpf4jnsgd1na2vs0mg"},{"bike_id":"a7365d94-3c13-45f7-8410-092b80c6163d","system_id":"levelo_inurba_marseille","lat":43.28411,"lon":5.37517,"is_reserved":false,"is_disabled":true,"rental_uris":{"android":"levelo://app?vid=a7365d94-3c13-45f7-8410-092b80c6163d","ios":"levelo://app?vid=a7365d94-3c13-45f7-8410-092b80c6163d"},"vehicle_type_id":"4","last_reported":1745079047,"current_range_meters":14000,"station_id":"ce4bh412rcd13ifvqds0","pricing_plan_id":"cebpf4jnsgd1na2vs0mg"},{"bike_id":"4cdb0a0f-6366-43af-85c7-3c43d75a4386","system_id":"levelo_inurba_marseille","lat":43.29674,"lon":5.37755,"is_reserved":false,"is_disabled":false,"rental_uris":{"android":"levelo://app?vid=4cdb0a0f-6366-43af-85c7-3c43d75a4386","ios":"levelo://app?vid=4cdb0a0f-6366-43af-85c7-3c43d75a4386"},"vehicle_type_id":"4","last_reported":1745079047,"current_range_meters":14400,"station_id":"","pricing_plan_id":"cebpf4jnsgd1na2vs0mg"},{"bike_id":"527fac75-0783-4b2c-bd4e-07f2f2fee902","system_id":"levelo_inurba_marseille","lat":43.31125,"lon":5.37791,"is_reserved":false,"is_disabled":true,"rental_uris":{"android":"levelo://app?vid=527fac75-0783-4b2c-bd4e-07f2f2fee902","ios":"levelo://app?vid=527fac75-0783-4b2c-bd4e-07f2f2fee902"},"vehicle_type_id":"4","last_reported":1745079047,"current_range_meters":14400,"station_id":"ce4bgt92rcd13ifvqcg0","pricing_plan_id":"cebpf4jnsgd1na2vs0mg"},{"bike_id":"44c2515b-ff63-4bac-a0f9-f4fef656ac10","system_id":"levelo_inurba_marseille","lat":43.28413,"lon":5.35002,"is_reserved":false,"is_disabled":false,"rental_uris":{"android":"levelo://app?vid=44c2515b-ff63-4bac-a0f9-f4fef656ac10","ios":"levelo://app?vid=44c2515b-ff63-4bac-a0f9-f4fef656ac10"},"vehicle_type_id":"4","last_reported":1745079047,"current_range_meters":14400,"station_id":"ce4bhbh2rcd13ifvqepg","pricing_plan_id":"cebpf4jnsgd1na2vs0mg"},{"bike_id":"597236d8-ee38-4d6f-b6ab-d41b8c4bd7ed","system_id":"levelo_inurba_marseille","lat":43.29017,"lon":5.35593,"is_reserved":false,"is_disabled":false,"rental_uris":{"android":"levelo://app?vid=597236d8-ee38-4d6f-b6ab-d41b8c4bd7ed","ios":"levelo://app?vid=597236d8-ee38-4d6f-b6ab-d41b8c4bd7ed"},"vehicle_type_id":"4","last_reported":1745079047,"current_range_meters":14400,"station_id":"ce4bhb92rcd13ifvqen0","pricing_plan_id":"cebpf4jnsgd1na2vs0mg"},{"bike_id":"c5ac8cd9-dc4f-4056-94b0-74e912558238","system_id":"levelo_inurba_marseille","lat":43.30801,"lon":5.4352,"is_reserved":false,"is_disabled":false,"rental_uris":{"android":"levelo://app?vid=c5ac8cd9-dc4f-4056-94b0-74e912558238","ios":"levelo://app?vid=c5ac8cd9-dc4f-4056-94b0-74e912558238"},"vehicle_type_id":"4","last_reported":1745079047,"current_range_meters":14800,"station_id":"ce4bhph2rcd13ifvqheg","pricing_plan_id":"cebpf4jnsgd1na2vs0mg"},{"bike_id":"6b541bda-a156-4f2f-a627-148ede068197","system_id":"levelo_inurba_marseille","lat":43.2583,"lon":5.39436,"is_reserved":false,"is_disabled":false,"rental_uris":{"android":"levelo://app?vid=6b541bda-a156-4f2f-a627-148ede068197","ios":"levelo://app?vid=6b541bda-a156-4f2f-a627-148ede068197"},"vehicle_type_id":"4","last_reported":1745079047,"current_range_meters":14400,"station_id":"ce4bhip2rcd13ifvqft0","pricing_plan_id":"cebpf4jnsgd1na2vs0mg"},{"bike_id":"47d8a6ba-1ca6-4395-9b79-411e9f70ad91","system_id":"levelo_inurba_marseille","lat":43.28156,"lon":5.42644,"is_reserved":false,"is_disabled":false,"rental_uris":{"android":"levelo://app?vid=47d8a6ba-1ca6-4395-9b79-411e9f70ad91","ios":"levelo://app?vid=47d8a6ba-1ca6-4395-9b79-411e9f70ad91"},"vehicle_type_id":"4","last_reported":1745079047,"current_range_meters":14800,"station_id":"ce4bhnh2rcd13ifvqgug","pricing_plan_id":"cebpf4jnsgd1na2vs0mg"},{"bike_id":"c97a5be8-840d-4a9f-bcf5-8db4b62194da","system_id":"levelo_inurba_marseille","lat":43.29916,"lon":5.3813,"is_reserved":false,"is_disabled":false,"rental_uris":{"android":"levelo://app?vid=c97a5be8-840d-4a9f-bcf5-8db4b62194da","ios":"levelo://app?vid=c97a5be8-840d-4a9f-bcf5-8db4b62194da"},"vehicle_type_id":"4","last_reported":1745079047,"current_range_meters":14800,"station_id":"ce4bgj12rcd13ifvqbc0","pricing_plan_id":"cebpf4jnsgd1na2vs0mg"},{"bike_id":"585dc1bf-e962-4c0c-94d3-bda040b0293a","system_id":"levelo_inurba_marseille","lat":43.28418,"lon":5.34981,"is_reserved":false,"is_disabled":false,"rental_uris":{"android":"levelo://app?vid=585dc1bf-e962-4c0c-94d3-bda040b0293a","ios":"levelo://app?vid=585dc1bf-e962-4c0c-94d3-bda040b0293a"},"vehicle_type_id":"4","last_reported":1745079047,"current_range_meters":14800,"station_id":"ce4bhbh2rcd13ifvqepg","pricing_plan_id":"cebpf4jnsgd1na2vs0mg"},{"bike_id":"c4d27b43-8b92-45bb-a729-7aec34d3c5b0","system_id":"levelo_inurba_marseille","lat":43.25019,"lon":5.38907,"is_reserved":false,"is_disabled":false,"rental_uris":{"android":"levelo://app?vid=c4d27b43-8b92-45bb-a729-7aec34d3c5b0","ios":"levelo://app?vid=c4d27b43-8b92-45bb-a729-7aec34d3c5b0"},"vehicle_type_id":"4","last_reported":1745079047,"current_range_meters":14800,"station_id":"ce4bhgp2rcd13ifvqfd0","pricing_plan_id":"cebpf4jnsgd1na2vs0mg"},{"bike_id":"0fab881f-42c6-4afe-9db0-7acf93d9140c","system_id":"levelo_inurba_marseille","lat":43.29259,"lon":5.40912,"is_reserved":false,"is_disabled":false,"rental_uris":{"android":"levelo://app?vid=0fab881f-42c6-4afe-9db0-7acf93d9140c","ios":"levelo://app?vid=0fab881f-42c6-4afe-9db0-7acf93d9140c"},"vehicle_type_id":"4","last_reported":1745079047,"current_range_meters":14800,"station_id":"ce4bh192rcd13ifvqdc0","pricing_plan_id":"cebpf4jnsgd1na2vs0mg"},{"bike_id":"00879c1d-a962-4133-ba5d-8de0f524e6f5","system_id":"levelo_inurba_marseille","lat":43.2749,"lon":5.42457,"is_reserved":false,"is_disabled":false,"rental_uris":{"android":"levelo://app?vid=00879c1d-a962-4133-ba5d-8de0f524e6f5","ios":"levelo://app?vid=00879c1d-a962-4133-ba5d-8de0f524e6f5"},"vehicle_type_id":"4","last_reported":1745079047,"current_range_meters":14800,"station_id":"ce4bhn92rcd13ifvqgrg","pricing_plan_id":"cebpf4jnsgd1na2vs0mg"},{"bike_id":"bcf124b3-d489-493b-9489-0461092a8868","system_id":"levelo_inurba_marseille","lat":43.29882,"lon":5.38899,"is_reserved":false,"is_disabled":false,"rental_uris":{"android":"levelo://app?vid=bcf124b3-d489-493b-9489-0461092a8868","ios":"levelo://app?vid=bcf124b3-d489-493b-9489-0461092a8868"},"vehicle_type_id":"4","last_reported":1745079047,"current_range_meters":14800,"station_id":"ce4bh392rcd13ifvqdl0","pricing_plan_id":"cebpf4jnsgd1na2vs0mg"},{"bike_id":"a852033b-114b-4670-8213-5d696eaf204f","system_id":"levelo_inurba_marseille","lat":43.25826,"lon":5.39428,"is_reserved":false,"is_disabled":false,"rental_uris":{"android":"levelo://app?vid=a852033b-114b-4670-8213-5d696eaf204f","ios":"levelo://app?vid=a852033b-114b-4670-8213-5d696eaf204f"},"vehicle_type_id":"4","last_reported":1745079047,"current_range_meters":14800,"station_id":"ce4bhip2rcd13ifvqft0","pricing_plan_id":"cebpf4jnsgd1na2vs0mg"},{"bike_id":"15572984-94dd-404c-b34b-0eba775da91a","system_id":"levelo_inurba_marseille","lat":43.25017,"lon":5.3896,"is_reserved":false,"is_disabled":false,"rental_uris":{"android":"levelo://app?vid=15572984-94dd-404c-b34b-0eba775da91a","ios":"levelo://app?vid=15572984-94dd-404c-b34b-0eba775da91a"},"vehicle_type_id":"4","last_reported":1745079047,"current_range_meters":15200,"station_id":"ce4bhgp2rcd13ifvqfd0","pricing_plan_id":"cebpf4jnsgd1na2vs0mg"},{"bike_id":"0adb5513-68c4-46c9-ba13-6d229579eb21","system_id":"levelo_inurba_marseille","lat":43.29929,"lon":5.36541,"is_reserved":false,"is_disabled":false,"rental_uris":{"android":"levelo://app?vid=0adb5513-68c4-46c9-ba13-6d229579eb21","ios":"levelo://app?vid=0adb5513-68c4-46c9-ba13-6d229579eb21"},"vehicle_type_id":"4","last_reported":1745079047,"current_range_meters":15200,"station_id":"ce4bgm92rcd13ifvqbr0","pricing_plan_id":"cebpf4jnsgd1na2vs0mg"},{"bike_id":"33399c5a-7b71-4ae2-a964-55b2f2e618d0","system_id":"levelo_inurba_marseille","lat":43.30211,"lon":5.36595,"is_reserved":false,"is_disabled":true,"rental_uris":{"android":"levelo://app?vid=33399c5a-7b71-4ae2-a964-55b2f2e618d0","ios":"levelo://app?vid=33399c5a-7b71-4ae2-a964-55b2f2e618d0"},"vehicle_type_id":"4","last_reported":1745079047,"current_range_meters":15200,"station_id":"ce4bgrh2rcd13ifvqc8g","pricing_plan_id":"cebpf4jnsgd1na2vs0mg"},{"bike_id":"3a314526-3aad-410b-a5b7-c30391e6b4d1","system_id":"levelo_inurba_marseille","lat":43.28426,"lon":5.3496,"is_reserved":false,"is_disabled":false,"rental_uris":{"android":"levelo://app?vid=3a314526-3aad-410b-a5b7-c30391e6b4d1","ios":"levelo://app?vid=3a314526-3aad-410b-a5b7-c30391e6b4d1"},"vehicle_type_id":"4","last_reported":1745079047,"current_range_meters":15200,"station_id":"ce4bhbh2rcd13ifvqepg","pricing_plan_id":"cebpf4jnsgd1na2vs0mg"},{"bike_id":"5e7e83d6-8284-48e9-9372-797b9c44861d","system_id":"levelo_inurba_marseille","lat":43.262016,"lon":5.379264,"is_reserved":false,"is_disabled":false,"rental_uris":{"android":"levelo://app?vid=5e7e83d6-8284-48e9-9372-797b9c44861d","ios":"levelo://app?vid=5e7e83d6-8284-48e9-9372-797b9c44861d"},"vehicle_type_id":"4","last_reported":1745079047,"current_range_meters":15200,"station_id":"ce4bhjp2rcd13ifvqg90","pricing_plan_id":"cebpf4jnsgd1na2vs0mg"},{"bike_id":"d2f72510-ddb9-4614-abe9-7680bc13be24","system_id":"levelo_inurba_marseille","lat":43.28937,"lon":5.36642,"is_reserved":false,"is_disabled":false,"rental_uris":{"android":"levelo://app?vid=d2f72510-ddb9-4614-abe9-7680bc13be24","ios":"levelo://app?vid=d2f72510-ddb9-4614-abe9-7680bc13be24"},"vehicle_type_id":"4","last_reported":1745079047,"current_range_meters":16000,"station_id":"ce4bhap2rcd13ifvqek0","pricing_plan_id":"cebpf4jnsgd1na2vs0mg"},{"bike_id":"5e440c77-95cb-4ada-9b09-8d9f87a5b46d","system_id":"levelo_inurba_marseille","lat":43.30127,"lon":5.387809,"is_reserved":false,"is_disabled":false,"rental_uris":{"android":"levelo://app?vid=5e440c77-95cb-4ada-9b09-8d9f87a5b46d","ios":"levelo://app?vid=5e440c77-95cb-4ada-9b09-8d9f87a5b46d"},"vehicle_type_id":"4","last_reported":1745079047,"current_range_meters":16000,"station_id":"ce4bghh2rcd13ifvqb60","pricing_plan_id":"cebpf4jnsgd1na2vs0mg"},{"bike_id":"4e4a61ac-e03c-47e8-b40a-334ea1322be5","system_id":"levelo_inurba_marseille","lat":43.23204,"lon":5.35552,"is_reserved":false,"is_disabled":false,"rental_uris":{"android":"levelo://app?vid=4e4a61ac-e03c-47e8-b40a-334ea1322be5","ios":"levelo://app?vid=4e4a61ac-e03c-47e8-b40a-334ea1322be5"},"vehicle_type_id":"4","last_reported":1745079047,"current_range_meters":16000,"station_id":"ce4bhu92rcd13ifvqi70","pricing_plan_id":"cebpf4jnsgd1na2vs0mg"},{"bike_id":"d4fb239d-31bb-4d52-814c-be2467bd7c40","system_id":"levelo_inurba_marseille","lat":43.2927,"lon":5.36838,"is_reserved":false,"is_disabled":false,"rental_uris":{"android":"levelo://app?vid=d4fb239d-31bb-4d52-814c-be2467bd7c40","ios":"levelo://app?vid=d4fb239d-31bb-4d52-814c-be2467bd7c40"},"vehicle_type_id":"4","last_reported":1745079047,"current_range_meters":16400,"station_id":"ce4bhbp2rcd13ifvqesg","pricing_plan_id":"cebpf4jnsgd1na2vs0mg"},{"bike_id":"8f922845-a2c3-4c17-b4ba-2fbfb35798ec","system_id":"levelo_inurba_marseille","lat":43.290398,"lon":5.399584,"is_reserved":false,"is_disabled":false,"rental_uris":{"android":"levelo://app?vid=8f922845-a2c3-4c17-b4ba-2fbfb35798ec","ios":"levelo://app?vid=8f922845-a2c3-4c17-b4ba-2fbfb35798ec"},"vehicle_type_id":"4","last_reported":1745079047,"current_range_meters":16800,"station_id":"ce4bh292rcd13ifvqdg0","pricing_plan_id":"cebpf4jnsgd1na2vs0mg"},{"bike_id":"57304c2a-5d56-4192-a247-737390c4af5d","system_id":"levelo_inurba_marseille","lat":43.23187,"lon":5.35562,"is_reserved":false,"is_disabled":false,"rental_uris":{"android":"levelo://app?vid=57304c2a-5d56-4192-a247-737390c4af5d","ios":"levelo://app?vid=57304c2a-5d56-4192-a247-737390c4af5d"},"vehicle_type_id":"4","last_reported":1745079047,"current_range_meters":16800,"station_id":"ce4bhu92rcd13ifvqi70","pricing_plan_id":"cebpf4jnsgd1na2vs0mg"},{"bike_id":"dcc78168-aa9b-4738-a163-c4551731c530","system_id":"levelo_inurba_marseille","lat":43.23064,"lon":5.35488,"is_reserved":false,"is_disabled":false,"rental_uris":{"android":"levelo://app?vid=dcc78168-aa9b-4738-a163-c4551731c530","ios":"levelo://app?vid=dcc78168-aa9b-4738-a163-c4551731c530"},"vehicle_type_id":"4","last_reported":1745079047,"current_range_meters":16800,"station_id":"cpo3342slgdg3j2ifvpg","pricing_plan_id":"cebpf4jnsgd1na2vs0mg"},{"bike_id":"33b94dd7-6191-4c38-80c4-ce47a44edeaa","system_id":"levelo_inurba_marseille","lat":43.296243,"lon":5.371627,"is_reserved":false,"is_disabled":false,"rental_uris":{"android":"levelo://app?vid=33b94dd7-6191-4c38-80c4-ce47a44edeaa","ios":"levelo://app?vid=33b94dd7-6191-4c38-80c4-ce47a44edeaa"},"vehicle_type_id":"4","last_reported":1745079047,"current_range_meters":16800,"station_id":"ce4bgnh2rcd13ifvqc0g","pricing_plan_id":"cebpf4jnsgd1na2vs0mg"},{"bike_id":"9aced156-1920-4cd1-929d-0662d1a6281c","system_id":"levelo_inurba_marseille","lat":43.26956,"lon":5.38627,"is_reserved":false,"is_disabled":false,"rental_uris":{"android":"levelo://app?vid=9aced156-1920-4cd1-929d-0662d1a6281c","ios":"levelo://app?vid=9aced156-1920-4cd1-929d-0662d1a6281c"},"vehicle_type_id":"4","last_reported":1745079047,"current_range_meters":16800,"station_id":"ce4bhh92rcd13ifvqfh0","pricing_plan_id":"cebpf4jnsgd1na2vs0mg"},{"bike_id":"2f70d957-db07-4b7c-a055-f35ca05b5e1b","system_id":"levelo_inurba_marseille","lat":43.23191,"lon":5.35548,"is_reserved":false,"is_disabled":false,"rental_uris":{"android":"levelo://app?vid=2f70d957-db07-4b7c-a055-f35ca05b5e1b","ios":"levelo://app?vid=2f70d957-db07-4b7c-a055-f35ca05b5e1b"},"vehicle_type_id":"4","last_reported":1745079047,"current_range_meters":16800,"station_id":"ce4bhu92rcd13ifvqi70","pricing_plan_id":"cebpf4jnsgd1na2vs0mg"},{"bike_id":"d1a906c5-f9bf-4b81-9c99-4306ed72880b","system_id":"levelo_inurba_marseille","lat":43.21193,"lon":5.3507,"is_reserved":false,"is_disabled":false,"rental_uris":{"android":"levelo://app?vid=d1a906c5-f9bf-4b81-9c99-4306ed72880b","ios":"levelo://app?vid=d1a906c5-f9bf-4b81-9c99-4306ed72880b"},"vehicle_type_id":"4","last_reported":1745079047,"current_range_meters":16800,"station_id":"st_cvj6sg6p6f1abm77japg","pricing_plan_id":"cebpf4jnsgd1na2vs0mg"},{"bike_id":"34ac676b-f4f9-4778-bc9f-e2903bb8520d","system_id":"levelo_inurba_marseille","lat":43.295226,"lon":5.37461,"is_reserved":false,"is_disabled":false,"rental_uris":{"android":"levelo://app?vid=34ac676b-f4f9-4778-bc9f-e2903bb8520d","ios":"levelo://app?vid=34ac676b-f4f9-4778-bc9f-e2903bb8520d"},"vehicle_type_id":"4","last_reported":1745079047,"current_range_meters":17200,"station_id":"ce4bgi12rcd13ifvqb70","pricing_plan_id":"cebpf4jnsgd1na2vs0mg"},{"bike_id":"d45dfa9c-ce25-49ce-b7f4-a63665c2928b","system_id":"levelo_inurba_marseille","lat":43.29969,"lon":5.37188,"is_reserved":false,"is_disabled":false,"rental_uris":{"android":"levelo://app?vid=d45dfa9c-ce25-49ce-b7f4-a63665c2928b","ios":"levelo://app?vid=d45dfa9c-ce25-49ce-b7f4-a63665c2928b"},"vehicle_type_id":"4","last_reported":1745079047,"current_range_meters":17200,"station_id":"ce4bgr92rcd13ifvqc7g","pricing_plan_id":"cebpf4jnsgd1na2vs0mg"},{"bike_id":"bd12dc07-b377-43dc-ba60-87b968661aa5","system_id":"levelo_inurba_marseille","lat":43.29633,"lon":5.40589,"is_reserved":false,"is_disabled":false,"rental_uris":{"android":"levelo://app?vid=bd12dc07-b377-43dc-ba60-87b968661aa5","ios":"levelo://app?vid=bd12dc07-b377-43dc-ba60-87b968661aa5"},"vehicle_type_id":"4","last_reported":1745079047,"current_range_meters":17200,"station_id":"ce4bh0h2rcd13ifvqd60","pricing_plan_id":"cebpf4jnsgd1na2vs0mg"},{"bike_id":"f421ddd4-a991-4250-9e97-1d52091304be","system_id":"levelo_inurba_marseille","lat":43.29588,"lon":5.36744,"is_reserved":false,"is_disabled":false,"rental_uris":{"android":"levelo://app?vid=f421ddd4-a991-4250-9e97-1d52091304be","ios":"levelo://app?vid=f421ddd4-a991-4250-9e97-1d52091304be"},"vehicle_type_id":"4","last_reported":1745079047,"current_range_meters":17200,"station_id":"ce4bgph2rcd13ifvqc2g","pricing_plan_id":"cebpf4jnsgd1na2vs0mg"},{"bike_id":"77aa1dbd-6da9-4842-a37b-7c3e9f693271","system_id":"levelo_inurba_marseille","lat":43.29255,"lon":5.37626,"is_reserved":false,"is_disabled":false,"rental_uris":{"android":"levelo://app?vid=77aa1dbd-6da9-4842-a37b-7c3e9f693271","ios":"levelo://app?vid=77aa1dbd-6da9-4842-a37b-7c3e9f693271"},"vehicle_type_id":"4","last_reported":1745079047,"current_range_meters":17600,"station_id":"ce4bgi12rcd13ifvqb80","pricing_plan_id":"cebpf4jnsgd1na2vs0mg"},{"bike_id":"c4c85ece-217d-486f-a35a-3051b27e96e1","system_id":"levelo_inurba_marseille","lat":43.24551,"lon":5.39527,"is_reserved":false,"is_disabled":false,"rental_uris":{"android":"levelo://app?vid=c4c85ece-217d-486f-a35a-3051b27e96e1","ios":"levelo://app?vid=c4c85ece-217d-486f-a35a-3051b27e96e1"},"vehicle_type_id":"4","last_reported":1745079047,"current_range_meters":17600,"station_id":"ce4bhlp2rcd13ifvqgjg","pricing_plan_id":"cebpf4jnsgd1na2vs0mg"},{"bike_id":"bc13e988-5248-4aa1-83de-ba0e22e6793d","system_id":"levelo_inurba_marseille","lat":43.27496,"lon":5.42458,"is_reserved":false,"is_disabled":false,"rental_uris":{"android":"levelo://app?vid=bc13e988-5248-4aa1-83de-ba0e22e6793d","ios":"levelo://app?vid=bc13e988-5248-4aa1-83de-ba0e22e6793d"},"vehicle_type_id":"4","last_reported":1745079047,"current_range_meters":17600,"station_id":"ce4bhn92rcd13ifvqgrg","pricing_plan_id":"cebpf4jnsgd1na2vs0mg"},{"bike_id":"79c54c83-6136-46c3-86c8-a0fd39fc8709","system_id":"levelo_inurba_marseille","lat":43.25005,"lon":5.3892,"is_reserved":false,"is_disabled":false,"rental_uris":{"android":"levelo://app?vid=79c54c83-6136-46c3-86c8-a0fd39fc8709","ios":"levelo://app?vid=79c54c83-6136-46c3-86c8-a0fd39fc8709"},"vehicle_type_id":"4","last_reported":1745079047,"current_range_meters":17600,"station_id":"ce4bhgp2rcd13ifvqfd0","pricing_plan_id":"cebpf4jnsgd1na2vs0mg"},{"bike_id":"2d20be7e-6735-4be6-81e2-7a0dc34eba95","system_id":"levelo_inurba_marseille","lat":43.32117,"lon":5.36791,"is_reserved":false,"is_disabled":false,"rental_uris":{"android":"levelo://app?vid=2d20be7e-6735-4be6-81e2-7a0dc34eba95","ios":"levelo://app?vid=2d20be7e-6735-4be6-81e2-7a0dc34eba95"},"vehicle_type_id":"4","last_reported":1745079047,"current_range_meters":17600,"station_id":"ce4bhrh2rcd13ifvqhug","pricing_plan_id":"cebpf4jnsgd1na2vs0mg"},{"bike_id":"c0ed2de6-43db-4024-a6fa-4f2641585f57","system_id":"levelo_inurba_marseille","lat":43.28158,"lon":5.42638,"is_reserved":false,"is_disabled":false,"rental_uris":{"android":"levelo://app?vid=c0ed2de6-43db-4024-a6fa-4f2641585f57","ios":"levelo://app?vid=c0ed2de6-43db-4024-a6fa-4f2641585f57"},"vehicle_type_id":"4","last_reported":1745079047,"current_range_meters":17600,"station_id":"ce4bhnh2rcd13ifvqgug","pricing_plan_id":"cebpf4jnsgd1na2vs0mg"},{"bike_id":"61c19874-3e66-446b-9461-be09cac8be18","system_id":"levelo_inurba_marseille","lat":43.26211,"lon":5.40458,"is_reserved":false,"is_disabled":false,"rental_uris":{"android":"levelo://app?vid=61c19874-3e66-446b-9461-be09cac8be18","ios":"levelo://app?vid=61c19874-3e66-446b-9461-be09cac8be18"},"vehicle_type_id":"4","last_reported":1745079047,"current_range_meters":17600,"station_id":"ce4bhmh2rcd13ifvqgmg","pricing_plan_id":"cebpf4jnsgd1na2vs0mg"},{"bike_id":"1f00d0e1-b276-4aa3-9a76-b0c2262473ce","system_id":"levelo_inurba_marseille","lat":43.28268,"lon":5.35084,"is_reserved":false,"is_disabled":false,"rental_uris":{"android":"levelo://app?vid=1f00d0e1-b276-4aa3-9a76-b0c2262473ce","ios":"levelo://app?vid=1f00d0e1-b276-4aa3-9a76-b0c2262473ce"},"vehicle_type_id":"4","last_reported":1745079047,"current_range_meters":17600,"station_id":"ce4bhbp2rcd13ifvqerg","pricing_plan_id":"cebpf4jnsgd1na2vs0mg"},{"bike_id":"6019390b-7088-4c04-b80b-2acf1cb29041","system_id":"levelo_inurba_marseille","lat":43.29402,"lon":5.41265,"is_reserved":false,"is_disabled":false,"rental_uris":{"android":"levelo://app?vid=6019390b-7088-4c04-b80b-2acf1cb29041","ios":"levelo://app?vid=6019390b-7088-4c04-b80b-2acf1cb29041"},"vehicle_type_id":"4","last_reported":1745079047,"current_range_meters":18000,"station_id":"","pricing_plan_id":"cebpf4jnsgd1na2vs0mg"},{"bike_id":"5e421aa1-0140-4fc0-9648-61a8151a13bd","system_id":"levelo_inurba_marseille","lat":43.28621,"lon":5.35103,"is_reserved":false,"is_disabled":false,"rental_uris":{"android":"levelo://app?vid=5e421aa1-0140-4fc0-9648-61a8151a13bd","ios":"levelo://app?vid=5e421aa1-0140-4fc0-9648-61a8151a13bd"},"vehicle_type_id":"4","last_reported":1745079047,"current_range_meters":18000,"station_id":"ce4bhch2rcd13ifvqeug","pricing_plan_id":"cebpf4jnsgd1na2vs0mg"},{"bike_id":"ee1e36e1-8714-4d0d-b65b-762166d63d1b","system_id":"levelo_inurba_marseille","lat":43.29205,"lon":5.35814,"is_reserved":false,"is_disabled":false,"rental_uris":{"android":"levelo://app?vid=ee1e36e1-8714-4d0d-b65b-762166d63d1b","ios":"levelo://app?vid=ee1e36e1-8714-4d0d-b65b-762166d63d1b"},"vehicle_type_id":"4","last_reported":1745079047,"current_range_meters":18000,"station_id":"ce4bhb12rcd13ifvqel0","pricing_plan_id":"cebpf4jnsgd1na2vs0mg"},{"bike_id":"136e2506-2aab-45f9-a31f-1b3e1469c488","system_id":"levelo_inurba_marseille","lat":43.29266,"lon":5.38438,"is_reserved":false,"is_disabled":false,"rental_uris":{"android":"levelo://app?vid=136e2506-2aab-45f9-a31f-1b3e1469c488","ios":"levelo://app?vid=136e2506-2aab-45f9-a31f-1b3e1469c488"},"vehicle_type_id":"4","last_reported":1745079047,"current_range_meters":18000,"station_id":"ce4bh692rcd13ifvqea0","pricing_plan_id":"cebpf4jnsgd1na2vs0mg"},{"bike_id":"d5bf3e51-83b4-419b-b784-58ab0f4a9ad2","system_id":"levelo_inurba_marseille","lat":43.21197,"lon":5.35079,"is_reserved":false,"is_disabled":false,"rental_uris":{"android":"levelo://app?vid=d5bf3e51-83b4-419b-b784-58ab0f4a9ad2","ios":"levelo://app?vid=d5bf3e51-83b4-419b-b784-58ab0f4a9ad2"},"vehicle_type_id":"4","last_reported":1745079047,"current_range_meters":18000,"station_id":"st_cvj6sg6p6f1abm77japg","pricing_plan_id":"cebpf4jnsgd1na2vs0mg"},{"bike_id":"838f5e05-0c4e-4bba-9f00-cca38a067f8d","system_id":"levelo_inurba_marseille","lat":43.29528,"lon":5.38541,"is_reserved":false,"is_disabled":false,"rental_uris":{"android":"levelo://app?vid=838f5e05-0c4e-4bba-9f00-cca38a067f8d","ios":"levelo://app?vid=838f5e05-0c4e-4bba-9f00-cca38a067f8d"},"vehicle_type_id":"4","last_reported":1745079047,"current_range_meters":18000,"station_id":"ce4bgih2rcd13ifvqba0","pricing_plan_id":"cebpf4jnsgd1na2vs0mg"},{"bike_id":"854b0ee9-c4ce-475a-b53c-4151bf98491e","system_id":"levelo_inurba_marseille","lat":43.26808,"lon":5.40271,"is_reserved":false,"is_disabled":false,"rental_uris":{"android":"levelo://app?vid=854b0ee9-c4ce-475a-b53c-4151bf98491e","ios":"levelo://app?vid=854b0ee9-c4ce-475a-b53c-4151bf98491e"},"vehicle_type_id":"4","last_reported":1745079047,"current_range_meters":18000,"station_id":"ce501612rcd8frsf0b60","pricing_plan_id":"cebpf4jnsgd1na2vs0mg"},{"bike_id":"11fdd5a2-1fee-421d-af4c-d2711885ee87","system_id":"levelo_inurba_marseille","lat":43.24171,"lon":5.36396,"is_reserved":false,"is_disabled":false,"rental_uris":{"android":"levelo://app?vid=11fdd5a2-1fee-421d-af4c-d2711885ee87","ios":"levelo://app?vid=11fdd5a2-1fee-421d-af4c-d2711885ee87"},"vehicle_type_id":"4","last_reported":1745079047,"current_range_meters":18000,"station_id":"cpo36qri1sfpv3e86is0","pricing_plan_id":"cebpf4jnsgd1na2vs0mg"},{"bike_id":"8faceefe-63ac-4781-b6c3-8c3492a825e1","system_id":"levelo_inurba_marseille","lat":43.30534,"lon":5.38428,"is_reserved":false,"is_disabled":false,"rental_uris":{"android":"levelo://app?vid=8faceefe-63ac-4781-b6c3-8c3492a825e1","ios":"levelo://app?vid=8faceefe-63ac-4781-b6c3-8c3492a825e1"},"vehicle_type_id":"4","last_reported":1745079047,"current_range_meters":18000,"station_id":"ce4bgg92rcd13ifvqb30","pricing_plan_id":"cebpf4jnsgd1na2vs0mg"},{"bike_id":"0dd37309-8509-4a6f-a8e1-0f2c693fa1d2","system_id":"levelo_inurba_marseille","lat":43.2762,"lon":5.36109,"is_reserved":false,"is_disabled":false,"rental_uris":{"android":"levelo://app?vid=0dd37309-8509-4a6f-a8e1-0f2c693fa1d2","ios":"levelo://app?vid=0dd37309-8509-4a6f-a8e1-0f2c693fa1d2"},"vehicle_type_id":"4","last_reported":1745079047,"current_range_meters":18800,"station_id":"ce4bgj92rcd13ifvqbe0","pricing_plan_id":"cebpf4jnsgd1na2vs0mg"},{"bike_id":"b8cb3c1a-5336-434f-abdc-d972c10d64e2","system_id":"levelo_inurba_marseille","lat":43.27827,"lon":5.4076,"is_reserved":false,"is_disabled":false,"rental_uris":{"android":"levelo://app?vid=b8cb3c1a-5336-434f-abdc-d972c10d64e2","ios":"levelo://app?vid=b8cb3c1a-5336-434f-abdc-d972c10d64e2"},"vehicle_type_id":"4","last_reported":1745079047,"current_range_meters":18800,"station_id":"ce4bhnh2rcd13ifvqgtg","pricing_plan_id":"cebpf4jnsgd1na2vs0mg"},{"bike_id":"204ebd71-c9ea-40d0-821b-3baee5ea74c0","system_id":"levelo_inurba_marseille","lat":43.30334,"lon":5.40429,"is_reserved":false,"is_disabled":false,"rental_uris":{"android":"levelo://app?vid=204ebd71-c9ea-40d0-821b-3baee5ea74c0","ios":"levelo://app?vid=204ebd71-c9ea-40d0-821b-3baee5ea74c0"},"vehicle_type_id":"4","last_reported":1745079047,"current_range_meters":18800,"station_id":"ce4bh012rcd13ifvqd10","pricing_plan_id":"cebpf4jnsgd1na2vs0mg"},{"bike_id":"e4ebedad-6592-4874-ac84-098fd97b39ac","system_id":"levelo_inurba_marseille","lat":43.27086,"lon":5.40253,"is_reserved":false,"is_disabled":false,"rental_uris":{"android":"levelo://app?vid=e4ebedad-6592-4874-ac84-098fd97b39ac","ios":"levelo://app?vid=e4ebedad-6592-4874-ac84-098fd97b39ac"},"vehicle_type_id":"4","last_reported":1745079047,"current_range_meters":18800,"station_id":"ce4bhk92rcd13ifvqgc0","pricing_plan_id":"cebpf4jnsgd1na2vs0mg"},{"bike_id":"f7027e6a-48d2-4cae-b50c-97b01f670552","system_id":"levelo_inurba_marseille","lat":43.23958,"lon":5.36627,"is_reserved":false,"is_disabled":false,"rental_uris":{"android":"levelo://app?vid=f7027e6a-48d2-4cae-b50c-97b01f670552","ios":"levelo://app?vid=f7027e6a-48d2-4cae-b50c-97b01f670552"},"vehicle_type_id":"4","last_reported":1745079047,"current_range_meters":18800,"station_id":"ce4bhi12rcd13ifvqfp0","pricing_plan_id":"cebpf4jnsgd1na2vs0mg"},{"bike_id":"24514f0f-8502-413c-b47b-91396d81e3cd","system_id":"levelo_inurba_marseille","lat":43.31077,"lon":5.38359,"is_reserved":false,"is_disabled":false,"rental_uris":{"android":"levelo://app?vid=24514f0f-8502-413c-b47b-91396d81e3cd","ios":"levelo://app?vid=24514f0f-8502-413c-b47b-91396d81e3cd"},"vehicle_type_id":"4","last_reported":1745079047,"current_range_meters":19200,"station_id":"ce4bgv92rcd13ifvqcr0","pricing_plan_id":"cebpf4jnsgd1na2vs0mg"},{"bike_id":"d53e964c-f934-484c-a259-3e8f23cdd819","system_id":"levelo_inurba_marseille","lat":43.33728,"lon":5.39187,"is_reserved":false,"is_disabled":false,"rental_uris":{"android":"levelo://app?vid=d53e964c-f934-484c-a259-3e8f23cdd819","ios":"levelo://app?vid=d53e964c-f934-484c-a259-3e8f23cdd819"},"vehicle_type_id":"4","last_reported":1745079047,"current_range_meters":19200,"station_id":"ce4bhr92rcd13ifvqhsg","pricing_plan_id":"cebpf4jnsgd1na2vs0mg"},{"bike_id":"f14f90e2-1369-4bd7-9b6b-0c531181e3cb","system_id":"levelo_inurba_marseille","lat":43.2694,"lon":5.40251,"is_reserved":false,"is_disabled":false,"rental_uris":{"android":"levelo://app?vid=f14f90e2-1369-4bd7-9b6b-0c531181e3cb","ios":"levelo://app?vid=f14f90e2-1369-4bd7-9b6b-0c531181e3cb"},"vehicle_type_id":"4","last_reported":1745079047,"current_range_meters":19200,"station_id":"cjm6bp8fraef2m0cb0m0","pricing_plan_id":"cebpf4jnsgd1na2vs0mg"},{"bike_id":"5a2a974b-392e-4157-b9be-3ef5a963806f","system_id":"levelo_inurba_marseille","lat":43.28571,"lon":5.395,"is_reserved":false,"is_disabled":false,"rental_uris":{"android":"levelo://app?vid=5a2a974b-392e-4157-b9be-3ef5a963806f","ios":"levelo://app?vid=5a2a974b-392e-4157-b9be-3ef5a963806f"},"vehicle_type_id":"4","last_reported":1745079047,"current_range_meters":19200,"station_id":"ce4bh292rcd13ifvqdg0","pricing_plan_id":"cebpf4jnsgd1na2vs0mg"},{"bike_id":"7d29063e-cc47-43de-9fe3-33b900004d65","system_id":"levelo_inurba_marseille","lat":43.21192,"lon":5.35088,"is_reserved":false,"is_disabled":false,"rental_uris":{"android":"levelo://app?vid=7d29063e-cc47-43de-9fe3-33b900004d65","ios":"levelo://app?vid=7d29063e-cc47-43de-9fe3-33b900004d65"},"vehicle_type_id":"4","last_reported":1745079047,"current_range_meters":19200,"station_id":"st_cvj6sg6p6f1abm77japg","pricing_plan_id":"cebpf4jnsgd1na2vs0mg"},{"bike_id":"c63aa9fe-3db6-43b2-95f1-ffa665ebbb81","system_id":"levelo_inurba_marseille","lat":43.315335,"lon":5.380415,"is_reserved":false,"is_disabled":true,"rental_uris":{"android":"levelo://app?vid=c63aa9fe-3db6-43b2-95f1-ffa665ebbb81","ios":"levelo://app?vid=c63aa9fe-3db6-43b2-95f1-ffa665ebbb81"},"vehicle_type_id":"4","last_reported":1745079047,"current_range_meters":19200,"station_id":"ce4bhsp2rcd13ifvqi50","pricing_plan_id":"cebpf4jnsgd1na2vs0mg"},{"bike_id":"fc9e4a0b-cef4-449a-b7db-636c773d6309","system_id":"levelo_inurba_marseille","lat":43.27384,"lon":5.39813,"is_reserved":false,"is_disabled":false,"rental_uris":{"android":"levelo://app?vid=fc9e4a0b-cef4-449a-b7db-636c773d6309","ios":"levelo://app?vid=fc9e4a0b-cef4-449a-b7db-636c773d6309"},"vehicle_type_id":"4","last_reported":1745079047,"current_range_meters":19600,"station_id":"","pricing_plan_id":"cebpf4jnsgd1na2vs0mg"},{"bike_id":"5efc1c8d-61d9-401e-a2a1-66bab524d54e","system_id":"levelo_inurba_marseille","lat":43.28418,"lon":5.34978,"is_reserved":false,"is_disabled":false,"rental_uris":{"android":"levelo://app?vid=5efc1c8d-61d9-401e-a2a1-66bab524d54e","ios":"levelo://app?vid=5efc1c8d-61d9-401e-a2a1-66bab524d54e"},"vehicle_type_id":"4","last_reported":1745079047,"current_range_meters":19600,"station_id":"ce4bhbh2rcd13ifvqepg","pricing_plan_id":"cebpf4jnsgd1na2vs0mg"},{"bike_id":"d66f2fbf-84c1-4006-a003-d92ef3aa9479","system_id":"levelo_inurba_marseille","lat":43.23207,"lon":5.3553,"is_reserved":false,"is_disabled":false,"rental_uris":{"android":"levelo://app?vid=d66f2fbf-84c1-4006-a003-d92ef3aa9479","ios":"levelo://app?vid=d66f2fbf-84c1-4006-a003-d92ef3aa9479"},"vehicle_type_id":"4","last_reported":1745079047,"current_range_meters":19600,"station_id":"ce4bhu92rcd13ifvqi70","pricing_plan_id":"cebpf4jnsgd1na2vs0mg"},{"bike_id":"d402887b-6790-4db7-9765-be6edbd77ee2","system_id":"levelo_inurba_marseille","lat":43.21194,"lon":5.35065,"is_reserved":false,"is_disabled":false,"rental_uris":{"android":"levelo://app?vid=d402887b-6790-4db7-9765-be6edbd77ee2","ios":"levelo://app?vid=d402887b-6790-4db7-9765-be6edbd77ee2"},"vehicle_type_id":"4","last_reported":1745079047,"current_range_meters":19600,"station_id":"st_cvj6sg6p6f1abm77japg","pricing_plan_id":"cebpf4jnsgd1na2vs0mg"},{"bike_id":"5ad8dd6b-ee8a-4f3f-924e-6d10a631b0b3","system_id":"levelo_inurba_marseille","lat":43.26225,"lon":5.37957,"is_reserved":false,"is_disabled":true,"rental_uris":{"android":"levelo://app?vid=5ad8dd6b-ee8a-4f3f-924e-6d10a631b0b3","ios":"levelo://app?vid=5ad8dd6b-ee8a-4f3f-924e-6d10a631b0b3"},"vehicle_type_id":"4","last_reported":1745079047,"current_range_meters":19600,"station_id":"ce4bhjp2rcd13ifvqg90","pricing_plan_id":"cebpf4jnsgd1na2vs0mg"},{"bike_id":"d8cb12ea-0620-49a8-8e1b-072807cb3626","system_id":"levelo_inurba_marseille","lat":43.29566,"lon":5.37523,"is_reserved":false,"is_disabled":false,"rental_uris":{"android":"levelo://app?vid=d8cb12ea-0620-49a8-8e1b-072807cb3626","ios":"levelo://app?vid=d8cb12ea-0620-49a8-8e1b-072807cb3626"},"vehicle_type_id":"4","last_reported":1745079047,"current_range_meters":20000,"station_id":"ce4bgh92rcd13ifvqb50","pricing_plan_id":"cebpf4jnsgd1na2vs0mg"},