{"last_updated":1753208192,"ttl":60,"version":"2.2","data":{"bikes":[{"bike_id":"496cac02-0e91-4f64-97b9-cb34cf0ab931","system_id":"levelo_inurba_marseille","lat":43.225006,"lon":5.347806,"is_reserved":false,"is_disabled":false,"rental_uris":{"android":"levelo://app?vid=496cac02-0e91-4f64-97b9-cb34cf0ab931","ios":"levelo://app?vid=496cac02-0e91-4f64-97b9-cb34cf0ab931"},"vehicle_type_id":"4","last_reported":1753208192,"current_range_meters":2800,"station_id":"","pricing_plan_id":"cebpf4jnsgd1na2vs0mg"},{"bike_id":"70c96f46-5b82-46ed-aa11-a1197c2ff902","system_id":"levelo_inurba_marseille","lat":43.32481,"lon":5.36564,"is_reserved":false,"is_disabled":false,"rental_uris":{"android":"levelo://app?vid=70c96f46-5b82-46ed-aa11-a1197c2ff902","ios":"levelo://app?vid=70c96f46-5b82-46ed-aa11-a1197c2ff902"},"vehicle_type_id":"4","last_reported":1753208192,"current_range_meters":2800,"station_id":"ce4bhs12rcd13ifvqhvg","pricing_plan_id":"cebpf4jnsgd1na2vs0mg"},{"bike_id":"c9e23768-edb8-4613-8ff9-ee3ddcf0838d","system_id":"levelo_inurba_marseille","lat":43.29966,"lon":5.38491,"is_reserved":false,"is_disabled":false,"rental_uris":{"android":"levelo://app?vid=c9e23768-edb8-4613-8ff9-ee3ddcf0838d","ios":"levelo://app?vid=c9e23768-edb8-4613-8ff9-ee3ddcf0838d"},"vehicle_type_id":"4","last_reported":1753208192,"current_range_meters":2800,"station_id":"ce4bgj92rcd13ifvqbd0","pricing_plan_id":"cebpf4jnsgd1na2vs0mg"},{"bike_id":"bfc0ba55-2b22-4512-b9d4-4d08a4164dfa","system_id":"levelo_inurba_marseille","lat":43.29008,"lon":5.35614,"is_reserved":false,"is_disabled":false,"rental_uris":{"android":"levelo://app?vid=bfc0ba55-2b22-4512-b9d4-4d08a4164dfa","ios":"levelo://app?vid=bfc0ba55-2b22-4512-b9d4-4d08a4164dfa"},"vehicle_type_id":"4","last_reported":1753208192,"current_range_meters":2800,"station_id":"ce4bhb92rcd13ifvqen0","pricing_plan_id":"cebpf4jnsgd1na2vs0mg"},{"bike_id":"f5e2151f-a4f6-4f7d-8a09-fcd1f75fb335","system_id":"levelo_inurba_marseille","lat":43.27429,"lon":5.39394,"is_reserved":false,"is_disabled":false,"rental_uris":{"android":"levelo://app?vid=f5e2151f-a4f6-4f7d-8a09-fcd1f75fb335","ios":"levelo://app?vid=f5e2151f-a4f6-4f7d-8a09-fcd1f75fb335"},"vehicle_type_id":"4","last_reported":1753208192,"current_range_meters":2800,"station_id":"ce4bhdp2rcd13ifvqf20","pricing_plan_id":"cebpf4jnsgd1na2vs0mg"},{"bike_id":"2570fccc-bc83-4857-aceb-da270b9d0cad","system_id":"levelo_inurba_marseille","lat":43.29509,"lon":5.38149,"is_reserved":false,"is_disabled":false,"rental_uris":{"android":"levelo://app?vid=2570fccc-bc83-4857-aceb-da270b9d0cad","ios":"levelo://app?vid=2570fccc-bc83-4857-aceb-da270b9d0cad"},"vehicle_type_id":"4","last_reported":1753208192,"current_range_meters":3200,"station_id":"","pricing_plan_id":"cebpf4jnsgd1na2vs0mg"},{"bike_id":"e73aef60-22f1-45ff-8cce-dc96dab65577","system_id":"levelo_inurba_marseille","lat":43.279453,"lon":5.410472,"is_reserved":false,"is_disabled":false,"rental_uris":{"android":"levelo://app?vid=e73aef60-22f1-45ff-8cce-dc96dab65577","ios":"levelo://app?vid=e73aef60-22f1-45ff-8cce-dc96dab65577"},"vehicle_type_id":"4","last_reported":1753208192,"current_range_meters":3200,"station_id":"ce4bhnp2rcd13ifvqh0g","pricing_plan_id":"cebpf4jnsgd1na2vs0mg"},{"bike_id":"8fff5500-44ca-44cb-a10e-069a8d3b3e95","system_id":"levelo_inurba_marseille","lat":43.22926,"lon":5.353762,"is_reserved":false,"is_disabled":false,"rental_uris":{"android":"levelo://app?vid=8fff5500-44ca-44cb-a10e-069a8d3b3e95","ios":"levelo://app?vid=8fff5500-44ca-44cb-a10e-069a8d3b3e95"},"vehicle_type_id":"4","last_reported":1753208192,"current_range_meters":3200,"station_id":"cpo3532slgdg3j2ikp40","pricing_plan_id":"cebpf4jnsgd1na2vs0mg"},{"bike_id":"c3db242e-f6dc-4887-8c2c-5256e6d02967","system_id":"levelo_inurba_marseille","lat":43.29262,"lon":5.38444,"is_reserved":false,"is_disabled":false,"rental_uris":{"android":"levelo://app?vid=c3db242e-f6dc-4887-8c2c-5256e6d02967","ios":"levelo://app?vid=c3db242e-f6dc-4887-8c2c-5256e6d02967"},"vehicle_type_id":"4","last_reported":1753208192,"current_range_meters":3200,"station_id":"ce4bh692rcd13ifvqea0","pricing_plan_id":"cebpf4jnsgd1na2vs0mg"},{"bike_id":"09bd6cac-8bfa-4f8e-8e97-c1a028009795","system_id":"levelo_inurba_marseille","lat":43.27905,"lon":5.38005,"is_reserved":false,"is_disabled":false,"rental_uris":{"android":"levelo://app?vid=09bd6cac-8bfa-4f8e-8e97-c1a028009795","ios":"levelo://app?vid=09bd6cac-8bfa-4f8e-8e97-c1a028009795"},"vehicle_type_id":"4","last_reported":1753208192,"current_range_meters":3600,"station_id":"ce4bhf92rcd13ifvqf50","pricing_plan_id":"cebpf4jnsgd1na2vs0mg"},{"bike_id":"b636e029-e82b-4bc7-99b9-7e6a8f535545","system_id":"levelo_inurba_marseille","lat":43.29973,"lon":5.38486,"is_reserved":false,"is_disabled":false,"rental_uris":{"android":"levelo://app?vid=b636e029-e82b-4bc7-99b9-7e6a8f535545","ios":"levelo://app?vid=b636e029-e82b-4bc7-99b9-7e6a8f535545"},"vehicle_type_id":"4","last_reported":1753208192,"current_range_meters":3600,"station_id":"ce4bgj92rcd13ifvqbd0","pricing_plan_id":"cebpf4jnsgd1na2vs0mg"},{"bike_id":"792cf0c4-6404-4b19-908d-dab6e1952346","system_id":"levelo_inurba_marseille","lat":43.30252,"lon":5.40057,"is_reserved":false,"is_disabled":false,"rental_uris":{"android":"levelo://app?vid=792cf0c4-6404-4b19-908d-dab6e1952346","ios":"levelo://app?vid=792cf0c4-6404-4b19-908d-dab6e1952346"},"vehicle_type_id":"4","last_reported":1753208192,"current_range_meters":4000,"station_id":"ce4bgvh2rcd13ifvqcs0","pricing_plan_id":"cebpf4jnsgd1na2vs0mg"},{"bike_id":"ef8c54dc-f4cb-4378-a80d-a5cf19a917c4","system_id":"levelo_inurba_marseille","lat":43.28422,"lon":5.34976,"is_reserved":false,"is_disabled":false,"rental_uris":{"android":"levelo://app?vid=ef8c54dc-f4cb-4378-a80d-a5cf19a917c4","ios":"levelo://app?vid=ef8c54dc-f4cb-4378-a80d-a5cf19a917c4"},"vehicle_type_id":"4","last_reported":1753208192,"current_range_meters":4000,"station_id":"ce4bhbh2rcd13ifvqepg","pricing_plan_id":"cebpf4jnsgd1na2vs0mg"},{"bike_id":"ff17b2cb-455e-4a9c-ae8d-f5494264094a","system_id":"levelo_inurba_marseille","lat":43.31492,"lon":5.3731,"is_reserved":false,"is_disabled":false,"rental_uris":{"android":"levelo://app?vid=ff17b2cb-455e-4a9c-ae8d-f5494264094a","ios":"levelo://app?vid=ff17b2cb-455e-4a9c-ae8d-f5494264094a"},"vehicle_type_id":"4","last_reported":1753208192,"current_range_meters":4000,"station_id":"ce4bgt12rcd13ifvqcd0","pricing_plan_id":"cebpf4jnsgd1na2vs0mg"},{"bike_id":"06435de7-53b2-4461-9efd-d18eb0991ca7","system_id":"levelo_inurba_marseille","lat":43.282723,"lon":5.350666,"is_reserved":false,"is_disabled":false,"rental_uris":{"android":"levelo://app?vid=06435de7-53b2-4461-9efd-d18eb0991ca7","ios":"levelo://app?vid=06435de7-53b2-4461-9efd-d18eb0991ca7"},"vehicle_type_id":"4","last_reported":1753208192,"current_range_meters":4400,"station_id":"ce4bhbp2rcd13ifvqerg","pricing_plan_id":"cebpf4jnsgd1na2vs0mg"},{"bike_id":"071d2166-fba8-47e9-9a4b-5d0eadb997b7","system_id":"levelo_inurba_marseille","lat":43.30555,"lon":5.37245,"is_reserved":false,"is_disabled":false,"rental_uris":{"android":"levelo://app?vid=071d2166-fba8-47e9-9a4b-5d0eadb997b7","ios":"levelo://app?vid=071d2166-fba8-47e9-9a4b-5d0eadb997b7"},"vehicle_type_id":"4","last_reported":1753208192,"current_range_meters":4400,"station_id":"ce4bgqh2rcd13ifvqc4g","pricing_plan_id":"cebpf4jnsgd1na2vs0mg"},{"bike_id":"bae1897c-1119-47ca-b04c-7d53a9087d81","system_id":"levelo_inurba_marseille","lat":43.29269,"lon":5.38439,"is_reserved":false,"is_disabled":false,"rental_uris":{"android":"levelo://app?vid=bae1897c-1119-47ca-b04c-7d53a9087d81","ios":"levelo://app?vid=bae1897c-1119-47ca-b04c-7d53a9087d81"},"vehicle_type_id":"4","last_reported":1753208192,"current_range_meters":4800,"station_id":"ce4bh692rcd13ifvqea0","pricing_plan_id":"cebpf4jnsgd1na2vs0mg"},{"bike_id":"f8039d11-c57b-417c-9388-17de4289e787","system_id":"levelo_inurba_marseille","lat":43.30308,"lon":5.39198,"is_reserved":false,"is_disabled":false,"rental_uris":{"android":"levelo://app?vid=f8039d11-c57b-417c-9388-17de4289e787","ios":"levelo://app?vid=f8039d11-c57b-417c-9388-17de4289e787"},"vehicle_type_id":"4","last_reported":1753208192,"current_range_meters":4400,"station_id":"ce4bgkh2rcd13ifvqbk0","pricing_plan_id":"cebpf4jnsgd1na2vs0mg"},{"bike_id":"82dcd2b6-ad2f-458b-9309-38dd99f74c48","system_id":"levelo_inurba_marseille","lat":43.2997,"lon":5.37176,"is_reserved":false,"is_disabled":false,"rental_uris":{"android":"levelo://app?vid=82dcd2b6-ad2f-458b-9309-38dd99f74c48","ios":"levelo://app?vid=82dcd2b6-ad2f-458b-9309-38dd99f74c48"},"vehicle_type_id":"4","last_reported":1753208192,"current_range_meters":4400,"station_id":"ce4bgr92rcd13ifvqc7g","pricing_plan_id":"cebpf4jnsgd1na2vs0mg"},{"bike_id":"f23f1231-780b-42d7-acad-f9f918331281","system_id":"levelo_inurba_marseille","lat":43.30608,"lon":5.37223,"is_reserved":false,"is_disabled":false,"rental_uris":{"android":"levelo://app?vid=f23f1231-780b-42d7-acad-f9f918331281","ios":"levelo://app?vid=f23f1231-780b-42d7-acad-f9f918331281"},"vehicle_type_id":"4","last_reported":1753208192,"current_range_meters":4800,"station_id":"ce4bgqh2rcd13ifvqc4g","pricing_plan_id":"cebpf4jnsgd1na2vs0mg"},{"bike_id":"85a5c837-2ce7-40d8-af0b-883362dd3119","system_id":"levelo_inurba_marseille","lat":43.27803,"lon":5.35505,"is_reserved":false,"is_disabled":false,"rental_uris":{"android":"levelo://app?vid=85a5c837-2ce7-40d8-af0b-883362dd3119","ios":"levelo://app?vid=85a5c837-2ce7-40d8-af0b-883362dd3119"},"vehicle_type_id":"4","last_reported":1753208192,"current_range_meters":5600,"station_id":"","pricing_plan_id":"cebpf4jnsgd1na2vs0mg"},{"bike_id":"a92237a4-cfec-4540-ac8f-fe148e22091b","system_id":"levelo_inurba_marseille","lat":43.30921,"lon":5.36846,"is_reserved":false,"is_disabled":false,"rental_uris":{"android":"levelo://app?vid=a92237a4-cfec-4540-ac8f-fe148e22091b","ios":"levelo://app?vid=a92237a4-cfec-4540-ac8f-fe148e22091b"},"vehicle_type_id":"4","last_reported":1753208192,"current_range_meters":5600,"station_id":"ce4bgn92rcd13ifvqbvg","pricing_plan_id":"cebpf4jnsgd1na2vs0mg"},{"bike_id":"061b732e-a39d-4bf6-8dd2-10880b2395da","system_id":"levelo_inurba_marseille","lat":43.24804,"lon":5.37449,"is_reserved":false,"is_disabled":false,"rental_uris":{"android":"levelo://app?vid=061b732e-a39d-4bf6-8dd2-10880b2395da","ios":"levelo://app?vid=061b732e-a39d-4bf6-8dd2-10880b2395da"},"vehicle_type_id":"4","last_reported":1753208192,"current_range_meters":5600,"station_id":"ce4bhgh2rcd13ifvqfb0","pricing_plan_id":"cebpf4jnsgd1na2vs0mg"},{"bike_id":"04a7d0e1-dd94-42a3-9dde-3743ae10eea5","system_id":"levelo_inurba_marseille","lat":43.28619,"lon":5.35109,"is_reserved":false,"is_disabled":false,"rental_uris":{"android":"levelo://app?vid=04a7d0e1-dd94-42a3-9dde-3743ae10eea5","ios":"levelo://app?vid=04a7d0e1-dd94-42a3-9dde-3743ae10eea5"},"vehicle_type_id":"4","last_reported":1753208192,"current_range_meters":6000,"station_id":"ce4bhch2rcd13ifvqeug","pricing_plan_id":"cebpf4jnsgd1na2vs0mg"},{"bike_id":"d198a4b5-0b77-4599-bff3-760b51ec86d4","system_id":"levelo_inurba_marseille","lat":43.29876,"lon":5.38909,"is_reserved":false,"is_disabled":false,"rental_uris":{"android":"levelo://app?vid=d198a4b5-0b77-4599-bff3-760b51ec86d4","ios":"levelo://app?vid=d198a4b5-0b77-4599-bff3-760b51ec86d4"},"vehicle_type_id":"4","last_reported":1753208192,"current_range_meters":6000,"station_id":"ce4bh392rcd13ifvqdl0","pricing_plan_id":"cebpf4jnsgd1na2vs0mg"},{"bike_id":"db1ec47c-87ef-4f75-ac61-e96f2bc2cacb","system_id":"levelo_inurba_marseille","lat":43.2318,"lon":5.39988,"is_reserved":false,"is_disabled":false,"rental_uris":{"android":"levelo://app?vid=db1ec47c-87ef-4f75-ac61-e96f2bc2cacb","ios":"levelo://app?vid=db1ec47c-87ef-4f75-ac61-e96f2bc2cacb"},"vehicle_type_id":"4","last_reported":1753208192,"current_range_meters":6000,"station_id":"ce4bhn12rcd13ifvqgqg","pricing_plan_id":"cebpf4jnsgd1na2vs0mg"},{"bike_id":"9188212b-7881-4e86-b112-ab830bf58c93","system_id":"levelo_inurba_marseille","lat":43.24171,"lon":5.36401,"is_reserved":false,"is_disabled":false,"rental_uris":{"android":"levelo://app?vid=9188212b-7881-4e86-b112-ab830bf58c93","ios":"levelo://app?vid=9188212b-7881-4e86-b112-ab830bf58c93"},"vehicle_type_id":"4","last_reported":1753208192,"current_range_meters":6000,"station_id":"cpo36qri1sfpv3e86is0","pricing_plan_id":"cebpf4jnsgd1na2vs0mg"},{"bike_id":"3d665fee-5d86-4f1d-af2a-84e45d09505d","system_id":"levelo_inurba_marseille","lat":43.297054,"lon":5.376934,"is_reserved":false,"is_disabled":false,"rental_uris":{"android":"levelo://app?vid=3d665fee-5d86-4f1d-af2a-84e45d09505d","ios":"levelo://app?vid=3d665fee-5d86-4f1d-af2a-84e45d09505d"},"vehicle_type_id":"4","last_reported":1753208192,"current_range_meters":6000,"station_id":"ce4bgkh2rcd13ifvqbl0","pricing_plan_id":"cebpf4jnsgd1na2vs0mg"},{"bike_id":"0899567e-7e08-45ab-83b6-c8e783087652","system_id":"levelo_inurba_marseille","lat":43.29888,"lon":5.38898,"is_reserved":false,"is_disabled":false,"rental_uris":{"android":"levelo://app?vid=0899567e-7e08-45ab-83b6-c8e783087652","ios":"levelo://app?vid=0899567e-7e08-45ab-83b6-c8e783087652"},"vehicle_type_id":"4","last_reported":1753208192,"current_range_meters":6000,"station_id":"ce4bh392rcd13ifvqdl0","pricing_plan_id":"cebpf4jnsgd1na2vs0mg"},{"bike_id":"2272352e-61e0-4964-bbd9-f4b4875cbfc8","system_id":"levelo_inurba_marseille","lat":43.26031,"lon":5.37543,"is_reserved":false,"is_disabled":false,"rental_uris":{"android":"levelo://app?vid=2272352e-61e0-4964-bbd9-f4b4875cbfc8","ios":"levelo://app?vid=2272352e-61e0-4964-bbd9-f4b4875cbfc8"},"vehicle_type_id":"4","last_reported":1753208192,"current_range_meters":6000,"station_id":"ce4bhgh2rcd13ifvqfa0","pricing_plan_id":"cebpf4jnsgd1na2vs0mg"},{"bike_id":"85939836-ea5b-4317-9f78-b2e335621762","system_id":"levelo_inurba_marseille","lat":43.26196,"lon":5.3793,"is_reserved":false,"is_disabled":false,"rental_uris":{"android":"levelo://app?vid=85939836-ea5b-4317-9f78-b2e335621762","ios":"levelo://app?vid=85939836-ea5b-4317-9f78-b2e335621762"},"vehicle_type_id":"4","last_reported":1753208192,"current_range_meters":6400,"station_id":"ce4bhjp2rcd13ifvqg90","pricing_plan_id":"cebpf4jnsgd1na2vs0mg"},{"bike_id":"fe0f9e8d-8e92-4ec8-9278-b5905ba0d6d9","system_id":"levelo_inurba_marseille","lat":43.30929,"lon":5.40142,"is_reserved":false,"is_disabled":false,"rental_uris":{"android":"levelo://app?vid=fe0f9e8d-8e92-4ec8-9278-b5905ba0d6d9","ios":"levelo://app?vid=fe0f9e8d-8e92-4ec8-9278-b5905ba0d6d9"},"vehicle_type_id":"4","last_reported":1753208192,"current_range_meters":6400,"station_id":"ce4bgvp2rcd13ifvqct0","pricing_plan_id":"cebpf4jnsgd1na2vs0mg"},{"bike_id":"42b00bd7-8c5f-4650-a7f5-9605d11f1d97","system_id":"levelo_inurba_marseille","lat":43.29516,"lon":5.39402,"is_reserved":false,"is_disabled":false,"rental_uris":{"android":"levelo://app?vid=42b00bd7-8c5f-4650-a7f5-9605d11f1d97","ios":"levelo://app?vid=42b00bd7-8c5f-4650-a7f5-9605d11f1d97"},"vehicle_type_id":"4","last_reported":1753208192,"current_range_meters":6800,"station_id":"ce4bh292rcd13ifvqdf0","pricing_plan_id":"cebpf4jnsgd1na2vs0mg"},{"bike_id":"9b822b3b-dbf1-4b70-a211-ab78914af1ad","system_id":"levelo_inurba_marseille","lat":43.30188,"lon":5.36612,"is_reserved":false,"is_disabled":false,"rental_uris":{"android":"levelo://app?vid=9b822b3b-dbf1-4b70-a211-ab78914af1ad","ios":"levelo://app?vid=9b822b3b-dbf1-4b70-a211-ab78914af1ad"},"vehicle_type_id":"4","last_reported":1753208192,"current_range_meters":7200,"station_id":"ce4bgrh2rcd13ifvqc8g","pricing_plan_id":"cebpf4jnsgd1na2vs0mg"},{"bike_id":"a8514778-9519-4ee1-9846-6aa9a9ae1bcf","system_id":"levelo_inurba_marseille","lat":43.27069,"lon":5.42278,"is_reserved":false,"is_disabled":false,"rental_uris":{"android":"levelo://app?vid=a8514778-9519-4ee1-9846-6aa9a9ae1bcf","ios":"levelo://app?vid=a8514778-9519-4ee1-9846-6aa9a9ae1bcf"},"vehicle_type_id":"4","last_reported":1753208192,"current_range_meters":7200,"station_id":"ce4bhk92rcd13ifvqgb0","pricing_plan_id":"cebpf4jnsgd1na2vs0mg"},{"bike_id":"44a45772-723a-4648-a74e-08f333288fdd","system_id":"levelo_inurba_marseille","lat":43.25821,"lon":5.39435,"is_reserved":false,"is_disabled":false,"rental_uris":{"android":"levelo://app?vid=44a45772-723a-4648-a74e-08f333288fdd","ios":"levelo://app?vid=44a45772-723a-4648-a74e-08f333288fdd"},"vehicle_type_id":"4","last_reported":1753208192,"current_range_meters":7200,"station_id":"ce4bhip2rcd13ifvqft0","pricing_plan_id":"cebpf4jnsgd1na2vs0mg"},{"bike_id":"f3830733-8ae1-4567-95c7-a6c88ff9ca47","system_id":"levelo_inurba_marseille","lat":43.23965,"lon":5.36631,"is_reserved":false,"is_disabled":false,"rental_uris":{"android":"levelo://app?vid=f3830733-8ae1-4567-95c7-a6c88ff9ca47","ios":"levelo://app?vid=f3830733-8ae1-4567-95c7-a6c88ff9ca47"},"vehicle_type_id":"4","last_reported":1753208192,"current_range_meters":7200,"station_id":"ce4bhi12rcd13ifvqfp0","pricing_plan_id":"cebpf4jnsgd1na2vs0mg"},{"bike_id":"288e40f1-8fbf-4748-a95b-1be5b48bdbe8","system_id":"levelo_inurba_marseille","lat":43.2894,"lon":5.3663,"is_reserved":false,"is_disabled":true,"rental_uris":{"android":"levelo://app?vid=288e40f1-8fbf-4748-a95b-1be5b48bdbe8","ios":"levelo://app?vid=288e40f1-8fbf-4748-a95b-1be5b48bdbe8"},"vehicle_type_id":"4","last_reported":1753208192,"current_range_meters":7200,"station_id":"ce4bhap2rcd13ifvqek0","pricing_plan_id":"cebpf4jnsgd1na2vs0mg"},{"bike_id":"374764e9-1483-4c39-a939-2017d46b717a","system_id":"levelo_inurba_marseille","lat":43.28054,"lon":5.34969,"is_reserved":false,"is_disabled":false,"rental_uris":{"android":"levelo://app?vid=374764e9-1483-4c39-a939-2017d46b717a","ios":"levelo://app?vid=374764e9-1483-4c39-a939-2017d46b717a"},"vehicle_type_id":"4","last_reported":1753208192,"current_range_meters":7200,"station_id":"","pricing_plan_id":"cebpf4jnsgd1na2vs0mg"},{"bike_id":"ec65914b-7834-44ec-ba4b-576e8da7b871","system_id":"levelo_inurba_marseille","lat":43.29698,"lon":5.36613,"is_reserved":false,"is_disabled":false,"rental_uris":{"android":"levelo://app?vid=ec65914b-7834-44ec-ba4b-576e8da7b871","ios":"levelo://app?vid=ec65914b-7834-44ec-ba4b-576e8da7b871"},"vehicle_type_id":"4","last_reported":1753208192,"current_range_meters":7200,"station_id":"ce4bgn12rcd13ifvqbt0","pricing_plan_id":"cebpf4jnsgd1na2vs0mg"},{"bike_id":"4bdb1d17-7651-43ac-992c-693bffb856e4","system_id":"levelo_inurba_marseille","lat":43.29372,"lon":5.37835,"is_reserved":false,"is_disabled":false,"rental_uris":{"android":"levelo://app?vid=4bdb1d17-7651-43ac-992c-693bffb856e4","ios":"levelo://app?vid=4bdb1d17-7651-43ac-992c-693bffb856e4"},"vehicle_type_id":"4","last_reported":1753208192,"current_range_meters":8000,"station_id":"ce4bgjh2rcd13ifvqbf0","pricing_plan_id":"cebpf4jnsgd1na2vs0mg"},{"bike_id":"05cd1063-9dda-4d7a-87f1-d4d1cf84e190","system_id":"levelo_inurba_marseille","lat":43.29538,"lon":5.38537,"is_reserved":false,"is_disabled":false,"rental_uris":{"android":"levelo://app?vid=05cd1063-9dda-4d7a-87f1-d4d1cf84e190","ios":"levelo://app?vid=05cd1063-9dda-4d7a-87f1-d4d1cf84e190"},"vehicle_type_id":"4","last_reported":1753208192,"current_range_meters":8000,"station_id":"ce4bgih2rcd13ifvqba0","pricing_plan_id":"cebpf4jnsgd1na2vs0mg"},{"bike_id":"77de9928-4e4e-41e9-9dcf-94ef3236205d","system_id":"levelo_inurba_marseille","lat":43.292328,"lon":5.360684,"is_reserved":false,"is_disabled":false,"rental_uris":{"android":"levelo://app?vid=77de9928-4e4e-41e9-9dcf-94ef3236205d","ios":"levelo://app?vid=77de9928-4e4e-41e9-9dcf-94ef3236205d"},"vehicle_type_id":"4","last_reported":1753208192,"current_range_meters":8000,"station_id":"ce4bhbh2rcd13ifvqeqg","pricing_plan_id":"cebpf4jnsgd1na2vs0mg"},{"bike_id":"4d56cb12-7c0d-4ff8-860e-c4e8605deb0c","system_id":"levelo_inurba_marseille","lat":43.29258,"lon":5.40896,"is_reserved":false,"is_disabled":false,"rental_uris":{"android":"levelo://app?vid=4d56cb12-7c0d-4ff8-860e-c4e8605deb0c","ios":"levelo://app?vid=4d56cb12-7c0d-4ff8-860e-c4e8605deb0c"},"vehicle_type_id":"4","last_reported":1753208192,"current_range_meters":8000,"station_id":"ce4bh192rcd13ifvqdc0","pricing_plan_id":"cebpf4jnsgd1na2vs0mg"},{"bike_id":"3c2f657a-3408-4949-b7b9-83d7e743fc27","system_id":"levelo_inurba_marseille","lat":43.29264,"lon":5.38448,"is_reserved":false,"is_disabled":false,"rental_uris":{"android":"levelo://app?vid=3c2f657a-3408-4949-b7b9-83d7e743fc27","ios":"levelo://app?vid=3c2f657a-3408-4949-b7b9-83d7e743fc27"},"vehicle_type_id":"4","last_reported":1753208192,"current_range_meters":8000,"station_id":"ce4bh692rcd13ifvqea0","pricing_plan_id":"cebpf4jnsgd1na2vs0mg"},{"bike_id":"e68363c5-0e3c-4612-bc72-b712b6ae55ed","system_id":"levelo_inurba_marseille","lat":43.2841,"lon":5.3498,"is_reserved":false,"is_disabled":false,"rental_uris":{"android":"levelo://app?vid=e68363c5-0e3c-4612-bc72-b712b6ae55ed","ios":"levelo://app?vid=e68363c5-0e3c-4612-bc72-b712b6ae55ed"},"vehicle_type_id":"4","last_reported":1753208192,"current_range_meters":8000,"station_id":"ce4bhbh2rcd13ifvqepg","pricing_plan_id":"cebpf4jnsgd1na2vs0mg"},{"bike_id":"877a604a-3e94-453b-8102-32855cc1bbfb","system_id":"levelo_inurba_marseille","lat":43.292765,"lon":5.38477,"is_reserved":false,"is_disabled":false,"rental_uris":{"android":"levelo://app?vid=877a604a-3e94-453b-8102-32855cc1bbfb","ios":"levelo://app?vid=877a604a-3e94-453b-8102-32855cc1bbfb"},"vehicle_type_id":"4","last_reported":1753208192,"current_range_meters":8000,"station_id":"ce4bgg92rcd13ifvqb30","pricing_plan_id":"cebpf4jnsgd1na2vs0mg"},{"bike_id":"157458e2-9676-4586-8d16-e98da32675b3","system_id":"levelo_inurba_marseille","lat":43.306025,"lon":5.393303,"is_reserved":false,"is_disabled":false,"rental_uris":{"android":"levelo://app?vid=157458e2-9676-4586-8d16-e98da32675b3","ios":"levelo://app?vid=157458e2-9676-4586-8d16-e98da32675b3"},"vehicle_type_id":"4","last_reported":1753208192,"current_range_meters":8000,"station_id":"ce4bh0p2rcd13ifvqd80","pricing_plan_id":"cebpf4jnsgd1na2vs0mg"},{"bike_id":"af052f52-9788-4190-b99a-52a30f365c2e","system_id":"levelo_inurba_marseille","lat":43.29008,"lon":5.35602,"is_reserved":false,"is_disabled":false,"rental_uris":{"android":"levelo://app?vid=af052f52-9788-4190-b99a-52a30f365c2e","ios":"levelo://app?vid=af052f52-9788-4190-b99a-52a30f365c2e"},"vehicle_type_id":"4","last_reported":1753208192,"current_range_meters":8000,"station_id":"ce4bhb92rcd13ifvqen0","pricing_plan_id":"cebpf4jnsgd1na2vs0mg"},{"bike_id":"42413a25-16d1-4419-b44a-45580e0c6ac6","system_id":"levelo_inurba_marseille","lat":43.282171,"lon":5.395775,"is_reserved":false,"is_disabled":false,"rental_uris":{"android":"levelo://app?vid=42413a25-16d1-4419-b44a-45580e0c6ac6","ios":"levelo://app?vid=42413a25-16d1-4419-b44a-45580e0c6ac6"},"vehicle_type_id":"4","last_reported":1753208192,"current_range_meters":8400,"station_id":"","pricing_plan_id":"cebpf4jnsgd1na2vs0mg"},{"bike_id":"36c804c1-e116-432f-b883-355821b3c55d","system_id":"levelo_inurba_marseille","lat":43.29784,"lon":5.39344,"is_reserved":false,"is_disabled":false,"rental_uris":{"android":"levelo://app?vid=36c804c1-e116-432f-b883-355821b3c55d","ios":"levelo://app?vid=36c804c1-e116-432f-b883-355821b3c55d"},"vehicle_type_id":"4","last_reported":1753208192,"current_range_meters":8400,"station_id":"chh1huq6cuj3fo74tm60","pricing_plan_id":"cebpf4jnsgd1na2vs0mg"},{"bike_id":"209a9165-c5d6-4df5-8a5e-f3b66d977984","system_id":"levelo_inurba_marseille","lat":43.28415,"lon":5.34985,"is_reserved":false,"is_disabled":false,"rental_uris":{"android":"levelo://app?vid=209a9165-c5d6-4df5-8a5e-f3b66d977984","ios":"levelo://app?vid=209a9165-c5d6-4df5-8a5e-f3b66d977984"},"vehicle_type_id":"4","last_reported":1753208192,"current_range_meters":8400,"station_id":"ce4bhbh2rcd13ifvqepg","pricing_plan_id":"cebpf4jnsgd1na2vs0mg"},{"bike_id":"29cb45f5-4abe-4003-9b82-32f68c2f778b","system_id":"levelo_inurba_marseille","lat":43.23192,"lon":5.35553,"is_reserved":false,"is_disabled":false,"rental_uris":{"android":"levelo://app?vid=29cb45f5-4abe-4003-9b82-32f68c2f778b","ios":"levelo://app?vid=29cb45f5-4abe-4003-9b82-32f68c2f778b"},"vehicle_type_id":"4","last_reported":1753208192,"current_range_meters":8800,"station_id":"ce4bhu92rcd13ifvqi70","pricing_plan_id":"cebpf4jnsgd1na2vs0mg"},{"bike_id":"9a58f785-ad5d-4de7-86d9-3827b7b8b7ad","system_id":"levelo_inurba_marseille","lat":43.29234,"lon":5.36054,"is_reserved":false,"is_disabled":false,"rental_uris":{"android":"levelo://app?vid=9a58f785-ad5d-4de7-86d9-3827b7b8b7ad","ios":"levelo://app?vid=9a58f785-ad5d-4de7-86d9-3827b7b8b7ad"},"vehicle_type_id":"4","last_reported":1753208192,"current_range_meters":8800,"station_id":"ce4bhbh2rcd13ifvqeqg","pricing_plan_id":"cebpf4jnsgd1na2vs0mg"},{"bike_id":"fe1f28c5-c088-4c51-9c22-894d649bfef5","system_id":"levelo_inurba_marseille","lat":43.30881,"lon":5.39657,"is_reserved":false,"is_disabled":false,"rental_uris":{"android":"levelo://app?vid=fe1f28c5-c088-4c51-9c22-894d649bfef5","ios":"levelo://app?vid=fe1f28c5-c088-4c51-9c22-894d649bfef5"},"vehicle_type_id":"4","last_reported":1753208192,"current_range_meters":8800,"station_id":"ce4bh012rcd13ifvqcv0","pricing_plan_id":"cebpf4jnsgd1na2vs0mg"},{"bike_id":"196c02f9-1542-442e-8985-c1ec6215a7bf","system_id":"levelo_inurba_marseille","lat":43.29869,"lon":5.39729,"is_reserved":false,"is_disabled":false,"rental_uris":{"android":"levelo://app?vid=196c02f9-1542-442e-8985-c1ec6215a7bf","ios":"levelo://app?vid=196c02f9-1542-442e-8985-c1ec6215a7bf"},"vehicle_type_id":"4","last_reported":1753208192,"current_range_meters":8800,"station_id":"ce4bh0h2rcd13ifvqd50","pricing_plan_id":"cebpf4jnsgd1na2vs0mg"},{"bike_id":"e1332dcb-bc35-40cd-82b4-cbf57d71a47e","system_id":"levelo_inurba_marseille","lat":43.29788,"lon":5.39343,"is_reserved":false,"is_disabled":false,"rental_uris":{"android":"levelo://app?vid=e1332dcb-bc35-40cd-82b4-cbf57d71a47e","ios":"levelo://app?vid=e1332dcb-bc35-40cd-82b4-cbf57d71a47e"},"vehicle_type_id":"4","last_reported":1753208192,"current_range_meters":8800,"station_id":"chh1huq6cuj3fo74tm60","pricing_plan_id":"cebpf4jnsgd1na2vs0mg"},{"bike_id":"3ae42702-5370-4a95-9758-fe1a09399fc3","system_id":"levelo_inurba_marseille","lat":43.31881,"lon":5.407426,"is_reserved":false,"is_disabled":false,"rental_uris":{"android":"levelo://app?vid=3ae42702-5370-4a95-9758-fe1a09399fc3","ios":"levelo://app?vid=3ae42702-5370-4a95-9758-fe1a09399fc3"},"vehicle_type_id":"4","last_reported":1753208192,"current_range_meters":8800,"station_id":"ce4bhq12rcd13ifvqhig","pricing_plan_id":"cebpf4jnsgd1na2vs0mg"},{"bike_id":"1097703c-d1fc-4889-98b8-dd756d46ec6d","system_id":"levelo_inurba_marseille","lat":43.28695,"lon":5.39978,"is_reserved":false,"is_disabled":false,"rental_uris":{"android":"levelo://app?vid=1097703c-d1fc-4889-98b8-dd756d46ec6d","ios":"levelo://app?vid=1097703c-d1fc-4889-98b8-dd756d46ec6d"},"vehicle_type_id":"4","last_reported":1753208192,"current_range_meters":8800,"station_id":"ce4bho92rcd13ifvqh3g","pricing_plan_id":"cebpf4jnsgd1na2vs0mg"},{"bike_id":"e49fc937-ab62-44a5-bfc7-aa7ea72af8d0","system_id":"levelo_inurba_marseille","lat":43.25784,"lon":5.38718,"is_reserved":false,"is_disabled":false,"rental_uris":{"android":"levelo://app?vid=e49fc937-ab62-44a5-bfc7-aa7ea72af8d0","ios":"levelo://app?vid=e49fc937-ab62-44a5-bfc7-aa7ea72af8d0"},"vehicle_type_id":"4","last_reported":1753208192,"current_range_meters":9200,"station_id":"","pricing_plan_id":"cebpf4jnsgd1na2vs0mg"},{"bike_id":"ea79be1b-c03a-4aa5-9373-1bf61dbe2c9b","system_id":"levelo_inurba_marseille","lat":43.28407,"lon":5.34985,"is_reserved":false,"is_disabled":false,"rental_uris":{"android":"levelo://app?vid=ea79be1b-c03a-4aa5-9373-1bf61dbe2c9b","ios":"levelo://app?vid=ea79be1b-c03a-4aa5-9373-1bf61dbe2c9b"},"vehicle_type_id":"4","last_reported":1753208192,"current_range_meters":9200,"station_id":"ce4bhbh2rcd13ifvqepg","pricing_plan_id":"cebpf4jnsgd1na2vs0mg"},{"bike_id":"e4186b76-48f8-4ff7-98f9-66121f3e699a","system_id":"levelo_inurba_marseille","lat":43.293509,"lon":5.378357,"is_reserved":false,"is_disabled":false,"rental_uris":{"android":"levelo://app?vid=e4186b76-48f8-4ff7-98f9-66121f3e699a","ios":"levelo://app?vid=e4186b76-48f8-4ff7-98f9-66121f3e699a"},"vehicle_type_id":"4","last_reported":1753208192,"current_range_meters":9200,"station_id":"ce4bgjh2rcd13ifvqbf0","pricing_plan_id":"cebpf4jnsgd1na2vs0mg"},{"bike_id":"29c4e4e0-74bb-497d-9a6e-059a5bae8a14","system_id":"levelo_inurba_marseille","lat":43.25939,"lon":5.40904,"is_reserved":false,"is_disabled":false,"rental_uris":{"android":"levelo://app?vid=29c4e4e0-74bb-497d-9a6e-059a5bae8a14","ios":"levelo://app?vid=29c4e4e0-74bb-497d-9a6e-059a5bae8a14"},"vehicle_type_id":"4","last_reported":1753208192,"current_range_meters":9200,"station_id":"ce4bhm92rcd13ifvqglg","pricing_plan_id":"cebpf4jnsgd1na2vs0mg"},{"bike_id":"155dadb9-311f-4f8f-9aaa-5429426300fd","system_id":"levelo_inurba_marseille","lat":43.28422,"lon":5.34974,"is_reserved":false,"is_disabled":false,"rental_uris":{"android":"levelo://app?vid=155dadb9-311f-4f8f-9aaa-5429426300fd","ios":"levelo://app?vid=155dadb9-311f-4f8f-9aaa-5429426300fd"},"vehicle_type_id":"4","last_reported":1753208192,"current_range_meters":9200,"station_id":"ce4bhbh2rcd13ifvqepg","pricing_plan_id":"cebpf4jnsgd1na2vs0mg"},{"bike_id":"95aadf90-d57b-4071-830e-bbe28e391880","system_id":"levelo_inurba_marseille","lat":43.28996,"lon":5.3561,"is_reserved":false,"is_disabled":false,"rental_uris":{"android":"levelo://app?vid=95aadf90-d57b-4071-830e-bbe28e391880","ios":"levelo://app?vid=95aadf90-d57b-4071-830e-bbe28e391880"},"vehicle_type_id":"4","last_reported":1753208192,"current_range_meters":9200,"station_id":"ce4bhb92rcd13ifvqen0","pricing_plan_id":"cebpf4jnsgd1na2vs0mg"},{"bike_id":"2791a1cf-f8f1-4674-9084-f245d5cf3114","system_id":"levelo_inurba_marseille","lat":43.28417,"lon":5.34986,"is_reserved":false,"is_disabled":false,"rental_uris":{"android":"levelo://app?vid=2791a1cf-f8f1-4674-9084-f245d5cf3114","ios":"levelo://app?vid=2791a1cf-f8f1-4674-9084-f245d5cf3114"},"vehicle_type_id":"4","last_reported":1753208192,"current_range_meters":9200,"station_id":"ce4bhbh2rcd13ifvqepg","pricing_plan_id":"cebpf4jnsgd1na2vs0mg"},{"bike_id":"812c25bf-49b1-435a-92e1-0b3daa81b499","system_id":"levelo_inurba_marseille","lat":43.27275,"lon":5.41365,"is_reserved":false,"is_disabled":false,"rental_uris":{"android":"levelo://app?vid=812c25bf-49b1-435a-92e1-0b3daa81b499","ios":"levelo://app?vid=812c25bf-49b1-435a-92e1-0b3daa81b499"},"vehicle_type_id":"4","last_reported":1753208192,"current_range_meters":9200,"station_id":"ce4bhn92rcd13ifvqgrg","pricing_plan_id":"cebpf4jnsgd1na2vs0mg"},{"bike_id":"bc8e8184-a6af-4eda-9557-7e503f0c793c","system_id":"levelo_inurba_marseille","lat":43.24185,"lon":5.39721,"is_reserved":false,"is_disabled":true,"rental_uris":{"android":"levelo://app?vid=bc8e8184-a6af-4eda-9557-7e503f0c793c","ios":"levelo://app?vid=bc8e8184-a6af-4eda-9557-7e503f0c793c"},"vehicle_type_id":"4","last_reported":1753208192,"current_range_meters":9200,"station_id":"ce4bhn12rcd13ifvqgpg","pricing_plan_id":"cebpf4jnsgd1na2vs0mg"},{"bike_id":"0f2a2ec1-0612-4170-86a7-c51171ec3498","system_id":"levelo_inurba_marseille","lat":43.28669,"lon":5.36342,"is_reserved":false,"is_disabled":false,"rental_uris":{"android":"levelo://app?vid=0f2a2ec1-0612-4170-86a7-c51171ec3498","ios":"levelo://app?vid=0f2a2ec1-0612-4170-86a7-c51171ec3498"},"vehicle_type_id":"4","last_reported":1753208192,"current_range_meters":9200,"station_id":"ce4bhah2rcd13ifvqej0","pricing_plan_id":"cebpf4jnsgd1na2vs0mg"},{"bike_id":"031b9ecc-0aea-4e8c-897b-d81ca40c856d","system_id":"levelo_inurba_marseille","lat":43.29784,"lon":5.39341,"is_reserved":false,"is_disabled":false,"rental_uris":{"android":"levelo://app?vid=031b9ecc-0aea-4e8c-897b-d81ca40c856d","ios":"levelo://app?vid=031b9ecc-0aea-4e8c-897b-d81ca40c856d"},"vehicle_type_id":"4","last_reported":1753208192,"current_range_meters":9200,"station_id":"chh1huq6cuj3fo74tm60","pricing_plan_id":"cebpf4jnsgd1na2vs0mg"},{"bike_id":"e4761578-ae86-4dfa-b146-0428e5d8cca7","system_id":"levelo_inurba_marseille","lat":43.24171,"lon":5.36401,"is_reserved":false,"is_disabled":true,"rental_uris":{"android":"levelo://app?vid=e4761578-ae86-4dfa-b146-0428e5d8cca7","ios":"levelo://app?vid=e4761578-ae86-4dfa-b146-0428e5d8cca7"},"vehicle_type_id":"4","last_reported":1753208192,"current_range_meters":9600,"station_id":"cpo36qri1sfpv3e86is0","pricing_plan_id":"cebpf4jnsgd1na2vs0mg"},{"bike_id":"16bb4c82-ed84-4967-9418-b8e12cff03c1","system_id":"levelo_inurba_marseille","lat":43.29007,"lon":5.35609,"is_reserved":false,"is_disabled":false,"rental_uris":{"android":"levelo://app?vid=16bb4c82-ed84-4967-9418-b8e12cff03c1","ios":"levelo://app?vid=16bb4c82-ed84-4967-9418-b8e12cff03c1"},"vehicle_type_id":"4","last_reported":1753208192,"current_range_meters":9600,"station_id":"ce4bhb92rcd13ifvqen0","pricing_plan_id":"cebpf4jnsgd1na2vs0mg"},{"bike_id":"8c1d0819-f991-43c1-a0ae-15c2c54fdbcd","system_id":"levelo_inurba_marseille","lat":43.27375,"lon":5.3626,"is_reserved":false,"is_disabled":true,"rental_uris":{"android":"levelo://app?vid=8c1d0819-f991-43c1-a0ae-15c2c54fdbcd","ios":"levelo://app?vid=8c1d0819-f991-43c1-a0ae-15c2c54fdbcd"},"vehicle_type_id":"4","last_reported":1753208192,"current_range_meters":9600,"station_id":"ce4bhbh2rcd13ifvqeo0","pricing_plan_id":"cebpf4jnsgd1na2vs0mg"},{"bike_id":"d6703393-e466-4a19-a71b-e6394fec7a53","system_id":"levelo_inurba_marseille","lat":43.283377,"lon":5.381067,"is_reserved":false,"is_disabled":false,"rental_uris":{"android":"levelo://app?vid=d6703393-e466-4a19-a71b-e6394fec7a53","ios":"levelo://app?vid=d6703393-e466-4a19-a71b-e6394fec7a53"},"vehicle_type_id":"4","last_reported":1753208192,"current_range_meters":9600,"station_id":"ce4bh412rcd13ifvqdr0","pricing_plan_id":"cebpf4jnsgd1na2vs0mg"},{"bike_id":"8164c7ba-287e-4e27-b21a-9418e1c68c49","system_id":"levelo_inurba_marseille","lat":43.24071,"lon":5.37739,"is_reserved":false,"is_disabled":false,"rental_uris":{"android":"levelo://app?vid=8164c7ba-287e-4e27-b21a-9418e1c68c49","ios":"levelo://app?vid=8164c7ba-287e-4e27-b21a-9418e1c68c49"},"vehicle_type_id":"4","last_reported":1753208192,"current_range_meters":9600,"station_id":"ce4bhnp2rcd13ifvqgvg","pricing_plan_id":"cebpf4jnsgd1na2vs0mg"},{"bike_id":"5ba376a7-610d-4ec7-a308-3ab155019e9e","system_id":"levelo_inurba_marseille","lat":43.28265,"lon":5.35065,"is_reserved":false,"is_disabled":false,"rental_uris":{"android":"levelo://app?vid=5ba376a7-610d-4ec7-a308-3ab155019e9e","ios":"levelo://app?vid=5ba376a7-610d-4ec7-a308-3ab155019e9e"},"vehicle_type_id":"4","last_reported":1753208192,"current_range_meters":9600,"station_id":"ce4bhbp2rcd13ifvqerg","pricing_plan_id":"cebpf4jnsgd1na2vs0mg"},{"bike_id":"f0fbe9a0-fb9a-4b52-928a-0d53eb333b73","system_id":"levelo_inurba_marseille","lat":43.29573,"lon":5.36735,"is_reserved":false,"is_disabled":false,"rental_uris":{"android":"levelo://app?vid=f0fbe9a0-fb9a-4b52-928a-0d53eb333b73","ios":"levelo://app?vid=f0fbe9a0-fb9a-4b52-928a-0d53eb333b73"},"vehicle_type_id":"4","last_reported":1753208192,"current_range_meters":9200,"station_id":"ce4bgph2rcd13ifvqc2g","pricing_plan_id":"cebpf4jnsgd1na2vs0mg"},{"bike_id":"cac0e4ea-50a1-44bf-b5ab-90c5a6aad74f","system_id":"levelo_inurba_marseille","lat":43.29243,"lon":5.36048,"is_reserved":false,"is_disabled":false,"rental_uris":{"android":"levelo://app?vid=cac0e4ea-50a1-44bf-b5ab-90c5a6aad74f","ios":"levelo://app?vid=cac0e4ea-50a1-44bf-b5ab-90c5a6aad74f"},"vehicle_type_id":"4","last_reported":1753208192,"current_range_meters":9600,"station_id":"ce4bhbh2rcd13ifvqeqg","pricing_plan_id":"cebpf4jnsgd1na2vs0mg"},{"bike_id":"953e44ff-5870-4763-848a-9342b422c2d9","system_id":"levelo_inurba_marseille","lat":43.27967,"lon":5.38746,"is_reserved":false,"is_disabled":false,"rental_uris":{"android":"levelo://app?vid=953e44ff-5870-4763-848a-9342b422c2d9","ios":"levelo://app?vid=953e44ff-5870-4763-848a-9342b422c2d9"},"vehicle_type_id":"4","last_reported":1753208192,"current_range_meters":9600,"station_id":"ce4bhg12rcd13ifvqf80","pricing_plan_id":"cebpf4jnsgd1na2vs0mg"},{"bike_id":"9f7c8663-4c5c-4d2b-a29d-82f6564d6fa3","system_id":"levelo_inurba_marseille","lat":43.2926,"lon":5.38437,"is_reserved":false,"is_disabled":false,"rental_uris":{"android":"levelo://app?vid=9f7c8663-4c5c-4d2b-a29d-82f6564d6fa3","ios":"levelo://app?vid=9f7c8663-4c5c-4d2b-a29d-82f6564d6fa3"},"vehicle_type_id":"4","last_reported":1753208192,"current_range_meters":9600,"station_id":"ce4bh692rcd13ifvqea0","pricing_plan_id":"cebpf4jnsgd1na2vs0mg"},{"bike_id":"e3dcc7bf-4d63-451f-a978-dfaabec3bc1c","system_id":"levelo_inurba_marseille","lat":43.29527,"lon":5.38546,"is_reserved":false,"is_disabled":false,"rental_uris":{"android":"levelo://app?vid=e3dcc7bf-4d63-451f-a978-dfaabec3bc1c","ios":"levelo://app?vid=e3dcc7bf-4d63-451f-a978-dfaabec3bc1c"},"vehicle_type_id":"4","last_reported":1753208192,"current_range_meters":9600,"station_id":"ce4bgih2rcd13ifvqba0","pricing_plan_id":"cebpf4jnsgd1na2vs0mg"},{"bike_id":"19ffcca7-419f-4850-94da-ba5b783420a5","system_id":"levelo_inurba_marseille","lat":43.29258,"lon":5.38442,"is_reserved":false,"is_disabled":false,"rental_uris":{"android":"levelo://app?vid=19ffcca7-419f-4850-94da-ba5b783420a5","ios":"levelo://app?vid=19ffcca7-419f-4850-94da-ba5b783420a5"},"vehicle_type_id":"4","last_reported":1753208192,"current_range_meters":9600,"station_id":"ce4bh692rcd13ifvqea0","pricing_plan_id":"cebpf4jnsgd1na2vs0mg"},{"bike_id":"7ba08d36-f6c9-4e44-a73c-9a8d81971679","system_id":"levelo_inurba_marseille","lat":43.27073,"lon":5.42279,"is_reserved":false,"is_disabled":false,"rental_uris":{"android":"levelo://app?vid=7ba08d36-f6c9-4e44-a73c-9a8d81971679","ios":"levelo://app?vid=7ba08d36-f6c9-4e44-a73c-9a8d81971679"},"vehicle_type_id":"4","last_reported":1753208192,"current_range_meters":9600,"station_id":"ce4bhk92rcd13ifvqgb0","pricing_plan_id":"cebpf4jnsgd1na2vs0mg"},{"bike_id":"38484441-cf0b-494e-b1cb-e4548c024983","system_id":"levelo_inurba_marseille","lat":43.295288,"lon":5.385395,"is_reserved":false,"is_disabled":false,"rental_uris":{"android":"levelo://app?vid=38484441-cf0b-494e-b1cb-e4548c024983","ios":"levelo://app?vid=38484441-cf0b-494e-b1cb-e4548c024983"},"vehicle_type_id":"4","last_reported":1753208192,"current_range_meters":9600,"station_id":"ce4bgih2rcd13ifvqba0","pricing_plan_id":"cebpf4jnsgd1na2vs0mg"},{"bike_id":"85d42285-5599-4f7f-9cd0-d22050b8b33d","system_id":"levelo_inurba_marseille","lat":43.295748,"lon":5.399824,"is_reserved":false,"is_disabled":false,"rental_uris":{"android":"levelo://app?vid=85d42285-5599-4f7f-9cd0-d22050b8b33d","ios":"levelo://app?vid=85d42285-5599-4f7f-9cd0-d22050b8b33d"},"vehicle_type_id":"4","last_reported":1753208192,"current_range_meters":10000,"station_id":"ce4bh312rcd13ifvqdj0","pricing_plan_id":"cebpf4jnsgd1na2vs0mg"},{"bike_id":"cc569d38-6d09-46ac-8e9d-2e4dd16bc6e9","system_id":"levelo_inurba_marseille","lat":43.22923,"lon":5.3538,"is_reserved":false,"is_disabled":false,"rental_uris":{"android":"levelo://app?vid=cc569d38-6d09-46ac-8e9d-2e4dd16bc6e9","ios":"levelo://app?vid=cc569d38-6d09-46ac-8e9d-2e4dd16bc6e9"},"vehicle_type_id":"4","last_reported":1753208192,"current_range_meters":10000,"station_id":"cpo3532slgdg3j2ikp40","pricing_plan_id":"cebpf4jnsgd1na2vs0mg"},{"bike_id":"b2d21212-8091-45c6-817c-8d09c1cdf95d","system_id":"levelo_inurba_marseille","lat":43.29013,"lon":5.35606,"is_reserved":false,"is_disabled":false,"rental_uris":{"android":"levelo://app?vid=b2d21212-8091-45c6-817c-8d09c1cdf95d","ios":"levelo://app?vid=b2d21212-8091-45c6-817c-8d09c1cdf95d"},"vehicle_type_id":"4","last_reported":1753208192,"current_range_meters":10000,"station_id":"ce4bhb92rcd13ifvqen0","pricing_plan_id":"cebpf4jnsgd1na2vs0mg"},{"bike_id":"f8ee5861-fd79-459d-86dd-bc072e3ff219","system_id":"levelo_inurba_marseille","lat":43.28112,"lon":5.37814,"is_reserved":false,"is_disabled":false,"rental_uris":{"android":"levelo://app?vid=f8ee5861-fd79-459d-86dd-bc072e3ff219","ios":"levelo://app?vid=f8ee5861-fd79-459d-86dd-bc072e3ff219"},"vehicle_type_id":"4","last_reported":1753208192,"current_range_meters":10000,"station_id":"ce4bha12rcd13ifvqee0","pricing_plan_id":"cebpf4jnsgd1na2vs0mg"},{"bike_id":"793fd6b3-654b-45a6-8715-9a52886d623d","system_id":"levelo_inurba_marseille","lat":43.29528,"lon":5.39029,"is_reserved":false,"is_disabled":false,"rental_uris":{"android":"levelo://app?vid=793fd6b3-654b-45a6-8715-9a52886d623d","ios":"levelo://app?vid=793fd6b3-654b-45a6-8715-9a52886d623d"},"vehicle_type_id":"4","last_reported":1753208192,"current_range_meters":10000,"station_id":"ce4bh3p2rcd13ifvqdp0","pricing_plan_id":"cebpf4jnsgd1na2vs0mg"},{"bike_id":"ca03274d-390a-400a-9016-870043e78728","system_id":"levelo_inurba_marseille","lat":43.28413,"lon":5.34967,"is_reserved":false,"is_disabled":false,"rental_uris":{"android":"levelo://app?vid=ca03274d-390a-400a-9016-870043e78728","ios":"levelo://app?vid=ca03274d-390a-400a-9016-870043e78728"},"vehicle_type_id":"4","last_reported":1753208192,"current_range_meters":10800,"station_id":"ce4bhbh2rcd13ifvqepg","pricing_plan_id":"cebpf4jnsgd1na2vs0mg"},{"bike_id":"fb2b2945-d0ca-4e5e-8c1a-0e9891681402","system_id":"levelo_inurba_marseille","lat":43.23956,"lon":5.36636,"is_reserved":false,"is_disabled":false,"rental_uris":{"android":"levelo://app?vid=fb2b2945-d0ca-4e5e-8c1a-0e9891681402","ios":"levelo://app?vid=fb2b2945-d0ca-4e5e-8c1a-0e9891681402"},"vehicle_type_id":"4","last_reported":1753208192,"current_range_meters":10800,"station_id":"ce4bhi12rcd13ifvqfp0","pricing_plan_id":"cebpf4jnsgd1na2vs0mg"},{"bike_id":"491493b9-2788-4066-9c85-2d6f9ab85059","system_id":"levelo_inurba_marseille","lat":43.29264,"lon":5.38443,"is_reserved":false,"is_disabled":false,"rental_uris":{"android":"levelo://app?vid=491493b9-2788-4066-9c85-2d6f9ab85059","ios":"levelo://app?vid=491493b9-2788-4066-9c85-2d6f9ab85059"},"vehicle_type_id":"4","last_reported":1753208192,"current_range_meters":10800,"station_id":"ce4bh692rcd13ifvqea0","pricing_plan_id":"cebpf4jnsgd1na2vs0mg"},{"bike_id":"90420d51-dd1e-405c-8015-4a442ea9ba0d","system_id":"levelo_inurba_marseille","lat":43.28272,"lon":5.35048,"is_reserved":false,"is_disabled":false,"rental_uris":{"android":"levelo://app?vid=90420d51-dd1e-405c-8015-4a442ea9ba0d","ios":"levelo://app?vid=90420d51-dd1e-405c-8015-4a442ea9ba0d"},"vehicle_type_id":"4","last_reported":1753208192,"current_range_meters":10800,"station_id":"ce4bhbp2rcd13ifvqerg","pricing_plan_id":"cebpf4jnsgd1na2vs0mg"},{"bike_id":"0921adb6-432f-4ac2-beca-a1b4eff1af12","system_id":"levelo_inurba_marseille","lat":43.29365,"lon":5.37836,"is_reserved":false,"is_disabled":false,"rental_uris":{"android":"levelo://app?vid=0921adb6-432f-4ac2-beca-a1b4eff1af12","ios":"levelo://app?vid=0921adb6-432f-4ac2-beca-a1b4eff1af12"},"vehicle_type_id":"4","last_reported":1753208192,"current_range_meters":10800,"station_id":"ce4bgjh2rcd13ifvqbf0","pricing_plan_id":"cebpf4jnsgd1na2vs0mg"},{"bike_id":"b818f0b0-da42-4b7d-a3c3-cdf11ca06564","system_id":"levelo_inurba_marseille","lat":43.28667,"lon":5.3636,"is_reserved":false,"is_disabled":false,"rental_uris":{"android":"levelo://app?vid=b818f0b0-da42-4b7d-a3c3-cdf11ca06564","ios":"levelo://app?vid=b818f0b0-da42-4b7d-a3c3-cdf11ca06564"},"vehicle_type_id":"4","last_reported":1753208192,"current_range_meters":11200,"station_id":"ce4bhah2rcd13ifvqej0","pricing_plan_id":"cebpf4jnsgd1na2vs0mg"},{"bike_id":"20a281eb-353f-4ce3-be36-127a9ce94c34","system_id":"levelo_inurba_marseille","lat":43.24803,"lon":5.37456,"is_reserved":false,"is_disabled":false,"rental_uris":{"android":"levelo://app?vid=20a281eb-353f-4ce3-be36-127a9ce94c34","ios":"levelo://app?vid=20a281eb-353f-4ce3-be36-127a9ce94c34"},"vehicle_type_id":"4","last_reported":1753208192,"current_range_meters":11200,"station_id":"ce4bhgh2rcd13ifvqfb0","pricing_plan_id":"cebpf4jnsgd1na2vs0mg"},{"bike_id":"604ee1b8-cd15-41f7-908d-ac7cd3c951b1","system_id":"levelo_inurba_marseille","lat":43.24179,"lon":5.3972,"is_reserved":false,"is_disabled":false,"rental_uris":{"android":"levelo://app?vid=604ee1b8-cd15-41f7-908d-ac7cd3c951b1","ios":"levelo://app?vid=604ee1b8-cd15-41f7-908d-ac7cd3c951b1"},"vehicle_type_id":"4","last_reported":1753208192,"current_range_meters":11200,"station_id":"ce4bhn12rcd13ifvqgpg","pricing_plan_id":"cebpf4jnsgd1na2vs0mg"},{"bike_id":"aed47e46-a072-4e8e-8266-c7af20f03ed8","system_id":"levelo_inurba_marseille","lat":43.284641,"lon":5.34978,"is_reserved":false,"is_disabled":false,"rental_uris":{"android":"levelo://app?vid=aed47e46-a072-4e8e-8266-c7af20f03ed8","ios":"levelo://app?vid=aed47e46-a072-4e8e-8266-c7af20f03ed8"},"vehicle_type_id":"4","last_reported":1753208192,"current_range_meters":11200,"station_id":"","pricing_plan_id":"cebpf4jnsgd1na2vs0mg"},{"bike_id":"d10cc3bd-57c1-4634-88ff-048ee322618d","system_id":"levelo_inurba_marseille","lat":43.28273,"lon":5.35068,"is_reserved":false,"is_disabled":false,"rental_uris":{"android":"levelo://app?vid=d10cc3bd-57c1-4634-88ff-048ee322618d","ios":"levelo://app?vid=d10cc3bd-57c1-4634-88ff-048ee322618d"},"vehicle_type_id":"4","last_reported":1753208192,"current_range_meters":11200,"station_id":"ce4bhbp2rcd13ifvqerg","pricing_plan_id":"cebpf4jnsgd1na2vs0mg"},{"bike_id":"93a8b295-0442-42cd-9a09-5ad251943cf6","system_id":"levelo_inurba_marseille","lat":43.28423,"lon":5.34969,"is_reserved":false,"is_disabled":false,"rental_uris":{"android":"levelo://app?vid=93a8b295-0442-42cd-9a09-5ad251943cf6","ios":"levelo://app?vid=93a8b295-0442-42cd-9a09-5ad251943cf6"},"vehicle_type_id":"4","last_reported":1753208192,"current_range_meters":11200,"station_id":"ce4bhbh2rcd13ifvqepg","pricing_plan_id":"cebpf4jnsgd1na2vs0mg"},{"bike_id":"3aa021a5-a3d2-4894-92ba-e81da41cf4da","system_id":"levelo_inurba_marseille","lat":43.2857,"lon":5.39478,"is_reserved":false,"is_disabled":false,"rental_uris":{"android":"levelo://app?vid=3aa021a5-a3d2-4894-92ba-e81da41cf4da","ios":"levelo://app?vid=3aa021a5-a3d2-4894-92ba-e81da41cf4da"},"vehicle_type_id":"4","last_reported":1753208192,"current_range_meters":11200,"station_id":"ce4bh292rcd13ifvqdg0","pricing_plan_id":"cebpf4jnsgd1na2vs0mg"},{"bike_id":"4fbab865-631a-427e-b05e-9f65d2a80c0f","system_id":"levelo_inurba_marseille","lat":43.27998,"lon":5.41666,"is_reserved":false,"is_disabled":false,"rental_uris":{"android":"levelo://app?vid=4fbab865-631a-427e-b05e-9f65d2a80c0f","ios":"levelo://app?vid=4fbab865-631a-427e-b05e-9f65d2a80c0f"},"vehicle_type_id":"4","last_reported":1753208192,"current_range_meters":11200,"station_id":"ce4bho12rcd13ifvqh1g","pricing_plan_id":"cebpf4jnsgd1na2vs0mg"},{"bike_id":"b41900bf-a806-4927-874c-51b21facd1d4","system_id":"levelo_inurba_marseille","lat":43.24158,"lon":5.36392,"is_reserved":false,"is_disabled":false,"rental_uris":{"android":"levelo://app?vid=b41900bf-a806-4927-874c-51b21facd1d4","ios":"levelo://app?vid=b41900bf-a806-4927-874c-51b21facd1d4"},"vehicle_type_id":"4","last_reported":1753208192,"current_range_meters":11200,"station_id":"cpo36qri1sfpv3e86is0","pricing_plan_id":"cebpf4jnsgd1na2vs0mg"},{"bike_id":"b89ccf80-6f63-46b2-ac8d-cdd46f7f09ef","system_id":"levelo_inurba_marseille","lat":43.26567,"lon":5.39006,"is_reserved":false,"is_disabled":false,"rental_uris":{"android":"levelo://app?vid=b89ccf80-6f63-46b2-ac8d-cdd46f7f09ef","ios":"levelo://app?vid=b89ccf80-6f63-46b2-ac8d-cdd46f7f09ef"},"vehicle_type_id":"4","last_reported":1753208192,"current_range_meters":11200,"station_id":"ce4bhe12rcd13ifvqf30","pricing_plan_id":"cebpf4jnsgd1na2vs0mg"},{"bike_id":"d725914d-dade-4fde-9287-ec243d3883fc","system_id":"levelo_inurba_marseille","lat":43.30302,"lon":5.39218,"is_reserved":false,"is_disabled":false,"rental_uris":{"android":"levelo://app?vid=d725914d-dade-4fde-9287-ec243d3883fc","ios":"levelo://app?vid=d725914d-dade-4fde-9287-ec243d3883fc"},"vehicle_type_id":"4","last_reported":1753208192,"current_range_meters":11600,"station_id":"ce4bgkh2rcd13ifvqbk0","pricing_plan_id":"cebpf4jnsgd1na2vs0mg"},{"bike_id":"a11d093c-4602-402e-9085-6aff7f1a8370","system_id":"levelo_inurba_marseille","lat":43.29531,"lon":5.38544,"is_reserved":false,"is_disabled":true,"rental_uris":{"android":"levelo://app?vid=a11d093c-4602-402e-9085-6aff7f1a8370","ios":"levelo://app?vid=a11d093c-4602-402e-9085-6aff7f1a8370"},"vehicle_type_id":"4","last_reported":1753208192,"current_range_meters":11600,"station_id":"ce4bgih2rcd13ifvqba0","pricing_plan_id":"cebpf4jnsgd1na2vs0mg"},{"bike_id":"0444b4d1-d636-48af-b6de-c5977797376e","system_id":"levelo_inurba_marseille","lat":43.29186,"lon":5.35792,"is_reserved":false,"is_disabled":false,"rental_uris":{"android":"levelo://app?vid=0444b4d1-d636-48af-b6de-c5977797376e","ios":"levelo://app?vid=0444b4d1-d636-48af-b6de-c5977797376e"},"vehicle_type_id":"4","last_reported":1753208192,"current_range_meters":11600,"station_id":"ce4bhb12rcd13ifvqel0","pricing_plan_id":"cebpf4jnsgd1na2vs0mg"},{"bike_id":"33c027a6-7bbc-4a95-9d40-2fcaba41c6dd","system_id":"levelo_inurba_marseille","lat":43.24387,"lon":5.37058,"is_reserved":false,"is_disabled":false,"rental_uris":{"android":"levelo://app?vid=33c027a6-7bbc-4a95-9d40-2fcaba41c6dd","ios":"levelo://app?vid=33c027a6-7bbc-4a95-9d40-2fcaba41c6dd"},"vehicle_type_id":"4","last_reported":1753208192,"current_range_meters":11600,"station_id":"ce4bhhh2rcd13ifvqfk0","pricing_plan_id":"cebpf4jnsgd1na2vs0mg"},{"bike_id":"14bfe123-f8e8-44fc-bbe3-440808c69a8b","system_id":"levelo_inurba_marseille","lat":43.2842,"lon":5.3498,"is_reserved":false,"is_disabled":false,"rental_uris":{"android":"levelo://app?vid=14bfe123-f8e8-44fc-bbe3-440808c69a8b","ios":"levelo://app?vid=14bfe123-f8e8-44fc-bbe3-440808c69a8b"},"vehicle_type_id":"4","last_reported":1753208192,"current_range_meters":11600,"station_id":"ce4bhbh2rcd13ifvqepg","pricing_plan_id":"cebpf4jnsgd1na2vs0mg"},{"bike_id":"2559f024-2580-407c-80dc-1e64c439614e","system_id":"levelo_inurba_marseille","lat":43.32002,"lon":5.38152,"is_reserved":false,"is_disabled":false,"rental_uris":{"android":"levelo://app?vid=2559f024-2580-407c-80dc-1e64c439614e","ios":"levelo://app?vid=2559f024-2580-407c-80dc-1e64c439614e"},"vehicle_type_id":"4","last_reported":1753208192,"current_range_meters":11600,"station_id":"ce4bhr12rcd13ifvqhpg","pricing_plan_id":"cebpf4jnsgd1na2vs0mg"},{"bike_id":"a5f1f0d6-c678-45f4-9b29-96eaa29a3e36","system_id":"levelo_inurba_marseille","lat":43.25139,"lon":5.37326,"is_reserved":false,"is_disabled":false,"rental_uris":{"android":"levelo://app?vid=a5f1f0d6-c678-45f4-9b29-96eaa29a3e36","ios":"levelo://app?vid=a5f1f0d6-c678-45f4-9b29-96eaa29a3e36"},"vehicle_type_id":"4","last_reported":1753208192,"current_range_meters":11600,"station_id":"","pricing_plan_id":"cebpf4jnsgd1na2vs0mg"},{"bike_id":"8683ce90-f074-4b78-8033-8d3c6f735b73","system_id":"levelo_inurba_marseille","lat":43.32359,"lon":5.36754,"is_reserved":false,"is_disabled":true,"rental_uris":{"android":"levelo://app?vid=8683ce90-f074-4b78-8033-8d3c6f735b73","ios":"levelo://app?vid=8683ce90-f074-4b78-8033-8d3c6f735b73"},"vehicle_type_id":"4","last_reported":1753208192,"current_range_meters":12000,"station_id":"ce4bhsh2rcd13ifvqi2g","pricing_plan_id":"cebpf4jnsgd1na2vs0mg"},{"bike_id":"365bc9b2-68bd-4764-ad7a-4ff9aa780715","system_id":"levelo_inurba_marseille","lat":43.29891,"lon":5.436588,"is_reserved":false,"is_disabled":false,"rental_uris":{"android":"levelo://app?vid=365bc9b2-68bd-4764-ad7a-4ff9aa780715","ios":"levelo://app?vid=365bc9b2-68bd-4764-ad7a-4ff9aa780715"},"vehicle_type_id":"4","last_reported":1753208192,"current_range_meters":12000,"station_id":"ce4bhpp2rcd13ifvqhfg","pricing_plan_id":"cebpf4jnsgd1na2vs0mg"},{"bike_id":"06410ab7-646b-4a92-8c67-9be9379422d4","system_id":"levelo_inurba_marseille","lat":43.33033,"lon":5.41287,"is_reserved":false,"is_disabled":false,"rental_uris":{"android":"levelo://app?vid=06410ab7-646b-4a92-8c67-9be9379422d4","ios":"levelo://app?vid=06410ab7-646b-4a92-8c67-9be9379422d4"},"vehicle_type_id":"4","last_reported":1753208192,"current_range_meters":12000,"station_id":"","pricing_plan_id":"cebpf4jnsgd1na2vs0mg"},{"bike_id":"684865e1-b99d-434e-b0c2-2eb4cadc36a5","system_id":"levelo_inurba_marseille","lat":43.29719,"lon":5.36563,"is_reserved":false,"is_disabled":false,"rental_uris":{"android":"levelo://app?vid=684865e1-b99d-434e-b0c2-2eb4cadc36a5","ios":"levelo://app?vid=684865e1-b99d-434e-b0c2-2eb4cadc36a5"},"vehicle_type_id":"4","last_reported":1753208192,"current_range_meters":12000,"station_id":"ce4bgn12rcd13ifvqbt0","pricing_plan_id":"cebpf4jnsgd1na2vs0mg"},{"bike_id":"56b7c0f4-4dde-4a78-9462-923cfaa270e8","system_id":"levelo_inurba_marseille","lat":43.2466,"lon":5.38166,"is_reserved":false,"is_disabled":false,"rental_uris":{"android":"levelo://app?vid=56b7c0f4-4dde-4a78-9462-923cfaa270e8","ios":"levelo://app?vid=56b7c0f4-4dde-4a78-9462-923cfaa270e8"},"vehicle_type_id":"4","last_reported":1753208192,"current_range_meters":12000,"station_id":"ce4bhih2rcd13ifvqfr0","pricing_plan_id":"cebpf4jnsgd1na2vs0mg"},{"bike_id":"f80ee3da-f2fe-4907-8e65-d6e2b6183eca","system_id":"levelo_inurba_marseille","lat":43.27363,"lon":5.36258,"is_reserved":false,"is_disabled":false,"rental_uris":{"android":"levelo://app?vid=f80ee3da-f2fe-4907-8e65-d6e2b6183eca","ios":"levelo://app?vid=f80ee3da-f2fe-4907-8e65-d6e2b6183eca"},"vehicle_type_id":"4","last_reported":1753208192,"current_range_meters":12400,"station_id":"ce4bhbh2rcd13ifvqeo0","pricing_plan_id":"cebpf4jnsgd1na2vs0mg"},{"bike_id":"57baa1b8-27fa-4a06-ab9a-5ba11a931aa8","system_id":"levelo_inurba_marseille","lat":43.29964,"lon":5.38493,"is_reserved":false,"is_disabled":false,"rental_uris":{"android":"levelo://app?vid=57baa1b8-27fa-4a06-ab9a-5ba11a931aa8","ios":"levelo://app?vid=57baa1b8-27fa-4a06-ab9a-5ba11a931aa8"},"vehicle_type_id":"4","last_reported":1753208192,"current_range_meters":12400,"station_id":"ce4bgj92rcd13ifvqbd0","pricing_plan_id":"cebpf4jnsgd1na2vs0mg"},{"bike_id":"c05f8a9b-b11a-421b-bf54-758864ba593c","system_id":"levelo_inurba_marseille","lat":43.25929,"lon":5.40914,"is_reserved":false,"is_disabled":true,"rental_uris":{"android":"levelo://app?vid=c05f8a9b-b11a-421b-bf54-758864ba593c","ios":"levelo://app?vid=c05f8a9b-b11a-421b-bf54-758864ba593c"},"vehicle_type_id":"4","last_reported":1753208192,"current_range_meters":12400,"station_id":"ce4bhm92rcd13ifvqglg","pricing_plan_id":"cebpf4jnsgd1na2vs0mg"},{"bike_id":"75cd56a6-0d47-4b23-a62e-a2435d6b726c","system_id":"levelo_inurba_marseille","lat":43.27371,"lon":5.36245,"is_reserved":false,"is_disabled":false,"rental_uris":{"android":"levelo://app?vid=75cd56a6-0d47-4b23-a62e-a2435d6b726c","ios":"levelo://app?vid=75cd56a6-0d47-4b23-a62e-a2435d6b726c"},"vehicle_type_id":"4","last_reported":1753208192,"current_range_meters":12400,"station_id":"ce4bhbh2rcd13ifvqeo0","pricing_plan_id":"cebpf4jnsgd1na2vs0mg"},{"bike_id":"7dbbb529-7a14-4c15-91b2-36294d397550","system_id":"levelo_inurba_marseille","lat":43.23201,"lon":5.35547,"is_reserved":false,"is_disabled":false,"rental_uris":{"android":"levelo://app?vid=7dbbb529-7a14-4c15-91b2-36294d397550","ios":"levelo://app?vid=7dbbb529-7a14-4c15-91b2-36294d397550"},"vehicle_type_id":"4","last_reported":1753208192,"current_range_meters":12400,"station_id":"ce4bhu92rcd13ifvqi70","pricing_plan_id":"cebpf4jnsgd1na2vs0mg"},{"bike_id":"e49af0c4-4724-49de-b24a-d8e7fcc8c6b8","system_id":"levelo_inurba_marseille","lat":43.28612,"lon":5.35106,"is_reserved":false,"is_disabled":false,"rental_uris":{"android":"levelo://app?vid=e49af0c4-4724-49de-b24a-d8e7fcc8c6b8","ios":"levelo://app?vid=e49af0c4-4724-49de-b24a-d8e7fcc8c6b8"},"vehicle_type_id":"4","last_reported":1753208192,"current_range_meters":12400,"station_id":"ce4bhch2rcd13ifvqeug","pricing_plan_id":"cebpf4jnsgd1na2vs0mg"},{"bike_id":"4433bd94-c5b0-4a48-96c6-dd6c81bebbf0","system_id":"levelo_inurba_marseille","lat":43.32671,"lon":5.40972,"is_reserved":false,"is_disabled":false,"rental_uris":{"android":"levelo://app?vid=4433bd94-c5b0-4a48-96c6-dd6c81bebbf0","ios":"levelo://app?vid=4433bd94-c5b0-4a48-96c6-dd6c81bebbf0"},"vehicle_type_id":"4","last_reported":1753208192,"current_range_meters":12400,"station_id":"ce4bhpp2rcd13ifvqhgg","pricing_plan_id":"cebpf4jnsgd1na2vs0mg"},{"bike_id":"e34edfe0-12b0-479c-ac16-13f3b4e6c2c2","system_id":"levelo_inurba_marseille","lat":43.24075,"lon":5.37748,"is_reserved":false,"is_disabled":false,"rental_uris":{"android":"levelo://app?vid=e34edfe0-12b0-479c-ac16-13f3b4e6c2c2","ios":"levelo://app?vid=e34edfe0-12b0-479c-ac16-13f3b4e6c2c2"},"vehicle_type_id":"4","last_reported":1753208192,"current_range_meters":12800,"station_id":"ce4bhnp2rcd13ifvqgvg","pricing_plan_id":"cebpf4jnsgd1na2vs0mg"},{"bike_id":"27d356a8-a524-44ee-999c-cdee9783dcf1","system_id":"levelo_inurba_marseille","lat":43.30386,"lon":5.42457,"is_reserved":false,"is_disabled":false,"rental_uris":{"android":"levelo://app?vid=27d356a8-a524-44ee-999c-cdee9783dcf1","ios":"levelo://app?vid=27d356a8-a524-44ee-999c-cdee9783dcf1"},"vehicle_type_id":"4","last_reported":1753208192,"current_range_meters":12800,"station_id":"ce4bhoh2rcd13ifvqh6g","pricing_plan_id":"cebpf4jnsgd1na2vs0mg"},{"bike_id":"79b507a4-6b69-4862-bc07-d60efb691c7d","system_id":"levelo_inurba_marseille","lat":43.28485,"lon":5.38536,"is_reserved":false,"is_disabled":false,"rental_uris":{"android":"levelo://app?vid=79b507a4-6b69-4862-bc07-d60efb691c7d","ios":"levelo://app?vid=79b507a4-6b69-4862-bc07-d60efb691c7d"},"vehicle_type_id":"4","last_reported":1753208192,"current_range_meters":12800,"station_id":"","pricing_plan_id":"cebpf4jnsgd1na2vs0mg"},{"bike_id":"b51fb22b-761e-4833-8443-0102329140da","system_id":"levelo_inurba_marseille","lat":43.28614,"lon":5.35108,"is_reserved":false,"is_disabled":false,"rental_uris":{"android":"levelo://app?vid=b51fb22b-761e-4833-8443-0102329140da","ios":"levelo://app?vid=b51fb22b-761e-4833-8443-0102329140da"},"vehicle_type_id":"4","last_reported":1753208192,"current_range_meters":12800,"station_id":"ce4bhch2rcd13ifvqeug","pricing_plan_id":"cebpf4jnsgd1na2vs0mg"},{"bike_id":"f16f93eb-3e41-40c6-8f1a-628ef608e3db","system_id":"levelo_inurba_marseille","lat":43.25817,"lon":5.3942,"is_reserved":false,"is_disabled":false,"rental_uris":{"android":"levelo://app?vid=f16f93eb-3e41-40c6-8f1a-628ef608e3db","ios":"levelo://app?vid=f16f93eb-3e41-40c6-8f1a-628ef608e3db"},"vehicle_type_id":"4","last_reported":1753208192,"current_range_meters":12800,"station_id":"ce4bhip2rcd13ifvqft0","pricing_plan_id":"cebpf4jnsgd1na2vs0mg"},{"bike_id":"703b2d5a-3385-4fc9-b823-9353ed68089b","system_id":"levelo_inurba_marseille","lat":43.29867,"lon":5.38915,"is_reserved":false,"is_disabled":false,"rental_uris":{"android":"levelo://app?vid=703b2d5a-3385-4fc9-b823-9353ed68089b","ios":"levelo://app?vid=703b2d5a-3385-4fc9-b823-9353ed68089b"},"vehicle_type_id":"4","last_reported":1753208192,"current_range_meters":12800,"station_id":"ce4bh392rcd13ifvqdl0","pricing_plan_id":"cebpf4jnsgd1na2vs0mg"},{"bike_id":"297aff61-9b5b-4c7d-82fe-cfa9d692766e","system_id":"levelo_inurba_marseille","lat":43.29687,"lon":5.37273,"is_reserved":false,"is_disabled":false,"rental_uris":{"android":"levelo://app?vid=297aff61-9b5b-4c7d-82fe-cfa9d692766e","ios":"levelo://app?vid=297aff61-9b5b-4c7d-82fe-cfa9d692766e"},"vehicle_type_id":"4","last_reported":1753208192,"current_range_meters":12800,"station_id":"ce4bgk12rcd13ifvqbj0","pricing_plan_id":"cebpf4jnsgd1na2vs0mg"},{"bike_id":"52606b07-ba28-4418-ad17-53e4730c41d6","system_id":"levelo_inurba_marseille","lat":43.25085,"lon":5.39521,"is_reserved":false,"is_disabled":false,"rental_uris":{"android":"levelo://app?vid=52606b07-ba28-4418-ad17-53e4730c41d6","ios":"levelo://app?vid=52606b07-ba28-4418-ad17-53e4730c41d6"},"vehicle_type_id":"4","last_reported":1753208192,"current_range_meters":12800,"station_id":"ce4bhm12rcd13ifvqgkg","pricing_plan_id":"cebpf4jnsgd1na2vs0mg"},{"bike_id":"7dbb199c-fb3f-439b-b021-b22a25a294b5","system_id":"levelo_inurba_marseille","lat":43.313137,"lon":5.385718,"is_reserved":false,"is_disabled":false,"rental_uris":{"android":"levelo://app?vid=7dbb199c-fb3f-439b-b021-b22a25a294b5","ios":"levelo://app?vid=7dbb199c-fb3f-439b-b021-b22a25a294b5"},"vehicle_type_id":"4","last_reported":1753208192,"current_range_meters":13600,"station_id":"","pricing_plan_id":"cebpf4jnsgd1na2vs0mg"},{"bike_id":"89e5300e-f524-48d1-8669-762241baab60","system_id":"levelo_inurba_marseille","lat":43.22933,"lon":5.3536,"is_reserved":false,"is_disabled":false,"rental_uris":{"android":"levelo://app?vid=89e5300e-f524-48d1-8669-762241baab60","ios":"levelo://app?vid=89e5300e-f524-48d1-8669-762241baab60"},"vehicle_type_id":"4","last_reported":1753208192,"current_range_meters":13600,"station_id":"cpo3532slgdg3j2ikp40","pricing_plan_id":"cebpf4jnsgd1na2vs0mg"},{"bike_id":"0d6cba82-d9bc-48b7-9998-faabe790dfb6","system_id":"levelo_inurba_marseille","lat":43.289373,"lon":5.36408,"is_reserved":false,"is_disabled":false,"rental_uris":{"android":"levelo://app?vid=0d6cba82-d9bc-48b7-9998-faabe790dfb6","ios":"levelo://app?vid=0d6cba82-d9bc-48b7-9998-faabe790dfb6"},"vehicle_type_id":"4","last_reported":1753208192,"current_range_meters":12800,"station_id":"ce4bhc92rcd13ifvqetg","pricing_plan_id":"cebpf4jnsgd1na2vs0mg"},{"bike_id":"d9438eb8-ff5e-42f7-858b-99f1cb744856","system_id":"levelo_inurba_marseille","lat":43.2862,"lon":5.3512,"is_reserved":false,"is_disabled":false,"rental_uris":{"android":"levelo://app?vid=d9438eb8-ff5e-42f7-858b-99f1cb744856","ios":"levelo://app?vid=d9438eb8-ff5e-42f7-858b-99f1cb744856"},"vehicle_type_id":"4","last_reported":1753208192,"current_range_meters":13600,"station_id":"ce4bhch2rcd13ifvqeug","pricing_plan_id":"cebpf4jnsgd1na2vs0mg"},{"bike_id":"7be012ec-5173-47e7-ba3c-eebf114a92cb","system_id":"levelo_inurba_marseille","lat":43.29193,"lon":5.35791,"is_reserved":false,"is_disabled":false,"rental_uris":{"android":"levelo://app?vid=7be012ec-5173-47e7-ba3c-eebf114a92cb","ios":"levelo://app?vid=7be012ec-5173-47e7-ba3c-eebf114a92cb"},"vehicle_type_id":"4","last_reported":1753208192,"current_range_meters":13600,"station_id":"ce4bhb12rcd13ifvqel0","pricing_plan_id":"cebpf4jnsgd1na2vs0mg"},{"bike_id":"b5dfd7c3-b5e2-4eec-b901-bc875a62f98f","system_id":"levelo_inurba_marseille","lat":43.30296,"lon":5.39206,"is_reserved":false,"is_disabled":false,"rental_uris":{"android":"levelo://app?vid=b5dfd7c3-b5e2-4eec-b901-bc875a62f98f","ios":"levelo://app?vid=b5dfd7c3-b5e2-4eec-b901-bc875a62f98f"},"vehicle_type_id":"4","last_reported":1753208192,"current_range_meters":13600,"station_id":"ce4bgkh2rcd13ifvqbk0","pricing_plan_id":"cebpf4jnsgd1na2vs0mg"},{"bike_id":"05d42747-d0a7-485b-804a-c208d042127e","system_id":"levelo_inurba_marseille","lat":43.241662,"lon":5.364053,"is_reserved":false,"is_disabled":false,"rental_uris":{"android":"levelo://app?vid=05d42747-d0a7-485b-804a-c208d042127e","ios":"levelo://app?vid=05d42747-d0a7-485b-804a-c208d042127e"},"vehicle_type_id":"4","last_reported":1753208192,"current_range_meters":13600,"station_id":"cpo36qri1sfpv3e86is0","pricing_plan_id":"cebpf4jnsgd1na2vs0mg"},{"bike_id":"552fd502-27af-481f-9ff2-7cf70ea681d3","system_id":"levelo_inurba_marseille","lat":43.31886,"lon":5.40733,"is_reserved":false,"is_disabled":false,"rental_uris":{"android":"levelo://app?vid=552fd502-27af-481f-9ff2-7cf70ea681d3","ios":"levelo://app?vid=552fd502-27af-481f-9ff2-7cf70ea681d3"},"vehicle_type_id":"4","last_reported":1753208192,"current_range_meters":14000,"station_id":"ce4bhq12rcd13ifvqhig","pricing_plan_id":"cebpf4jnsgd1na2vs0mg"},{"bike_id":"f0c1c567-3404-405c-9e98-69849925e354","system_id":"levelo_inurba_marseille","lat":43.24412,"lon":5.37016,"is_reserved":false,"is_disabled":false,"rental_uris":{"android":"levelo://app?vid=f0c1c567-3404-405c-9e98-69849925e354","ios":"levelo://app?vid=f0c1c567-3404-405c-9e98-69849925e354"},"vehicle_type_id":"4","last_reported":1753208192,"current_range_meters":14000,"station_id":"","pricing_plan_id":"cebpf4jnsgd1na2vs0mg"},{"bike_id":"3b571403-c77a-4f32-8595-a708947242f5","system_id":"levelo_inurba_marseille","lat":43.29581,"lon":5.36743,"is_reserved":false,"is_disabled":false,"rental_uris":{"android":"levelo://app?vid=3b571403-c77a-4f32-8595-a708947242f5","ios":"levelo://app?vid=3b571403-c77a-4f32-8595-a708947242f5"},"vehicle_type_id":"4","last_reported":1753208192,"current_range_meters":14000,"station_id":"ce4bgph2rcd13ifvqc2g","pricing_plan_id":"cebpf4jnsgd1na2vs0mg"},{"bike_id":"4a35db4e-5a3f-4d45-b760-465bfb68f087","system_id":"levelo_inurba_marseille","lat":43.29274,"lon":5.36839,"is_reserved":false,"is_disabled":false,"rental_uris":{"android":"levelo://app?vid=4a35db4e-5a3f-4d45-b760-465bfb68f087","ios":"levelo://app?vid=4a35db4e-5a3f-4d45-b760-465bfb68f087"},"vehicle_type_id":"4","last_reported":1753208192,"current_range_meters":14000,"station_id":"ce4bhbp2rcd13ifvqesg","pricing_plan_id":"cebpf4jnsgd1na2vs0mg"},{"bike_id":"c9dbd36b-479c-4a5c-b200-3aa7673340d9","system_id":"levelo_inurba_marseille","lat":43.241448,"lon":5.363743,"is_reserved":false,"is_disabled":false,"rental_uris":{"android":"levelo://app?vid=c9dbd36b-479c-4a5c-b200-3aa7673340d9","ios":"levelo://app?vid=c9dbd36b-479c-4a5c-b200-3aa7673340d9"},"vehicle_type_id":"4","last_reported":1753208192,"current_range_meters":14000,"station_id":"","pricing_plan_id":"cebpf4jnsgd1na2vs0mg"},{"bike_id":"c39a6df9-a35c-4260-8b4e-79b255495958","system_id":"levelo_inurba_marseille","lat":43.27673,"lon":5.38851,"is_reserved":false,"is_disabled":false,"rental_uris":{"android":"levelo://app?vid=c39a6df9-a35c-4260-8b4e-79b255495958","ios":"levelo://app?vid=c39a6df9-a35c-4260-8b4e-79b255495958"},"vehicle_type_id":"4","last_reported":1753208192,"current_range_meters":14000,"station_id":"ce4bhi12rcd13ifvqfo0","pricing_plan_id":"cebpf4jnsgd1na2vs0mg"},{"bike_id":"bc5a821c-c236-48a4-bbdb-0cd112aed1ec","system_id":"levelo_inurba_marseille","lat":43.27623,"lon":5.36112,"is_reserved":false,"is_disabled":false,"rental_uris":{"android":"levelo://app?vid=bc5a821c-c236-48a4-bbdb-0cd112aed1ec","ios":"levelo://app?vid=bc5a821c-c236-48a4-bbdb-0cd112aed1ec"},"vehicle_type_id":"4","last_reported":1753208192,"current_range_meters":14000,"station_id":"ce4bgj92rcd13ifvqbe0","pricing_plan_id":"cebpf4jnsgd1na2vs0mg"},{"bike_id":"aa5097b6-6968-4aec-b711-e7780938924b","system_id":"levelo_inurba_marseille","lat":43.329702,"lon":5.358988,"is_reserved":false,"is_disabled":false,"rental_uris":{"android":"levelo://app?vid=aa5097b6-6968-4aec-b711-e7780938924b","ios":"levelo://app?vid=aa5097b6-6968-4aec-b711-e7780938924b"},"vehicle_type_id":"4","last_reported":1753208192,"current_range_meters":14000,"station_id":"","pricing_plan_id":"cebpf4jnsgd1na2vs0mg"},{"bike_id":"a703a7be-a906-45a0-8cb0-41bf3d5b6688","system_id":"levelo_inurba_marseille","lat":43.281104,"lon":5.378346,"is_reserved":false,"is_disabled":false,"rental_uris":{"android":"levelo://app?vid=a703a7be-a906-45a0-8cb0-41bf3d5b6688","ios":"levelo://app?vid=a703a7be-a906-45a0-8cb0-41bf3d5b6688"},"vehicle_type_id":"4","last_reported":1753208192,"current_range_meters":14400,"station_id":"ce4bha12rcd13ifvqee0","pricing_plan_id":"cebpf4jnsgd1na2vs0mg"},{"bike_id":"b8157e49-d09e-4d5e-90fd-5d667c09b9a5","system_id":"levelo_inurba_marseille","lat":43.29058,"lon":5.3717,"is_reserved":false,"is_disabled":true,"rental_uris":{"android":"levelo://app?vid=b8157e49-d09e-4d5e-90fd-5d667c09b9a5","ios":"levelo://app?vid=b8157e49-d09e-4d5e-90fd-5d667c09b9a5"},"vehicle_type_id":"4","last_reported":1753208192,"current_range_meters":14400,"station_id":"ce4bgh92rcd13ifvqb40","pricing_plan_id":"cebpf4jnsgd1na2vs0mg"},{"bike_id":"0868c82c-7a4e-4bd7-9a95-bb3bf688109b","system_id":"levelo_inurba_marseille","lat":43.27374,"lon":5.36256,"is_reserved":false,"is_disabled":false,"rental_uris":{"android":"levelo://app?vid=0868c82c-7a4e-4bd7-9a95-bb3bf688109b","ios":"levelo://app?vid=0868c82c-7a4e-4bd7-9a95-bb3bf688109b"},"vehicle_type_id":"4","last_reported":1753208192,"current_range_meters":14400,"station_id":"ce4bhbh2rcd13ifvqeo0","pricing_plan_id":"cebpf4jnsgd1na2vs0mg"},{"bike_id":"f892fe53-aa26-4c3d-928e-ea96e7a4f0dc","system_id":"levelo_inurba_marseille","lat":43.28267,"lon":5.3505,"is_reserved":false,"is_disabled":false,"rental_uris":{"android":"levelo://app?vid=f892fe53-aa26-4c3d-928e-ea96e7a4f0dc","ios":"levelo://app?vid=f892fe53-aa26-4c3d-928e-ea96e7a4f0dc"},"vehicle_type_id":"4","last_reported":1753208192,"current_range_meters":14400,"station_id":"ce4bhbp2rcd13ifvqerg","pricing_plan_id":"cebpf4jnsgd1na2vs0mg"},{"bike_id":"85b65ca0-7365-40fb-8905-5a0638bc8593","system_id":"levelo_inurba_marseille","lat":43.22962,"lon":5.35358,"is_reserved":false,"is_disabled":false,"rental_uris":{"android":"levelo://app?vid=85b65ca0-7365-40fb-8905-5a0638bc8593","ios":"levelo://app?vid=85b65ca0-7365-40fb-8905-5a0638bc8593"},"vehicle_type_id":"4","last_reported":1753208192,"current_range_meters":14400,"station_id":"cpo3532slgdg3j2ikp40","pricing_plan_id":"cebpf4jnsgd1na2vs0mg"},{"bike_id":"1814aead-c7f1-4b20-8570-698d90166305","system_id":"levelo_inurba_marseille","lat":43.2582,"lon":5.39438,"is_reserved":false,"is_disabled":false,"rental_uris":{"android":"levelo://app?vid=1814aead-c7f1-4b20-8570-698d90166305","ios":"levelo://app?vid=1814aead-c7f1-4b20-8570-698d90166305"},"vehicle_type_id":"4","last_reported":1753208192,"current_range_meters":14400,"station_id":"ce4bhih2rcd13ifvqfr0","pricing_plan_id":"cebpf4jnsgd1na2vs0mg"},{"bike_id":"3c21b9e1-b296-4844-a6d5-b8d19c7f36c9","system_id":"levelo_inurba_marseille","lat":43.2918,"lon":5.38438,"is_reserved":false,"is_disabled":false,"rental_uris":{"android":"levelo://app?vid=3c21b9e1-b296-4844-a6d5-b8d19c7f36c9","ios":"levelo://app?vid=3c21b9e1-b296-4844-a6d5-b8d19c7f36c9"},"vehicle_type_id":"4","last_reported":1753208192,"current_range_meters":14400,"station_id":"","pricing_plan_id":"cebpf4jnsgd1na2vs0mg"},{"bike_id":"843cdb0c-84e8-4994-b72c-e821d7fead15","system_id":"levelo_inurba_marseille","lat":43.27372,"lon":5.36258,"is_reserved":false,"is_disabled":false,"rental_uris":{"android":"levelo://app?vid=843cdb0c-84e8-4994-b72c-e821d7fead15","ios":"levelo://app?vid=843cdb0c-84e8-4994-b72c-e821d7fead15"},"vehicle_type_id":"4","last_reported":1753208192,"current_range_meters":14400,"station_id":"ce4bhbh2rcd13ifvqeo0","pricing_plan_id":"cebpf4jnsgd1na2vs0mg"},{"bike_id":"cba62cfa-8f57-49a1-85db-f9c30d956fe2","system_id":"levelo_inurba_marseille","lat":43.27377,"lon":5.36255,"is_reserved":false,"is_disabled":false,"rental_uris":{"android":"levelo://app?vid=cba62cfa-8f57-49a1-85db-f9c30d956fe2","ios":"levelo://app?vid=cba62cfa-8f57-49a1-85db-f9c30d956fe2"},"vehicle_type_id":"4","last_reported":1753208192,"current_range_meters":14400,"station_id":"ce4bhbh2rcd13ifvqeo0","pricing_plan_id":"cebpf4jnsgd1na2vs0mg"},{"bike_id":"919be20b-93b4-4141-9265-13a9f4c8d558","system_id":"levelo_inurba_marseille","lat":43.28616,"lon":5.35106,"is_reserved":false,"is_disabled":false,"rental_uris":{"android":"levelo://app?vid=919be20b-93b4-4141-9265-13a9f4c8d558","ios":"levelo://app?vid=919be20b-93b4-4141-9265-13a9f4c8d558"},"vehicle_type_id":"4","last_reported":1753208192,"current_range_meters":14400,"station_id":"ce4bhch2rcd13ifvqeug","pricing_plan_id":"cebpf4jnsgd1na2vs0mg"},{"bike_id":"56d29d7b-0840-4d8c-8300-f08d40064ddb","system_id":"levelo_inurba_marseille","lat":43.22494,"lon":5.34773,"is_reserved":false,"is_disabled":false,"rental_uris":{"android":"levelo://app?vid=56d29d7b-0840-4d8c-8300-f08d40064ddb","ios":"levelo://app?vid=56d29d7b-0840-4d8c-8300-f08d40064ddb"},"vehicle_type_id":"4","last_reported":1753208192,"current_range_meters":14400,"station_id":"st_cvj5dfep6f1abm77gieg","pricing_plan_id":"cebpf4jnsgd1na2vs0mg"},{"bike_id":"5e18fb79-d37a-4920-98d3-ba1ffaee3ba2","system_id":"levelo_inurba_marseille","lat":43.29009,"lon":5.35601,"is_reserved":false,"is_disabled":false,"rental_uris":{"android":"levelo://app?vid=5e18fb79-d37a-4920-98d3-ba1ffaee3ba2","ios":"levelo://app?vid=5e18fb79-d37a-4920-98d3-ba1ffaee3ba2"},"vehicle_type_id":"4","last_reported":1753208192,"current_range_meters":14800,"station_id":"ce4bhb92rcd13ifvqen0","pricing_plan_id":"cebpf4jnsgd1na2vs0mg"},{"bike_id":"f7d24d79-fb73-44fe-a579-eccbe39a5e1e","system_id":"levelo_inurba_marseille","lat":43.241696,"lon":5.36403,"is_reserved":false,"is_disabled":false,"rental_uris":{"android":"levelo://app?vid=f7d24d79-fb73-44fe-a579-eccbe39a5e1e","ios":"levelo://app?vid=f7d24d79-fb73-44fe-a579-eccbe39a5e1e"},"vehicle_type_id":"4","last_reported":1753208192,"current_range_meters":14800,"station_id":"cpo36qri1sfpv3e86is0","pricing_plan_id":"cebpf4jnsgd1na2vs0mg"},{"bike_id":"6e59cc13-0115-431c-8e93-d57f82b872e9","system_id":"levelo_inurba_marseille","lat":43.32618,"lon":5.36453,"is_reserved":false,"is_disabled":false,"rental_uris":{"android":"levelo://app?vid=6e59cc13-0115-431c-8e93-d57f82b872e9","ios":"levelo://app?vid=6e59cc13-0115-431c-8e93-d57f82b872e9"},"vehicle_type_id":"4","last_reported":1753208192,"current_range_meters":14800,"station_id":"","pricing_plan_id":"cebpf4jnsgd1na2vs0mg"},{"bike_id":"fc0d8fb4-1fda-4642-b571-7668e899a583","system_id":"levelo_inurba_marseille","lat":43.25012,"lon":5.38931,"is_reserved":false,"is_disabled":false,"rental_uris":{"android":"levelo://app?vid=fc0d8fb4-1fda-4642-b571-7668e899a583","ios":"levelo://app?vid=fc0d8fb4-1fda-4642-b571-7668e899a583"},"vehicle_type_id":"4","last_reported":1753208192,"current_range_meters":14800,"station_id":"ce4bhgp2rcd13ifvqfd0","pricing_plan_id":"cebpf4jnsgd1na2vs0mg"},{"bike_id":"e6cda94a-dc1e-40a0-b619-3b8e9e863311","system_id":"levelo_inurba_marseille","lat":43.29252,"lon":5.3763,"is_reserved":false,"is_disabled":false,"rental_uris":{"android":"levelo://app?vid=e6cda94a-dc1e-40a0-b619-3b8e9e863311","ios":"levelo://app?vid=e6cda94a-dc1e-40a0-b619-3b8e9e863311"},"vehicle_type_id":"4","last_reported":1753208192,"current_range_meters":14800,"station_id":"ce4bgi12rcd13ifvqb80","pricing_plan_id":"cebpf4jnsgd1na2vs0mg"},{"bike_id":"1e6792f6-e23b-4a70-9f0d-cfc180638578","system_id":"levelo_inurba_marseille","lat":43.27413,"lon":5.39416,"is_reserved":false,"is_disabled":false,"rental_uris":{"android":"levelo://app?vid=1e6792f6-e23b-4a70-9f0d-cfc180638578","ios":"levelo://app?vid=1e6792f6-e23b-4a70-9f0d-cfc180638578"},"vehicle_type_id":"4","last_reported":1753208192,"current_range_meters":14800,"station_id":"ce4bhgp2rcd13ifvqfe0","pricing_plan_id":"cebpf4jnsgd1na2vs0mg"},{"bike_id":"db9325cc-8474-4b5a-b04b-2269aec76b14","system_id":"levelo_inurba_marseille","lat":43.30307,"lon":5.39218,"is_reserved":false,"is_disabled":false,"rental_uris":{"android":"levelo://app?vid=db9325cc-8474-4b5a-b04b-2269aec76b14","ios":"levelo://app?vid=db9325cc-8474-4b5a-b04b-2269aec76b14"},"vehicle_type_id":"4","last_reported":1753208192,"current_range_meters":15200,"station_id":"ce4bgkh2rcd13ifvqbk0","pricing_plan_id":"cebpf4jnsgd1na2vs0mg"},{"bike_id":"2354a578-b732-43f4-ac7f-14badb5b4c61","system_id":"levelo_inurba_marseille","lat":43.22506,"lon":5.34784,"is_reserved":false,"is_disabled":false,"rental_uris":{"android":"levelo://app?vid=2354a578-b732-43f4-ac7f-14badb5b4c61","ios":"levelo://app?vid=2354a578-b732-43f4-ac7f-14badb5b4c61"},"vehicle_type_id":"4","last_reported":1753208192,"current_range_meters":15200,"station_id":"st_cvj5dfep6f1abm77gieg","pricing_plan_id":"cebpf4jnsgd1na2vs0mg"},{"bike_id":"512c3567-feeb-4f91-be97-c5e93f37be8a","system_id":"levelo_inurba_marseille","lat":43.295319,"lon":5.385415,"is_reserved":false,"is_disabled":false,"rental_uris":{"android":"levelo://app?vid=512c3567-feeb-4f91-be97-c5e93f37be8a","ios":"levelo://app?vid=512c3567-feeb-4f91-be97-c5e93f37be8a"},"vehicle_type_id":"4","last_reported":1753208192,"current_range_meters":15200,"station_id":"ce4bgih2rcd13ifvqba0","pricing_plan_id":"cebpf4jnsgd1na2vs0mg"},{"bike_id":"5e7f45bd-ee89-449c-b562-b8db42ad05f2","system_id":"levelo_inurba_marseille","lat":43.28391,"lon":5.34996,"is_reserved":false,"is_disabled":false,"rental_uris":{"android":"levelo://app?vid=5e7f45bd-ee89-449c-b562-b8db42ad05f2","ios":"levelo://app?vid=5e7f45bd-ee89-449c-b562-b8db42ad05f2"},"vehicle_type_id":"4","last_reported":1753208192,"current_range_meters":15200,"station_id":"ce4bhbh2rcd13ifvqepg","pricing_plan_id":"cebpf4jnsgd1na2vs0mg"},{"bike_id":"535ecc09-6590-40fa-a131-69903ee7e903","system_id":"levelo_inurba_marseille","lat":43.29783,"lon":5.39341,"is_reserved":false,"is_disabled":false,"rental_uris":{"android":"levelo://app?vid=535ecc09-6590-40fa-a131-69903ee7e903","ios":"levelo://app?vid=535ecc09-6590-40fa-a131-69903ee7e903"},"vehicle_type_id":"4","last_reported":1753208192,"current_range_meters":15200,"station_id":"chh1huq6cuj3fo74tm60","pricing_plan_id":"cebpf4jnsgd1na2vs0mg"},{"bike_id":"78247c09-1d36-4598-aa4b-9291c62e6fb7","system_id":"levelo_inurba_marseille","lat":43.28614,"lon":5.35103,"is_reserved":false,"is_disabled":false,"rental_uris":{"android":"levelo://app?vid=78247c09-1d36-4598-aa4b-9291c62e6fb7","ios":"levelo://app?vid=78247c09-1d36-4598-aa4b-9291c62e6fb7"},"vehicle_type_id":"4","last_reported":1753208192,"current_range_meters":15200,"station_id":"ce4bhch2rcd13ifvqeug","pricing_plan_id":"cebpf4jnsgd1na2vs0mg"},{"bike_id":"c774f4c2-bc5f-4cf6-9563-a432097878f3","system_id":"levelo_inurba_marseille","lat":43.29191,"lon":5.3579,"is_reserved":false,"is_disabled":false,"rental_uris":{"android":"levelo://app?vid=c774f4c2-bc5f-4cf6-9563-a432097878f3","ios":"levelo://app?vid=c774f4c2-bc5f-4cf6-9563-a432097878f3"},"vehicle_type_id":"4","last_reported":1753208192,"current_range_meters":15200,"station_id":"ce4bhb12rcd13ifvqel0","pricing_plan_id":"cebpf4jnsgd1na2vs0mg"},{"bike_id":"e44893bb-5cdf-4921-b4e8-39ee578180a1","system_id":"levelo_inurba_marseille","lat":43.24082,"lon":5.37742,"is_reserved":false,"is_disabled":false,"rental_uris":{"android":"levelo://app?vid=e44893bb-5cdf-4921-b4e8-39ee578180a1","ios":"levelo://app?vid=e44893bb-5cdf-4921-b4e8-39ee578180a1"},"vehicle_type_id":"4","last_reported":1753208192,"current_range_meters":15200,"station_id":"ce4bhnp2rcd13ifvqgvg","pricing_plan_id":"cebpf4jnsgd1na2vs0mg"},{"bike_id":"d3eea4a0-76ba-4059-ba6b-c1ecd6270925","system_id":"levelo_inurba_marseille","lat":43.21199,"lon":5.35042,"is_reserved":false,"is_disabled":false,"rental_uris":{"android":"levelo://app?vid=d3eea4a0-76ba-4059-ba6b-c1ecd6270925","ios":"levelo://app?vid=d3eea4a0-76ba-4059-ba6b-c1ecd6270925"},"vehicle_type_id":"4","last_reported":1753208192,"current_range_meters":16000,"station_id":"st_cvj6sg6p6f1abm77japg","pricing_plan_id":"cebpf4jnsgd1na2vs0mg"},{"bike_id":"1e319f55-1426-413d-a2ef-4d2b0a13ea5f","system_id":"levelo_inurba_marseille","lat":43.28721,"lon":5.36081,"is_reserved":false,"is_disabled":false,"rental_uris":{"android":"levelo://app?vid=1e319f55-1426-413d-a2ef-4d2b0a13ea5f","ios":"levelo://app?vid=1e319f55-1426-413d-a2ef-4d2b0a13ea5f"},"vehicle_type_id":"4","last_reported":1753208192,"current_range_meters":16000,"station_id":"cki0cbj6b192h4jlfktg","pricing_plan_id":"cebpf4jnsgd1na2vs0mg"},{"bike_id":"03389a1e-9944-4a7b-89cb-8dea5a5ef7a5","system_id":"levelo_inurba_marseille","lat":43.29197,"lon":5.35783,"is_reserved":false,"is_disabled":false,"rental_uris":{"android":"levelo://app?vid=03389a1e-9944-4a7b-89cb-8dea5a5ef7a5","ios":"levelo://app?vid=03389a1e-9944-4a7b-89cb-8dea5a5ef7a5"},"vehicle_type_id":"4","last_reported":1753208192,"current_range_meters":16000,"station_id":"ce4bhb12rcd13ifvqel0","pricing_plan_id":"cebpf4jnsgd1na2vs0mg"},{"bike_id":"768a6774-6f88-4d8b-b7a7-29c2587ddd57","system_id":"levelo_inurba_marseille","lat":43.27181,"lon":5.40982,"is_reserved":false,"is_disabled":false,"rental_uris":{"android":"levelo://app?vid=768a6774-6f88-4d8b-b7a7-29c2587ddd57","ios":"levelo://app?vid=768a6774-6f88-4d8b-b7a7-29c2587ddd57"},"vehicle_type_id":"4","last_reported":1753208192,"current_range_meters":16000,"station_id":"ce4bhl12rcd13ifvqgf0","pricing_plan_id":"cebpf4jnsgd1na2vs0mg"},{"bike_id":"97ac9999-e273-49a9-a6da-7a63c1b8fefa","system_id":"levelo_inurba_marseille","lat":43.27372,"lon":5.36262,"is_reserved":false,"is_disabled":false,"rental_uris":{"android":"levelo://app?vid=97ac9999-e273-49a9-a6da-7a63c1b8fefa","ios":"levelo://app?vid=97ac9999-e273-49a9-a6da-7a63c1b8fefa"},"vehicle_type_id":"4","last_reported":1753208192,"current_range_meters":16000,"station_id":"ce4bhbh2rcd13ifvqeo0","pricing_plan_id":"cebpf4jnsgd1na2vs0mg"},{"bike_id":"fe50cf1d-fc61-4e48-98f2-ea42037cc2b3","system_id":"levelo_inurba_marseille","lat":43.22928,"lon":5.35364,"is_reserved":false,"is_disabled":false,"rental_uris":{"android":"levelo://app?vid=fe50cf1d-fc61-4e48-98f2-ea42037cc2b3","ios":"levelo://app?vid=fe50cf1d-fc61-4e48-98f2-ea42037cc2b3"},"vehicle_type_id":"4","last_reported":1753208192,"current_range_meters":16000,"station_id":"cpo3532slgdg3j2ikp40","pricing_plan_id":"cebpf4jnsgd1na2vs0mg"},{"bike_id":"c768222e-5427-47bf-9d12-784e83813219","system_id":"levelo_inurba_marseille","lat":43.28997,"lon":5.35625,"is_reserved":false,"is_disabled":false,"rental_uris":{"android":"levelo://app?vid=c768222e-5427-47bf-9d12-784e83813219","ios":"levelo://app?vid=c768222e-5427-47bf-9d12-784e83813219"},"vehicle_type_id":"4","last_reported":1753208192,"current_range_meters":16000,"station_id":"ce4bhb92rcd13ifvqen0","pricing_plan_id":"cebpf4jnsgd1na2vs0mg"},{"bike_id":"8973ed20-ecd1-4749-a175-b839b2b6812a","system_id":"levelo_inurba_marseille","lat":43.247182,"lon":5.373955,"is_reserved":false,"is_disabled":false,"rental_uris":{"android":"levelo://app?vid=8973ed20-ecd1-4749-a175-b839b2b6812a","ios":"levelo://app?vid=8973ed20-ecd1-4749-a175-b839b2b6812a"},"vehicle_type_id":"4","last_reported":1753208192,"current_range_meters":16000,"station_id":"ce4bhgh2rcd13ifvqfb0","pricing_plan_id":"cebpf4jnsgd1na2vs0mg"},{"bike_id":"707d38c2-5687-4356-9b7d-107059f6bc53","system_id":"levelo_inurba_marseille","lat":43.25495,"lon":5.37647,"is_reserved":false,"is_disabled":false,"rental_uris":{"android":"levelo://app?vid=707d38c2-5687-4356-9b7d-107059f6bc53","ios":"levelo://app?vid=707d38c2-5687-4356-9b7d-107059f6bc53"},"vehicle_type_id":"4","last_reported":1753208192,"current_range_meters":16400,"station_id":"ce4bhh12rcd13ifvqff0","pricing_plan_id":"cebpf4jnsgd1na2vs0mg"},{"bike_id":"add21882-b252-4a55-950d-736f17d0c041","system_id":"levelo_inurba_marseille","lat":43.289873,"lon":5.356138,"is_reserved":false,"is_disabled":false,"rental_uris":{"android":"levelo://app?vid=add21882-b252-4a55-950d-736f17d0c041","ios":"levelo://app?vid=add21882-b252-4a55-950d-736f17d0c041"},"vehicle_type_id":"4","last_reported":1753208192,"current_range_meters":16400,"station_id":"ce4bhb92rcd13ifvqen0","pricing_plan_id":"cebpf4jnsgd1na2vs0mg"},{"bike_id":"3c8738ab-0390-49be-a535-19c04e05560d","system_id":"levelo_inurba_marseille","lat":43.27174,"lon":5.40989,"is_reserved":false,"is_disabled":false,"rental_uris":{"android":"levelo://app?vid=3c8738ab-0390-49be-a535-19c04e05560d","ios":"levelo://app?vid=3c8738ab-0390-49be-a535-19c04e05560d"},"vehicle_type_id":"4","last_reported":1753208192,"current_range_meters":16400,"station_id":"ce4bhl12rcd13ifvqgf0","pricing_plan_id":"cebpf4jnsgd1na2vs0mg"},{"bike_id":"153ce597-664e-4dca-97e6-09a4750f1a38","system_id":"levelo_inurba_marseille","lat":43.29209,"lon":5.36061,"is_reserved":false,"is_disabled":false,"rental_uris":{"android":"levelo://app?vid=153ce597-664e-4dca-97e6-09a4750f1a38","ios":"levelo://app?vid=153ce597-664e-4dca-97e6-09a4750f1a38"},"vehicle_type_id":"4","last_reported":1753208192,"current_range_meters":16400,"station_id":"ce4bhbh2rcd13ifvqeqg","pricing_plan_id":"cebpf4jnsgd1na2vs0mg"},{"bike_id":"8b97af3d-6d6d-487d-ae91-af50ee83e9ef","system_id":"levelo_inurba_marseille","lat":43.2923,"lon":5.36066,"is_reserved":false,"is_disabled":false,"rental_uris":{"android":"levelo://app?vid=8b97af3d-6d6d-487d-ae91-af50ee83e9ef","ios":"levelo://app?vid=8b97af3d-6d6d-487d-ae91-af50ee83e9ef"},"vehicle_type_id":"4","last_reported":1753208192,"current_range_meters":16400,"station_id":"ce4bhbh2rcd13ifvqeqg","pricing_plan_id":"cebpf4jnsgd1na2vs0mg"},{"bike_id":"377519b8-458f-42bd-b3a7-db54677abc27","system_id":"levelo_inurba_marseille","lat":43.30597,"lon":5.39361,"is_reserved":false,"is_disabled":false,"rental_uris":{"android":"levelo://app?vid=377519b8-458f-42bd-b3a7-db54677abc27","ios":"levelo://app?vid=377519b8-458f-42bd-b3a7-db54677abc27"},"vehicle_type_id":"4","last_reported":1753208192,"current_range_meters":16400,"station_id":"ce4bh0p2rcd13ifvqd80","pricing_plan_id":"cebpf4jnsgd1na2vs0mg"},{"bike_id":"4be8ab13-53fe-4991-84b7-8c8e15d8b8c8","system_id":"levelo_inurba_marseille","lat":43.28418,"lon":5.34971,"is_reserved":false,"is_disabled":false,"rental_uris":{"android":"levelo://app?vid=4be8ab13-53fe-4991-84b7-8c8e15d8b8c8","ios":"levelo://app?vid=4be8ab13-53fe-4991-84b7-8c8e15d8b8c8"},"vehicle_type_id":"4","last_reported":1753208192,"current_range_meters":16400,"station_id":"ce4bhbh2rcd13ifvqepg","pricing_plan_id":"cebpf4jnsgd1na2vs0mg"},{"bike_id":"333b9c00-1959-432b-be34-9dd9ca6d2293","system_id":"levelo_inurba_marseille","lat":43.27835,"lon":5.39188,"is_reserved":false,"is_disabled":false,"rental_uris":{"android":"levelo://app?vid=333b9c00-1959-432b-be34-9dd9ca6d2293","ios":"levelo://app?vid=333b9c00-1959-432b-be34-9dd9ca6d2293"},"vehicle_type_id":"4","last_reported":1753208192,"current_range_meters":16400,"station_id":"ce4bhjp2rcd13ifvqga0","pricing_plan_id":"cebpf4jnsgd1na2vs0mg"},{"bike_id":"cc926983-7496-48df-9677-b8723ddc96b9","system_id":"levelo_inurba_marseille","lat":43.229373,"lon":5.353743,"is_reserved":false,"is_disabled":false,"rental_uris":{"android":"levelo://app?vid=cc926983-7496-48df-9677-b8723ddc96b9","ios":"levelo://app?vid=cc926983-7496-48df-9677-b8723ddc96b9"},"vehicle_type_id":"4","last_reported":1753208192,"current_range_meters":16800,"station_id":"cpo3532slgdg3j2ikp40","pricing_plan_id":"cebpf4jnsgd1na2vs0mg"},{"bike_id":"9a143ed1-a3c7-421c-a22c-84e79d27e230","system_id":"levelo_inurba_marseille","lat":43.28416,"lon":5.34986,"is_reserved":false,"is_disabled":true,"rental_uris":{"android":"levelo://app?vid=9a143ed1-a3c7-421c-a22c-84e79d27e230","ios":"levelo://app?vid=9a143ed1-a3c7-421c-a22c-84e79d27e230"},"vehicle_type_id":"4","last_reported":1753208192,"current_range_meters":16800,"station_id":"ce4bhbh2rcd13ifvqepg","pricing_plan_id":"cebpf4jnsgd1na2vs0mg"},{"bike_id":"03a4668e-39b0-4eba-8017-2b5e44250261","system_id":"levelo_inurba_marseille","lat":43.26208,"lon":5.3744,"is_reserved":false,"is_disabled":false,"rental_uris":{"android":"levelo://app?vid=03a4668e-39b0-4eba-8017-2b5e44250261","ios":"levelo://app?vid=03a4668e-39b0-4eba-8017-2b5e44250261"},"vehicle_type_id":"4","last_reported":1753208192,"current_range_meters":16800,"station_id":"ce4bhgp2rcd13ifvqfc0","pricing_plan_id":"cebpf4jnsgd1na2vs0mg"},{"bike_id":"911c3e66-c4b4-4e9c-bf6d-21f121179e38","system_id":"levelo_inurba_marseille","lat":43.29887,"lon":5.3797,"is_reserved":false,"is_disabled":false,"rental_uris":{"android":"levelo://app?vid=911c3e66-c4b4-4e9c-bf6d-21f121179e38","ios":"levelo://app?vid=911c3e66-c4b4-4e9c-bf6d-21f121179e38"},"vehicle_type_id":"4","last_reported":1753208192,"current_range_meters":16800,"station_id":"","pricing_plan_id":"cebpf4jnsgd1na2vs0mg"},{"bike_id":"093c2cb0-1994-4bd3-a77d-f6c63ce5413a","system_id":"levelo_inurba_marseille","lat":43.22508,"lon":5.34786,"is_reserved":false,"is_disabled":true,"rental_uris":{"android":"levelo://app?vid=093c2cb0-1994-4bd3-a77d-f6c63ce5413a","ios":"levelo://app?vid=093c2cb0-1994-4bd3-a77d-f6c63ce5413a"},"vehicle_type_id":"4","last_reported":1753208192,"current_range_meters":16800,"station_id":"st_cvj5dfep6f1abm77gieg","pricing_plan_id":"cebpf4jnsgd1na2vs0mg"},{"bike_id":"fe07410f-2ac3-4d42-a644-c798c7a25a84","system_id":"levelo_inurba_marseille","lat":43.26571,"lon":5.372879,"is_reserved":false,"is_disabled":false,"rental_uris":{"android":"levelo://app?vid=fe07410f-2ac3-4d42-a644-c798c7a25a84","ios":"levelo://app?vid=fe07410f-2ac3-4d42-a644-c798c7a25a84"},"vehicle_type_id":"4","last_reported":1753208192,"current_range_meters":16800,"station_id":"","pricing_plan_id":"cebpf4jnsgd1na2vs0mg"},{"bike_id":"05485ec3-07c9-44ad-868d-ca1321acf4f4","system_id":"levelo_inurba_marseille","lat":43.32651,"lon":5.4097,"is_reserved":false,"is_disabled":false,"rental_uris":{"android":"levelo://app?vid=05485ec3-07c9-44ad-868d-ca1321acf4f4","ios":"levelo://app?vid=05485ec3-07c9-44ad-868d-ca1321acf4f4"},"vehicle_type_id":"4","last_reported":1753208192,"current_range_meters":16800,"station_id":"ce4bhpp2rcd13ifvqhgg","pricing_plan_id":"cebpf4jnsgd1na2vs0mg"},{"bike_id":"19f41191-800a-4849-9139-d255ce392585","system_id":"levelo_inurba_marseille","lat":43.2953,"lon":5.39051,"is_reserved":false,"is_disabled":false,"rental_uris":{"android":"levelo://app?vid=19f41191-800a-4849-9139-d255ce392585","ios":"levelo://app?vid=19f41191-800a-4849-9139-d255ce392585"},"vehicle_type_id":"4","last_reported":1753208192,"current_range_meters":16800,"station_id":"ce4bh3p2rcd13ifvqdp0","pricing_plan_id":"cebpf4jnsgd1na2vs0mg"},{"bike_id":"fb0f45ea-8473-47f0-a76e-d1f6bf1d24f0","system_id":"levelo_inurba_marseille","lat":43.29531,"lon":5.38542,"is_reserved":false,"is_disabled":false,"rental_uris":{"android":"levelo://app?vid=fb0f45ea-8473-47f0-a76e-d1f6bf1d24f0","ios":"levelo://app?vid=fb0f45ea-8473-47f0-a76e-d1f6bf1d24f0"},"vehicle_type_id":"4","last_reported":1753208192,"current_range_meters":16800,"station_id":"ce4bgih2rcd13ifvqba0","pricing_plan_id":"cebpf4jnsgd1na2vs0mg"},{"bike_id":"6e295a55-dea6-4f29-a098-da68b8b5d567","system_id":"levelo_inurba_marseille","lat":43.24545,"lon":5.3952,"is_reserved":false,"is_disabled":false,"rental_uris":{"android":"levelo://app?vid=6e295a55-dea6-4f29-a098-da68b8b5d567","ios":"levelo://app?vid=6e295a55-dea6-4f29-a098-da68b8b5d567"},"vehicle_type_id":"4","last_reported":1753208192,"current_range_meters":16800,"station_id":"ce4bhlp2rcd13ifvqgjg","pricing_plan_id":"cebpf4jnsgd1na2vs0mg"},{"bike_id":"6093672b-1e9a-4299-b920-36e4f293a348","system_id":"levelo_inurba_marseille","lat":43.22919,"lon":5.35398,"is_reserved":false,"is_disabled":false,"rental_uris":{"android":"levelo://app?vid=6093672b-1e9a-4299-b920-36e4f293a348","ios":"levelo://app?vid=6093672b-1e9a-4299-b920-36e4f293a348"},"vehicle_type_id":"4","last_reported":1753208192,"current_range_meters":17200,"station_id":"cpo3532slgdg3j2ikp40","pricing_plan_id":"cebpf4jnsgd1na2vs0mg"},{"bike_id":"1a2751da-031a-4246-8d2c-dd848ee0e802","system_id":"levelo_inurba_marseille","lat":43.29538,"lon":5.38532,"is_reserved":false,"is_disabled":true,"rental_uris":{"android":"levelo://app?vid=1a2751da-031a-4246-8d2c-dd848ee0e802","ios":"levelo://app?vid=1a2751da-031a-4246-8d2c-dd848ee0e802"},"vehicle_type_id":"4","last_reported":1753208192,"current_range_meters":17200,"station_id":"ce4bgih2rcd13ifvqba0","pricing_plan_id":"cebpf4jnsgd1na2vs0mg"},{"bike_id":"fb81ee79-6688-4d05-be53-1ac881d0c7b8","system_id":"levelo_inurba_marseille","lat":43.23191,"lon":5.35538,"is_reserved":false,"is_disabled":false,"rental_uris":{"android":"levelo://app?vid=fb81ee79-6688-4d05-be53-1ac881d0c7b8","ios":"levelo://app?vid=fb81ee79-6688-4d05-be53-1ac881d0c7b8"},"vehicle_type_id":"4","last_reported":1753208192,"current_range_meters":17200,"station_id":"ce4bhu92rcd13ifvqi70","pricing_plan_id":"cebpf4jnsgd1na2vs0mg"},{"bike_id":"c7475240-0f01-471f-a7a9-2221fc63fd59","system_id":"levelo_inurba_marseille","lat":43.29253,"lon":5.37595,"is_reserved":false,"is_disabled":false,"rental_uris":{"android":"levelo://app?vid=c7475240-0f01-471f-a7a9-2221fc63fd59","ios":"levelo://app?vid=c7475240-0f01-471f-a7a9-2221fc63fd59"},"vehicle_type_id":"4","last_reported":1753208192,"current_range_meters":17200,"station_id":"ce4bgi12rcd13ifvqb80","pricing_plan_id":"cebpf4jnsgd1na2vs0mg"},{"bike_id":"b48e5c99-fd26-4dfa-8897-b1e3cad296e7","system_id":"levelo_inurba_marseille","lat":43.3058,"lon":5.39352,"is_reserved":false,"is_disabled":false,"rental_uris":{"android":"levelo://app?vid=b48e5c99-fd26-4dfa-8897-b1e3cad296e7","ios":"levelo://app?vid=b48e5c99-fd26-4dfa-8897-b1e3cad296e7"},"vehicle_type_id":"4","last_reported":1753208192,"current_range_meters":17200,"station_id":"ce4bh0p2rcd13ifvqd80","pricing_plan_id":"cebpf4jnsgd1na2vs0mg"},{"bike_id":"56642579-0638-4f3c-8ac8-386b4485ab50","system_id":"levelo_inurba_marseille","lat":43.30309,"lon":5.39209,"is_reserved":false,"is_disabled":false,"rental_uris":{"android":"levelo://app?vid=56642579-0638-4f3c-8ac8-386b4485ab50","ios":"levelo://app?vid=56642579-0638-4f3c-8ac8-386b4485ab50"},"vehicle_type_id":"4","last_reported":1753208192,"current_range_meters":17600,"station_id":"ce4bgkh2rcd13ifvqbk0","pricing_plan_id":"cebpf4jnsgd1na2vs0mg"},{"bike_id":"7c519c00-84c7-4fae-bb3d-17615178bdfa","system_id":"levelo_inurba_marseille","lat":43.295288,"lon":5.385459,"is_reserved":false,"is_disabled":false,"rental_uris":{"android":"levelo://app?vid=7c519c00-84c7-4fae-bb3d-17615178bdfa","ios":"levelo://app?vid=7c519c00-84c7-4fae-bb3d-17615178bdfa"},"vehicle_type_id":"4","last_reported":1753208192,"current_range_meters":17600,"station_id":"ce4bgih2rcd13ifvqba0","pricing_plan_id":"cebpf4jnsgd1na2vs0mg"},{"bike_id":"89c99b95-f603-49ba-a07d-2f5b1ac61505","system_id":"levelo_inurba_marseille","lat":43.30426,"lon":5.38889,"is_reserved":false,"is_disabled":false,"rental_uris":{"android":"levelo://app?vid=89c99b95-f603-49ba-a07d-2f5b1ac61505","ios":"levelo://app?vid=89c99b95-f603-49ba-a07d-2f5b1ac61505"},"vehicle_type_id":"4","last_reported":1753208192,"current_range_meters":17600,"station_id":"ce4bgk12rcd13ifvqbi0","pricing_plan_id":"cebpf4jnsgd1na2vs0mg"},{"bike_id":"9a93e0b1-9129-4302-a042-b77b94831fea","system_id":"levelo_inurba_marseille","lat":43.27189,"lon":5.40985,"is_reserved":false,"is_disabled":false,"rental_uris":{"android":"levelo://app?vid=9a93e0b1-9129-4302-a042-b77b94831fea","ios":"levelo://app?vid=9a93e0b1-9129-4302-a042-b77b94831fea"},"vehicle_type_id":"4","last_reported":1753208192,"current_range_meters":17600,"station_id":"ce4bhl12rcd13ifvqgf0","pricing_plan_id":"cebpf4jnsgd1na2vs0mg"},{"bike_id":"a1b0b122-6e21-4460-9358-18ef2a002ce1","system_id":"levelo_inurba_marseille","lat":43.28408,"lon":5.34969,"is_reserved":false,"is_disabled":false,"rental_uris":{"android":"levelo://app?vid=a1b0b122-6e21-4460-9358-18ef2a002ce1","ios":"levelo://app?vid=a1b0b122-6e21-4460-9358-18ef2a002ce1"},"vehicle_type_id":"4","last_reported":1753208192,"current_range_meters":17600,"station_id":"ce4bhbh2rcd13ifvqepg","pricing_plan_id":"cebpf4jnsgd1na2vs0mg"},{"bike_id":"5b47a81d-ead0-4c4b-8864-c63aeb4bcd3d","system_id":"levelo_inurba_marseille","lat":43.21198,"lon":5.35059,"is_reserved":false,"is_disabled":false,"rental_uris":{"android":"levelo://app?vid=5b47a81d-ead0-4c4b-8864-c63aeb4bcd3d","ios":"levelo://app?vid=5b47a81d-ead0-4c4b-8864-c63aeb4bcd3d"},"vehicle_type_id":"4","last_reported":1753208192,"current_range_meters":17600,"station_id":"st_cvj6sg6p6f1abm77japg","pricing_plan_id":"cebpf4jnsgd1na2vs0mg"},{"bike_id":"0328809f-87e4-43d4-9881-2db7d232e7fc","system_id":"levelo_inurba_marseille","lat":43.2896,"lon":5.36642,"is_reserved":false,"is_disabled":false,"rental_uris":{"android":"levelo://app?vid=0328809f-87e4-43d4-9881-2db7d232e7fc","ios":"levelo://app?vid=0328809f-87e4-43d4-9881-2db7d232e7fc"},"vehicle_type_id":"4","last_reported":1753208192,"current_range_meters":17600,"station_id":"ce4bhap2rcd13ifvqek0","pricing_plan_id":"cebpf4jnsgd1na2vs0mg"},{"bike_id":"5984b2a9-df08-472f-9972-51a1ce9935d3","system_id":"levelo_inurba_marseille","lat":43.21764,"lon":5.34555,"is_reserved":false,"is_disabled":false,"rental_uris":{"android":"levelo://app?vid=5984b2a9-df08-472f-9972-51a1ce9935d3","ios":"levelo://app?vid=5984b2a9-df08-472f-9972-51a1ce9935d3"},"vehicle_type_id":"4","last_reported":1753208192,"current_range_meters":17600,"station_id":"st_cvj6r9ubvosntc0bgbag","pricing_plan_id":"cebpf4jnsgd1na2vs0mg"},{"bike_id":"06d4f53a-3490-4b10-a193-3e9b82013882","system_id":"levelo_inurba_marseille","lat":43.273821,"lon":5.362588,"is_reserved":false,"is_disabled":false,"rental_uris":{"android":"levelo://app?vid=06d4f53a-3490-4b10-a193-3e9b82013882","ios":"levelo://app?vid=06d4f53a-3490-4b10-a193-3e9b82013882"},"vehicle_type_id":"4","last_reported":1753208192,"current_range_meters":18000,"station_id":"ce4bhbh2rcd13ifvqeo0","pricing_plan_id":"cebpf4jnsgd1na2vs0mg"},{"bike_id":"6c22a3ed-54a1-4563-be3e-360735cbe459","system_id":"levelo_inurba_marseille","lat":43.29703,"lon":5.36607,"is_reserved":false,"is_disabled":false,"rental_uris":{"android":"levelo://app?vid=6c22a3ed-54a1-4563-be3e-360735cbe459","ios":"levelo://app?vid=6c22a3ed-54a1-4563-be3e-360735cbe459"},"vehicle_type_id":"4","last_reported":1753208192,"current_range_meters":18000,"station_id":"ce4bgn12rcd13ifvqbt0","pricing_plan_id":"cebpf4jnsgd1na2vs0mg"},{"bike_id":"f663c24d-e54f-4ebf-b7f5-fe81153fe006","system_id":"levelo_inurba_marseille","lat":43.29258,"lon":5.38443,"is_reserved":false,"is_disabled":false,"rental_uris":{"android":"levelo://app?vid=f663c24d-e54f-4ebf-b7f5-fe81153fe006","ios":"levelo://app?vid=f663c24d-e54f-4ebf-b7f5-fe81153fe006"},"vehicle_type_id":"4","last_reported":1753208192,"current_range_meters":18000,"station_id":"ce4bh692rcd13ifvqea0","pricing_plan_id":"cebpf4jnsgd1na2vs0mg"},{"bike_id":"4f1dd806-4cc0-4731-a103-d84b6076bb8f","system_id":"levelo_inurba_marseille","lat":43.25576,"lon":5.38237,"is_reserved":false,"is_disabled":true,"rental_uris":{"android":"levelo://app?vid=4f1dd806-4cc0-4731-a103-d84b6076bb8f","ios":"levelo://app?vid=4f1dd806-4cc0-4731-a103-d84b6076bb8f"},"vehicle_type_id":"4","last_reported":1753208192,"current_range_meters":18000,"station_id":"ce4bhih2rcd13ifvqfs0","pricing_plan_id":"cebpf4jnsgd1na2vs0mg"},{"bike_id":"f9199e66-668c-439b-8d83-c65eceb74a8e","system_id":"levelo_inurba_marseille","lat":43.24169,"lon":5.36389,"is_reserved":false,"is_disabled":false,"rental_uris":{"android":"levelo://app?vid=f9199e66-668c-439b-8d83-c65eceb74a8e","ios":"levelo://app?vid=f9199e66-668c-439b-8d83-c65eceb74a8e"},"vehicle_type_id":"4","last_reported":1753208192,"current_range_meters":18000,"station_id":"cpo36qri1sfpv3e86is0","pricing_plan_id":"cebpf4jnsgd1na2vs0mg"},{"bike_id":"e3a9e6d1-788b-4774-babe-289560a0bee7","system_id":"levelo_inurba_marseille","lat":43.29954,"lon":5.37411,"is_reserved":false,"is_disabled":false,"rental_uris":{"android":"levelo://app?vid=e3a9e6d1-788b-4774-babe-289560a0bee7","ios":"levelo://app?vid=e3a9e6d1-788b-4774-babe-289560a0bee7"},"vehicle_type_id":"4","last_reported":1753208192,"current_range_meters":18000,"station_id":"","pricing_plan_id":"cebpf4jnsgd1na2vs0mg"},{"bike_id":"16c82d1f-4616-4a9a-8da7-b0d15ca1b5ce","system_id":"levelo_inurba_marseille","lat":43.292908,"lon":5.368729,"is_reserved":false,"is_disabled":false,"rental_uris":{"android":"levelo://app?vid=16c82d1f-4616-4a9a-8da7-b0d15ca1b5ce","ios":"levelo://app?vid=16c82d1f-4616-4a9a-8da7-b0d15ca1b5ce"},"vehicle_type_id":"4","last_reported":1753208192,"current_range_meters":18000,"station_id":"ce4bhbp2rcd13ifvqesg","pricing_plan_id":"cebpf4jnsgd1na2vs0mg"},{"bike_id":"d509b331-e799-4503-90e7-40b1e687c26f","system_id":"levelo_inurba_marseille","lat":43.286096,"lon":5.370656,"is_reserved":false,"is_disabled":true,"rental_uris":{"android":"levelo://app?vid=d509b331-e799-4503-90e7-40b1e687c26f","ios":"levelo://app?vid=d509b331-e799-4503-90e7-40b1e687c26f"},"vehicle_type_id":"4","last_reported":1753208192,"current_range_meters":18000,"station_id":"ce4bht12rcd13ifvqi60","pricing_plan_id":"cebpf4jnsgd1na2vs0mg"},{"bike_id":"d8169adf-c55a-4e1e-b1d0-91e0563f1b8d","system_id":"levelo_inurba_marseille","lat":43.27172,"lon":5.4099,"is_reserved":false,"is_disabled":false,"rental_uris":{"android":"levelo://app?vid=d8169adf-c55a-4e1e-b1d0-91e0563f1b8d","ios":"levelo://app?vid=d8169adf-c55a-4e1e-b1d0-91e0563f1b8d"},"vehicle_type_id":"4","last_reported":1753208192,"current_range_meters":18000,"station_id":"ce4bhl12rcd13ifvqgf0","pricing_plan_id":"cebpf4jnsgd1na2vs0mg"},