{"last_updated":1781328426,"ttl":60,"version":"2.2","data":{"bikes":[{"bike_id":"ec12d144-24c8-4071-abf6-197e520eae96","system_id":"levelo_inurba_marseille","lat":43.337444,"lon":5.374475,"is_reserved":false,"is_disabled":false,"rental_uris":{"android":"levelo://app?vid=ec12d144-24c8-4071-abf6-197e520eae96","ios":"levelo://app?vid=ec12d144-24c8-4071-abf6-197e520eae96"},"vehicle_type_id":"4","last_reported":1781328428,"current_range_meters":0,"station_id":"","pricing_plan_id":"cebpf4jnsgd1na2vs0mg"},{"bike_id":"b71af7c2-4d98-4630-86ae-a4a165ba23e9","system_id":"levelo_inurba_marseille","lat":43.28873,"lon":5.3767,"is_reserved":false,"is_disabled":false,"rental_uris":{"android":"levelo://app?vid=b71af7c2-4d98-4630-86ae-a4a165ba23e9","ios":"levelo://app?vid=b71af7c2-4d98-4630-86ae-a4a165ba23e9"},"vehicle_type_id":"4","last_reported":1781328428,"current_range_meters":2800,"station_id":"","pricing_plan_id":"cebpf4jnsgd1na2vs0mg"},{"bike_id":"9355951e-b041-446b-b93e-73dce11071c1","system_id":"levelo_inurba_marseille","lat":43.30303,"lon":5.37311,"is_reserved":false,"is_disabled":false,"rental_uris":{"android":"levelo://app?vid=9355951e-b041-446b-b93e-73dce11071c1","ios":"levelo://app?vid=9355951e-b041-446b-b93e-73dce11071c1"},"vehicle_type_id":"4","last_reported":1781328428,"current_range_meters":2800,"station_id":"","pricing_plan_id":"cebpf4jnsgd1na2vs0mg"},{"bike_id":"35fd3bba-f953-494c-a66b-6bdf2b9bea1d","system_id":"levelo_inurba_marseille","lat":43.30369,"lon":5.42475,"is_reserved":false,"is_disabled":false,"rental_uris":{"android":"levelo://app?vid=35fd3bba-f953-494c-a66b-6bdf2b9bea1d","ios":"levelo://app?vid=35fd3bba-f953-494c-a66b-6bdf2b9bea1d"},"vehicle_type_id":"4","last_reported":1781328428,"current_range_meters":2800,"station_id":"ce4bhoh2rcd13ifvqh6g","pricing_plan_id":"cebpf4jnsgd1na2vs0mg"},{"bike_id":"501998ba-be14-4ff6-98c0-79d49c9f6392","system_id":"levelo_inurba_marseille","lat":43.29367,"lon":5.37278,"is_reserved":false,"is_disabled":false,"rental_uris":{"android":"levelo://app?vid=501998ba-be14-4ff6-98c0-79d49c9f6392","ios":"levelo://app?vid=501998ba-be14-4ff6-98c0-79d49c9f6392"},"vehicle_type_id":"4","last_reported":1781328428,"current_range_meters":2800,"station_id":"","pricing_plan_id":"cebpf4jnsgd1na2vs0mg"},{"bike_id":"f63e0e69-6a54-4e19-8d8e-f67680de3ed1","system_id":"levelo_inurba_marseille","lat":43.24636,"lon":5.43138,"is_reserved":false,"is_disabled":false,"rental_uris":{"android":"levelo://app?vid=f63e0e69-6a54-4e19-8d8e-f67680de3ed1","ios":"levelo://app?vid=f63e0e69-6a54-4e19-8d8e-f67680de3ed1"},"vehicle_type_id":"4","last_reported":1781328428,"current_range_meters":2800,"station_id":"st_d2m6c4gdas8pm72e190g","pricing_plan_id":"cebpf4jnsgd1na2vs0mg"},{"bike_id":"8bf99202-0aa0-4c45-a06d-a3fa999fbea6","system_id":"levelo_inurba_marseille","lat":43.31123,"lon":5.37135,"is_reserved":false,"is_disabled":true,"rental_uris":{"android":"levelo://app?vid=8bf99202-0aa0-4c45-a06d-a3fa999fbea6","ios":"levelo://app?vid=8bf99202-0aa0-4c45-a06d-a3fa999fbea6"},"vehicle_type_id":"4","last_reported":1781328428,"current_range_meters":2800,"station_id":"","pricing_plan_id":"cebpf4jnsgd1na2vs0mg"},{"bike_id":"f7698676-1932-4dbf-ab9d-6c907c9bbe14","system_id":"levelo_inurba_marseille","lat":43.31886,"lon":5.37143,"is_reserved":false,"is_disabled":false,"rental_uris":{"android":"levelo://app?vid=f7698676-1932-4dbf-ab9d-6c907c9bbe14","ios":"levelo://app?vid=f7698676-1932-4dbf-ab9d-6c907c9bbe14"},"vehicle_type_id":"4","last_reported":1781328428,"current_range_meters":2800,"station_id":"","pricing_plan_id":"cebpf4jnsgd1na2vs0mg"},{"bike_id":"4efb1857-7c3c-4f03-b985-34f4958b46fe","system_id":"levelo_inurba_marseille","lat":43.28935,"lon":5.36637,"is_reserved":false,"is_disabled":false,"rental_uris":{"android":"levelo://app?vid=4efb1857-7c3c-4f03-b985-34f4958b46fe","ios":"levelo://app?vid=4efb1857-7c3c-4f03-b985-34f4958b46fe"},"vehicle_type_id":"4","last_reported":1781328428,"current_range_meters":2800,"station_id":"ce4bhap2rcd13ifvqek0","pricing_plan_id":"cebpf4jnsgd1na2vs0mg"},{"bike_id":"91127671-348d-48fa-8e16-debe2eed689f","system_id":"levelo_inurba_marseille","lat":43.27808,"lon":5.39247,"is_reserved":false,"is_disabled":false,"rental_uris":{"android":"levelo://app?vid=91127671-348d-48fa-8e16-debe2eed689f","ios":"levelo://app?vid=91127671-348d-48fa-8e16-debe2eed689f"},"vehicle_type_id":"4","last_reported":1781328428,"current_range_meters":2800,"station_id":"ce4bhjp2rcd13ifvqga0","pricing_plan_id":"cebpf4jnsgd1na2vs0mg"},{"bike_id":"d85159cc-5412-4ec7-a2aa-ba7268a83cd9","system_id":"levelo_inurba_marseille","lat":43.28597,"lon":5.39901,"is_reserved":false,"is_disabled":false,"rental_uris":{"android":"levelo://app?vid=d85159cc-5412-4ec7-a2aa-ba7268a83cd9","ios":"levelo://app?vid=d85159cc-5412-4ec7-a2aa-ba7268a83cd9"},"vehicle_type_id":"4","last_reported":1781328428,"current_range_meters":2800,"station_id":"st_d4a7ka997mjs738ck50g","pricing_plan_id":"cebpf4jnsgd1na2vs0mg"},{"bike_id":"06665522-e7ad-443d-a614-914f66301216","system_id":"levelo_inurba_marseille","lat":43.33721,"lon":5.39192,"is_reserved":false,"is_disabled":false,"rental_uris":{"android":"levelo://app?vid=06665522-e7ad-443d-a614-914f66301216","ios":"levelo://app?vid=06665522-e7ad-443d-a614-914f66301216"},"vehicle_type_id":"4","last_reported":1781328428,"current_range_meters":2800,"station_id":"ce4bhr92rcd13ifvqhsg","pricing_plan_id":"cebpf4jnsgd1na2vs0mg"},{"bike_id":"7b5684ba-17bf-4260-b129-c7302c65a905","system_id":"levelo_inurba_marseille","lat":43.2949,"lon":5.43307,"is_reserved":false,"is_disabled":false,"rental_uris":{"android":"levelo://app?vid=7b5684ba-17bf-4260-b129-c7302c65a905","ios":"levelo://app?vid=7b5684ba-17bf-4260-b129-c7302c65a905"},"vehicle_type_id":"4","last_reported":1781328428,"current_range_meters":2800,"station_id":"st_d3j5ugp08ojc73fj9d10","pricing_plan_id":"cebpf4jnsgd1na2vs0mg"},{"bike_id":"21e2871b-6352-4d81-8ee8-98d6448d195e","system_id":"levelo_inurba_marseille","lat":43.29963,"lon":5.37196,"is_reserved":false,"is_disabled":false,"rental_uris":{"android":"levelo://app?vid=21e2871b-6352-4d81-8ee8-98d6448d195e","ios":"levelo://app?vid=21e2871b-6352-4d81-8ee8-98d6448d195e"},"vehicle_type_id":"4","last_reported":1781328428,"current_range_meters":2800,"station_id":"ce4bgr92rcd13ifvqc7g","pricing_plan_id":"cebpf4jnsgd1na2vs0mg"},{"bike_id":"6859e872-f5de-49b6-9665-a4075fb23877","system_id":"levelo_inurba_marseille","lat":43.29457,"lon":5.39739,"is_reserved":false,"is_disabled":false,"rental_uris":{"android":"levelo://app?vid=6859e872-f5de-49b6-9665-a4075fb23877","ios":"levelo://app?vid=6859e872-f5de-49b6-9665-a4075fb23877"},"vehicle_type_id":"4","last_reported":1781328428,"current_range_meters":3200,"station_id":"ce4bh3h2rcd13ifvqdo0","pricing_plan_id":"cebpf4jnsgd1na2vs0mg"},{"bike_id":"251f2ed3-be7d-4e96-8818-497dd3d98d48","system_id":"levelo_inurba_marseille","lat":43.31318,"lon":5.39732,"is_reserved":false,"is_disabled":false,"rental_uris":{"android":"levelo://app?vid=251f2ed3-be7d-4e96-8818-497dd3d98d48","ios":"levelo://app?vid=251f2ed3-be7d-4e96-8818-497dd3d98d48"},"vehicle_type_id":"4","last_reported":1781328428,"current_range_meters":3200,"station_id":"ce4bgvp2rcd13ifvqcu0","pricing_plan_id":"cebpf4jnsgd1na2vs0mg"},{"bike_id":"5ca6822a-6871-4a61-aa2c-7cfbc1110d7d","system_id":"levelo_inurba_marseille","lat":43.29005,"lon":5.35615,"is_reserved":false,"is_disabled":false,"rental_uris":{"android":"levelo://app?vid=5ca6822a-6871-4a61-aa2c-7cfbc1110d7d","ios":"levelo://app?vid=5ca6822a-6871-4a61-aa2c-7cfbc1110d7d"},"vehicle_type_id":"4","last_reported":1781328428,"current_range_meters":3200,"station_id":"ce4bhb92rcd13ifvqen0","pricing_plan_id":"cebpf4jnsgd1na2vs0mg"},{"bike_id":"b83be4d3-06f4-4b3e-9ba2-a6d47abaf96e","system_id":"levelo_inurba_marseille","lat":43.2926,"lon":5.37599,"is_reserved":false,"is_disabled":true,"rental_uris":{"android":"levelo://app?vid=b83be4d3-06f4-4b3e-9ba2-a6d47abaf96e","ios":"levelo://app?vid=b83be4d3-06f4-4b3e-9ba2-a6d47abaf96e"},"vehicle_type_id":"4","last_reported":1781328428,"current_range_meters":3200,"station_id":"ce4bgi12rcd13ifvqb80","pricing_plan_id":"cebpf4jnsgd1na2vs0mg"},{"bike_id":"71e673c1-4feb-446e-b58c-e0535f27ae14","system_id":"levelo_inurba_marseille","lat":43.31753,"lon":5.39026,"is_reserved":false,"is_disabled":false,"rental_uris":{"android":"levelo://app?vid=71e673c1-4feb-446e-b58c-e0535f27ae14","ios":"levelo://app?vid=71e673c1-4feb-446e-b58c-e0535f27ae14"},"vehicle_type_id":"4","last_reported":1781328428,"current_range_meters":3200,"station_id":"ce4bhqp2rcd13ifvqhng","pricing_plan_id":"cebpf4jnsgd1na2vs0mg"},{"bike_id":"471577d9-fbb7-4032-8dfe-99a7b49a8b1b","system_id":"levelo_inurba_marseille","lat":43.25574,"lon":5.38225,"is_reserved":false,"is_disabled":false,"rental_uris":{"android":"levelo://app?vid=471577d9-fbb7-4032-8dfe-99a7b49a8b1b","ios":"levelo://app?vid=471577d9-fbb7-4032-8dfe-99a7b49a8b1b"},"vehicle_type_id":"4","last_reported":1781328428,"current_range_meters":3200,"station_id":"ce4bhih2rcd13ifvqfs0","pricing_plan_id":"cebpf4jnsgd1na2vs0mg"},{"bike_id":"318c2327-cd61-4b3a-8efa-5ff92eb9038b","system_id":"levelo_inurba_marseille","lat":43.34769,"lon":5.36657,"is_reserved":false,"is_disabled":false,"rental_uris":{"android":"levelo://app?vid=318c2327-cd61-4b3a-8efa-5ff92eb9038b","ios":"levelo://app?vid=318c2327-cd61-4b3a-8efa-5ff92eb9038b"},"vehicle_type_id":"4","last_reported":1781328428,"current_range_meters":3200,"station_id":"","pricing_plan_id":"cebpf4jnsgd1na2vs0mg"},{"bike_id":"b45d0295-7121-4969-ba82-eedca213e560","system_id":"levelo_inurba_marseille","lat":43.32112,"lon":5.36799,"is_reserved":false,"is_disabled":false,"rental_uris":{"android":"levelo://app?vid=b45d0295-7121-4969-ba82-eedca213e560","ios":"levelo://app?vid=b45d0295-7121-4969-ba82-eedca213e560"},"vehicle_type_id":"4","last_reported":1781328428,"current_range_meters":3200,"station_id":"ce4bhrh2rcd13ifvqhug","pricing_plan_id":"cebpf4jnsgd1na2vs0mg"},{"bike_id":"696ffd7d-90f2-4962-a226-c170e838fc3a","system_id":"levelo_inurba_marseille","lat":43.2379,"lon":5.36629,"is_reserved":false,"is_disabled":false,"rental_uris":{"android":"levelo://app?vid=696ffd7d-90f2-4962-a226-c170e838fc3a","ios":"levelo://app?vid=696ffd7d-90f2-4962-a226-c170e838fc3a"},"vehicle_type_id":"4","last_reported":1781328428,"current_range_meters":3200,"station_id":"st_d3nk18o9ro0c73en2l3g","pricing_plan_id":"cebpf4jnsgd1na2vs0mg"},{"bike_id":"75957e17-14b6-4bb3-bf2a-65abfaecf665","system_id":"levelo_inurba_marseille","lat":43.30153,"lon":5.38102,"is_reserved":false,"is_disabled":false,"rental_uris":{"android":"levelo://app?vid=75957e17-14b6-4bb3-bf2a-65abfaecf665","ios":"levelo://app?vid=75957e17-14b6-4bb3-bf2a-65abfaecf665"},"vehicle_type_id":"4","last_reported":1781328428,"current_range_meters":3200,"station_id":"ce4bgjp2rcd13ifvqbh0","pricing_plan_id":"cebpf4jnsgd1na2vs0mg"},{"bike_id":"5fe816be-adb0-4ccc-a8a6-ac6bd0711409","system_id":"levelo_inurba_marseille","lat":43.24955,"lon":5.4051,"is_reserved":false,"is_disabled":false,"rental_uris":{"android":"levelo://app?vid=5fe816be-adb0-4ccc-a8a6-ac6bd0711409","ios":"levelo://app?vid=5fe816be-adb0-4ccc-a8a6-ac6bd0711409"},"vehicle_type_id":"4","last_reported":1781328428,"current_range_meters":3200,"station_id":"st_d2ngiaodas8pm72gd1h0","pricing_plan_id":"cebpf4jnsgd1na2vs0mg"},{"bike_id":"666b8dbd-361a-46f5-bbb8-8f732323f07b","system_id":"levelo_inurba_marseille","lat":43.23893,"lon":5.37458,"is_reserved":false,"is_disabled":false,"rental_uris":{"android":"levelo://app?vid=666b8dbd-361a-46f5-bbb8-8f732323f07b","ios":"levelo://app?vid=666b8dbd-361a-46f5-bbb8-8f732323f07b"},"vehicle_type_id":"4","last_reported":1781328428,"current_range_meters":3200,"station_id":"st_d6sm7csbq4hs73f8fpjg","pricing_plan_id":"cebpf4jnsgd1na2vs0mg"},{"bike_id":"f0200c08-2b44-4b6e-aae5-49f3fb56a5c1","system_id":"levelo_inurba_marseille","lat":43.30134,"lon":5.39227,"is_reserved":false,"is_disabled":false,"rental_uris":{"android":"levelo://app?vid=f0200c08-2b44-4b6e-aae5-49f3fb56a5c1","ios":"levelo://app?vid=f0200c08-2b44-4b6e-aae5-49f3fb56a5c1"},"vehicle_type_id":"4","last_reported":1781328428,"current_range_meters":3200,"station_id":"","pricing_plan_id":"cebpf4jnsgd1na2vs0mg"},{"bike_id":"9630d3ba-86dc-4eac-8fb4-727bd51e94df","system_id":"levelo_inurba_marseille","lat":43.30935,"lon":5.40138,"is_reserved":false,"is_disabled":false,"rental_uris":{"android":"levelo://app?vid=9630d3ba-86dc-4eac-8fb4-727bd51e94df","ios":"levelo://app?vid=9630d3ba-86dc-4eac-8fb4-727bd51e94df"},"vehicle_type_id":"4","last_reported":1781328428,"current_range_meters":3200,"station_id":"ce4bgvp2rcd13ifvqct0","pricing_plan_id":"cebpf4jnsgd1na2vs0mg"},{"bike_id":"a0734b08-b134-476e-83d5-9ad05daee3b7","system_id":"levelo_inurba_marseille","lat":43.30433,"lon":5.39746,"is_reserved":false,"is_disabled":false,"rental_uris":{"android":"levelo://app?vid=a0734b08-b134-476e-83d5-9ad05daee3b7","ios":"levelo://app?vid=a0734b08-b134-476e-83d5-9ad05daee3b7"},"vehicle_type_id":"4","last_reported":1781328428,"current_range_meters":3200,"station_id":"ce4bh092rcd13ifvqd20","pricing_plan_id":"cebpf4jnsgd1na2vs0mg"},{"bike_id":"72f56207-b682-450f-8ef6-d7479a6ac4aa","system_id":"levelo_inurba_marseille","lat":43.28484,"lon":5.38429,"is_reserved":false,"is_disabled":false,"rental_uris":{"android":"levelo://app?vid=72f56207-b682-450f-8ef6-d7479a6ac4aa","ios":"levelo://app?vid=72f56207-b682-450f-8ef6-d7479a6ac4aa"},"vehicle_type_id":"4","last_reported":1781328428,"current_range_meters":3200,"station_id":"ce4bh512rcd13ifvqe3g","pricing_plan_id":"cebpf4jnsgd1na2vs0mg"},{"bike_id":"dbcda9ae-c30a-47f2-91a8-8dac9b33d85e","system_id":"levelo_inurba_marseille","lat":43.28011,"lon":5.36039,"is_reserved":false,"is_disabled":false,"rental_uris":{"android":"levelo://app?vid=dbcda9ae-c30a-47f2-91a8-8dac9b33d85e","ios":"levelo://app?vid=dbcda9ae-c30a-47f2-91a8-8dac9b33d85e"},"vehicle_type_id":"4","last_reported":1781328428,"current_range_meters":3200,"station_id":"","pricing_plan_id":"cebpf4jnsgd1na2vs0mg"},{"bike_id":"497db4fe-414c-4f3e-9d03-238169542317","system_id":"levelo_inurba_marseille","lat":43.35058,"lon":5.35056,"is_reserved":false,"is_disabled":false,"rental_uris":{"android":"levelo://app?vid=497db4fe-414c-4f3e-9d03-238169542317","ios":"levelo://app?vid=497db4fe-414c-4f3e-9d03-238169542317"},"vehicle_type_id":"4","last_reported":1781328428,"current_range_meters":3600,"station_id":"","pricing_plan_id":"cebpf4jnsgd1na2vs0mg"},{"bike_id":"0e737488-eea1-4c79-a09b-4e4182d3e90a","system_id":"levelo_inurba_marseille","lat":43.26223,"lon":5.38753,"is_reserved":false,"is_disabled":false,"rental_uris":{"android":"levelo://app?vid=0e737488-eea1-4c79-a09b-4e4182d3e90a","ios":"levelo://app?vid=0e737488-eea1-4c79-a09b-4e4182d3e90a"},"vehicle_type_id":"4","last_reported":1781328428,"current_range_meters":3600,"station_id":"st_d8gjfg747rts73coq3b0","pricing_plan_id":"cebpf4jnsgd1na2vs0mg"},{"bike_id":"0d1f6c8f-daf5-49b7-b85d-39b65c9ed163","system_id":"levelo_inurba_marseille","lat":43.31329,"lon":5.36761,"is_reserved":false,"is_disabled":false,"rental_uris":{"android":"levelo://app?vid=0d1f6c8f-daf5-49b7-b85d-39b65c9ed163","ios":"levelo://app?vid=0d1f6c8f-daf5-49b7-b85d-39b65c9ed163"},"vehicle_type_id":"4","last_reported":1781328428,"current_range_meters":3600,"station_id":"ce4bgr92rcd13ifvqc6g","pricing_plan_id":"cebpf4jnsgd1na2vs0mg"},{"bike_id":"edd7f6cf-c00d-4334-ba4f-ddda86c6a12e","system_id":"levelo_inurba_marseille","lat":43.30268,"lon":5.37688,"is_reserved":false,"is_disabled":false,"rental_uris":{"android":"levelo://app?vid=edd7f6cf-c00d-4334-ba4f-ddda86c6a12e","ios":"levelo://app?vid=edd7f6cf-c00d-4334-ba4f-ddda86c6a12e"},"vehicle_type_id":"4","last_reported":1781328428,"current_range_meters":3600,"station_id":"ce4bguh2rcd13ifvqcj0","pricing_plan_id":"cebpf4jnsgd1na2vs0mg"},{"bike_id":"6c149b80-daf1-4dc6-b899-1e8147e8b6f7","system_id":"levelo_inurba_marseille","lat":43.25073,"lon":5.40428,"is_reserved":false,"is_disabled":false,"rental_uris":{"android":"levelo://app?vid=6c149b80-daf1-4dc6-b899-1e8147e8b6f7","ios":"levelo://app?vid=6c149b80-daf1-4dc6-b899-1e8147e8b6f7"},"vehicle_type_id":"4","last_reported":1781328428,"current_range_meters":3600,"station_id":"","pricing_plan_id":"cebpf4jnsgd1na2vs0mg"},{"bike_id":"b4c0f195-58a3-456c-9ed4-e0663f1468e6","system_id":"levelo_inurba_marseille","lat":43.28256,"lon":5.37401,"is_reserved":false,"is_disabled":false,"rental_uris":{"android":"levelo://app?vid=b4c0f195-58a3-456c-9ed4-e0663f1468e6","ios":"levelo://app?vid=b4c0f195-58a3-456c-9ed4-e0663f1468e6"},"vehicle_type_id":"4","last_reported":1781328428,"current_range_meters":3600,"station_id":"","pricing_plan_id":"cebpf4jnsgd1na2vs0mg"},{"bike_id":"cdb51552-946c-4f57-8807-f1cfa55d450c","system_id":"levelo_inurba_marseille","lat":43.31545,"lon":5.37296,"is_reserved":false,"is_disabled":true,"rental_uris":{"android":"levelo://app?vid=cdb51552-946c-4f57-8807-f1cfa55d450c","ios":"levelo://app?vid=cdb51552-946c-4f57-8807-f1cfa55d450c"},"vehicle_type_id":"4","last_reported":1781328428,"current_range_meters":3600,"station_id":"","pricing_plan_id":"cebpf4jnsgd1na2vs0mg"},{"bike_id":"95a6a820-080c-4047-9edc-2eab85cc3ea0","system_id":"levelo_inurba_marseille","lat":43.31241,"lon":5.3728,"is_reserved":false,"is_disabled":false,"rental_uris":{"android":"levelo://app?vid=95a6a820-080c-4047-9edc-2eab85cc3ea0","ios":"levelo://app?vid=95a6a820-080c-4047-9edc-2eab85cc3ea0"},"vehicle_type_id":"4","last_reported":1781328428,"current_range_meters":3600,"station_id":"","pricing_plan_id":"cebpf4jnsgd1na2vs0mg"},{"bike_id":"52e0ca30-f6db-4b40-a595-fe3e1b7ca10e","system_id":"levelo_inurba_marseille","lat":43.2511,"lon":5.40336,"is_reserved":false,"is_disabled":true,"rental_uris":{"android":"levelo://app?vid=52e0ca30-f6db-4b40-a595-fe3e1b7ca10e","ios":"levelo://app?vid=52e0ca30-f6db-4b40-a595-fe3e1b7ca10e"},"vehicle_type_id":"4","last_reported":1781328428,"current_range_meters":4000,"station_id":"ce4bhlh2rcd13ifvqgig","pricing_plan_id":"cebpf4jnsgd1na2vs0mg"},{"bike_id":"1c98abbc-5109-4928-805d-65f05598d16e","system_id":"levelo_inurba_marseille","lat":43.28869,"lon":5.35889,"is_reserved":false,"is_disabled":false,"rental_uris":{"android":"levelo://app?vid=1c98abbc-5109-4928-805d-65f05598d16e","ios":"levelo://app?vid=1c98abbc-5109-4928-805d-65f05598d16e"},"vehicle_type_id":"4","last_reported":1781328428,"current_range_meters":4000,"station_id":"ce4bhb12rcd13ifvqem0","pricing_plan_id":"cebpf4jnsgd1na2vs0mg"},{"bike_id":"5868bc47-e30d-49b5-b51a-7a8a5eb4eb1b","system_id":"levelo_inurba_marseille","lat":43.31504,"lon":5.37281,"is_reserved":false,"is_disabled":false,"rental_uris":{"android":"levelo://app?vid=5868bc47-e30d-49b5-b51a-7a8a5eb4eb1b","ios":"levelo://app?vid=5868bc47-e30d-49b5-b51a-7a8a5eb4eb1b"},"vehicle_type_id":"4","last_reported":1781328428,"current_range_meters":4000,"station_id":"ce4bgt12rcd13ifvqcd0","pricing_plan_id":"cebpf4jnsgd1na2vs0mg"},{"bike_id":"b105e559-ad92-41ad-9bdf-4bd2f454dd68","system_id":"levelo_inurba_marseille","lat":43.30147,"lon":5.44948,"is_reserved":false,"is_disabled":false,"rental_uris":{"android":"levelo://app?vid=b105e559-ad92-41ad-9bdf-4bd2f454dd68","ios":"levelo://app?vid=b105e559-ad92-41ad-9bdf-4bd2f454dd68"},"vehicle_type_id":"4","last_reported":1781328428,"current_range_meters":4000,"station_id":"","pricing_plan_id":"cebpf4jnsgd1na2vs0mg"},{"bike_id":"cca4e3e7-06df-499e-bdcd-5732a88b3d4e","system_id":"levelo_inurba_marseille","lat":43.321,"lon":5.36771,"is_reserved":false,"is_disabled":false,"rental_uris":{"android":"levelo://app?vid=cca4e3e7-06df-499e-bdcd-5732a88b3d4e","ios":"levelo://app?vid=cca4e3e7-06df-499e-bdcd-5732a88b3d4e"},"vehicle_type_id":"4","last_reported":1781328428,"current_range_meters":4000,"station_id":"ce4bhrh2rcd13ifvqhug","pricing_plan_id":"cebpf4jnsgd1na2vs0mg"},{"bike_id":"6edb1571-ff0e-41be-86f6-ab57a8172f99","system_id":"levelo_inurba_marseille","lat":43.32116,"lon":5.36765,"is_reserved":false,"is_disabled":false,"rental_uris":{"android":"levelo://app?vid=6edb1571-ff0e-41be-86f6-ab57a8172f99","ios":"levelo://app?vid=6edb1571-ff0e-41be-86f6-ab57a8172f99"},"vehicle_type_id":"4","last_reported":1781328428,"current_range_meters":4000,"station_id":"ce4bhrh2rcd13ifvqhug","pricing_plan_id":"cebpf4jnsgd1na2vs0mg"},{"bike_id":"8ec584c5-513c-4f69-a1dc-c46420911cc0","system_id":"levelo_inurba_marseille","lat":43.25343,"lon":5.42167,"is_reserved":false,"is_disabled":false,"rental_uris":{"android":"levelo://app?vid=8ec584c5-513c-4f69-a1dc-c46420911cc0","ios":"levelo://app?vid=8ec584c5-513c-4f69-a1dc-c46420911cc0"},"vehicle_type_id":"4","last_reported":1781328428,"current_range_meters":4000,"station_id":"st_d2m65c5bi1j21697t3ng","pricing_plan_id":"cebpf4jnsgd1na2vs0mg"},{"bike_id":"8a9f3474-1ba5-4fc3-b4e6-1d2f8579f9d1","system_id":"levelo_inurba_marseille","lat":43.26587,"lon":5.39037,"is_reserved":false,"is_disabled":true,"rental_uris":{"android":"levelo://app?vid=8a9f3474-1ba5-4fc3-b4e6-1d2f8579f9d1","ios":"levelo://app?vid=8a9f3474-1ba5-4fc3-b4e6-1d2f8579f9d1"},"vehicle_type_id":"4","last_reported":1781328428,"current_range_meters":4000,"station_id":"ce4bhe12rcd13ifvqf30","pricing_plan_id":"cebpf4jnsgd1na2vs0mg"},{"bike_id":"48a1118a-f7e6-40e6-9008-e75804c90e76","system_id":"levelo_inurba_marseille","lat":43.2408,"lon":5.37746,"is_reserved":false,"is_disabled":false,"rental_uris":{"android":"levelo://app?vid=48a1118a-f7e6-40e6-9008-e75804c90e76","ios":"levelo://app?vid=48a1118a-f7e6-40e6-9008-e75804c90e76"},"vehicle_type_id":"4","last_reported":1781328428,"current_range_meters":4000,"station_id":"ce4bhnp2rcd13ifvqgvg","pricing_plan_id":"cebpf4jnsgd1na2vs0mg"},{"bike_id":"1345c154-16ee-4ed3-b4f1-947a1b328d12","system_id":"levelo_inurba_marseille","lat":43.26231,"lon":5.38784,"is_reserved":false,"is_disabled":false,"rental_uris":{"android":"levelo://app?vid=1345c154-16ee-4ed3-b4f1-947a1b328d12","ios":"levelo://app?vid=1345c154-16ee-4ed3-b4f1-947a1b328d12"},"vehicle_type_id":"4","last_reported":1781328428,"current_range_meters":4000,"station_id":"st_d8gjfg747rts73coq3b0","pricing_plan_id":"cebpf4jnsgd1na2vs0mg"},{"bike_id":"de654987-a430-4114-8dfd-3a73be87dfa1","system_id":"levelo_inurba_marseille","lat":43.27068,"lon":5.38301,"is_reserved":false,"is_disabled":false,"rental_uris":{"android":"levelo://app?vid=de654987-a430-4114-8dfd-3a73be87dfa1","ios":"levelo://app?vid=de654987-a430-4114-8dfd-3a73be87dfa1"},"vehicle_type_id":"4","last_reported":1781328428,"current_range_meters":4000,"station_id":"st_d3n2fo6cfp8s73cte1j0","pricing_plan_id":"cebpf4jnsgd1na2vs0mg"},{"bike_id":"246ae3dc-a47d-4d5c-b55b-33a21570cec9","system_id":"levelo_inurba_marseille","lat":43.29571,"lon":5.39976,"is_reserved":false,"is_disabled":false,"rental_uris":{"android":"levelo://app?vid=246ae3dc-a47d-4d5c-b55b-33a21570cec9","ios":"levelo://app?vid=246ae3dc-a47d-4d5c-b55b-33a21570cec9"},"vehicle_type_id":"4","last_reported":1781328428,"current_range_meters":4000,"station_id":"ce4bh312rcd13ifvqdj0","pricing_plan_id":"cebpf4jnsgd1na2vs0mg"},{"bike_id":"d7d60127-0b7c-4375-8690-f311e03d35d1","system_id":"levelo_inurba_marseille","lat":43.3025,"lon":5.40035,"is_reserved":false,"is_disabled":false,"rental_uris":{"android":"levelo://app?vid=d7d60127-0b7c-4375-8690-f311e03d35d1","ios":"levelo://app?vid=d7d60127-0b7c-4375-8690-f311e03d35d1"},"vehicle_type_id":"4","last_reported":1781328428,"current_range_meters":4000,"station_id":"ce4bgvh2rcd13ifvqcs0","pricing_plan_id":"cebpf4jnsgd1na2vs0mg"},{"bike_id":"a4b5c841-081f-4864-9ad4-e1c7a6e60416","system_id":"levelo_inurba_marseille","lat":43.23782,"lon":5.36606,"is_reserved":false,"is_disabled":true,"rental_uris":{"android":"levelo://app?vid=a4b5c841-081f-4864-9ad4-e1c7a6e60416","ios":"levelo://app?vid=a4b5c841-081f-4864-9ad4-e1c7a6e60416"},"vehicle_type_id":"4","last_reported":1781328428,"current_range_meters":4000,"station_id":"st_d3nk18o9ro0c73en2l3g","pricing_plan_id":"cebpf4jnsgd1na2vs0mg"},{"bike_id":"ff76b3a6-9291-4c73-966d-df7fa3bf9b47","system_id":"levelo_inurba_marseille","lat":43.28428,"lon":5.39183,"is_reserved":false,"is_disabled":false,"rental_uris":{"android":"levelo://app?vid=ff76b3a6-9291-4c73-966d-df7fa3bf9b47","ios":"levelo://app?vid=ff76b3a6-9291-4c73-966d-df7fa3bf9b47"},"vehicle_type_id":"4","last_reported":1781328428,"current_range_meters":4000,"station_id":"ce4bhoh2rcd13ifvqh5g","pricing_plan_id":"cebpf4jnsgd1na2vs0mg"},{"bike_id":"ee494397-ad1c-4b5e-80ed-9cc6e888762d","system_id":"levelo_inurba_marseille","lat":43.31882,"lon":5.42481,"is_reserved":false,"is_disabled":false,"rental_uris":{"android":"levelo://app?vid=ee494397-ad1c-4b5e-80ed-9cc6e888762d","ios":"levelo://app?vid=ee494397-ad1c-4b5e-80ed-9cc6e888762d"},"vehicle_type_id":"4","last_reported":1781328428,"current_range_meters":4000,"station_id":"","pricing_plan_id":"cebpf4jnsgd1na2vs0mg"},{"bike_id":"41eb6a40-5c9c-4ae0-95cb-ec8052428c3d","system_id":"levelo_inurba_marseille","lat":43.26097,"lon":5.39352,"is_reserved":false,"is_disabled":false,"rental_uris":{"android":"levelo://app?vid=41eb6a40-5c9c-4ae0-95cb-ec8052428c3d","ios":"levelo://app?vid=41eb6a40-5c9c-4ae0-95cb-ec8052428c3d"},"vehicle_type_id":"4","last_reported":1781328428,"current_range_meters":4400,"station_id":"ce4bhh92rcd13ifvqfj0","pricing_plan_id":"cebpf4jnsgd1na2vs0mg"},{"bike_id":"4bbd9026-ac9b-4dc1-97ad-6610089734db","system_id":"levelo_inurba_marseille","lat":43.31551,"lon":5.388,"is_reserved":false,"is_disabled":false,"rental_uris":{"android":"levelo://app?vid=4bbd9026-ac9b-4dc1-97ad-6610089734db","ios":"levelo://app?vid=4bbd9026-ac9b-4dc1-97ad-6610089734db"},"vehicle_type_id":"4","last_reported":1781328428,"current_range_meters":4400,"station_id":"","pricing_plan_id":"cebpf4jnsgd1na2vs0mg"},{"bike_id":"ba9e662c-c195-4d37-b478-8ff41eecf68d","system_id":"levelo_inurba_marseille","lat":43.29456,"lon":5.3976,"is_reserved":false,"is_disabled":false,"rental_uris":{"android":"levelo://app?vid=ba9e662c-c195-4d37-b478-8ff41eecf68d","ios":"levelo://app?vid=ba9e662c-c195-4d37-b478-8ff41eecf68d"},"vehicle_type_id":"4","last_reported":1781328428,"current_range_meters":4400,"station_id":"ce4bh3h2rcd13ifvqdo0","pricing_plan_id":"cebpf4jnsgd1na2vs0mg"},{"bike_id":"05fd6433-01ca-477d-8b87-92ab8f12b154","system_id":"levelo_inurba_marseille","lat":43.24385,"lon":5.3708,"is_reserved":false,"is_disabled":false,"rental_uris":{"android":"levelo://app?vid=05fd6433-01ca-477d-8b87-92ab8f12b154","ios":"levelo://app?vid=05fd6433-01ca-477d-8b87-92ab8f12b154"},"vehicle_type_id":"4","last_reported":1781328428,"current_range_meters":4400,"station_id":"ce4bhhh2rcd13ifvqfk0","pricing_plan_id":"cebpf4jnsgd1na2vs0mg"},{"bike_id":"27d3f6f8-8cc3-4981-a68f-1397edf5966f","system_id":"levelo_inurba_marseille","lat":43.28526,"lon":5.44081,"is_reserved":false,"is_disabled":false,"rental_uris":{"android":"levelo://app?vid=27d3f6f8-8cc3-4981-a68f-1397edf5966f","ios":"levelo://app?vid=27d3f6f8-8cc3-4981-a68f-1397edf5966f"},"vehicle_type_id":"4","last_reported":1781328428,"current_range_meters":4400,"station_id":"st_d3j3df2ikq2c7380ej80","pricing_plan_id":"cebpf4jnsgd1na2vs0mg"},{"bike_id":"ff9c0470-9736-4526-8384-50d1f6cff0a2","system_id":"levelo_inurba_marseille","lat":43.23892,"lon":5.3746,"is_reserved":false,"is_disabled":false,"rental_uris":{"android":"levelo://app?vid=ff9c0470-9736-4526-8384-50d1f6cff0a2","ios":"levelo://app?vid=ff9c0470-9736-4526-8384-50d1f6cff0a2"},"vehicle_type_id":"4","last_reported":1781328428,"current_range_meters":4400,"station_id":"st_d6sm7csbq4hs73f8fpjg","pricing_plan_id":"cebpf4jnsgd1na2vs0mg"},{"bike_id":"8549ed76-d067-4e8e-8122-bf5cc7918ab0","system_id":"levelo_inurba_marseille","lat":43.27815,"lon":5.40714,"is_reserved":false,"is_disabled":false,"rental_uris":{"android":"levelo://app?vid=8549ed76-d067-4e8e-8122-bf5cc7918ab0","ios":"levelo://app?vid=8549ed76-d067-4e8e-8122-bf5cc7918ab0"},"vehicle_type_id":"4","last_reported":1781328428,"current_range_meters":4400,"station_id":"ce4bhnh2rcd13ifvqgtg","pricing_plan_id":"cebpf4jnsgd1na2vs0mg"},{"bike_id":"cae71ddf-1770-4b1b-95b4-fe12f03eb6e6","system_id":"levelo_inurba_marseille","lat":43.28424,"lon":5.39198,"is_reserved":false,"is_disabled":false,"rental_uris":{"android":"levelo://app?vid=cae71ddf-1770-4b1b-95b4-fe12f03eb6e6","ios":"levelo://app?vid=cae71ddf-1770-4b1b-95b4-fe12f03eb6e6"},"vehicle_type_id":"4","last_reported":1781328428,"current_range_meters":4400,"station_id":"ce4bhoh2rcd13ifvqh5g","pricing_plan_id":"cebpf4jnsgd1na2vs0mg"},{"bike_id":"2c9f6970-46c6-41f3-9271-078d6bcad1b3","system_id":"levelo_inurba_marseille","lat":43.30602,"lon":5.37212,"is_reserved":false,"is_disabled":false,"rental_uris":{"android":"levelo://app?vid=2c9f6970-46c6-41f3-9271-078d6bcad1b3","ios":"levelo://app?vid=2c9f6970-46c6-41f3-9271-078d6bcad1b3"},"vehicle_type_id":"4","last_reported":1781328428,"current_range_meters":4400,"station_id":"ce4bgqh2rcd13ifvqc4g","pricing_plan_id":"cebpf4jnsgd1na2vs0mg"},{"bike_id":"a318bc01-9889-445e-ad9e-b36118278119","system_id":"levelo_inurba_marseille","lat":43.28615,"lon":5.35096,"is_reserved":false,"is_disabled":true,"rental_uris":{"android":"levelo://app?vid=a318bc01-9889-445e-ad9e-b36118278119","ios":"levelo://app?vid=a318bc01-9889-445e-ad9e-b36118278119"},"vehicle_type_id":"4","last_reported":1781328428,"current_range_meters":4400,"station_id":"ce4bhch2rcd13ifvqeug","pricing_plan_id":"cebpf4jnsgd1na2vs0mg"},{"bike_id":"5a98cce2-d8f9-4712-a4e0-13f9b7570e5b","system_id":"levelo_inurba_marseille","lat":43.30146,"lon":5.37422,"is_reserved":false,"is_disabled":false,"rental_uris":{"android":"levelo://app?vid=5a98cce2-d8f9-4712-a4e0-13f9b7570e5b","ios":"levelo://app?vid=5a98cce2-d8f9-4712-a4e0-13f9b7570e5b"},"vehicle_type_id":"4","last_reported":1781328428,"current_range_meters":4400,"station_id":"ce4bgs92rcd13ifvqcc0","pricing_plan_id":"cebpf4jnsgd1na2vs0mg"},{"bike_id":"b154e503-5e6b-4b2c-aea8-7afe1c19122c","system_id":"levelo_inurba_marseille","lat":43.28109,"lon":5.42646,"is_reserved":false,"is_disabled":false,"rental_uris":{"android":"levelo://app?vid=b154e503-5e6b-4b2c-aea8-7afe1c19122c","ios":"levelo://app?vid=b154e503-5e6b-4b2c-aea8-7afe1c19122c"},"vehicle_type_id":"4","last_reported":1781328428,"current_range_meters":4400,"station_id":"","pricing_plan_id":"cebpf4jnsgd1na2vs0mg"},{"bike_id":"e7eb3dfa-f001-4b2c-9e99-0dec83e07235","system_id":"levelo_inurba_marseille","lat":43.28269,"lon":5.35067,"is_reserved":false,"is_disabled":false,"rental_uris":{"android":"levelo://app?vid=e7eb3dfa-f001-4b2c-9e99-0dec83e07235","ios":"levelo://app?vid=e7eb3dfa-f001-4b2c-9e99-0dec83e07235"},"vehicle_type_id":"4","last_reported":1781328428,"current_range_meters":4400,"station_id":"ce4bhbp2rcd13ifvqerg","pricing_plan_id":"cebpf4jnsgd1na2vs0mg"},{"bike_id":"76ff20aa-c2bd-4fa2-8dca-7099f4d9bbe6","system_id":"levelo_inurba_marseille","lat":43.21161,"lon":5.35075,"is_reserved":false,"is_disabled":false,"rental_uris":{"android":"levelo://app?vid=76ff20aa-c2bd-4fa2-8dca-7099f4d9bbe6","ios":"levelo://app?vid=76ff20aa-c2bd-4fa2-8dca-7099f4d9bbe6"},"vehicle_type_id":"4","last_reported":1781328428,"current_range_meters":4400,"station_id":"st_cvj6sg6p6f1abm77japg","pricing_plan_id":"cebpf4jnsgd1na2vs0mg"},{"bike_id":"f7a00853-d0d2-4b3e-9319-84b1c278835c","system_id":"levelo_inurba_marseille","lat":43.29868,"lon":5.38919,"is_reserved":false,"is_disabled":false,"rental_uris":{"android":"levelo://app?vid=f7a00853-d0d2-4b3e-9319-84b1c278835c","ios":"levelo://app?vid=f7a00853-d0d2-4b3e-9319-84b1c278835c"},"vehicle_type_id":"4","last_reported":1781328428,"current_range_meters":4800,"station_id":"ce4bh392rcd13ifvqdl0","pricing_plan_id":"cebpf4jnsgd1na2vs0mg"},{"bike_id":"fa621284-b1f1-4d6e-b284-f76a199b7f8a","system_id":"levelo_inurba_marseille","lat":43.30935,"lon":5.40137,"is_reserved":false,"is_disabled":false,"rental_uris":{"android":"levelo://app?vid=fa621284-b1f1-4d6e-b284-f76a199b7f8a","ios":"levelo://app?vid=fa621284-b1f1-4d6e-b284-f76a199b7f8a"},"vehicle_type_id":"4","last_reported":1781328428,"current_range_meters":4800,"station_id":"ce4bgvp2rcd13ifvqct0","pricing_plan_id":"cebpf4jnsgd1na2vs0mg"},{"bike_id":"e47ae0bf-f126-446e-b5ec-76f0669505fe","system_id":"levelo_inurba_marseille","lat":43.30932,"lon":5.40144,"is_reserved":false,"is_disabled":false,"rental_uris":{"android":"levelo://app?vid=e47ae0bf-f126-446e-b5ec-76f0669505fe","ios":"levelo://app?vid=e47ae0bf-f126-446e-b5ec-76f0669505fe"},"vehicle_type_id":"4","last_reported":1781328428,"current_range_meters":4800,"station_id":"ce4bgvp2rcd13ifvqct0","pricing_plan_id":"cebpf4jnsgd1na2vs0mg"},{"bike_id":"0f032c45-07a2-4e70-9f19-3a48f3e67f83","system_id":"levelo_inurba_marseille","lat":43.24065,"lon":5.37754,"is_reserved":false,"is_disabled":false,"rental_uris":{"android":"levelo://app?vid=0f032c45-07a2-4e70-9f19-3a48f3e67f83","ios":"levelo://app?vid=0f032c45-07a2-4e70-9f19-3a48f3e67f83"},"vehicle_type_id":"4","last_reported":1781328428,"current_range_meters":4800,"station_id":"ce4bhnp2rcd13ifvqgvg","pricing_plan_id":"cebpf4jnsgd1na2vs0mg"},{"bike_id":"f75e1397-df03-4490-8426-06adfce3481e","system_id":"levelo_inurba_marseille","lat":43.30353,"lon":5.41884,"is_reserved":false,"is_disabled":false,"rental_uris":{"android":"levelo://app?vid=f75e1397-df03-4490-8426-06adfce3481e","ios":"levelo://app?vid=f75e1397-df03-4490-8426-06adfce3481e"},"vehicle_type_id":"4","last_reported":1781328428,"current_range_meters":4800,"station_id":"ce4bhop2rcd13ifvqh7g","pricing_plan_id":"cebpf4jnsgd1na2vs0mg"},{"bike_id":"2e8ce59b-b694-478c-936c-bb1374f707b7","system_id":"levelo_inurba_marseille","lat":43.28663,"lon":5.36349,"is_reserved":false,"is_disabled":false,"rental_uris":{"android":"levelo://app?vid=2e8ce59b-b694-478c-936c-bb1374f707b7","ios":"levelo://app?vid=2e8ce59b-b694-478c-936c-bb1374f707b7"},"vehicle_type_id":"4","last_reported":1781328428,"current_range_meters":4800,"station_id":"ce4bhah2rcd13ifvqej0","pricing_plan_id":"cebpf4jnsgd1na2vs0mg"},{"bike_id":"15f87de7-5c26-42c4-9f78-afc027a1d926","system_id":"levelo_inurba_marseille","lat":43.23187,"lon":5.35558,"is_reserved":false,"is_disabled":false,"rental_uris":{"android":"levelo://app?vid=15f87de7-5c26-42c4-9f78-afc027a1d926","ios":"levelo://app?vid=15f87de7-5c26-42c4-9f78-afc027a1d926"},"vehicle_type_id":"4","last_reported":1781328428,"current_range_meters":4800,"station_id":"ce4bhu92rcd13ifvqi70","pricing_plan_id":"cebpf4jnsgd1na2vs0mg"},{"bike_id":"ef95c250-9b06-45a5-a042-179938269e70","system_id":"levelo_inurba_marseille","lat":43.29181,"lon":5.3933,"is_reserved":false,"is_disabled":false,"rental_uris":{"android":"levelo://app?vid=ef95c250-9b06-45a5-a042-179938269e70","ios":"levelo://app?vid=ef95c250-9b06-45a5-a042-179938269e70"},"vehicle_type_id":"4","last_reported":1781328428,"current_range_meters":4800,"station_id":"ce4bh192rcd13ifvqdd0","pricing_plan_id":"cebpf4jnsgd1na2vs0mg"},{"bike_id":"53936005-9204-4348-89cf-43ad5332b22f","system_id":"levelo_inurba_marseille","lat":43.31317,"lon":5.39688,"is_reserved":false,"is_disabled":false,"rental_uris":{"android":"levelo://app?vid=53936005-9204-4348-89cf-43ad5332b22f","ios":"levelo://app?vid=53936005-9204-4348-89cf-43ad5332b22f"},"vehicle_type_id":"4","last_reported":1781328428,"current_range_meters":4800,"station_id":"ce4bgvp2rcd13ifvqcu0","pricing_plan_id":"cebpf4jnsgd1na2vs0mg"},{"bike_id":"1ca3a914-a55c-4637-a9ca-4ffd36fbecad","system_id":"levelo_inurba_marseille","lat":43.262214,"lon":5.387661,"is_reserved":false,"is_disabled":true,"rental_uris":{"android":"levelo://app?vid=1ca3a914-a55c-4637-a9ca-4ffd36fbecad","ios":"levelo://app?vid=1ca3a914-a55c-4637-a9ca-4ffd36fbecad"},"vehicle_type_id":"4","last_reported":1781328428,"current_range_meters":4800,"station_id":"st_d8gjfg747rts73coq3b0","pricing_plan_id":"cebpf4jnsgd1na2vs0mg"},{"bike_id":"9e36cfa1-09fe-4bd5-9827-624ec281fd82","system_id":"levelo_inurba_marseille","lat":43.26043,"lon":5.37556,"is_reserved":false,"is_disabled":false,"rental_uris":{"android":"levelo://app?vid=9e36cfa1-09fe-4bd5-9827-624ec281fd82","ios":"levelo://app?vid=9e36cfa1-09fe-4bd5-9827-624ec281fd82"},"vehicle_type_id":"4","last_reported":1781328428,"current_range_meters":4800,"station_id":"ce4bhgh2rcd13ifvqfa0","pricing_plan_id":"cebpf4jnsgd1na2vs0mg"},{"bike_id":"bbbeea8c-1ac9-4cc8-9130-fa093513e5e1","system_id":"levelo_inurba_marseille","lat":43.29033,"lon":5.39962,"is_reserved":false,"is_disabled":false,"rental_uris":{"android":"levelo://app?vid=bbbeea8c-1ac9-4cc8-9130-fa093513e5e1","ios":"levelo://app?vid=bbbeea8c-1ac9-4cc8-9130-fa093513e5e1"},"vehicle_type_id":"4","last_reported":1781328428,"current_range_meters":4800,"station_id":"ce4bh392rcd13ifvqdm0","pricing_plan_id":"cebpf4jnsgd1na2vs0mg"},{"bike_id":"a8c687f7-c110-425a-b698-2935ed58f0f5","system_id":"levelo_inurba_marseille","lat":43.28455,"lon":5.35873,"is_reserved":false,"is_disabled":false,"rental_uris":{"android":"levelo://app?vid=a8c687f7-c110-425a-b698-2935ed58f0f5","ios":"levelo://app?vid=a8c687f7-c110-425a-b698-2935ed58f0f5"},"vehicle_type_id":"4","last_reported":1781328428,"current_range_meters":4800,"station_id":"ce4bhah2rcd13ifvqei0","pricing_plan_id":"cebpf4jnsgd1na2vs0mg"},{"bike_id":"3e6d8bd8-ecda-47bb-9209-82b012d7e98b","system_id":"levelo_inurba_marseille","lat":43.30921,"lon":5.40135,"is_reserved":false,"is_disabled":false,"rental_uris":{"android":"levelo://app?vid=3e6d8bd8-ecda-47bb-9209-82b012d7e98b","ios":"levelo://app?vid=3e6d8bd8-ecda-47bb-9209-82b012d7e98b"},"vehicle_type_id":"4","last_reported":1781328428,"current_range_meters":4800,"station_id":"ce4bgvp2rcd13ifvqct0","pricing_plan_id":"cebpf4jnsgd1na2vs0mg"},{"bike_id":"db775758-d98c-416a-b7d1-5bd50c21d14d","system_id":"levelo_inurba_marseille","lat":43.30772,"lon":5.37663,"is_reserved":false,"is_disabled":false,"rental_uris":{"android":"levelo://app?vid=db775758-d98c-416a-b7d1-5bd50c21d14d","ios":"levelo://app?vid=db775758-d98c-416a-b7d1-5bd50c21d14d"},"vehicle_type_id":"4","last_reported":1781328428,"current_range_meters":5600,"station_id":"ce4bgv92rcd13ifvqcq0","pricing_plan_id":"cebpf4jnsgd1na2vs0mg"},{"bike_id":"7c56fbf2-b06b-4ad4-bd6e-fb0ad9ba401c","system_id":"levelo_inurba_marseille","lat":43.28707,"lon":5.37954,"is_reserved":false,"is_disabled":true,"rental_uris":{"android":"levelo://app?vid=7c56fbf2-b06b-4ad4-bd6e-fb0ad9ba401c","ios":"levelo://app?vid=7c56fbf2-b06b-4ad4-bd6e-fb0ad9ba401c"},"vehicle_type_id":"4","last_reported":1781328428,"current_range_meters":5600,"station_id":"ce4bh9p2rcd13ifvqec0","pricing_plan_id":"cebpf4jnsgd1na2vs0mg"},{"bike_id":"3dadf0fc-cda7-4e39-9b94-dc0975c641b0","system_id":"levelo_inurba_marseille","lat":43.29972,"lon":5.37191,"is_reserved":false,"is_disabled":false,"rental_uris":{"android":"levelo://app?vid=3dadf0fc-cda7-4e39-9b94-dc0975c641b0","ios":"levelo://app?vid=3dadf0fc-cda7-4e39-9b94-dc0975c641b0"},"vehicle_type_id":"4","last_reported":1781328428,"current_range_meters":5600,"station_id":"ce4bgr92rcd13ifvqc7g","pricing_plan_id":"cebpf4jnsgd1na2vs0mg"},{"bike_id":"f312a474-3688-43e4-8515-a784a5c48528","system_id":"levelo_inurba_marseille","lat":43.2118,"lon":5.35075,"is_reserved":false,"is_disabled":true,"rental_uris":{"android":"levelo://app?vid=f312a474-3688-43e4-8515-a784a5c48528","ios":"levelo://app?vid=f312a474-3688-43e4-8515-a784a5c48528"},"vehicle_type_id":"4","last_reported":1781328428,"current_range_meters":5600,"station_id":"st_cvj6sg6p6f1abm77japg","pricing_plan_id":"cebpf4jnsgd1na2vs0mg"},{"bike_id":"d39db183-6bf7-420a-96f5-b25822544857","system_id":"levelo_inurba_marseille","lat":43.32351,"lon":5.36747,"is_reserved":false,"is_disabled":false,"rental_uris":{"android":"levelo://app?vid=d39db183-6bf7-420a-96f5-b25822544857","ios":"levelo://app?vid=d39db183-6bf7-420a-96f5-b25822544857"},"vehicle_type_id":"4","last_reported":1781328428,"current_range_meters":5600,"station_id":"ce4bhsh2rcd13ifvqi2g","pricing_plan_id":"cebpf4jnsgd1na2vs0mg"},{"bike_id":"a921a687-4f8b-4d1b-a254-2ddeeeaf8a37","system_id":"levelo_inurba_marseille","lat":43.24209,"lon":5.37083,"is_reserved":false,"is_disabled":false,"rental_uris":{"android":"levelo://app?vid=a921a687-4f8b-4d1b-a254-2ddeeeaf8a37","ios":"levelo://app?vid=a921a687-4f8b-4d1b-a254-2ddeeeaf8a37"},"vehicle_type_id":"4","last_reported":1781328428,"current_range_meters":5600,"station_id":"","pricing_plan_id":"cebpf4jnsgd1na2vs0mg"},{"bike_id":"a0d2ac5f-fff6-43f6-831d-dfa81e9c3981","system_id":"levelo_inurba_marseille","lat":43.29603,"lon":5.36421,"is_reserved":false,"is_disabled":false,"rental_uris":{"android":"levelo://app?vid=a0d2ac5f-fff6-43f6-831d-dfa81e9c3981","ios":"levelo://app?vid=a0d2ac5f-fff6-43f6-831d-dfa81e9c3981"},"vehicle_type_id":"4","last_reported":1781328428,"current_range_meters":5600,"station_id":"","pricing_plan_id":"cebpf4jnsgd1na2vs0mg"},{"bike_id":"2d65b860-94da-4574-a20f-82b65ca5f84b","system_id":"levelo_inurba_marseille","lat":43.22563,"lon":5.4162,"is_reserved":false,"is_disabled":false,"rental_uris":{"android":"levelo://app?vid=2d65b860-94da-4574-a20f-82b65ca5f84b","ios":"levelo://app?vid=2d65b860-94da-4574-a20f-82b65ca5f84b"},"vehicle_type_id":"4","last_reported":1781328428,"current_range_meters":5600,"station_id":"st_d2o4gvlbi1j2169b742g","pricing_plan_id":"cebpf4jnsgd1na2vs0mg"},{"bike_id":"f57ddc5d-b3ad-43f3-bbc4-226ea7be866d","system_id":"levelo_inurba_marseille","lat":43.29853,"lon":5.42272,"is_reserved":false,"is_disabled":false,"rental_uris":{"android":"levelo://app?vid=f57ddc5d-b3ad-43f3-bbc4-226ea7be866d","ios":"levelo://app?vid=f57ddc5d-b3ad-43f3-bbc4-226ea7be866d"},"vehicle_type_id":"4","last_reported":1781328428,"current_range_meters":5600,"station_id":"","pricing_plan_id":"cebpf4jnsgd1na2vs0mg"},{"bike_id":"fb2a1f7d-f7e9-4d12-bb3c-32e8cd55f82d","system_id":"levelo_inurba_marseille","lat":43.29068,"lon":5.4426,"is_reserved":false,"is_disabled":false,"rental_uris":{"android":"levelo://app?vid=fb2a1f7d-f7e9-4d12-bb3c-32e8cd55f82d","ios":"levelo://app?vid=fb2a1f7d-f7e9-4d12-bb3c-32e8cd55f82d"},"vehicle_type_id":"4","last_reported":1781328428,"current_range_meters":5600,"station_id":"","pricing_plan_id":"cebpf4jnsgd1na2vs0mg"},{"bike_id":"3cb9a99c-8475-44b5-a414-f58b937c5317","system_id":"levelo_inurba_marseille","lat":43.28448,"lon":5.35893,"is_reserved":false,"is_disabled":false,"rental_uris":{"android":"levelo://app?vid=3cb9a99c-8475-44b5-a414-f58b937c5317","ios":"levelo://app?vid=3cb9a99c-8475-44b5-a414-f58b937c5317"},"vehicle_type_id":"4","last_reported":1781328428,"current_range_meters":5600,"station_id":"ce4bhah2rcd13ifvqei0","pricing_plan_id":"cebpf4jnsgd1na2vs0mg"},{"bike_id":"6efeecbb-e546-4fe2-bf59-3437be745866","system_id":"levelo_inurba_marseille","lat":43.30924,"lon":5.40141,"is_reserved":false,"is_disabled":false,"rental_uris":{"android":"levelo://app?vid=6efeecbb-e546-4fe2-bf59-3437be745866","ios":"levelo://app?vid=6efeecbb-e546-4fe2-bf59-3437be745866"},"vehicle_type_id":"4","last_reported":1781328428,"current_range_meters":5600,"station_id":"ce4bgvp2rcd13ifvqct0","pricing_plan_id":"cebpf4jnsgd1na2vs0mg"},{"bike_id":"6823f9a2-8013-4e26-94c8-72b20fcbdb61","system_id":"levelo_inurba_marseille","lat":43.30316,"lon":5.40437,"is_reserved":false,"is_disabled":false,"rental_uris":{"android":"levelo://app?vid=6823f9a2-8013-4e26-94c8-72b20fcbdb61","ios":"levelo://app?vid=6823f9a2-8013-4e26-94c8-72b20fcbdb61"},"vehicle_type_id":"4","last_reported":1781328428,"current_range_meters":5600,"station_id":"ce4bh012rcd13ifvqd10","pricing_plan_id":"cebpf4jnsgd1na2vs0mg"},{"bike_id":"5bc93fa4-047c-40e2-94fd-52abf60188ac","system_id":"levelo_inurba_marseille","lat":43.25113,"lon":5.39499,"is_reserved":false,"is_disabled":false,"rental_uris":{"android":"levelo://app?vid=5bc93fa4-047c-40e2-94fd-52abf60188ac","ios":"levelo://app?vid=5bc93fa4-047c-40e2-94fd-52abf60188ac"},"vehicle_type_id":"4","last_reported":1781328428,"current_range_meters":5600,"station_id":"ce4bhm12rcd13ifvqgkg","pricing_plan_id":"cebpf4jnsgd1na2vs0mg"},{"bike_id":"5ab25b28-e35d-4f10-9ca9-7d658cce4ea9","system_id":"levelo_inurba_marseille","lat":43.28925,"lon":5.38404,"is_reserved":false,"is_disabled":true,"rental_uris":{"android":"levelo://app?vid=5ab25b28-e35d-4f10-9ca9-7d658cce4ea9","ios":"levelo://app?vid=5ab25b28-e35d-4f10-9ca9-7d658cce4ea9"},"vehicle_type_id":"4","last_reported":1781328428,"current_range_meters":5600,"station_id":"ce4bh612rcd13ifvqe6g","pricing_plan_id":"cebpf4jnsgd1na2vs0mg"},{"bike_id":"29f89edd-ea47-4769-ba03-c94739969a4f","system_id":"levelo_inurba_marseille","lat":43.29383,"lon":5.40192,"is_reserved":false,"is_disabled":false,"rental_uris":{"android":"levelo://app?vid=29f89edd-ea47-4769-ba03-c94739969a4f","ios":"levelo://app?vid=29f89edd-ea47-4769-ba03-c94739969a4f"},"vehicle_type_id":"4","last_reported":1781328428,"current_range_meters":5600,"station_id":"","pricing_plan_id":"cebpf4jnsgd1na2vs0mg"},{"bike_id":"dba08d41-a0bc-48d4-8b57-3a1f571fc795","system_id":"levelo_inurba_marseille","lat":43.24169,"lon":5.39717,"is_reserved":false,"is_disabled":false,"rental_uris":{"android":"levelo://app?vid=dba08d41-a0bc-48d4-8b57-3a1f571fc795","ios":"levelo://app?vid=dba08d41-a0bc-48d4-8b57-3a1f571fc795"},"vehicle_type_id":"4","last_reported":1781328428,"current_range_meters":5600,"station_id":"ce4bhn12rcd13ifvqgpg","pricing_plan_id":"cebpf4jnsgd1na2vs0mg"},{"bike_id":"7717390a-9f55-4678-b2a5-ba0a73b8a548","system_id":"levelo_inurba_marseille","lat":43.31713,"lon":5.36907,"is_reserved":false,"is_disabled":false,"rental_uris":{"android":"levelo://app?vid=7717390a-9f55-4678-b2a5-ba0a73b8a548","ios":"levelo://app?vid=7717390a-9f55-4678-b2a5-ba0a73b8a548"},"vehicle_type_id":"4","last_reported":1781328428,"current_range_meters":5600,"station_id":"","pricing_plan_id":"cebpf4jnsgd1na2vs0mg"},{"bike_id":"cdaa4188-ec22-4134-8a24-557ae2e107d4","system_id":"levelo_inurba_marseille","lat":43.2902,"lon":5.38633,"is_reserved":false,"is_disabled":true,"rental_uris":{"android":"levelo://app?vid=cdaa4188-ec22-4134-8a24-557ae2e107d4","ios":"levelo://app?vid=cdaa4188-ec22-4134-8a24-557ae2e107d4"},"vehicle_type_id":"4","last_reported":1781328428,"current_range_meters":5600,"station_id":"ce4bh4p2rcd13ifvqe0g","pricing_plan_id":"cebpf4jnsgd1na2vs0mg"},{"bike_id":"67d79504-0563-4610-907f-80e12b8075dc","system_id":"levelo_inurba_marseille","lat":43.24395,"lon":5.37071,"is_reserved":false,"is_disabled":false,"rental_uris":{"android":"levelo://app?vid=67d79504-0563-4610-907f-80e12b8075dc","ios":"levelo://app?vid=67d79504-0563-4610-907f-80e12b8075dc"},"vehicle_type_id":"4","last_reported":1781328428,"current_range_meters":6000,"station_id":"ce4bhhh2rcd13ifvqfk0","pricing_plan_id":"cebpf4jnsgd1na2vs0mg"},{"bike_id":"7ec5ac6c-1ad1-484e-b1ac-0dd6240aeac8","system_id":"levelo_inurba_marseille","lat":43.32111,"lon":5.36746,"is_reserved":false,"is_disabled":false,"rental_uris":{"android":"levelo://app?vid=7ec5ac6c-1ad1-484e-b1ac-0dd6240aeac8","ios":"levelo://app?vid=7ec5ac6c-1ad1-484e-b1ac-0dd6240aeac8"},"vehicle_type_id":"4","last_reported":1781328428,"current_range_meters":6000,"station_id":"ce4bhrh2rcd13ifvqhug","pricing_plan_id":"cebpf4jnsgd1na2vs0mg"},{"bike_id":"6592f03d-a34c-4add-9022-fdbf188f6bdf","system_id":"levelo_inurba_marseille","lat":43.23195,"lon":5.39989,"is_reserved":false,"is_disabled":false,"rental_uris":{"android":"levelo://app?vid=6592f03d-a34c-4add-9022-fdbf188f6bdf","ios":"levelo://app?vid=6592f03d-a34c-4add-9022-fdbf188f6bdf"},"vehicle_type_id":"4","last_reported":1781328428,"current_range_meters":6000,"station_id":"ce4bhn12rcd13ifvqgqg","pricing_plan_id":"cebpf4jnsgd1na2vs0mg"},{"bike_id":"86e244b1-b6ba-4aff-bc02-a57a3af6fd31","system_id":"levelo_inurba_marseille","lat":43.23192,"lon":5.35566,"is_reserved":false,"is_disabled":false,"rental_uris":{"android":"levelo://app?vid=86e244b1-b6ba-4aff-bc02-a57a3af6fd31","ios":"levelo://app?vid=86e244b1-b6ba-4aff-bc02-a57a3af6fd31"},"vehicle_type_id":"4","last_reported":1781328428,"current_range_meters":6000,"station_id":"ce4bhu92rcd13ifvqi70","pricing_plan_id":"cebpf4jnsgd1na2vs0mg"},{"bike_id":"75a8d4bb-5b93-4cf3-8f56-e58ee660da96","system_id":"levelo_inurba_marseille","lat":43.24187,"lon":5.40814,"is_reserved":false,"is_disabled":false,"rental_uris":{"android":"levelo://app?vid=75a8d4bb-5b93-4cf3-8f56-e58ee660da96","ios":"levelo://app?vid=75a8d4bb-5b93-4cf3-8f56-e58ee660da96"},"vehicle_type_id":"4","last_reported":1781328428,"current_range_meters":6000,"station_id":"","pricing_plan_id":"cebpf4jnsgd1na2vs0mg"},{"bike_id":"4d77753f-2320-404c-93a2-094e7eff83c5","system_id":"levelo_inurba_marseille","lat":43.287,"lon":5.37382,"is_reserved":false,"is_disabled":false,"rental_uris":{"android":"levelo://app?vid=4d77753f-2320-404c-93a2-094e7eff83c5","ios":"levelo://app?vid=4d77753f-2320-404c-93a2-094e7eff83c5"},"vehicle_type_id":"4","last_reported":1781328428,"current_range_meters":6000,"station_id":"ce4bh3p2rcd13ifvqdq0","pricing_plan_id":"cebpf4jnsgd1na2vs0mg"},{"bike_id":"b07c50b5-dfeb-42a4-b2f0-b8ec5abc4533","system_id":"levelo_inurba_marseille","lat":43.29007,"lon":5.3562,"is_reserved":false,"is_disabled":false,"rental_uris":{"android":"levelo://app?vid=b07c50b5-dfeb-42a4-b2f0-b8ec5abc4533","ios":"levelo://app?vid=b07c50b5-dfeb-42a4-b2f0-b8ec5abc4533"},"vehicle_type_id":"4","last_reported":1781328428,"current_range_meters":6000,"station_id":"ce4bhb92rcd13ifvqen0","pricing_plan_id":"cebpf4jnsgd1na2vs0mg"},{"bike_id":"9baebc47-9a21-445a-b575-5e8cc4ed7549","system_id":"levelo_inurba_marseille","lat":43.28475,"lon":5.48393,"is_reserved":false,"is_disabled":false,"rental_uris":{"android":"levelo://app?vid=9baebc47-9a21-445a-b575-5e8cc4ed7549","ios":"levelo://app?vid=9baebc47-9a21-445a-b575-5e8cc4ed7549"},"vehicle_type_id":"4","last_reported":1781328428,"current_range_meters":6000,"station_id":"st_d3svhcjqgbts73a3dn0g","pricing_plan_id":"cebpf4jnsgd1na2vs0mg"},{"bike_id":"c204c8ea-e90e-4d5e-9e5f-316b4c7758ae","system_id":"levelo_inurba_marseille","lat":43.30931,"lon":5.40137,"is_reserved":false,"is_disabled":false,"rental_uris":{"android":"levelo://app?vid=c204c8ea-e90e-4d5e-9e5f-316b4c7758ae","ios":"levelo://app?vid=c204c8ea-e90e-4d5e-9e5f-316b4c7758ae"},"vehicle_type_id":"4","last_reported":1781328428,"current_range_meters":6000,"station_id":"ce4bgvp2rcd13ifvqct0","pricing_plan_id":"cebpf4jnsgd1na2vs0mg"},{"bike_id":"6a7afd93-57ec-47a1-be55-6cce2f341269","system_id":"levelo_inurba_marseille","lat":43.28457,"lon":5.35881,"is_reserved":false,"is_disabled":false,"rental_uris":{"android":"levelo://app?vid=6a7afd93-57ec-47a1-be55-6cce2f341269","ios":"levelo://app?vid=6a7afd93-57ec-47a1-be55-6cce2f341269"},"vehicle_type_id":"4","last_reported":1781328428,"current_range_meters":6000,"station_id":"ce4bhah2rcd13ifvqei0","pricing_plan_id":"cebpf4jnsgd1na2vs0mg"},{"bike_id":"b13b703d-2d1b-47c4-a7b2-0027e92685e3","system_id":"levelo_inurba_marseille","lat":43.23145,"lon":5.43705,"is_reserved":false,"is_disabled":false,"rental_uris":{"android":"levelo://app?vid=b13b703d-2d1b-47c4-a7b2-0027e92685e3","ios":"levelo://app?vid=b13b703d-2d1b-47c4-a7b2-0027e92685e3"},"vehicle_type_id":"4","last_reported":1781328428,"current_range_meters":6000,"station_id":"ce4bhmp2rcd13ifvqgog","pricing_plan_id":"cebpf4jnsgd1na2vs0mg"},{"bike_id":"3ea61c54-5ae4-4ec5-8d1e-95c813254f6e","system_id":"levelo_inurba_marseille","lat":43.24463,"lon":5.42515,"is_reserved":false,"is_disabled":false,"rental_uris":{"android":"levelo://app?vid=3ea61c54-5ae4-4ec5-8d1e-95c813254f6e","ios":"levelo://app?vid=3ea61c54-5ae4-4ec5-8d1e-95c813254f6e"},"vehicle_type_id":"4","last_reported":1781328428,"current_range_meters":6000,"station_id":"st_d4a3vfp97mjs738cd8kg","pricing_plan_id":"cebpf4jnsgd1na2vs0mg"},{"bike_id":"932afb10-d230-406f-a6e2-098fe36a2de4","system_id":"levelo_inurba_marseille","lat":43.25346,"lon":5.42175,"is_reserved":false,"is_disabled":false,"rental_uris":{"android":"levelo://app?vid=932afb10-d230-406f-a6e2-098fe36a2de4","ios":"levelo://app?vid=932afb10-d230-406f-a6e2-098fe36a2de4"},"vehicle_type_id":"4","last_reported":1781328428,"current_range_meters":6400,"station_id":"st_d2m65c5bi1j21697t3ng","pricing_plan_id":"cebpf4jnsgd1na2vs0mg"},{"bike_id":"44577758-9781-4e26-a98a-6f13509dbbf8","system_id":"levelo_inurba_marseille","lat":43.33713,"lon":5.39156,"is_reserved":false,"is_disabled":false,"rental_uris":{"android":"levelo://app?vid=44577758-9781-4e26-a98a-6f13509dbbf8","ios":"levelo://app?vid=44577758-9781-4e26-a98a-6f13509dbbf8"},"vehicle_type_id":"4","last_reported":1781328428,"current_range_meters":6400,"station_id":"ce4bhr92rcd13ifvqhsg","pricing_plan_id":"cebpf4jnsgd1na2vs0mg"},{"bike_id":"6a27404a-fd45-46ef-b0c6-d19df52b0472","system_id":"levelo_inurba_marseille","lat":43.30061,"lon":5.37764,"is_reserved":false,"is_disabled":false,"rental_uris":{"android":"levelo://app?vid=6a27404a-fd45-46ef-b0c6-d19df52b0472","ios":"levelo://app?vid=6a27404a-fd45-46ef-b0c6-d19df52b0472"},"vehicle_type_id":"4","last_reported":1781328428,"current_range_meters":6400,"station_id":"","pricing_plan_id":"cebpf4jnsgd1na2vs0mg"},{"bike_id":"a88c18f7-a05b-424b-a2e6-87c48e40dd60","system_id":"levelo_inurba_marseille","lat":43.23903,"lon":5.37463,"is_reserved":false,"is_disabled":true,"rental_uris":{"android":"levelo://app?vid=a88c18f7-a05b-424b-a2e6-87c48e40dd60","ios":"levelo://app?vid=a88c18f7-a05b-424b-a2e6-87c48e40dd60"},"vehicle_type_id":"4","last_reported":1781328428,"current_range_meters":6400,"station_id":"st_d6sm7csbq4hs73f8fpjg","pricing_plan_id":"cebpf4jnsgd1na2vs0mg"},{"bike_id":"116e7e79-df73-459e-bb6d-922ab4ccb8bd","system_id":"levelo_inurba_marseille","lat":43.21206,"lon":5.35041,"is_reserved":false,"is_disabled":false,"rental_uris":{"android":"levelo://app?vid=116e7e79-df73-459e-bb6d-922ab4ccb8bd","ios":"levelo://app?vid=116e7e79-df73-459e-bb6d-922ab4ccb8bd"},"vehicle_type_id":"4","last_reported":1781328428,"current_range_meters":6400,"station_id":"st_cvj6sg6p6f1abm77japg","pricing_plan_id":"cebpf4jnsgd1na2vs0mg"},{"bike_id":"1bd36802-444b-47b8-b6d5-5854caf6a4a9","system_id":"levelo_inurba_marseille","lat":43.31484,"lon":5.37276,"is_reserved":false,"is_disabled":false,"rental_uris":{"android":"levelo://app?vid=1bd36802-444b-47b8-b6d5-5854caf6a4a9","ios":"levelo://app?vid=1bd36802-444b-47b8-b6d5-5854caf6a4a9"},"vehicle_type_id":"4","last_reported":1781328428,"current_range_meters":6400,"station_id":"ce4bgt12rcd13ifvqcd0","pricing_plan_id":"cebpf4jnsgd1na2vs0mg"},{"bike_id":"61abc050-794c-43f3-96ae-15565612cd1b","system_id":"levelo_inurba_marseille","lat":43.28675,"lon":5.46673,"is_reserved":false,"is_disabled":false,"rental_uris":{"android":"levelo://app?vid=61abc050-794c-43f3-96ae-15565612cd1b","ios":"levelo://app?vid=61abc050-794c-43f3-96ae-15565612cd1b"},"vehicle_type_id":"4","last_reported":1781328428,"current_range_meters":6400,"station_id":"st_d6tc3vkotcvc738tfjhg","pricing_plan_id":"cebpf4jnsgd1na2vs0mg"},{"bike_id":"e128b65e-1a46-4b25-bad3-8ba661209936","system_id":"levelo_inurba_marseille","lat":43.29258,"lon":5.4005,"is_reserved":false,"is_disabled":false,"rental_uris":{"android":"levelo://app?vid=e128b65e-1a46-4b25-bad3-8ba661209936","ios":"levelo://app?vid=e128b65e-1a46-4b25-bad3-8ba661209936"},"vehicle_type_id":"4","last_reported":1781328428,"current_range_meters":6400,"station_id":"","pricing_plan_id":"cebpf4jnsgd1na2vs0mg"},{"bike_id":"641f7e7c-96b1-4542-9c7d-7c36bcfd4993","system_id":"levelo_inurba_marseille","lat":43.28645,"lon":5.36343,"is_reserved":false,"is_disabled":false,"rental_uris":{"android":"levelo://app?vid=641f7e7c-96b1-4542-9c7d-7c36bcfd4993","ios":"levelo://app?vid=641f7e7c-96b1-4542-9c7d-7c36bcfd4993"},"vehicle_type_id":"4","last_reported":1781328428,"current_range_meters":6400,"station_id":"ce4bhah2rcd13ifvqej0","pricing_plan_id":"cebpf4jnsgd1na2vs0mg"},{"bike_id":"3fecc821-51d5-4af9-a878-ef82294a97c4","system_id":"levelo_inurba_marseille","lat":43.28414,"lon":5.3751,"is_reserved":false,"is_disabled":false,"rental_uris":{"android":"levelo://app?vid=3fecc821-51d5-4af9-a878-ef82294a97c4","ios":"levelo://app?vid=3fecc821-51d5-4af9-a878-ef82294a97c4"},"vehicle_type_id":"4","last_reported":1781328428,"current_range_meters":6400,"station_id":"ce4bh412rcd13ifvqds0","pricing_plan_id":"cebpf4jnsgd1na2vs0mg"},{"bike_id":"1f4cf7cf-98e2-40ce-8e0b-c74ae682295d","system_id":"levelo_inurba_marseille","lat":43.26232,"lon":5.3877,"is_reserved":false,"is_disabled":false,"rental_uris":{"android":"levelo://app?vid=1f4cf7cf-98e2-40ce-8e0b-c74ae682295d","ios":"levelo://app?vid=1f4cf7cf-98e2-40ce-8e0b-c74ae682295d"},"vehicle_type_id":"4","last_reported":1781328428,"current_range_meters":6400,"station_id":"st_d8gjfg747rts73coq3b0","pricing_plan_id":"cebpf4jnsgd1na2vs0mg"},{"bike_id":"47f90529-8e86-4623-88b6-0cb2333be03f","system_id":"levelo_inurba_marseille","lat":43.28226,"lon":5.39065,"is_reserved":false,"is_disabled":false,"rental_uris":{"android":"levelo://app?vid=47f90529-8e86-4623-88b6-0cb2333be03f","ios":"levelo://app?vid=47f90529-8e86-4623-88b6-0cb2333be03f"},"vehicle_type_id":"4","last_reported":1781328428,"current_range_meters":6400,"station_id":"ce4bhn92rcd13ifvqgsg","pricing_plan_id":"cebpf4jnsgd1na2vs0mg"},{"bike_id":"01974ce9-2ce7-4184-9698-03768bec9bb4","system_id":"levelo_inurba_marseille","lat":43.28674,"lon":5.46648,"is_reserved":false,"is_disabled":false,"rental_uris":{"android":"levelo://app?vid=01974ce9-2ce7-4184-9698-03768bec9bb4","ios":"levelo://app?vid=01974ce9-2ce7-4184-9698-03768bec9bb4"},"vehicle_type_id":"4","last_reported":1781328428,"current_range_meters":6400,"station_id":"st_d6tc3vkotcvc738tfjhg","pricing_plan_id":"cebpf4jnsgd1na2vs0mg"},{"bike_id":"aa5e46d9-0b78-4d46-8ce3-bb217dce7736","system_id":"levelo_inurba_marseille","lat":43.28607,"lon":5.39895,"is_reserved":false,"is_disabled":false,"rental_uris":{"android":"levelo://app?vid=aa5e46d9-0b78-4d46-8ce3-bb217dce7736","ios":"levelo://app?vid=aa5e46d9-0b78-4d46-8ce3-bb217dce7736"},"vehicle_type_id":"4","last_reported":1781328428,"current_range_meters":6400,"station_id":"ce4bho92rcd13ifvqh3g","pricing_plan_id":"cebpf4jnsgd1na2vs0mg"},{"bike_id":"1fdd923e-e961-41f9-8f3c-11f5303c0850","system_id":"levelo_inurba_marseille","lat":43.28702,"lon":5.37398,"is_reserved":false,"is_disabled":false,"rental_uris":{"android":"levelo://app?vid=1fdd923e-e961-41f9-8f3c-11f5303c0850","ios":"levelo://app?vid=1fdd923e-e961-41f9-8f3c-11f5303c0850"},"vehicle_type_id":"4","last_reported":1781328428,"current_range_meters":6400,"station_id":"ce4bh3p2rcd13ifvqdq0","pricing_plan_id":"cebpf4jnsgd1na2vs0mg"},{"bike_id":"4d3fc5dd-ef0f-4934-b6cd-6639634cfe5e","system_id":"levelo_inurba_marseille","lat":43.29709,"lon":5.37699,"is_reserved":false,"is_disabled":false,"rental_uris":{"android":"levelo://app?vid=4d3fc5dd-ef0f-4934-b6cd-6639634cfe5e","ios":"levelo://app?vid=4d3fc5dd-ef0f-4934-b6cd-6639634cfe5e"},"vehicle_type_id":"4","last_reported":1781328428,"current_range_meters":6400,"station_id":"ce4bgkh2rcd13ifvqbl0","pricing_plan_id":"cebpf4jnsgd1na2vs0mg"},{"bike_id":"6b490843-2e6e-4646-bb7b-a022db1f5bd7","system_id":"levelo_inurba_marseille","lat":43.3046,"lon":5.37908,"is_reserved":false,"is_disabled":false,"rental_uris":{"android":"levelo://app?vid=6b490843-2e6e-4646-bb7b-a022db1f5bd7","ios":"levelo://app?vid=6b490843-2e6e-4646-bb7b-a022db1f5bd7"},"vehicle_type_id":"4","last_reported":1781328428,"current_range_meters":6400,"station_id":"ce4bgup2rcd13ifvqcn0","pricing_plan_id":"cebpf4jnsgd1na2vs0mg"},{"bike_id":"5b721959-b843-4261-959d-635897c03c13","system_id":"levelo_inurba_marseille","lat":43.24625,"lon":5.43145,"is_reserved":false,"is_disabled":false,"rental_uris":{"android":"levelo://app?vid=5b721959-b843-4261-959d-635897c03c13","ios":"levelo://app?vid=5b721959-b843-4261-959d-635897c03c13"},"vehicle_type_id":"4","last_reported":1781328428,"current_range_meters":6400,"station_id":"st_d2m6c4gdas8pm72e190g","pricing_plan_id":"cebpf4jnsgd1na2vs0mg"},{"bike_id":"db8c5b68-a2ae-4ccd-8b82-df47b61ade41","system_id":"levelo_inurba_marseille","lat":43.24635,"lon":5.37975,"is_reserved":false,"is_disabled":false,"rental_uris":{"android":"levelo://app?vid=db8c5b68-a2ae-4ccd-8b82-df47b61ade41","ios":"levelo://app?vid=db8c5b68-a2ae-4ccd-8b82-df47b61ade41"},"vehicle_type_id":"4","last_reported":1781328428,"current_range_meters":6400,"station_id":"","pricing_plan_id":"cebpf4jnsgd1na2vs0mg"},{"bike_id":"3999f077-e2f1-4df0-b37c-2be9b2484926","system_id":"levelo_inurba_marseille","lat":43.28463,"lon":5.35867,"is_reserved":false,"is_disabled":false,"rental_uris":{"android":"levelo://app?vid=3999f077-e2f1-4df0-b37c-2be9b2484926","ios":"levelo://app?vid=3999f077-e2f1-4df0-b37c-2be9b2484926"},"vehicle_type_id":"4","last_reported":1781328428,"current_range_meters":6400,"station_id":"ce4bhah2rcd13ifvqei0","pricing_plan_id":"cebpf4jnsgd1na2vs0mg"},{"bike_id":"6063d252-323b-431a-9439-3c3a4c45c525","system_id":"levelo_inurba_marseille","lat":43.29855,"lon":5.36297,"is_reserved":false,"is_disabled":true,"rental_uris":{"android":"levelo://app?vid=6063d252-323b-431a-9439-3c3a4c45c525","ios":"levelo://app?vid=6063d252-323b-431a-9439-3c3a4c45c525"},"vehicle_type_id":"4","last_reported":1781328428,"current_range_meters":6400,"station_id":"ce4bgpp2rcd13ifvqc3g","pricing_plan_id":"cebpf4jnsgd1na2vs0mg"},{"bike_id":"ed1b8ea2-ecf3-46da-8352-26963074c835","system_id":"levelo_inurba_marseille","lat":43.24463,"lon":5.4254,"is_reserved":false,"is_disabled":false,"rental_uris":{"android":"levelo://app?vid=ed1b8ea2-ecf3-46da-8352-26963074c835","ios":"levelo://app?vid=ed1b8ea2-ecf3-46da-8352-26963074c835"},"vehicle_type_id":"4","last_reported":1781328428,"current_range_meters":6400,"station_id":"st_d4a3vfp97mjs738cd8kg","pricing_plan_id":"cebpf4jnsgd1na2vs0mg"},{"bike_id":"2f5a2eb1-a60a-4fe8-a5aa-002259731410","system_id":"levelo_inurba_marseille","lat":43.31043,"lon":5.3719,"is_reserved":false,"is_disabled":true,"rental_uris":{"android":"levelo://app?vid=2f5a2eb1-a60a-4fe8-a5aa-002259731410","ios":"levelo://app?vid=2f5a2eb1-a60a-4fe8-a5aa-002259731410"},"vehicle_type_id":"4","last_reported":1781328428,"current_range_meters":6400,"station_id":"st_d4kl2rp97mjs73e7tdfg","pricing_plan_id":"cebpf4jnsgd1na2vs0mg"},{"bike_id":"78f96ec0-3651-40e0-9064-540398d155f5","system_id":"levelo_inurba_marseille","lat":43.24453,"lon":5.4255,"is_reserved":false,"is_disabled":false,"rental_uris":{"android":"levelo://app?vid=78f96ec0-3651-40e0-9064-540398d155f5","ios":"levelo://app?vid=78f96ec0-3651-40e0-9064-540398d155f5"},"vehicle_type_id":"4","last_reported":1781328428,"current_range_meters":6400,"station_id":"st_d4a3vfp97mjs738cd8kg","pricing_plan_id":"cebpf4jnsgd1na2vs0mg"},{"bike_id":"9f069751-295a-496b-b19c-281f4491a5fd","system_id":"levelo_inurba_marseille","lat":43.35084,"lon":5.35045,"is_reserved":false,"is_disabled":false,"rental_uris":{"android":"levelo://app?vid=9f069751-295a-496b-b19c-281f4491a5fd","ios":"levelo://app?vid=9f069751-295a-496b-b19c-281f4491a5fd"},"vehicle_type_id":"4","last_reported":1781328428,"current_range_meters":6800,"station_id":"","pricing_plan_id":"cebpf4jnsgd1na2vs0mg"},{"bike_id":"b250cbdb-4d15-48f1-8d3b-9f0804befd16","system_id":"levelo_inurba_marseille","lat":43.2534,"lon":5.42176,"is_reserved":false,"is_disabled":false,"rental_uris":{"android":"levelo://app?vid=b250cbdb-4d15-48f1-8d3b-9f0804befd16","ios":"levelo://app?vid=b250cbdb-4d15-48f1-8d3b-9f0804befd16"},"vehicle_type_id":"4","last_reported":1781328428,"current_range_meters":6800,"station_id":"st_d2m65c5bi1j21697t3ng","pricing_plan_id":"cebpf4jnsgd1na2vs0mg"},{"bike_id":"2f86dca4-711f-4105-8f52-e190a5543aaf","system_id":"levelo_inurba_marseille","lat":43.22568,"lon":5.34798,"is_reserved":false,"is_disabled":false,"rental_uris":{"android":"levelo://app?vid=2f86dca4-711f-4105-8f52-e190a5543aaf","ios":"levelo://app?vid=2f86dca4-711f-4105-8f52-e190a5543aaf"},"vehicle_type_id":"4","last_reported":1781328428,"current_range_meters":6800,"station_id":"st_cvj5dfep6f1abm77gieg","pricing_plan_id":"cebpf4jnsgd1na2vs0mg"},{"bike_id":"d43d82bc-dd66-4ccb-ba98-7fe9c5e7c015","system_id":"levelo_inurba_marseille","lat":43.27207,"lon":5.39181,"is_reserved":false,"is_disabled":true,"rental_uris":{"android":"levelo://app?vid=d43d82bc-dd66-4ccb-ba98-7fe9c5e7c015","ios":"levelo://app?vid=d43d82bc-dd66-4ccb-ba98-7fe9c5e7c015"},"vehicle_type_id":"4","last_reported":1781328428,"current_range_meters":6800,"station_id":"ce4bhhp2rcd13ifvqfm0","pricing_plan_id":"cebpf4jnsgd1na2vs0mg"},{"bike_id":"abe6cceb-7fd9-4b65-a9cf-5abedce13f87","system_id":"levelo_inurba_marseille","lat":43.30411,"lon":5.39729,"is_reserved":false,"is_disabled":false,"rental_uris":{"android":"levelo://app?vid=abe6cceb-7fd9-4b65-a9cf-5abedce13f87","ios":"levelo://app?vid=abe6cceb-7fd9-4b65-a9cf-5abedce13f87"},"vehicle_type_id":"4","last_reported":1781328428,"current_range_meters":6800,"station_id":"ce4bh092rcd13ifvqd20","pricing_plan_id":"cebpf4jnsgd1na2vs0mg"},{"bike_id":"dba0d601-4dc4-41a6-9af3-76d1cd9f4077","system_id":"levelo_inurba_marseille","lat":43.24813,"lon":5.3744,"is_reserved":false,"is_disabled":false,"rental_uris":{"android":"levelo://app?vid=dba0d601-4dc4-41a6-9af3-76d1cd9f4077","ios":"levelo://app?vid=dba0d601-4dc4-41a6-9af3-76d1cd9f4077"},"vehicle_type_id":"4","last_reported":1781328428,"current_range_meters":6800,"station_id":"ce4bhgh2rcd13ifvqfb0","pricing_plan_id":"cebpf4jnsgd1na2vs0mg"},{"bike_id":"98c0a183-7ee6-4b0b-b809-46c8824508e7","system_id":"levelo_inurba_marseille","lat":43.29605,"lon":5.41933,"is_reserved":false,"is_disabled":false,"rental_uris":{"android":"levelo://app?vid=98c0a183-7ee6-4b0b-b809-46c8824508e7","ios":"levelo://app?vid=98c0a183-7ee6-4b0b-b809-46c8824508e7"},"vehicle_type_id":"4","last_reported":1781328428,"current_range_meters":6800,"station_id":"","pricing_plan_id":"cebpf4jnsgd1na2vs0mg"},{"bike_id":"b94500b0-c8e7-4697-a363-e6426899264d","system_id":"levelo_inurba_marseille","lat":43.26373,"lon":5.4108,"is_reserved":false,"is_disabled":false,"rental_uris":{"android":"levelo://app?vid=b94500b0-c8e7-4697-a363-e6426899264d","ios":"levelo://app?vid=b94500b0-c8e7-4697-a363-e6426899264d"},"vehicle_type_id":"4","last_reported":1781328428,"current_range_meters":6800,"station_id":"st_d4e5ca6na9uc73bfl5fg","pricing_plan_id":"cebpf4jnsgd1na2vs0mg"},{"bike_id":"a303e4db-b9ba-4d63-9eff-f7e5a8e536c2","system_id":"levelo_inurba_marseille","lat":43.28017,"lon":5.40895,"is_reserved":false,"is_disabled":false,"rental_uris":{"android":"levelo://app?vid=a303e4db-b9ba-4d63-9eff-f7e5a8e536c2","ios":"levelo://app?vid=a303e4db-b9ba-4d63-9eff-f7e5a8e536c2"},"vehicle_type_id":"4","last_reported":1781328428,"current_range_meters":6800,"station_id":"","pricing_plan_id":"cebpf4jnsgd1na2vs0mg"},{"bike_id":"8a9787a5-9a28-427a-a205-4aa9d9212c91","system_id":"levelo_inurba_marseille","lat":43.2882,"lon":5.3554,"is_reserved":false,"is_disabled":false,"rental_uris":{"android":"levelo://app?vid=8a9787a5-9a28-427a-a205-4aa9d9212c91","ios":"levelo://app?vid=8a9787a5-9a28-427a-a205-4aa9d9212c91"},"vehicle_type_id":"4","last_reported":1781328428,"current_range_meters":6800,"station_id":"","pricing_plan_id":"cebpf4jnsgd1na2vs0mg"},{"bike_id":"3e0e61b2-028e-48c8-a21d-fe5880a99474","system_id":"levelo_inurba_marseille","lat":43.23966,"lon":5.36636,"is_reserved":false,"is_disabled":false,"rental_uris":{"android":"levelo://app?vid=3e0e61b2-028e-48c8-a21d-fe5880a99474","ios":"levelo://app?vid=3e0e61b2-028e-48c8-a21d-fe5880a99474"},"vehicle_type_id":"4","last_reported":1781328428,"current_range_meters":6800,"station_id":"ce4bhi12rcd13ifvqfp0","pricing_plan_id":"cebpf4jnsgd1na2vs0mg"},{"bike_id":"5fa0803f-a07a-4a76-ad02-b61eab93f34b","system_id":"levelo_inurba_marseille","lat":43.30389,"lon":5.42462,"is_reserved":false,"is_disabled":false,"rental_uris":{"android":"levelo://app?vid=5fa0803f-a07a-4a76-ad02-b61eab93f34b","ios":"levelo://app?vid=5fa0803f-a07a-4a76-ad02-b61eab93f34b"},"vehicle_type_id":"4","last_reported":1781328428,"current_range_meters":6800,"station_id":"ce4bhoh2rcd13ifvqh6g","pricing_plan_id":"cebpf4jnsgd1na2vs0mg"},{"bike_id":"66267d4d-bc82-4d4a-87c4-85620c8e7130","system_id":"levelo_inurba_marseille","lat":43.27911,"lon":5.39594,"is_reserved":false,"is_disabled":false,"rental_uris":{"android":"levelo://app?vid=66267d4d-bc82-4d4a-87c4-85620c8e7130","ios":"levelo://app?vid=66267d4d-bc82-4d4a-87c4-85620c8e7130"},"vehicle_type_id":"4","last_reported":1781328428,"current_range_meters":6800,"station_id":"ce4bhf92rcd13ifvqf40","pricing_plan_id":"cebpf4jnsgd1na2vs0mg"},{"bike_id":"e756caa5-ad44-425c-bc88-baef1adf01b9","system_id":"levelo_inurba_marseille","lat":43.21765,"lon":5.34584,"is_reserved":false,"is_disabled":false,"rental_uris":{"android":"levelo://app?vid=e756caa5-ad44-425c-bc88-baef1adf01b9","ios":"levelo://app?vid=e756caa5-ad44-425c-bc88-baef1adf01b9"},"vehicle_type_id":"4","last_reported":1781328428,"current_range_meters":6800,"station_id":"st_cvj6r9ubvosntc0bgbag","pricing_plan_id":"cebpf4jnsgd1na2vs0mg"},{"bike_id":"cf2ecc12-f863-46e8-a4d9-61a8831aafb1","system_id":"levelo_inurba_marseille","lat":43.28694,"lon":5.39988,"is_reserved":false,"is_disabled":false,"rental_uris":{"android":"levelo://app?vid=cf2ecc12-f863-46e8-a4d9-61a8831aafb1","ios":"levelo://app?vid=cf2ecc12-f863-46e8-a4d9-61a8831aafb1"},"vehicle_type_id":"4","last_reported":1781328428,"current_range_meters":6800,"station_id":"ce4bho92rcd13ifvqh3g","pricing_plan_id":"cebpf4jnsgd1na2vs0mg"},{"bike_id":"f389c322-123d-4144-915a-383855424cea","system_id":"levelo_inurba_marseille","lat":43.24392,"lon":5.37026,"is_reserved":false,"is_disabled":false,"rental_uris":{"android":"levelo://app?vid=f389c322-123d-4144-915a-383855424cea","ios":"levelo://app?vid=f389c322-123d-4144-915a-383855424cea"},"vehicle_type_id":"4","last_reported":1781328428,"current_range_meters":6800,"station_id":"ce4bhhh2rcd13ifvqfk0","pricing_plan_id":"cebpf4jnsgd1na2vs0mg"},{"bike_id":"0c3e00b0-1145-4a94-9a9d-eabaea8f21a5","system_id":"levelo_inurba_marseille","lat":43.2903,"lon":5.3996,"is_reserved":false,"is_disabled":false,"rental_uris":{"android":"levelo://app?vid=0c3e00b0-1145-4a94-9a9d-eabaea8f21a5","ios":"levelo://app?vid=0c3e00b0-1145-4a94-9a9d-eabaea8f21a5"},"vehicle_type_id":"4","last_reported":1781328428,"current_range_meters":6800,"station_id":"ce4bh392rcd13ifvqdm0","pricing_plan_id":"cebpf4jnsgd1na2vs0mg"},{"bike_id":"e37613eb-2b80-45f6-8be7-6bbc2d17cf64","system_id":"levelo_inurba_marseille","lat":43.24801,"lon":5.37453,"is_reserved":false,"is_disabled":true,"rental_uris":{"android":"levelo://app?vid=e37613eb-2b80-45f6-8be7-6bbc2d17cf64","ios":"levelo://app?vid=e37613eb-2b80-45f6-8be7-6bbc2d17cf64"},"vehicle_type_id":"4","last_reported":1781328428,"current_range_meters":6800,"station_id":"ce4bhgh2rcd13ifvqfb0","pricing_plan_id":"cebpf4jnsgd1na2vs0mg"},{"bike_id":"f85f6381-61f9-49f1-b5d1-4e80c0b6acbd","system_id":"levelo_inurba_marseille","lat":43.3047,"lon":5.37907,"is_reserved":false,"is_disabled":false,"rental_uris":{"android":"levelo://app?vid=f85f6381-61f9-49f1-b5d1-4e80c0b6acbd","ios":"levelo://app?vid=f85f6381-61f9-49f1-b5d1-4e80c0b6acbd"},"vehicle_type_id":"4","last_reported":1781328428,"current_range_meters":6800,"station_id":"ce4bgup2rcd13ifvqcn0","pricing_plan_id":"cebpf4jnsgd1na2vs0mg"},{"bike_id":"292ba82b-0dab-46c1-b4a2-48a52268ff1c","system_id":"levelo_inurba_marseille","lat":43.26534,"lon":5.39005,"is_reserved":false,"is_disabled":true,"rental_uris":{"android":"levelo://app?vid=292ba82b-0dab-46c1-b4a2-48a52268ff1c","ios":"levelo://app?vid=292ba82b-0dab-46c1-b4a2-48a52268ff1c"},"vehicle_type_id":"4","last_reported":1781328428,"current_range_meters":6800,"station_id":"ce4bhe12rcd13ifvqf30","pricing_plan_id":"cebpf4jnsgd1na2vs0mg"},{"bike_id":"6238fcf5-9640-4daf-a7e9-dad5928f2be9","system_id":"levelo_inurba_marseille","lat":43.24808,"lon":5.37454,"is_reserved":false,"is_disabled":false,"rental_uris":{"android":"levelo://app?vid=6238fcf5-9640-4daf-a7e9-dad5928f2be9","ios":"levelo://app?vid=6238fcf5-9640-4daf-a7e9-dad5928f2be9"},"vehicle_type_id":"4","last_reported":1781328428,"current_range_meters":6800,"station_id":"ce4bhgh2rcd13ifvqfb0","pricing_plan_id":"cebpf4jnsgd1na2vs0mg"},{"bike_id":"b0e1c627-e366-414e-b921-4572a58307db","system_id":"levelo_inurba_marseille","lat":43.28615,"lon":5.35101,"is_reserved":false,"is_disabled":true,"rental_uris":{"android":"levelo://app?vid=b0e1c627-e366-414e-b921-4572a58307db","ios":"levelo://app?vid=b0e1c627-e366-414e-b921-4572a58307db"},"vehicle_type_id":"4","last_reported":1781328428,"current_range_meters":6800,"station_id":"ce4bhch2rcd13ifvqeug","pricing_plan_id":"cebpf4jnsgd1na2vs0mg"},{"bike_id":"df5185ed-0571-4697-8832-191dfb22349a","system_id":"levelo_inurba_marseille","lat":43.28079,"lon":5.37519,"is_reserved":false,"is_disabled":false,"rental_uris":{"android":"levelo://app?vid=df5185ed-0571-4697-8832-191dfb22349a","ios":"levelo://app?vid=df5185ed-0571-4697-8832-191dfb22349a"},"vehicle_type_id":"4","last_reported":1781328428,"current_range_meters":6800,"station_id":"","pricing_plan_id":"cebpf4jnsgd1na2vs0mg"},{"bike_id":"57bfd0f8-0112-425c-9ca9-e1cb3d003bc6","system_id":"levelo_inurba_marseille","lat":43.32112,"lon":5.36762,"is_reserved":false,"is_disabled":false,"rental_uris":{"android":"levelo://app?vid=57bfd0f8-0112-425c-9ca9-e1cb3d003bc6","ios":"levelo://app?vid=57bfd0f8-0112-425c-9ca9-e1cb3d003bc6"},"vehicle_type_id":"4","last_reported":1781328428,"current_range_meters":6800,"station_id":"ce4bhrh2rcd13ifvqhug","pricing_plan_id":"cebpf4jnsgd1na2vs0mg"},{"bike_id":"eda98293-5c91-4dae-89c6-486a45b00f60","system_id":"levelo_inurba_marseille","lat":43.2327,"lon":5.40093,"is_reserved":false,"is_disabled":false,"rental_uris":{"android":"levelo://app?vid=eda98293-5c91-4dae-89c6-486a45b00f60","ios":"levelo://app?vid=eda98293-5c91-4dae-89c6-486a45b00f60"},"vehicle_type_id":"4","last_reported":1781328428,"current_range_meters":6800,"station_id":"","pricing_plan_id":"cebpf4jnsgd1na2vs0mg"},{"bike_id":"48fd9ee8-948c-4d5d-810d-9c3f0de5ec33","system_id":"levelo_inurba_marseille","lat":43.24392,"lon":5.37069,"is_reserved":false,"is_disabled":false,"rental_uris":{"android":"levelo://app?vid=48fd9ee8-948c-4d5d-810d-9c3f0de5ec33","ios":"levelo://app?vid=48fd9ee8-948c-4d5d-810d-9c3f0de5ec33"},"vehicle_type_id":"4","last_reported":1781328428,"current_range_meters":6800,"station_id":"ce4bhhh2rcd13ifvqfk0","pricing_plan_id":"cebpf4jnsgd1na2vs0mg"},{"bike_id":"2966e569-5f6f-488b-810b-7eb0b0a695b7","system_id":"levelo_inurba_marseille","lat":43.24179,"lon":5.39722,"is_reserved":false,"is_disabled":false,"rental_uris":{"android":"levelo://app?vid=2966e569-5f6f-488b-810b-7eb0b0a695b7","ios":"levelo://app?vid=2966e569-5f6f-488b-810b-7eb0b0a695b7"},"vehicle_type_id":"4","last_reported":1781328428,"current_range_meters":6800,"station_id":"ce4bhn12rcd13ifvqgpg","pricing_plan_id":"cebpf4jnsgd1na2vs0mg"},{"bike_id":"95f0f449-8ea3-4eec-8262-c51efcb874f4","system_id":"levelo_inurba_marseille","lat":43.33166,"lon":5.37677,"is_reserved":false,"is_disabled":false,"rental_uris":{"android":"levelo://app?vid=95f0f449-8ea3-4eec-8262-c51efcb874f4","ios":"levelo://app?vid=95f0f449-8ea3-4eec-8262-c51efcb874f4"},"vehicle_type_id":"4","last_reported":1781328428,"current_range_meters":6800,"station_id":"st_d46cu089ee8s73dldbu0","pricing_plan_id":"cebpf4jnsgd1na2vs0mg"},{"bike_id":"aec8333f-a9c6-4953-b628-b84715e28c57","system_id":"levelo_inurba_marseille","lat":43.27821,"lon":5.40651,"is_reserved":false,"is_disabled":false,"rental_uris":{"android":"levelo://app?vid=aec8333f-a9c6-4953-b628-b84715e28c57","ios":"levelo://app?vid=aec8333f-a9c6-4953-b628-b84715e28c57"},"vehicle_type_id":"4","last_reported":1781328428,"current_range_meters":6800,"station_id":"","pricing_plan_id":"cebpf4jnsgd1na2vs0mg"},{"bike_id":"82cdc0d4-ef96-4485-9864-910a3ebf6cc6","system_id":"levelo_inurba_marseille","lat":43.27619,"lon":5.36109,"is_reserved":false,"is_disabled":false,"rental_uris":{"android":"levelo://app?vid=82cdc0d4-ef96-4485-9864-910a3ebf6cc6","ios":"levelo://app?vid=82cdc0d4-ef96-4485-9864-910a3ebf6cc6"},"vehicle_type_id":"4","last_reported":1781328428,"current_range_meters":6800,"station_id":"ce4bgj92rcd13ifvqbe0","pricing_plan_id":"cebpf4jnsgd1na2vs0mg"},{"bike_id":"6e4387d7-bd16-4a30-af78-71416e460c6d","system_id":"levelo_inurba_marseille","lat":43.30834,"lon":5.38383,"is_reserved":false,"is_disabled":false,"rental_uris":{"android":"levelo://app?vid=6e4387d7-bd16-4a30-af78-71416e460c6d","ios":"levelo://app?vid=6e4387d7-bd16-4a30-af78-71416e460c6d"},"vehicle_type_id":"4","last_reported":1781328428,"current_range_meters":6800,"station_id":"","pricing_plan_id":"cebpf4jnsgd1na2vs0mg"},{"bike_id":"f2f41311-bb5c-4ea3-b093-81b210f508fb","system_id":"levelo_inurba_marseille","lat":43.32429,"lon":5.36557,"is_reserved":false,"is_disabled":false,"rental_uris":{"android":"levelo://app?vid=f2f41311-bb5c-4ea3-b093-81b210f508fb","ios":"levelo://app?vid=f2f41311-bb5c-4ea3-b093-81b210f508fb"},"vehicle_type_id":"4","last_reported":1781328428,"current_range_meters":6800,"station_id":"","pricing_plan_id":"cebpf4jnsgd1na2vs0mg"},{"bike_id":"b91d9fa1-4fec-403b-8038-57eb8aa275ac","system_id":"levelo_inurba_marseille","lat":43.24369,"lon":5.37063,"is_reserved":false,"is_disabled":false,"rental_uris":{"android":"levelo://app?vid=b91d9fa1-4fec-403b-8038-57eb8aa275ac","ios":"levelo://app?vid=b91d9fa1-4fec-403b-8038-57eb8aa275ac"},"vehicle_type_id":"4","last_reported":1781328428,"current_range_meters":6800,"station_id":"ce4bhhh2rcd13ifvqfk0","pricing_plan_id":"cebpf4jnsgd1na2vs0mg"},{"bike_id":"0a91b7e5-aad5-456e-b905-400413669c01","system_id":"levelo_inurba_marseille","lat":43.2777,"lon":5.37587,"is_reserved":false,"is_disabled":false,"rental_uris":{"android":"levelo://app?vid=0a91b7e5-aad5-456e-b905-400413669c01","ios":"levelo://app?vid=0a91b7e5-aad5-456e-b905-400413669c01"},"vehicle_type_id":"4","last_reported":1781328428,"current_range_meters":6800,"station_id":"","pricing_plan_id":"cebpf4jnsgd1na2vs0mg"},{"bike_id":"62c3f239-efce-4093-b9be-af970fbf7e8f","system_id":"levelo_inurba_marseille","lat":43.24065,"lon":5.3776,"is_reserved":false,"is_disabled":false,"rental_uris":{"android":"levelo://app?vid=62c3f239-efce-4093-b9be-af970fbf7e8f","ios":"levelo://app?vid=62c3f239-efce-4093-b9be-af970fbf7e8f"},"vehicle_type_id":"4","last_reported":1781328428,"current_range_meters":6800,"station_id":"ce4bhnp2rcd13ifvqgvg","pricing_plan_id":"cebpf4jnsgd1na2vs0mg"},{"bike_id":"eda0da1b-1e21-4711-8a0b-2f4b083c116d","system_id":"levelo_inurba_marseille","lat":43.2856,"lon":5.39496,"is_reserved":false,"is_disabled":false,"rental_uris":{"android":"levelo://app?vid=eda0da1b-1e21-4711-8a0b-2f4b083c116d","ios":"levelo://app?vid=eda0da1b-1e21-4711-8a0b-2f4b083c116d"},"vehicle_type_id":"4","last_reported":1781328428,"current_range_meters":7200,"station_id":"ce4bh292rcd13ifvqdg0","pricing_plan_id":"cebpf4jnsgd1na2vs0mg"},{"bike_id":"2f70ef4e-6af0-41d0-bdb7-405718b4158d","system_id":"levelo_inurba_marseille","lat":43.24515,"lon":5.372983,"is_reserved":false,"is_disabled":false,"rental_uris":{"android":"levelo://app?vid=2f70ef4e-6af0-41d0-bdb7-405718b4158d","ios":"levelo://app?vid=2f70ef4e-6af0-41d0-bdb7-405718b4158d"},"vehicle_type_id":"4","last_reported":1781328428,"current_range_meters":7200,"station_id":"st_cvj6r9ubvosntc0bgbag","pricing_plan_id":"cebpf4jnsgd1na2vs0mg"},{"bike_id":"6edf579f-78f6-4a80-8faa-35bdd39ec8f9","system_id":"levelo_inurba_marseille","lat":43.30533,"lon":5.36545,"is_reserved":false,"is_disabled":false,"rental_uris":{"android":"levelo://app?vid=6edf579f-78f6-4a80-8faa-35bdd39ec8f9","ios":"levelo://app?vid=6edf579f-78f6-4a80-8faa-35bdd39ec8f9"},"vehicle_type_id":"4","last_reported":1781328428,"current_range_meters":7200,"station_id":"ce4bgs12rcd13ifvqcag","pricing_plan_id":"cebpf4jnsgd1na2vs0mg"},{"bike_id":"88c1a49e-f020-4b87-a69c-bd9595615f2d","system_id":"levelo_inurba_marseille","lat":43.25116,"lon":5.40324,"is_reserved":false,"is_disabled":false,"rental_uris":{"android":"levelo://app?vid=88c1a49e-f020-4b87-a69c-bd9595615f2d","ios":"levelo://app?vid=88c1a49e-f020-4b87-a69c-bd9595615f2d"},"vehicle_type_id":"4","last_reported":1781328428,"current_range_meters":7200,"station_id":"ce4bhlh2rcd13ifvqgig","pricing_plan_id":"cebpf4jnsgd1na2vs0mg"},{"bike_id":"b9d1843a-d85f-480b-9e0d-ac8e9afe5d9f","system_id":"levelo_inurba_marseille","lat":43.337444,"lon":5.374475,"is_reserved":false,"is_disabled":false,"rental_uris":{"android":"levelo://app?vid=b9d1843a-d85f-480b-9e0d-ac8e9afe5d9f","ios":"levelo://app?vid=b9d1843a-d85f-480b-9e0d-ac8e9afe5d9f"},"vehicle_type_id":"4","last_reported":1781328428,"current_range_meters":7200,"station_id":"","pricing_plan_id":"cebpf4jnsgd1na2vs0mg"},{"bike_id":"2d8a047b-0411-40fc-a69f-3169f78c4ee9","system_id":"levelo_inurba_marseille","lat":43.32355,"lon":5.36754,"is_reserved":false,"is_disabled":false,"rental_uris":{"android":"levelo://app?vid=2d8a047b-0411-40fc-a69f-3169f78c4ee9","ios":"levelo://app?vid=2d8a047b-0411-40fc-a69f-3169f78c4ee9"},"vehicle_type_id":"4","last_reported":1781328428,"current_range_meters":7200,"station_id":"ce4bhsh2rcd13ifvqi2g","pricing_plan_id":"cebpf4jnsgd1na2vs0mg"},{"bike_id":"35565049-90de-4fb4-b35d-e9c548924e41","system_id":"levelo_inurba_marseille","lat":43.26775,"lon":5.39441,"is_reserved":false,"is_disabled":true,"rental_uris":{"android":"levelo://app?vid=35565049-90de-4fb4-b35d-e9c548924e41","ios":"levelo://app?vid=35565049-90de-4fb4-b35d-e9c548924e41"},"vehicle_type_id":"4","last_reported":1781328428,"current_range_meters":7200,"station_id":"ce4bhh12rcd13ifvqfg0","pricing_plan_id":"cebpf4jnsgd1na2vs0mg"},{"bike_id":"ac3358ce-481e-4fda-9f9b-670be68b265e","system_id":"levelo_inurba_marseille","lat":43.31477,"lon":5.40177,"is_reserved":false,"is_disabled":false,"rental_uris":{"android":"levelo://app?vid=ac3358ce-481e-4fda-9f9b-670be68b265e","ios":"levelo://app?vid=ac3358ce-481e-4fda-9f9b-670be68b265e"},"vehicle_type_id":"4","last_reported":1781328428,"current_range_meters":7200,"station_id":"","pricing_plan_id":"cebpf4jnsgd1na2vs0mg"},{"bike_id":"5b5ea2fb-3ba8-4c10-841c-ca34891a615c","system_id":"levelo_inurba_marseille","lat":43.29335,"lon":5.36383,"is_reserved":false,"is_disabled":false,"rental_uris":{"android":"levelo://app?vid=5b5ea2fb-3ba8-4c10-841c-ca34891a615c","ios":"levelo://app?vid=5b5ea2fb-3ba8-4c10-841c-ca34891a615c"},"vehicle_type_id":"4","last_reported":1781328428,"current_range_meters":7200,"station_id":"","pricing_plan_id":"cebpf4jnsgd1na2vs0mg"},{"bike_id":"b75b860e-f642-4d57-ae10-a57f8b9673f2","system_id":"levelo_inurba_marseille","lat":43.26244,"lon":5.38774,"is_reserved":false,"is_disabled":false,"rental_uris":{"android":"levelo://app?vid=b75b860e-f642-4d57-ae10-a57f8b9673f2","ios":"levelo://app?vid=b75b860e-f642-4d57-ae10-a57f8b9673f2"},"vehicle_type_id":"4","last_reported":1781328428,"current_range_meters":7200,"station_id":"st_d8gjfg747rts73coq3b0","pricing_plan_id":"cebpf4jnsgd1na2vs0mg"},{"bike_id":"8fba8053-d383-46c1-9ff7-a6acbb1e81ed","system_id":"levelo_inurba_marseille","lat":43.30637,"lon":5.40081,"is_reserved":false,"is_disabled":false,"rental_uris":{"android":"levelo://app?vid=8fba8053-d383-46c1-9ff7-a6acbb1e81ed","ios":"levelo://app?vid=8fba8053-d383-46c1-9ff7-a6acbb1e81ed"},"vehicle_type_id":"4","last_reported":1781328428,"current_range_meters":7200,"station_id":"ce4bh112rcd13ifvqda0","pricing_plan_id":"cebpf4jnsgd1na2vs0mg"},{"bike_id":"d476aca5-3b70-40b3-8b78-89f47aa194b2","system_id":"levelo_inurba_marseille","lat":43.24068,"lon":5.37749,"is_reserved":false,"is_disabled":false,"rental_uris":{"android":"levelo://app?vid=d476aca5-3b70-40b3-8b78-89f47aa194b2","ios":"levelo://app?vid=d476aca5-3b70-40b3-8b78-89f47aa194b2"},"vehicle_type_id":"4","last_reported":1781328428,"current_range_meters":7200,"station_id":"ce4bhnp2rcd13ifvqgvg","pricing_plan_id":"cebpf4jnsgd1na2vs0mg"},{"bike_id":"09d9c6f1-ccd6-4075-9a03-4634c196f8cd","system_id":"levelo_inurba_marseille","lat":43.2417,"lon":5.36397,"is_reserved":false,"is_disabled":true,"rental_uris":{"android":"levelo://app?vid=09d9c6f1-ccd6-4075-9a03-4634c196f8cd","ios":"levelo://app?vid=09d9c6f1-ccd6-4075-9a03-4634c196f8cd"},"vehicle_type_id":"4","last_reported":1781328428,"current_range_meters":7200,"station_id":"cpo36qri1sfpv3e86is0","pricing_plan_id":"cebpf4jnsgd1na2vs0mg"},{"bike_id":"8f61a3dc-353b-4ec2-8653-83610ab07dd3","system_id":"levelo_inurba_marseille","lat":43.21758,"lon":5.34576,"is_reserved":false,"is_disabled":false,"rental_uris":{"android":"levelo://app?vid=8f61a3dc-353b-4ec2-8653-83610ab07dd3","ios":"levelo://app?vid=8f61a3dc-353b-4ec2-8653-83610ab07dd3"},"vehicle_type_id":"4","last_reported":1781328428,"current_range_meters":7200,"station_id":"st_cvj6r9ubvosntc0bgbag","pricing_plan_id":"cebpf4jnsgd1na2vs0mg"},{"bike_id":"b24c0d85-3fad-4984-8586-684bbf5e0145","system_id":"levelo_inurba_marseille","lat":43.30281,"lon":5.37708,"is_reserved":false,"is_disabled":false,"rental_uris":{"android":"levelo://app?vid=b24c0d85-3fad-4984-8586-684bbf5e0145","ios":"levelo://app?vid=b24c0d85-3fad-4984-8586-684bbf5e0145"},"vehicle_type_id":"4","last_reported":1781328428,"current_range_meters":7200,"station_id":"ce4bguh2rcd13ifvqcj0","pricing_plan_id":"cebpf4jnsgd1na2vs0mg"},{"bike_id":"8973ed0e-0f1d-4b17-8f92-c0a250fe8e91","system_id":"levelo_inurba_marseille","lat":43.2795,"lon":5.41012,"is_reserved":false,"is_disabled":false,"rental_uris":{"android":"levelo://app?vid=8973ed0e-0f1d-4b17-8f92-c0a250fe8e91","ios":"levelo://app?vid=8973ed0e-0f1d-4b17-8f92-c0a250fe8e91"},"vehicle_type_id":"4","last_reported":1781328428,"current_range_meters":7200,"station_id":"ce4bhnp2rcd13ifvqh0g","pricing_plan_id":"cebpf4jnsgd1na2vs0mg"},{"bike_id":"45cdf210-fb84-4264-9c19-3a8b7db08f5b","system_id":"levelo_inurba_marseille","lat":43.24181,"lon":5.39722,"is_reserved":false,"is_disabled":false,"rental_uris":{"android":"levelo://app?vid=45cdf210-fb84-4264-9c19-3a8b7db08f5b","ios":"levelo://app?vid=45cdf210-fb84-4264-9c19-3a8b7db08f5b"},"vehicle_type_id":"4","last_reported":1781328428,"current_range_meters":7200,"station_id":"ce4bhn12rcd13ifvqgpg","pricing_plan_id":"cebpf4jnsgd1na2vs0mg"},{"bike_id":"d07e15af-65af-441a-9e7c-2a22466bde62","system_id":"levelo_inurba_marseille","lat":43.28455,"lon":5.35886,"is_reserved":false,"is_disabled":false,"rental_uris":{"android":"levelo://app?vid=d07e15af-65af-441a-9e7c-2a22466bde62","ios":"levelo://app?vid=d07e15af-65af-441a-9e7c-2a22466bde62"},"vehicle_type_id":"4","last_reported":1781328428,"current_range_meters":7200,"station_id":"ce4bhah2rcd13ifvqei0","pricing_plan_id":"cebpf4jnsgd1na2vs0mg"},{"bike_id":"eafcac8f-4e35-4bea-bcbf-9122613364b1","system_id":"levelo_inurba_marseille","lat":43.24069,"lon":5.37751,"is_reserved":false,"is_disabled":false,"rental_uris":{"android":"levelo://app?vid=eafcac8f-4e35-4bea-bcbf-9122613364b1","ios":"levelo://app?vid=eafcac8f-4e35-4bea-bcbf-9122613364b1"},"vehicle_type_id":"4","last_reported":1781328428,"current_range_meters":7200,"station_id":"ce4bhnp2rcd13ifvqgvg","pricing_plan_id":"cebpf4jnsgd1na2vs0mg"},{"bike_id":"5c8f116d-9d9d-4c70-b100-39ff3082802d","system_id":"levelo_inurba_marseille","lat":43.29203,"lon":5.39314,"is_reserved":false,"is_disabled":false,"rental_uris":{"android":"levelo://app?vid=5c8f116d-9d9d-4c70-b100-39ff3082802d","ios":"levelo://app?vid=5c8f116d-9d9d-4c70-b100-39ff3082802d"},"vehicle_type_id":"4","last_reported":1781328428,"current_range_meters":7200,"station_id":"ce4bh192rcd13ifvqdd0","pricing_plan_id":"cebpf4jnsgd1na2vs0mg"},{"bike_id":"f82d7e82-1304-4c4f-8694-78d8eec4f6cb","system_id":"levelo_inurba_marseille","lat":43.27827,"lon":5.39204,"is_reserved":false,"is_disabled":false,"rental_uris":{"android":"levelo://app?vid=f82d7e82-1304-4c4f-8694-78d8eec4f6cb","ios":"levelo://app?vid=f82d7e82-1304-4c4f-8694-78d8eec4f6cb"},"vehicle_type_id":"4","last_reported":1781328428,"current_range_meters":7200,"station_id":"ce4bhjp2rcd13ifvqga0","pricing_plan_id":"cebpf4jnsgd1na2vs0mg"},{"bike_id":"d3862ea1-fa39-463c-98c9-6efbc86109cd","system_id":"levelo_inurba_marseille","lat":43.24799,"lon":5.3745,"is_reserved":false,"is_disabled":false,"rental_uris":{"android":"levelo://app?vid=d3862ea1-fa39-463c-98c9-6efbc86109cd","ios":"levelo://app?vid=d3862ea1-fa39-463c-98c9-6efbc86109cd"},"vehicle_type_id":"4","last_reported":1781328428,"current_range_meters":7200,"station_id":"ce4bhgh2rcd13ifvqfb0","pricing_plan_id":"cebpf4jnsgd1na2vs0mg"},{"bike_id":"4ada14b1-acd8-4130-a2ae-2ee1cc65e2d2","system_id":"levelo_inurba_marseille","lat":43.28588,"lon":5.39365,"is_reserved":false,"is_disabled":false,"rental_uris":{"android":"levelo://app?vid=4ada14b1-acd8-4130-a2ae-2ee1cc65e2d2","ios":"levelo://app?vid=4ada14b1-acd8-4130-a2ae-2ee1cc65e2d2"},"vehicle_type_id":"4","last_reported":1781328428,"current_range_meters":7200,"station_id":"","pricing_plan_id":"cebpf4jnsgd1na2vs0mg"},{"bike_id":"5f189998-b2b6-4e38-b849-68910c9a3d84","system_id":"levelo_inurba_marseille","lat":43.317514,"lon":5.39012,"is_reserved":false,"is_disabled":false,"rental_uris":{"android":"levelo://app?vid=5f189998-b2b6-4e38-b849-68910c9a3d84","ios":"levelo://app?vid=5f189998-b2b6-4e38-b849-68910c9a3d84"},"vehicle_type_id":"4","last_reported":1781328428,"current_range_meters":7200,"station_id":"","pricing_plan_id":"cebpf4jnsgd1na2vs0mg"},{"bike_id":"3ac38b3a-df68-4ddb-8be7-f5ce5af56eb3","system_id":"levelo_inurba_marseille","lat":43.28997,"lon":5.35622,"is_reserved":false,"is_disabled":true,"rental_uris":{"android":"levelo://app?vid=3ac38b3a-df68-4ddb-8be7-f5ce5af56eb3","ios":"levelo://app?vid=3ac38b3a-df68-4ddb-8be7-f5ce5af56eb3"},"vehicle_type_id":"4","last_reported":1781328428,"current_range_meters":7200,"station_id":"ce4bhb92rcd13ifvqen0","pricing_plan_id":"cebpf4jnsgd1na2vs0mg"},{"bike_id":"e91b8690-fabb-4d10-a5ac-e1b97d9d8712","system_id":"levelo_inurba_marseille","lat":43.30598,"lon":5.37183,"is_reserved":false,"is_disabled":false,"rental_uris":{"android":"levelo://app?vid=e91b8690-fabb-4d10-a5ac-e1b97d9d8712","ios":"levelo://app?vid=e91b8690-fabb-4d10-a5ac-e1b97d9d8712"},"vehicle_type_id":"4","last_reported":1781328428,"current_range_meters":7200,"station_id":"ce4bgqh2rcd13ifvqc4g","pricing_plan_id":"cebpf4jnsgd1na2vs0mg"},{"bike_id":"bf740f93-dcae-45bd-8189-93f0bf5977b3","system_id":"levelo_inurba_marseille","lat":43.22557,"lon":5.41627,"is_reserved":false,"is_disabled":false,"rental_uris":{"android":"levelo://app?vid=bf740f93-dcae-45bd-8189-93f0bf5977b3","ios":"levelo://app?vid=bf740f93-dcae-45bd-8189-93f0bf5977b3"},"vehicle_type_id":"4","last_reported":1781328428,"current_range_meters":7200,"station_id":"st_d2o4gvlbi1j2169b742g","pricing_plan_id":"cebpf4jnsgd1na2vs0mg"},{"bike_id":"049baa7c-8cf0-4258-a907-45281671c213","system_id":"levelo_inurba_marseille","lat":43.27815,"lon":5.40697,"is_reserved":false,"is_disabled":false,"rental_uris":{"android":"levelo://app?vid=049baa7c-8cf0-4258-a907-45281671c213","ios":"levelo://app?vid=049baa7c-8cf0-4258-a907-45281671c213"},"vehicle_type_id":"4","last_reported":1781328428,"current_range_meters":7200,"station_id":"ce4bhnh2rcd13ifvqgtg","pricing_plan_id":"cebpf4jnsgd1na2vs0mg"},{"bike_id":"b26e7c46-af17-4136-b152-d4853d8c5290","system_id":"levelo_inurba_marseille","lat":43.26212,"lon":5.37439,"is_reserved":false,"is_disabled":false,"rental_uris":{"android":"levelo://app?vid=b26e7c46-af17-4136-b152-d4853d8c5290","ios":"levelo://app?vid=b26e7c46-af17-4136-b152-d4853d8c5290"},"vehicle_type_id":"4","last_reported":1781328428,"current_range_meters":7200,"station_id":"ce4bhgp2rcd13ifvqfc0","pricing_plan_id":"cebpf4jnsgd1na2vs0mg"},{"bike_id":"a4367c49-3ad9-4e5d-b890-d24a763f0a44","system_id":"levelo_inurba_marseille","lat":43.28812,"lon":5.42771,"is_reserved":false,"is_disabled":false,"rental_uris":{"android":"levelo://app?vid=a4367c49-3ad9-4e5d-b890-d24a763f0a44","ios":"levelo://app?vid=a4367c49-3ad9-4e5d-b890-d24a763f0a44"},"vehicle_type_id":"4","last_reported":1781328428,"current_range_meters":7200,"station_id":"","pricing_plan_id":"cebpf4jnsgd1na2vs0mg"},{"bike_id":"8854a21d-50cd-40be-bdc9-545e52082ad0","system_id":"levelo_inurba_marseille","lat":43.29293,"lon":5.4011,"is_reserved":false,"is_disabled":false,"rental_uris":{"android":"levelo://app?vid=8854a21d-50cd-40be-bdc9-545e52082ad0","ios":"levelo://app?vid=8854a21d-50cd-40be-bdc9-545e52082ad0"},"vehicle_type_id":"4","last_reported":1781328428,"current_range_meters":7200,"station_id":"ce4bh312rcd13ifvqdk0","pricing_plan_id":"cebpf4jnsgd1na2vs0mg"},{"bike_id":"437e3ba7-ea12-4e88-a20f-de0ed79ac149","system_id":"levelo_inurba_marseille","lat":43.24072,"lon":5.37754,"is_reserved":false,"is_disabled":false,"rental_uris":{"android":"levelo://app?vid=437e3ba7-ea12-4e88-a20f-de0ed79ac149","ios":"levelo://app?vid=437e3ba7-ea12-4e88-a20f-de0ed79ac149"},"vehicle_type_id":"4","last_reported":1781328428,"current_range_meters":7200,"station_id":"ce4bhnp2rcd13ifvqgvg","pricing_plan_id":"cebpf4jnsgd1na2vs0mg"},{"bike_id":"083b2a6f-f51a-4789-9807-ab3b22f173ae","system_id":"levelo_inurba_marseille","lat":43.26373,"lon":5.41083,"is_reserved":false,"is_disabled":false,"rental_uris":{"android":"levelo://app?vid=083b2a6f-f51a-4789-9807-ab3b22f173ae","ios":"levelo://app?vid=083b2a6f-f51a-4789-9807-ab3b22f173ae"},"vehicle_type_id":"4","last_reported":1781328428,"current_range_meters":7200,"station_id":"st_d4e5ca6na9uc73bfl5fg","pricing_plan_id":"cebpf4jnsgd1na2vs0mg"},{"bike_id":"a8da77e4-dc80-4573-aff2-042d5a0489c3","system_id":"levelo_inurba_marseille","lat":43.30636,"lon":5.39883,"is_reserved":false,"is_disabled":false,"rental_uris":{"android":"levelo://app?vid=a8da77e4-dc80-4573-aff2-042d5a0489c3","ios":"levelo://app?vid=a8da77e4-dc80-4573-aff2-042d5a0489c3"},"vehicle_type_id":"4","last_reported":1781328428,"current_range_meters":7200,"station_id":"","pricing_plan_id":"cebpf4jnsgd1na2vs0mg"},{"bike_id":"30e11970-43f1-4eb4-85d6-ae8736f298f2","system_id":"levelo_inurba_marseille","lat":43.29102,"lon":5.38156,"is_reserved":false,"is_disabled":true,"rental_uris":{"android":"levelo://app?vid=30e11970-43f1-4eb4-85d6-ae8736f298f2","ios":"levelo://app?vid=30e11970-43f1-4eb4-85d6-ae8736f298f2"},"vehicle_type_id":"4","last_reported":1781328428,"current_range_meters":8000,"station_id":"ce4bh512rcd13ifvqe2g","pricing_plan_id":"cebpf4jnsgd1na2vs0mg"},{"bike_id":"91081416-995f-4cde-839b-8273592953c5","system_id":"levelo_inurba_marseille","lat":43.28721,"lon":5.36081,"is_reserved":false,"is_disabled":false,"rental_uris":{"android":"levelo://app?vid=91081416-995f-4cde-839b-8273592953c5","ios":"levelo://app?vid=91081416-995f-4cde-839b-8273592953c5"},"vehicle_type_id":"4","last_reported":1781328428,"current_range_meters":8000,"station_id":"cki0cbj6b192h4jlfktg","pricing_plan_id":"cebpf4jnsgd1na2vs0mg"},{"bike_id":"dc58ea31-98c3-4856-8e93-e0d26d0dd423","system_id":"levelo_inurba_marseille","lat":43.28935,"lon":5.36625,"is_reserved":false,"is_disabled":false,"rental_uris":{"android":"levelo://app?vid=dc58ea31-98c3-4856-8e93-e0d26d0dd423","ios":"levelo://app?vid=dc58ea31-98c3-4856-8e93-e0d26d0dd423"},"vehicle_type_id":"4","last_reported":1781328428,"current_range_meters":8000,"station_id":"ce4bhap2rcd13ifvqek0","pricing_plan_id":"cebpf4jnsgd1na2vs0mg"},{"bike_id":"86b4821b-066f-4af7-9341-601c3120669c","system_id":"levelo_inurba_marseille","lat":43.26227,"lon":5.38766,"is_reserved":false,"is_disabled":false,"rental_uris":{"android":"levelo://app?vid=86b4821b-066f-4af7-9341-601c3120669c","ios":"levelo://app?vid=86b4821b-066f-4af7-9341-601c3120669c"},"vehicle_type_id":"4","last_reported":1781328428,"current_range_meters":8000,"station_id":"st_d8gjfg747rts73coq3b0","pricing_plan_id":"cebpf4jnsgd1na2vs0mg"},{"bike_id":"c175211b-3da4-46cc-a60f-4967a28b1b76","system_id":"levelo_inurba_marseille","lat":43.33159,"lon":5.37696,"is_reserved":false,"is_disabled":false,"rental_uris":{"android":"levelo://app?vid=c175211b-3da4-46cc-a60f-4967a28b1b76","ios":"levelo://app?vid=c175211b-3da4-46cc-a60f-4967a28b1b76"},"vehicle_type_id":"4","last_reported":1781328428,"current_range_meters":8000,"station_id":"st_d46cu089ee8s73dldbu0","pricing_plan_id":"cebpf4jnsgd1na2vs0mg"},{"bike_id":"b8283d2f-f65f-41f5-947e-3656ddc8e33f","system_id":"levelo_inurba_marseille","lat":43.23185,"lon":5.35544,"is_reserved":false,"is_disabled":false,"rental_uris":{"android":"levelo://app?vid=b8283d2f-f65f-41f5-947e-3656ddc8e33f","ios":"levelo://app?vid=b8283d2f-f65f-41f5-947e-3656ddc8e33f"},"vehicle_type_id":"4","last_reported":1781328428,"current_range_meters":8000,"station_id":"ce4bhu92rcd13ifvqi70","pricing_plan_id":"cebpf4jnsgd1na2vs0mg"},{"bike_id":"b6a8a717-b820-4aee-9a19-29f3d1075cc9","system_id":"levelo_inurba_marseille","lat":43.31029,"lon":5.37145,"is_reserved":false,"is_disabled":false,"rental_uris":{"android":"levelo://app?vid=b6a8a717-b820-4aee-9a19-29f3d1075cc9","ios":"levelo://app?vid=b6a8a717-b820-4aee-9a19-29f3d1075cc9"},"vehicle_type_id":"4","last_reported":1781328428,"current_range_meters":8000,"station_id":"st_d4kl2rp97mjs73e7tdfg","pricing_plan_id":"cebpf4jnsgd1na2vs0mg"},{"bike_id":"60ef35b5-2df4-436e-b925-da19a11c6328","system_id":"levelo_inurba_marseille","lat":43.32109,"lon":5.36763,"is_reserved":false,"is_disabled":false,"rental_uris":{"android":"levelo://app?vid=60ef35b5-2df4-436e-b925-da19a11c6328","ios":"levelo://app?vid=60ef35b5-2df4-436e-b925-da19a11c6328"},"vehicle_type_id":"4","last_reported":1781328428,"current_range_meters":8000,"station_id":"ce4bhrh2rcd13ifvqhug","pricing_plan_id":"cebpf4jnsgd1na2vs0mg"},{"bike_id":"c43c92bc-16e7-4616-8292-b9ed941fbd42","system_id":"levelo_inurba_marseille","lat":43.22562,"lon":5.41628,"is_reserved":false,"is_disabled":false,"rental_uris":{"android":"levelo://app?vid=c43c92bc-16e7-4616-8292-b9ed941fbd42","ios":"levelo://app?vid=c43c92bc-16e7-4616-8292-b9ed941fbd42"},"vehicle_type_id":"4","last_reported":1781328428,"current_range_meters":8000,"station_id":"st_d2o4gvlbi1j2169b742g","pricing_plan_id":"cebpf4jnsgd1na2vs0mg"},{"bike_id":"abc01caa-7e82-486b-ad5a-e31151d2d0fc","system_id":"levelo_inurba_marseille","lat":43.27763,"lon":5.39584,"is_reserved":false,"is_disabled":false,"rental_uris":{"android":"levelo://app?vid=abc01caa-7e82-486b-ad5a-e31151d2d0fc","ios":"levelo://app?vid=abc01caa-7e82-486b-ad5a-e31151d2d0fc"},"vehicle_type_id":"4","last_reported":1781328428,"current_range_meters":8000,"station_id":"","pricing_plan_id":"cebpf4jnsgd1na2vs0mg"},{"bike_id":"f8512e4c-12f1-407d-a418-7fa99b208e7f","system_id":"levelo_inurba_marseille","lat":43.24779,"lon":5.37457,"is_reserved":false,"is_disabled":false,"rental_uris":{"android":"levelo://app?vid=f8512e4c-12f1-407d-a418-7fa99b208e7f","ios":"levelo://app?vid=f8512e4c-12f1-407d-a418-7fa99b208e7f"},"vehicle_type_id":"4","last_reported":1781328428,"current_range_meters":8000,"station_id":"ce4bhgh2rcd13ifvqfb0","pricing_plan_id":"cebpf4jnsgd1na2vs0mg"},{"bike_id":"8d6efb67-d557-4a93-b201-4c66b4722f12","system_id":"levelo_inurba_marseille","lat":43.28425,"lon":5.39187,"is_reserved":false,"is_disabled":false,"rental_uris":{"android":"levelo://app?vid=8d6efb67-d557-4a93-b201-4c66b4722f12","ios":"levelo://app?vid=8d6efb67-d557-4a93-b201-4c66b4722f12"},"vehicle_type_id":"4","last_reported":1781328428,"current_range_meters":8000,"station_id":"ce4bhoh2rcd13ifvqh5g","pricing_plan_id":"cebpf4jnsgd1na2vs0mg"},{"bike_id":"be004f60-661b-45b9-a00d-02d877da6c38","system_id":"levelo_inurba_marseille","lat":43.25382,"lon":5.42278,"is_reserved":false,"is_disabled":false,"rental_uris":{"android":"levelo://app?vid=be004f60-661b-45b9-a00d-02d877da6c38","ios":"levelo://app?vid=be004f60-661b-45b9-a00d-02d877da6c38"},"vehicle_type_id":"4","last_reported":1781328428,"current_range_meters":8000,"station_id":"","pricing_plan_id":"cebpf4jnsgd1na2vs0mg"},{"bike_id":"ca9057c5-4c39-45a9-baa1-bb459d04848e","system_id":"levelo_inurba_marseille","lat":43.30806,"lon":5.38134,"is_reserved":false,"is_disabled":false,"rental_uris":{"android":"levelo://app?vid=ca9057c5-4c39-45a9-baa1-bb459d04848e","ios":"levelo://app?vid=ca9057c5-4c39-45a9-baa1-bb459d04848e"},"vehicle_type_id":"4","last_reported":1781328428,"current_range_meters":8000,"station_id":"ce4bgt12rcd13ifvqce0","pricing_plan_id":"cebpf4jnsgd1na2vs0mg"},