{"last_updated":1770147468,"ttl":60,"version":"2.2","data":{"bikes":[{"bike_id":"4b21a6c4-31e9-4581-9157-ff28f43471d5","system_id":"levelo_inurba_marseille","lat":43.26205,"lon":5.37439,"is_reserved":false,"is_disabled":false,"rental_uris":{"android":"levelo://app?vid=4b21a6c4-31e9-4581-9157-ff28f43471d5","ios":"levelo://app?vid=4b21a6c4-31e9-4581-9157-ff28f43471d5"},"vehicle_type_id":"4","last_reported":1770147469,"current_range_meters":2800,"station_id":"ce4bhgp2rcd13ifvqfc0","pricing_plan_id":"cebpf4jnsgd1na2vs0mg"},{"bike_id":"af07bab7-e70f-4712-813a-d80d7647f558","system_id":"levelo_inurba_marseille","lat":43.24667,"lon":5.38152,"is_reserved":false,"is_disabled":false,"rental_uris":{"android":"levelo://app?vid=af07bab7-e70f-4712-813a-d80d7647f558","ios":"levelo://app?vid=af07bab7-e70f-4712-813a-d80d7647f558"},"vehicle_type_id":"4","last_reported":1770147469,"current_range_meters":2800,"station_id":"ce4bhih2rcd13ifvqfr0","pricing_plan_id":"cebpf4jnsgd1na2vs0mg"},{"bike_id":"bffd5cda-b29e-4052-9686-374e7b0a2f7c","system_id":"levelo_inurba_marseille","lat":43.2705,"lon":5.40262,"is_reserved":false,"is_disabled":false,"rental_uris":{"android":"levelo://app?vid=bffd5cda-b29e-4052-9686-374e7b0a2f7c","ios":"levelo://app?vid=bffd5cda-b29e-4052-9686-374e7b0a2f7c"},"vehicle_type_id":"4","last_reported":1770147469,"current_range_meters":2800,"station_id":"ce4bhk92rcd13ifvqgc0","pricing_plan_id":"cebpf4jnsgd1na2vs0mg"},{"bike_id":"49139d52-b0b6-43c9-97c4-0233c51d2afd","system_id":"levelo_inurba_marseille","lat":43.30311,"lon":5.36891,"is_reserved":false,"is_disabled":false,"rental_uris":{"android":"levelo://app?vid=49139d52-b0b6-43c9-97c4-0233c51d2afd","ios":"levelo://app?vid=49139d52-b0b6-43c9-97c4-0233c51d2afd"},"vehicle_type_id":"4","last_reported":1770147469,"current_range_meters":2800,"station_id":"ce4bgqh2rcd13ifvqc5g","pricing_plan_id":"cebpf4jnsgd1na2vs0mg"},{"bike_id":"c3d3473b-1395-4d7f-8e03-78f93a7e24c6","system_id":"levelo_inurba_marseille","lat":43.28353,"lon":5.38104,"is_reserved":false,"is_disabled":false,"rental_uris":{"android":"levelo://app?vid=c3d3473b-1395-4d7f-8e03-78f93a7e24c6","ios":"levelo://app?vid=c3d3473b-1395-4d7f-8e03-78f93a7e24c6"},"vehicle_type_id":"4","last_reported":1770147469,"current_range_meters":2800,"station_id":"ce4bh412rcd13ifvqdr0","pricing_plan_id":"cebpf4jnsgd1na2vs0mg"},{"bike_id":"75324496-5325-4305-ba90-79b1a83a9485","system_id":"levelo_inurba_marseille","lat":43.2467,"lon":5.38165,"is_reserved":false,"is_disabled":false,"rental_uris":{"android":"levelo://app?vid=75324496-5325-4305-ba90-79b1a83a9485","ios":"levelo://app?vid=75324496-5325-4305-ba90-79b1a83a9485"},"vehicle_type_id":"4","last_reported":1770147469,"current_range_meters":2800,"station_id":"ce4bhih2rcd13ifvqfr0","pricing_plan_id":"cebpf4jnsgd1na2vs0mg"},{"bike_id":"225e9d09-83ee-4f1c-a930-a97429c83cb7","system_id":"levelo_inurba_marseille","lat":43.23193,"lon":5.35544,"is_reserved":false,"is_disabled":false,"rental_uris":{"android":"levelo://app?vid=225e9d09-83ee-4f1c-a930-a97429c83cb7","ios":"levelo://app?vid=225e9d09-83ee-4f1c-a930-a97429c83cb7"},"vehicle_type_id":"4","last_reported":1770147469,"current_range_meters":2800,"station_id":"ce4bhu92rcd13ifvqi70","pricing_plan_id":"cebpf4jnsgd1na2vs0mg"},{"bike_id":"6a131f0d-6128-445c-99a5-319bcf3a622a","system_id":"levelo_inurba_marseille","lat":43.28495,"lon":5.48413,"is_reserved":false,"is_disabled":false,"rental_uris":{"android":"levelo://app?vid=6a131f0d-6128-445c-99a5-319bcf3a622a","ios":"levelo://app?vid=6a131f0d-6128-445c-99a5-319bcf3a622a"},"vehicle_type_id":"4","last_reported":1770147469,"current_range_meters":2800,"station_id":"st_d3svhcjqgbts73a3dn0g","pricing_plan_id":"cebpf4jnsgd1na2vs0mg"},{"bike_id":"d6e71225-c1da-4247-a7bc-8a088c99e253","system_id":"levelo_inurba_marseille","lat":43.28469,"lon":5.38466,"is_reserved":false,"is_disabled":false,"rental_uris":{"android":"levelo://app?vid=d6e71225-c1da-4247-a7bc-8a088c99e253","ios":"levelo://app?vid=d6e71225-c1da-4247-a7bc-8a088c99e253"},"vehicle_type_id":"4","last_reported":1770147469,"current_range_meters":2800,"station_id":"ce4bh512rcd13ifvqe3g","pricing_plan_id":"cebpf4jnsgd1na2vs0mg"},{"bike_id":"91604460-68c0-4492-894c-a238619d1f72","system_id":"levelo_inurba_marseille","lat":43.231997,"lon":5.355471,"is_reserved":false,"is_disabled":false,"rental_uris":{"android":"levelo://app?vid=91604460-68c0-4492-894c-a238619d1f72","ios":"levelo://app?vid=91604460-68c0-4492-894c-a238619d1f72"},"vehicle_type_id":"4","last_reported":1770147469,"current_range_meters":2800,"station_id":"ce4bhu92rcd13ifvqi70","pricing_plan_id":"cebpf4jnsgd1na2vs0mg"},{"bike_id":"c91ef1b4-fe3d-429f-9500-c1a186943392","system_id":"levelo_inurba_marseille","lat":43.316833,"lon":5.404781,"is_reserved":false,"is_disabled":false,"rental_uris":{"android":"levelo://app?vid=c91ef1b4-fe3d-429f-9500-c1a186943392","ios":"levelo://app?vid=c91ef1b4-fe3d-429f-9500-c1a186943392"},"vehicle_type_id":"4","last_reported":1770147469,"current_range_meters":2800,"station_id":"ce4bh012rcd13ifvqd00","pricing_plan_id":"cebpf4jnsgd1na2vs0mg"},{"bike_id":"186a1326-d130-487e-8f4a-1615df6cd0ab","system_id":"levelo_inurba_marseille","lat":43.27619,"lon":5.36117,"is_reserved":false,"is_disabled":false,"rental_uris":{"android":"levelo://app?vid=186a1326-d130-487e-8f4a-1615df6cd0ab","ios":"levelo://app?vid=186a1326-d130-487e-8f4a-1615df6cd0ab"},"vehicle_type_id":"4","last_reported":1770147469,"current_range_meters":2800,"station_id":"ce4bgj92rcd13ifvqbe0","pricing_plan_id":"cebpf4jnsgd1na2vs0mg"},{"bike_id":"20d25b81-9c9e-4d69-b10b-5fd780f1ac06","system_id":"levelo_inurba_marseille","lat":43.23148,"lon":5.43742,"is_reserved":false,"is_disabled":false,"rental_uris":{"android":"levelo://app?vid=20d25b81-9c9e-4d69-b10b-5fd780f1ac06","ios":"levelo://app?vid=20d25b81-9c9e-4d69-b10b-5fd780f1ac06"},"vehicle_type_id":"4","last_reported":1770147469,"current_range_meters":3200,"station_id":"ce4bhmp2rcd13ifvqgog","pricing_plan_id":"cebpf4jnsgd1na2vs0mg"},{"bike_id":"8fc65fb1-9081-468b-b988-8f1c0039a5c9","system_id":"levelo_inurba_marseille","lat":43.28156,"lon":5.42636,"is_reserved":false,"is_disabled":false,"rental_uris":{"android":"levelo://app?vid=8fc65fb1-9081-468b-b988-8f1c0039a5c9","ios":"levelo://app?vid=8fc65fb1-9081-468b-b988-8f1c0039a5c9"},"vehicle_type_id":"4","last_reported":1770147469,"current_range_meters":3200,"station_id":"ce4bhnh2rcd13ifvqgug","pricing_plan_id":"cebpf4jnsgd1na2vs0mg"},{"bike_id":"1004f034-b2a4-43ac-9d0d-5f9ccbe8ef58","system_id":"levelo_inurba_marseille","lat":43.28694,"lon":5.38657,"is_reserved":false,"is_disabled":false,"rental_uris":{"android":"levelo://app?vid=1004f034-b2a4-43ac-9d0d-5f9ccbe8ef58","ios":"levelo://app?vid=1004f034-b2a4-43ac-9d0d-5f9ccbe8ef58"},"vehicle_type_id":"4","last_reported":1770147469,"current_range_meters":3200,"station_id":"ce4bh492rcd13ifvqdug","pricing_plan_id":"cebpf4jnsgd1na2vs0mg"},{"bike_id":"40c5ac33-3eef-4c44-a016-78e58240094d","system_id":"levelo_inurba_marseille","lat":43.24669,"lon":5.38155,"is_reserved":false,"is_disabled":false,"rental_uris":{"android":"levelo://app?vid=40c5ac33-3eef-4c44-a016-78e58240094d","ios":"levelo://app?vid=40c5ac33-3eef-4c44-a016-78e58240094d"},"vehicle_type_id":"4","last_reported":1770147469,"current_range_meters":3200,"station_id":"ce4bhih2rcd13ifvqfr0","pricing_plan_id":"cebpf4jnsgd1na2vs0mg"},{"bike_id":"4e4e0479-40e6-4311-8a5b-713fe3e2e53e","system_id":"levelo_inurba_marseille","lat":43.26929,"lon":5.40232,"is_reserved":false,"is_disabled":false,"rental_uris":{"android":"levelo://app?vid=4e4e0479-40e6-4311-8a5b-713fe3e2e53e","ios":"levelo://app?vid=4e4e0479-40e6-4311-8a5b-713fe3e2e53e"},"vehicle_type_id":"4","last_reported":1770147469,"current_range_meters":3200,"station_id":"cjm6bp8fraef2m0cb0m0","pricing_plan_id":"cebpf4jnsgd1na2vs0mg"},{"bike_id":"b22fe20e-b31a-45b3-85d7-e7226f45b2bd","system_id":"levelo_inurba_marseille","lat":43.212051,"lon":5.350659,"is_reserved":false,"is_disabled":false,"rental_uris":{"android":"levelo://app?vid=b22fe20e-b31a-45b3-85d7-e7226f45b2bd","ios":"levelo://app?vid=b22fe20e-b31a-45b3-85d7-e7226f45b2bd"},"vehicle_type_id":"4","last_reported":1770147469,"current_range_meters":3200,"station_id":"st_cvj6sg6p6f1abm77japg","pricing_plan_id":"cebpf4jnsgd1na2vs0mg"},{"bike_id":"2830d97a-d1fb-4f70-8580-a0b776634d6f","system_id":"levelo_inurba_marseille","lat":43.23182,"lon":5.39993,"is_reserved":false,"is_disabled":false,"rental_uris":{"android":"levelo://app?vid=2830d97a-d1fb-4f70-8580-a0b776634d6f","ios":"levelo://app?vid=2830d97a-d1fb-4f70-8580-a0b776634d6f"},"vehicle_type_id":"4","last_reported":1770147469,"current_range_meters":3200,"station_id":"ce4bhn12rcd13ifvqgqg","pricing_plan_id":"cebpf4jnsgd1na2vs0mg"},{"bike_id":"5d686448-27cb-4c67-b413-49c4aaff83da","system_id":"levelo_inurba_marseille","lat":43.2496,"lon":5.40497,"is_reserved":false,"is_disabled":false,"rental_uris":{"android":"levelo://app?vid=5d686448-27cb-4c67-b413-49c4aaff83da","ios":"levelo://app?vid=5d686448-27cb-4c67-b413-49c4aaff83da"},"vehicle_type_id":"4","last_reported":1770147469,"current_range_meters":3200,"station_id":"st_d2ngiaodas8pm72gd1h0","pricing_plan_id":"cebpf4jnsgd1na2vs0mg"},{"bike_id":"93df8620-07dc-4f74-9a2d-b7cef98415cf","system_id":"levelo_inurba_marseille","lat":43.26235,"lon":5.37963,"is_reserved":false,"is_disabled":false,"rental_uris":{"android":"levelo://app?vid=93df8620-07dc-4f74-9a2d-b7cef98415cf","ios":"levelo://app?vid=93df8620-07dc-4f74-9a2d-b7cef98415cf"},"vehicle_type_id":"4","last_reported":1770147469,"current_range_meters":3200,"station_id":"ce4bhjp2rcd13ifvqg90","pricing_plan_id":"cebpf4jnsgd1na2vs0mg"},{"bike_id":"8729bf9e-6474-42de-9275-d8a55b8a2074","system_id":"levelo_inurba_marseille","lat":43.26684,"lon":5.38229,"is_reserved":false,"is_disabled":false,"rental_uris":{"android":"levelo://app?vid=8729bf9e-6474-42de-9275-d8a55b8a2074","ios":"levelo://app?vid=8729bf9e-6474-42de-9275-d8a55b8a2074"},"vehicle_type_id":"4","last_reported":1770147469,"current_range_meters":3200,"station_id":"ce4bhg92rcd13ifvqf90","pricing_plan_id":"cebpf4jnsgd1na2vs0mg"},{"bike_id":"8d8b2c7b-bbef-4ba2-bfd5-19e5601ddaf3","system_id":"levelo_inurba_marseille","lat":43.28497,"lon":5.38431,"is_reserved":false,"is_disabled":false,"rental_uris":{"android":"levelo://app?vid=8d8b2c7b-bbef-4ba2-bfd5-19e5601ddaf3","ios":"levelo://app?vid=8d8b2c7b-bbef-4ba2-bfd5-19e5601ddaf3"},"vehicle_type_id":"4","last_reported":1770147469,"current_range_meters":3600,"station_id":"ce4bh512rcd13ifvqe3g","pricing_plan_id":"cebpf4jnsgd1na2vs0mg"},{"bike_id":"ce24aee7-35fa-4a11-bc8f-4e8ab67f92b4","system_id":"levelo_inurba_marseille","lat":43.31471,"lon":5.37272,"is_reserved":false,"is_disabled":false,"rental_uris":{"android":"levelo://app?vid=ce24aee7-35fa-4a11-bc8f-4e8ab67f92b4","ios":"levelo://app?vid=ce24aee7-35fa-4a11-bc8f-4e8ab67f92b4"},"vehicle_type_id":"4","last_reported":1770147469,"current_range_meters":3600,"station_id":"ce4bgt12rcd13ifvqcd0","pricing_plan_id":"cebpf4jnsgd1na2vs0mg"},{"bike_id":"bbe31551-c256-4391-87b7-e9fb9646bad8","system_id":"levelo_inurba_marseille","lat":43.2718,"lon":5.40986,"is_reserved":false,"is_disabled":false,"rental_uris":{"android":"levelo://app?vid=bbe31551-c256-4391-87b7-e9fb9646bad8","ios":"levelo://app?vid=bbe31551-c256-4391-87b7-e9fb9646bad8"},"vehicle_type_id":"4","last_reported":1770147469,"current_range_meters":3600,"station_id":"ce4bhl12rcd13ifvqgf0","pricing_plan_id":"cebpf4jnsgd1na2vs0mg"},{"bike_id":"366f4d53-7cdd-43d3-8cd0-d81e40fdf9d0","system_id":"levelo_inurba_marseille","lat":43.27328,"lon":5.39073,"is_reserved":false,"is_disabled":false,"rental_uris":{"android":"levelo://app?vid=366f4d53-7cdd-43d3-8cd0-d81e40fdf9d0","ios":"levelo://app?vid=366f4d53-7cdd-43d3-8cd0-d81e40fdf9d0"},"vehicle_type_id":"4","last_reported":1770147469,"current_range_meters":3600,"station_id":"ce4bhgp2rcd13ifvqfe0","pricing_plan_id":"cebpf4jnsgd1na2vs0mg"},{"bike_id":"eda11006-539d-4ac5-b351-07bd6d27fd10","system_id":"levelo_inurba_marseille","lat":43.27914,"lon":5.3957,"is_reserved":false,"is_disabled":false,"rental_uris":{"android":"levelo://app?vid=eda11006-539d-4ac5-b351-07bd6d27fd10","ios":"levelo://app?vid=eda11006-539d-4ac5-b351-07bd6d27fd10"},"vehicle_type_id":"4","last_reported":1770147469,"current_range_meters":3600,"station_id":"ce4bhf92rcd13ifvqf40","pricing_plan_id":"cebpf4jnsgd1na2vs0mg"},{"bike_id":"75d6e842-cbda-4b63-9ab8-49199bf74e6e","system_id":"levelo_inurba_marseille","lat":43.24673,"lon":5.38167,"is_reserved":false,"is_disabled":false,"rental_uris":{"android":"levelo://app?vid=75d6e842-cbda-4b63-9ab8-49199bf74e6e","ios":"levelo://app?vid=75d6e842-cbda-4b63-9ab8-49199bf74e6e"},"vehicle_type_id":"4","last_reported":1770147469,"current_range_meters":3600,"station_id":"ce4bhih2rcd13ifvqfr0","pricing_plan_id":"cebpf4jnsgd1na2vs0mg"},{"bike_id":"0a6292f7-50dd-43c2-b393-e08dde080051","system_id":"levelo_inurba_marseille","lat":43.26588,"lon":5.38972,"is_reserved":false,"is_disabled":false,"rental_uris":{"android":"levelo://app?vid=0a6292f7-50dd-43c2-b393-e08dde080051","ios":"levelo://app?vid=0a6292f7-50dd-43c2-b393-e08dde080051"},"vehicle_type_id":"4","last_reported":1770147469,"current_range_meters":3600,"station_id":"ce4bhe12rcd13ifvqf30","pricing_plan_id":"cebpf4jnsgd1na2vs0mg"},{"bike_id":"89e3dbcf-2052-4cb4-b96e-44d6fc1c0873","system_id":"levelo_inurba_marseille","lat":43.26925,"lon":5.40265,"is_reserved":false,"is_disabled":false,"rental_uris":{"android":"levelo://app?vid=89e3dbcf-2052-4cb4-b96e-44d6fc1c0873","ios":"levelo://app?vid=89e3dbcf-2052-4cb4-b96e-44d6fc1c0873"},"vehicle_type_id":"4","last_reported":1770147469,"current_range_meters":3600,"station_id":"cjm6bp8fraef2m0cb0m0","pricing_plan_id":"cebpf4jnsgd1na2vs0mg"},{"bike_id":"4dd6841e-e470-4207-bb73-65a47c0e81c5","system_id":"levelo_inurba_marseille","lat":43.31156,"lon":5.38025,"is_reserved":false,"is_disabled":false,"rental_uris":{"android":"levelo://app?vid=4dd6841e-e470-4207-bb73-65a47c0e81c5","ios":"levelo://app?vid=4dd6841e-e470-4207-bb73-65a47c0e81c5"},"vehicle_type_id":"4","last_reported":1770147469,"current_range_meters":3600,"station_id":"","pricing_plan_id":"cebpf4jnsgd1na2vs0mg"},{"bike_id":"5dae8e7a-771c-417a-921b-2f019b85b891","system_id":"levelo_inurba_marseille","lat":43.29891,"lon":5.43675,"is_reserved":false,"is_disabled":false,"rental_uris":{"android":"levelo://app?vid=5dae8e7a-771c-417a-921b-2f019b85b891","ios":"levelo://app?vid=5dae8e7a-771c-417a-921b-2f019b85b891"},"vehicle_type_id":"4","last_reported":1770147469,"current_range_meters":3600,"station_id":"ce4bhpp2rcd13ifvqhfg","pricing_plan_id":"cebpf4jnsgd1na2vs0mg"},{"bike_id":"00da55f1-79fa-4983-a075-6c34baa227bd","system_id":"levelo_inurba_marseille","lat":43.279694,"lon":5.387296,"is_reserved":false,"is_disabled":false,"rental_uris":{"android":"levelo://app?vid=00da55f1-79fa-4983-a075-6c34baa227bd","ios":"levelo://app?vid=00da55f1-79fa-4983-a075-6c34baa227bd"},"vehicle_type_id":"4","last_reported":1770147469,"current_range_meters":4000,"station_id":"","pricing_plan_id":"cebpf4jnsgd1na2vs0mg"},{"bike_id":"e6d752df-54e0-49ac-91e7-acc0aabbdcf6","system_id":"levelo_inurba_marseille","lat":43.27207,"lon":5.39185,"is_reserved":false,"is_disabled":false,"rental_uris":{"android":"levelo://app?vid=e6d752df-54e0-49ac-91e7-acc0aabbdcf6","ios":"levelo://app?vid=e6d752df-54e0-49ac-91e7-acc0aabbdcf6"},"vehicle_type_id":"4","last_reported":1770147469,"current_range_meters":4000,"station_id":"ce4bhhp2rcd13ifvqfm0","pricing_plan_id":"cebpf4jnsgd1na2vs0mg"},{"bike_id":"8b379c4d-c181-4af4-a7dd-e853e5ff6f8a","system_id":"levelo_inurba_marseille","lat":43.30486,"lon":5.39708,"is_reserved":false,"is_disabled":false,"rental_uris":{"android":"levelo://app?vid=8b379c4d-c181-4af4-a7dd-e853e5ff6f8a","ios":"levelo://app?vid=8b379c4d-c181-4af4-a7dd-e853e5ff6f8a"},"vehicle_type_id":"4","last_reported":1770147469,"current_range_meters":4000,"station_id":"ce4bh092rcd13ifvqd20","pricing_plan_id":"cebpf4jnsgd1na2vs0mg"},{"bike_id":"9507fa88-b2b3-4ab7-a45c-4c86ed644dfa","system_id":"levelo_inurba_marseille","lat":43.22931,"lon":5.35387,"is_reserved":false,"is_disabled":false,"rental_uris":{"android":"levelo://app?vid=9507fa88-b2b3-4ab7-a45c-4c86ed644dfa","ios":"levelo://app?vid=9507fa88-b2b3-4ab7-a45c-4c86ed644dfa"},"vehicle_type_id":"4","last_reported":1770147469,"current_range_meters":4000,"station_id":"cpo3532slgdg3j2ikp40","pricing_plan_id":"cebpf4jnsgd1na2vs0mg"},{"bike_id":"76154380-766b-4767-81b3-83dc44f40b7b","system_id":"levelo_inurba_marseille","lat":43.33523,"lon":5.37499,"is_reserved":false,"is_disabled":false,"rental_uris":{"android":"levelo://app?vid=76154380-766b-4767-81b3-83dc44f40b7b","ios":"levelo://app?vid=76154380-766b-4767-81b3-83dc44f40b7b"},"vehicle_type_id":"4","last_reported":1770147469,"current_range_meters":4000,"station_id":"","pricing_plan_id":"cebpf4jnsgd1na2vs0mg"},{"bike_id":"33155caa-8021-4913-a666-e828c4426fe1","system_id":"levelo_inurba_marseille","lat":43.23197,"lon":5.35575,"is_reserved":false,"is_disabled":false,"rental_uris":{"android":"levelo://app?vid=33155caa-8021-4913-a666-e828c4426fe1","ios":"levelo://app?vid=33155caa-8021-4913-a666-e828c4426fe1"},"vehicle_type_id":"4","last_reported":1770147469,"current_range_meters":4000,"station_id":"ce4bhu92rcd13ifvqi70","pricing_plan_id":"cebpf4jnsgd1na2vs0mg"},{"bike_id":"dbba41a6-2e1f-4f83-b029-a040004d944d","system_id":"levelo_inurba_marseille","lat":43.28619,"lon":5.35094,"is_reserved":false,"is_disabled":false,"rental_uris":{"android":"levelo://app?vid=dbba41a6-2e1f-4f83-b029-a040004d944d","ios":"levelo://app?vid=dbba41a6-2e1f-4f83-b029-a040004d944d"},"vehicle_type_id":"4","last_reported":1770147469,"current_range_meters":4000,"station_id":"ce4bhch2rcd13ifvqeug","pricing_plan_id":"cebpf4jnsgd1na2vs0mg"},{"bike_id":"9205b891-ee66-4882-bfec-3785668d7c2d","system_id":"levelo_inurba_marseille","lat":43.26027,"lon":5.37546,"is_reserved":false,"is_disabled":false,"rental_uris":{"android":"levelo://app?vid=9205b891-ee66-4882-bfec-3785668d7c2d","ios":"levelo://app?vid=9205b891-ee66-4882-bfec-3785668d7c2d"},"vehicle_type_id":"4","last_reported":1770147469,"current_range_meters":4000,"station_id":"ce4bhgh2rcd13ifvqfa0","pricing_plan_id":"cebpf4jnsgd1na2vs0mg"},{"bike_id":"1f9c3b65-5abf-4141-b531-18fa22258403","system_id":"levelo_inurba_marseille","lat":43.29438,"lon":5.39757,"is_reserved":false,"is_disabled":false,"rental_uris":{"android":"levelo://app?vid=1f9c3b65-5abf-4141-b531-18fa22258403","ios":"levelo://app?vid=1f9c3b65-5abf-4141-b531-18fa22258403"},"vehicle_type_id":"4","last_reported":1770147469,"current_range_meters":4000,"station_id":"ce4bh3h2rcd13ifvqdo0","pricing_plan_id":"cebpf4jnsgd1na2vs0mg"},{"bike_id":"f1fdd7e1-5afd-4f67-ac22-95c02675b43d","system_id":"levelo_inurba_marseille","lat":43.2932,"lon":5.37159,"is_reserved":false,"is_disabled":false,"rental_uris":{"android":"levelo://app?vid=f1fdd7e1-5afd-4f67-ac22-95c02675b43d","ios":"levelo://app?vid=f1fdd7e1-5afd-4f67-ac22-95c02675b43d"},"vehicle_type_id":"4","last_reported":1770147469,"current_range_meters":4000,"station_id":"ce4bgh92rcd13ifvqb40","pricing_plan_id":"cebpf4jnsgd1na2vs0mg"},{"bike_id":"c04d02e9-4522-4664-80d1-72f19e30f66b","system_id":"levelo_inurba_marseille","lat":43.25296,"lon":5.38612,"is_reserved":false,"is_disabled":false,"rental_uris":{"android":"levelo://app?vid=c04d02e9-4522-4664-80d1-72f19e30f66b","ios":"levelo://app?vid=c04d02e9-4522-4664-80d1-72f19e30f66b"},"vehicle_type_id":"4","last_reported":1770147469,"current_range_meters":4000,"station_id":"","pricing_plan_id":"cebpf4jnsgd1na2vs0mg"},{"bike_id":"02b06200-6f0c-4fbe-a288-f34e85c983a1","system_id":"levelo_inurba_marseille","lat":43.23796,"lon":5.36638,"is_reserved":false,"is_disabled":false,"rental_uris":{"android":"levelo://app?vid=02b06200-6f0c-4fbe-a288-f34e85c983a1","ios":"levelo://app?vid=02b06200-6f0c-4fbe-a288-f34e85c983a1"},"vehicle_type_id":"4","last_reported":1770147469,"current_range_meters":4400,"station_id":"st_d3nk18o9ro0c73en2l3g","pricing_plan_id":"cebpf4jnsgd1na2vs0mg"},{"bike_id":"3dccfbc0-21a3-4f00-9a17-1cc5f408fc31","system_id":"levelo_inurba_marseille","lat":43.26936,"lon":5.40243,"is_reserved":false,"is_disabled":false,"rental_uris":{"android":"levelo://app?vid=3dccfbc0-21a3-4f00-9a17-1cc5f408fc31","ios":"levelo://app?vid=3dccfbc0-21a3-4f00-9a17-1cc5f408fc31"},"vehicle_type_id":"4","last_reported":1770147469,"current_range_meters":4400,"station_id":"cjm6bp8fraef2m0cb0m0","pricing_plan_id":"cebpf4jnsgd1na2vs0mg"},{"bike_id":"448b0ed6-674b-45c5-8f30-913bda98fa04","system_id":"levelo_inurba_marseille","lat":43.30423,"lon":5.39749,"is_reserved":false,"is_disabled":false,"rental_uris":{"android":"levelo://app?vid=448b0ed6-674b-45c5-8f30-913bda98fa04","ios":"levelo://app?vid=448b0ed6-674b-45c5-8f30-913bda98fa04"},"vehicle_type_id":"4","last_reported":1770147469,"current_range_meters":4400,"station_id":"ce4bh092rcd13ifvqd20","pricing_plan_id":"cebpf4jnsgd1na2vs0mg"},{"bike_id":"d823fc33-a173-4646-9bf4-4ee622b33ce6","system_id":"levelo_inurba_marseille","lat":43.28852,"lon":5.39321,"is_reserved":false,"is_disabled":false,"rental_uris":{"android":"levelo://app?vid=d823fc33-a173-4646-9bf4-4ee622b33ce6","ios":"levelo://app?vid=d823fc33-a173-4646-9bf4-4ee622b33ce6"},"vehicle_type_id":"4","last_reported":1770147469,"current_range_meters":4400,"station_id":"ce4bh2p2rcd13ifvqdi0","pricing_plan_id":"cebpf4jnsgd1na2vs0mg"},{"bike_id":"ef88915d-adfc-4abc-8e44-7a2cf9256e5b","system_id":"levelo_inurba_marseille","lat":43.27943,"lon":5.41056,"is_reserved":false,"is_disabled":false,"rental_uris":{"android":"levelo://app?vid=ef88915d-adfc-4abc-8e44-7a2cf9256e5b","ios":"levelo://app?vid=ef88915d-adfc-4abc-8e44-7a2cf9256e5b"},"vehicle_type_id":"4","last_reported":1770147469,"current_range_meters":4400,"station_id":"ce4bhnp2rcd13ifvqh0g","pricing_plan_id":"cebpf4jnsgd1na2vs0mg"},{"bike_id":"125a07d9-6fb0-4405-824d-942e29d427de","system_id":"levelo_inurba_marseille","lat":43.272043,"lon":5.391831,"is_reserved":false,"is_disabled":false,"rental_uris":{"android":"levelo://app?vid=125a07d9-6fb0-4405-824d-942e29d427de","ios":"levelo://app?vid=125a07d9-6fb0-4405-824d-942e29d427de"},"vehicle_type_id":"4","last_reported":1770147469,"current_range_meters":4400,"station_id":"ce4bhhp2rcd13ifvqfm0","pricing_plan_id":"cebpf4jnsgd1na2vs0mg"},{"bike_id":"3188355f-6083-4464-859b-9ed5b4f3cf11","system_id":"levelo_inurba_marseille","lat":43.25387,"lon":5.38379,"is_reserved":false,"is_disabled":false,"rental_uris":{"android":"levelo://app?vid=3188355f-6083-4464-859b-9ed5b4f3cf11","ios":"levelo://app?vid=3188355f-6083-4464-859b-9ed5b4f3cf11"},"vehicle_type_id":"4","last_reported":1770147469,"current_range_meters":4400,"station_id":"","pricing_plan_id":"cebpf4jnsgd1na2vs0mg"},{"bike_id":"19aba055-b1d8-4671-b80b-da0d24cb9135","system_id":"levelo_inurba_marseille","lat":43.273744,"lon":5.362594,"is_reserved":false,"is_disabled":false,"rental_uris":{"android":"levelo://app?vid=19aba055-b1d8-4671-b80b-da0d24cb9135","ios":"levelo://app?vid=19aba055-b1d8-4671-b80b-da0d24cb9135"},"vehicle_type_id":"4","last_reported":1770147469,"current_range_meters":4400,"station_id":"ce4bhbh2rcd13ifvqeo0","pricing_plan_id":"cebpf4jnsgd1na2vs0mg"},{"bike_id":"9a3b8e40-230b-4af8-bb6c-46b914bd1153","system_id":"levelo_inurba_marseille","lat":43.24365,"lon":5.37065,"is_reserved":false,"is_disabled":false,"rental_uris":{"android":"levelo://app?vid=9a3b8e40-230b-4af8-bb6c-46b914bd1153","ios":"levelo://app?vid=9a3b8e40-230b-4af8-bb6c-46b914bd1153"},"vehicle_type_id":"4","last_reported":1770147469,"current_range_meters":4400,"station_id":"ce4bhhh2rcd13ifvqfk0","pricing_plan_id":"cebpf4jnsgd1na2vs0mg"},{"bike_id":"37efd0a4-f92f-48f6-8c63-84553350d9a1","system_id":"levelo_inurba_marseille","lat":43.33538,"lon":5.37457,"is_reserved":false,"is_disabled":false,"rental_uris":{"android":"levelo://app?vid=37efd0a4-f92f-48f6-8c63-84553350d9a1","ios":"levelo://app?vid=37efd0a4-f92f-48f6-8c63-84553350d9a1"},"vehicle_type_id":"4","last_reported":1770147469,"current_range_meters":4400,"station_id":"st_d46tts09ee8s73dlu43g","pricing_plan_id":"cebpf4jnsgd1na2vs0mg"},{"bike_id":"d59dea0a-9a3a-4720-9082-d4ce95a9ae35","system_id":"levelo_inurba_marseille","lat":43.25877,"lon":5.398915,"is_reserved":false,"is_disabled":false,"rental_uris":{"android":"levelo://app?vid=d59dea0a-9a3a-4720-9082-d4ce95a9ae35","ios":"levelo://app?vid=d59dea0a-9a3a-4720-9082-d4ce95a9ae35"},"vehicle_type_id":"4","last_reported":1770147469,"current_range_meters":4400,"station_id":"ce4bhl92rcd13ifvqghg","pricing_plan_id":"cebpf4jnsgd1na2vs0mg"},{"bike_id":"d3806def-3f0d-4cd5-a0db-087955eff33e","system_id":"levelo_inurba_marseille","lat":43.2455,"lon":5.39512,"is_reserved":false,"is_disabled":false,"rental_uris":{"android":"levelo://app?vid=d3806def-3f0d-4cd5-a0db-087955eff33e","ios":"levelo://app?vid=d3806def-3f0d-4cd5-a0db-087955eff33e"},"vehicle_type_id":"4","last_reported":1770147469,"current_range_meters":4400,"station_id":"ce4bhlp2rcd13ifvqgjg","pricing_plan_id":"cebpf4jnsgd1na2vs0mg"},{"bike_id":"825d0377-73f4-4c37-b256-e3c2000d226a","system_id":"levelo_inurba_marseille","lat":43.3106,"lon":5.37171,"is_reserved":false,"is_disabled":false,"rental_uris":{"android":"levelo://app?vid=825d0377-73f4-4c37-b256-e3c2000d226a","ios":"levelo://app?vid=825d0377-73f4-4c37-b256-e3c2000d226a"},"vehicle_type_id":"4","last_reported":1770147469,"current_range_meters":4800,"station_id":"st_d4kl2rp97mjs73e7tdfg","pricing_plan_id":"cebpf4jnsgd1na2vs0mg"},{"bike_id":"9610637c-abfa-49e6-b3df-3184d436cb26","system_id":"levelo_inurba_marseille","lat":43.26939,"lon":5.4026,"is_reserved":false,"is_disabled":false,"rental_uris":{"android":"levelo://app?vid=9610637c-abfa-49e6-b3df-3184d436cb26","ios":"levelo://app?vid=9610637c-abfa-49e6-b3df-3184d436cb26"},"vehicle_type_id":"4","last_reported":1770147469,"current_range_meters":4800,"station_id":"cjm6bp8fraef2m0cb0m0","pricing_plan_id":"cebpf4jnsgd1na2vs0mg"},{"bike_id":"6ddf7e79-fc33-436a-9f2e-0297899e5607","system_id":"levelo_inurba_marseille","lat":43.28484,"lon":5.48367,"is_reserved":false,"is_disabled":false,"rental_uris":{"android":"levelo://app?vid=6ddf7e79-fc33-436a-9f2e-0297899e5607","ios":"levelo://app?vid=6ddf7e79-fc33-436a-9f2e-0297899e5607"},"vehicle_type_id":"4","last_reported":1770147469,"current_range_meters":4800,"station_id":"","pricing_plan_id":"cebpf4jnsgd1na2vs0mg"},{"bike_id":"03cfe8ff-bad7-4324-a169-164f68b4c260","system_id":"levelo_inurba_marseille","lat":43.337444,"lon":5.374475,"is_reserved":false,"is_disabled":false,"rental_uris":{"android":"levelo://app?vid=03cfe8ff-bad7-4324-a169-164f68b4c260","ios":"levelo://app?vid=03cfe8ff-bad7-4324-a169-164f68b4c260"},"vehicle_type_id":"4","last_reported":1770147469,"current_range_meters":4800,"station_id":"","pricing_plan_id":"cebpf4jnsgd1na2vs0mg"},{"bike_id":"77ee2386-41ea-476e-b76b-f435873f6247","system_id":"levelo_inurba_marseille","lat":43.243876,"lon":5.370565,"is_reserved":false,"is_disabled":false,"rental_uris":{"android":"levelo://app?vid=77ee2386-41ea-476e-b76b-f435873f6247","ios":"levelo://app?vid=77ee2386-41ea-476e-b76b-f435873f6247"},"vehicle_type_id":"4","last_reported":1770147469,"current_range_meters":4800,"station_id":"ce4bhhh2rcd13ifvqfk0","pricing_plan_id":"cebpf4jnsgd1na2vs0mg"},{"bike_id":"2ccce929-95a7-42ec-84b9-1fc8efbe658b","system_id":"levelo_inurba_marseille","lat":43.269568,"lon":5.386322,"is_reserved":false,"is_disabled":false,"rental_uris":{"android":"levelo://app?vid=2ccce929-95a7-42ec-84b9-1fc8efbe658b","ios":"levelo://app?vid=2ccce929-95a7-42ec-84b9-1fc8efbe658b"},"vehicle_type_id":"4","last_reported":1770147469,"current_range_meters":4800,"station_id":"ce4bhh92rcd13ifvqfh0","pricing_plan_id":"cebpf4jnsgd1na2vs0mg"},{"bike_id":"56e0dd43-db59-4a14-ac0c-d950e7030a9a","system_id":"levelo_inurba_marseille","lat":43.33354,"lon":5.41101,"is_reserved":false,"is_disabled":false,"rental_uris":{"android":"levelo://app?vid=56e0dd43-db59-4a14-ac0c-d950e7030a9a","ios":"levelo://app?vid=56e0dd43-db59-4a14-ac0c-d950e7030a9a"},"vehicle_type_id":"4","last_reported":1770147469,"current_range_meters":4800,"station_id":"","pricing_plan_id":"cebpf4jnsgd1na2vs0mg"},{"bike_id":"62393bef-3a20-4c4b-9a55-6ad7e3b93507","system_id":"levelo_inurba_marseille","lat":43.24072,"lon":5.37765,"is_reserved":false,"is_disabled":false,"rental_uris":{"android":"levelo://app?vid=62393bef-3a20-4c4b-9a55-6ad7e3b93507","ios":"levelo://app?vid=62393bef-3a20-4c4b-9a55-6ad7e3b93507"},"vehicle_type_id":"4","last_reported":1770147469,"current_range_meters":4800,"station_id":"ce4bhnp2rcd13ifvqgvg","pricing_plan_id":"cebpf4jnsgd1na2vs0mg"},{"bike_id":"38d1b21c-362b-4138-ae43-1d6483926ed6","system_id":"levelo_inurba_marseille","lat":43.27433,"lon":5.39411,"is_reserved":false,"is_disabled":false,"rental_uris":{"android":"levelo://app?vid=38d1b21c-362b-4138-ae43-1d6483926ed6","ios":"levelo://app?vid=38d1b21c-362b-4138-ae43-1d6483926ed6"},"vehicle_type_id":"4","last_reported":1770147469,"current_range_meters":4800,"station_id":"ce4bhdp2rcd13ifvqf20","pricing_plan_id":"cebpf4jnsgd1na2vs0mg"},{"bike_id":"7f62c33b-7891-4f4a-8eaa-f654babe6969","system_id":"levelo_inurba_marseille","lat":43.299095,"lon":5.381529,"is_reserved":false,"is_disabled":false,"rental_uris":{"android":"levelo://app?vid=7f62c33b-7891-4f4a-8eaa-f654babe6969","ios":"levelo://app?vid=7f62c33b-7891-4f4a-8eaa-f654babe6969"},"vehicle_type_id":"4","last_reported":1770147469,"current_range_meters":4800,"station_id":"ce4bgj12rcd13ifvqbc0","pricing_plan_id":"cebpf4jnsgd1na2vs0mg"},{"bike_id":"c5cba592-c8ea-4299-867c-e35aceae73bc","system_id":"levelo_inurba_marseille","lat":43.31781,"lon":5.38987,"is_reserved":false,"is_disabled":false,"rental_uris":{"android":"levelo://app?vid=c5cba592-c8ea-4299-867c-e35aceae73bc","ios":"levelo://app?vid=c5cba592-c8ea-4299-867c-e35aceae73bc"},"vehicle_type_id":"4","last_reported":1770147469,"current_range_meters":4800,"station_id":"ce4bhqp2rcd13ifvqhng","pricing_plan_id":"cebpf4jnsgd1na2vs0mg"},{"bike_id":"cc7d6a58-2c60-4246-b3ec-60b87c8871b8","system_id":"levelo_inurba_marseille","lat":43.28415,"lon":5.37526,"is_reserved":false,"is_disabled":true,"rental_uris":{"android":"levelo://app?vid=cc7d6a58-2c60-4246-b3ec-60b87c8871b8","ios":"levelo://app?vid=cc7d6a58-2c60-4246-b3ec-60b87c8871b8"},"vehicle_type_id":"4","last_reported":1770147469,"current_range_meters":4800,"station_id":"ce4bh412rcd13ifvqds0","pricing_plan_id":"cebpf4jnsgd1na2vs0mg"},{"bike_id":"ed16150d-e242-4c3b-8666-03414f56dd12","system_id":"levelo_inurba_marseille","lat":43.24816,"lon":5.37458,"is_reserved":false,"is_disabled":false,"rental_uris":{"android":"levelo://app?vid=ed16150d-e242-4c3b-8666-03414f56dd12","ios":"levelo://app?vid=ed16150d-e242-4c3b-8666-03414f56dd12"},"vehicle_type_id":"4","last_reported":1770147469,"current_range_meters":4800,"station_id":"ce4bhgh2rcd13ifvqfb0","pricing_plan_id":"cebpf4jnsgd1na2vs0mg"},{"bike_id":"04f2b816-4fdb-416c-8cd6-0321ddea7cc1","system_id":"levelo_inurba_marseille","lat":43.26322,"lon":5.39851,"is_reserved":false,"is_disabled":false,"rental_uris":{"android":"levelo://app?vid=04f2b816-4fdb-416c-8cd6-0321ddea7cc1","ios":"levelo://app?vid=04f2b816-4fdb-416c-8cd6-0321ddea7cc1"},"vehicle_type_id":"4","last_reported":1770147469,"current_range_meters":5600,"station_id":"ce4bgs12rcd13ifvqcag","pricing_plan_id":"cebpf4jnsgd1na2vs0mg"},{"bike_id":"87c62e45-47ce-4dfa-a48b-ec4108ece939","system_id":"levelo_inurba_marseille","lat":43.27059,"lon":5.40249,"is_reserved":false,"is_disabled":false,"rental_uris":{"android":"levelo://app?vid=87c62e45-47ce-4dfa-a48b-ec4108ece939","ios":"levelo://app?vid=87c62e45-47ce-4dfa-a48b-ec4108ece939"},"vehicle_type_id":"4","last_reported":1770147469,"current_range_meters":5600,"station_id":"ce4bhk92rcd13ifvqgc0","pricing_plan_id":"cebpf4jnsgd1na2vs0mg"},{"bike_id":"7830c5a0-6716-49ce-9fb9-030a83055837","system_id":"levelo_inurba_marseille","lat":43.30316,"lon":5.36921,"is_reserved":false,"is_disabled":true,"rental_uris":{"android":"levelo://app?vid=7830c5a0-6716-49ce-9fb9-030a83055837","ios":"levelo://app?vid=7830c5a0-6716-49ce-9fb9-030a83055837"},"vehicle_type_id":"4","last_reported":1770147469,"current_range_meters":5600,"station_id":"ce4bgqh2rcd13ifvqc5g","pricing_plan_id":"cebpf4jnsgd1na2vs0mg"},{"bike_id":"9e057795-08d0-428c-a4d6-14e223435515","system_id":"levelo_inurba_marseille","lat":43.24582,"lon":5.37373,"is_reserved":false,"is_disabled":false,"rental_uris":{"android":"levelo://app?vid=9e057795-08d0-428c-a4d6-14e223435515","ios":"levelo://app?vid=9e057795-08d0-428c-a4d6-14e223435515"},"vehicle_type_id":"4","last_reported":1770147469,"current_range_meters":5600,"station_id":"","pricing_plan_id":"cebpf4jnsgd1na2vs0mg"},{"bike_id":"141bd124-c814-48f9-b2f7-d0b84fea7cf1","system_id":"levelo_inurba_marseille","lat":43.248139,"lon":5.374526,"is_reserved":false,"is_disabled":false,"rental_uris":{"android":"levelo://app?vid=141bd124-c814-48f9-b2f7-d0b84fea7cf1","ios":"levelo://app?vid=141bd124-c814-48f9-b2f7-d0b84fea7cf1"},"vehicle_type_id":"4","last_reported":1770147469,"current_range_meters":5600,"station_id":"ce4bhgh2rcd13ifvqfb0","pricing_plan_id":"cebpf4jnsgd1na2vs0mg"},{"bike_id":"315f0f65-5d8b-49fe-9a96-c109a0784838","system_id":"levelo_inurba_marseille","lat":43.26793,"lon":5.39456,"is_reserved":false,"is_disabled":false,"rental_uris":{"android":"levelo://app?vid=315f0f65-5d8b-49fe-9a96-c109a0784838","ios":"levelo://app?vid=315f0f65-5d8b-49fe-9a96-c109a0784838"},"vehicle_type_id":"4","last_reported":1770147469,"current_range_meters":5600,"station_id":"ce4bhh12rcd13ifvqfg0","pricing_plan_id":"cebpf4jnsgd1na2vs0mg"},{"bike_id":"3a311b2a-3a28-4f7b-b899-6356039d4a1b","system_id":"levelo_inurba_marseille","lat":43.27836,"lon":5.39204,"is_reserved":false,"is_disabled":false,"rental_uris":{"android":"levelo://app?vid=3a311b2a-3a28-4f7b-b899-6356039d4a1b","ios":"levelo://app?vid=3a311b2a-3a28-4f7b-b899-6356039d4a1b"},"vehicle_type_id":"4","last_reported":1770147469,"current_range_meters":5600,"station_id":"ce4bhjp2rcd13ifvqga0","pricing_plan_id":"cebpf4jnsgd1na2vs0mg"},{"bike_id":"2c870f16-3bbe-4541-9128-096498e2a031","system_id":"levelo_inurba_marseille","lat":43.2928,"lon":5.3685,"is_reserved":false,"is_disabled":false,"rental_uris":{"android":"levelo://app?vid=2c870f16-3bbe-4541-9128-096498e2a031","ios":"levelo://app?vid=2c870f16-3bbe-4541-9128-096498e2a031"},"vehicle_type_id":"4","last_reported":1770147469,"current_range_meters":5600,"station_id":"ce4bhbp2rcd13ifvqesg","pricing_plan_id":"cebpf4jnsgd1na2vs0mg"},{"bike_id":"0dd15602-e048-461b-a9cf-6509567c0da0","system_id":"levelo_inurba_marseille","lat":43.29172,"lon":5.37158,"is_reserved":false,"is_disabled":false,"rental_uris":{"android":"levelo://app?vid=0dd15602-e048-461b-a9cf-6509567c0da0","ios":"levelo://app?vid=0dd15602-e048-461b-a9cf-6509567c0da0"},"vehicle_type_id":"4","last_reported":1770147469,"current_range_meters":5600,"station_id":"ce4bha92rcd13ifvqeh0","pricing_plan_id":"cebpf4jnsgd1na2vs0mg"},{"bike_id":"7ca83133-8918-4ca6-88d8-c5bdca144b76","system_id":"levelo_inurba_marseille","lat":43.26206,"lon":5.37456,"is_reserved":false,"is_disabled":false,"rental_uris":{"android":"levelo://app?vid=7ca83133-8918-4ca6-88d8-c5bdca144b76","ios":"levelo://app?vid=7ca83133-8918-4ca6-88d8-c5bdca144b76"},"vehicle_type_id":"4","last_reported":1770147469,"current_range_meters":5600,"station_id":"ce4bhgp2rcd13ifvqfc0","pricing_plan_id":"cebpf4jnsgd1na2vs0mg"},{"bike_id":"1e4804c7-ea79-4322-b50b-ec05057c9b5a","system_id":"levelo_inurba_marseille","lat":43.29029,"lon":5.3864,"is_reserved":false,"is_disabled":false,"rental_uris":{"android":"levelo://app?vid=1e4804c7-ea79-4322-b50b-ec05057c9b5a","ios":"levelo://app?vid=1e4804c7-ea79-4322-b50b-ec05057c9b5a"},"vehicle_type_id":"4","last_reported":1770147469,"current_range_meters":5600,"station_id":"ce4bh4p2rcd13ifvqe0g","pricing_plan_id":"cebpf4jnsgd1na2vs0mg"},{"bike_id":"46a6cc9f-7cc4-4c36-98fa-d2337377bf24","system_id":"levelo_inurba_marseille","lat":43.3117,"lon":5.3873,"is_reserved":false,"is_disabled":false,"rental_uris":{"android":"levelo://app?vid=46a6cc9f-7cc4-4c36-98fa-d2337377bf24","ios":"levelo://app?vid=46a6cc9f-7cc4-4c36-98fa-d2337377bf24"},"vehicle_type_id":"4","last_reported":1770147469,"current_range_meters":6000,"station_id":"ce4bgv12rcd13ifvqcp0","pricing_plan_id":"cebpf4jnsgd1na2vs0mg"},{"bike_id":"d0b59fd4-6758-4158-b731-7b62c9fb06fe","system_id":"levelo_inurba_marseille","lat":43.28838,"lon":5.35877,"is_reserved":false,"is_disabled":false,"rental_uris":{"android":"levelo://app?vid=d0b59fd4-6758-4158-b731-7b62c9fb06fe","ios":"levelo://app?vid=d0b59fd4-6758-4158-b731-7b62c9fb06fe"},"vehicle_type_id":"4","last_reported":1770147469,"current_range_meters":6000,"station_id":"ce4bhb12rcd13ifvqem0","pricing_plan_id":"cebpf4jnsgd1na2vs0mg"},{"bike_id":"ab5b4f9f-ad6f-4b21-896b-3d7e4bb28591","system_id":"levelo_inurba_marseille","lat":43.26198,"lon":5.37449,"is_reserved":false,"is_disabled":false,"rental_uris":{"android":"levelo://app?vid=ab5b4f9f-ad6f-4b21-896b-3d7e4bb28591","ios":"levelo://app?vid=ab5b4f9f-ad6f-4b21-896b-3d7e4bb28591"},"vehicle_type_id":"4","last_reported":1770147469,"current_range_meters":6000,"station_id":"ce4bhgp2rcd13ifvqfc0","pricing_plan_id":"cebpf4jnsgd1na2vs0mg"},{"bike_id":"8e351b29-33b5-408a-9acf-1ccdde3b9ce6","system_id":"levelo_inurba_marseille","lat":43.28563,"lon":5.39495,"is_reserved":false,"is_disabled":false,"rental_uris":{"android":"levelo://app?vid=8e351b29-33b5-408a-9acf-1ccdde3b9ce6","ios":"levelo://app?vid=8e351b29-33b5-408a-9acf-1ccdde3b9ce6"},"vehicle_type_id":"4","last_reported":1770147469,"current_range_meters":6000,"station_id":"ce4bh292rcd13ifvqdg0","pricing_plan_id":"cebpf4jnsgd1na2vs0mg"},{"bike_id":"eb1b2124-84d2-467d-b1f5-56516dcfd958","system_id":"levelo_inurba_marseille","lat":43.21189,"lon":5.3508,"is_reserved":false,"is_disabled":false,"rental_uris":{"android":"levelo://app?vid=eb1b2124-84d2-467d-b1f5-56516dcfd958","ios":"levelo://app?vid=eb1b2124-84d2-467d-b1f5-56516dcfd958"},"vehicle_type_id":"4","last_reported":1770147469,"current_range_meters":6000,"station_id":"","pricing_plan_id":"cebpf4jnsgd1na2vs0mg"},{"bike_id":"bcec4f6c-e07c-44d5-955d-2402cc53b633","system_id":"levelo_inurba_marseille","lat":43.29517,"lon":5.39045,"is_reserved":false,"is_disabled":false,"rental_uris":{"android":"levelo://app?vid=bcec4f6c-e07c-44d5-955d-2402cc53b633","ios":"levelo://app?vid=bcec4f6c-e07c-44d5-955d-2402cc53b633"},"vehicle_type_id":"4","last_reported":1770147469,"current_range_meters":6000,"station_id":"ce4bh3p2rcd13ifvqdp0","pricing_plan_id":"cebpf4jnsgd1na2vs0mg"},{"bike_id":"0e834074-a264-4771-9012-2dbbbdaa43fb","system_id":"levelo_inurba_marseille","lat":43.28105,"lon":5.37871,"is_reserved":false,"is_disabled":false,"rental_uris":{"android":"levelo://app?vid=0e834074-a264-4771-9012-2dbbbdaa43fb","ios":"levelo://app?vid=0e834074-a264-4771-9012-2dbbbdaa43fb"},"vehicle_type_id":"4","last_reported":1770147469,"current_range_meters":6000,"station_id":"ce4bha12rcd13ifvqee0","pricing_plan_id":"cebpf4jnsgd1na2vs0mg"},{"bike_id":"7de714e1-e1e3-4cef-a665-bf94e4caea8c","system_id":"levelo_inurba_marseille","lat":43.22563,"lon":5.41594,"is_reserved":false,"is_disabled":false,"rental_uris":{"android":"levelo://app?vid=7de714e1-e1e3-4cef-a665-bf94e4caea8c","ios":"levelo://app?vid=7de714e1-e1e3-4cef-a665-bf94e4caea8c"},"vehicle_type_id":"4","last_reported":1770147469,"current_range_meters":6000,"station_id":"st_d2o4gvlbi1j2169b742g","pricing_plan_id":"cebpf4jnsgd1na2vs0mg"},{"bike_id":"413ca1e5-515a-4601-b78b-8729f8f0fbfd","system_id":"levelo_inurba_marseille","lat":43.30114,"lon":5.43112,"is_reserved":false,"is_disabled":false,"rental_uris":{"android":"levelo://app?vid=413ca1e5-515a-4601-b78b-8729f8f0fbfd","ios":"levelo://app?vid=413ca1e5-515a-4601-b78b-8729f8f0fbfd"},"vehicle_type_id":"4","last_reported":1770147469,"current_range_meters":6000,"station_id":"st_d3js3co5814s73ftftug","pricing_plan_id":"cebpf4jnsgd1na2vs0mg"},{"bike_id":"d46ff533-0eee-4665-b81c-0e20854ee49c","system_id":"levelo_inurba_marseille","lat":43.29917,"lon":5.36481,"is_reserved":false,"is_disabled":false,"rental_uris":{"android":"levelo://app?vid=d46ff533-0eee-4665-b81c-0e20854ee49c","ios":"levelo://app?vid=d46ff533-0eee-4665-b81c-0e20854ee49c"},"vehicle_type_id":"4","last_reported":1770147469,"current_range_meters":6000,"station_id":"","pricing_plan_id":"cebpf4jnsgd1na2vs0mg"},{"bike_id":"d96b5276-ddb9-4dda-bf61-4ae90512437d","system_id":"levelo_inurba_marseille","lat":43.24166,"lon":5.36422,"is_reserved":false,"is_disabled":false,"rental_uris":{"android":"levelo://app?vid=d96b5276-ddb9-4dda-bf61-4ae90512437d","ios":"levelo://app?vid=d96b5276-ddb9-4dda-bf61-4ae90512437d"},"vehicle_type_id":"4","last_reported":1770147469,"current_range_meters":6000,"station_id":"cpo36qri1sfpv3e86is0","pricing_plan_id":"cebpf4jnsgd1na2vs0mg"},{"bike_id":"2360117f-e14f-4f9c-b273-a3b0a85bbecc","system_id":"levelo_inurba_marseille","lat":43.31159,"lon":5.38723,"is_reserved":false,"is_disabled":false,"rental_uris":{"android":"levelo://app?vid=2360117f-e14f-4f9c-b273-a3b0a85bbecc","ios":"levelo://app?vid=2360117f-e14f-4f9c-b273-a3b0a85bbecc"},"vehicle_type_id":"4","last_reported":1770147469,"current_range_meters":6000,"station_id":"ce4bgv12rcd13ifvqcp0","pricing_plan_id":"cebpf4jnsgd1na2vs0mg"},{"bike_id":"549d637b-91c5-48ec-83fa-865a463b6a4b","system_id":"levelo_inurba_marseille","lat":43.23189,"lon":5.35533,"is_reserved":false,"is_disabled":false,"rental_uris":{"android":"levelo://app?vid=549d637b-91c5-48ec-83fa-865a463b6a4b","ios":"levelo://app?vid=549d637b-91c5-48ec-83fa-865a463b6a4b"},"vehicle_type_id":"4","last_reported":1770147469,"current_range_meters":6000,"station_id":"ce4bhu92rcd13ifvqi70","pricing_plan_id":"cebpf4jnsgd1na2vs0mg"},{"bike_id":"e38f544f-f996-477c-b7d2-6313026ffb89","system_id":"levelo_inurba_marseille","lat":43.24812,"lon":5.37464,"is_reserved":false,"is_disabled":false,"rental_uris":{"android":"levelo://app?vid=e38f544f-f996-477c-b7d2-6313026ffb89","ios":"levelo://app?vid=e38f544f-f996-477c-b7d2-6313026ffb89"},"vehicle_type_id":"4","last_reported":1770147469,"current_range_meters":6000,"station_id":"ce4bhgh2rcd13ifvqfb0","pricing_plan_id":"cebpf4jnsgd1na2vs0mg"},{"bike_id":"b420895b-0efa-4e27-b05b-8564aace2dfd","system_id":"levelo_inurba_marseille","lat":43.28619,"lon":5.35101,"is_reserved":false,"is_disabled":false,"rental_uris":{"android":"levelo://app?vid=b420895b-0efa-4e27-b05b-8564aace2dfd","ios":"levelo://app?vid=b420895b-0efa-4e27-b05b-8564aace2dfd"},"vehicle_type_id":"4","last_reported":1770147469,"current_range_meters":6000,"station_id":"","pricing_plan_id":"cebpf4jnsgd1na2vs0mg"},{"bike_id":"34e4497e-004e-4d33-b563-df43c3f1dff0","system_id":"levelo_inurba_marseille","lat":43.29156,"lon":5.38808,"is_reserved":false,"is_disabled":false,"rental_uris":{"android":"levelo://app?vid=34e4497e-004e-4d33-b563-df43c3f1dff0","ios":"levelo://app?vid=34e4497e-004e-4d33-b563-df43c3f1dff0"},"vehicle_type_id":"4","last_reported":1770147469,"current_range_meters":6000,"station_id":"ce4bh4p2rcd13ifvqe0g","pricing_plan_id":"cebpf4jnsgd1na2vs0mg"},{"bike_id":"a3d3a949-e6a8-49ab-9f8a-4cfb992af1b3","system_id":"levelo_inurba_marseille","lat":43.21202,"lon":5.35067,"is_reserved":false,"is_disabled":false,"rental_uris":{"android":"levelo://app?vid=a3d3a949-e6a8-49ab-9f8a-4cfb992af1b3","ios":"levelo://app?vid=a3d3a949-e6a8-49ab-9f8a-4cfb992af1b3"},"vehicle_type_id":"4","last_reported":1770147469,"current_range_meters":6000,"station_id":"","pricing_plan_id":"cebpf4jnsgd1na2vs0mg"},{"bike_id":"34d60330-3f7e-4aeb-acc6-eff17043fba2","system_id":"levelo_inurba_marseille","lat":43.29633,"lon":5.38776,"is_reserved":false,"is_disabled":false,"rental_uris":{"android":"levelo://app?vid=34d60330-3f7e-4aeb-acc6-eff17043fba2","ios":"levelo://app?vid=34d60330-3f7e-4aeb-acc6-eff17043fba2"},"vehicle_type_id":"4","last_reported":1770147469,"current_range_meters":6000,"station_id":"","pricing_plan_id":"cebpf4jnsgd1na2vs0mg"},{"bike_id":"d4a6733e-e86c-4a20-af8a-06cb5c253b05","system_id":"levelo_inurba_marseille","lat":43.27209,"lon":5.39194,"is_reserved":false,"is_disabled":false,"rental_uris":{"android":"levelo://app?vid=d4a6733e-e86c-4a20-af8a-06cb5c253b05","ios":"levelo://app?vid=d4a6733e-e86c-4a20-af8a-06cb5c253b05"},"vehicle_type_id":"4","last_reported":1770147469,"current_range_meters":6000,"station_id":"ce4bhhp2rcd13ifvqfm0","pricing_plan_id":"cebpf4jnsgd1na2vs0mg"},{"bike_id":"24a82906-76bb-48d2-9981-005c74ea0493","system_id":"levelo_inurba_marseille","lat":43.29259,"lon":5.3845,"is_reserved":false,"is_disabled":false,"rental_uris":{"android":"levelo://app?vid=24a82906-76bb-48d2-9981-005c74ea0493","ios":"levelo://app?vid=24a82906-76bb-48d2-9981-005c74ea0493"},"vehicle_type_id":"4","last_reported":1770147469,"current_range_meters":6000,"station_id":"ce4bh692rcd13ifvqea0","pricing_plan_id":"cebpf4jnsgd1na2vs0mg"},{"bike_id":"a3187843-b85c-41a1-aa14-9274fed66704","system_id":"levelo_inurba_marseille","lat":43.29037,"lon":5.37557,"is_reserved":false,"is_disabled":true,"rental_uris":{"android":"levelo://app?vid=a3187843-b85c-41a1-aa14-9274fed66704","ios":"levelo://app?vid=a3187843-b85c-41a1-aa14-9274fed66704"},"vehicle_type_id":"4","last_reported":1770147469,"current_range_meters":6000,"station_id":"ce4bh692rcd13ifvqe90","pricing_plan_id":"cebpf4jnsgd1na2vs0mg"},{"bike_id":"f8e7e4d9-f87a-42a2-9144-b6886b943f25","system_id":"levelo_inurba_marseille","lat":43.25018,"lon":5.38971,"is_reserved":false,"is_disabled":false,"rental_uris":{"android":"levelo://app?vid=f8e7e4d9-f87a-42a2-9144-b6886b943f25","ios":"levelo://app?vid=f8e7e4d9-f87a-42a2-9144-b6886b943f25"},"vehicle_type_id":"4","last_reported":1770147469,"current_range_meters":6400,"station_id":"ce4bhgp2rcd13ifvqfd0","pricing_plan_id":"cebpf4jnsgd1na2vs0mg"},{"bike_id":"151047fe-b117-41cf-9416-4f91d0d3c1a9","system_id":"levelo_inurba_marseille","lat":43.31856,"lon":5.36908,"is_reserved":false,"is_disabled":false,"rental_uris":{"android":"levelo://app?vid=151047fe-b117-41cf-9416-4f91d0d3c1a9","ios":"levelo://app?vid=151047fe-b117-41cf-9416-4f91d0d3c1a9"},"vehicle_type_id":"4","last_reported":1770147469,"current_range_meters":6400,"station_id":"","pricing_plan_id":"cebpf4jnsgd1na2vs0mg"},{"bike_id":"fd4003f9-ae57-43d9-af54-09e855d38b22","system_id":"levelo_inurba_marseille","lat":43.28529,"lon":5.44108,"is_reserved":false,"is_disabled":false,"rental_uris":{"android":"levelo://app?vid=fd4003f9-ae57-43d9-af54-09e855d38b22","ios":"levelo://app?vid=fd4003f9-ae57-43d9-af54-09e855d38b22"},"vehicle_type_id":"4","last_reported":1770147469,"current_range_meters":6400,"station_id":"st_d3j3df2ikq2c7380ej80","pricing_plan_id":"cebpf4jnsgd1na2vs0mg"},{"bike_id":"67949cb0-ad73-42aa-8494-c2a7d6735f87","system_id":"levelo_inurba_marseille","lat":43.3123,"lon":5.36885,"is_reserved":false,"is_disabled":false,"rental_uris":{"android":"levelo://app?vid=67949cb0-ad73-42aa-8494-c2a7d6735f87","ios":"levelo://app?vid=67949cb0-ad73-42aa-8494-c2a7d6735f87"},"vehicle_type_id":"4","last_reported":1770147469,"current_range_meters":6400,"station_id":"ce4bgl92rcd13ifvqbq0","pricing_plan_id":"cebpf4jnsgd1na2vs0mg"},{"bike_id":"51a5c4c8-0bea-42dd-80d0-887c29d0356c","system_id":"levelo_inurba_marseille","lat":43.27562,"lon":5.38428,"is_reserved":false,"is_disabled":false,"rental_uris":{"android":"levelo://app?vid=51a5c4c8-0bea-42dd-80d0-887c29d0356c","ios":"levelo://app?vid=51a5c4c8-0bea-42dd-80d0-887c29d0356c"},"vehicle_type_id":"4","last_reported":1770147469,"current_range_meters":6400,"station_id":"ce4bhh92rcd13ifvqfi0","pricing_plan_id":"cebpf4jnsgd1na2vs0mg"},{"bike_id":"c42f2b39-ad01-446e-8300-846276cf6895","system_id":"levelo_inurba_marseille","lat":43.30527,"lon":5.36529,"is_reserved":false,"is_disabled":false,"rental_uris":{"android":"levelo://app?vid=c42f2b39-ad01-446e-8300-846276cf6895","ios":"levelo://app?vid=c42f2b39-ad01-446e-8300-846276cf6895"},"vehicle_type_id":"4","last_reported":1770147469,"current_range_meters":6400,"station_id":"ce4bgs12rcd13ifvqcag","pricing_plan_id":"cebpf4jnsgd1na2vs0mg"},{"bike_id":"ee3c8b1e-97ff-406d-a180-fc586e84600e","system_id":"levelo_inurba_marseille","lat":43.26926,"lon":5.40277,"is_reserved":false,"is_disabled":false,"rental_uris":{"android":"levelo://app?vid=ee3c8b1e-97ff-406d-a180-fc586e84600e","ios":"levelo://app?vid=ee3c8b1e-97ff-406d-a180-fc586e84600e"},"vehicle_type_id":"4","last_reported":1770147469,"current_range_meters":6400,"station_id":"cjm6bp8fraef2m0cb0m0","pricing_plan_id":"cebpf4jnsgd1na2vs0mg"},{"bike_id":"c3ba0fed-3d29-4191-b8a3-c899b1e9e5ad","system_id":"levelo_inurba_marseille","lat":43.255762,"lon":5.382331,"is_reserved":false,"is_disabled":false,"rental_uris":{"android":"levelo://app?vid=c3ba0fed-3d29-4191-b8a3-c899b1e9e5ad","ios":"levelo://app?vid=c3ba0fed-3d29-4191-b8a3-c899b1e9e5ad"},"vehicle_type_id":"4","last_reported":1770147469,"current_range_meters":6400,"station_id":"ce4bhih2rcd13ifvqfs0","pricing_plan_id":"cebpf4jnsgd1na2vs0mg"},{"bike_id":"5d2a7df9-4ddf-4885-8075-b7755ef05fb8","system_id":"levelo_inurba_marseille","lat":43.23038,"lon":5.40294,"is_reserved":false,"is_disabled":false,"rental_uris":{"android":"levelo://app?vid=5d2a7df9-4ddf-4885-8075-b7755ef05fb8","ios":"levelo://app?vid=5d2a7df9-4ddf-4885-8075-b7755ef05fb8"},"vehicle_type_id":"4","last_reported":1770147469,"current_range_meters":6400,"station_id":"","pricing_plan_id":"cebpf4jnsgd1na2vs0mg"},{"bike_id":"30018880-defb-4e1d-b4b9-524f673acfb8","system_id":"levelo_inurba_marseille","lat":43.29733,"lon":5.42814,"is_reserved":false,"is_disabled":false,"rental_uris":{"android":"levelo://app?vid=30018880-defb-4e1d-b4b9-524f673acfb8","ios":"levelo://app?vid=30018880-defb-4e1d-b4b9-524f673acfb8"},"vehicle_type_id":"4","last_reported":1770147469,"current_range_meters":6400,"station_id":"st_d3md5207bmas73dh9klg","pricing_plan_id":"cebpf4jnsgd1na2vs0mg"},{"bike_id":"d709c60c-8cf9-4df8-8ca5-62381d83bfab","system_id":"levelo_inurba_marseille","lat":43.26488,"lon":5.39546,"is_reserved":false,"is_disabled":false,"rental_uris":{"android":"levelo://app?vid=d709c60c-8cf9-4df8-8ca5-62381d83bfab","ios":"levelo://app?vid=d709c60c-8cf9-4df8-8ca5-62381d83bfab"},"vehicle_type_id":"4","last_reported":1770147469,"current_range_meters":6400,"station_id":"ce4bhi12rcd13ifvqfq0","pricing_plan_id":"cebpf4jnsgd1na2vs0mg"},{"bike_id":"edcb87a3-89fd-4c81-b16f-a9efdb1bc6b7","system_id":"levelo_inurba_marseille","lat":43.272627,"lon":5.382683,"is_reserved":false,"is_disabled":true,"rental_uris":{"android":"levelo://app?vid=edcb87a3-89fd-4c81-b16f-a9efdb1bc6b7","ios":"levelo://app?vid=edcb87a3-89fd-4c81-b16f-a9efdb1bc6b7"},"vehicle_type_id":"4","last_reported":1770147469,"current_range_meters":6400,"station_id":"","pricing_plan_id":"cebpf4jnsgd1na2vs0mg"},{"bike_id":"6ac82671-eb55-4f6e-81d0-63587b155509","system_id":"levelo_inurba_marseille","lat":43.285587,"lon":5.394082,"is_reserved":false,"is_disabled":false,"rental_uris":{"android":"levelo://app?vid=6ac82671-eb55-4f6e-81d0-63587b155509","ios":"levelo://app?vid=6ac82671-eb55-4f6e-81d0-63587b155509"},"vehicle_type_id":"4","last_reported":1770147469,"current_range_meters":6400,"station_id":"ce4bh292rcd13ifvqdg0","pricing_plan_id":"cebpf4jnsgd1na2vs0mg"},{"bike_id":"9895bb8c-cb87-48e9-9a6a-4c0604a5d416","system_id":"levelo_inurba_marseille","lat":43.24484,"lon":5.42537,"is_reserved":false,"is_disabled":false,"rental_uris":{"android":"levelo://app?vid=9895bb8c-cb87-48e9-9a6a-4c0604a5d416","ios":"levelo://app?vid=9895bb8c-cb87-48e9-9a6a-4c0604a5d416"},"vehicle_type_id":"4","last_reported":1770147469,"current_range_meters":6400,"station_id":"st_d4a3vfp97mjs738cd8kg","pricing_plan_id":"cebpf4jnsgd1na2vs0mg"},{"bike_id":"7dd10985-704d-4665-9810-e2ed829fe22a","system_id":"levelo_inurba_marseille","lat":43.29265,"lon":5.38433,"is_reserved":false,"is_disabled":false,"rental_uris":{"android":"levelo://app?vid=7dd10985-704d-4665-9810-e2ed829fe22a","ios":"levelo://app?vid=7dd10985-704d-4665-9810-e2ed829fe22a"},"vehicle_type_id":"4","last_reported":1770147469,"current_range_meters":6400,"station_id":"ce4bh692rcd13ifvqea0","pricing_plan_id":"cebpf4jnsgd1na2vs0mg"},{"bike_id":"ae829aa0-a378-4f8e-8bdb-39cf39c29d8a","system_id":"levelo_inurba_marseille","lat":43.273375,"lon":5.390723,"is_reserved":false,"is_disabled":false,"rental_uris":{"android":"levelo://app?vid=ae829aa0-a378-4f8e-8bdb-39cf39c29d8a","ios":"levelo://app?vid=ae829aa0-a378-4f8e-8bdb-39cf39c29d8a"},"vehicle_type_id":"4","last_reported":1770147469,"current_range_meters":6400,"station_id":"ce4bhgp2rcd13ifvqfe0","pricing_plan_id":"cebpf4jnsgd1na2vs0mg"},{"bike_id":"fe1ff661-c73e-4d40-82f4-d79ba766b135","system_id":"levelo_inurba_marseille","lat":43.29605,"lon":5.37706,"is_reserved":false,"is_disabled":false,"rental_uris":{"android":"levelo://app?vid=fe1ff661-c73e-4d40-82f4-d79ba766b135","ios":"levelo://app?vid=fe1ff661-c73e-4d40-82f4-d79ba766b135"},"vehicle_type_id":"4","last_reported":1770147469,"current_range_meters":6400,"station_id":"ce4bgi92rcd13ifvqb90","pricing_plan_id":"cebpf4jnsgd1na2vs0mg"},{"bike_id":"deb9e4eb-a481-4dbd-9838-7e21c4114a77","system_id":"levelo_inurba_marseille","lat":43.24643,"lon":5.38898,"is_reserved":false,"is_disabled":false,"rental_uris":{"android":"levelo://app?vid=deb9e4eb-a481-4dbd-9838-7e21c4114a77","ios":"levelo://app?vid=deb9e4eb-a481-4dbd-9838-7e21c4114a77"},"vehicle_type_id":"4","last_reported":1770147469,"current_range_meters":6400,"station_id":"ce4bhg12rcd13ifvqf60","pricing_plan_id":"cebpf4jnsgd1na2vs0mg"},{"bike_id":"26e2dbb7-466a-42a8-964a-0557cc18613b","system_id":"levelo_inurba_marseille","lat":43.273261,"lon":5.390794,"is_reserved":false,"is_disabled":false,"rental_uris":{"android":"levelo://app?vid=26e2dbb7-466a-42a8-964a-0557cc18613b","ios":"levelo://app?vid=26e2dbb7-466a-42a8-964a-0557cc18613b"},"vehicle_type_id":"4","last_reported":1770147469,"current_range_meters":6400,"station_id":"ce4bgip2rcd13ifvqbb0","pricing_plan_id":"cebpf4jnsgd1na2vs0mg"},{"bike_id":"3f65ac82-07e9-43d7-ad5b-47792d8a4550","system_id":"levelo_inurba_marseille","lat":43.28159,"lon":5.42642,"is_reserved":false,"is_disabled":false,"rental_uris":{"android":"levelo://app?vid=3f65ac82-07e9-43d7-ad5b-47792d8a4550","ios":"levelo://app?vid=3f65ac82-07e9-43d7-ad5b-47792d8a4550"},"vehicle_type_id":"4","last_reported":1770147469,"current_range_meters":6400,"station_id":"ce4bhnh2rcd13ifvqgug","pricing_plan_id":"cebpf4jnsgd1na2vs0mg"},{"bike_id":"40c4bd28-bd00-4ad6-9a95-78f147c53e6a","system_id":"levelo_inurba_marseille","lat":43.27426,"lon":5.39405,"is_reserved":false,"is_disabled":false,"rental_uris":{"android":"levelo://app?vid=40c4bd28-bd00-4ad6-9a95-78f147c53e6a","ios":"levelo://app?vid=40c4bd28-bd00-4ad6-9a95-78f147c53e6a"},"vehicle_type_id":"4","last_reported":1770147469,"current_range_meters":6400,"station_id":"ce4bhdp2rcd13ifvqf20","pricing_plan_id":"cebpf4jnsgd1na2vs0mg"},{"bike_id":"c269eff6-7414-4fb8-b35a-8132e5c63b79","system_id":"levelo_inurba_marseille","lat":43.25007,"lon":5.38959,"is_reserved":false,"is_disabled":false,"rental_uris":{"android":"levelo://app?vid=c269eff6-7414-4fb8-b35a-8132e5c63b79","ios":"levelo://app?vid=c269eff6-7414-4fb8-b35a-8132e5c63b79"},"vehicle_type_id":"4","last_reported":1770147469,"current_range_meters":6400,"station_id":"ce4bhgp2rcd13ifvqfd0","pricing_plan_id":"cebpf4jnsgd1na2vs0mg"},{"bike_id":"dcaa4a8f-eeeb-4a65-b90b-db85565e00da","system_id":"levelo_inurba_marseille","lat":43.24155,"lon":5.36422,"is_reserved":false,"is_disabled":false,"rental_uris":{"android":"levelo://app?vid=dcaa4a8f-eeeb-4a65-b90b-db85565e00da","ios":"levelo://app?vid=dcaa4a8f-eeeb-4a65-b90b-db85565e00da"},"vehicle_type_id":"4","last_reported":1770147469,"current_range_meters":6800,"station_id":"cpo36qri1sfpv3e86is0","pricing_plan_id":"cebpf4jnsgd1na2vs0mg"},{"bike_id":"5ae76a3b-874b-4b31-b859-bbf19cfc30a2","system_id":"levelo_inurba_marseille","lat":43.295288,"lon":5.390517,"is_reserved":false,"is_disabled":false,"rental_uris":{"android":"levelo://app?vid=5ae76a3b-874b-4b31-b859-bbf19cfc30a2","ios":"levelo://app?vid=5ae76a3b-874b-4b31-b859-bbf19cfc30a2"},"vehicle_type_id":"4","last_reported":1770147469,"current_range_meters":6800,"station_id":"ce4bh3p2rcd13ifvqdp0","pricing_plan_id":"cebpf4jnsgd1na2vs0mg"},{"bike_id":"2bf19671-0061-46e9-83e3-55d71bb70148","system_id":"levelo_inurba_marseille","lat":43.22932,"lon":5.35386,"is_reserved":false,"is_disabled":false,"rental_uris":{"android":"levelo://app?vid=2bf19671-0061-46e9-83e3-55d71bb70148","ios":"levelo://app?vid=2bf19671-0061-46e9-83e3-55d71bb70148"},"vehicle_type_id":"4","last_reported":1770147469,"current_range_meters":6800,"station_id":"cpo3532slgdg3j2ikp40","pricing_plan_id":"cebpf4jnsgd1na2vs0mg"},{"bike_id":"530b3fec-7af4-45eb-bf12-cc02b58eae44","system_id":"levelo_inurba_marseille","lat":43.24665,"lon":5.38156,"is_reserved":false,"is_disabled":false,"rental_uris":{"android":"levelo://app?vid=530b3fec-7af4-45eb-bf12-cc02b58eae44","ios":"levelo://app?vid=530b3fec-7af4-45eb-bf12-cc02b58eae44"},"vehicle_type_id":"4","last_reported":1770147469,"current_range_meters":6800,"station_id":"ce4bhih2rcd13ifvqfr0","pricing_plan_id":"cebpf4jnsgd1na2vs0mg"},{"bike_id":"33b4983b-12f9-44d8-b800-0a8b8c975eef","system_id":"levelo_inurba_marseille","lat":43.28139,"lon":5.42607,"is_reserved":false,"is_disabled":false,"rental_uris":{"android":"levelo://app?vid=33b4983b-12f9-44d8-b800-0a8b8c975eef","ios":"levelo://app?vid=33b4983b-12f9-44d8-b800-0a8b8c975eef"},"vehicle_type_id":"4","last_reported":1770147469,"current_range_meters":6800,"station_id":"ce4bhnh2rcd13ifvqgug","pricing_plan_id":"cebpf4jnsgd1na2vs0mg"},{"bike_id":"9603d6ad-6836-471d-b714-25df8fe511f9","system_id":"levelo_inurba_marseille","lat":43.29535,"lon":5.37515,"is_reserved":false,"is_disabled":false,"rental_uris":{"android":"levelo://app?vid=9603d6ad-6836-471d-b714-25df8fe511f9","ios":"levelo://app?vid=9603d6ad-6836-471d-b714-25df8fe511f9"},"vehicle_type_id":"4","last_reported":1770147469,"current_range_meters":6800,"station_id":"ce4bgkp2rcd13ifvqbmg","pricing_plan_id":"cebpf4jnsgd1na2vs0mg"},{"bike_id":"bcbaa8a6-886f-4091-ae26-8ec7b68ef274","system_id":"levelo_inurba_marseille","lat":43.23809,"lon":5.36684,"is_reserved":false,"is_disabled":false,"rental_uris":{"android":"levelo://app?vid=bcbaa8a6-886f-4091-ae26-8ec7b68ef274","ios":"levelo://app?vid=bcbaa8a6-886f-4091-ae26-8ec7b68ef274"},"vehicle_type_id":"4","last_reported":1770147469,"current_range_meters":6800,"station_id":"st_d3nk18o9ro0c73en2l3g","pricing_plan_id":"cebpf4jnsgd1na2vs0mg"},{"bike_id":"73ab5421-ca7f-4040-91f5-55c62910632e","system_id":"levelo_inurba_marseille","lat":43.26238,"lon":5.40471,"is_reserved":false,"is_disabled":false,"rental_uris":{"android":"levelo://app?vid=73ab5421-ca7f-4040-91f5-55c62910632e","ios":"levelo://app?vid=73ab5421-ca7f-4040-91f5-55c62910632e"},"vehicle_type_id":"4","last_reported":1770147469,"current_range_meters":6800,"station_id":"ce4bhmh2rcd13ifvqgmg","pricing_plan_id":"cebpf4jnsgd1na2vs0mg"},{"bike_id":"40954e61-dd73-4b29-8cc4-cc138532c8aa","system_id":"levelo_inurba_marseille","lat":43.29228,"lon":5.42519,"is_reserved":false,"is_disabled":false,"rental_uris":{"android":"levelo://app?vid=40954e61-dd73-4b29-8cc4-cc138532c8aa","ios":"levelo://app?vid=40954e61-dd73-4b29-8cc4-cc138532c8aa"},"vehicle_type_id":"4","last_reported":1770147469,"current_range_meters":6800,"station_id":"","pricing_plan_id":"cebpf4jnsgd1na2vs0mg"},{"bike_id":"5206eedc-908d-4fe2-bdc4-a2088b39b241","system_id":"levelo_inurba_marseille","lat":43.24459,"lon":5.42527,"is_reserved":false,"is_disabled":false,"rental_uris":{"android":"levelo://app?vid=5206eedc-908d-4fe2-bdc4-a2088b39b241","ios":"levelo://app?vid=5206eedc-908d-4fe2-bdc4-a2088b39b241"},"vehicle_type_id":"4","last_reported":1770147469,"current_range_meters":6800,"station_id":"st_d4a3vfp97mjs738cd8kg","pricing_plan_id":"cebpf4jnsgd1na2vs0mg"},{"bike_id":"0e055c47-f11e-49b4-a618-d2cb3b1a2e99","system_id":"levelo_inurba_marseille","lat":43.2721,"lon":5.39181,"is_reserved":false,"is_disabled":false,"rental_uris":{"android":"levelo://app?vid=0e055c47-f11e-49b4-a618-d2cb3b1a2e99","ios":"levelo://app?vid=0e055c47-f11e-49b4-a618-d2cb3b1a2e99"},"vehicle_type_id":"4","last_reported":1770147469,"current_range_meters":6800,"station_id":"ce4bhhp2rcd13ifvqfm0","pricing_plan_id":"cebpf4jnsgd1na2vs0mg"},{"bike_id":"bfec0d79-485a-4bd0-9d67-db1ad8521994","system_id":"levelo_inurba_marseille","lat":43.24814,"lon":5.37458,"is_reserved":false,"is_disabled":false,"rental_uris":{"android":"levelo://app?vid=bfec0d79-485a-4bd0-9d67-db1ad8521994","ios":"levelo://app?vid=bfec0d79-485a-4bd0-9d67-db1ad8521994"},"vehicle_type_id":"4","last_reported":1770147469,"current_range_meters":6800,"station_id":"ce4bhgh2rcd13ifvqfb0","pricing_plan_id":"cebpf4jnsgd1na2vs0mg"},{"bike_id":"ad52d447-970d-4312-b8b7-a96aeb82b8c4","system_id":"levelo_inurba_marseille","lat":43.29512,"lon":5.39402,"is_reserved":false,"is_disabled":false,"rental_uris":{"android":"levelo://app?vid=ad52d447-970d-4312-b8b7-a96aeb82b8c4","ios":"levelo://app?vid=ad52d447-970d-4312-b8b7-a96aeb82b8c4"},"vehicle_type_id":"4","last_reported":1770147469,"current_range_meters":6800,"station_id":"ce4bh292rcd13ifvqdf0","pricing_plan_id":"cebpf4jnsgd1na2vs0mg"},{"bike_id":"55a26406-35c2-412b-b866-aef6eb4960c3","system_id":"levelo_inurba_marseille","lat":43.30123,"lon":5.36762,"is_reserved":false,"is_disabled":false,"rental_uris":{"android":"levelo://app?vid=55a26406-35c2-412b-b866-aef6eb4960c3","ios":"levelo://app?vid=55a26406-35c2-412b-b866-aef6eb4960c3"},"vehicle_type_id":"4","last_reported":1770147469,"current_range_meters":6800,"station_id":"","pricing_plan_id":"cebpf4jnsgd1na2vs0mg"},{"bike_id":"b68e5b46-cabc-4d65-85ee-a9aa6a81b3f6","system_id":"levelo_inurba_marseille","lat":43.26562,"lon":5.3903,"is_reserved":false,"is_disabled":false,"rental_uris":{"android":"levelo://app?vid=b68e5b46-cabc-4d65-85ee-a9aa6a81b3f6","ios":"levelo://app?vid=b68e5b46-cabc-4d65-85ee-a9aa6a81b3f6"},"vehicle_type_id":"4","last_reported":1770147469,"current_range_meters":6800,"station_id":"ce4bhe12rcd13ifvqf30","pricing_plan_id":"cebpf4jnsgd1na2vs0mg"},{"bike_id":"4651bd72-2cc4-46af-9f28-98a50310723a","system_id":"levelo_inurba_marseille","lat":43.31611,"lon":5.39449,"is_reserved":false,"is_disabled":false,"rental_uris":{"android":"levelo://app?vid=4651bd72-2cc4-46af-9f28-98a50310723a","ios":"levelo://app?vid=4651bd72-2cc4-46af-9f28-98a50310723a"},"vehicle_type_id":"4","last_reported":1770147469,"current_range_meters":6800,"station_id":"","pricing_plan_id":"cebpf4jnsgd1na2vs0mg"},{"bike_id":"5396fda1-c3a0-4d51-8ba0-cfe497a166d7","system_id":"levelo_inurba_marseille","lat":43.26557,"lon":5.38986,"is_reserved":false,"is_disabled":false,"rental_uris":{"android":"levelo://app?vid=5396fda1-c3a0-4d51-8ba0-cfe497a166d7","ios":"levelo://app?vid=5396fda1-c3a0-4d51-8ba0-cfe497a166d7"},"vehicle_type_id":"4","last_reported":1770147469,"current_range_meters":6800,"station_id":"ce4bhe12rcd13ifvqf30","pricing_plan_id":"cebpf4jnsgd1na2vs0mg"},{"bike_id":"588ccdc3-4d5f-42a8-92c2-f7f5e442b368","system_id":"levelo_inurba_marseille","lat":43.27219,"lon":5.39174,"is_reserved":false,"is_disabled":false,"rental_uris":{"android":"levelo://app?vid=588ccdc3-4d5f-42a8-92c2-f7f5e442b368","ios":"levelo://app?vid=588ccdc3-4d5f-42a8-92c2-f7f5e442b368"},"vehicle_type_id":"4","last_reported":1770147469,"current_range_meters":6800,"station_id":"ce4bhhp2rcd13ifvqfm0","pricing_plan_id":"cebpf4jnsgd1na2vs0mg"},{"bike_id":"ad70838b-a701-4756-8e0e-6d5f27668c5d","system_id":"levelo_inurba_marseille","lat":43.24465,"lon":5.42537,"is_reserved":false,"is_disabled":false,"rental_uris":{"android":"levelo://app?vid=ad70838b-a701-4756-8e0e-6d5f27668c5d","ios":"levelo://app?vid=ad70838b-a701-4756-8e0e-6d5f27668c5d"},"vehicle_type_id":"4","last_reported":1770147469,"current_range_meters":7200,"station_id":"st_d4a3vfp97mjs738cd8kg","pricing_plan_id":"cebpf4jnsgd1na2vs0mg"},{"bike_id":"192ab437-2241-4d11-9a2f-2f016771b69d","system_id":"levelo_inurba_marseille","lat":43.29279,"lon":5.38437,"is_reserved":false,"is_disabled":false,"rental_uris":{"android":"levelo://app?vid=192ab437-2241-4d11-9a2f-2f016771b69d","ios":"levelo://app?vid=192ab437-2241-4d11-9a2f-2f016771b69d"},"vehicle_type_id":"4","last_reported":1770147469,"current_range_meters":7200,"station_id":"ce4bh692rcd13ifvqea0","pricing_plan_id":"cebpf4jnsgd1na2vs0mg"},{"bike_id":"d0242e5c-0183-4272-a3e7-75cd0bff3484","system_id":"levelo_inurba_marseille","lat":43.27671,"lon":5.38895,"is_reserved":false,"is_disabled":false,"rental_uris":{"android":"levelo://app?vid=d0242e5c-0183-4272-a3e7-75cd0bff3484","ios":"levelo://app?vid=d0242e5c-0183-4272-a3e7-75cd0bff3484"},"vehicle_type_id":"4","last_reported":1770147469,"current_range_meters":7200,"station_id":"ce4bhi12rcd13ifvqfo0","pricing_plan_id":"cebpf4jnsgd1na2vs0mg"},{"bike_id":"56a1b9ba-7d3b-4d4d-816d-8ff70d14355a","system_id":"levelo_inurba_marseille","lat":43.24661,"lon":5.38163,"is_reserved":false,"is_disabled":false,"rental_uris":{"android":"levelo://app?vid=56a1b9ba-7d3b-4d4d-816d-8ff70d14355a","ios":"levelo://app?vid=56a1b9ba-7d3b-4d4d-816d-8ff70d14355a"},"vehicle_type_id":"4","last_reported":1770147469,"current_range_meters":7200,"station_id":"ce4bhih2rcd13ifvqfr0","pricing_plan_id":"cebpf4jnsgd1na2vs0mg"},{"bike_id":"ec12566a-9d48-438d-80ed-97edb63a2c03","system_id":"levelo_inurba_marseille","lat":43.244673,"lon":5.425285,"is_reserved":false,"is_disabled":false,"rental_uris":{"android":"levelo://app?vid=ec12566a-9d48-438d-80ed-97edb63a2c03","ios":"levelo://app?vid=ec12566a-9d48-438d-80ed-97edb63a2c03"},"vehicle_type_id":"4","last_reported":1770147469,"current_range_meters":7200,"station_id":"st_d4a3vfp97mjs738cd8kg","pricing_plan_id":"cebpf4jnsgd1na2vs0mg"},{"bike_id":"aaf22886-8931-43f5-890d-fc99243945fc","system_id":"levelo_inurba_marseille","lat":43.24173,"lon":5.39624,"is_reserved":false,"is_disabled":false,"rental_uris":{"android":"levelo://app?vid=aaf22886-8931-43f5-890d-fc99243945fc","ios":"levelo://app?vid=aaf22886-8931-43f5-890d-fc99243945fc"},"vehicle_type_id":"4","last_reported":1770147469,"current_range_meters":7200,"station_id":"ce4bhn12rcd13ifvqgpg","pricing_plan_id":"cebpf4jnsgd1na2vs0mg"},{"bike_id":"c1a20a12-e291-4f6c-8802-be95c60440f2","system_id":"levelo_inurba_marseille","lat":43.29286,"lon":5.37452,"is_reserved":false,"is_disabled":false,"rental_uris":{"android":"levelo://app?vid=c1a20a12-e291-4f6c-8802-be95c60440f2","ios":"levelo://app?vid=c1a20a12-e291-4f6c-8802-be95c60440f2"},"vehicle_type_id":"4","last_reported":1770147469,"current_range_meters":7200,"station_id":"ce4bgi12rcd13ifvqb70","pricing_plan_id":"cebpf4jnsgd1na2vs0mg"},{"bike_id":"81f974fe-76a7-4b0a-927b-0f80730a75ae","system_id":"levelo_inurba_marseille","lat":43.29551,"lon":5.38003,"is_reserved":false,"is_disabled":false,"rental_uris":{"android":"levelo://app?vid=81f974fe-76a7-4b0a-927b-0f80730a75ae","ios":"levelo://app?vid=81f974fe-76a7-4b0a-927b-0f80730a75ae"},"vehicle_type_id":"4","last_reported":1770147469,"current_range_meters":7200,"station_id":"","pricing_plan_id":"cebpf4jnsgd1na2vs0mg"},{"bike_id":"e1b3cad6-dccc-4f80-892b-59b83fe43b75","system_id":"levelo_inurba_marseille","lat":43.29572,"lon":5.36721,"is_reserved":false,"is_disabled":false,"rental_uris":{"android":"levelo://app?vid=e1b3cad6-dccc-4f80-892b-59b83fe43b75","ios":"levelo://app?vid=e1b3cad6-dccc-4f80-892b-59b83fe43b75"},"vehicle_type_id":"4","last_reported":1770147469,"current_range_meters":7200,"station_id":"ce4bgph2rcd13ifvqc2g","pricing_plan_id":"cebpf4jnsgd1na2vs0mg"},{"bike_id":"659b2fe8-8a06-4a27-93de-c9d7bd01e359","system_id":"levelo_inurba_marseille","lat":43.2967,"lon":5.37645,"is_reserved":false,"is_disabled":false,"rental_uris":{"android":"levelo://app?vid=659b2fe8-8a06-4a27-93de-c9d7bd01e359","ios":"levelo://app?vid=659b2fe8-8a06-4a27-93de-c9d7bd01e359"},"vehicle_type_id":"4","last_reported":1770147469,"current_range_meters":7200,"station_id":"","pricing_plan_id":"cebpf4jnsgd1na2vs0mg"},{"bike_id":"7f77f6a6-911c-44cf-97f5-71224b3633e0","system_id":"levelo_inurba_marseille","lat":43.25219,"lon":5.38023,"is_reserved":false,"is_disabled":false,"rental_uris":{"android":"levelo://app?vid=7f77f6a6-911c-44cf-97f5-71224b3633e0","ios":"levelo://app?vid=7f77f6a6-911c-44cf-97f5-71224b3633e0"},"vehicle_type_id":"4","last_reported":1770147469,"current_range_meters":7200,"station_id":"","pricing_plan_id":"cebpf4jnsgd1na2vs0mg"},{"bike_id":"3492d7e4-2dea-4cd5-b457-298b87f5c159","system_id":"levelo_inurba_marseille","lat":43.24471,"lon":5.42531,"is_reserved":false,"is_disabled":false,"rental_uris":{"android":"levelo://app?vid=3492d7e4-2dea-4cd5-b457-298b87f5c159","ios":"levelo://app?vid=3492d7e4-2dea-4cd5-b457-298b87f5c159"},"vehicle_type_id":"4","last_reported":1770147469,"current_range_meters":7200,"station_id":"st_d4a3vfp97mjs738cd8kg","pricing_plan_id":"cebpf4jnsgd1na2vs0mg"},{"bike_id":"5b3811ef-5681-4c18-aac4-a62920f9a85c","system_id":"levelo_inurba_marseille","lat":43.28475,"lon":5.51493,"is_reserved":false,"is_disabled":false,"rental_uris":{"android":"levelo://app?vid=5b3811ef-5681-4c18-aac4-a62920f9a85c","ios":"levelo://app?vid=5b3811ef-5681-4c18-aac4-a62920f9a85c"},"vehicle_type_id":"4","last_reported":1770147469,"current_range_meters":7200,"station_id":"","pricing_plan_id":"cebpf4jnsgd1na2vs0mg"},{"bike_id":"268b3e59-efca-4d7c-96e6-576ffb8b0b1b","system_id":"levelo_inurba_marseille","lat":43.280012,"lon":5.400094,"is_reserved":false,"is_disabled":false,"rental_uris":{"android":"levelo://app?vid=268b3e59-efca-4d7c-96e6-576ffb8b0b1b","ios":"levelo://app?vid=268b3e59-efca-4d7c-96e6-576ffb8b0b1b"},"vehicle_type_id":"4","last_reported":1770147469,"current_range_meters":7200,"station_id":"ce4bho92rcd13ifvqh4g","pricing_plan_id":"cebpf4jnsgd1na2vs0mg"},{"bike_id":"8e312380-e745-433d-90b9-ff07a309073d","system_id":"levelo_inurba_marseille","lat":43.24775,"lon":5.37449,"is_reserved":false,"is_disabled":false,"rental_uris":{"android":"levelo://app?vid=8e312380-e745-433d-90b9-ff07a309073d","ios":"levelo://app?vid=8e312380-e745-433d-90b9-ff07a309073d"},"vehicle_type_id":"4","last_reported":1770147469,"current_range_meters":8000,"station_id":"ce4bhgh2rcd13ifvqfb0","pricing_plan_id":"cebpf4jnsgd1na2vs0mg"},{"bike_id":"c056efdd-bfd4-4d90-a2c4-30f136ba140c","system_id":"levelo_inurba_marseille","lat":43.33524,"lon":5.37471,"is_reserved":false,"is_disabled":false,"rental_uris":{"android":"levelo://app?vid=c056efdd-bfd4-4d90-a2c4-30f136ba140c","ios":"levelo://app?vid=c056efdd-bfd4-4d90-a2c4-30f136ba140c"},"vehicle_type_id":"4","last_reported":1770147469,"current_range_meters":8000,"station_id":"st_d46tts09ee8s73dlu43g","pricing_plan_id":"cebpf4jnsgd1na2vs0mg"},{"bike_id":"19212092-138b-4ad7-a971-98f828fee457","system_id":"levelo_inurba_marseille","lat":43.27989,"lon":5.40026,"is_reserved":false,"is_disabled":false,"rental_uris":{"android":"levelo://app?vid=19212092-138b-4ad7-a971-98f828fee457","ios":"levelo://app?vid=19212092-138b-4ad7-a971-98f828fee457"},"vehicle_type_id":"4","last_reported":1770147469,"current_range_meters":8000,"station_id":"ce4bho92rcd13ifvqh4g","pricing_plan_id":"cebpf4jnsgd1na2vs0mg"},{"bike_id":"3496e3d5-ade9-4ef3-89c7-6224a9796381","system_id":"levelo_inurba_marseille","lat":43.23194,"lon":5.35564,"is_reserved":false,"is_disabled":false,"rental_uris":{"android":"levelo://app?vid=3496e3d5-ade9-4ef3-89c7-6224a9796381","ios":"levelo://app?vid=3496e3d5-ade9-4ef3-89c7-6224a9796381"},"vehicle_type_id":"4","last_reported":1770147469,"current_range_meters":8000,"station_id":"ce4bhu92rcd13ifvqi70","pricing_plan_id":"cebpf4jnsgd1na2vs0mg"},{"bike_id":"24f0fa52-db5a-4b1d-ba93-534a10cc363d","system_id":"levelo_inurba_marseille","lat":43.27072,"lon":5.40237,"is_reserved":false,"is_disabled":false,"rental_uris":{"android":"levelo://app?vid=24f0fa52-db5a-4b1d-ba93-534a10cc363d","ios":"levelo://app?vid=24f0fa52-db5a-4b1d-ba93-534a10cc363d"},"vehicle_type_id":"4","last_reported":1770147469,"current_range_meters":8000,"station_id":"ce4bhk92rcd13ifvqgc0","pricing_plan_id":"cebpf4jnsgd1na2vs0mg"},{"bike_id":"59d22411-f372-43da-a2ac-d95b37b8122f","system_id":"levelo_inurba_marseille","lat":43.27331,"lon":5.39102,"is_reserved":false,"is_disabled":false,"rental_uris":{"android":"levelo://app?vid=59d22411-f372-43da-a2ac-d95b37b8122f","ios":"levelo://app?vid=59d22411-f372-43da-a2ac-d95b37b8122f"},"vehicle_type_id":"4","last_reported":1770147469,"current_range_meters":8000,"station_id":"ce4bhgp2rcd13ifvqfe0","pricing_plan_id":"cebpf4jnsgd1na2vs0mg"},{"bike_id":"5268a57b-c5c9-446a-87ff-ede823dc6bfa","system_id":"levelo_inurba_marseille","lat":43.28565,"lon":5.39492,"is_reserved":false,"is_disabled":false,"rental_uris":{"android":"levelo://app?vid=5268a57b-c5c9-446a-87ff-ede823dc6bfa","ios":"levelo://app?vid=5268a57b-c5c9-446a-87ff-ede823dc6bfa"},"vehicle_type_id":"4","last_reported":1770147469,"current_range_meters":8000,"station_id":"ce4bh292rcd13ifvqdg0","pricing_plan_id":"cebpf4jnsgd1na2vs0mg"},{"bike_id":"8afbb3e3-c8e9-40f3-93ec-9104f69158b4","system_id":"levelo_inurba_marseille","lat":43.30422,"lon":5.41279,"is_reserved":false,"is_disabled":false,"rental_uris":{"android":"levelo://app?vid=8afbb3e3-c8e9-40f3-93ec-9104f69158b4","ios":"levelo://app?vid=8afbb3e3-c8e9-40f3-93ec-9104f69158b4"},"vehicle_type_id":"4","last_reported":1770147469,"current_range_meters":8000,"station_id":"ce4bhop2rcd13ifvqh8g","pricing_plan_id":"cebpf4jnsgd1na2vs0mg"},{"bike_id":"02cb8e6d-d72c-4447-a724-d8f35492fa92","system_id":"levelo_inurba_marseille","lat":43.30863,"lon":5.3684,"is_reserved":false,"is_disabled":false,"rental_uris":{"android":"levelo://app?vid=02cb8e6d-d72c-4447-a724-d8f35492fa92","ios":"levelo://app?vid=02cb8e6d-d72c-4447-a724-d8f35492fa92"},"vehicle_type_id":"4","last_reported":1770147469,"current_range_meters":8000,"station_id":"ce4bgn92rcd13ifvqbvg","pricing_plan_id":"cebpf4jnsgd1na2vs0mg"},{"bike_id":"191a99ed-49ff-4737-8f82-7264bf56cc6c","system_id":"levelo_inurba_marseille","lat":43.24997,"lon":5.38923,"is_reserved":false,"is_disabled":false,"rental_uris":{"android":"levelo://app?vid=191a99ed-49ff-4737-8f82-7264bf56cc6c","ios":"levelo://app?vid=191a99ed-49ff-4737-8f82-7264bf56cc6c"},"vehicle_type_id":"4","last_reported":1770147469,"current_range_meters":8000,"station_id":"ce4bhgp2rcd13ifvqfd0","pricing_plan_id":"cebpf4jnsgd1na2vs0mg"},{"bike_id":"5de5e604-6504-4a1a-966a-dc6c49a789b3","system_id":"levelo_inurba_marseille","lat":43.29579,"lon":5.3674,"is_reserved":false,"is_disabled":false,"rental_uris":{"android":"levelo://app?vid=5de5e604-6504-4a1a-966a-dc6c49a789b3","ios":"levelo://app?vid=5de5e604-6504-4a1a-966a-dc6c49a789b3"},"vehicle_type_id":"4","last_reported":1770147469,"current_range_meters":8000,"station_id":"ce4bgph2rcd13ifvqc2g","pricing_plan_id":"cebpf4jnsgd1na2vs0mg"},{"bike_id":"05eab83a-d8b3-45c8-b45b-8761a0e1a489","system_id":"levelo_inurba_marseille","lat":43.27313,"lon":5.39075,"is_reserved":false,"is_disabled":false,"rental_uris":{"android":"levelo://app?vid=05eab83a-d8b3-45c8-b45b-8761a0e1a489","ios":"levelo://app?vid=05eab83a-d8b3-45c8-b45b-8761a0e1a489"},"vehicle_type_id":"4","last_reported":1770147469,"current_range_meters":8000,"station_id":"ce4bhgp2rcd13ifvqfe0","pricing_plan_id":"cebpf4jnsgd1na2vs0mg"},{"bike_id":"fba83296-cf08-4ba9-8267-d1dc13133a44","system_id":"levelo_inurba_marseille","lat":43.26216,"lon":5.40465,"is_reserved":false,"is_disabled":false,"rental_uris":{"android":"levelo://app?vid=fba83296-cf08-4ba9-8267-d1dc13133a44","ios":"levelo://app?vid=fba83296-cf08-4ba9-8267-d1dc13133a44"},"vehicle_type_id":"4","last_reported":1770147469,"current_range_meters":8000,"station_id":"ce4bhmh2rcd13ifvqgmg","pricing_plan_id":"cebpf4jnsgd1na2vs0mg"},{"bike_id":"1b5a9ce0-a712-4e6e-83a1-5b3d08083ec7","system_id":"levelo_inurba_marseille","lat":43.23173,"lon":5.35638,"is_reserved":false,"is_disabled":false,"rental_uris":{"android":"levelo://app?vid=1b5a9ce0-a712-4e6e-83a1-5b3d08083ec7","ios":"levelo://app?vid=1b5a9ce0-a712-4e6e-83a1-5b3d08083ec7"},"vehicle_type_id":"4","last_reported":1770147469,"current_range_meters":8000,"station_id":"","pricing_plan_id":"cebpf4jnsgd1na2vs0mg"},{"bike_id":"71406b05-8557-4ffb-9eac-d1c86c84b1c5","system_id":"levelo_inurba_marseille","lat":43.30251,"lon":5.40048,"is_reserved":false,"is_disabled":false,"rental_uris":{"android":"levelo://app?vid=71406b05-8557-4ffb-9eac-d1c86c84b1c5","ios":"levelo://app?vid=71406b05-8557-4ffb-9eac-d1c86c84b1c5"},"vehicle_type_id":"4","last_reported":1770147469,"current_range_meters":8000,"station_id":"ce4bgvh2rcd13ifvqcs0","pricing_plan_id":"cebpf4jnsgd1na2vs0mg"},{"bike_id":"ccad5bb8-727e-4e27-b0cc-7b2f496ea109","system_id":"levelo_inurba_marseille","lat":43.29542,"lon":5.42369,"is_reserved":false,"is_disabled":false,"rental_uris":{"android":"levelo://app?vid=ccad5bb8-727e-4e27-b0cc-7b2f496ea109","ios":"levelo://app?vid=ccad5bb8-727e-4e27-b0cc-7b2f496ea109"},"vehicle_type_id":"4","last_reported":1770147469,"current_range_meters":8000,"station_id":"","pricing_plan_id":"cebpf4jnsgd1na2vs0mg"},{"bike_id":"b76b0812-c1ce-4144-9b78-716e1fd3e796","system_id":"levelo_inurba_marseille","lat":43.28619,"lon":5.35099,"is_reserved":false,"is_disabled":false,"rental_uris":{"android":"levelo://app?vid=b76b0812-c1ce-4144-9b78-716e1fd3e796","ios":"levelo://app?vid=b76b0812-c1ce-4144-9b78-716e1fd3e796"},"vehicle_type_id":"4","last_reported":1770147469,"current_range_meters":8000,"station_id":"ce4bhch2rcd13ifvqeug","pricing_plan_id":"cebpf4jnsgd1na2vs0mg"},{"bike_id":"ebb15815-1365-488d-a98b-a0d234ebb784","system_id":"levelo_inurba_marseille","lat":43.29533,"lon":5.38534,"is_reserved":false,"is_disabled":false,"rental_uris":{"android":"levelo://app?vid=ebb15815-1365-488d-a98b-a0d234ebb784","ios":"levelo://app?vid=ebb15815-1365-488d-a98b-a0d234ebb784"},"vehicle_type_id":"4","last_reported":1770147469,"current_range_meters":8000,"station_id":"ce4bgih2rcd13ifvqba0","pricing_plan_id":"cebpf4jnsgd1na2vs0mg"},{"bike_id":"c79b9dd9-7162-440b-bba1-e9f7b60e28c7","system_id":"levelo_inurba_marseille","lat":43.29963,"lon":5.38496,"is_reserved":false,"is_disabled":false,"rental_uris":{"android":"levelo://app?vid=c79b9dd9-7162-440b-bba1-e9f7b60e28c7","ios":"levelo://app?vid=c79b9dd9-7162-440b-bba1-e9f7b60e28c7"},"vehicle_type_id":"4","last_reported":1770147469,"current_range_meters":8000,"station_id":"ce4bgj92rcd13ifvqbd0","pricing_plan_id":"cebpf4jnsgd1na2vs0mg"},{"bike_id":"10f7a738-c950-4147-bce6-61a9962a70b5","system_id":"levelo_inurba_marseille","lat":43.25088,"lon":5.39506,"is_reserved":false,"is_disabled":false,"rental_uris":{"android":"levelo://app?vid=10f7a738-c950-4147-bce6-61a9962a70b5","ios":"levelo://app?vid=10f7a738-c950-4147-bce6-61a9962a70b5"},"vehicle_type_id":"4","last_reported":1770147469,"current_range_meters":8000,"station_id":"ce4bhm12rcd13ifvqgkg","pricing_plan_id":"cebpf4jnsgd1na2vs0mg"},{"bike_id":"48d0f5f5-2f02-4b7d-b8d5-1caa14083d04","system_id":"levelo_inurba_marseille","lat":43.262117,"lon":5.37451,"is_reserved":false,"is_disabled":false,"rental_uris":{"android":"levelo://app?vid=48d0f5f5-2f02-4b7d-b8d5-1caa14083d04","ios":"levelo://app?vid=48d0f5f5-2f02-4b7d-b8d5-1caa14083d04"},"vehicle_type_id":"4","last_reported":1770147469,"current_range_meters":8400,"station_id":"ce4bhgp2rcd13ifvqfc0","pricing_plan_id":"cebpf4jnsgd1na2vs0mg"},{"bike_id":"574b46f0-3f1e-4de0-961b-a840353bfcf3","system_id":"levelo_inurba_marseille","lat":43.23785,"lon":5.36619,"is_reserved":false,"is_disabled":false,"rental_uris":{"android":"levelo://app?vid=574b46f0-3f1e-4de0-961b-a840353bfcf3","ios":"levelo://app?vid=574b46f0-3f1e-4de0-961b-a840353bfcf3"},"vehicle_type_id":"4","last_reported":1770147469,"current_range_meters":8400,"station_id":"st_d3nk18o9ro0c73en2l3g","pricing_plan_id":"cebpf4jnsgd1na2vs0mg"},{"bike_id":"85abf2ca-c23c-4f48-b10d-5858680e2422","system_id":"levelo_inurba_marseille","lat":43.262017,"lon":5.379263,"is_reserved":false,"is_disabled":false,"rental_uris":{"android":"levelo://app?vid=85abf2ca-c23c-4f48-b10d-5858680e2422","ios":"levelo://app?vid=85abf2ca-c23c-4f48-b10d-5858680e2422"},"vehicle_type_id":"4","last_reported":1770147469,"current_range_meters":8400,"station_id":"ce4bhjp2rcd13ifvqg90","pricing_plan_id":"cebpf4jnsgd1na2vs0mg"},{"bike_id":"242256f5-f0bd-4204-9565-2087ceacdda5","system_id":"levelo_inurba_marseille","lat":43.22558,"lon":5.41628,"is_reserved":false,"is_disabled":false,"rental_uris":{"android":"levelo://app?vid=242256f5-f0bd-4204-9565-2087ceacdda5","ios":"levelo://app?vid=242256f5-f0bd-4204-9565-2087ceacdda5"},"vehicle_type_id":"4","last_reported":1770147469,"current_range_meters":8400,"station_id":"st_d2o4gvlbi1j2169b742g","pricing_plan_id":"cebpf4jnsgd1na2vs0mg"},{"bike_id":"375a3db7-1ebb-4b76-bd60-68a72a63e92d","system_id":"levelo_inurba_marseille","lat":43.28106,"lon":5.3783,"is_reserved":false,"is_disabled":false,"rental_uris":{"android":"levelo://app?vid=375a3db7-1ebb-4b76-bd60-68a72a63e92d","ios":"levelo://app?vid=375a3db7-1ebb-4b76-bd60-68a72a63e92d"},"vehicle_type_id":"4","last_reported":1770147469,"current_range_meters":8400,"station_id":"ce4bha12rcd13ifvqee0","pricing_plan_id":"cebpf4jnsgd1na2vs0mg"},{"bike_id":"ba3390f5-14ed-4160-abcf-8bea19885613","system_id":"levelo_inurba_marseille","lat":43.28449,"lon":5.48369,"is_reserved":false,"is_disabled":false,"rental_uris":{"android":"levelo://app?vid=ba3390f5-14ed-4160-abcf-8bea19885613","ios":"levelo://app?vid=ba3390f5-14ed-4160-abcf-8bea19885613"},"vehicle_type_id":"4","last_reported":1770147469,"current_range_meters":8400,"station_id":"st_d3svhcjqgbts73a3dn0g","pricing_plan_id":"cebpf4jnsgd1na2vs0mg"},{"bike_id":"1cdaa551-b8a2-43ae-ae1c-f96580e1b52f","system_id":"levelo_inurba_marseille","lat":43.30238,"lon":5.40063,"is_reserved":false,"is_disabled":false,"rental_uris":{"android":"levelo://app?vid=1cdaa551-b8a2-43ae-ae1c-f96580e1b52f","ios":"levelo://app?vid=1cdaa551-b8a2-43ae-ae1c-f96580e1b52f"},"vehicle_type_id":"4","last_reported":1770147469,"current_range_meters":8400,"station_id":"ce4bgvh2rcd13ifvqcs0","pricing_plan_id":"cebpf4jnsgd1na2vs0mg"},{"bike_id":"1e3d4ccf-9335-4b44-aa8e-dd136775382c","system_id":"levelo_inurba_marseille","lat":43.2696,"lon":5.38632,"is_reserved":false,"is_disabled":false,"rental_uris":{"android":"levelo://app?vid=1e3d4ccf-9335-4b44-aa8e-dd136775382c","ios":"levelo://app?vid=1e3d4ccf-9335-4b44-aa8e-dd136775382c"},"vehicle_type_id":"4","last_reported":1770147469,"current_range_meters":8400,"station_id":"ce4bhh92rcd13ifvqfh0","pricing_plan_id":"cebpf4jnsgd1na2vs0mg"},{"bike_id":"b886faeb-2ae5-4849-a4c7-c906741f8bf1","system_id":"levelo_inurba_marseille","lat":43.2658,"lon":5.4032,"is_reserved":false,"is_disabled":false,"rental_uris":{"android":"levelo://app?vid=b886faeb-2ae5-4849-a4c7-c906741f8bf1","ios":"levelo://app?vid=b886faeb-2ae5-4849-a4c7-c906741f8bf1"},"vehicle_type_id":"4","last_reported":1770147469,"current_range_meters":8400,"station_id":"ce4bhmp2rcd13ifvqgng","pricing_plan_id":"cebpf4jnsgd1na2vs0mg"},{"bike_id":"fdc74734-8708-4513-9519-5478f60a2254","system_id":"levelo_inurba_marseille","lat":43.2481,"lon":5.37458,"is_reserved":false,"is_disabled":false,"rental_uris":{"android":"levelo://app?vid=fdc74734-8708-4513-9519-5478f60a2254","ios":"levelo://app?vid=fdc74734-8708-4513-9519-5478f60a2254"},"vehicle_type_id":"4","last_reported":1770147469,"current_range_meters":8400,"station_id":"ce4bhgh2rcd13ifvqfb0","pricing_plan_id":"cebpf4jnsgd1na2vs0mg"},{"bike_id":"068098b6-2917-46c3-bbcd-2f4568f90c7b","system_id":"levelo_inurba_marseille","lat":43.28608,"lon":5.35096,"is_reserved":false,"is_disabled":true,"rental_uris":{"android":"levelo://app?vid=068098b6-2917-46c3-bbcd-2f4568f90c7b","ios":"levelo://app?vid=068098b6-2917-46c3-bbcd-2f4568f90c7b"},"vehicle_type_id":"4","last_reported":1770147469,"current_range_meters":8400,"station_id":"","pricing_plan_id":"cebpf4jnsgd1na2vs0mg"},{"bike_id":"03957cd6-ee2d-47d1-948d-c3da3284d226","system_id":"levelo_inurba_marseille","lat":43.28937,"lon":5.36389,"is_reserved":false,"is_disabled":true,"rental_uris":{"android":"levelo://app?vid=03957cd6-ee2d-47d1-948d-c3da3284d226","ios":"levelo://app?vid=03957cd6-ee2d-47d1-948d-c3da3284d226"},"vehicle_type_id":"4","last_reported":1770147469,"current_range_meters":8400,"station_id":"ce4bhc92rcd13ifvqetg","pricing_plan_id":"cebpf4jnsgd1na2vs0mg"},{"bike_id":"9c7711da-5dad-44a8-8560-b03a82c64417","system_id":"levelo_inurba_marseille","lat":43.25338,"lon":5.42165,"is_reserved":false,"is_disabled":false,"rental_uris":{"android":"levelo://app?vid=9c7711da-5dad-44a8-8560-b03a82c64417","ios":"levelo://app?vid=9c7711da-5dad-44a8-8560-b03a82c64417"},"vehicle_type_id":"4","last_reported":1770147469,"current_range_meters":8400,"station_id":"st_d2m65c5bi1j21697t3ng","pricing_plan_id":"cebpf4jnsgd1na2vs0mg"},{"bike_id":"a1d40264-31fa-4368-a92c-3f50c8a64b96","system_id":"levelo_inurba_marseille","lat":43.231555,"lon":5.437038,"is_reserved":false,"is_disabled":false,"rental_uris":{"android":"levelo://app?vid=a1d40264-31fa-4368-a92c-3f50c8a64b96","ios":"levelo://app?vid=a1d40264-31fa-4368-a92c-3f50c8a64b96"},"vehicle_type_id":"4","last_reported":1770147469,"current_range_meters":8400,"station_id":"ce4bhmp2rcd13ifvqgog","pricing_plan_id":"cebpf4jnsgd1na2vs0mg"},{"bike_id":"efea85db-b1c8-46f7-b3e0-9fa246910aa6","system_id":"levelo_inurba_marseille","lat":43.23192,"lon":5.39985,"is_reserved":false,"is_disabled":false,"rental_uris":{"android":"levelo://app?vid=efea85db-b1c8-46f7-b3e0-9fa246910aa6","ios":"levelo://app?vid=efea85db-b1c8-46f7-b3e0-9fa246910aa6"},"vehicle_type_id":"4","last_reported":1770147469,"current_range_meters":8400,"station_id":"ce4bhn12rcd13ifvqgqg","pricing_plan_id":"cebpf4jnsgd1na2vs0mg"},{"bike_id":"04ab4868-a773-4da8-b9a9-f5fedd6e47ae","system_id":"levelo_inurba_marseille","lat":43.25737,"lon":5.41123,"is_reserved":false,"is_disabled":false,"rental_uris":{"android":"levelo://app?vid=04ab4868-a773-4da8-b9a9-f5fedd6e47ae","ios":"levelo://app?vid=04ab4868-a773-4da8-b9a9-f5fedd6e47ae"},"vehicle_type_id":"4","last_reported":1770147469,"current_range_meters":8400,"station_id":"ce4bhkp2rcd13ifvqgd0","pricing_plan_id":"cebpf4jnsgd1na2vs0mg"},{"bike_id":"b0de10e1-c8dd-4794-bb07-685c2b13619b","system_id":"levelo_inurba_marseille","lat":43.2497,"lon":5.40469,"is_reserved":false,"is_disabled":false,"rental_uris":{"android":"levelo://app?vid=b0de10e1-c8dd-4794-bb07-685c2b13619b","ios":"levelo://app?vid=b0de10e1-c8dd-4794-bb07-685c2b13619b"},"vehicle_type_id":"4","last_reported":1770147469,"current_range_meters":8400,"station_id":"st_d2ngiaodas8pm72gd1h0","pricing_plan_id":"cebpf4jnsgd1na2vs0mg"},{"bike_id":"42765535-7bdc-4f17-87b8-08c4823e2c1a","system_id":"levelo_inurba_marseille","lat":43.26921,"lon":5.40237,"is_reserved":false,"is_disabled":false,"rental_uris":{"android":"levelo://app?vid=42765535-7bdc-4f17-87b8-08c4823e2c1a","ios":"levelo://app?vid=42765535-7bdc-4f17-87b8-08c4823e2c1a"},"vehicle_type_id":"4","last_reported":1770147469,"current_range_meters":8400,"station_id":"cjm6bp8fraef2m0cb0m0","pricing_plan_id":"cebpf4jnsgd1na2vs0mg"},{"bike_id":"30e75f7d-04b1-4c01-a99b-5d4b62e6e035","system_id":"levelo_inurba_marseille","lat":43.24654,"lon":5.38908,"is_reserved":false,"is_disabled":false,"rental_uris":{"android":"levelo://app?vid=30e75f7d-04b1-4c01-a99b-5d4b62e6e035","ios":"levelo://app?vid=30e75f7d-04b1-4c01-a99b-5d4b62e6e035"},"vehicle_type_id":"4","last_reported":1770147469,"current_range_meters":8400,"station_id":"ce4bhg12rcd13ifvqf60","pricing_plan_id":"cebpf4jnsgd1na2vs0mg"},{"bike_id":"d4d04fe6-644e-4e9e-b6d2-1aad5cffa50d","system_id":"levelo_inurba_marseille","lat":43.30731,"lon":5.42446,"is_reserved":false,"is_disabled":false,"rental_uris":{"android":"levelo://app?vid=d4d04fe6-644e-4e9e-b6d2-1aad5cffa50d","ios":"levelo://app?vid=d4d04fe6-644e-4e9e-b6d2-1aad5cffa50d"},"vehicle_type_id":"4","last_reported":1770147469,"current_range_meters":8400,"station_id":"st_cvj6ca6bvosntc0bfgr0","pricing_plan_id":"cebpf4jnsgd1na2vs0mg"},{"bike_id":"f1510834-4f72-4738-aa6c-02f6ddaa6ac3","system_id":"levelo_inurba_marseille","lat":43.24812,"lon":5.37473,"is_reserved":false,"is_disabled":false,"rental_uris":{"android":"levelo://app?vid=f1510834-4f72-4738-aa6c-02f6ddaa6ac3","ios":"levelo://app?vid=f1510834-4f72-4738-aa6c-02f6ddaa6ac3"},"vehicle_type_id":"4","last_reported":1770147469,"current_range_meters":8400,"station_id":"ce4bhgh2rcd13ifvqfb0","pricing_plan_id":"cebpf4jnsgd1na2vs0mg"},{"bike_id":"d25c30ce-208a-4865-aa8f-61a37bd60365","system_id":"levelo_inurba_marseille","lat":43.29542,"lon":5.381,"is_reserved":false,"is_disabled":false,"rental_uris":{"android":"levelo://app?vid=d25c30ce-208a-4865-aa8f-61a37bd60365","ios":"levelo://app?vid=d25c30ce-208a-4865-aa8f-61a37bd60365"},"vehicle_type_id":"4","last_reported":1770147469,"current_range_meters":8400,"station_id":"ce4bgl12rcd13ifvqbo0","pricing_plan_id":"cebpf4jnsgd1na2vs0mg"},{"bike_id":"b3a54eab-b946-460c-8d1b-dbc0ce5bc3c5","system_id":"levelo_inurba_marseille","lat":43.28148,"lon":5.42654,"is_reserved":false,"is_disabled":false,"rental_uris":{"android":"levelo://app?vid=b3a54eab-b946-460c-8d1b-dbc0ce5bc3c5","ios":"levelo://app?vid=b3a54eab-b946-460c-8d1b-dbc0ce5bc3c5"},"vehicle_type_id":"4","last_reported":1770147469,"current_range_meters":8400,"station_id":"ce4bhnh2rcd13ifvqgug","pricing_plan_id":"cebpf4jnsgd1na2vs0mg"},{"bike_id":"5db40262-c973-4b13-b2a9-ee1639ccf6b3","system_id":"levelo_inurba_marseille","lat":43.24816,"lon":5.37451,"is_reserved":false,"is_disabled":false,"rental_uris":{"android":"levelo://app?vid=5db40262-c973-4b13-b2a9-ee1639ccf6b3","ios":"levelo://app?vid=5db40262-c973-4b13-b2a9-ee1639ccf6b3"},"vehicle_type_id":"4","last_reported":1770147469,"current_range_meters":8800,"station_id":"ce4bhgh2rcd13ifvqfb0","pricing_plan_id":"cebpf4jnsgd1na2vs0mg"},{"bike_id":"f5be2924-97aa-4288-a112-ffb353173673","system_id":"levelo_inurba_marseille","lat":43.31755,"lon":5.39009,"is_reserved":false,"is_disabled":false,"rental_uris":{"android":"levelo://app?vid=f5be2924-97aa-4288-a112-ffb353173673","ios":"levelo://app?vid=f5be2924-97aa-4288-a112-ffb353173673"},"vehicle_type_id":"4","last_reported":1770147469,"current_range_meters":8800,"station_id":"ce4bhqp2rcd13ifvqhng","pricing_plan_id":"cebpf4jnsgd1na2vs0mg"},{"bike_id":"a7efc968-5a5b-409e-83b1-0b53bf3c1cca","system_id":"levelo_inurba_marseille","lat":43.28573,"lon":5.39494,"is_reserved":false,"is_disabled":false,"rental_uris":{"android":"levelo://app?vid=a7efc968-5a5b-409e-83b1-0b53bf3c1cca","ios":"levelo://app?vid=a7efc968-5a5b-409e-83b1-0b53bf3c1cca"},"vehicle_type_id":"4","last_reported":1770147469,"current_range_meters":8800,"station_id":"ce4bh292rcd13ifvqdg0","pricing_plan_id":"cebpf4jnsgd1na2vs0mg"},{"bike_id":"da80b9ad-386b-4c70-a2af-dab01c3d7e83","system_id":"levelo_inurba_marseille","lat":43.26045,"lon":5.3755,"is_reserved":false,"is_disabled":false,"rental_uris":{"android":"levelo://app?vid=da80b9ad-386b-4c70-a2af-dab01c3d7e83","ios":"levelo://app?vid=da80b9ad-386b-4c70-a2af-dab01c3d7e83"},"vehicle_type_id":"4","last_reported":1770147469,"current_range_meters":8800,"station_id":"ce4bhgh2rcd13ifvqfa0","pricing_plan_id":"cebpf4jnsgd1na2vs0mg"},{"bike_id":"25ed47fc-271f-4de7-a2a6-6e589391bb92","system_id":"levelo_inurba_marseille","lat":43.28411,"lon":5.34986,"is_reserved":false,"is_disabled":false,"rental_uris":{"android":"levelo://app?vid=25ed47fc-271f-4de7-a2a6-6e589391bb92","ios":"levelo://app?vid=25ed47fc-271f-4de7-a2a6-6e589391bb92"},"vehicle_type_id":"4","last_reported":1770147469,"current_range_meters":8800,"station_id":"ce4bhbh2rcd13ifvqepg","pricing_plan_id":"cebpf4jnsgd1na2vs0mg"},{"bike_id":"30a564fc-cc84-4416-a8a0-217a2d812352","system_id":"levelo_inurba_marseille","lat":43.31698,"lon":5.40476,"is_reserved":false,"is_disabled":false,"rental_uris":{"android":"levelo://app?vid=30a564fc-cc84-4416-a8a0-217a2d812352","ios":"levelo://app?vid=30a564fc-cc84-4416-a8a0-217a2d812352"},"vehicle_type_id":"4","last_reported":1770147469,"current_range_meters":8800,"station_id":"ce4bh012rcd13ifvqd00","pricing_plan_id":"cebpf4jnsgd1na2vs0mg"},{"bike_id":"5892fc85-7848-4ac6-9041-3115ffbc60b4","system_id":"levelo_inurba_marseille","lat":43.24661,"lon":5.38141,"is_reserved":false,"is_disabled":false,"rental_uris":{"android":"levelo://app?vid=5892fc85-7848-4ac6-9041-3115ffbc60b4","ios":"levelo://app?vid=5892fc85-7848-4ac6-9041-3115ffbc60b4"},"vehicle_type_id":"4","last_reported":1770147469,"current_range_meters":8800,"station_id":"ce4bhih2rcd13ifvqfr0","pricing_plan_id":"cebpf4jnsgd1na2vs0mg"},{"bike_id":"9d79ec10-3ed1-4035-8609-ff591e4f54d3","system_id":"levelo_inurba_marseille","lat":43.25574,"lon":5.38227,"is_reserved":false,"is_disabled":false,"rental_uris":{"android":"levelo://app?vid=9d79ec10-3ed1-4035-8609-ff591e4f54d3","ios":"levelo://app?vid=9d79ec10-3ed1-4035-8609-ff591e4f54d3"},"vehicle_type_id":"4","last_reported":1770147469,"current_range_meters":8800,"station_id":"ce4bhih2rcd13ifvqfs0","pricing_plan_id":"cebpf4jnsgd1na2vs0mg"},{"bike_id":"d1714153-902a-4cd2-991a-603c63295488","system_id":"levelo_inurba_marseille","lat":43.292752,"lon":5.384413,"is_reserved":false,"is_disabled":false,"rental_uris":{"android":"levelo://app?vid=d1714153-902a-4cd2-991a-603c63295488","ios":"levelo://app?vid=d1714153-902a-4cd2-991a-603c63295488"},"vehicle_type_id":"4","last_reported":1770147469,"current_range_meters":8800,"station_id":"ce4bh692rcd13ifvqea0","pricing_plan_id":"cebpf4jnsgd1na2vs0mg"},{"bike_id":"9a41c992-8ec6-4c5f-9787-da9fbb815a48","system_id":"levelo_inurba_marseille","lat":43.25578,"lon":5.38231,"is_reserved":false,"is_disabled":false,"rental_uris":{"android":"levelo://app?vid=9a41c992-8ec6-4c5f-9787-da9fbb815a48","ios":"levelo://app?vid=9a41c992-8ec6-4c5f-9787-da9fbb815a48"},"vehicle_type_id":"4","last_reported":1770147469,"current_range_meters":8800,"station_id":"ce4bhih2rcd13ifvqfs0","pricing_plan_id":"cebpf4jnsgd1na2vs0mg"},{"bike_id":"ef30bb24-f45f-400c-9967-a2a3b2da1488","system_id":"levelo_inurba_marseille","lat":43.28285,"lon":5.39495,"is_reserved":false,"is_disabled":false,"rental_uris":{"android":"levelo://app?vid=ef30bb24-f45f-400c-9967-a2a3b2da1488","ios":"levelo://app?vid=ef30bb24-f45f-400c-9967-a2a3b2da1488"},"vehicle_type_id":"4","last_reported":1770147469,"current_range_meters":8800,"station_id":"","pricing_plan_id":"cebpf4jnsgd1na2vs0mg"},{"bike_id":"0753ef66-4b67-4d38-846b-63a28cc9793a","system_id":"levelo_inurba_marseille","lat":43.251478,"lon":5.394839,"is_reserved":false,"is_disabled":false,"rental_uris":{"android":"levelo://app?vid=0753ef66-4b67-4d38-846b-63a28cc9793a","ios":"levelo://app?vid=0753ef66-4b67-4d38-846b-63a28cc9793a"},"vehicle_type_id":"4","last_reported":1770147469,"current_range_meters":8800,"station_id":"ce4bhm12rcd13ifvqgkg","pricing_plan_id":"cebpf4jnsgd1na2vs0mg"},{"bike_id":"965fe77e-2880-48ae-9b04-83329f901992","system_id":"levelo_inurba_marseille","lat":43.25874,"lon":5.39875,"is_reserved":false,"is_disabled":false,"rental_uris":{"android":"levelo://app?vid=965fe77e-2880-48ae-9b04-83329f901992","ios":"levelo://app?vid=965fe77e-2880-48ae-9b04-83329f901992"},"vehicle_type_id":"4","last_reported":1770147469,"current_range_meters":8800,"station_id":"ce4bhl92rcd13ifvqghg","pricing_plan_id":"cebpf4jnsgd1na2vs0mg"},{"bike_id":"e932d731-6b5d-4e2b-abdc-6fede16fd0e9","system_id":"levelo_inurba_marseille","lat":43.27209,"lon":5.39171,"is_reserved":false,"is_disabled":false,"rental_uris":{"android":"levelo://app?vid=e932d731-6b5d-4e2b-abdc-6fede16fd0e9","ios":"levelo://app?vid=e932d731-6b5d-4e2b-abdc-6fede16fd0e9"},"vehicle_type_id":"4","last_reported":1770147469,"current_range_meters":8800,"station_id":"ce4bhhp2rcd13ifvqfm0","pricing_plan_id":"cebpf4jnsgd1na2vs0mg"},{"bike_id":"ef4aafd7-31d8-4f9b-97f1-b8af2e53c15d","system_id":"levelo_inurba_marseille","lat":43.2989,"lon":5.43656,"is_reserved":false,"is_disabled":false,"rental_uris":{"android":"levelo://app?vid=ef4aafd7-31d8-4f9b-97f1-b8af2e53c15d","ios":"levelo://app?vid=ef4aafd7-31d8-4f9b-97f1-b8af2e53c15d"},"vehicle_type_id":"4","last_reported":1770147469,"current_range_meters":8800,"station_id":"ce4bhpp2rcd13ifvqhfg","pricing_plan_id":"cebpf4jnsgd1na2vs0mg"},{"bike_id":"505093d2-db0f-42bc-b4f3-c50a32576079","system_id":"levelo_inurba_marseille","lat":43.26789,"lon":5.3941,"is_reserved":false,"is_disabled":false,"rental_uris":{"android":"levelo://app?vid=505093d2-db0f-42bc-b4f3-c50a32576079","ios":"levelo://app?vid=505093d2-db0f-42bc-b4f3-c50a32576079"},"vehicle_type_id":"4","last_reported":1770147469,"current_range_meters":8800,"station_id":"ce4bhh12rcd13ifvqfg0","pricing_plan_id":"cebpf4jnsgd1na2vs0mg"},{"bike_id":"d5d98457-3377-411c-bbd5-111f6add1380","system_id":"levelo_inurba_marseille","lat":43.2584,"lon":5.39437,"is_reserved":false,"is_disabled":false,"rental_uris":{"android":"levelo://app?vid=d5d98457-3377-411c-bbd5-111f6add1380","ios":"levelo://app?vid=d5d98457-3377-411c-bbd5-111f6add1380"},"vehicle_type_id":"4","last_reported":1770147469,"current_range_meters":8800,"station_id":"ce4bhip2rcd13ifvqft0","pricing_plan_id":"cebpf4jnsgd1na2vs0mg"},{"bike_id":"446e31c4-93bc-4e66-b502-42a0558bb38c","system_id":"levelo_inurba_marseille","lat":43.24553,"lon":5.39531,"is_reserved":false,"is_disabled":false,"rental_uris":{"android":"levelo://app?vid=446e31c4-93bc-4e66-b502-42a0558bb38c","ios":"levelo://app?vid=446e31c4-93bc-4e66-b502-42a0558bb38c"},"vehicle_type_id":"4","last_reported":1770147469,"current_range_meters":8800,"station_id":"ce4bhlp2rcd13ifvqgjg","pricing_plan_id":"cebpf4jnsgd1na2vs0mg"},{"bike_id":"5ffc162c-3876-4a49-af02-3661f44effbb","system_id":"levelo_inurba_marseille","lat":43.28493,"lon":5.48413,"is_reserved":false,"is_disabled":false,"rental_uris":{"android":"levelo://app?vid=5ffc162c-3876-4a49-af02-3661f44effbb","ios":"levelo://app?vid=5ffc162c-3876-4a49-af02-3661f44effbb"},"vehicle_type_id":"4","last_reported":1770147469,"current_range_meters":8800,"station_id":"st_d3svhcjqgbts73a3dn0g","pricing_plan_id":"cebpf4jnsgd1na2vs0mg"},{"bike_id":"82ee0b91-41d6-45e7-a1db-cb7c5fd93cae","system_id":"levelo_inurba_marseille","lat":43.31525,"lon":5.3803,"is_reserved":false,"is_disabled":false,"rental_uris":{"android":"levelo://app?vid=82ee0b91-41d6-45e7-a1db-cb7c5fd93cae","ios":"levelo://app?vid=82ee0b91-41d6-45e7-a1db-cb7c5fd93cae"},"vehicle_type_id":"4","last_reported":1770147469,"current_range_meters":8800,"station_id":"ce4bhsp2rcd13ifvqi50","pricing_plan_id":"cebpf4jnsgd1na2vs0mg"},{"bike_id":"0bb1f78f-1b13-46bf-ae71-7e46a5417078","system_id":"levelo_inurba_marseille","lat":43.2721,"lon":5.39181,"is_reserved":false,"is_disabled":false,"rental_uris":{"android":"levelo://app?vid=0bb1f78f-1b13-46bf-ae71-7e46a5417078","ios":"levelo://app?vid=0bb1f78f-1b13-46bf-ae71-7e46a5417078"},"vehicle_type_id":"4","last_reported":1770147469,"current_range_meters":8800,"station_id":"ce4bhhp2rcd13ifvqfm0","pricing_plan_id":"cebpf4jnsgd1na2vs0mg"},{"bike_id":"f57600aa-3553-4c5b-8eb9-2131032f6811","system_id":"levelo_inurba_marseille","lat":43.28211,"lon":5.3903,"is_reserved":false,"is_disabled":true,"rental_uris":{"android":"levelo://app?vid=f57600aa-3553-4c5b-8eb9-2131032f6811","ios":"levelo://app?vid=f57600aa-3553-4c5b-8eb9-2131032f6811"},"vehicle_type_id":"4","last_reported":1770147469,"current_range_meters":8800,"station_id":"ce4bhn92rcd13ifvqgsg","pricing_plan_id":"cebpf4jnsgd1na2vs0mg"},{"bike_id":"988afa8e-d306-4003-baf9-728102144f56","system_id":"levelo_inurba_marseille","lat":43.26775,"lon":5.38289,"is_reserved":false,"is_disabled":false,"rental_uris":{"android":"levelo://app?vid=988afa8e-d306-4003-baf9-728102144f56","ios":"levelo://app?vid=988afa8e-d306-4003-baf9-728102144f56"},"vehicle_type_id":"4","last_reported":1770147469,"current_range_meters":9200,"station_id":"","pricing_plan_id":"cebpf4jnsgd1na2vs0mg"},