{"last_updated":1746443287,"ttl":60,"version":"2.2","data":{"bikes":[{"bike_id":"2d87f24b-bb92-4f5a-9c64-611905425c8d","system_id":"levelo_inurba_marseille","lat":43.23667,"lon":5.39143,"is_reserved":false,"is_disabled":true,"rental_uris":{"android":"levelo://app?vid=2d87f24b-bb92-4f5a-9c64-611905425c8d","ios":"levelo://app?vid=2d87f24b-bb92-4f5a-9c64-611905425c8d"},"vehicle_type_id":"4","last_reported":1746443287,"current_range_meters":0,"station_id":"","pricing_plan_id":"cebpf4jnsgd1na2vs0mg"},{"bike_id":"fce08478-7109-482d-9a10-b4546e9d605a","system_id":"levelo_inurba_marseille","lat":43.31498,"lon":5.37295,"is_reserved":false,"is_disabled":true,"rental_uris":{"android":"levelo://app?vid=fce08478-7109-482d-9a10-b4546e9d605a","ios":"levelo://app?vid=fce08478-7109-482d-9a10-b4546e9d605a"},"vehicle_type_id":"4","last_reported":1746443287,"current_range_meters":0,"station_id":"ce4bgt12rcd13ifvqcd0","pricing_plan_id":"cebpf4jnsgd1na2vs0mg"},{"bike_id":"2cc5acc1-ecd3-4655-a86d-c30dc5a7f596","system_id":"levelo_inurba_marseille","lat":43.25726,"lon":5.41104,"is_reserved":false,"is_disabled":true,"rental_uris":{"android":"levelo://app?vid=2cc5acc1-ecd3-4655-a86d-c30dc5a7f596","ios":"levelo://app?vid=2cc5acc1-ecd3-4655-a86d-c30dc5a7f596"},"vehicle_type_id":"4","last_reported":1746443287,"current_range_meters":0,"station_id":"ce4bhkp2rcd13ifvqgd0","pricing_plan_id":"cebpf4jnsgd1na2vs0mg"},{"bike_id":"7ea51c25-5cfe-4704-bdb1-4094033cd498","system_id":"levelo_inurba_marseille","lat":43.23154,"lon":5.43711,"is_reserved":false,"is_disabled":true,"rental_uris":{"android":"levelo://app?vid=7ea51c25-5cfe-4704-bdb1-4094033cd498","ios":"levelo://app?vid=7ea51c25-5cfe-4704-bdb1-4094033cd498"},"vehicle_type_id":"4","last_reported":1746443287,"current_range_meters":0,"station_id":"ce4bhmp2rcd13ifvqgog","pricing_plan_id":"cebpf4jnsgd1na2vs0mg"},{"bike_id":"71d7f9a6-0c95-444c-97a5-09704cb775fd","system_id":"levelo_inurba_marseille","lat":43.28152,"lon":5.426467,"is_reserved":false,"is_disabled":true,"rental_uris":{"android":"levelo://app?vid=71d7f9a6-0c95-444c-97a5-09704cb775fd","ios":"levelo://app?vid=71d7f9a6-0c95-444c-97a5-09704cb775fd"},"vehicle_type_id":"4","last_reported":1746443287,"current_range_meters":0,"station_id":"ce4bhnh2rcd13ifvqgug","pricing_plan_id":"cebpf4jnsgd1na2vs0mg"},{"bike_id":"cab336a8-c2c3-4e7c-a3e1-e4b157b4b723","system_id":"levelo_inurba_marseille","lat":43.28701,"lon":5.39982,"is_reserved":false,"is_disabled":true,"rental_uris":{"android":"levelo://app?vid=cab336a8-c2c3-4e7c-a3e1-e4b157b4b723","ios":"levelo://app?vid=cab336a8-c2c3-4e7c-a3e1-e4b157b4b723"},"vehicle_type_id":"4","last_reported":1746443287,"current_range_meters":0,"station_id":"ce4bho92rcd13ifvqh3g","pricing_plan_id":"cebpf4jnsgd1na2vs0mg"},{"bike_id":"dfb3396e-96f5-457c-af11-f6f27dad33e9","system_id":"levelo_inurba_marseille","lat":43.27197,"lon":5.36475,"is_reserved":false,"is_disabled":true,"rental_uris":{"android":"levelo://app?vid=dfb3396e-96f5-457c-af11-f6f27dad33e9","ios":"levelo://app?vid=dfb3396e-96f5-457c-af11-f6f27dad33e9"},"vehicle_type_id":"4","last_reported":1746443287,"current_range_meters":1600,"station_id":"","pricing_plan_id":"cebpf4jnsgd1na2vs0mg"},{"bike_id":"da2381ee-eca7-4c99-8bf3-2733f161b997","system_id":"levelo_inurba_marseille","lat":43.305908,"lon":5.393648,"is_reserved":false,"is_disabled":false,"rental_uris":{"android":"levelo://app?vid=da2381ee-eca7-4c99-8bf3-2733f161b997","ios":"levelo://app?vid=da2381ee-eca7-4c99-8bf3-2733f161b997"},"vehicle_type_id":"4","last_reported":1746443287,"current_range_meters":1600,"station_id":"ce4bh0p2rcd13ifvqd80","pricing_plan_id":"cebpf4jnsgd1na2vs0mg"},{"bike_id":"0daadefa-8027-4a95-b5fa-6e3bdbaed04c","system_id":"levelo_inurba_marseille","lat":43.26486,"lon":5.39558,"is_reserved":false,"is_disabled":true,"rental_uris":{"android":"levelo://app?vid=0daadefa-8027-4a95-b5fa-6e3bdbaed04c","ios":"levelo://app?vid=0daadefa-8027-4a95-b5fa-6e3bdbaed04c"},"vehicle_type_id":"4","last_reported":1746443287,"current_range_meters":1600,"station_id":"ce4bhi12rcd13ifvqfq0","pricing_plan_id":"cebpf4jnsgd1na2vs0mg"},{"bike_id":"463da726-a6f3-4760-81a2-312edbf580e7","system_id":"levelo_inurba_marseille","lat":43.28157,"lon":5.42646,"is_reserved":false,"is_disabled":true,"rental_uris":{"android":"levelo://app?vid=463da726-a6f3-4760-81a2-312edbf580e7","ios":"levelo://app?vid=463da726-a6f3-4760-81a2-312edbf580e7"},"vehicle_type_id":"4","last_reported":1746443287,"current_range_meters":2000,"station_id":"ce4bhnh2rcd13ifvqgug","pricing_plan_id":"cebpf4jnsgd1na2vs0mg"},{"bike_id":"67cc0b61-1a1e-4525-94d4-aef2a8c64d36","system_id":"levelo_inurba_marseille","lat":43.21193,"lon":5.35073,"is_reserved":false,"is_disabled":false,"rental_uris":{"android":"levelo://app?vid=67cc0b61-1a1e-4525-94d4-aef2a8c64d36","ios":"levelo://app?vid=67cc0b61-1a1e-4525-94d4-aef2a8c64d36"},"vehicle_type_id":"4","last_reported":1746443287,"current_range_meters":3600,"station_id":"st_cvj6sg6p6f1abm77japg","pricing_plan_id":"cebpf4jnsgd1na2vs0mg"},{"bike_id":"557e3d3b-e789-4df0-a3f4-e84ce8486b0d","system_id":"levelo_inurba_marseille","lat":43.29676,"lon":5.37288,"is_reserved":false,"is_disabled":false,"rental_uris":{"android":"levelo://app?vid=557e3d3b-e789-4df0-a3f4-e84ce8486b0d","ios":"levelo://app?vid=557e3d3b-e789-4df0-a3f4-e84ce8486b0d"},"vehicle_type_id":"4","last_reported":1746443287,"current_range_meters":4000,"station_id":"ce4bgk12rcd13ifvqbj0","pricing_plan_id":"cebpf4jnsgd1na2vs0mg"},{"bike_id":"73e5bfd6-5e30-45de-829d-0df12a195d0b","system_id":"levelo_inurba_marseille","lat":43.29851,"lon":5.36288,"is_reserved":false,"is_disabled":false,"rental_uris":{"android":"levelo://app?vid=73e5bfd6-5e30-45de-829d-0df12a195d0b","ios":"levelo://app?vid=73e5bfd6-5e30-45de-829d-0df12a195d0b"},"vehicle_type_id":"4","last_reported":1746443287,"current_range_meters":4000,"station_id":"ce4bgpp2rcd13ifvqc3g","pricing_plan_id":"cebpf4jnsgd1na2vs0mg"},{"bike_id":"4d9c785a-6a14-4f60-8bcb-eb74d56c9262","system_id":"levelo_inurba_marseille","lat":43.27118,"lon":5.42251,"is_reserved":false,"is_disabled":false,"rental_uris":{"android":"levelo://app?vid=4d9c785a-6a14-4f60-8bcb-eb74d56c9262","ios":"levelo://app?vid=4d9c785a-6a14-4f60-8bcb-eb74d56c9262"},"vehicle_type_id":"4","last_reported":1746443287,"current_range_meters":4400,"station_id":"","pricing_plan_id":"cebpf4jnsgd1na2vs0mg"},{"bike_id":"a7cd7cac-5a32-4d14-92f2-2738618b7e69","system_id":"levelo_inurba_marseille","lat":43.25934,"lon":5.40901,"is_reserved":false,"is_disabled":false,"rental_uris":{"android":"levelo://app?vid=a7cd7cac-5a32-4d14-92f2-2738618b7e69","ios":"levelo://app?vid=a7cd7cac-5a32-4d14-92f2-2738618b7e69"},"vehicle_type_id":"4","last_reported":1746443287,"current_range_meters":5600,"station_id":"ce4bhm92rcd13ifvqglg","pricing_plan_id":"cebpf4jnsgd1na2vs0mg"},{"bike_id":"685a3fd6-8738-49de-a41c-de02794d94e7","system_id":"levelo_inurba_marseille","lat":43.30417,"lon":5.41285,"is_reserved":false,"is_disabled":false,"rental_uris":{"android":"levelo://app?vid=685a3fd6-8738-49de-a41c-de02794d94e7","ios":"levelo://app?vid=685a3fd6-8738-49de-a41c-de02794d94e7"},"vehicle_type_id":"4","last_reported":1746443287,"current_range_meters":5600,"station_id":"ce4bhop2rcd13ifvqh8g","pricing_plan_id":"cebpf4jnsgd1na2vs0mg"},{"bike_id":"3b98d8ed-4504-4658-8a5d-ae095aa1ef3e","system_id":"levelo_inurba_marseille","lat":43.305288,"lon":5.367118,"is_reserved":false,"is_disabled":false,"rental_uris":{"android":"levelo://app?vid=3b98d8ed-4504-4658-8a5d-ae095aa1ef3e","ios":"levelo://app?vid=3b98d8ed-4504-4658-8a5d-ae095aa1ef3e"},"vehicle_type_id":"4","last_reported":1746443287,"current_range_meters":6000,"station_id":"","pricing_plan_id":"cebpf4jnsgd1na2vs0mg"},{"bike_id":"601a84f0-8f51-40fd-ab35-4f148b7f8db0","system_id":"levelo_inurba_marseille","lat":43.31219,"lon":5.36861,"is_reserved":false,"is_disabled":false,"rental_uris":{"android":"levelo://app?vid=601a84f0-8f51-40fd-ab35-4f148b7f8db0","ios":"levelo://app?vid=601a84f0-8f51-40fd-ab35-4f148b7f8db0"},"vehicle_type_id":"4","last_reported":1746443287,"current_range_meters":6000,"station_id":"ce4bgl92rcd13ifvqbq0","pricing_plan_id":"cebpf4jnsgd1na2vs0mg"},{"bike_id":"a82259b7-49a6-4029-be09-7afdb25fa366","system_id":"levelo_inurba_marseille","lat":43.29924,"lon":5.3654,"is_reserved":false,"is_disabled":false,"rental_uris":{"android":"levelo://app?vid=a82259b7-49a6-4029-be09-7afdb25fa366","ios":"levelo://app?vid=a82259b7-49a6-4029-be09-7afdb25fa366"},"vehicle_type_id":"4","last_reported":1746443287,"current_range_meters":6000,"station_id":"ce4bgm92rcd13ifvqbr0","pricing_plan_id":"cebpf4jnsgd1na2vs0mg"},{"bike_id":"05fe46d5-a9d0-4846-b815-5d124e47463b","system_id":"levelo_inurba_marseille","lat":43.28671,"lon":5.38671,"is_reserved":false,"is_disabled":false,"rental_uris":{"android":"levelo://app?vid=05fe46d5-a9d0-4846-b815-5d124e47463b","ios":"levelo://app?vid=05fe46d5-a9d0-4846-b815-5d124e47463b"},"vehicle_type_id":"4","last_reported":1746443287,"current_range_meters":6000,"station_id":"ce4bh492rcd13ifvqdug","pricing_plan_id":"cebpf4jnsgd1na2vs0mg"},{"bike_id":"80850639-125d-4e44-aec5-bbb6ff07fc94","system_id":"levelo_inurba_marseille","lat":43.26036,"lon":5.37552,"is_reserved":false,"is_disabled":false,"rental_uris":{"android":"levelo://app?vid=80850639-125d-4e44-aec5-bbb6ff07fc94","ios":"levelo://app?vid=80850639-125d-4e44-aec5-bbb6ff07fc94"},"vehicle_type_id":"4","last_reported":1746443287,"current_range_meters":6000,"station_id":"ce4bhgh2rcd13ifvqfa0","pricing_plan_id":"cebpf4jnsgd1na2vs0mg"},{"bike_id":"404da817-f031-4950-ba8b-2104a38b67fb","system_id":"levelo_inurba_marseille","lat":43.27182,"lon":5.40992,"is_reserved":false,"is_disabled":false,"rental_uris":{"android":"levelo://app?vid=404da817-f031-4950-ba8b-2104a38b67fb","ios":"levelo://app?vid=404da817-f031-4950-ba8b-2104a38b67fb"},"vehicle_type_id":"4","last_reported":1746443287,"current_range_meters":6000,"station_id":"ce4bhl12rcd13ifvqgf0","pricing_plan_id":"cebpf4jnsgd1na2vs0mg"},{"bike_id":"6c9949a5-08b3-4f70-8646-e2ee22338a27","system_id":"levelo_inurba_marseille","lat":43.273875,"lon":5.39025,"is_reserved":false,"is_disabled":false,"rental_uris":{"android":"levelo://app?vid=6c9949a5-08b3-4f70-8646-e2ee22338a27","ios":"levelo://app?vid=6c9949a5-08b3-4f70-8646-e2ee22338a27"},"vehicle_type_id":"4","last_reported":1746443287,"current_range_meters":6400,"station_id":"","pricing_plan_id":"cebpf4jnsgd1na2vs0mg"},{"bike_id":"aa66a997-3b1b-45d8-ba49-6c9a0ecb9b2d","system_id":"levelo_inurba_marseille","lat":43.2886,"lon":5.35851,"is_reserved":false,"is_disabled":false,"rental_uris":{"android":"levelo://app?vid=aa66a997-3b1b-45d8-ba49-6c9a0ecb9b2d","ios":"levelo://app?vid=aa66a997-3b1b-45d8-ba49-6c9a0ecb9b2d"},"vehicle_type_id":"4","last_reported":1746443287,"current_range_meters":6400,"station_id":"ce4bhb12rcd13ifvqem0","pricing_plan_id":"cebpf4jnsgd1na2vs0mg"},{"bike_id":"9cb3676d-2097-48bf-86e5-50e46aa8eb7c","system_id":"levelo_inurba_marseille","lat":43.25934,"lon":5.40885,"is_reserved":false,"is_disabled":false,"rental_uris":{"android":"levelo://app?vid=9cb3676d-2097-48bf-86e5-50e46aa8eb7c","ios":"levelo://app?vid=9cb3676d-2097-48bf-86e5-50e46aa8eb7c"},"vehicle_type_id":"4","last_reported":1746443287,"current_range_meters":6400,"station_id":"ce4bhm92rcd13ifvqglg","pricing_plan_id":"cebpf4jnsgd1na2vs0mg"},{"bike_id":"2f1b58df-aa40-4f66-b7a0-3664f2200a29","system_id":"levelo_inurba_marseille","lat":43.27945,"lon":5.4105,"is_reserved":false,"is_disabled":false,"rental_uris":{"android":"levelo://app?vid=2f1b58df-aa40-4f66-b7a0-3664f2200a29","ios":"levelo://app?vid=2f1b58df-aa40-4f66-b7a0-3664f2200a29"},"vehicle_type_id":"4","last_reported":1746443287,"current_range_meters":6400,"station_id":"ce4bhnp2rcd13ifvqh0g","pricing_plan_id":"cebpf4jnsgd1na2vs0mg"},{"bike_id":"3669bd90-249d-439d-b4f0-7f1e73266836","system_id":"levelo_inurba_marseille","lat":43.2438,"lon":5.436999,"is_reserved":false,"is_disabled":false,"rental_uris":{"android":"levelo://app?vid=3669bd90-249d-439d-b4f0-7f1e73266836","ios":"levelo://app?vid=3669bd90-249d-439d-b4f0-7f1e73266836"},"vehicle_type_id":"4","last_reported":1746443287,"current_range_meters":6800,"station_id":"ce4bhmp2rcd13ifvqgog","pricing_plan_id":"cebpf4jnsgd1na2vs0mg"},{"bike_id":"75faa553-e774-4912-aca9-83892d578567","system_id":"levelo_inurba_marseille","lat":43.28154,"lon":5.4265,"is_reserved":false,"is_disabled":false,"rental_uris":{"android":"levelo://app?vid=75faa553-e774-4912-aca9-83892d578567","ios":"levelo://app?vid=75faa553-e774-4912-aca9-83892d578567"},"vehicle_type_id":"4","last_reported":1746443287,"current_range_meters":6800,"station_id":"ce4bhnh2rcd13ifvqgug","pricing_plan_id":"cebpf4jnsgd1na2vs0mg"},{"bike_id":"4bdc5d34-376d-46a7-ae60-22e9d2b4519a","system_id":"levelo_inurba_marseille","lat":43.29019,"lon":5.38633,"is_reserved":false,"is_disabled":false,"rental_uris":{"android":"levelo://app?vid=4bdc5d34-376d-46a7-ae60-22e9d2b4519a","ios":"levelo://app?vid=4bdc5d34-376d-46a7-ae60-22e9d2b4519a"},"vehicle_type_id":"4","last_reported":1746443287,"current_range_meters":7200,"station_id":"ce4bh4p2rcd13ifvqe0g","pricing_plan_id":"cebpf4jnsgd1na2vs0mg"},{"bike_id":"ab335b18-19c1-4178-b5e2-7e3c38d9a52b","system_id":"levelo_inurba_marseille","lat":43.24075,"lon":5.37757,"is_reserved":false,"is_disabled":false,"rental_uris":{"android":"levelo://app?vid=ab335b18-19c1-4178-b5e2-7e3c38d9a52b","ios":"levelo://app?vid=ab335b18-19c1-4178-b5e2-7e3c38d9a52b"},"vehicle_type_id":"4","last_reported":1746443287,"current_range_meters":7200,"station_id":"ce4bhnp2rcd13ifvqgvg","pricing_plan_id":"cebpf4jnsgd1na2vs0mg"},{"bike_id":"917d3dfe-fe05-4d62-b132-42ecb62bc09e","system_id":"levelo_inurba_marseille","lat":43.30374,"lon":5.42492,"is_reserved":false,"is_disabled":false,"rental_uris":{"android":"levelo://app?vid=917d3dfe-fe05-4d62-b132-42ecb62bc09e","ios":"levelo://app?vid=917d3dfe-fe05-4d62-b132-42ecb62bc09e"},"vehicle_type_id":"4","last_reported":1746443287,"current_range_meters":7200,"station_id":"ce4bhoh2rcd13ifvqh6g","pricing_plan_id":"cebpf4jnsgd1na2vs0mg"},{"bike_id":"aedf206f-89f3-4f30-9da6-56fb7ff8915b","system_id":"levelo_inurba_marseille","lat":43.28097,"lon":5.4039,"is_reserved":false,"is_disabled":false,"rental_uris":{"android":"levelo://app?vid=aedf206f-89f3-4f30-9da6-56fb7ff8915b","ios":"levelo://app?vid=aedf206f-89f3-4f30-9da6-56fb7ff8915b"},"vehicle_type_id":"4","last_reported":1746443287,"current_range_meters":8000,"station_id":"","pricing_plan_id":"cebpf4jnsgd1na2vs0mg"},{"bike_id":"1edcfbf7-df3e-4b6a-a6c5-602a971f06eb","system_id":"levelo_inurba_marseille","lat":43.30549,"lon":5.36505,"is_reserved":false,"is_disabled":false,"rental_uris":{"android":"levelo://app?vid=1edcfbf7-df3e-4b6a-a6c5-602a971f06eb","ios":"levelo://app?vid=1edcfbf7-df3e-4b6a-a6c5-602a971f06eb"},"vehicle_type_id":"4","last_reported":1746443287,"current_range_meters":8000,"station_id":"ce4bgs12rcd13ifvqcag","pricing_plan_id":"cebpf4jnsgd1na2vs0mg"},{"bike_id":"ee1dad41-7661-46ec-9960-167e3642ccf8","system_id":"levelo_inurba_marseille","lat":43.30551,"lon":5.3653,"is_reserved":false,"is_disabled":false,"rental_uris":{"android":"levelo://app?vid=ee1dad41-7661-46ec-9960-167e3642ccf8","ios":"levelo://app?vid=ee1dad41-7661-46ec-9960-167e3642ccf8"},"vehicle_type_id":"4","last_reported":1746443287,"current_range_meters":8000,"station_id":"ce4bgs12rcd13ifvqcag","pricing_plan_id":"cebpf4jnsgd1na2vs0mg"},{"bike_id":"fa981afb-0854-461c-b8c6-e1d3a778170f","system_id":"levelo_inurba_marseille","lat":43.25928,"lon":5.40911,"is_reserved":false,"is_disabled":false,"rental_uris":{"android":"levelo://app?vid=fa981afb-0854-461c-b8c6-e1d3a778170f","ios":"levelo://app?vid=fa981afb-0854-461c-b8c6-e1d3a778170f"},"vehicle_type_id":"4","last_reported":1746443287,"current_range_meters":8000,"station_id":"ce4bhm92rcd13ifvqglg","pricing_plan_id":"cebpf4jnsgd1na2vs0mg"},{"bike_id":"d5586c93-90e0-4b44-adca-d2a09f47a491","system_id":"levelo_inurba_marseille","lat":43.23161,"lon":5.43711,"is_reserved":false,"is_disabled":false,"rental_uris":{"android":"levelo://app?vid=d5586c93-90e0-4b44-adca-d2a09f47a491","ios":"levelo://app?vid=d5586c93-90e0-4b44-adca-d2a09f47a491"},"vehicle_type_id":"4","last_reported":1746443287,"current_range_meters":8000,"station_id":"ce4bhmp2rcd13ifvqgog","pricing_plan_id":"cebpf4jnsgd1na2vs0mg"},{"bike_id":"06704e84-4b72-4084-bc1f-b02e5a379528","system_id":"levelo_inurba_marseille","lat":43.33601,"lon":5.41028,"is_reserved":false,"is_disabled":false,"rental_uris":{"android":"levelo://app?vid=06704e84-4b72-4084-bc1f-b02e5a379528","ios":"levelo://app?vid=06704e84-4b72-4084-bc1f-b02e5a379528"},"vehicle_type_id":"4","last_reported":1746443287,"current_range_meters":8000,"station_id":"ce4bhqh2rcd13ifvqhmg","pricing_plan_id":"cebpf4jnsgd1na2vs0mg"},{"bike_id":"bd278318-d5f1-4ccf-9ac5-893e7bd91ba3","system_id":"levelo_inurba_marseille","lat":43.323654,"lon":5.367619,"is_reserved":false,"is_disabled":false,"rental_uris":{"android":"levelo://app?vid=bd278318-d5f1-4ccf-9ac5-893e7bd91ba3","ios":"levelo://app?vid=bd278318-d5f1-4ccf-9ac5-893e7bd91ba3"},"vehicle_type_id":"4","last_reported":1746443287,"current_range_meters":8000,"station_id":"ce4bhsh2rcd13ifvqi2g","pricing_plan_id":"cebpf4jnsgd1na2vs0mg"},{"bike_id":"264f4d47-d658-4a2b-8e03-0dc3fd53c5cb","system_id":"levelo_inurba_marseille","lat":43.2978,"lon":5.37094,"is_reserved":false,"is_disabled":false,"rental_uris":{"android":"levelo://app?vid=264f4d47-d658-4a2b-8e03-0dc3fd53c5cb","ios":"levelo://app?vid=264f4d47-d658-4a2b-8e03-0dc3fd53c5cb"},"vehicle_type_id":"4","last_reported":1746443287,"current_range_meters":8400,"station_id":"ce4bgop2rcd13ifvqc1g","pricing_plan_id":"cebpf4jnsgd1na2vs0mg"},{"bike_id":"ec93380d-7b90-4f55-954c-15196220a862","system_id":"levelo_inurba_marseille","lat":43.30539,"lon":5.36526,"is_reserved":false,"is_disabled":false,"rental_uris":{"android":"levelo://app?vid=ec93380d-7b90-4f55-954c-15196220a862","ios":"levelo://app?vid=ec93380d-7b90-4f55-954c-15196220a862"},"vehicle_type_id":"4","last_reported":1746443287,"current_range_meters":8400,"station_id":"ce4bgs12rcd13ifvqcag","pricing_plan_id":"cebpf4jnsgd1na2vs0mg"},{"bike_id":"77e5fc0c-8247-4eae-976e-b65c5c479c47","system_id":"levelo_inurba_marseille","lat":43.24395,"lon":5.37055,"is_reserved":false,"is_disabled":false,"rental_uris":{"android":"levelo://app?vid=77e5fc0c-8247-4eae-976e-b65c5c479c47","ios":"levelo://app?vid=77e5fc0c-8247-4eae-976e-b65c5c479c47"},"vehicle_type_id":"4","last_reported":1746443287,"current_range_meters":8400,"station_id":"ce4bhhh2rcd13ifvqfk0","pricing_plan_id":"cebpf4jnsgd1na2vs0mg"},{"bike_id":"94a84b75-7db9-4588-b88e-56c0f2ec4d00","system_id":"levelo_inurba_marseille","lat":43.26233,"lon":5.4046,"is_reserved":false,"is_disabled":false,"rental_uris":{"android":"levelo://app?vid=94a84b75-7db9-4588-b88e-56c0f2ec4d00","ios":"levelo://app?vid=94a84b75-7db9-4588-b88e-56c0f2ec4d00"},"vehicle_type_id":"4","last_reported":1746443287,"current_range_meters":8400,"station_id":"ce4bhmh2rcd13ifvqgmg","pricing_plan_id":"cebpf4jnsgd1na2vs0mg"},{"bike_id":"0703087b-2169-4836-8185-5afb3560ea8f","system_id":"levelo_inurba_marseille","lat":43.24184,"lon":5.39724,"is_reserved":false,"is_disabled":false,"rental_uris":{"android":"levelo://app?vid=0703087b-2169-4836-8185-5afb3560ea8f","ios":"levelo://app?vid=0703087b-2169-4836-8185-5afb3560ea8f"},"vehicle_type_id":"4","last_reported":1746443287,"current_range_meters":8400,"station_id":"ce4bhn12rcd13ifvqgpg","pricing_plan_id":"cebpf4jnsgd1na2vs0mg"},{"bike_id":"7b35d8cf-e756-4027-9a14-91a7d72886f3","system_id":"levelo_inurba_marseille","lat":43.26028,"lon":5.37552,"is_reserved":false,"is_disabled":false,"rental_uris":{"android":"levelo://app?vid=7b35d8cf-e756-4027-9a14-91a7d72886f3","ios":"levelo://app?vid=7b35d8cf-e756-4027-9a14-91a7d72886f3"},"vehicle_type_id":"4","last_reported":1746443287,"current_range_meters":8800,"station_id":"","pricing_plan_id":"cebpf4jnsgd1na2vs0mg"},{"bike_id":"03fbf97f-3756-4436-9c65-7875b1619a39","system_id":"levelo_inurba_marseille","lat":43.24643,"lon":5.38904,"is_reserved":false,"is_disabled":false,"rental_uris":{"android":"levelo://app?vid=03fbf97f-3756-4436-9c65-7875b1619a39","ios":"levelo://app?vid=03fbf97f-3756-4436-9c65-7875b1619a39"},"vehicle_type_id":"4","last_reported":1746443287,"current_range_meters":9200,"station_id":"ce4bhg12rcd13ifvqf60","pricing_plan_id":"cebpf4jnsgd1na2vs0mg"},{"bike_id":"cec02868-da4c-46a9-bbda-15dc1c82835b","system_id":"levelo_inurba_marseille","lat":43.23158,"lon":5.437,"is_reserved":false,"is_disabled":false,"rental_uris":{"android":"levelo://app?vid=cec02868-da4c-46a9-bbda-15dc1c82835b","ios":"levelo://app?vid=cec02868-da4c-46a9-bbda-15dc1c82835b"},"vehicle_type_id":"4","last_reported":1746443287,"current_range_meters":9200,"station_id":"ce4bhmp2rcd13ifvqgog","pricing_plan_id":"cebpf4jnsgd1na2vs0mg"},{"bike_id":"6c267926-d3ae-465b-ab08-7fd28ac529e0","system_id":"levelo_inurba_marseille","lat":43.241847,"lon":5.39735,"is_reserved":false,"is_disabled":false,"rental_uris":{"android":"levelo://app?vid=6c267926-d3ae-465b-ab08-7fd28ac529e0","ios":"levelo://app?vid=6c267926-d3ae-465b-ab08-7fd28ac529e0"},"vehicle_type_id":"4","last_reported":1746443287,"current_range_meters":9200,"station_id":"ce4bhn12rcd13ifvqgpg","pricing_plan_id":"cebpf4jnsgd1na2vs0mg"},{"bike_id":"10fa59ce-c249-4991-8845-0acc789b9453","system_id":"levelo_inurba_marseille","lat":43.241729,"lon":5.397281,"is_reserved":false,"is_disabled":false,"rental_uris":{"android":"levelo://app?vid=10fa59ce-c249-4991-8845-0acc789b9453","ios":"levelo://app?vid=10fa59ce-c249-4991-8845-0acc789b9453"},"vehicle_type_id":"4","last_reported":1746443287,"current_range_meters":9200,"station_id":"ce4bhn12rcd13ifvqgpg","pricing_plan_id":"cebpf4jnsgd1na2vs0mg"},{"bike_id":"b8ebe123-18b6-4e5d-addb-12ec10c089ac","system_id":"levelo_inurba_marseille","lat":43.32097,"lon":5.36796,"is_reserved":false,"is_disabled":false,"rental_uris":{"android":"levelo://app?vid=b8ebe123-18b6-4e5d-addb-12ec10c089ac","ios":"levelo://app?vid=b8ebe123-18b6-4e5d-addb-12ec10c089ac"},"vehicle_type_id":"4","last_reported":1746443287,"current_range_meters":9200,"station_id":"ce4bhrh2rcd13ifvqhug","pricing_plan_id":"cebpf4jnsgd1na2vs0mg"},{"bike_id":"8d76f43f-caa0-4e72-af44-550fbeb8d7a3","system_id":"levelo_inurba_marseille","lat":43.30462,"lon":5.3791,"is_reserved":false,"is_disabled":false,"rental_uris":{"android":"levelo://app?vid=8d76f43f-caa0-4e72-af44-550fbeb8d7a3","ios":"levelo://app?vid=8d76f43f-caa0-4e72-af44-550fbeb8d7a3"},"vehicle_type_id":"4","last_reported":1746443287,"current_range_meters":9600,"station_id":"ce4bgup2rcd13ifvqcn0","pricing_plan_id":"cebpf4jnsgd1na2vs0mg"},{"bike_id":"87919e76-744a-4490-853c-b847eefa036a","system_id":"levelo_inurba_marseille","lat":43.30471,"lon":5.37909,"is_reserved":false,"is_disabled":false,"rental_uris":{"android":"levelo://app?vid=87919e76-744a-4490-853c-b847eefa036a","ios":"levelo://app?vid=87919e76-744a-4490-853c-b847eefa036a"},"vehicle_type_id":"4","last_reported":1746443287,"current_range_meters":9600,"station_id":"ce4bgup2rcd13ifvqcn0","pricing_plan_id":"cebpf4jnsgd1na2vs0mg"},{"bike_id":"96e4e506-4023-4931-8aab-41fe6a370f2d","system_id":"levelo_inurba_marseille","lat":43.28411,"lon":5.37522,"is_reserved":false,"is_disabled":false,"rental_uris":{"android":"levelo://app?vid=96e4e506-4023-4931-8aab-41fe6a370f2d","ios":"levelo://app?vid=96e4e506-4023-4931-8aab-41fe6a370f2d"},"vehicle_type_id":"4","last_reported":1746443287,"current_range_meters":9600,"station_id":"ce4bh412rcd13ifvqds0","pricing_plan_id":"cebpf4jnsgd1na2vs0mg"},{"bike_id":"7efff1c0-fdbe-4e78-aa75-8b52b7d82410","system_id":"levelo_inurba_marseille","lat":43.30596,"lon":5.37226,"is_reserved":false,"is_disabled":false,"rental_uris":{"android":"levelo://app?vid=7efff1c0-fdbe-4e78-aa75-8b52b7d82410","ios":"levelo://app?vid=7efff1c0-fdbe-4e78-aa75-8b52b7d82410"},"vehicle_type_id":"4","last_reported":1746443287,"current_range_meters":10000,"station_id":"ce4bgqh2rcd13ifvqc4g","pricing_plan_id":"cebpf4jnsgd1na2vs0mg"},{"bike_id":"b8abb655-4bb8-43f1-b792-12585c92d8d1","system_id":"levelo_inurba_marseille","lat":43.24177,"lon":5.39721,"is_reserved":false,"is_disabled":false,"rental_uris":{"android":"levelo://app?vid=b8abb655-4bb8-43f1-b792-12585c92d8d1","ios":"levelo://app?vid=b8abb655-4bb8-43f1-b792-12585c92d8d1"},"vehicle_type_id":"4","last_reported":1746443287,"current_range_meters":10000,"station_id":"ce4bhn12rcd13ifvqgpg","pricing_plan_id":"cebpf4jnsgd1na2vs0mg"},{"bike_id":"2a0baa54-a4a1-49ca-a07b-b1778b885a9f","system_id":"levelo_inurba_marseille","lat":43.24164,"lon":5.39717,"is_reserved":false,"is_disabled":false,"rental_uris":{"android":"levelo://app?vid=2a0baa54-a4a1-49ca-a07b-b1778b885a9f","ios":"levelo://app?vid=2a0baa54-a4a1-49ca-a07b-b1778b885a9f"},"vehicle_type_id":"4","last_reported":1746443287,"current_range_meters":10000,"station_id":"ce4bhn12rcd13ifvqgpg","pricing_plan_id":"cebpf4jnsgd1na2vs0mg"},{"bike_id":"a0804fb8-17eb-49aa-a805-e37af3c363d5","system_id":"levelo_inurba_marseille","lat":43.2844,"lon":5.39207,"is_reserved":false,"is_disabled":false,"rental_uris":{"android":"levelo://app?vid=a0804fb8-17eb-49aa-a805-e37af3c363d5","ios":"levelo://app?vid=a0804fb8-17eb-49aa-a805-e37af3c363d5"},"vehicle_type_id":"4","last_reported":1746443287,"current_range_meters":10000,"station_id":"ce4bhoh2rcd13ifvqh5g","pricing_plan_id":"cebpf4jnsgd1na2vs0mg"},{"bike_id":"7c2dea67-dbe1-4d00-9c54-f1ebe3d5c38e","system_id":"levelo_inurba_marseille","lat":43.33725,"lon":5.39187,"is_reserved":false,"is_disabled":false,"rental_uris":{"android":"levelo://app?vid=7c2dea67-dbe1-4d00-9c54-f1ebe3d5c38e","ios":"levelo://app?vid=7c2dea67-dbe1-4d00-9c54-f1ebe3d5c38e"},"vehicle_type_id":"4","last_reported":1746443287,"current_range_meters":10000,"station_id":"ce4bhr92rcd13ifvqhsg","pricing_plan_id":"cebpf4jnsgd1na2vs0mg"},{"bike_id":"43f220ab-0408-46b3-abe5-60437ce3bc1e","system_id":"levelo_inurba_marseille","lat":43.231913,"lon":5.355641,"is_reserved":false,"is_disabled":false,"rental_uris":{"android":"levelo://app?vid=43f220ab-0408-46b3-abe5-60437ce3bc1e","ios":"levelo://app?vid=43f220ab-0408-46b3-abe5-60437ce3bc1e"},"vehicle_type_id":"4","last_reported":1746443287,"current_range_meters":10000,"station_id":"ce4bhu92rcd13ifvqi70","pricing_plan_id":"cebpf4jnsgd1na2vs0mg"},{"bike_id":"e6860432-66d0-4fea-99f7-80444e19c367","system_id":"levelo_inurba_marseille","lat":43.2696,"lon":5.38608,"is_reserved":false,"is_disabled":false,"rental_uris":{"android":"levelo://app?vid=e6860432-66d0-4fea-99f7-80444e19c367","ios":"levelo://app?vid=e6860432-66d0-4fea-99f7-80444e19c367"},"vehicle_type_id":"4","last_reported":1746443287,"current_range_meters":10800,"station_id":"ce4bhh92rcd13ifvqfh0","pricing_plan_id":"cebpf4jnsgd1na2vs0mg"},{"bike_id":"94492518-1cff-4f05-9acf-19ac57724956","system_id":"levelo_inurba_marseille","lat":43.23141,"lon":5.43726,"is_reserved":false,"is_disabled":false,"rental_uris":{"android":"levelo://app?vid=94492518-1cff-4f05-9acf-19ac57724956","ios":"levelo://app?vid=94492518-1cff-4f05-9acf-19ac57724956"},"vehicle_type_id":"4","last_reported":1746443287,"current_range_meters":10800,"station_id":"ce4bhmp2rcd13ifvqgog","pricing_plan_id":"cebpf4jnsgd1na2vs0mg"},{"bike_id":"edc95573-72df-41bd-b322-dc98f7120743","system_id":"levelo_inurba_marseille","lat":43.33087,"lon":5.38708,"is_reserved":false,"is_disabled":false,"rental_uris":{"android":"levelo://app?vid=edc95573-72df-41bd-b322-dc98f7120743","ios":"levelo://app?vid=edc95573-72df-41bd-b322-dc98f7120743"},"vehicle_type_id":"4","last_reported":1746443287,"current_range_meters":11200,"station_id":"","pricing_plan_id":"cebpf4jnsgd1na2vs0mg"},{"bike_id":"c98c48e5-afed-48dd-b7e2-f9e9acfff624","system_id":"levelo_inurba_marseille","lat":43.28945,"lon":5.36635,"is_reserved":false,"is_disabled":false,"rental_uris":{"android":"levelo://app?vid=c98c48e5-afed-48dd-b7e2-f9e9acfff624","ios":"levelo://app?vid=c98c48e5-afed-48dd-b7e2-f9e9acfff624"},"vehicle_type_id":"4","last_reported":1746443287,"current_range_meters":11200,"station_id":"ce4bhap2rcd13ifvqek0","pricing_plan_id":"cebpf4jnsgd1na2vs0mg"},{"bike_id":"6ba8d950-cb3a-4e26-9e80-d70cc2701234","system_id":"levelo_inurba_marseille","lat":43.2815,"lon":5.42635,"is_reserved":false,"is_disabled":false,"rental_uris":{"android":"levelo://app?vid=6ba8d950-cb3a-4e26-9e80-d70cc2701234","ios":"levelo://app?vid=6ba8d950-cb3a-4e26-9e80-d70cc2701234"},"vehicle_type_id":"4","last_reported":1746443287,"current_range_meters":11200,"station_id":"ce4bhnh2rcd13ifvqgug","pricing_plan_id":"cebpf4jnsgd1na2vs0mg"},{"bike_id":"578732df-51ae-47a2-8d9a-a3a489ba150f","system_id":"levelo_inurba_marseille","lat":43.29548,"lon":5.42287,"is_reserved":false,"is_disabled":false,"rental_uris":{"android":"levelo://app?vid=578732df-51ae-47a2-8d9a-a3a489ba150f","ios":"levelo://app?vid=578732df-51ae-47a2-8d9a-a3a489ba150f"},"vehicle_type_id":"4","last_reported":1746443287,"current_range_meters":11200,"station_id":"ce4bhph2rcd13ifvqhdg","pricing_plan_id":"cebpf4jnsgd1na2vs0mg"},{"bike_id":"522449e7-761d-4b1a-bcae-618c97bc755e","system_id":"levelo_inurba_marseille","lat":43.28264,"lon":5.35067,"is_reserved":false,"is_disabled":false,"rental_uris":{"android":"levelo://app?vid=522449e7-761d-4b1a-bcae-618c97bc755e","ios":"levelo://app?vid=522449e7-761d-4b1a-bcae-618c97bc755e"},"vehicle_type_id":"4","last_reported":1746443287,"current_range_meters":11600,"station_id":"ce4bhbp2rcd13ifvqerg","pricing_plan_id":"cebpf4jnsgd1na2vs0mg"},{"bike_id":"e11e6d99-1e2a-41fa-849d-c3c3d7360a07","system_id":"levelo_inurba_marseille","lat":43.23153,"lon":5.43709,"is_reserved":false,"is_disabled":false,"rental_uris":{"android":"levelo://app?vid=e11e6d99-1e2a-41fa-849d-c3c3d7360a07","ios":"levelo://app?vid=e11e6d99-1e2a-41fa-849d-c3c3d7360a07"},"vehicle_type_id":"4","last_reported":1746443287,"current_range_meters":11600,"station_id":"ce4bhmp2rcd13ifvqgog","pricing_plan_id":"cebpf4jnsgd1na2vs0mg"},{"bike_id":"d76913ee-aa0f-4e61-b393-f991532219ff","system_id":"levelo_inurba_marseille","lat":43.2962,"lon":5.37163,"is_reserved":false,"is_disabled":false,"rental_uris":{"android":"levelo://app?vid=d76913ee-aa0f-4e61-b393-f991532219ff","ios":"levelo://app?vid=d76913ee-aa0f-4e61-b393-f991532219ff"},"vehicle_type_id":"4","last_reported":1746443287,"current_range_meters":12000,"station_id":"ce4bgnh2rcd13ifvqc0g","pricing_plan_id":"cebpf4jnsgd1na2vs0mg"},{"bike_id":"5dd6cf97-48e4-404f-9440-6314761da2ba","system_id":"levelo_inurba_marseille","lat":43.29573,"lon":5.39968,"is_reserved":false,"is_disabled":false,"rental_uris":{"android":"levelo://app?vid=5dd6cf97-48e4-404f-9440-6314761da2ba","ios":"levelo://app?vid=5dd6cf97-48e4-404f-9440-6314761da2ba"},"vehicle_type_id":"4","last_reported":1746443287,"current_range_meters":12000,"station_id":"ce4bh312rcd13ifvqdj0","pricing_plan_id":"cebpf4jnsgd1na2vs0mg"},{"bike_id":"3ae17a05-0b43-4f78-97a9-240f92775591","system_id":"levelo_inurba_marseille","lat":43.286699,"lon":5.386853,"is_reserved":false,"is_disabled":false,"rental_uris":{"android":"levelo://app?vid=3ae17a05-0b43-4f78-97a9-240f92775591","ios":"levelo://app?vid=3ae17a05-0b43-4f78-97a9-240f92775591"},"vehicle_type_id":"4","last_reported":1746443287,"current_range_meters":12000,"station_id":"ce4bh492rcd13ifvqdug","pricing_plan_id":"cebpf4jnsgd1na2vs0mg"},{"bike_id":"be3bb8b5-0dd8-42c8-90ed-bac9bb388800","system_id":"levelo_inurba_marseille","lat":43.28722,"lon":5.37934,"is_reserved":false,"is_disabled":false,"rental_uris":{"android":"levelo://app?vid=be3bb8b5-0dd8-42c8-90ed-bac9bb388800","ios":"levelo://app?vid=be3bb8b5-0dd8-42c8-90ed-bac9bb388800"},"vehicle_type_id":"4","last_reported":1746443287,"current_range_meters":12000,"station_id":"ce4bh9p2rcd13ifvqec0","pricing_plan_id":"cebpf4jnsgd1na2vs0mg"},{"bike_id":"d342a70b-0490-4dea-b796-15cb5536d152","system_id":"levelo_inurba_marseille","lat":43.32107,"lon":5.36758,"is_reserved":false,"is_disabled":false,"rental_uris":{"android":"levelo://app?vid=d342a70b-0490-4dea-b796-15cb5536d152","ios":"levelo://app?vid=d342a70b-0490-4dea-b796-15cb5536d152"},"vehicle_type_id":"4","last_reported":1746443287,"current_range_meters":12000,"station_id":"ce4bhrh2rcd13ifvqhug","pricing_plan_id":"cebpf4jnsgd1na2vs0mg"},{"bike_id":"9e62479f-8dc3-45c7-afcd-3f05925a38bf","system_id":"levelo_inurba_marseille","lat":43.257059,"lon":5.4113,"is_reserved":false,"is_disabled":false,"rental_uris":{"android":"levelo://app?vid=9e62479f-8dc3-45c7-afcd-3f05925a38bf","ios":"levelo://app?vid=9e62479f-8dc3-45c7-afcd-3f05925a38bf"},"vehicle_type_id":"4","last_reported":1746443287,"current_range_meters":12400,"station_id":"ce4bhkp2rcd13ifvqgd0","pricing_plan_id":"cebpf4jnsgd1na2vs0mg"},{"bike_id":"aa7d6af2-f706-447d-976c-8dcd3e31c446","system_id":"levelo_inurba_marseille","lat":43.29553,"lon":5.42283,"is_reserved":false,"is_disabled":false,"rental_uris":{"android":"levelo://app?vid=aa7d6af2-f706-447d-976c-8dcd3e31c446","ios":"levelo://app?vid=aa7d6af2-f706-447d-976c-8dcd3e31c446"},"vehicle_type_id":"4","last_reported":1746443287,"current_range_meters":12400,"station_id":"ce4bhph2rcd13ifvqhdg","pricing_plan_id":"cebpf4jnsgd1na2vs0mg"},{"bike_id":"65ad1f75-a48d-495d-a8ab-87d398074a75","system_id":"levelo_inurba_marseille","lat":43.302946,"lon":5.392124,"is_reserved":false,"is_disabled":false,"rental_uris":{"android":"levelo://app?vid=65ad1f75-a48d-495d-a8ab-87d398074a75","ios":"levelo://app?vid=65ad1f75-a48d-495d-a8ab-87d398074a75"},"vehicle_type_id":"4","last_reported":1746443287,"current_range_meters":12800,"station_id":"ce4bgkh2rcd13ifvqbk0","pricing_plan_id":"cebpf4jnsgd1na2vs0mg"},{"bike_id":"b2eadc71-618d-47b6-bf3e-48456880b24a","system_id":"levelo_inurba_marseille","lat":43.2465,"lon":5.38894,"is_reserved":false,"is_disabled":false,"rental_uris":{"android":"levelo://app?vid=b2eadc71-618d-47b6-bf3e-48456880b24a","ios":"levelo://app?vid=b2eadc71-618d-47b6-bf3e-48456880b24a"},"vehicle_type_id":"4","last_reported":1746443287,"current_range_meters":12800,"station_id":"ce4bhg12rcd13ifvqf60","pricing_plan_id":"cebpf4jnsgd1na2vs0mg"},{"bike_id":"cfb9db9b-c6c0-454f-97c3-7b276f5e7874","system_id":"levelo_inurba_marseille","lat":43.27204,"lon":5.39184,"is_reserved":false,"is_disabled":false,"rental_uris":{"android":"levelo://app?vid=cfb9db9b-c6c0-454f-97c3-7b276f5e7874","ios":"levelo://app?vid=cfb9db9b-c6c0-454f-97c3-7b276f5e7874"},"vehicle_type_id":"4","last_reported":1746443287,"current_range_meters":12800,"station_id":"ce4bhhp2rcd13ifvqfm0","pricing_plan_id":"cebpf4jnsgd1na2vs0mg"},{"bike_id":"b4b63ca0-fe3d-4564-bc05-8c8e81f97cac","system_id":"levelo_inurba_marseille","lat":43.29786,"lon":5.37106,"is_reserved":false,"is_disabled":false,"rental_uris":{"android":"levelo://app?vid=b4b63ca0-fe3d-4564-bc05-8c8e81f97cac","ios":"levelo://app?vid=b4b63ca0-fe3d-4564-bc05-8c8e81f97cac"},"vehicle_type_id":"4","last_reported":1746443287,"current_range_meters":13600,"station_id":"ce4bgop2rcd13ifvqc1g","pricing_plan_id":"cebpf4jnsgd1na2vs0mg"},{"bike_id":"56f4e078-c9d6-4e29-a0cc-a3afe30e4612","system_id":"levelo_inurba_marseille","lat":43.32105,"lon":5.36788,"is_reserved":false,"is_disabled":false,"rental_uris":{"android":"levelo://app?vid=56f4e078-c9d6-4e29-a0cc-a3afe30e4612","ios":"levelo://app?vid=56f4e078-c9d6-4e29-a0cc-a3afe30e4612"},"vehicle_type_id":"4","last_reported":1746443287,"current_range_meters":13600,"station_id":"ce4bhrh2rcd13ifvqhug","pricing_plan_id":"cebpf4jnsgd1na2vs0mg"},{"bike_id":"3ff1331f-d2b9-4db6-9af0-17b5a04341a5","system_id":"levelo_inurba_marseille","lat":43.24311,"lon":5.3801,"is_reserved":false,"is_disabled":false,"rental_uris":{"android":"levelo://app?vid=3ff1331f-d2b9-4db6-9af0-17b5a04341a5","ios":"levelo://app?vid=3ff1331f-d2b9-4db6-9af0-17b5a04341a5"},"vehicle_type_id":"4","last_reported":1746443287,"current_range_meters":14000,"station_id":"","pricing_plan_id":"cebpf4jnsgd1na2vs0mg"},{"bike_id":"c619933b-14bf-46fd-9e64-3bdd6b1070eb","system_id":"levelo_inurba_marseille","lat":43.255822,"lon":5.382379,"is_reserved":false,"is_disabled":false,"rental_uris":{"android":"levelo://app?vid=c619933b-14bf-46fd-9e64-3bdd6b1070eb","ios":"levelo://app?vid=c619933b-14bf-46fd-9e64-3bdd6b1070eb"},"vehicle_type_id":"4","last_reported":1746443287,"current_range_meters":14000,"station_id":"ce4bhih2rcd13ifvqfs0","pricing_plan_id":"cebpf4jnsgd1na2vs0mg"},{"bike_id":"7fe99bba-2315-4428-b2f4-40c5a79f86e6","system_id":"levelo_inurba_marseille","lat":43.24075,"lon":5.37756,"is_reserved":false,"is_disabled":false,"rental_uris":{"android":"levelo://app?vid=7fe99bba-2315-4428-b2f4-40c5a79f86e6","ios":"levelo://app?vid=7fe99bba-2315-4428-b2f4-40c5a79f86e6"},"vehicle_type_id":"4","last_reported":1746443287,"current_range_meters":14000,"station_id":"ce4bhnp2rcd13ifvqgvg","pricing_plan_id":"cebpf4jnsgd1na2vs0mg"},{"bike_id":"27d82451-729a-4a2f-ad36-7ffbc0456d87","system_id":"levelo_inurba_marseille","lat":43.23194,"lon":5.35554,"is_reserved":false,"is_disabled":false,"rental_uris":{"android":"levelo://app?vid=27d82451-729a-4a2f-ad36-7ffbc0456d87","ios":"levelo://app?vid=27d82451-729a-4a2f-ad36-7ffbc0456d87"},"vehicle_type_id":"4","last_reported":1746443287,"current_range_meters":14000,"station_id":"ce4bhu92rcd13ifvqi70","pricing_plan_id":"cebpf4jnsgd1na2vs0mg"},{"bike_id":"b3cbb21e-793f-478c-9965-8205d52774c6","system_id":"levelo_inurba_marseille","lat":43.30738,"lon":5.424545,"is_reserved":false,"is_disabled":false,"rental_uris":{"android":"levelo://app?vid=b3cbb21e-793f-478c-9965-8205d52774c6","ios":"levelo://app?vid=b3cbb21e-793f-478c-9965-8205d52774c6"},"vehicle_type_id":"4","last_reported":1746443287,"current_range_meters":14000,"station_id":"st_cvj6ca6bvosntc0bfgr0","pricing_plan_id":"cebpf4jnsgd1na2vs0mg"},{"bike_id":"c934e342-8967-47c6-95e6-c9ef3ee530b5","system_id":"levelo_inurba_marseille","lat":43.21194,"lon":5.35075,"is_reserved":false,"is_disabled":false,"rental_uris":{"android":"levelo://app?vid=c934e342-8967-47c6-95e6-c9ef3ee530b5","ios":"levelo://app?vid=c934e342-8967-47c6-95e6-c9ef3ee530b5"},"vehicle_type_id":"4","last_reported":1746443287,"current_range_meters":14000,"station_id":"st_cvj6sg6p6f1abm77japg","pricing_plan_id":"cebpf4jnsgd1na2vs0mg"},{"bike_id":"a7393548-1ca4-426f-bec8-e094325f844e","system_id":"levelo_inurba_marseille","lat":43.26267,"lon":5.37434,"is_reserved":false,"is_disabled":false,"rental_uris":{"android":"levelo://app?vid=a7393548-1ca4-426f-bec8-e094325f844e","ios":"levelo://app?vid=a7393548-1ca4-426f-bec8-e094325f844e"},"vehicle_type_id":"4","last_reported":1746443287,"current_range_meters":14400,"station_id":"","pricing_plan_id":"cebpf4jnsgd1na2vs0mg"},{"bike_id":"ab18c632-2b04-43df-8fb8-88dc5ee7b4fd","system_id":"levelo_inurba_marseille","lat":43.283447,"lon":5.381086,"is_reserved":false,"is_disabled":false,"rental_uris":{"android":"levelo://app?vid=ab18c632-2b04-43df-8fb8-88dc5ee7b4fd","ios":"levelo://app?vid=ab18c632-2b04-43df-8fb8-88dc5ee7b4fd"},"vehicle_type_id":"4","last_reported":1746443287,"current_range_meters":14400,"station_id":"ce4bh412rcd13ifvqdr0","pricing_plan_id":"cebpf4jnsgd1na2vs0mg"},{"bike_id":"d9a06e39-0566-4a7a-b04e-4b2137064126","system_id":"levelo_inurba_marseille","lat":43.26027,"lon":5.37568,"is_reserved":false,"is_disabled":false,"rental_uris":{"android":"levelo://app?vid=d9a06e39-0566-4a7a-b04e-4b2137064126","ios":"levelo://app?vid=d9a06e39-0566-4a7a-b04e-4b2137064126"},"vehicle_type_id":"4","last_reported":1746443287,"current_range_meters":14400,"station_id":"ce4bhgh2rcd13ifvqfa0","pricing_plan_id":"cebpf4jnsgd1na2vs0mg"},{"bike_id":"40b2d351-93dd-4100-8b8f-27084cf05677","system_id":"levelo_inurba_marseille","lat":43.27502,"lon":5.42455,"is_reserved":false,"is_disabled":false,"rental_uris":{"android":"levelo://app?vid=40b2d351-93dd-4100-8b8f-27084cf05677","ios":"levelo://app?vid=40b2d351-93dd-4100-8b8f-27084cf05677"},"vehicle_type_id":"4","last_reported":1746443287,"current_range_meters":14400,"station_id":"ce4bhn92rcd13ifvqgrg","pricing_plan_id":"cebpf4jnsgd1na2vs0mg"},{"bike_id":"4998da03-154a-480f-8d52-cf36e06dad67","system_id":"levelo_inurba_marseille","lat":43.31758,"lon":5.390188,"is_reserved":false,"is_disabled":false,"rental_uris":{"android":"levelo://app?vid=4998da03-154a-480f-8d52-cf36e06dad67","ios":"levelo://app?vid=4998da03-154a-480f-8d52-cf36e06dad67"},"vehicle_type_id":"4","last_reported":1746443287,"current_range_meters":14400,"station_id":"ce4bhqp2rcd13ifvqhng","pricing_plan_id":"cebpf4jnsgd1na2vs0mg"},{"bike_id":"d252a272-7b85-44ee-b117-a17b072d1a91","system_id":"levelo_inurba_marseille","lat":43.21762,"lon":5.34596,"is_reserved":false,"is_disabled":false,"rental_uris":{"android":"levelo://app?vid=d252a272-7b85-44ee-b117-a17b072d1a91","ios":"levelo://app?vid=d252a272-7b85-44ee-b117-a17b072d1a91"},"vehicle_type_id":"4","last_reported":1746443287,"current_range_meters":14400,"station_id":"st_cvj6r9ubvosntc0bgbag","pricing_plan_id":"cebpf4jnsgd1na2vs0mg"},{"bike_id":"b3e6b865-d5a5-4841-85d0-ad7bdd19bd37","system_id":"levelo_inurba_marseille","lat":43.31886,"lon":5.40745,"is_reserved":false,"is_disabled":false,"rental_uris":{"android":"levelo://app?vid=b3e6b865-d5a5-4841-85d0-ad7bdd19bd37","ios":"levelo://app?vid=b3e6b865-d5a5-4841-85d0-ad7bdd19bd37"},"vehicle_type_id":"4","last_reported":1746443287,"current_range_meters":14800,"station_id":"","pricing_plan_id":"cebpf4jnsgd1na2vs0mg"},{"bike_id":"366afdc8-2736-4264-abc7-961d164dfa3a","system_id":"levelo_inurba_marseille","lat":43.2698,"lon":5.3989,"is_reserved":false,"is_disabled":false,"rental_uris":{"android":"levelo://app?vid=366afdc8-2736-4264-abc7-961d164dfa3a","ios":"levelo://app?vid=366afdc8-2736-4264-abc7-961d164dfa3a"},"vehicle_type_id":"4","last_reported":1746443287,"current_range_meters":14800,"station_id":"","pricing_plan_id":"cebpf4jnsgd1na2vs0mg"},{"bike_id":"8ec04bde-5fe1-4b61-a34b-1cceef808ed1","system_id":"levelo_inurba_marseille","lat":43.337444,"lon":5.374475,"is_reserved":false,"is_disabled":false,"rental_uris":{"android":"levelo://app?vid=8ec04bde-5fe1-4b61-a34b-1cceef808ed1","ios":"levelo://app?vid=8ec04bde-5fe1-4b61-a34b-1cceef808ed1"},"vehicle_type_id":"4","last_reported":1746443287,"current_range_meters":14800,"station_id":"","pricing_plan_id":"cebpf4jnsgd1na2vs0mg"},{"bike_id":"3a11e994-be1b-474e-855a-b33c6e7c7b9b","system_id":"levelo_inurba_marseille","lat":43.308823,"lon":5.37199,"is_reserved":false,"is_disabled":false,"rental_uris":{"android":"levelo://app?vid=3a11e994-be1b-474e-855a-b33c6e7c7b9b","ios":"levelo://app?vid=3a11e994-be1b-474e-855a-b33c6e7c7b9b"},"vehicle_type_id":"4","last_reported":1746443287,"current_range_meters":14800,"station_id":"ce4bguh2rcd13ifvqckg","pricing_plan_id":"cebpf4jnsgd1na2vs0mg"},{"bike_id":"537ec507-a768-464b-9b15-c432803b52c6","system_id":"levelo_inurba_marseille","lat":43.27812,"lon":5.40714,"is_reserved":false,"is_disabled":false,"rental_uris":{"android":"levelo://app?vid=537ec507-a768-464b-9b15-c432803b52c6","ios":"levelo://app?vid=537ec507-a768-464b-9b15-c432803b52c6"},"vehicle_type_id":"4","last_reported":1746443287,"current_range_meters":14800,"station_id":"ce4bhnh2rcd13ifvqgtg","pricing_plan_id":"cebpf4jnsgd1na2vs0mg"},{"bike_id":"89c1c22e-4deb-4a12-b25d-9d0f09a1f79b","system_id":"levelo_inurba_marseille","lat":43.21763,"lon":5.34601,"is_reserved":false,"is_disabled":false,"rental_uris":{"android":"levelo://app?vid=89c1c22e-4deb-4a12-b25d-9d0f09a1f79b","ios":"levelo://app?vid=89c1c22e-4deb-4a12-b25d-9d0f09a1f79b"},"vehicle_type_id":"4","last_reported":1746443287,"current_range_meters":14800,"station_id":"st_cvj6r9ubvosntc0bgbag","pricing_plan_id":"cebpf4jnsgd1na2vs0mg"},{"bike_id":"0e42e81c-9a07-4a97-bdd7-e94210c258de","system_id":"levelo_inurba_marseille","lat":43.24587,"lon":5.40498,"is_reserved":false,"is_disabled":false,"rental_uris":{"android":"levelo://app?vid=0e42e81c-9a07-4a97-bdd7-e94210c258de","ios":"levelo://app?vid=0e42e81c-9a07-4a97-bdd7-e94210c258de"},"vehicle_type_id":"4","last_reported":1746443287,"current_range_meters":15200,"station_id":"","pricing_plan_id":"cebpf4jnsgd1na2vs0mg"},{"bike_id":"383e662b-4a82-4d71-8c0d-3f677b28940d","system_id":"levelo_inurba_marseille","lat":43.270927,"lon":5.400487,"is_reserved":false,"is_disabled":false,"rental_uris":{"android":"levelo://app?vid=383e662b-4a82-4d71-8c0d-3f677b28940d","ios":"levelo://app?vid=383e662b-4a82-4d71-8c0d-3f677b28940d"},"vehicle_type_id":"4","last_reported":1746443287,"current_range_meters":15200,"station_id":"","pricing_plan_id":"cebpf4jnsgd1na2vs0mg"},{"bike_id":"e541cf50-643b-4ab5-b0d7-3b72b68b8b57","system_id":"levelo_inurba_marseille","lat":43.30463,"lon":5.37907,"is_reserved":false,"is_disabled":false,"rental_uris":{"android":"levelo://app?vid=e541cf50-643b-4ab5-b0d7-3b72b68b8b57","ios":"levelo://app?vid=e541cf50-643b-4ab5-b0d7-3b72b68b8b57"},"vehicle_type_id":"4","last_reported":1746443287,"current_range_meters":15200,"station_id":"ce4bgup2rcd13ifvqcn0","pricing_plan_id":"cebpf4jnsgd1na2vs0mg"},{"bike_id":"d93575d6-6de6-450f-b616-84237a703178","system_id":"levelo_inurba_marseille","lat":43.30876,"lon":5.39622,"is_reserved":false,"is_disabled":false,"rental_uris":{"android":"levelo://app?vid=d93575d6-6de6-450f-b616-84237a703178","ios":"levelo://app?vid=d93575d6-6de6-450f-b616-84237a703178"},"vehicle_type_id":"4","last_reported":1746443287,"current_range_meters":15200,"station_id":"ce4bh012rcd13ifvqcv0","pricing_plan_id":"cebpf4jnsgd1na2vs0mg"},{"bike_id":"03123719-570b-48be-9577-508dabfef083","system_id":"levelo_inurba_marseille","lat":43.24072,"lon":5.37767,"is_reserved":false,"is_disabled":false,"rental_uris":{"android":"levelo://app?vid=03123719-570b-48be-9577-508dabfef083","ios":"levelo://app?vid=03123719-570b-48be-9577-508dabfef083"},"vehicle_type_id":"4","last_reported":1746443287,"current_range_meters":15200,"station_id":"ce4bhnp2rcd13ifvqgvg","pricing_plan_id":"cebpf4jnsgd1na2vs0mg"},{"bike_id":"5355323f-f78f-4f6d-b4f6-7d8b6e99b849","system_id":"levelo_inurba_marseille","lat":43.31083,"lon":5.42431,"is_reserved":false,"is_disabled":false,"rental_uris":{"android":"levelo://app?vid=5355323f-f78f-4f6d-b4f6-7d8b6e99b849","ios":"levelo://app?vid=5355323f-f78f-4f6d-b4f6-7d8b6e99b849"},"vehicle_type_id":"4","last_reported":1746443287,"current_range_meters":15200,"station_id":"ce4bhp92rcd13ifvqhag","pricing_plan_id":"cebpf4jnsgd1na2vs0mg"},{"bike_id":"574f9534-6b0b-43b3-a942-c6870095631b","system_id":"levelo_inurba_marseille","lat":43.28598,"lon":5.37088,"is_reserved":false,"is_disabled":false,"rental_uris":{"android":"levelo://app?vid=574f9534-6b0b-43b3-a942-c6870095631b","ios":"levelo://app?vid=574f9534-6b0b-43b3-a942-c6870095631b"},"vehicle_type_id":"4","last_reported":1746443287,"current_range_meters":16000,"station_id":"","pricing_plan_id":"cebpf4jnsgd1na2vs0mg"},{"bike_id":"f04a6fa5-ab11-4f7c-8a56-4038195ee7bf","system_id":"levelo_inurba_marseille","lat":43.30885,"lon":5.39641,"is_reserved":false,"is_disabled":false,"rental_uris":{"android":"levelo://app?vid=f04a6fa5-ab11-4f7c-8a56-4038195ee7bf","ios":"levelo://app?vid=f04a6fa5-ab11-4f7c-8a56-4038195ee7bf"},"vehicle_type_id":"4","last_reported":1746443287,"current_range_meters":16000,"station_id":"ce4bh012rcd13ifvqcv0","pricing_plan_id":"cebpf4jnsgd1na2vs0mg"},{"bike_id":"4918a825-4a92-4dd6-8eb4-a4079f57fde4","system_id":"levelo_inurba_marseille","lat":43.28678,"lon":5.3866,"is_reserved":false,"is_disabled":false,"rental_uris":{"android":"levelo://app?vid=4918a825-4a92-4dd6-8eb4-a4079f57fde4","ios":"levelo://app?vid=4918a825-4a92-4dd6-8eb4-a4079f57fde4"},"vehicle_type_id":"4","last_reported":1746443287,"current_range_meters":16000,"station_id":"ce4bh492rcd13ifvqdug","pricing_plan_id":"cebpf4jnsgd1na2vs0mg"},{"bike_id":"ca797825-0bca-41a7-bcb6-8a3bac784da4","system_id":"levelo_inurba_marseille","lat":43.27918,"lon":5.39579,"is_reserved":false,"is_disabled":false,"rental_uris":{"android":"levelo://app?vid=ca797825-0bca-41a7-bcb6-8a3bac784da4","ios":"levelo://app?vid=ca797825-0bca-41a7-bcb6-8a3bac784da4"},"vehicle_type_id":"4","last_reported":1746443287,"current_range_meters":16000,"station_id":"ce4bhf92rcd13ifvqf40","pricing_plan_id":"cebpf4jnsgd1na2vs0mg"},{"bike_id":"589e58db-1f5d-4905-ae7b-daecb3341e05","system_id":"levelo_inurba_marseille","lat":43.25503,"lon":5.37652,"is_reserved":false,"is_disabled":false,"rental_uris":{"android":"levelo://app?vid=589e58db-1f5d-4905-ae7b-daecb3341e05","ios":"levelo://app?vid=589e58db-1f5d-4905-ae7b-daecb3341e05"},"vehicle_type_id":"4","last_reported":1746443287,"current_range_meters":16000,"station_id":"ce4bhh12rcd13ifvqff0","pricing_plan_id":"cebpf4jnsgd1na2vs0mg"},{"bike_id":"36839d2f-f3fb-4ae5-87d2-3bdb958b3981","system_id":"levelo_inurba_marseille","lat":43.26223,"lon":5.37942,"is_reserved":false,"is_disabled":false,"rental_uris":{"android":"levelo://app?vid=36839d2f-f3fb-4ae5-87d2-3bdb958b3981","ios":"levelo://app?vid=36839d2f-f3fb-4ae5-87d2-3bdb958b3981"},"vehicle_type_id":"4","last_reported":1746443287,"current_range_meters":16000,"station_id":"ce4bhjp2rcd13ifvqg90","pricing_plan_id":"cebpf4jnsgd1na2vs0mg"},{"bike_id":"1dab89a1-5412-4cee-a8ad-8b167b5a3f96","system_id":"levelo_inurba_marseille","lat":43.24173,"lon":5.39745,"is_reserved":false,"is_disabled":false,"rental_uris":{"android":"levelo://app?vid=1dab89a1-5412-4cee-a8ad-8b167b5a3f96","ios":"levelo://app?vid=1dab89a1-5412-4cee-a8ad-8b167b5a3f96"},"vehicle_type_id":"4","last_reported":1746443287,"current_range_meters":16000,"station_id":"ce4bhn12rcd13ifvqgpg","pricing_plan_id":"cebpf4jnsgd1na2vs0mg"},{"bike_id":"bbba4a42-41f1-4d4c-a0ec-15062e1d6496","system_id":"levelo_inurba_marseille","lat":43.30819,"lon":5.43522,"is_reserved":false,"is_disabled":false,"rental_uris":{"android":"levelo://app?vid=bbba4a42-41f1-4d4c-a0ec-15062e1d6496","ios":"levelo://app?vid=bbba4a42-41f1-4d4c-a0ec-15062e1d6496"},"vehicle_type_id":"4","last_reported":1746443287,"current_range_meters":16000,"station_id":"ce4bhph2rcd13ifvqheg","pricing_plan_id":"cebpf4jnsgd1na2vs0mg"},{"bike_id":"db0e0ddb-0230-4f44-ba3e-6dcb98b952cd","system_id":"levelo_inurba_marseille","lat":43.23196,"lon":5.35546,"is_reserved":false,"is_disabled":false,"rental_uris":{"android":"levelo://app?vid=db0e0ddb-0230-4f44-ba3e-6dcb98b952cd","ios":"levelo://app?vid=db0e0ddb-0230-4f44-ba3e-6dcb98b952cd"},"vehicle_type_id":"4","last_reported":1746443287,"current_range_meters":16000,"station_id":"ce4bhu92rcd13ifvqi70","pricing_plan_id":"cebpf4jnsgd1na2vs0mg"},{"bike_id":"241756da-df59-4caa-839f-970fd97c95a1","system_id":"levelo_inurba_marseille","lat":43.24651,"lon":5.38888,"is_reserved":false,"is_disabled":false,"rental_uris":{"android":"levelo://app?vid=241756da-df59-4caa-839f-970fd97c95a1","ios":"levelo://app?vid=241756da-df59-4caa-839f-970fd97c95a1"},"vehicle_type_id":"4","last_reported":1746443287,"current_range_meters":16400,"station_id":"ce4bhg12rcd13ifvqf60","pricing_plan_id":"cebpf4jnsgd1na2vs0mg"},{"bike_id":"0602da73-caa1-472c-af98-6bc3251a55ab","system_id":"levelo_inurba_marseille","lat":43.25112,"lon":5.40326,"is_reserved":false,"is_disabled":false,"rental_uris":{"android":"levelo://app?vid=0602da73-caa1-472c-af98-6bc3251a55ab","ios":"levelo://app?vid=0602da73-caa1-472c-af98-6bc3251a55ab"},"vehicle_type_id":"4","last_reported":1746443287,"current_range_meters":16400,"station_id":"ce4bhlh2rcd13ifvqgig","pricing_plan_id":"cebpf4jnsgd1na2vs0mg"},{"bike_id":"2dce38cf-a8d4-49cd-9fcf-ef494d90a125","system_id":"levelo_inurba_marseille","lat":43.27134,"lon":5.36369,"is_reserved":false,"is_disabled":false,"rental_uris":{"android":"levelo://app?vid=2dce38cf-a8d4-49cd-9fcf-ef494d90a125","ios":"levelo://app?vid=2dce38cf-a8d4-49cd-9fcf-ef494d90a125"},"vehicle_type_id":"4","last_reported":1746443287,"current_range_meters":16800,"station_id":"","pricing_plan_id":"cebpf4jnsgd1na2vs0mg"},{"bike_id":"a5bebe61-bd37-497b-ab26-4f4d62122135","system_id":"levelo_inurba_marseille","lat":43.29367,"lon":5.37829,"is_reserved":false,"is_disabled":false,"rental_uris":{"android":"levelo://app?vid=a5bebe61-bd37-497b-ab26-4f4d62122135","ios":"levelo://app?vid=a5bebe61-bd37-497b-ab26-4f4d62122135"},"vehicle_type_id":"4","last_reported":1746443287,"current_range_meters":16800,"station_id":"ce4bgjh2rcd13ifvqbf0","pricing_plan_id":"cebpf4jnsgd1na2vs0mg"},{"bike_id":"0dc97091-6e66-483f-9308-21a20c924f0b","system_id":"levelo_inurba_marseille","lat":43.29634,"lon":5.37155,"is_reserved":false,"is_disabled":false,"rental_uris":{"android":"levelo://app?vid=0dc97091-6e66-483f-9308-21a20c924f0b","ios":"levelo://app?vid=0dc97091-6e66-483f-9308-21a20c924f0b"},"vehicle_type_id":"4","last_reported":1746443287,"current_range_meters":16800,"station_id":"ce4bgnh2rcd13ifvqc0g","pricing_plan_id":"cebpf4jnsgd1na2vs0mg"},{"bike_id":"6cdcb1ce-7b07-497c-bd55-1dac8eecbd32","system_id":"levelo_inurba_marseille","lat":43.30459,"lon":5.37911,"is_reserved":false,"is_disabled":false,"rental_uris":{"android":"levelo://app?vid=6cdcb1ce-7b07-497c-bd55-1dac8eecbd32","ios":"levelo://app?vid=6cdcb1ce-7b07-497c-bd55-1dac8eecbd32"},"vehicle_type_id":"4","last_reported":1746443287,"current_range_meters":16800,"station_id":"ce4bgup2rcd13ifvqcn0","pricing_plan_id":"cebpf4jnsgd1na2vs0mg"},{"bike_id":"8b2285d3-d248-444c-a9fa-a333a1711750","system_id":"levelo_inurba_marseille","lat":43.28668,"lon":5.37337,"is_reserved":false,"is_disabled":false,"rental_uris":{"android":"levelo://app?vid=8b2285d3-d248-444c-a9fa-a333a1711750","ios":"levelo://app?vid=8b2285d3-d248-444c-a9fa-a333a1711750"},"vehicle_type_id":"4","last_reported":1746443287,"current_range_meters":17200,"station_id":"ce4bh3p2rcd13ifvqdq0","pricing_plan_id":"cebpf4jnsgd1na2vs0mg"},{"bike_id":"341000dc-88b6-448f-9216-4c0d3caec773","system_id":"levelo_inurba_marseille","lat":43.29199,"lon":5.35805,"is_reserved":false,"is_disabled":false,"rental_uris":{"android":"levelo://app?vid=341000dc-88b6-448f-9216-4c0d3caec773","ios":"levelo://app?vid=341000dc-88b6-448f-9216-4c0d3caec773"},"vehicle_type_id":"4","last_reported":1746443287,"current_range_meters":17200,"station_id":"ce4bhb12rcd13ifvqel0","pricing_plan_id":"cebpf4jnsgd1na2vs0mg"},{"bike_id":"48b88fde-9ce6-4381-8530-d2e28ebc216c","system_id":"levelo_inurba_marseille","lat":43.28268,"lon":5.35068,"is_reserved":false,"is_disabled":false,"rental_uris":{"android":"levelo://app?vid=48b88fde-9ce6-4381-8530-d2e28ebc216c","ios":"levelo://app?vid=48b88fde-9ce6-4381-8530-d2e28ebc216c"},"vehicle_type_id":"4","last_reported":1746443287,"current_range_meters":17200,"station_id":"ce4bhbp2rcd13ifvqerg","pricing_plan_id":"cebpf4jnsgd1na2vs0mg"},{"bike_id":"314df586-207c-4a89-8b40-3e4c328204cd","system_id":"levelo_inurba_marseille","lat":43.24648,"lon":5.38901,"is_reserved":false,"is_disabled":false,"rental_uris":{"android":"levelo://app?vid=314df586-207c-4a89-8b40-3e4c328204cd","ios":"levelo://app?vid=314df586-207c-4a89-8b40-3e4c328204cd"},"vehicle_type_id":"4","last_reported":1746443287,"current_range_meters":17200,"station_id":"ce4bhg12rcd13ifvqf60","pricing_plan_id":"cebpf4jnsgd1na2vs0mg"},{"bike_id":"fedc619d-d7cc-4df1-a967-c5d0953b5b95","system_id":"levelo_inurba_marseille","lat":43.245917,"lon":5.408323,"is_reserved":false,"is_disabled":false,"rental_uris":{"android":"levelo://app?vid=fedc619d-d7cc-4df1-a967-c5d0953b5b95","ios":"levelo://app?vid=fedc619d-d7cc-4df1-a967-c5d0953b5b95"},"vehicle_type_id":"4","last_reported":1746443287,"current_range_meters":17600,"station_id":"","pricing_plan_id":"cebpf4jnsgd1na2vs0mg"},{"bike_id":"85f883d2-106b-4bee-bdac-860bc4667032","system_id":"levelo_inurba_marseille","lat":43.24171,"lon":5.36405,"is_reserved":false,"is_disabled":false,"rental_uris":{"android":"levelo://app?vid=85f883d2-106b-4bee-bdac-860bc4667032","ios":"levelo://app?vid=85f883d2-106b-4bee-bdac-860bc4667032"},"vehicle_type_id":"4","last_reported":1746443287,"current_range_meters":17600,"station_id":"cpo36qri1sfpv3e86is0","pricing_plan_id":"cebpf4jnsgd1na2vs0mg"},{"bike_id":"96e070da-b0e6-4861-a7e6-1c419a119de3","system_id":"levelo_inurba_marseille","lat":43.31351,"lon":5.36711,"is_reserved":false,"is_disabled":false,"rental_uris":{"android":"levelo://app?vid=96e070da-b0e6-4861-a7e6-1c419a119de3","ios":"levelo://app?vid=96e070da-b0e6-4861-a7e6-1c419a119de3"},"vehicle_type_id":"4","last_reported":1746443287,"current_range_meters":18000,"station_id":"ce4bgr92rcd13ifvqc6g","pricing_plan_id":"cebpf4jnsgd1na2vs0mg"},{"bike_id":"c1986d4c-ace3-41c2-b0b5-5f62a0560bd6","system_id":"levelo_inurba_marseille","lat":43.25716,"lon":5.41115,"is_reserved":false,"is_disabled":false,"rental_uris":{"android":"levelo://app?vid=c1986d4c-ace3-41c2-b0b5-5f62a0560bd6","ios":"levelo://app?vid=c1986d4c-ace3-41c2-b0b5-5f62a0560bd6"},"vehicle_type_id":"4","last_reported":1746443287,"current_range_meters":18000,"station_id":"ce4bhkp2rcd13ifvqgd0","pricing_plan_id":"cebpf4jnsgd1na2vs0mg"},{"bike_id":"203d91f5-6c36-4523-963d-b10eff730e29","system_id":"levelo_inurba_marseille","lat":43.30737,"lon":5.42451,"is_reserved":false,"is_disabled":false,"rental_uris":{"android":"levelo://app?vid=203d91f5-6c36-4523-963d-b10eff730e29","ios":"levelo://app?vid=203d91f5-6c36-4523-963d-b10eff730e29"},"vehicle_type_id":"4","last_reported":1746443287,"current_range_meters":18000,"station_id":"st_cvj6ca6bvosntc0bfgr0","pricing_plan_id":"cebpf4jnsgd1na2vs0mg"},{"bike_id":"3f1c3e5c-1b65-4163-864b-a73c33a2ebb3","system_id":"levelo_inurba_marseille","lat":43.29624,"lon":5.37155,"is_reserved":false,"is_disabled":false,"rental_uris":{"android":"levelo://app?vid=3f1c3e5c-1b65-4163-864b-a73c33a2ebb3","ios":"levelo://app?vid=3f1c3e5c-1b65-4163-864b-a73c33a2ebb3"},"vehicle_type_id":"4","last_reported":1746443287,"current_range_meters":18800,"station_id":"ce4bgnh2rcd13ifvqc0g","pricing_plan_id":"cebpf4jnsgd1na2vs0mg"},{"bike_id":"67c23af4-17e4-4286-9e36-70cd5cabae28","system_id":"levelo_inurba_marseille","lat":43.30533,"lon":5.36536,"is_reserved":false,"is_disabled":false,"rental_uris":{"android":"levelo://app?vid=67c23af4-17e4-4286-9e36-70cd5cabae28","ios":"levelo://app?vid=67c23af4-17e4-4286-9e36-70cd5cabae28"},"vehicle_type_id":"4","last_reported":1746443287,"current_range_meters":18800,"station_id":"ce4bgs12rcd13ifvqcag","pricing_plan_id":"cebpf4jnsgd1na2vs0mg"},{"bike_id":"85df04b4-74d7-4abe-b052-2c7c8d115f3a","system_id":"levelo_inurba_marseille","lat":43.305045,"lon":5.379676,"is_reserved":false,"is_disabled":false,"rental_uris":{"android":"levelo://app?vid=85df04b4-74d7-4abe-b052-2c7c8d115f3a","ios":"levelo://app?vid=85df04b4-74d7-4abe-b052-2c7c8d115f3a"},"vehicle_type_id":"4","last_reported":1746443287,"current_range_meters":18800,"station_id":"ce4bgup2rcd13ifvqcn0","pricing_plan_id":"cebpf4jnsgd1na2vs0mg"},{"bike_id":"36d6e118-cf63-4c00-9871-4737cb62459e","system_id":"levelo_inurba_marseille","lat":43.30589,"lon":5.39355,"is_reserved":false,"is_disabled":false,"rental_uris":{"android":"levelo://app?vid=36d6e118-cf63-4c00-9871-4737cb62459e","ios":"levelo://app?vid=36d6e118-cf63-4c00-9871-4737cb62459e"},"vehicle_type_id":"4","last_reported":1746443287,"current_range_meters":18800,"station_id":"ce4bh0p2rcd13ifvqd80","pricing_plan_id":"cebpf4jnsgd1na2vs0mg"},{"bike_id":"27fb9270-3347-4597-bc81-92849befc83a","system_id":"levelo_inurba_marseille","lat":43.3248,"lon":5.36569,"is_reserved":false,"is_disabled":false,"rental_uris":{"android":"levelo://app?vid=27fb9270-3347-4597-bc81-92849befc83a","ios":"levelo://app?vid=27fb9270-3347-4597-bc81-92849befc83a"},"vehicle_type_id":"4","last_reported":1746443287,"current_range_meters":19200,"station_id":"ce4bhs12rcd13ifvqhvg","pricing_plan_id":"cebpf4jnsgd1na2vs0mg"},{"bike_id":"243b49a7-8924-4b7d-8d65-fa1ee8c16a75","system_id":"levelo_inurba_marseille","lat":43.29024,"lon":5.40483,"is_reserved":false,"is_disabled":false,"rental_uris":{"android":"levelo://app?vid=243b49a7-8924-4b7d-8d65-fa1ee8c16a75","ios":"levelo://app?vid=243b49a7-8924-4b7d-8d65-fa1ee8c16a75"},"vehicle_type_id":"4","last_reported":1746443287,"current_range_meters":19600,"station_id":"","pricing_plan_id":"cebpf4jnsgd1na2vs0mg"},{"bike_id":"cf26ec0d-0495-4d3d-a183-888342aa6690","system_id":"levelo_inurba_marseille","lat":43.31223,"lon":5.36867,"is_reserved":false,"is_disabled":false,"rental_uris":{"android":"levelo://app?vid=cf26ec0d-0495-4d3d-a183-888342aa6690","ios":"levelo://app?vid=cf26ec0d-0495-4d3d-a183-888342aa6690"},"vehicle_type_id":"4","last_reported":1746443287,"current_range_meters":19600,"station_id":"ce4bgl92rcd13ifvqbq0","pricing_plan_id":"cebpf4jnsgd1na2vs0mg"},{"bike_id":"5b8f06bc-052a-454a-b1dc-55ff1d1e7111","system_id":"levelo_inurba_marseille","lat":43.31344,"lon":5.36706,"is_reserved":false,"is_disabled":false,"rental_uris":{"android":"levelo://app?vid=5b8f06bc-052a-454a-b1dc-55ff1d1e7111","ios":"levelo://app?vid=5b8f06bc-052a-454a-b1dc-55ff1d1e7111"},"vehicle_type_id":"4","last_reported":1746443287,"current_range_meters":19600,"station_id":"ce4bgr92rcd13ifvqc6g","pricing_plan_id":"cebpf4jnsgd1na2vs0mg"},{"bike_id":"304e5de5-1b2e-4fdd-a491-34205673355f","system_id":"levelo_inurba_marseille","lat":43.27331,"lon":5.39096,"is_reserved":false,"is_disabled":false,"rental_uris":{"android":"levelo://app?vid=304e5de5-1b2e-4fdd-a491-34205673355f","ios":"levelo://app?vid=304e5de5-1b2e-4fdd-a491-34205673355f"},"vehicle_type_id":"4","last_reported":1746443287,"current_range_meters":19600,"station_id":"ce4bhgp2rcd13ifvqfe0","pricing_plan_id":"cebpf4jnsgd1na2vs0mg"},{"bike_id":"dc4b1064-f240-41d8-9647-8fef58fc0b96","system_id":"levelo_inurba_marseille","lat":43.28148,"lon":5.42638,"is_reserved":false,"is_disabled":false,"rental_uris":{"android":"levelo://app?vid=dc4b1064-f240-41d8-9647-8fef58fc0b96","ios":"levelo://app?vid=dc4b1064-f240-41d8-9647-8fef58fc0b96"},"vehicle_type_id":"4","last_reported":1746443287,"current_range_meters":19600,"station_id":"ce4bhnh2rcd13ifvqgug","pricing_plan_id":"cebpf4jnsgd1na2vs0mg"},{"bike_id":"a2bf1356-c0f9-4a02-a9b8-ec9d7386e393","system_id":"levelo_inurba_marseille","lat":43.240683,"lon":5.377366,"is_reserved":false,"is_disabled":false,"rental_uris":{"android":"levelo://app?vid=a2bf1356-c0f9-4a02-a9b8-ec9d7386e393","ios":"levelo://app?vid=a2bf1356-c0f9-4a02-a9b8-ec9d7386e393"},"vehicle_type_id":"4","last_reported":1746443287,"current_range_meters":19600,"station_id":"ce4bhnp2rcd13ifvqgvg","pricing_plan_id":"cebpf4jnsgd1na2vs0mg"},{"bike_id":"32defa8a-d476-4c0a-b39c-45ccea2a5da5","system_id":"levelo_inurba_marseille","lat":43.22931,"lon":5.35377,"is_reserved":false,"is_disabled":false,"rental_uris":{"android":"levelo://app?vid=32defa8a-d476-4c0a-b39c-45ccea2a5da5","ios":"levelo://app?vid=32defa8a-d476-4c0a-b39c-45ccea2a5da5"},"vehicle_type_id":"4","last_reported":1746443287,"current_range_meters":19600,"station_id":"cpo3532slgdg3j2ikp40","pricing_plan_id":"cebpf4jnsgd1na2vs0mg"},{"bike_id":"86b93b16-87a0-4fbf-a3d1-c409da7732b0","system_id":"levelo_inurba_marseille","lat":43.293396,"lon":5.371296,"is_reserved":false,"is_disabled":false,"rental_uris":{"android":"levelo://app?vid=86b93b16-87a0-4fbf-a3d1-c409da7732b0","ios":"levelo://app?vid=86b93b16-87a0-4fbf-a3d1-c409da7732b0"},"vehicle_type_id":"4","last_reported":1746443287,"current_range_meters":20000,"station_id":"","pricing_plan_id":"cebpf4jnsgd1na2vs0mg"},{"bike_id":"ab5db931-7911-432f-a4df-99dae6e9fcda","system_id":"levelo_inurba_marseille","lat":43.29041,"lon":5.37577,"is_reserved":false,"is_disabled":false,"rental_uris":{"android":"levelo://app?vid=ab5db931-7911-432f-a4df-99dae6e9fcda","ios":"levelo://app?vid=ab5db931-7911-432f-a4df-99dae6e9fcda"},"vehicle_type_id":"4","last_reported":1746443287,"current_range_meters":20000,"station_id":"ce4bh692rcd13ifvqe90","pricing_plan_id":"cebpf4jnsgd1na2vs0mg"},{"bike_id":"cd14e685-5575-4308-9ed8-8df3f501d383","system_id":"levelo_inurba_marseille","lat":43.28941,"lon":5.36648,"is_reserved":false,"is_disabled":false,"rental_uris":{"android":"levelo://app?vid=cd14e685-5575-4308-9ed8-8df3f501d383","ios":"levelo://app?vid=cd14e685-5575-4308-9ed8-8df3f501d383"},"vehicle_type_id":"4","last_reported":1746443287,"current_range_meters":20000,"station_id":"ce4bhap2rcd13ifvqek0","pricing_plan_id":"cebpf4jnsgd1na2vs0mg"},{"bike_id":"1f817703-dca6-4999-a84f-daf67d071f9b","system_id":"levelo_inurba_marseille","lat":43.26567,"lon":5.39018,"is_reserved":false,"is_disabled":false,"rental_uris":{"android":"levelo://app?vid=1f817703-dca6-4999-a84f-daf67d071f9b","ios":"levelo://app?vid=1f817703-dca6-4999-a84f-daf67d071f9b"},"vehicle_type_id":"4","last_reported":1746443287,"current_range_meters":20000,"station_id":"ce4bhe12rcd13ifvqf30","pricing_plan_id":"cebpf4jnsgd1na2vs0mg"},{"bike_id":"72970e8b-aaf4-40f6-8367-86083e9c744e","system_id":"levelo_inurba_marseille","lat":43.27996,"lon":5.41664,"is_reserved":false,"is_disabled":false,"rental_uris":{"android":"levelo://app?vid=72970e8b-aaf4-40f6-8367-86083e9c744e","ios":"levelo://app?vid=72970e8b-aaf4-40f6-8367-86083e9c744e"},"vehicle_type_id":"4","last_reported":1746443287,"current_range_meters":20000,"station_id":"ce4bho12rcd13ifvqh1g","pricing_plan_id":"cebpf4jnsgd1na2vs0mg"},{"bike_id":"d4f6b9d7-a1e2-42ac-9fe1-75c7c9bda882","system_id":"levelo_inurba_marseille","lat":43.321001,"lon":5.367828,"is_reserved":false,"is_disabled":false,"rental_uris":{"android":"levelo://app?vid=d4f6b9d7-a1e2-42ac-9fe1-75c7c9bda882","ios":"levelo://app?vid=d4f6b9d7-a1e2-42ac-9fe1-75c7c9bda882"},"vehicle_type_id":"4","last_reported":1746443287,"current_range_meters":20000,"station_id":"ce4bhrh2rcd13ifvqhug","pricing_plan_id":"cebpf4jnsgd1na2vs0mg"},{"bike_id":"fec08ce0-b823-4a33-81f2-2ad733d0adbc","system_id":"levelo_inurba_marseille","lat":43.29779,"lon":5.37096,"is_reserved":false,"is_disabled":false,"rental_uris":{"android":"levelo://app?vid=fec08ce0-b823-4a33-81f2-2ad733d0adbc","ios":"levelo://app?vid=fec08ce0-b823-4a33-81f2-2ad733d0adbc"},"vehicle_type_id":"4","last_reported":1746443287,"current_range_meters":20400,"station_id":"ce4bgop2rcd13ifvqc1g","pricing_plan_id":"cebpf4jnsgd1na2vs0mg"},{"bike_id":"5b0da776-35a0-4dd6-91d4-665eeee1e567","system_id":"levelo_inurba_marseille","lat":43.30592,"lon":5.36531,"is_reserved":false,"is_disabled":false,"rental_uris":{"android":"levelo://app?vid=5b0da776-35a0-4dd6-91d4-665eeee1e567","ios":"levelo://app?vid=5b0da776-35a0-4dd6-91d4-665eeee1e567"},"vehicle_type_id":"4","last_reported":1746443287,"current_range_meters":20400,"station_id":"ce4bgs12rcd13ifvqcag","pricing_plan_id":"cebpf4jnsgd1na2vs0mg"},{"bike_id":"11a5081b-e1ba-45d9-8b80-ea2a780b23b1","system_id":"levelo_inurba_marseille","lat":43.29089,"lon":5.38109,"is_reserved":false,"is_disabled":false,"rental_uris":{"android":"levelo://app?vid=11a5081b-e1ba-45d9-8b80-ea2a780b23b1","ios":"levelo://app?vid=11a5081b-e1ba-45d9-8b80-ea2a780b23b1"},"vehicle_type_id":"4","last_reported":1746443287,"current_range_meters":20400,"station_id":"ce4bh512rcd13ifvqe2g","pricing_plan_id":"cebpf4jnsgd1na2vs0mg"},{"bike_id":"1defc0cc-b574-4a3c-b9f0-e1ad7b926ebf","system_id":"levelo_inurba_marseille","lat":43.24169,"lon":5.3639,"is_reserved":false,"is_disabled":false,"rental_uris":{"android":"levelo://app?vid=1defc0cc-b574-4a3c-b9f0-e1ad7b926ebf","ios":"levelo://app?vid=1defc0cc-b574-4a3c-b9f0-e1ad7b926ebf"},"vehicle_type_id":"4","last_reported":1746443287,"current_range_meters":20400,"station_id":"cpo36qri1sfpv3e86is0","pricing_plan_id":"cebpf4jnsgd1na2vs0mg"},{"bike_id":"788046ab-4020-4c6e-a0e2-de3aee25f874","system_id":"levelo_inurba_marseille","lat":43.21193,"lon":5.35073,"is_reserved":false,"is_disabled":false,"rental_uris":{"android":"levelo://app?vid=788046ab-4020-4c6e-a0e2-de3aee25f874","ios":"levelo://app?vid=788046ab-4020-4c6e-a0e2-de3aee25f874"},"vehicle_type_id":"4","last_reported":1746443287,"current_range_meters":20400,"station_id":"st_cvj6sg6p6f1abm77japg","pricing_plan_id":"cebpf4jnsgd1na2vs0mg"},{"bike_id":"ef9f84e4-a514-4b46-b492-48e8f0936dd5","system_id":"levelo_inurba_marseille","lat":43.31264,"lon":5.40168,"is_reserved":false,"is_disabled":false,"rental_uris":{"android":"levelo://app?vid=ef9f84e4-a514-4b46-b492-48e8f0936dd5","ios":"levelo://app?vid=ef9f84e4-a514-4b46-b492-48e8f0936dd5"},"vehicle_type_id":"4","last_reported":1746443287,"current_range_meters":20800,"station_id":"ce4bh092rcd13ifvqd30","pricing_plan_id":"cebpf4jnsgd1na2vs0mg"},{"bike_id":"2e32cf46-e64c-4dcd-84d3-d8913e1039db","system_id":"levelo_inurba_marseille","lat":43.27168,"lon":5.40994,"is_reserved":false,"is_disabled":false,"rental_uris":{"android":"levelo://app?vid=2e32cf46-e64c-4dcd-84d3-d8913e1039db","ios":"levelo://app?vid=2e32cf46-e64c-4dcd-84d3-d8913e1039db"},"vehicle_type_id":"4","last_reported":1746443287,"current_range_meters":20800,"station_id":"ce4bhl12rcd13ifvqgf0","pricing_plan_id":"cebpf4jnsgd1na2vs0mg"},{"bike_id":"71fe3135-dff0-4f86-b808-f6d2eeac1b8e","system_id":"levelo_inurba_marseille","lat":43.27813,"lon":5.40716,"is_reserved":false,"is_disabled":false,"rental_uris":{"android":"levelo://app?vid=71fe3135-dff0-4f86-b808-f6d2eeac1b8e","ios":"levelo://app?vid=71fe3135-dff0-4f86-b808-f6d2eeac1b8e"},"vehicle_type_id":"4","last_reported":1746443287,"current_range_meters":20800,"station_id":"ce4bhnh2rcd13ifvqgtg","pricing_plan_id":"cebpf4jnsgd1na2vs0mg"},{"bike_id":"2b4cba43-32b7-4c93-bde3-20648e9490f2","system_id":"levelo_inurba_marseille","lat":43.24073,"lon":5.37765,"is_reserved":false,"is_disabled":false,"rental_uris":{"android":"levelo://app?vid=2b4cba43-32b7-4c93-bde3-20648e9490f2","ios":"levelo://app?vid=2b4cba43-32b7-4c93-bde3-20648e9490f2"},"vehicle_type_id":"4","last_reported":1746443287,"current_range_meters":20800,"station_id":"ce4bhnp2rcd13ifvqgvg","pricing_plan_id":"cebpf4jnsgd1na2vs0mg"},{"bike_id":"8d160a7f-0e6f-457a-9397-4abe87705b68","system_id":"levelo_inurba_marseille","lat":43.21755,"lon":5.34606,"is_reserved":false,"is_disabled":false,"rental_uris":{"android":"levelo://app?vid=8d160a7f-0e6f-457a-9397-4abe87705b68","ios":"levelo://app?vid=8d160a7f-0e6f-457a-9397-4abe87705b68"},"vehicle_type_id":"4","last_reported":1746443287,"current_range_meters":20800,"station_id":"st_cvj6r9ubvosntc0bgbag","pricing_plan_id":"cebpf4jnsgd1na2vs0mg"},{"bike_id":"7b26d8ad-e234-43ff-9682-f341d64ef84f","system_id":"levelo_inurba_marseille","lat":43.30521,"lon":5.36705,"is_reserved":false,"is_disabled":false,"rental_uris":{"android":"levelo://app?vid=7b26d8ad-e234-43ff-9682-f341d64ef84f","ios":"levelo://app?vid=7b26d8ad-e234-43ff-9682-f341d64ef84f"},"vehicle_type_id":"4","last_reported":1746443287,"current_range_meters":21600,"station_id":"ce4bgrp2rcd13ifvqc9g","pricing_plan_id":"cebpf4jnsgd1na2vs0mg"},{"bike_id":"f5624e7c-f294-481f-a1bf-27739014eb89","system_id":"levelo_inurba_marseille","lat":43.21748,"lon":5.34594,"is_reserved":false,"is_disabled":false,"rental_uris":{"android":"levelo://app?vid=f5624e7c-f294-481f-a1bf-27739014eb89","ios":"levelo://app?vid=f5624e7c-f294-481f-a1bf-27739014eb89"},"vehicle_type_id":"4","last_reported":1746443287,"current_range_meters":21600,"station_id":"st_cvj6r9ubvosntc0bgbag","pricing_plan_id":"cebpf4jnsgd1na2vs0mg"},{"bike_id":"920a3a4b-a89b-4f96-9ce2-1ed8b2fdbc0a","system_id":"levelo_inurba_marseille","lat":43.28371,"lon":5.38613,"is_reserved":false,"is_disabled":false,"rental_uris":{"android":"levelo://app?vid=920a3a4b-a89b-4f96-9ce2-1ed8b2fdbc0a","ios":"levelo://app?vid=920a3a4b-a89b-4f96-9ce2-1ed8b2fdbc0a"},"vehicle_type_id":"4","last_reported":1746443287,"current_range_meters":22000,"station_id":"ce4bh492rcd13ifvqdvg","pricing_plan_id":"cebpf4jnsgd1na2vs0mg"},{"bike_id":"8620f45d-80f3-4d23-944d-9aeaf6d3691f","system_id":"levelo_inurba_marseille","lat":43.24074,"lon":5.3776,"is_reserved":false,"is_disabled":false,"rental_uris":{"android":"levelo://app?vid=8620f45d-80f3-4d23-944d-9aeaf6d3691f","ios":"levelo://app?vid=8620f45d-80f3-4d23-944d-9aeaf6d3691f"},"vehicle_type_id":"4","last_reported":1746443287,"current_range_meters":22000,"station_id":"ce4bhnp2rcd13ifvqgvg","pricing_plan_id":"cebpf4jnsgd1na2vs0mg"},{"bike_id":"87261a79-d7a8-46e5-a4de-e6a7271583c3","system_id":"levelo_inurba_marseille","lat":43.24539,"lon":5.39554,"is_reserved":false,"is_disabled":false,"rental_uris":{"android":"levelo://app?vid=87261a79-d7a8-46e5-a4de-e6a7271583c3","ios":"levelo://app?vid=87261a79-d7a8-46e5-a4de-e6a7271583c3"},"vehicle_type_id":"4","last_reported":1746443287,"current_range_meters":22400,"station_id":"ce4bhlp2rcd13ifvqgjg","pricing_plan_id":"cebpf4jnsgd1na2vs0mg"},{"bike_id":"3ae74631-5401-4c8d-87e8-3b0125a546bc","system_id":"levelo_inurba_marseille","lat":43.24159,"lon":5.39691,"is_reserved":false,"is_disabled":false,"rental_uris":{"android":"levelo://app?vid=3ae74631-5401-4c8d-87e8-3b0125a546bc","ios":"levelo://app?vid=3ae74631-5401-4c8d-87e8-3b0125a546bc"},"vehicle_type_id":"4","last_reported":1746443287,"current_range_meters":22400,"station_id":"ce4bhn12rcd13ifvqgpg","pricing_plan_id":"cebpf4jnsgd1na2vs0mg"},{"bike_id":"d3a852b4-655d-4d40-9d50-42e796c56f96","system_id":"levelo_inurba_marseille","lat":43.32319,"lon":5.36613,"is_reserved":false,"is_disabled":false,"rental_uris":{"android":"levelo://app?vid=d3a852b4-655d-4d40-9d50-42e796c56f96","ios":"levelo://app?vid=d3a852b4-655d-4d40-9d50-42e796c56f96"},"vehicle_type_id":"4","last_reported":1746443287,"current_range_meters":22400,"station_id":"ce4bhsh2rcd13ifvqi2g","pricing_plan_id":"cebpf4jnsgd1na2vs0mg"},{"bike_id":"8908e71a-c575-48c0-88c6-1c0ed5b63a98","system_id":"levelo_inurba_marseille","lat":43.29251,"lon":5.37619,"is_reserved":false,"is_disabled":false,"rental_uris":{"android":"levelo://app?vid=8908e71a-c575-48c0-88c6-1c0ed5b63a98","ios":"levelo://app?vid=8908e71a-c575-48c0-88c6-1c0ed5b63a98"},"vehicle_type_id":"4","last_reported":1746443287,"current_range_meters":22800,"station_id":"ce4bgi12rcd13ifvqb80","pricing_plan_id":"cebpf4jnsgd1na2vs0mg"},{"bike_id":"96057c0c-3d39-47d0-b954-131ab4780978","system_id":"levelo_inurba_marseille","lat":43.31228,"lon":5.36862,"is_reserved":false,"is_disabled":false,"rental_uris":{"android":"levelo://app?vid=96057c0c-3d39-47d0-b954-131ab4780978","ios":"levelo://app?vid=96057c0c-3d39-47d0-b954-131ab4780978"},"vehicle_type_id":"4","last_reported":1746443287,"current_range_meters":22800,"station_id":"ce4bgl92rcd13ifvqbq0","pricing_plan_id":"cebpf4jnsgd1na2vs0mg"},{"bike_id":"8e43e797-16f9-4f42-98d3-ae1f67e13da5","system_id":"levelo_inurba_marseille","lat":43.29092,"lon":5.38147,"is_reserved":false,"is_disabled":false,"rental_uris":{"android":"levelo://app?vid=8e43e797-16f9-4f42-98d3-ae1f67e13da5","ios":"levelo://app?vid=8e43e797-16f9-4f42-98d3-ae1f67e13da5"},"vehicle_type_id":"4","last_reported":1746443287,"current_range_meters":22800,"station_id":"ce4bh512rcd13ifvqe2g","pricing_plan_id":"cebpf4jnsgd1na2vs0mg"},{"bike_id":"0c07b48e-96e8-4d07-96d4-7cb015a886a7","system_id":"levelo_inurba_marseille","lat":43.27374,"lon":5.36258,"is_reserved":false,"is_disabled":false,"rental_uris":{"android":"levelo://app?vid=0c07b48e-96e8-4d07-96d4-7cb015a886a7","ios":"levelo://app?vid=0c07b48e-96e8-4d07-96d4-7cb015a886a7"},"vehicle_type_id":"4","last_reported":1746443287,"current_range_meters":22800,"station_id":"ce4bhbh2rcd13ifvqeo0","pricing_plan_id":"cebpf4jnsgd1na2vs0mg"},{"bike_id":"f411480e-d16c-4cef-977f-908434432ba8","system_id":"levelo_inurba_marseille","lat":43.2175,"lon":5.34608,"is_reserved":false,"is_disabled":false,"rental_uris":{"android":"levelo://app?vid=f411480e-d16c-4cef-977f-908434432ba8","ios":"levelo://app?vid=f411480e-d16c-4cef-977f-908434432ba8"},"vehicle_type_id":"4","last_reported":1746443287,"current_range_meters":22800,"station_id":"st_cvj6r9ubvosntc0bgbag","pricing_plan_id":"cebpf4jnsgd1na2vs0mg"},{"bike_id":"9a571b8d-e5c7-4ea5-907c-23ccb24c26d4","system_id":"levelo_inurba_marseille","lat":43.21193,"lon":5.35074,"is_reserved":false,"is_disabled":false,"rental_uris":{"android":"levelo://app?vid=9a571b8d-e5c7-4ea5-907c-23ccb24c26d4","ios":"levelo://app?vid=9a571b8d-e5c7-4ea5-907c-23ccb24c26d4"},"vehicle_type_id":"4","last_reported":1746443287,"current_range_meters":22800,"station_id":"st_cvj6sg6p6f1abm77japg","pricing_plan_id":"cebpf4jnsgd1na2vs0mg"},{"bike_id":"ad293378-cf9e-426c-a9ca-ccbe1dd1e129","system_id":"levelo_inurba_marseille","lat":43.27906,"lon":5.39615,"is_reserved":false,"is_disabled":false,"rental_uris":{"android":"levelo://app?vid=ad293378-cf9e-426c-a9ca-ccbe1dd1e129","ios":"levelo://app?vid=ad293378-cf9e-426c-a9ca-ccbe1dd1e129"},"vehicle_type_id":"4","last_reported":1746443287,"current_range_meters":23200,"station_id":"ce4bhf92rcd13ifvqf40","pricing_plan_id":"cebpf4jnsgd1na2vs0mg"},{"bike_id":"2fe0eb6e-fa6d-4d73-8902-1799ebd696f0","system_id":"levelo_inurba_marseille","lat":43.24551,"lon":5.39532,"is_reserved":false,"is_disabled":false,"rental_uris":{"android":"levelo://app?vid=2fe0eb6e-fa6d-4d73-8902-1799ebd696f0","ios":"levelo://app?vid=2fe0eb6e-fa6d-4d73-8902-1799ebd696f0"},"vehicle_type_id":"4","last_reported":1746443287,"current_range_meters":23200,"station_id":"ce4bhlp2rcd13ifvqgjg","pricing_plan_id":"cebpf4jnsgd1na2vs0mg"},{"bike_id":"8c9fd3f5-a988-4e2a-8f9d-8d142e1ffbfb","system_id":"levelo_inurba_marseille","lat":43.2416,"lon":5.397,"is_reserved":false,"is_disabled":false,"rental_uris":{"android":"levelo://app?vid=8c9fd3f5-a988-4e2a-8f9d-8d142e1ffbfb","ios":"levelo://app?vid=8c9fd3f5-a988-4e2a-8f9d-8d142e1ffbfb"},"vehicle_type_id":"4","last_reported":1746443287,"current_range_meters":23200,"station_id":"ce4bhn12rcd13ifvqgpg","pricing_plan_id":"cebpf4jnsgd1na2vs0mg"},{"bike_id":"62f322a5-f51e-4771-b08b-527302de6954","system_id":"levelo_inurba_marseille","lat":43.24082,"lon":5.3776,"is_reserved":false,"is_disabled":false,"rental_uris":{"android":"levelo://app?vid=62f322a5-f51e-4771-b08b-527302de6954","ios":"levelo://app?vid=62f322a5-f51e-4771-b08b-527302de6954"},"vehicle_type_id":"4","last_reported":1746443287,"current_range_meters":23200,"station_id":"ce4bhnp2rcd13ifvqgvg","pricing_plan_id":"cebpf4jnsgd1na2vs0mg"},{"bike_id":"695e5db8-8911-4e7a-9d5d-6292dbd11e53","system_id":"levelo_inurba_marseille","lat":43.31885,"lon":5.40735,"is_reserved":false,"is_disabled":false,"rental_uris":{"android":"levelo://app?vid=695e5db8-8911-4e7a-9d5d-6292dbd11e53","ios":"levelo://app?vid=695e5db8-8911-4e7a-9d5d-6292dbd11e53"},"vehicle_type_id":"4","last_reported":1746443287,"current_range_meters":23200,"station_id":"ce4bhq12rcd13ifvqhig","pricing_plan_id":"cebpf4jnsgd1na2vs0mg"},{"bike_id":"d0746e70-2da4-497c-8d30-b37b0e2e9c1f","system_id":"levelo_inurba_marseille","lat":43.33596,"lon":5.40997,"is_reserved":false,"is_disabled":false,"rental_uris":{"android":"levelo://app?vid=d0746e70-2da4-497c-8d30-b37b0e2e9c1f","ios":"levelo://app?vid=d0746e70-2da4-497c-8d30-b37b0e2e9c1f"},"vehicle_type_id":"4","last_reported":1746443287,"current_range_meters":23200,"station_id":"ce4bhqh2rcd13ifvqhmg","pricing_plan_id":"cebpf4jnsgd1na2vs0mg"},{"bike_id":"986b987d-6f73-44cf-9100-9bcc52b4de86","system_id":"levelo_inurba_marseille","lat":43.23197,"lon":5.35557,"is_reserved":false,"is_disabled":false,"rental_uris":{"android":"levelo://app?vid=986b987d-6f73-44cf-9100-9bcc52b4de86","ios":"levelo://app?vid=986b987d-6f73-44cf-9100-9bcc52b4de86"},"vehicle_type_id":"4","last_reported":1746443287,"current_range_meters":23200,"station_id":"ce4bhu92rcd13ifvqi70","pricing_plan_id":"cebpf4jnsgd1na2vs0mg"},{"bike_id":"148751d6-27d8-45e7-9c0c-9521addae0ae","system_id":"levelo_inurba_marseille","lat":43.33757,"lon":5.37485,"is_reserved":false,"is_disabled":false,"rental_uris":{"android":"levelo://app?vid=148751d6-27d8-45e7-9c0c-9521addae0ae","ios":"levelo://app?vid=148751d6-27d8-45e7-9c0c-9521addae0ae"},"vehicle_type_id":"4","last_reported":1746443287,"current_range_meters":24000,"station_id":"","pricing_plan_id":"cebpf4jnsgd1na2vs0mg"},{"bike_id":"3bb772c7-f122-4417-92c6-a4dffeefc2f4","system_id":"levelo_inurba_marseille","lat":43.29833,"lon":5.37397,"is_reserved":false,"is_disabled":false,"rental_uris":{"android":"levelo://app?vid=3bb772c7-f122-4417-92c6-a4dffeefc2f4","ios":"levelo://app?vid=3bb772c7-f122-4417-92c6-a4dffeefc2f4"},"vehicle_type_id":"4","last_reported":1746443287,"current_range_meters":24000,"station_id":"","pricing_plan_id":"cebpf4jnsgd1na2vs0mg"},{"bike_id":"4e32be63-9d1b-43cc-9b89-7b46a65d9e82","system_id":"levelo_inurba_marseille","lat":43.33755,"lon":5.37482,"is_reserved":false,"is_disabled":false,"rental_uris":{"android":"levelo://app?vid=4e32be63-9d1b-43cc-9b89-7b46a65d9e82","ios":"levelo://app?vid=4e32be63-9d1b-43cc-9b89-7b46a65d9e82"},"vehicle_type_id":"4","last_reported":1746443287,"current_range_meters":24000,"station_id":"","pricing_plan_id":"cebpf4jnsgd1na2vs0mg"},{"bike_id":"aa9a81ef-d3b8-4473-9c45-56a3d1a7c128","system_id":"levelo_inurba_marseille","lat":43.30595,"lon":5.39368,"is_reserved":false,"is_disabled":false,"rental_uris":{"android":"levelo://app?vid=aa9a81ef-d3b8-4473-9c45-56a3d1a7c128","ios":"levelo://app?vid=aa9a81ef-d3b8-4473-9c45-56a3d1a7c128"},"vehicle_type_id":"4","last_reported":1746443287,"current_range_meters":24000,"station_id":"ce4bh0p2rcd13ifvqd80","pricing_plan_id":"cebpf4jnsgd1na2vs0mg"},{"bike_id":"4596f8f2-e4bf-4794-b21c-acfc3d756e93","system_id":"levelo_inurba_marseille","lat":43.30373,"lon":5.41875,"is_reserved":false,"is_disabled":false,"rental_uris":{"android":"levelo://app?vid=4596f8f2-e4bf-4794-b21c-acfc3d756e93","ios":"levelo://app?vid=4596f8f2-e4bf-4794-b21c-acfc3d756e93"},"vehicle_type_id":"4","last_reported":1746443287,"current_range_meters":24000,"station_id":"ce4bhop2rcd13ifvqh7g","pricing_plan_id":"cebpf4jnsgd1na2vs0mg"},{"bike_id":"cf495c21-5728-473e-8168-b87d5cd5b334","system_id":"levelo_inurba_marseille","lat":43.29894,"lon":5.43667,"is_reserved":false,"is_disabled":false,"rental_uris":{"android":"levelo://app?vid=cf495c21-5728-473e-8168-b87d5cd5b334","ios":"levelo://app?vid=cf495c21-5728-473e-8168-b87d5cd5b334"},"vehicle_type_id":"4","last_reported":1746443287,"current_range_meters":24000,"station_id":"ce4bhpp2rcd13ifvqhfg","pricing_plan_id":"cebpf4jnsgd1na2vs0mg"},{"bike_id":"638d16bc-c6e8-422e-8907-cb54e849c916","system_id":"levelo_inurba_marseille","lat":43.22936,"lon":5.3539,"is_reserved":false,"is_disabled":false,"rental_uris":{"android":"levelo://app?vid=638d16bc-c6e8-422e-8907-cb54e849c916","ios":"levelo://app?vid=638d16bc-c6e8-422e-8907-cb54e849c916"},"vehicle_type_id":"4","last_reported":1746443287,"current_range_meters":24000,"station_id":"cpo3532slgdg3j2ikp40","pricing_plan_id":"cebpf4jnsgd1na2vs0mg"},{"bike_id":"b60a93eb-8a29-4875-98c7-136f271da87f","system_id":"levelo_inurba_marseille","lat":43.262085,"lon":5.374409,"is_reserved":false,"is_disabled":false,"rental_uris":{"android":"levelo://app?vid=b60a93eb-8a29-4875-98c7-136f271da87f","ios":"levelo://app?vid=b60a93eb-8a29-4875-98c7-136f271da87f"},"vehicle_type_id":"4","last_reported":1746443287,"current_range_meters":24400,"station_id":"ce4bhgp2rcd13ifvqfc0","pricing_plan_id":"cebpf4jnsgd1na2vs0mg"},{"bike_id":"1ef23b55-92a2-4c9c-930d-41facc576f3f","system_id":"levelo_inurba_marseille","lat":43.23153,"lon":5.43723,"is_reserved":false,"is_disabled":false,"rental_uris":{"android":"levelo://app?vid=1ef23b55-92a2-4c9c-930d-41facc576f3f","ios":"levelo://app?vid=1ef23b55-92a2-4c9c-930d-41facc576f3f"},"vehicle_type_id":"4","last_reported":1746443287,"current_range_meters":24400,"station_id":"ce4bhmp2rcd13ifvqgog","pricing_plan_id":"cebpf4jnsgd1na2vs0mg"},{"bike_id":"751bbba6-1c62-431c-bce7-50c1dacf1b13","system_id":"levelo_inurba_marseille","lat":43.2416,"lon":5.39693,"is_reserved":false,"is_disabled":false,"rental_uris":{"android":"levelo://app?vid=751bbba6-1c62-431c-bce7-50c1dacf1b13","ios":"levelo://app?vid=751bbba6-1c62-431c-bce7-50c1dacf1b13"},"vehicle_type_id":"4","last_reported":1746443287,"current_range_meters":24400,"station_id":"ce4bhn12rcd13ifvqgpg","pricing_plan_id":"cebpf4jnsgd1na2vs0mg"},{"bike_id":"cd3de92f-d354-461c-8b33-460e2775e220","system_id":"levelo_inurba_marseille","lat":43.28146,"lon":5.42647,"is_reserved":false,"is_disabled":false,"rental_uris":{"android":"levelo://app?vid=cd3de92f-d354-461c-8b33-460e2775e220","ios":"levelo://app?vid=cd3de92f-d354-461c-8b33-460e2775e220"},"vehicle_type_id":"4","last_reported":1746443287,"current_range_meters":24400,"station_id":"ce4bhnh2rcd13ifvqgug","pricing_plan_id":"cebpf4jnsgd1na2vs0mg"},{"bike_id":"cde0fa0e-c4c6-4bc4-a852-f4c917846b32","system_id":"levelo_inurba_marseille","lat":43.23069,"lon":5.35469,"is_reserved":false,"is_disabled":false,"rental_uris":{"android":"levelo://app?vid=cde0fa0e-c4c6-4bc4-a852-f4c917846b32","ios":"levelo://app?vid=cde0fa0e-c4c6-4bc4-a852-f4c917846b32"},"vehicle_type_id":"4","last_reported":1746443287,"current_range_meters":24400,"station_id":"cpo3342slgdg3j2ifvpg","pricing_plan_id":"cebpf4jnsgd1na2vs0mg"},{"bike_id":"a606d140-7bac-4bfb-a3a0-4444a258dc17","system_id":"levelo_inurba_marseille","lat":43.29621,"lon":5.37164,"is_reserved":false,"is_disabled":false,"rental_uris":{"android":"levelo://app?vid=a606d140-7bac-4bfb-a3a0-4444a258dc17","ios":"levelo://app?vid=a606d140-7bac-4bfb-a3a0-4444a258dc17"},"vehicle_type_id":"4","last_reported":1746443287,"current_range_meters":24800,"station_id":"ce4bgnh2rcd13ifvqc0g","pricing_plan_id":"cebpf4jnsgd1na2vs0mg"},{"bike_id":"f9f77d0e-186d-4228-a9dd-6828ba319310","system_id":"levelo_inurba_marseille","lat":43.29851,"lon":5.36287,"is_reserved":false,"is_disabled":false,"rental_uris":{"android":"levelo://app?vid=f9f77d0e-186d-4228-a9dd-6828ba319310","ios":"levelo://app?vid=f9f77d0e-186d-4228-a9dd-6828ba319310"},"vehicle_type_id":"4","last_reported":1746443287,"current_range_meters":24800,"station_id":"ce4bgpp2rcd13ifvqc3g","pricing_plan_id":"cebpf4jnsgd1na2vs0mg"},{"bike_id":"c0e2eb01-219c-4f4b-9af9-9fb402dea3ab","system_id":"levelo_inurba_marseille","lat":43.3052,"lon":5.36567,"is_reserved":false,"is_disabled":false,"rental_uris":{"android":"levelo://app?vid=c0e2eb01-219c-4f4b-9af9-9fb402dea3ab","ios":"levelo://app?vid=c0e2eb01-219c-4f4b-9af9-9fb402dea3ab"},"vehicle_type_id":"4","last_reported":1746443287,"current_range_meters":24800,"station_id":"ce4bgs12rcd13ifvqcag","pricing_plan_id":"cebpf4jnsgd1na2vs0mg"},{"bike_id":"e630a2f1-3e24-4ec4-baff-45a20737b777","system_id":"levelo_inurba_marseille","lat":43.25938,"lon":5.40909,"is_reserved":false,"is_disabled":false,"rental_uris":{"android":"levelo://app?vid=e630a2f1-3e24-4ec4-baff-45a20737b777","ios":"levelo://app?vid=e630a2f1-3e24-4ec4-baff-45a20737b777"},"vehicle_type_id":"4","last_reported":1746443287,"current_range_meters":24800,"station_id":"ce4bhm92rcd13ifvqglg","pricing_plan_id":"cebpf4jnsgd1na2vs0mg"},{"bike_id":"d63ae83f-02b7-4956-be89-4dbafa95b24b","system_id":"levelo_inurba_marseille","lat":43.26217,"lon":5.40476,"is_reserved":false,"is_disabled":false,"rental_uris":{"android":"levelo://app?vid=d63ae83f-02b7-4956-be89-4dbafa95b24b","ios":"levelo://app?vid=d63ae83f-02b7-4956-be89-4dbafa95b24b"},"vehicle_type_id":"4","last_reported":1746443287,"current_range_meters":24800,"station_id":"ce4bhmh2rcd13ifvqgmg","pricing_plan_id":"cebpf4jnsgd1na2vs0mg"},{"bike_id":"33281fb0-76f7-4a61-8f8c-06b324faf450","system_id":"levelo_inurba_marseille","lat":43.23154,"lon":5.43723,"is_reserved":false,"is_disabled":false,"rental_uris":{"android":"levelo://app?vid=33281fb0-76f7-4a61-8f8c-06b324faf450","ios":"levelo://app?vid=33281fb0-76f7-4a61-8f8c-06b324faf450"},"vehicle_type_id":"4","last_reported":1746443287,"current_range_meters":24800,"station_id":"ce4bhmp2rcd13ifvqgog","pricing_plan_id":"cebpf4jnsgd1na2vs0mg"},{"bike_id":"6f10c397-2fb9-4802-915f-b2f2dce9e14a","system_id":"levelo_inurba_marseille","lat":43.23053,"lon":5.355,"is_reserved":false,"is_disabled":false,"rental_uris":{"android":"levelo://app?vid=6f10c397-2fb9-4802-915f-b2f2dce9e14a","ios":"levelo://app?vid=6f10c397-2fb9-4802-915f-b2f2dce9e14a"},"vehicle_type_id":"4","last_reported":1746443287,"current_range_meters":24800,"station_id":"cpo3342slgdg3j2ifvpg","pricing_plan_id":"cebpf4jnsgd1na2vs0mg"},{"bike_id":"3a63acc5-b352-4e5e-8ce6-37badecb6507","system_id":"levelo_inurba_marseille","lat":43.29499,"lon":5.41836,"is_reserved":false,"is_disabled":false,"rental_uris":{"android":"levelo://app?vid=3a63acc5-b352-4e5e-8ce6-37badecb6507","ios":"levelo://app?vid=3a63acc5-b352-4e5e-8ce6-37badecb6507"},"vehicle_type_id":"4","last_reported":1746443287,"current_range_meters":25200,"station_id":"","pricing_plan_id":"cebpf4jnsgd1na2vs0mg"},{"bike_id":"659e5838-84f1-4410-97e8-b2309c4abf7b","system_id":"levelo_inurba_marseille","lat":43.23971,"lon":5.36611,"is_reserved":false,"is_disabled":false,"rental_uris":{"android":"levelo://app?vid=659e5838-84f1-4410-97e8-b2309c4abf7b","ios":"levelo://app?vid=659e5838-84f1-4410-97e8-b2309c4abf7b"},"vehicle_type_id":"4","last_reported":1746443287,"current_range_meters":25200,"station_id":"ce4bhi12rcd13ifvqfp0","pricing_plan_id":"cebpf4jnsgd1na2vs0mg"},{"bike_id":"f78eb5dd-f1df-4f93-83b4-44386d3ce6ac","system_id":"levelo_inurba_marseille","lat":43.2603,"lon":5.37557,"is_reserved":false,"is_disabled":false,"rental_uris":{"android":"levelo://app?vid=f78eb5dd-f1df-4f93-83b4-44386d3ce6ac","ios":"levelo://app?vid=f78eb5dd-f1df-4f93-83b4-44386d3ce6ac"},"vehicle_type_id":"4","last_reported":1746443287,"current_range_meters":25600,"station_id":"ce4bhgh2rcd13ifvqfa0","pricing_plan_id":"cebpf4jnsgd1na2vs0mg"},{"bike_id":"7c01aac7-df14-45d7-920c-b42e524dee8d","system_id":"levelo_inurba_marseille","lat":43.23959,"lon":5.36646,"is_reserved":false,"is_disabled":false,"rental_uris":{"android":"levelo://app?vid=7c01aac7-df14-45d7-920c-b42e524dee8d","ios":"levelo://app?vid=7c01aac7-df14-45d7-920c-b42e524dee8d"},"vehicle_type_id":"4","last_reported":1746443287,"current_range_meters":25600,"station_id":"ce4bhi12rcd13ifvqfp0","pricing_plan_id":"cebpf4jnsgd1na2vs0mg"},{"bike_id":"fff0b5d9-79b3-413d-b373-705d9950080a","system_id":"levelo_inurba_marseille","lat":43.23965,"lon":5.36631,"is_reserved":false,"is_disabled":false,"rental_uris":{"android":"levelo://app?vid=fff0b5d9-79b3-413d-b373-705d9950080a","ios":"levelo://app?vid=fff0b5d9-79b3-413d-b373-705d9950080a"},"vehicle_type_id":"4","last_reported":1746443287,"current_range_meters":25600,"station_id":"ce4bhi12rcd13ifvqfp0","pricing_plan_id":"cebpf4jnsgd1na2vs0mg"},{"bike_id":"0aa5b90f-550a-4efd-9bbc-22b1b2133141","system_id":"levelo_inurba_marseille","lat":43.27086,"lon":5.42231,"is_reserved":false,"is_disabled":false,"rental_uris":{"android":"levelo://app?vid=0aa5b90f-550a-4efd-9bbc-22b1b2133141","ios":"levelo://app?vid=0aa5b90f-550a-4efd-9bbc-22b1b2133141"},"vehicle_type_id":"4","last_reported":1746443287,"current_range_meters":25600,"station_id":"ce4bhk92rcd13ifvqgb0","pricing_plan_id":"cebpf4jnsgd1na2vs0mg"},{"bike_id":"f8b0b83e-3275-4842-8279-54953a201dd7","system_id":"levelo_inurba_marseille","lat":43.262369,"lon":5.404531,"is_reserved":false,"is_disabled":false,"rental_uris":{"android":"levelo://app?vid=f8b0b83e-3275-4842-8279-54953a201dd7","ios":"levelo://app?vid=f8b0b83e-3275-4842-8279-54953a201dd7"},"vehicle_type_id":"4","last_reported":1746443287,"current_range_meters":25600,"station_id":"ce4bhmh2rcd13ifvqgmg","pricing_plan_id":"cebpf4jnsgd1na2vs0mg"},{"bike_id":"36453c9c-3388-461c-a3a2-007d8dcd5103","system_id":"levelo_inurba_marseille","lat":43.28169,"lon":5.42652,"is_reserved":false,"is_disabled":false,"rental_uris":{"android":"levelo://app?vid=36453c9c-3388-461c-a3a2-007d8dcd5103","ios":"levelo://app?vid=36453c9c-3388-461c-a3a2-007d8dcd5103"},"vehicle_type_id":"4","last_reported":1746443287,"current_range_meters":25600,"station_id":"ce4bhnh2rcd13ifvqgug","pricing_plan_id":"cebpf4jnsgd1na2vs0mg"},{"bike_id":"93c55fcb-4ec4-4709-a1de-02214f72e57b","system_id":"levelo_inurba_marseille","lat":43.3204,"lon":5.41543,"is_reserved":false,"is_disabled":false,"rental_uris":{"android":"levelo://app?vid=93c55fcb-4ec4-4709-a1de-02214f72e57b","ios":"levelo://app?vid=93c55fcb-4ec4-4709-a1de-02214f72e57b"},"vehicle_type_id":"4","last_reported":1746443287,"current_range_meters":25600,"station_id":"ce4bhq92rcd13ifvqhkg","pricing_plan_id":"cebpf4jnsgd1na2vs0mg"},{"bike_id":"5b46ab8c-d5dd-4506-9f0a-4c00d38f519b","system_id":"levelo_inurba_marseille","lat":43.30431,"lon":5.38885,"is_reserved":false,"is_disabled":false,"rental_uris":{"android":"levelo://app?vid=5b46ab8c-d5dd-4506-9f0a-4c00d38f519b","ios":"levelo://app?vid=5b46ab8c-d5dd-4506-9f0a-4c00d38f519b"},"vehicle_type_id":"4","last_reported":1746443287,"current_range_meters":26000,"station_id":"ce4bgk12rcd13ifvqbi0","pricing_plan_id":"cebpf4jnsgd1na2vs0mg"},{"bike_id":"89cc635a-bed9-49b0-8961-003b37b99245","system_id":"levelo_inurba_marseille","lat":43.295837,"lon":5.36731,"is_reserved":false,"is_disabled":false,"rental_uris":{"android":"levelo://app?vid=89cc635a-bed9-49b0-8961-003b37b99245","ios":"levelo://app?vid=89cc635a-bed9-49b0-8961-003b37b99245"},"vehicle_type_id":"4","last_reported":1746443287,"current_range_meters":26000,"station_id":"ce4bgph2rcd13ifvqc2g","pricing_plan_id":"cebpf4jnsgd1na2vs0mg"},{"bike_id":"eabf0582-8b53-48e6-9f84-08fff4268633","system_id":"levelo_inurba_marseille","lat":43.30544,"lon":5.36548,"is_reserved":false,"is_disabled":false,"rental_uris":{"android":"levelo://app?vid=eabf0582-8b53-48e6-9f84-08fff4268633","ios":"levelo://app?vid=eabf0582-8b53-48e6-9f84-08fff4268633"},"vehicle_type_id":"4","last_reported":1746443287,"current_range_meters":26000,"station_id":"ce4bgs12rcd13ifvqcag","pricing_plan_id":"cebpf4jnsgd1na2vs0mg"},{"bike_id":"fe2c65e3-274b-4832-9c0f-995d28053b12","system_id":"levelo_inurba_marseille","lat":43.26557,"lon":5.37288,"is_reserved":false,"is_disabled":false,"rental_uris":{"android":"levelo://app?vid=fe2c65e3-274b-4832-9c0f-995d28053b12","ios":"levelo://app?vid=fe2c65e3-274b-4832-9c0f-995d28053b12"},"vehicle_type_id":"4","last_reported":1746443287,"current_range_meters":26000,"station_id":"ce4bhg12rcd13ifvqf70","pricing_plan_id":"cebpf4jnsgd1na2vs0mg"},{"bike_id":"0c9d82fd-f39f-4521-9ef8-bf062839211e","system_id":"levelo_inurba_marseille","lat":43.26193,"lon":5.3745,"is_reserved":false,"is_disabled":false,"rental_uris":{"android":"levelo://app?vid=0c9d82fd-f39f-4521-9ef8-bf062839211e","ios":"levelo://app?vid=0c9d82fd-f39f-4521-9ef8-bf062839211e"},"vehicle_type_id":"4","last_reported":1746443287,"current_range_meters":26000,"station_id":"ce4bhgp2rcd13ifvqfc0","pricing_plan_id":"cebpf4jnsgd1na2vs0mg"},{"bike_id":"23f68579-37ab-41da-8fea-9105077c169a","system_id":"levelo_inurba_marseille","lat":43.27499,"lon":5.42464,"is_reserved":false,"is_disabled":false,"rental_uris":{"android":"levelo://app?vid=23f68579-37ab-41da-8fea-9105077c169a","ios":"levelo://app?vid=23f68579-37ab-41da-8fea-9105077c169a"},"vehicle_type_id":"4","last_reported":1746443287,"current_range_meters":26000,"station_id":"ce4bhn92rcd13ifvqgrg","pricing_plan_id":"cebpf4jnsgd1na2vs0mg"},{"bike_id":"eba04785-1185-4a95-8ffb-702d9467923a","system_id":"levelo_inurba_marseille","lat":43.28154,"lon":5.42645,"is_reserved":false,"is_disabled":false,"rental_uris":{"android":"levelo://app?vid=eba04785-1185-4a95-8ffb-702d9467923a","ios":"levelo://app?vid=eba04785-1185-4a95-8ffb-702d9467923a"},"vehicle_type_id":"4","last_reported":1746443287,"current_range_meters":26000,"station_id":"ce4bhnh2rcd13ifvqgug","pricing_plan_id":"cebpf4jnsgd1na2vs0mg"},{"bike_id":"360d344c-7cc8-405a-b93b-d70bd13410b5","system_id":"levelo_inurba_marseille","lat":43.27916,"lon":5.39581,"is_reserved":false,"is_disabled":false,"rental_uris":{"android":"levelo://app?vid=360d344c-7cc8-405a-b93b-d70bd13410b5","ios":"levelo://app?vid=360d344c-7cc8-405a-b93b-d70bd13410b5"},"vehicle_type_id":"4","last_reported":1746443287,"current_range_meters":26800,"station_id":"ce4bhf92rcd13ifvqf40","pricing_plan_id":"cebpf4jnsgd1na2vs0mg"},{"bike_id":"559c0644-c43e-4040-ba42-79580febc08d","system_id":"levelo_inurba_marseille","lat":43.24408,"lon":5.37064,"is_reserved":false,"is_disabled":false,"rental_uris":{"android":"levelo://app?vid=559c0644-c43e-4040-ba42-79580febc08d","ios":"levelo://app?vid=559c0644-c43e-4040-ba42-79580febc08d"},"vehicle_type_id":"4","last_reported":1746443287,"current_range_meters":26800,"station_id":"ce4bhhh2rcd13ifvqfk0","pricing_plan_id":"cebpf4jnsgd1na2vs0mg"},{"bike_id":"418386e3-abf3-40a0-be92-f17c77a2278e","system_id":"levelo_inurba_marseille","lat":43.28155,"lon":5.4263,"is_reserved":false,"is_disabled":false,"rental_uris":{"android":"levelo://app?vid=418386e3-abf3-40a0-be92-f17c77a2278e","ios":"levelo://app?vid=418386e3-abf3-40a0-be92-f17c77a2278e"},"vehicle_type_id":"4","last_reported":1746443287,"current_range_meters":26800,"station_id":"ce4bhnh2rcd13ifvqgug","pricing_plan_id":"cebpf4jnsgd1na2vs0mg"},{"bike_id":"873be0ab-23cd-4aea-b147-c5fdeffe76ca","system_id":"levelo_inurba_marseille","lat":43.29652,"lon":5.37593,"is_reserved":false,"is_disabled":false,"rental_uris":{"android":"levelo://app?vid=873be0ab-23cd-4aea-b147-c5fdeffe76ca","ios":"levelo://app?vid=873be0ab-23cd-4aea-b147-c5fdeffe76ca"},"vehicle_type_id":"4","last_reported":1746443287,"current_range_meters":27200,"station_id":"","pricing_plan_id":"cebpf4jnsgd1na2vs0mg"},{"bike_id":"ec4139a4-b867-478d-a207-0b1112d40ec9","system_id":"levelo_inurba_marseille","lat":43.30882,"lon":5.39647,"is_reserved":false,"is_disabled":false,"rental_uris":{"android":"levelo://app?vid=ec4139a4-b867-478d-a207-0b1112d40ec9","ios":"levelo://app?vid=ec4139a4-b867-478d-a207-0b1112d40ec9"},"vehicle_type_id":"4","last_reported":1746443287,"current_range_meters":27200,"station_id":"ce4bh012rcd13ifvqcv0","pricing_plan_id":"cebpf4jnsgd1na2vs0mg"},{"bike_id":"26e81eac-a560-4b46-bb83-c94db0201e7f","system_id":"levelo_inurba_marseille","lat":43.29023,"lon":5.38129,"is_reserved":false,"is_disabled":false,"rental_uris":{"android":"levelo://app?vid=26e81eac-a560-4b46-bb83-c94db0201e7f","ios":"levelo://app?vid=26e81eac-a560-4b46-bb83-c94db0201e7f"},"vehicle_type_id":"4","last_reported":1746443287,"current_range_meters":27200,"station_id":"ce4bh4p2rcd13ifvqe1g","pricing_plan_id":"cebpf4jnsgd1na2vs0mg"},{"bike_id":"ff3889db-768d-4594-ac9e-858c88eac746","system_id":"levelo_inurba_marseille","lat":43.26026,"lon":5.37554,"is_reserved":false,"is_disabled":false,"rental_uris":{"android":"levelo://app?vid=ff3889db-768d-4594-ac9e-858c88eac746","ios":"levelo://app?vid=ff3889db-768d-4594-ac9e-858c88eac746"},"vehicle_type_id":"4","last_reported":1746443287,"current_range_meters":27200,"station_id":"ce4bhgh2rcd13ifvqfa0","pricing_plan_id":"cebpf4jnsgd1na2vs0mg"},{"bike_id":"5b8d7de3-fd62-401b-aec2-45345a28ccf9","system_id":"levelo_inurba_marseille","lat":43.25931,"lon":5.40904,"is_reserved":false,"is_disabled":false,"rental_uris":{"android":"levelo://app?vid=5b8d7de3-fd62-401b-aec2-45345a28ccf9","ios":"levelo://app?vid=5b8d7de3-fd62-401b-aec2-45345a28ccf9"},"vehicle_type_id":"4","last_reported":1746443287,"current_range_meters":27200,"station_id":"ce4bhm92rcd13ifvqglg","pricing_plan_id":"cebpf4jnsgd1na2vs0mg"},{"bike_id":"fa02d5da-a6c8-4512-94f1-aeb32d688931","system_id":"levelo_inurba_marseille","lat":43.24183,"lon":5.39725,"is_reserved":false,"is_disabled":false,"rental_uris":{"android":"levelo://app?vid=fa02d5da-a6c8-4512-94f1-aeb32d688931","ios":"levelo://app?vid=fa02d5da-a6c8-4512-94f1-aeb32d688931"},"vehicle_type_id":"4","last_reported":1746443287,"current_range_meters":27200,"station_id":"ce4bhn12rcd13ifvqgpg","pricing_plan_id":"cebpf4jnsgd1na2vs0mg"},{"bike_id":"89a87ac7-bc3b-476b-9481-69c3b8e589cc","system_id":"levelo_inurba_marseille","lat":43.285,"lon":5.37067,"is_reserved":false,"is_disabled":false,"rental_uris":{"android":"levelo://app?vid=89a87ac7-bc3b-476b-9481-69c3b8e589cc","ios":"levelo://app?vid=89a87ac7-bc3b-476b-9481-69c3b8e589cc"},"vehicle_type_id":"4","last_reported":1746443287,"current_range_meters":27600,"station_id":"","pricing_plan_id":"cebpf4jnsgd1na2vs0mg"},{"bike_id":"107a5235-37d3-401a-8fb0-eb41e4eb6d8e","system_id":"levelo_inurba_marseille","lat":43.3053,"lon":5.36548,"is_reserved":false,"is_disabled":false,"rental_uris":{"android":"levelo://app?vid=107a5235-37d3-401a-8fb0-eb41e4eb6d8e","ios":"levelo://app?vid=107a5235-37d3-401a-8fb0-eb41e4eb6d8e"},