{"last_updated":1761917001,"ttl":60,"version":"2.2","data":{"bikes":[{"bike_id":"c6698ab8-b9c1-4ef6-8d1d-6b190a79e8e9","system_id":"levelo_inurba_marseille","lat":43.30964,"lon":5.37277,"is_reserved":false,"is_disabled":false,"rental_uris":{"android":"levelo://app?vid=c6698ab8-b9c1-4ef6-8d1d-6b190a79e8e9","ios":"levelo://app?vid=c6698ab8-b9c1-4ef6-8d1d-6b190a79e8e9"},"vehicle_type_id":"4","last_reported":1761917001,"current_range_meters":2800,"station_id":"","pricing_plan_id":"cebpf4jnsgd1na2vs0mg"},{"bike_id":"fdf050b8-b3fa-449e-b039-5747dbce1232","system_id":"levelo_inurba_marseille","lat":43.2927,"lon":5.36841,"is_reserved":false,"is_disabled":false,"rental_uris":{"android":"levelo://app?vid=fdf050b8-b3fa-449e-b039-5747dbce1232","ios":"levelo://app?vid=fdf050b8-b3fa-449e-b039-5747dbce1232"},"vehicle_type_id":"4","last_reported":1761917001,"current_range_meters":2800,"station_id":"ce4bhbp2rcd13ifvqesg","pricing_plan_id":"cebpf4jnsgd1na2vs0mg"},{"bike_id":"c4253d60-6ec3-44b5-a353-72b4e0984454","system_id":"levelo_inurba_marseille","lat":43.28617,"lon":5.35107,"is_reserved":false,"is_disabled":false,"rental_uris":{"android":"levelo://app?vid=c4253d60-6ec3-44b5-a353-72b4e0984454","ios":"levelo://app?vid=c4253d60-6ec3-44b5-a353-72b4e0984454"},"vehicle_type_id":"4","last_reported":1761917001,"current_range_meters":2800,"station_id":"ce4bhch2rcd13ifvqeug","pricing_plan_id":"cebpf4jnsgd1na2vs0mg"},{"bike_id":"d1b3316d-017e-4f17-b376-0a91125e5c22","system_id":"levelo_inurba_marseille","lat":43.26207,"lon":5.37447,"is_reserved":false,"is_disabled":false,"rental_uris":{"android":"levelo://app?vid=d1b3316d-017e-4f17-b376-0a91125e5c22","ios":"levelo://app?vid=d1b3316d-017e-4f17-b376-0a91125e5c22"},"vehicle_type_id":"4","last_reported":1761917001,"current_range_meters":2800,"station_id":"ce4bhgp2rcd13ifvqfc0","pricing_plan_id":"cebpf4jnsgd1na2vs0mg"},{"bike_id":"8b2f8e79-44af-4828-9f5e-25bafde8a380","system_id":"levelo_inurba_marseille","lat":43.25726,"lon":5.41111,"is_reserved":false,"is_disabled":false,"rental_uris":{"android":"levelo://app?vid=8b2f8e79-44af-4828-9f5e-25bafde8a380","ios":"levelo://app?vid=8b2f8e79-44af-4828-9f5e-25bafde8a380"},"vehicle_type_id":"4","last_reported":1761917001,"current_range_meters":2800,"station_id":"ce4bhkp2rcd13ifvqgd0","pricing_plan_id":"cebpf4jnsgd1na2vs0mg"},{"bike_id":"b418c441-0482-4c7f-9b94-2ec9c0964d99","system_id":"levelo_inurba_marseille","lat":43.272093,"lon":5.391673,"is_reserved":false,"is_disabled":false,"rental_uris":{"android":"levelo://app?vid=b418c441-0482-4c7f-9b94-2ec9c0964d99","ios":"levelo://app?vid=b418c441-0482-4c7f-9b94-2ec9c0964d99"},"vehicle_type_id":"4","last_reported":1761917001,"current_range_meters":3200,"station_id":"ce4bhhp2rcd13ifvqfm0","pricing_plan_id":"cebpf4jnsgd1na2vs0mg"},{"bike_id":"3907cbc4-d852-47a1-ba6a-707a0fb6b769","system_id":"levelo_inurba_marseille","lat":43.27378,"lon":5.3625,"is_reserved":false,"is_disabled":false,"rental_uris":{"android":"levelo://app?vid=3907cbc4-d852-47a1-ba6a-707a0fb6b769","ios":"levelo://app?vid=3907cbc4-d852-47a1-ba6a-707a0fb6b769"},"vehicle_type_id":"4","last_reported":1761917001,"current_range_meters":3200,"station_id":"ce4bhbh2rcd13ifvqeo0","pricing_plan_id":"cebpf4jnsgd1na2vs0mg"},{"bike_id":"f408f68d-8541-4963-bb3c-a4c1655f8e8a","system_id":"levelo_inurba_marseille","lat":43.304148,"lon":5.391261,"is_reserved":false,"is_disabled":false,"rental_uris":{"android":"levelo://app?vid=f408f68d-8541-4963-bb3c-a4c1655f8e8a","ios":"levelo://app?vid=f408f68d-8541-4963-bb3c-a4c1655f8e8a"},"vehicle_type_id":"4","last_reported":1761917001,"current_range_meters":3600,"station_id":"ce4bgk12rcd13ifvqbi0","pricing_plan_id":"cebpf4jnsgd1na2vs0mg"},{"bike_id":"99289d7b-beb2-4fd2-ad1f-1cd334a249d6","system_id":"levelo_inurba_marseille","lat":43.25114,"lon":5.40323,"is_reserved":false,"is_disabled":false,"rental_uris":{"android":"levelo://app?vid=99289d7b-beb2-4fd2-ad1f-1cd334a249d6","ios":"levelo://app?vid=99289d7b-beb2-4fd2-ad1f-1cd334a249d6"},"vehicle_type_id":"4","last_reported":1761917001,"current_range_meters":4000,"station_id":"ce4bhlh2rcd13ifvqgig","pricing_plan_id":"cebpf4jnsgd1na2vs0mg"},{"bike_id":"578383f1-2c1a-4a63-8744-3f60621281fa","system_id":"levelo_inurba_marseille","lat":43.29031,"lon":5.37571,"is_reserved":false,"is_disabled":false,"rental_uris":{"android":"levelo://app?vid=578383f1-2c1a-4a63-8744-3f60621281fa","ios":"levelo://app?vid=578383f1-2c1a-4a63-8744-3f60621281fa"},"vehicle_type_id":"4","last_reported":1761917001,"current_range_meters":4000,"station_id":"","pricing_plan_id":"cebpf4jnsgd1na2vs0mg"},{"bike_id":"cec9a579-b83d-49fe-8cd1-6628c9674691","system_id":"levelo_inurba_marseille","lat":43.31216,"lon":5.36925,"is_reserved":false,"is_disabled":false,"rental_uris":{"android":"levelo://app?vid=cec9a579-b83d-49fe-8cd1-6628c9674691","ios":"levelo://app?vid=cec9a579-b83d-49fe-8cd1-6628c9674691"},"vehicle_type_id":"4","last_reported":1761917001,"current_range_meters":4400,"station_id":"","pricing_plan_id":"cebpf4jnsgd1na2vs0mg"},{"bike_id":"afa4077a-36a7-4e0c-adbc-b6fea302c38c","system_id":"levelo_inurba_marseille","lat":43.267892,"lon":5.394115,"is_reserved":false,"is_disabled":false,"rental_uris":{"android":"levelo://app?vid=afa4077a-36a7-4e0c-adbc-b6fea302c38c","ios":"levelo://app?vid=afa4077a-36a7-4e0c-adbc-b6fea302c38c"},"vehicle_type_id":"4","last_reported":1761917001,"current_range_meters":4400,"station_id":"ce4bhh12rcd13ifvqfg0","pricing_plan_id":"cebpf4jnsgd1na2vs0mg"},{"bike_id":"92746286-4e0b-454b-ac22-431c598622a9","system_id":"levelo_inurba_marseille","lat":43.295215,"lon":5.37561,"is_reserved":false,"is_disabled":false,"rental_uris":{"android":"levelo://app?vid=92746286-4e0b-454b-ac22-431c598622a9","ios":"levelo://app?vid=92746286-4e0b-454b-ac22-431c598622a9"},"vehicle_type_id":"4","last_reported":1761917001,"current_range_meters":4800,"station_id":"ce4bgh92rcd13ifvqb50","pricing_plan_id":"cebpf4jnsgd1na2vs0mg"},{"bike_id":"80cde17b-197a-4666-8e1e-92c981f7a2d9","system_id":"levelo_inurba_marseille","lat":43.29556,"lon":5.4228,"is_reserved":false,"is_disabled":false,"rental_uris":{"android":"levelo://app?vid=80cde17b-197a-4666-8e1e-92c981f7a2d9","ios":"levelo://app?vid=80cde17b-197a-4666-8e1e-92c981f7a2d9"},"vehicle_type_id":"4","last_reported":1761917001,"current_range_meters":4800,"station_id":"ce4bhph2rcd13ifvqhdg","pricing_plan_id":"cebpf4jnsgd1na2vs0mg"},{"bike_id":"32256126-0adb-487b-8df3-565a5def15d2","system_id":"levelo_inurba_marseille","lat":43.289384,"lon":5.36396,"is_reserved":false,"is_disabled":false,"rental_uris":{"android":"levelo://app?vid=32256126-0adb-487b-8df3-565a5def15d2","ios":"levelo://app?vid=32256126-0adb-487b-8df3-565a5def15d2"},"vehicle_type_id":"4","last_reported":1761917001,"current_range_meters":4800,"station_id":"ce4bhc92rcd13ifvqetg","pricing_plan_id":"cebpf4jnsgd1na2vs0mg"},{"bike_id":"0b97f351-b6a8-4e3a-a51b-b82dfd8381e8","system_id":"levelo_inurba_marseille","lat":43.29036,"lon":5.39963,"is_reserved":false,"is_disabled":false,"rental_uris":{"android":"levelo://app?vid=0b97f351-b6a8-4e3a-a51b-b82dfd8381e8","ios":"levelo://app?vid=0b97f351-b6a8-4e3a-a51b-b82dfd8381e8"},"vehicle_type_id":"4","last_reported":1761917001,"current_range_meters":4800,"station_id":"ce4bh392rcd13ifvqdm0","pricing_plan_id":"cebpf4jnsgd1na2vs0mg"},{"bike_id":"255a971f-df78-445a-bdaf-a42f992f019d","system_id":"levelo_inurba_marseille","lat":43.28073,"lon":5.39655,"is_reserved":false,"is_disabled":false,"rental_uris":{"android":"levelo://app?vid=255a971f-df78-445a-bdaf-a42f992f019d","ios":"levelo://app?vid=255a971f-df78-445a-bdaf-a42f992f019d"},"vehicle_type_id":"4","last_reported":1761917001,"current_range_meters":4800,"station_id":"ce4bho12rcd13ifvqh2g","pricing_plan_id":"cebpf4jnsgd1na2vs0mg"},{"bike_id":"d492f97c-3ec7-499c-a38c-93748b9c67b1","system_id":"levelo_inurba_marseille","lat":43.28125,"lon":5.378391,"is_reserved":false,"is_disabled":false,"rental_uris":{"android":"levelo://app?vid=d492f97c-3ec7-499c-a38c-93748b9c67b1","ios":"levelo://app?vid=d492f97c-3ec7-499c-a38c-93748b9c67b1"},"vehicle_type_id":"4","last_reported":1761917001,"current_range_meters":6400,"station_id":"ce4bha12rcd13ifvqee0","pricing_plan_id":"cebpf4jnsgd1na2vs0mg"},{"bike_id":"1bdb0524-fd2f-434a-9e83-4b7a1a09b5bb","system_id":"levelo_inurba_marseille","lat":43.33402,"lon":5.41116,"is_reserved":false,"is_disabled":false,"rental_uris":{"android":"levelo://app?vid=1bdb0524-fd2f-434a-9e83-4b7a1a09b5bb","ios":"levelo://app?vid=1bdb0524-fd2f-434a-9e83-4b7a1a09b5bb"},"vehicle_type_id":"4","last_reported":1761917001,"current_range_meters":6400,"station_id":"","pricing_plan_id":"cebpf4jnsgd1na2vs0mg"},{"bike_id":"03157751-5626-49fb-a68b-34ac34e93a5c","system_id":"levelo_inurba_marseille","lat":43.211902,"lon":5.350697,"is_reserved":false,"is_disabled":false,"rental_uris":{"android":"levelo://app?vid=03157751-5626-49fb-a68b-34ac34e93a5c","ios":"levelo://app?vid=03157751-5626-49fb-a68b-34ac34e93a5c"},"vehicle_type_id":"4","last_reported":1761917001,"current_range_meters":6400,"station_id":"st_cvj6sg6p6f1abm77japg","pricing_plan_id":"cebpf4jnsgd1na2vs0mg"},{"bike_id":"98e5621d-c7a9-4a34-b4a0-f95ab216264a","system_id":"levelo_inurba_marseille","lat":43.27907,"lon":5.39581,"is_reserved":false,"is_disabled":false,"rental_uris":{"android":"levelo://app?vid=98e5621d-c7a9-4a34-b4a0-f95ab216264a","ios":"levelo://app?vid=98e5621d-c7a9-4a34-b4a0-f95ab216264a"},"vehicle_type_id":"4","last_reported":1761917001,"current_range_meters":6800,"station_id":"ce4bhf92rcd13ifvqf40","pricing_plan_id":"cebpf4jnsgd1na2vs0mg"},{"bike_id":"fcab4ddf-7c9a-4832-a957-af763c1f4abb","system_id":"levelo_inurba_marseille","lat":43.303754,"lon":5.424958,"is_reserved":false,"is_disabled":true,"rental_uris":{"android":"levelo://app?vid=fcab4ddf-7c9a-4832-a957-af763c1f4abb","ios":"levelo://app?vid=fcab4ddf-7c9a-4832-a957-af763c1f4abb"},"vehicle_type_id":"4","last_reported":1761917001,"current_range_meters":6800,"station_id":"","pricing_plan_id":"cebpf4jnsgd1na2vs0mg"},{"bike_id":"1d51d92d-2c85-419c-985f-80ea225e6294","system_id":"levelo_inurba_marseille","lat":43.30301,"lon":5.39223,"is_reserved":false,"is_disabled":false,"rental_uris":{"android":"levelo://app?vid=1d51d92d-2c85-419c-985f-80ea225e6294","ios":"levelo://app?vid=1d51d92d-2c85-419c-985f-80ea225e6294"},"vehicle_type_id":"4","last_reported":1761917001,"current_range_meters":6800,"station_id":"ce4bgkh2rcd13ifvqbk0","pricing_plan_id":"cebpf4jnsgd1na2vs0mg"},{"bike_id":"117ba363-e70c-4d02-83f0-250affab1e14","system_id":"levelo_inurba_marseille","lat":43.299771,"lon":5.400787,"is_reserved":false,"is_disabled":false,"rental_uris":{"android":"levelo://app?vid=117ba363-e70c-4d02-83f0-250affab1e14","ios":"levelo://app?vid=117ba363-e70c-4d02-83f0-250affab1e14"},"vehicle_type_id":"4","last_reported":1761917001,"current_range_meters":6800,"station_id":"ce4bgvh2rcd13ifvqcs0","pricing_plan_id":"cebpf4jnsgd1na2vs0mg"},{"bike_id":"fec1db19-576c-499a-a79b-5a584e0eab11","system_id":"levelo_inurba_marseille","lat":43.29762,"lon":5.37105,"is_reserved":false,"is_disabled":false,"rental_uris":{"android":"levelo://app?vid=fec1db19-576c-499a-a79b-5a584e0eab11","ios":"levelo://app?vid=fec1db19-576c-499a-a79b-5a584e0eab11"},"vehicle_type_id":"4","last_reported":1761917001,"current_range_meters":6800,"station_id":"ce4bgop2rcd13ifvqc1g","pricing_plan_id":"cebpf4jnsgd1na2vs0mg"},{"bike_id":"c1ffec6d-7501-41ee-86e3-c1d7b5ad339b","system_id":"levelo_inurba_marseille","lat":43.24069,"lon":5.37765,"is_reserved":false,"is_disabled":false,"rental_uris":{"android":"levelo://app?vid=c1ffec6d-7501-41ee-86e3-c1d7b5ad339b","ios":"levelo://app?vid=c1ffec6d-7501-41ee-86e3-c1d7b5ad339b"},"vehicle_type_id":"4","last_reported":1761917001,"current_range_meters":6800,"station_id":"ce4bhnp2rcd13ifvqgvg","pricing_plan_id":"cebpf4jnsgd1na2vs0mg"},{"bike_id":"4ea5c8d3-596b-4c15-9f77-2d54d14bff42","system_id":"levelo_inurba_marseille","lat":43.29875,"lon":5.3844,"is_reserved":false,"is_disabled":false,"rental_uris":{"android":"levelo://app?vid=4ea5c8d3-596b-4c15-9f77-2d54d14bff42","ios":"levelo://app?vid=4ea5c8d3-596b-4c15-9f77-2d54d14bff42"},"vehicle_type_id":"4","last_reported":1761917001,"current_range_meters":8000,"station_id":"","pricing_plan_id":"cebpf4jnsgd1na2vs0mg"},{"bike_id":"6fff56e2-dc33-4322-9554-e738206d1bc0","system_id":"levelo_inurba_marseille","lat":43.21212,"lon":5.35066,"is_reserved":false,"is_disabled":false,"rental_uris":{"android":"levelo://app?vid=6fff56e2-dc33-4322-9554-e738206d1bc0","ios":"levelo://app?vid=6fff56e2-dc33-4322-9554-e738206d1bc0"},"vehicle_type_id":"4","last_reported":1761917001,"current_range_meters":8000,"station_id":"st_cvj6sg6p6f1abm77japg","pricing_plan_id":"cebpf4jnsgd1na2vs0mg"},{"bike_id":"9038c29f-6a34-4120-bb79-f434e4a87b1c","system_id":"levelo_inurba_marseille","lat":43.2315,"lon":5.43715,"is_reserved":false,"is_disabled":false,"rental_uris":{"android":"levelo://app?vid=9038c29f-6a34-4120-bb79-f434e4a87b1c","ios":"levelo://app?vid=9038c29f-6a34-4120-bb79-f434e4a87b1c"},"vehicle_type_id":"4","last_reported":1761917001,"current_range_meters":8000,"station_id":"ce4bhmp2rcd13ifvqgog","pricing_plan_id":"cebpf4jnsgd1na2vs0mg"},{"bike_id":"8ba9b8ea-c167-43c4-b381-0112c892942f","system_id":"levelo_inurba_marseille","lat":43.24381,"lon":5.37075,"is_reserved":false,"is_disabled":false,"rental_uris":{"android":"levelo://app?vid=8ba9b8ea-c167-43c4-b381-0112c892942f","ios":"levelo://app?vid=8ba9b8ea-c167-43c4-b381-0112c892942f"},"vehicle_type_id":"4","last_reported":1761917001,"current_range_meters":8400,"station_id":"ce4bhhh2rcd13ifvqfk0","pricing_plan_id":"cebpf4jnsgd1na2vs0mg"},{"bike_id":"86a14c73-a695-4685-9ede-3bdcd96cfdef","system_id":"levelo_inurba_marseille","lat":43.21189,"lon":5.35077,"is_reserved":false,"is_disabled":false,"rental_uris":{"android":"levelo://app?vid=86a14c73-a695-4685-9ede-3bdcd96cfdef","ios":"levelo://app?vid=86a14c73-a695-4685-9ede-3bdcd96cfdef"},"vehicle_type_id":"4","last_reported":1761917001,"current_range_meters":8400,"station_id":"st_cvj6sg6p6f1abm77japg","pricing_plan_id":"cebpf4jnsgd1na2vs0mg"},{"bike_id":"2c2bc812-d9a5-4286-b1d0-9ce041a000c5","system_id":"levelo_inurba_marseille","lat":43.24387,"lon":5.37057,"is_reserved":false,"is_disabled":false,"rental_uris":{"android":"levelo://app?vid=2c2bc812-d9a5-4286-b1d0-9ce041a000c5","ios":"levelo://app?vid=2c2bc812-d9a5-4286-b1d0-9ce041a000c5"},"vehicle_type_id":"4","last_reported":1761917001,"current_range_meters":8400,"station_id":"ce4bhhh2rcd13ifvqfk0","pricing_plan_id":"cebpf4jnsgd1na2vs0mg"},{"bike_id":"3126ce35-4101-4b06-a7b2-19548fb25089","system_id":"levelo_inurba_marseille","lat":43.22934,"lon":5.35377,"is_reserved":false,"is_disabled":false,"rental_uris":{"android":"levelo://app?vid=3126ce35-4101-4b06-a7b2-19548fb25089","ios":"levelo://app?vid=3126ce35-4101-4b06-a7b2-19548fb25089"},"vehicle_type_id":"4","last_reported":1761917001,"current_range_meters":8400,"station_id":"cpo3532slgdg3j2ikp40","pricing_plan_id":"cebpf4jnsgd1na2vs0mg"},{"bike_id":"b2f4b2d5-7e2a-4edd-97ae-333b8aaf69a4","system_id":"levelo_inurba_marseille","lat":43.23152,"lon":5.43727,"is_reserved":false,"is_disabled":false,"rental_uris":{"android":"levelo://app?vid=b2f4b2d5-7e2a-4edd-97ae-333b8aaf69a4","ios":"levelo://app?vid=b2f4b2d5-7e2a-4edd-97ae-333b8aaf69a4"},"vehicle_type_id":"4","last_reported":1761917001,"current_range_meters":8400,"station_id":"ce4bhmp2rcd13ifvqgog","pricing_plan_id":"cebpf4jnsgd1na2vs0mg"},{"bike_id":"688e0991-23bb-4f67-a97d-b9bb7704a66a","system_id":"levelo_inurba_marseille","lat":43.29255,"lon":5.39101,"is_reserved":false,"is_disabled":false,"rental_uris":{"android":"levelo://app?vid=688e0991-23bb-4f67-a97d-b9bb7704a66a","ios":"levelo://app?vid=688e0991-23bb-4f67-a97d-b9bb7704a66a"},"vehicle_type_id":"4","last_reported":1761917001,"current_range_meters":8800,"station_id":"","pricing_plan_id":"cebpf4jnsgd1na2vs0mg"},{"bike_id":"6647fba3-8c9f-4316-8e75-e5a829b7a5bd","system_id":"levelo_inurba_marseille","lat":43.23145,"lon":5.43708,"is_reserved":false,"is_disabled":false,"rental_uris":{"android":"levelo://app?vid=6647fba3-8c9f-4316-8e75-e5a829b7a5bd","ios":"levelo://app?vid=6647fba3-8c9f-4316-8e75-e5a829b7a5bd"},"vehicle_type_id":"4","last_reported":1761917001,"current_range_meters":8800,"station_id":"ce4bhmp2rcd13ifvqgog","pricing_plan_id":"cebpf4jnsgd1na2vs0mg"},{"bike_id":"3e0fcb7c-2720-4e48-94a1-398a871bc6fc","system_id":"levelo_inurba_marseille","lat":43.26783,"lon":5.39418,"is_reserved":false,"is_disabled":false,"rental_uris":{"android":"levelo://app?vid=3e0fcb7c-2720-4e48-94a1-398a871bc6fc","ios":"levelo://app?vid=3e0fcb7c-2720-4e48-94a1-398a871bc6fc"},"vehicle_type_id":"4","last_reported":1761917001,"current_range_meters":8800,"station_id":"ce4bhh12rcd13ifvqfg0","pricing_plan_id":"cebpf4jnsgd1na2vs0mg"},{"bike_id":"27b5731b-cf9b-4b9a-a81f-f9c1e3c045d1","system_id":"levelo_inurba_marseille","lat":43.289701,"lon":5.378395,"is_reserved":false,"is_disabled":false,"rental_uris":{"android":"levelo://app?vid=27b5731b-cf9b-4b9a-a81f-f9c1e3c045d1","ios":"levelo://app?vid=27b5731b-cf9b-4b9a-a81f-f9c1e3c045d1"},"vehicle_type_id":"4","last_reported":1761917001,"current_range_meters":9200,"station_id":"","pricing_plan_id":"cebpf4jnsgd1na2vs0mg"},{"bike_id":"b41a26a2-4416-4670-92ef-4f9cf4633c3e","system_id":"levelo_inurba_marseille","lat":43.31241,"lon":5.36911,"is_reserved":false,"is_disabled":false,"rental_uris":{"android":"levelo://app?vid=b41a26a2-4416-4670-92ef-4f9cf4633c3e","ios":"levelo://app?vid=b41a26a2-4416-4670-92ef-4f9cf4633c3e"},"vehicle_type_id":"4","last_reported":1761917001,"current_range_meters":9200,"station_id":"ce4bgl92rcd13ifvqbq0","pricing_plan_id":"cebpf4jnsgd1na2vs0mg"},{"bike_id":"bbea39c3-3a7e-4049-989c-283a95ea2ac0","system_id":"levelo_inurba_marseille","lat":43.27049,"lon":5.40276,"is_reserved":false,"is_disabled":false,"rental_uris":{"android":"levelo://app?vid=bbea39c3-3a7e-4049-989c-283a95ea2ac0","ios":"levelo://app?vid=bbea39c3-3a7e-4049-989c-283a95ea2ac0"},"vehicle_type_id":"4","last_reported":1761917001,"current_range_meters":9200,"station_id":"ce4bhk92rcd13ifvqgc0","pricing_plan_id":"cebpf4jnsgd1na2vs0mg"},{"bike_id":"efe3df60-1706-4f56-bdae-5109625b1ab8","system_id":"levelo_inurba_marseille","lat":43.27943,"lon":5.39572,"is_reserved":false,"is_disabled":false,"rental_uris":{"android":"levelo://app?vid=efe3df60-1706-4f56-bdae-5109625b1ab8","ios":"levelo://app?vid=efe3df60-1706-4f56-bdae-5109625b1ab8"},"vehicle_type_id":"4","last_reported":1761917001,"current_range_meters":9200,"station_id":"ce4bhf92rcd13ifvqf40","pricing_plan_id":"cebpf4jnsgd1na2vs0mg"},{"bike_id":"2a735ba6-899e-4fe0-ad52-a92f7a9bf02f","system_id":"levelo_inurba_marseille","lat":43.30123,"lon":5.39863,"is_reserved":false,"is_disabled":false,"rental_uris":{"android":"levelo://app?vid=2a735ba6-899e-4fe0-ad52-a92f7a9bf02f","ios":"levelo://app?vid=2a735ba6-899e-4fe0-ad52-a92f7a9bf02f"},"vehicle_type_id":"4","last_reported":1761917001,"current_range_meters":9600,"station_id":"ce4bh0h2rcd13ifvqd40","pricing_plan_id":"cebpf4jnsgd1na2vs0mg"},{"bike_id":"d99505fe-d7a7-4e44-b7f5-f0065cd01a03","system_id":"levelo_inurba_marseille","lat":43.33368,"lon":5.42927,"is_reserved":false,"is_disabled":false,"rental_uris":{"android":"levelo://app?vid=d99505fe-d7a7-4e44-b7f5-f0065cd01a03","ios":"levelo://app?vid=d99505fe-d7a7-4e44-b7f5-f0065cd01a03"},"vehicle_type_id":"4","last_reported":1761917001,"current_range_meters":10000,"station_id":"","pricing_plan_id":"cebpf4jnsgd1na2vs0mg"},{"bike_id":"7c3286fb-fd96-4525-8995-f3edf1132bc8","system_id":"levelo_inurba_marseille","lat":43.30118,"lon":5.39853,"is_reserved":false,"is_disabled":false,"rental_uris":{"android":"levelo://app?vid=7c3286fb-fd96-4525-8995-f3edf1132bc8","ios":"levelo://app?vid=7c3286fb-fd96-4525-8995-f3edf1132bc8"},"vehicle_type_id":"4","last_reported":1761917001,"current_range_meters":10000,"station_id":"ce4bh0h2rcd13ifvqd40","pricing_plan_id":"cebpf4jnsgd1na2vs0mg"},{"bike_id":"b7bf08da-3155-4ebd-90f6-2c65138a1e9a","system_id":"levelo_inurba_marseille","lat":43.21193,"lon":5.35077,"is_reserved":false,"is_disabled":false,"rental_uris":{"android":"levelo://app?vid=b7bf08da-3155-4ebd-90f6-2c65138a1e9a","ios":"levelo://app?vid=b7bf08da-3155-4ebd-90f6-2c65138a1e9a"},"vehicle_type_id":"4","last_reported":1761917001,"current_range_meters":10000,"station_id":"st_cvj6sg6p6f1abm77japg","pricing_plan_id":"cebpf4jnsgd1na2vs0mg"},{"bike_id":"a18dbf48-2c4d-4fa4-a4c5-c9871d73c9a0","system_id":"levelo_inurba_marseille","lat":43.301994,"lon":5.383462,"is_reserved":false,"is_disabled":false,"rental_uris":{"android":"levelo://app?vid=a18dbf48-2c4d-4fa4-a4c5-c9871d73c9a0","ios":"levelo://app?vid=a18dbf48-2c4d-4fa4-a4c5-c9871d73c9a0"},"vehicle_type_id":"4","last_reported":1761917001,"current_range_meters":10000,"station_id":"ce4bgup2rcd13ifvqcn0","pricing_plan_id":"cebpf4jnsgd1na2vs0mg"},{"bike_id":"07d104a3-99e8-4392-a3eb-5e6f445f54a8","system_id":"levelo_inurba_marseille","lat":43.28101,"lon":5.37835,"is_reserved":false,"is_disabled":false,"rental_uris":{"android":"levelo://app?vid=07d104a3-99e8-4392-a3eb-5e6f445f54a8","ios":"levelo://app?vid=07d104a3-99e8-4392-a3eb-5e6f445f54a8"},"vehicle_type_id":"4","last_reported":1761917001,"current_range_meters":10000,"station_id":"ce4bha12rcd13ifvqee0","pricing_plan_id":"cebpf4jnsgd1na2vs0mg"},{"bike_id":"45f46e23-7c09-43e8-9d95-fa5045c9e939","system_id":"levelo_inurba_marseille","lat":43.324806,"lon":5.365608,"is_reserved":false,"is_disabled":false,"rental_uris":{"android":"levelo://app?vid=45f46e23-7c09-43e8-9d95-fa5045c9e939","ios":"levelo://app?vid=45f46e23-7c09-43e8-9d95-fa5045c9e939"},"vehicle_type_id":"4","last_reported":1761917001,"current_range_meters":10000,"station_id":"ce4bhs12rcd13ifvqhvg","pricing_plan_id":"cebpf4jnsgd1na2vs0mg"},{"bike_id":"9b93b5e1-c939-4745-bf85-2d21945442dc","system_id":"levelo_inurba_marseille","lat":43.29987,"lon":5.36422,"is_reserved":false,"is_disabled":false,"rental_uris":{"android":"levelo://app?vid=9b93b5e1-c939-4745-bf85-2d21945442dc","ios":"levelo://app?vid=9b93b5e1-c939-4745-bf85-2d21945442dc"},"vehicle_type_id":"4","last_reported":1761917001,"current_range_meters":10800,"station_id":"","pricing_plan_id":"cebpf4jnsgd1na2vs0mg"},{"bike_id":"6031e130-bc2f-4945-be2d-739bc30e9d8e","system_id":"levelo_inurba_marseille","lat":43.28536,"lon":5.44109,"is_reserved":false,"is_disabled":false,"rental_uris":{"android":"levelo://app?vid=6031e130-bc2f-4945-be2d-739bc30e9d8e","ios":"levelo://app?vid=6031e130-bc2f-4945-be2d-739bc30e9d8e"},"vehicle_type_id":"4","last_reported":1761917001,"current_range_meters":10800,"station_id":"st_d3j3df2ikq2c7380ej80","pricing_plan_id":"cebpf4jnsgd1na2vs0mg"},{"bike_id":"ab97f8a3-d492-469b-8a43-9ab0f9d4b8d5","system_id":"levelo_inurba_marseille","lat":43.286832,"lon":5.399366,"is_reserved":false,"is_disabled":false,"rental_uris":{"android":"levelo://app?vid=ab97f8a3-d492-469b-8a43-9ab0f9d4b8d5","ios":"levelo://app?vid=ab97f8a3-d492-469b-8a43-9ab0f9d4b8d5"},"vehicle_type_id":"4","last_reported":1761917001,"current_range_meters":10800,"station_id":"ce4bho12rcd13ifvqh1g","pricing_plan_id":"cebpf4jnsgd1na2vs0mg"},{"bike_id":"70877e37-b5a2-4b5e-a614-656afe9daeb9","system_id":"levelo_inurba_marseille","lat":43.25002,"lon":5.38927,"is_reserved":false,"is_disabled":false,"rental_uris":{"android":"levelo://app?vid=70877e37-b5a2-4b5e-a614-656afe9daeb9","ios":"levelo://app?vid=70877e37-b5a2-4b5e-a614-656afe9daeb9"},"vehicle_type_id":"4","last_reported":1761917001,"current_range_meters":10800,"station_id":"ce4bhgp2rcd13ifvqfd0","pricing_plan_id":"cebpf4jnsgd1na2vs0mg"},{"bike_id":"aad731fe-f402-47a2-a9e2-d1ab53621c21","system_id":"levelo_inurba_marseille","lat":43.23779,"lon":5.36638,"is_reserved":false,"is_disabled":false,"rental_uris":{"android":"levelo://app?vid=aad731fe-f402-47a2-a9e2-d1ab53621c21","ios":"levelo://app?vid=aad731fe-f402-47a2-a9e2-d1ab53621c21"},"vehicle_type_id":"4","last_reported":1761917001,"current_range_meters":10800,"station_id":"st_d3nk18o9ro0c73en2l3g","pricing_plan_id":"cebpf4jnsgd1na2vs0mg"},{"bike_id":"b61e1e59-261f-4781-9885-10fc3dd1eaf7","system_id":"levelo_inurba_marseille","lat":43.30496,"lon":5.36905,"is_reserved":false,"is_disabled":false,"rental_uris":{"android":"levelo://app?vid=b61e1e59-261f-4781-9885-10fc3dd1eaf7","ios":"levelo://app?vid=b61e1e59-261f-4781-9885-10fc3dd1eaf7"},"vehicle_type_id":"4","last_reported":1761917001,"current_range_meters":10800,"station_id":"","pricing_plan_id":"cebpf4jnsgd1na2vs0mg"},{"bike_id":"6b165c49-a61e-435b-b66c-bc7dfeb04a4a","system_id":"levelo_inurba_marseille","lat":43.27904,"lon":5.38016,"is_reserved":false,"is_disabled":false,"rental_uris":{"android":"levelo://app?vid=6b165c49-a61e-435b-b66c-bc7dfeb04a4a","ios":"levelo://app?vid=6b165c49-a61e-435b-b66c-bc7dfeb04a4a"},"vehicle_type_id":"4","last_reported":1761917001,"current_range_meters":10800,"station_id":"ce4bhf92rcd13ifvqf50","pricing_plan_id":"cebpf4jnsgd1na2vs0mg"},{"bike_id":"b4e899d5-4dd9-40d0-aa6d-9fe1dd216eca","system_id":"levelo_inurba_marseille","lat":43.27206,"lon":5.39183,"is_reserved":false,"is_disabled":false,"rental_uris":{"android":"levelo://app?vid=b4e899d5-4dd9-40d0-aa6d-9fe1dd216eca","ios":"levelo://app?vid=b4e899d5-4dd9-40d0-aa6d-9fe1dd216eca"},"vehicle_type_id":"4","last_reported":1761917001,"current_range_meters":10800,"station_id":"ce4bhhp2rcd13ifvqfm0","pricing_plan_id":"cebpf4jnsgd1na2vs0mg"},{"bike_id":"13b5bebc-2277-4643-9efc-b419c3a09bbd","system_id":"levelo_inurba_marseille","lat":43.22931,"lon":5.35378,"is_reserved":false,"is_disabled":false,"rental_uris":{"android":"levelo://app?vid=13b5bebc-2277-4643-9efc-b419c3a09bbd","ios":"levelo://app?vid=13b5bebc-2277-4643-9efc-b419c3a09bbd"},"vehicle_type_id":"4","last_reported":1761917001,"current_range_meters":11200,"station_id":"cpo3532slgdg3j2ikp40","pricing_plan_id":"cebpf4jnsgd1na2vs0mg"},{"bike_id":"2662fe9b-aa47-4e6a-8505-64d896678582","system_id":"levelo_inurba_marseille","lat":43.2257,"lon":5.41632,"is_reserved":false,"is_disabled":false,"rental_uris":{"android":"levelo://app?vid=2662fe9b-aa47-4e6a-8505-64d896678582","ios":"levelo://app?vid=2662fe9b-aa47-4e6a-8505-64d896678582"},"vehicle_type_id":"4","last_reported":1761917001,"current_range_meters":11200,"station_id":"st_d2o4gvlbi1j2169b742g","pricing_plan_id":"cebpf4jnsgd1na2vs0mg"},{"bike_id":"9156cda8-7066-4d67-8223-bdfe47331d07","system_id":"levelo_inurba_marseille","lat":43.28941,"lon":5.39635,"is_reserved":false,"is_disabled":false,"rental_uris":{"android":"levelo://app?vid=9156cda8-7066-4d67-8223-bdfe47331d07","ios":"levelo://app?vid=9156cda8-7066-4d67-8223-bdfe47331d07"},"vehicle_type_id":"4","last_reported":1761917001,"current_range_meters":11200,"station_id":"ce4bh3h2rcd13ifvqdn0","pricing_plan_id":"cebpf4jnsgd1na2vs0mg"},{"bike_id":"379d5fcc-1752-4abd-b805-a71d5e3a7898","system_id":"levelo_inurba_marseille","lat":43.29166,"lon":5.37161,"is_reserved":false,"is_disabled":false,"rental_uris":{"android":"levelo://app?vid=379d5fcc-1752-4abd-b805-a71d5e3a7898","ios":"levelo://app?vid=379d5fcc-1752-4abd-b805-a71d5e3a7898"},"vehicle_type_id":"4","last_reported":1761917001,"current_range_meters":11200,"station_id":"ce4bha92rcd13ifvqeh0","pricing_plan_id":"cebpf4jnsgd1na2vs0mg"},{"bike_id":"06bd3920-933a-4962-b9fc-baaa064cc24b","system_id":"levelo_inurba_marseille","lat":43.27431,"lon":5.39422,"is_reserved":false,"is_disabled":false,"rental_uris":{"android":"levelo://app?vid=06bd3920-933a-4962-b9fc-baaa064cc24b","ios":"levelo://app?vid=06bd3920-933a-4962-b9fc-baaa064cc24b"},"vehicle_type_id":"4","last_reported":1761917001,"current_range_meters":11200,"station_id":"ce4bhdp2rcd13ifvqf20","pricing_plan_id":"cebpf4jnsgd1na2vs0mg"},{"bike_id":"d0e9d0b6-3109-4e9a-a01e-83f85d8b461c","system_id":"levelo_inurba_marseille","lat":43.279064,"lon":5.380175,"is_reserved":false,"is_disabled":false,"rental_uris":{"android":"levelo://app?vid=d0e9d0b6-3109-4e9a-a01e-83f85d8b461c","ios":"levelo://app?vid=d0e9d0b6-3109-4e9a-a01e-83f85d8b461c"},"vehicle_type_id":"4","last_reported":1761917001,"current_range_meters":11200,"station_id":"ce4bhf92rcd13ifvqf50","pricing_plan_id":"cebpf4jnsgd1na2vs0mg"},{"bike_id":"d3e4191f-8708-4957-a7db-efe93d73dc66","system_id":"levelo_inurba_marseille","lat":43.285308,"lon":5.440989,"is_reserved":false,"is_disabled":false,"rental_uris":{"android":"levelo://app?vid=d3e4191f-8708-4957-a7db-efe93d73dc66","ios":"levelo://app?vid=d3e4191f-8708-4957-a7db-efe93d73dc66"},"vehicle_type_id":"4","last_reported":1761917001,"current_range_meters":11600,"station_id":"st_d3j3df2ikq2c7380ej80","pricing_plan_id":"cebpf4jnsgd1na2vs0mg"},{"bike_id":"88327406-ba65-4ce0-831c-3da476dbb691","system_id":"levelo_inurba_marseille","lat":43.23768,"lon":5.36681,"is_reserved":false,"is_disabled":false,"rental_uris":{"android":"levelo://app?vid=88327406-ba65-4ce0-831c-3da476dbb691","ios":"levelo://app?vid=88327406-ba65-4ce0-831c-3da476dbb691"},"vehicle_type_id":"4","last_reported":1761917001,"current_range_meters":11600,"station_id":"st_d3nk18o9ro0c73en2l3g","pricing_plan_id":"cebpf4jnsgd1na2vs0mg"},{"bike_id":"60ef5c64-5d03-41c7-afc2-aafc3eb32b64","system_id":"levelo_inurba_marseille","lat":43.26234,"lon":5.40481,"is_reserved":false,"is_disabled":false,"rental_uris":{"android":"levelo://app?vid=60ef5c64-5d03-41c7-afc2-aafc3eb32b64","ios":"levelo://app?vid=60ef5c64-5d03-41c7-afc2-aafc3eb32b64"},"vehicle_type_id":"4","last_reported":1761917001,"current_range_meters":11600,"station_id":"ce4bhmh2rcd13ifvqgmg","pricing_plan_id":"cebpf4jnsgd1na2vs0mg"},{"bike_id":"b8f404d3-62c4-4489-a471-d37212346558","system_id":"levelo_inurba_marseille","lat":43.31068,"lon":5.378514,"is_reserved":false,"is_disabled":false,"rental_uris":{"android":"levelo://app?vid=b8f404d3-62c4-4489-a471-d37212346558","ios":"levelo://app?vid=b8f404d3-62c4-4489-a471-d37212346558"},"vehicle_type_id":"4","last_reported":1761917001,"current_range_meters":11600,"station_id":"","pricing_plan_id":"cebpf4jnsgd1na2vs0mg"},{"bike_id":"a3ab44e7-fb1b-4abb-b5d1-5b78c79805bf","system_id":"levelo_inurba_marseille","lat":43.23192,"lon":5.35553,"is_reserved":false,"is_disabled":false,"rental_uris":{"android":"levelo://app?vid=a3ab44e7-fb1b-4abb-b5d1-5b78c79805bf","ios":"levelo://app?vid=a3ab44e7-fb1b-4abb-b5d1-5b78c79805bf"},"vehicle_type_id":"4","last_reported":1761917001,"current_range_meters":11600,"station_id":"ce4bhu92rcd13ifvqi70","pricing_plan_id":"cebpf4jnsgd1na2vs0mg"},{"bike_id":"5a335bf7-eb9a-4663-804a-c8456d060d25","system_id":"levelo_inurba_marseille","lat":43.290063,"lon":5.356212,"is_reserved":false,"is_disabled":false,"rental_uris":{"android":"levelo://app?vid=5a335bf7-eb9a-4663-804a-c8456d060d25","ios":"levelo://app?vid=5a335bf7-eb9a-4663-804a-c8456d060d25"},"vehicle_type_id":"4","last_reported":1761917001,"current_range_meters":12000,"station_id":"","pricing_plan_id":"cebpf4jnsgd1na2vs0mg"},{"bike_id":"7afafebc-9388-4b96-826a-eb1746b15f9a","system_id":"levelo_inurba_marseille","lat":43.27066,"lon":5.42284,"is_reserved":false,"is_disabled":false,"rental_uris":{"android":"levelo://app?vid=7afafebc-9388-4b96-826a-eb1746b15f9a","ios":"levelo://app?vid=7afafebc-9388-4b96-826a-eb1746b15f9a"},"vehicle_type_id":"4","last_reported":1761917001,"current_range_meters":12000,"station_id":"ce4bhk92rcd13ifvqgb0","pricing_plan_id":"cebpf4jnsgd1na2vs0mg"},{"bike_id":"8a0ff850-cf9f-4e75-bc3f-994489f28f31","system_id":"levelo_inurba_marseille","lat":43.22557,"lon":5.41641,"is_reserved":false,"is_disabled":false,"rental_uris":{"android":"levelo://app?vid=8a0ff850-cf9f-4e75-bc3f-994489f28f31","ios":"levelo://app?vid=8a0ff850-cf9f-4e75-bc3f-994489f28f31"},"vehicle_type_id":"4","last_reported":1761917001,"current_range_meters":12000,"station_id":"st_d2o4gvlbi1j2169b742g","pricing_plan_id":"cebpf4jnsgd1na2vs0mg"},{"bike_id":"7b0929cb-a19b-43d2-81fc-bb0e056a1dde","system_id":"levelo_inurba_marseille","lat":43.29526,"lon":5.38538,"is_reserved":false,"is_disabled":false,"rental_uris":{"android":"levelo://app?vid=7b0929cb-a19b-43d2-81fc-bb0e056a1dde","ios":"levelo://app?vid=7b0929cb-a19b-43d2-81fc-bb0e056a1dde"},"vehicle_type_id":"4","last_reported":1761917001,"current_range_meters":12000,"station_id":"ce4bgih2rcd13ifvqba0","pricing_plan_id":"cebpf4jnsgd1na2vs0mg"},{"bike_id":"072b4fb1-3c0b-4f0b-b6d5-17bbb5e14c36","system_id":"levelo_inurba_marseille","lat":43.2957,"lon":5.37517,"is_reserved":false,"is_disabled":false,"rental_uris":{"android":"levelo://app?vid=072b4fb1-3c0b-4f0b-b6d5-17bbb5e14c36","ios":"levelo://app?vid=072b4fb1-3c0b-4f0b-b6d5-17bbb5e14c36"},"vehicle_type_id":"4","last_reported":1761917001,"current_range_meters":12400,"station_id":"ce4bgh92rcd13ifvqb50","pricing_plan_id":"cebpf4jnsgd1na2vs0mg"},{"bike_id":"80c53fab-d9fd-4b9a-94e7-e3f3183e35da","system_id":"levelo_inurba_marseille","lat":43.33028,"lon":5.3905,"is_reserved":false,"is_disabled":false,"rental_uris":{"android":"levelo://app?vid=80c53fab-d9fd-4b9a-94e7-e3f3183e35da","ios":"levelo://app?vid=80c53fab-d9fd-4b9a-94e7-e3f3183e35da"},"vehicle_type_id":"4","last_reported":1761917001,"current_range_meters":12400,"station_id":"ce4bhr92rcd13ifvqhrg","pricing_plan_id":"cebpf4jnsgd1na2vs0mg"},{"bike_id":"52c9906d-aae6-424f-acd9-5d23ab6ce71f","system_id":"levelo_inurba_marseille","lat":43.24669,"lon":5.38158,"is_reserved":false,"is_disabled":false,"rental_uris":{"android":"levelo://app?vid=52c9906d-aae6-424f-acd9-5d23ab6ce71f","ios":"levelo://app?vid=52c9906d-aae6-424f-acd9-5d23ab6ce71f"},"vehicle_type_id":"4","last_reported":1761917001,"current_range_meters":12400,"station_id":"ce4bhih2rcd13ifvqfr0","pricing_plan_id":"cebpf4jnsgd1na2vs0mg"},{"bike_id":"85800a16-60b2-47ff-8509-ea53cdf1e0af","system_id":"levelo_inurba_marseille","lat":43.21179,"lon":5.35098,"is_reserved":false,"is_disabled":false,"rental_uris":{"android":"levelo://app?vid=85800a16-60b2-47ff-8509-ea53cdf1e0af","ios":"levelo://app?vid=85800a16-60b2-47ff-8509-ea53cdf1e0af"},"vehicle_type_id":"4","last_reported":1761917001,"current_range_meters":12400,"station_id":"st_cvj6sg6p6f1abm77japg","pricing_plan_id":"cebpf4jnsgd1na2vs0mg"},{"bike_id":"12c24c1a-5f34-4e4f-b6c0-f07cd6755b8d","system_id":"levelo_inurba_marseille","lat":43.249511,"lon":5.405079,"is_reserved":false,"is_disabled":false,"rental_uris":{"android":"levelo://app?vid=12c24c1a-5f34-4e4f-b6c0-f07cd6755b8d","ios":"levelo://app?vid=12c24c1a-5f34-4e4f-b6c0-f07cd6755b8d"},"vehicle_type_id":"4","last_reported":1761917001,"current_range_meters":12800,"station_id":"st_d2ngiaodas8pm72gd1h0","pricing_plan_id":"cebpf4jnsgd1na2vs0mg"},{"bike_id":"2f477f8f-972b-406c-841a-14096d9c76ee","system_id":"levelo_inurba_marseille","lat":43.29775,"lon":5.42787,"is_reserved":false,"is_disabled":false,"rental_uris":{"android":"levelo://app?vid=2f477f8f-972b-406c-841a-14096d9c76ee","ios":"levelo://app?vid=2f477f8f-972b-406c-841a-14096d9c76ee"},"vehicle_type_id":"4","last_reported":1761917001,"current_range_meters":12800,"station_id":"st_d3md5207bmas73dh9klg","pricing_plan_id":"cebpf4jnsgd1na2vs0mg"},{"bike_id":"70b7527d-67eb-4818-84c6-51aae343ca97","system_id":"levelo_inurba_marseille","lat":43.2847,"lon":5.48402,"is_reserved":false,"is_disabled":false,"rental_uris":{"android":"levelo://app?vid=70b7527d-67eb-4818-84c6-51aae343ca97","ios":"levelo://app?vid=70b7527d-67eb-4818-84c6-51aae343ca97"},"vehicle_type_id":"4","last_reported":1761917001,"current_range_meters":12800,"station_id":"st_d3svhcjqgbts73a3dn0g","pricing_plan_id":"cebpf4jnsgd1na2vs0mg"},{"bike_id":"66620ac2-a389-485b-9e10-c3bb87f3222b","system_id":"levelo_inurba_marseille","lat":43.24071,"lon":5.37765,"is_reserved":false,"is_disabled":false,"rental_uris":{"android":"levelo://app?vid=66620ac2-a389-485b-9e10-c3bb87f3222b","ios":"levelo://app?vid=66620ac2-a389-485b-9e10-c3bb87f3222b"},"vehicle_type_id":"4","last_reported":1761917001,"current_range_meters":12800,"station_id":"ce4bhnp2rcd13ifvqgvg","pricing_plan_id":"cebpf4jnsgd1na2vs0mg"},{"bike_id":"96ad2f8e-1ff0-415a-a84a-9186f2a5baf6","system_id":"levelo_inurba_marseille","lat":43.29606,"lon":5.37672,"is_reserved":false,"is_disabled":false,"rental_uris":{"android":"levelo://app?vid=96ad2f8e-1ff0-415a-a84a-9186f2a5baf6","ios":"levelo://app?vid=96ad2f8e-1ff0-415a-a84a-9186f2a5baf6"},"vehicle_type_id":"4","last_reported":1761917001,"current_range_meters":12800,"station_id":"ce4bgi12rcd13ifvqb80","pricing_plan_id":"cebpf4jnsgd1na2vs0mg"},{"bike_id":"46835159-5dd5-4fc9-a732-591f6a5307e4","system_id":"levelo_inurba_marseille","lat":43.31351,"lon":5.37912,"is_reserved":false,"is_disabled":false,"rental_uris":{"android":"levelo://app?vid=46835159-5dd5-4fc9-a732-591f6a5307e4","ios":"levelo://app?vid=46835159-5dd5-4fc9-a732-591f6a5307e4"},"vehicle_type_id":"4","last_reported":1761917001,"current_range_meters":12800,"station_id":"","pricing_plan_id":"cebpf4jnsgd1na2vs0mg"},{"bike_id":"950b3508-e495-4493-abdd-aa735638a963","system_id":"levelo_inurba_marseille","lat":43.29869,"lon":5.39732,"is_reserved":false,"is_disabled":false,"rental_uris":{"android":"levelo://app?vid=950b3508-e495-4493-abdd-aa735638a963","ios":"levelo://app?vid=950b3508-e495-4493-abdd-aa735638a963"},"vehicle_type_id":"4","last_reported":1761917001,"current_range_meters":12800,"station_id":"ce4bh0h2rcd13ifvqd50","pricing_plan_id":"cebpf4jnsgd1na2vs0mg"},{"bike_id":"2a2feabc-1101-4140-aee3-30dcd7c2588d","system_id":"levelo_inurba_marseille","lat":43.31864,"lon":5.39989,"is_reserved":false,"is_disabled":false,"rental_uris":{"android":"levelo://app?vid=2a2feabc-1101-4140-aee3-30dcd7c2588d","ios":"levelo://app?vid=2a2feabc-1101-4140-aee3-30dcd7c2588d"},"vehicle_type_id":"4","last_reported":1761917001,"current_range_meters":13600,"station_id":"","pricing_plan_id":"cebpf4jnsgd1na2vs0mg"},{"bike_id":"e2dfd24d-7db3-4c8e-ad84-f9e094410aad","system_id":"levelo_inurba_marseille","lat":43.29379,"lon":5.38588,"is_reserved":false,"is_disabled":false,"rental_uris":{"android":"levelo://app?vid=e2dfd24d-7db3-4c8e-ad84-f9e094410aad","ios":"levelo://app?vid=e2dfd24d-7db3-4c8e-ad84-f9e094410aad"},"vehicle_type_id":"4","last_reported":1761917001,"current_range_meters":13600,"station_id":"","pricing_plan_id":"cebpf4jnsgd1na2vs0mg"},{"bike_id":"e1374d14-ca8c-4d30-bf7a-1e91101e2cee","system_id":"levelo_inurba_marseille","lat":43.28501,"lon":5.44104,"is_reserved":false,"is_disabled":false,"rental_uris":{"android":"levelo://app?vid=e1374d14-ca8c-4d30-bf7a-1e91101e2cee","ios":"levelo://app?vid=e1374d14-ca8c-4d30-bf7a-1e91101e2cee"},"vehicle_type_id":"4","last_reported":1761917001,"current_range_meters":13600,"station_id":"st_d3j3df2ikq2c7380ej80","pricing_plan_id":"cebpf4jnsgd1na2vs0mg"},{"bike_id":"ee261a32-9de1-4b9e-a923-6c91e1e26176","system_id":"levelo_inurba_marseille","lat":43.284785,"lon":5.483872,"is_reserved":false,"is_disabled":false,"rental_uris":{"android":"levelo://app?vid=ee261a32-9de1-4b9e-a923-6c91e1e26176","ios":"levelo://app?vid=ee261a32-9de1-4b9e-a923-6c91e1e26176"},"vehicle_type_id":"4","last_reported":1761917001,"current_range_meters":13600,"station_id":"st_d3svhcjqgbts73a3dn0g","pricing_plan_id":"cebpf4jnsgd1na2vs0mg"},{"bike_id":"1213ff01-604d-4b83-b3a2-60440c4b245e","system_id":"levelo_inurba_marseille","lat":43.23781,"lon":5.36629,"is_reserved":false,"is_disabled":false,"rental_uris":{"android":"levelo://app?vid=1213ff01-604d-4b83-b3a2-60440c4b245e","ios":"levelo://app?vid=1213ff01-604d-4b83-b3a2-60440c4b245e"},"vehicle_type_id":"4","last_reported":1761917001,"current_range_meters":13600,"station_id":"st_d3nk18o9ro0c73en2l3g","pricing_plan_id":"cebpf4jnsgd1na2vs0mg"},{"bike_id":"9e079b76-3233-4436-89b1-93a3a8d79d84","system_id":"levelo_inurba_marseille","lat":43.28154,"lon":5.42656,"is_reserved":false,"is_disabled":false,"rental_uris":{"android":"levelo://app?vid=9e079b76-3233-4436-89b1-93a3a8d79d84","ios":"levelo://app?vid=9e079b76-3233-4436-89b1-93a3a8d79d84"},"vehicle_type_id":"4","last_reported":1761917001,"current_range_meters":13600,"station_id":"ce4bhnh2rcd13ifvqgug","pricing_plan_id":"cebpf4jnsgd1na2vs0mg"},{"bike_id":"a4dac4fa-66e6-48be-a654-6e17cdc7ca0b","system_id":"levelo_inurba_marseille","lat":43.337571,"lon":5.374323,"is_reserved":false,"is_disabled":false,"rental_uris":{"android":"levelo://app?vid=a4dac4fa-66e6-48be-a654-6e17cdc7ca0b","ios":"levelo://app?vid=a4dac4fa-66e6-48be-a654-6e17cdc7ca0b"},"vehicle_type_id":"4","last_reported":1761917001,"current_range_meters":14000,"station_id":"","pricing_plan_id":"cebpf4jnsgd1na2vs0mg"},{"bike_id":"040bb8e7-fa9b-4593-89be-dcc92bf6660b","system_id":"levelo_inurba_marseille","lat":43.25581,"lon":5.38233,"is_reserved":false,"is_disabled":false,"rental_uris":{"android":"levelo://app?vid=040bb8e7-fa9b-4593-89be-dcc92bf6660b","ios":"levelo://app?vid=040bb8e7-fa9b-4593-89be-dcc92bf6660b"},"vehicle_type_id":"4","last_reported":1761917001,"current_range_meters":14000,"station_id":"ce4bhih2rcd13ifvqfs0","pricing_plan_id":"cebpf4jnsgd1na2vs0mg"},{"bike_id":"36ff484e-9423-4ab5-b585-91ff751607d0","system_id":"levelo_inurba_marseille","lat":43.27206,"lon":5.39195,"is_reserved":false,"is_disabled":false,"rental_uris":{"android":"levelo://app?vid=36ff484e-9423-4ab5-b585-91ff751607d0","ios":"levelo://app?vid=36ff484e-9423-4ab5-b585-91ff751607d0"},"vehicle_type_id":"4","last_reported":1761917001,"current_range_meters":14000,"station_id":"ce4bhhp2rcd13ifvqfm0","pricing_plan_id":"cebpf4jnsgd1na2vs0mg"},{"bike_id":"6f29f227-540f-4cb2-adff-f09ac89ea0e3","system_id":"levelo_inurba_marseille","lat":43.30281,"lon":5.39243,"is_reserved":false,"is_disabled":false,"rental_uris":{"android":"levelo://app?vid=6f29f227-540f-4cb2-adff-f09ac89ea0e3","ios":"levelo://app?vid=6f29f227-540f-4cb2-adff-f09ac89ea0e3"},"vehicle_type_id":"4","last_reported":1761917001,"current_range_meters":14400,"station_id":"ce4bgkh2rcd13ifvqbk0","pricing_plan_id":"cebpf4jnsgd1na2vs0mg"},{"bike_id":"0ba9da42-64a1-4209-af52-e19dfbdee845","system_id":"levelo_inurba_marseille","lat":43.2677,"lon":5.3934,"is_reserved":false,"is_disabled":false,"rental_uris":{"android":"levelo://app?vid=0ba9da42-64a1-4209-af52-e19dfbdee845","ios":"levelo://app?vid=0ba9da42-64a1-4209-af52-e19dfbdee845"},"vehicle_type_id":"4","last_reported":1761917001,"current_range_meters":14400,"station_id":"","pricing_plan_id":"cebpf4jnsgd1na2vs0mg"},{"bike_id":"fe4a7a84-91b4-4aed-8eb9-fbb9bd463df9","system_id":"levelo_inurba_marseille","lat":43.29529,"lon":5.38542,"is_reserved":false,"is_disabled":false,"rental_uris":{"android":"levelo://app?vid=fe4a7a84-91b4-4aed-8eb9-fbb9bd463df9","ios":"levelo://app?vid=fe4a7a84-91b4-4aed-8eb9-fbb9bd463df9"},"vehicle_type_id":"4","last_reported":1761917001,"current_range_meters":14400,"station_id":"ce4bgih2rcd13ifvqba0","pricing_plan_id":"cebpf4jnsgd1na2vs0mg"},{"bike_id":"beb5aeba-4e4d-4667-9243-ae63f411ac6a","system_id":"levelo_inurba_marseille","lat":43.305566,"lon":5.36565,"is_reserved":false,"is_disabled":false,"rental_uris":{"android":"levelo://app?vid=beb5aeba-4e4d-4667-9243-ae63f411ac6a","ios":"levelo://app?vid=beb5aeba-4e4d-4667-9243-ae63f411ac6a"},"vehicle_type_id":"4","last_reported":1761917001,"current_range_meters":14400,"station_id":"ce4bgs12rcd13ifvqcag","pricing_plan_id":"cebpf4jnsgd1na2vs0mg"},{"bike_id":"aad6a064-c048-4ba9-a156-1745b89548aa","system_id":"levelo_inurba_marseille","lat":43.28307,"lon":5.41119,"is_reserved":false,"is_disabled":false,"rental_uris":{"android":"levelo://app?vid=aad6a064-c048-4ba9-a156-1745b89548aa","ios":"levelo://app?vid=aad6a064-c048-4ba9-a156-1745b89548aa"},"vehicle_type_id":"4","last_reported":1761917001,"current_range_meters":14400,"station_id":"","pricing_plan_id":"cebpf4jnsgd1na2vs0mg"},{"bike_id":"de862698-87bf-4b35-8d0d-9910afb3a484","system_id":"levelo_inurba_marseille","lat":43.30434,"lon":5.38888,"is_reserved":false,"is_disabled":false,"rental_uris":{"android":"levelo://app?vid=de862698-87bf-4b35-8d0d-9910afb3a484","ios":"levelo://app?vid=de862698-87bf-4b35-8d0d-9910afb3a484"},"vehicle_type_id":"4","last_reported":1761917001,"current_range_meters":14400,"station_id":"ce4bgk12rcd13ifvqbi0","pricing_plan_id":"cebpf4jnsgd1na2vs0mg"},{"bike_id":"c6cc2ad5-87f3-46b4-954a-6b3fc4efe701","system_id":"levelo_inurba_marseille","lat":43.298455,"lon":5.362648,"is_reserved":false,"is_disabled":false,"rental_uris":{"android":"levelo://app?vid=c6cc2ad5-87f3-46b4-954a-6b3fc4efe701","ios":"levelo://app?vid=c6cc2ad5-87f3-46b4-954a-6b3fc4efe701"},"vehicle_type_id":"4","last_reported":1761917001,"current_range_meters":14800,"station_id":"ce4bgpp2rcd13ifvqc3g","pricing_plan_id":"cebpf4jnsgd1na2vs0mg"},{"bike_id":"39f80525-6ab3-4587-b9cf-170bcb7f783b","system_id":"levelo_inurba_marseille","lat":43.30154,"lon":5.38095,"is_reserved":false,"is_disabled":false,"rental_uris":{"android":"levelo://app?vid=39f80525-6ab3-4587-b9cf-170bcb7f783b","ios":"levelo://app?vid=39f80525-6ab3-4587-b9cf-170bcb7f783b"},"vehicle_type_id":"4","last_reported":1761917001,"current_range_meters":14800,"station_id":"ce4bgjp2rcd13ifvqbh0","pricing_plan_id":"cebpf4jnsgd1na2vs0mg"},{"bike_id":"3b8d8128-20c3-4189-8013-ffc8bbfec252","system_id":"levelo_inurba_marseille","lat":43.28616,"lon":5.35103,"is_reserved":false,"is_disabled":false,"rental_uris":{"android":"levelo://app?vid=3b8d8128-20c3-4189-8013-ffc8bbfec252","ios":"levelo://app?vid=3b8d8128-20c3-4189-8013-ffc8bbfec252"},"vehicle_type_id":"4","last_reported":1761917001,"current_range_meters":14800,"station_id":"ce4bhch2rcd13ifvqeug","pricing_plan_id":"cebpf4jnsgd1na2vs0mg"},{"bike_id":"7f71708b-0ea1-4389-ad9e-9eb55c6a6cb9","system_id":"levelo_inurba_marseille","lat":43.288587,"lon":5.425236,"is_reserved":false,"is_disabled":false,"rental_uris":{"android":"levelo://app?vid=7f71708b-0ea1-4389-ad9e-9eb55c6a6cb9","ios":"levelo://app?vid=7f71708b-0ea1-4389-ad9e-9eb55c6a6cb9"},"vehicle_type_id":"4","last_reported":1761917001,"current_range_meters":14800,"station_id":"st_d3b462108ojc7389ooeg","pricing_plan_id":"cebpf4jnsgd1na2vs0mg"},{"bike_id":"5b1456bf-c4ee-43d7-8935-31ac6bf9ce09","system_id":"levelo_inurba_marseille","lat":43.27981,"lon":5.41636,"is_reserved":false,"is_disabled":false,"rental_uris":{"android":"levelo://app?vid=5b1456bf-c4ee-43d7-8935-31ac6bf9ce09","ios":"levelo://app?vid=5b1456bf-c4ee-43d7-8935-31ac6bf9ce09"},"vehicle_type_id":"4","last_reported":1761917001,"current_range_meters":14800,"station_id":"ce4bho12rcd13ifvqh1g","pricing_plan_id":"cebpf4jnsgd1na2vs0mg"},{"bike_id":"b618f10c-cdb1-483d-a455-3b79fbc3852f","system_id":"levelo_inurba_marseille","lat":43.30603,"lon":5.39352,"is_reserved":false,"is_disabled":false,"rental_uris":{"android":"levelo://app?vid=b618f10c-cdb1-483d-a455-3b79fbc3852f","ios":"levelo://app?vid=b618f10c-cdb1-483d-a455-3b79fbc3852f"},"vehicle_type_id":"4","last_reported":1761917001,"current_range_meters":15200,"station_id":"ce4bh0p2rcd13ifvqd80","pricing_plan_id":"cebpf4jnsgd1na2vs0mg"},{"bike_id":"08173caa-da0f-4493-a0dc-569af39d4af7","system_id":"levelo_inurba_marseille","lat":43.301207,"lon":5.431181,"is_reserved":false,"is_disabled":false,"rental_uris":{"android":"levelo://app?vid=08173caa-da0f-4493-a0dc-569af39d4af7","ios":"levelo://app?vid=08173caa-da0f-4493-a0dc-569af39d4af7"},"vehicle_type_id":"4","last_reported":1761917001,"current_range_meters":15200,"station_id":"st_d3js3co5814s73ftftug","pricing_plan_id":"cebpf4jnsgd1na2vs0mg"},{"bike_id":"8a632559-d61b-4289-915b-e6215ea4bf27","system_id":"levelo_inurba_marseille","lat":43.323649,"lon":5.367543,"is_reserved":false,"is_disabled":false,"rental_uris":{"android":"levelo://app?vid=8a632559-d61b-4289-915b-e6215ea4bf27","ios":"levelo://app?vid=8a632559-d61b-4289-915b-e6215ea4bf27"},"vehicle_type_id":"4","last_reported":1761917001,"current_range_meters":15200,"station_id":"ce4bhsh2rcd13ifvqi2g","pricing_plan_id":"cebpf4jnsgd1na2vs0mg"},{"bike_id":"90cc4e35-1e9a-4d48-878d-a3997094c0ce","system_id":"levelo_inurba_marseille","lat":43.246453,"lon":5.431348,"is_reserved":false,"is_disabled":false,"rental_uris":{"android":"levelo://app?vid=90cc4e35-1e9a-4d48-878d-a3997094c0ce","ios":"levelo://app?vid=90cc4e35-1e9a-4d48-878d-a3997094c0ce"},"vehicle_type_id":"4","last_reported":1761917001,"current_range_meters":15200,"station_id":"st_d2m6c4gdas8pm72e190g","pricing_plan_id":"cebpf4jnsgd1na2vs0mg"},{"bike_id":"319b8584-93f2-449c-b056-ea3f20ebc971","system_id":"levelo_inurba_marseille","lat":43.28513,"lon":5.43045,"is_reserved":false,"is_disabled":false,"rental_uris":{"android":"levelo://app?vid=319b8584-93f2-449c-b056-ea3f20ebc971","ios":"levelo://app?vid=319b8584-93f2-449c-b056-ea3f20ebc971"},"vehicle_type_id":"4","last_reported":1761917001,"current_range_meters":15200,"station_id":"","pricing_plan_id":"cebpf4jnsgd1na2vs0mg"},{"bike_id":"0dc930ae-88e6-493c-ab95-8df0b3ac1f8b","system_id":"levelo_inurba_marseille","lat":43.2989,"lon":5.43674,"is_reserved":false,"is_disabled":false,"rental_uris":{"android":"levelo://app?vid=0dc930ae-88e6-493c-ab95-8df0b3ac1f8b","ios":"levelo://app?vid=0dc930ae-88e6-493c-ab95-8df0b3ac1f8b"},"vehicle_type_id":"4","last_reported":1761917001,"current_range_meters":16000,"station_id":"ce4bhpp2rcd13ifvqhfg","pricing_plan_id":"cebpf4jnsgd1na2vs0mg"},{"bike_id":"f2942712-3404-47e6-8e4f-4b56a1fa9762","system_id":"levelo_inurba_marseille","lat":43.27317,"lon":5.39062,"is_reserved":false,"is_disabled":false,"rental_uris":{"android":"levelo://app?vid=f2942712-3404-47e6-8e4f-4b56a1fa9762","ios":"levelo://app?vid=f2942712-3404-47e6-8e4f-4b56a1fa9762"},"vehicle_type_id":"4","last_reported":1761917001,"current_range_meters":16000,"station_id":"ce4bhgp2rcd13ifvqfe0","pricing_plan_id":"cebpf4jnsgd1na2vs0mg"},{"bike_id":"215ec9ab-4454-4449-970d-27630acb5714","system_id":"levelo_inurba_marseille","lat":43.30209,"lon":5.39478,"is_reserved":false,"is_disabled":false,"rental_uris":{"android":"levelo://app?vid=215ec9ab-4454-4449-970d-27630acb5714","ios":"levelo://app?vid=215ec9ab-4454-4449-970d-27630acb5714"},"vehicle_type_id":"4","last_reported":1761917001,"current_range_meters":16000,"station_id":"ce4bh0p2rcd13ifvqd70","pricing_plan_id":"cebpf4jnsgd1na2vs0mg"},{"bike_id":"b455b474-75e1-41e0-b3e3-a1449376f7ae","system_id":"levelo_inurba_marseille","lat":43.27818,"lon":5.40718,"is_reserved":false,"is_disabled":false,"rental_uris":{"android":"levelo://app?vid=b455b474-75e1-41e0-b3e3-a1449376f7ae","ios":"levelo://app?vid=b455b474-75e1-41e0-b3e3-a1449376f7ae"},"vehicle_type_id":"4","last_reported":1761917001,"current_range_meters":16000,"station_id":"ce4bhnh2rcd13ifvqgtg","pricing_plan_id":"cebpf4jnsgd1na2vs0mg"},{"bike_id":"6cd59db7-cb12-4301-8385-22b87d7a5cfd","system_id":"levelo_inurba_marseille","lat":43.28527,"lon":5.44113,"is_reserved":false,"is_disabled":false,"rental_uris":{"android":"levelo://app?vid=6cd59db7-cb12-4301-8385-22b87d7a5cfd","ios":"levelo://app?vid=6cd59db7-cb12-4301-8385-22b87d7a5cfd"},"vehicle_type_id":"4","last_reported":1761917001,"current_range_meters":16000,"station_id":"st_d3j3df2ikq2c7380ej80","pricing_plan_id":"cebpf4jnsgd1na2vs0mg"},{"bike_id":"246d51f1-4567-467b-96b9-83426495c6fe","system_id":"levelo_inurba_marseille","lat":43.28661,"lon":5.39988,"is_reserved":false,"is_disabled":false,"rental_uris":{"android":"levelo://app?vid=246d51f1-4567-467b-96b9-83426495c6fe","ios":"levelo://app?vid=246d51f1-4567-467b-96b9-83426495c6fe"},"vehicle_type_id":"4","last_reported":1761917001,"current_range_meters":16000,"station_id":"ce4bho92rcd13ifvqh3g","pricing_plan_id":"cebpf4jnsgd1na2vs0mg"},{"bike_id":"a74ca4e6-9019-4ce4-a364-7a22bd8e206a","system_id":"levelo_inurba_marseille","lat":43.26509,"lon":5.38523,"is_reserved":false,"is_disabled":false,"rental_uris":{"android":"levelo://app?vid=a74ca4e6-9019-4ce4-a364-7a22bd8e206a","ios":"levelo://app?vid=a74ca4e6-9019-4ce4-a364-7a22bd8e206a"},"vehicle_type_id":"4","last_reported":1761917001,"current_range_meters":16000,"station_id":"","pricing_plan_id":"cebpf4jnsgd1na2vs0mg"},{"bike_id":"ec8e4f97-d500-4b79-b9f1-140344d7f670","system_id":"levelo_inurba_marseille","lat":43.231492,"lon":5.4372,"is_reserved":false,"is_disabled":false,"rental_uris":{"android":"levelo://app?vid=ec8e4f97-d500-4b79-b9f1-140344d7f670","ios":"levelo://app?vid=ec8e4f97-d500-4b79-b9f1-140344d7f670"},"vehicle_type_id":"4","last_reported":1761917001,"current_range_meters":16000,"station_id":"ce4bhmp2rcd13ifvqgog","pricing_plan_id":"cebpf4jnsgd1na2vs0mg"},{"bike_id":"a522aaf2-e9fe-4816-b92b-7f606d267633","system_id":"levelo_inurba_marseille","lat":43.30307,"lon":5.36908,"is_reserved":false,"is_disabled":false,"rental_uris":{"android":"levelo://app?vid=a522aaf2-e9fe-4816-b92b-7f606d267633","ios":"levelo://app?vid=a522aaf2-e9fe-4816-b92b-7f606d267633"},"vehicle_type_id":"4","last_reported":1761917001,"current_range_meters":16000,"station_id":"ce4bgqh2rcd13ifvqc5g","pricing_plan_id":"cebpf4jnsgd1na2vs0mg"},{"bike_id":"e8a75272-7f06-4d9a-9a27-f6d74bd86f57","system_id":"levelo_inurba_marseille","lat":43.26563,"lon":5.39009,"is_reserved":false,"is_disabled":false,"rental_uris":{"android":"levelo://app?vid=e8a75272-7f06-4d9a-9a27-f6d74bd86f57","ios":"levelo://app?vid=e8a75272-7f06-4d9a-9a27-f6d74bd86f57"},"vehicle_type_id":"4","last_reported":1761917001,"current_range_meters":16000,"station_id":"ce4bhe12rcd13ifvqf30","pricing_plan_id":"cebpf4jnsgd1na2vs0mg"},{"bike_id":"65f21baa-74e9-41fb-bd8d-b51991bbff21","system_id":"levelo_inurba_marseille","lat":43.27815,"lon":5.40715,"is_reserved":false,"is_disabled":false,"rental_uris":{"android":"levelo://app?vid=65f21baa-74e9-41fb-bd8d-b51991bbff21","ios":"levelo://app?vid=65f21baa-74e9-41fb-bd8d-b51991bbff21"},"vehicle_type_id":"4","last_reported":1761917001,"current_range_meters":16000,"station_id":"ce4bhnh2rcd13ifvqgtg","pricing_plan_id":"cebpf4jnsgd1na2vs0mg"},{"bike_id":"a9cdbb07-222c-4ae2-b8a0-add1896b5ebf","system_id":"levelo_inurba_marseille","lat":43.26061,"lon":5.39397,"is_reserved":false,"is_disabled":false,"rental_uris":{"android":"levelo://app?vid=a9cdbb07-222c-4ae2-b8a0-add1896b5ebf","ios":"levelo://app?vid=a9cdbb07-222c-4ae2-b8a0-add1896b5ebf"},"vehicle_type_id":"4","last_reported":1761917001,"current_range_meters":16400,"station_id":"ce4bhh92rcd13ifvqfj0","pricing_plan_id":"cebpf4jnsgd1na2vs0mg"},{"bike_id":"b2ce8e73-e59b-4d30-b8e2-e59e2e1e3b22","system_id":"levelo_inurba_marseille","lat":43.33775,"lon":5.37482,"is_reserved":false,"is_disabled":false,"rental_uris":{"android":"levelo://app?vid=b2ce8e73-e59b-4d30-b8e2-e59e2e1e3b22","ios":"levelo://app?vid=b2ce8e73-e59b-4d30-b8e2-e59e2e1e3b22"},"vehicle_type_id":"4","last_reported":1761917001,"current_range_meters":16400,"station_id":"","pricing_plan_id":"cebpf4jnsgd1na2vs0mg"},{"bike_id":"e7ead618-cc2b-4c53-bc61-330caff21889","system_id":"levelo_inurba_marseille","lat":43.25329,"lon":5.42163,"is_reserved":false,"is_disabled":false,"rental_uris":{"android":"levelo://app?vid=e7ead618-cc2b-4c53-bc61-330caff21889","ios":"levelo://app?vid=e7ead618-cc2b-4c53-bc61-330caff21889"},"vehicle_type_id":"4","last_reported":1761917001,"current_range_meters":16400,"station_id":"st_d2m65c5bi1j21697t3ng","pricing_plan_id":"cebpf4jnsgd1na2vs0mg"},{"bike_id":"b3d8426a-2ad7-4de4-937c-20fa80e33132","system_id":"levelo_inurba_marseille","lat":43.28419,"lon":5.34982,"is_reserved":false,"is_disabled":false,"rental_uris":{"android":"levelo://app?vid=b3d8426a-2ad7-4de4-937c-20fa80e33132","ios":"levelo://app?vid=b3d8426a-2ad7-4de4-937c-20fa80e33132"},"vehicle_type_id":"4","last_reported":1761917001,"current_range_meters":16400,"station_id":"ce4bhbh2rcd13ifvqepg","pricing_plan_id":"cebpf4jnsgd1na2vs0mg"},{"bike_id":"9426e984-d66a-46ec-83f8-e2f4059a3e57","system_id":"levelo_inurba_marseille","lat":43.298481,"lon":5.362874,"is_reserved":false,"is_disabled":false,"rental_uris":{"android":"levelo://app?vid=9426e984-d66a-46ec-83f8-e2f4059a3e57","ios":"levelo://app?vid=9426e984-d66a-46ec-83f8-e2f4059a3e57"},"vehicle_type_id":"4","last_reported":1761917001,"current_range_meters":16400,"station_id":"","pricing_plan_id":"cebpf4jnsgd1na2vs0mg"},{"bike_id":"3a1d0eea-ae5c-4952-a93a-b4ef07f03cc5","system_id":"levelo_inurba_marseille","lat":43.29967,"lon":5.41325,"is_reserved":false,"is_disabled":false,"rental_uris":{"android":"levelo://app?vid=3a1d0eea-ae5c-4952-a93a-b4ef07f03cc5","ios":"levelo://app?vid=3a1d0eea-ae5c-4952-a93a-b4ef07f03cc5"},"vehicle_type_id":"4","last_reported":1761917001,"current_range_meters":16400,"station_id":"ce4bhp12rcd13ifvqh9g","pricing_plan_id":"cebpf4jnsgd1na2vs0mg"},{"bike_id":"0963a0f8-8a97-4d36-91dc-70e891d8de9a","system_id":"levelo_inurba_marseille","lat":43.28532,"lon":5.441,"is_reserved":false,"is_disabled":false,"rental_uris":{"android":"levelo://app?vid=0963a0f8-8a97-4d36-91dc-70e891d8de9a","ios":"levelo://app?vid=0963a0f8-8a97-4d36-91dc-70e891d8de9a"},"vehicle_type_id":"4","last_reported":1761917001,"current_range_meters":16800,"station_id":"st_d3j3df2ikq2c7380ej80","pricing_plan_id":"cebpf4jnsgd1na2vs0mg"},{"bike_id":"5b725a3d-72a4-4b9d-935a-657520f375e0","system_id":"levelo_inurba_marseille","lat":43.27809,"lon":5.40718,"is_reserved":false,"is_disabled":false,"rental_uris":{"android":"levelo://app?vid=5b725a3d-72a4-4b9d-935a-657520f375e0","ios":"levelo://app?vid=5b725a3d-72a4-4b9d-935a-657520f375e0"},"vehicle_type_id":"4","last_reported":1761917001,"current_range_meters":16800,"station_id":"ce4bhnh2rcd13ifvqgtg","pricing_plan_id":"cebpf4jnsgd1na2vs0mg"},{"bike_id":"b1e81361-2b17-4ef1-8a58-6def5753471b","system_id":"levelo_inurba_marseille","lat":43.33753,"lon":5.37484,"is_reserved":false,"is_disabled":false,"rental_uris":{"android":"levelo://app?vid=b1e81361-2b17-4ef1-8a58-6def5753471b","ios":"levelo://app?vid=b1e81361-2b17-4ef1-8a58-6def5753471b"},"vehicle_type_id":"4","last_reported":1761917001,"current_range_meters":16800,"station_id":"","pricing_plan_id":"cebpf4jnsgd1na2vs0mg"},{"bike_id":"d9879afc-1f3f-4d17-b24e-0f2dfeb42721","system_id":"levelo_inurba_marseille","lat":43.27226,"lon":5.41005,"is_reserved":false,"is_disabled":false,"rental_uris":{"android":"levelo://app?vid=d9879afc-1f3f-4d17-b24e-0f2dfeb42721","ios":"levelo://app?vid=d9879afc-1f3f-4d17-b24e-0f2dfeb42721"},"vehicle_type_id":"4","last_reported":1761917001,"current_range_meters":16800,"station_id":"","pricing_plan_id":"cebpf4jnsgd1na2vs0mg"},{"bike_id":"52b117f2-4c01-4f66-887d-006722496528","system_id":"levelo_inurba_marseille","lat":43.30884,"lon":5.37165,"is_reserved":false,"is_disabled":false,"rental_uris":{"android":"levelo://app?vid=52b117f2-4c01-4f66-887d-006722496528","ios":"levelo://app?vid=52b117f2-4c01-4f66-887d-006722496528"},"vehicle_type_id":"4","last_reported":1761917001,"current_range_meters":16800,"station_id":"ce4bguh2rcd13ifvqckg","pricing_plan_id":"cebpf4jnsgd1na2vs0mg"},{"bike_id":"5b38dedc-ec66-43e8-9640-130c65de05da","system_id":"levelo_inurba_marseille","lat":43.280566,"lon":5.385939,"is_reserved":false,"is_disabled":false,"rental_uris":{"android":"levelo://app?vid=5b38dedc-ec66-43e8-9640-130c65de05da","ios":"levelo://app?vid=5b38dedc-ec66-43e8-9640-130c65de05da"},"vehicle_type_id":"4","last_reported":1761917001,"current_range_meters":16800,"station_id":"ce4bhg12rcd13ifvqf80","pricing_plan_id":"cebpf4jnsgd1na2vs0mg"},{"bike_id":"2cb60a38-d6a6-416d-a9ab-55ea9dc5bff6","system_id":"levelo_inurba_marseille","lat":43.29038,"lon":5.3996,"is_reserved":false,"is_disabled":false,"rental_uris":{"android":"levelo://app?vid=2cb60a38-d6a6-416d-a9ab-55ea9dc5bff6","ios":"levelo://app?vid=2cb60a38-d6a6-416d-a9ab-55ea9dc5bff6"},"vehicle_type_id":"4","last_reported":1761917001,"current_range_meters":17200,"station_id":"ce4bh392rcd13ifvqdm0","pricing_plan_id":"cebpf4jnsgd1na2vs0mg"},{"bike_id":"f0ef625d-b144-4413-b572-7bd463324b91","system_id":"levelo_inurba_marseille","lat":43.29784,"lon":5.37104,"is_reserved":false,"is_disabled":false,"rental_uris":{"android":"levelo://app?vid=f0ef625d-b144-4413-b572-7bd463324b91","ios":"levelo://app?vid=f0ef625d-b144-4413-b572-7bd463324b91"},"vehicle_type_id":"4","last_reported":1761917001,"current_range_meters":17200,"station_id":"ce4bgop2rcd13ifvqc1g","pricing_plan_id":"cebpf4jnsgd1na2vs0mg"},{"bike_id":"719cab00-fc05-4a10-b7e7-f67576adad60","system_id":"levelo_inurba_marseille","lat":43.23146,"lon":5.43697,"is_reserved":false,"is_disabled":false,"rental_uris":{"android":"levelo://app?vid=719cab00-fc05-4a10-b7e7-f67576adad60","ios":"levelo://app?vid=719cab00-fc05-4a10-b7e7-f67576adad60"},"vehicle_type_id":"4","last_reported":1761917001,"current_range_meters":17200,"station_id":"ce4bhmp2rcd13ifvqgog","pricing_plan_id":"cebpf4jnsgd1na2vs0mg"},{"bike_id":"30552d53-3e99-4075-ab45-b50ed90a698c","system_id":"levelo_inurba_marseille","lat":43.2963,"lon":5.37157,"is_reserved":false,"is_disabled":false,"rental_uris":{"android":"levelo://app?vid=30552d53-3e99-4075-ab45-b50ed90a698c","ios":"levelo://app?vid=30552d53-3e99-4075-ab45-b50ed90a698c"},"vehicle_type_id":"4","last_reported":1761917001,"current_range_meters":17600,"station_id":"ce4bgnh2rcd13ifvqc0g","pricing_plan_id":"cebpf4jnsgd1na2vs0mg"},{"bike_id":"c2807477-fd8d-44ed-9bdc-b3f90f0cbde0","system_id":"levelo_inurba_marseille","lat":43.31875,"lon":5.39991,"is_reserved":false,"is_disabled":false,"rental_uris":{"android":"levelo://app?vid=c2807477-fd8d-44ed-9bdc-b3f90f0cbde0","ios":"levelo://app?vid=c2807477-fd8d-44ed-9bdc-b3f90f0cbde0"},"vehicle_type_id":"4","last_reported":1761917001,"current_range_meters":17600,"station_id":"","pricing_plan_id":"cebpf4jnsgd1na2vs0mg"},{"bike_id":"13842539-678c-4f79-95f3-35875594350e","system_id":"levelo_inurba_marseille","lat":43.26955,"lon":5.38634,"is_reserved":false,"is_disabled":false,"rental_uris":{"android":"levelo://app?vid=13842539-678c-4f79-95f3-35875594350e","ios":"levelo://app?vid=13842539-678c-4f79-95f3-35875594350e"},"vehicle_type_id":"4","last_reported":1761917001,"current_range_meters":17600,"station_id":"ce4bhh92rcd13ifvqfh0","pricing_plan_id":"cebpf4jnsgd1na2vs0mg"},{"bike_id":"9c1c5831-f78e-453f-8a28-90b58938513e","system_id":"levelo_inurba_marseille","lat":43.29034,"lon":5.37571,"is_reserved":false,"is_disabled":false,"rental_uris":{"android":"levelo://app?vid=9c1c5831-f78e-453f-8a28-90b58938513e","ios":"levelo://app?vid=9c1c5831-f78e-453f-8a28-90b58938513e"},"vehicle_type_id":"4","last_reported":1761917001,"current_range_meters":18000,"station_id":"ce4bh692rcd13ifvqe90","pricing_plan_id":"cebpf4jnsgd1na2vs0mg"},{"bike_id":"e04f332d-b41c-47fd-b12f-6fdc7d63f429","system_id":"levelo_inurba_marseille","lat":43.30842,"lon":5.38291,"is_reserved":false,"is_disabled":false,"rental_uris":{"android":"levelo://app?vid=e04f332d-b41c-47fd-b12f-6fdc7d63f429","ios":"levelo://app?vid=e04f332d-b41c-47fd-b12f-6fdc7d63f429"},"vehicle_type_id":"4","last_reported":1761917001,"current_range_meters":18000,"station_id":"","pricing_plan_id":"cebpf4jnsgd1na2vs0mg"},{"bike_id":"5329277d-b696-4f32-9412-95d13ccb7cbb","system_id":"levelo_inurba_marseille","lat":43.298189,"lon":5.440495,"is_reserved":false,"is_disabled":false,"rental_uris":{"android":"levelo://app?vid=5329277d-b696-4f32-9412-95d13ccb7cbb","ios":"levelo://app?vid=5329277d-b696-4f32-9412-95d13ccb7cbb"},"vehicle_type_id":"4","last_reported":1761917001,"current_range_meters":18000,"station_id":"st_d3jp68qikq2c7381ktn0","pricing_plan_id":"cebpf4jnsgd1na2vs0mg"},{"bike_id":"72a87cc7-9af0-4e8c-b563-bb6eaad396f7","system_id":"levelo_inurba_marseille","lat":43.32458,"lon":5.36584,"is_reserved":false,"is_disabled":false,"rental_uris":{"android":"levelo://app?vid=72a87cc7-9af0-4e8c-b563-bb6eaad396f7","ios":"levelo://app?vid=72a87cc7-9af0-4e8c-b563-bb6eaad396f7"},"vehicle_type_id":"4","last_reported":1761917001,"current_range_meters":18000,"station_id":"ce4bhs12rcd13ifvqhvg","pricing_plan_id":"cebpf4jnsgd1na2vs0mg"},{"bike_id":"a5e0a9e7-2930-4ebf-aa40-5e9ef3fa0368","system_id":"levelo_inurba_marseille","lat":43.23149,"lon":5.43726,"is_reserved":false,"is_disabled":false,"rental_uris":{"android":"levelo://app?vid=a5e0a9e7-2930-4ebf-aa40-5e9ef3fa0368","ios":"levelo://app?vid=a5e0a9e7-2930-4ebf-aa40-5e9ef3fa0368"},"vehicle_type_id":"4","last_reported":1761917001,"current_range_meters":18000,"station_id":"ce4bhmp2rcd13ifvqgog","pricing_plan_id":"cebpf4jnsgd1na2vs0mg"},{"bike_id":"93641f31-faad-4324-83aa-3f877176da49","system_id":"levelo_inurba_marseille","lat":43.30732,"lon":5.42437,"is_reserved":false,"is_disabled":false,"rental_uris":{"android":"levelo://app?vid=93641f31-faad-4324-83aa-3f877176da49","ios":"levelo://app?vid=93641f31-faad-4324-83aa-3f877176da49"},"vehicle_type_id":"4","last_reported":1761917001,"current_range_meters":18000,"station_id":"st_cvj6ca6bvosntc0bfgr0","pricing_plan_id":"cebpf4jnsgd1na2vs0mg"},{"bike_id":"436c5184-4206-42f3-89dc-e8288cae5c96","system_id":"levelo_inurba_marseille","lat":43.25334,"lon":5.42174,"is_reserved":false,"is_disabled":false,"rental_uris":{"android":"levelo://app?vid=436c5184-4206-42f3-89dc-e8288cae5c96","ios":"levelo://app?vid=436c5184-4206-42f3-89dc-e8288cae5c96"},"vehicle_type_id":"4","last_reported":1761917001,"current_range_meters":18800,"station_id":"st_d2m65c5bi1j21697t3ng","pricing_plan_id":"cebpf4jnsgd1na2vs0mg"},{"bike_id":"aafcdc3e-7fbc-440c-8755-17a53301fced","system_id":"levelo_inurba_marseille","lat":43.23157,"lon":5.43692,"is_reserved":false,"is_disabled":false,"rental_uris":{"android":"levelo://app?vid=aafcdc3e-7fbc-440c-8755-17a53301fced","ios":"levelo://app?vid=aafcdc3e-7fbc-440c-8755-17a53301fced"},"vehicle_type_id":"4","last_reported":1761917001,"current_range_meters":18800,"station_id":"ce4bhmp2rcd13ifvqgog","pricing_plan_id":"cebpf4jnsgd1na2vs0mg"},{"bike_id":"759e2c24-b6f9-462a-849c-96322fe2b441","system_id":"levelo_inurba_marseille","lat":43.2315,"lon":5.43724,"is_reserved":false,"is_disabled":false,"rental_uris":{"android":"levelo://app?vid=759e2c24-b6f9-462a-849c-96322fe2b441","ios":"levelo://app?vid=759e2c24-b6f9-462a-849c-96322fe2b441"},"vehicle_type_id":"4","last_reported":1761917001,"current_range_meters":18800,"station_id":"ce4bhmp2rcd13ifvqgog","pricing_plan_id":"cebpf4jnsgd1na2vs0mg"},{"bike_id":"c04ea6ec-c85d-4b9a-aa74-f0de2415a6d2","system_id":"levelo_inurba_marseille","lat":43.31523,"lon":5.38234,"is_reserved":false,"is_disabled":false,"rental_uris":{"android":"levelo://app?vid=c04ea6ec-c85d-4b9a-aa74-f0de2415a6d2","ios":"levelo://app?vid=c04ea6ec-c85d-4b9a-aa74-f0de2415a6d2"},"vehicle_type_id":"4","last_reported":1761917001,"current_range_meters":18800,"station_id":"","pricing_plan_id":"cebpf4jnsgd1na2vs0mg"},{"bike_id":"fbcc5886-69e3-488f-96fd-e45314a075e6","system_id":"levelo_inurba_marseille","lat":43.288672,"lon":5.42513,"is_reserved":false,"is_disabled":false,"rental_uris":{"android":"levelo://app?vid=fbcc5886-69e3-488f-96fd-e45314a075e6","ios":"levelo://app?vid=fbcc5886-69e3-488f-96fd-e45314a075e6"},"vehicle_type_id":"4","last_reported":1761917001,"current_range_meters":18800,"station_id":"st_d3b462108ojc7389ooeg","pricing_plan_id":"cebpf4jnsgd1na2vs0mg"},{"bike_id":"ac0e00e7-47a0-44b9-a947-896220468ad5","system_id":"levelo_inurba_marseille","lat":43.273013,"lon":5.3899,"is_reserved":false,"is_disabled":false,"rental_uris":{"android":"levelo://app?vid=ac0e00e7-47a0-44b9-a947-896220468ad5","ios":"levelo://app?vid=ac0e00e7-47a0-44b9-a947-896220468ad5"},"vehicle_type_id":"4","last_reported":1761917001,"current_range_meters":18800,"station_id":"st_d3nk18o9ro0c73en2l3g","pricing_plan_id":"cebpf4jnsgd1na2vs0mg"},{"bike_id":"c87e97d5-8480-442c-8c65-b696e7dc2a96","system_id":"levelo_inurba_marseille","lat":43.29043,"lon":5.39984,"is_reserved":false,"is_disabled":false,"rental_uris":{"android":"levelo://app?vid=c87e97d5-8480-442c-8c65-b696e7dc2a96","ios":"levelo://app?vid=c87e97d5-8480-442c-8c65-b696e7dc2a96"},"vehicle_type_id":"4","last_reported":1761917001,"current_range_meters":19200,"station_id":"ce4bh392rcd13ifvqdm0","pricing_plan_id":"cebpf4jnsgd1na2vs0mg"},{"bike_id":"3965660d-d019-448d-9ea6-ad76591ec156","system_id":"levelo_inurba_marseille","lat":43.32094,"lon":5.36819,"is_reserved":false,"is_disabled":false,"rental_uris":{"android":"levelo://app?vid=3965660d-d019-448d-9ea6-ad76591ec156","ios":"levelo://app?vid=3965660d-d019-448d-9ea6-ad76591ec156"},"vehicle_type_id":"4","last_reported":1761917001,"current_range_meters":19200,"station_id":"ce4bhrh2rcd13ifvqhug","pricing_plan_id":"cebpf4jnsgd1na2vs0mg"},{"bike_id":"71bdb168-c8a5-4d21-ae4a-bcd931f67343","system_id":"levelo_inurba_marseille","lat":43.29035,"lon":5.37565,"is_reserved":false,"is_disabled":false,"rental_uris":{"android":"levelo://app?vid=71bdb168-c8a5-4d21-ae4a-bcd931f67343","ios":"levelo://app?vid=71bdb168-c8a5-4d21-ae4a-bcd931f67343"},"vehicle_type_id":"4","last_reported":1761917001,"current_range_meters":19200,"station_id":"ce4bh692rcd13ifvqe90","pricing_plan_id":"cebpf4jnsgd1na2vs0mg"},{"bike_id":"ee84c27f-94fa-4f34-8833-2d03051f1aa3","system_id":"levelo_inurba_marseille","lat":43.29877,"lon":5.38901,"is_reserved":false,"is_disabled":false,"rental_uris":{"android":"levelo://app?vid=ee84c27f-94fa-4f34-8833-2d03051f1aa3","ios":"levelo://app?vid=ee84c27f-94fa-4f34-8833-2d03051f1aa3"},"vehicle_type_id":"4","last_reported":1761917001,"current_range_meters":19200,"station_id":"ce4bh392rcd13ifvqdl0","pricing_plan_id":"cebpf4jnsgd1na2vs0mg"},{"bike_id":"09736aa4-0290-473b-976e-59d4fdefb3a5","system_id":"levelo_inurba_marseille","lat":43.29533,"lon":5.39401,"is_reserved":false,"is_disabled":false,"rental_uris":{"android":"levelo://app?vid=09736aa4-0290-473b-976e-59d4fdefb3a5","ios":"levelo://app?vid=09736aa4-0290-473b-976e-59d4fdefb3a5"},"vehicle_type_id":"4","last_reported":1761917001,"current_range_meters":19200,"station_id":"ce4bh292rcd13ifvqdf0","pricing_plan_id":"cebpf4jnsgd1na2vs0mg"},{"bike_id":"2819da96-e74b-4499-817d-c62867e34f4e","system_id":"levelo_inurba_marseille","lat":43.29854,"lon":5.36274,"is_reserved":false,"is_disabled":false,"rental_uris":{"android":"levelo://app?vid=2819da96-e74b-4499-817d-c62867e34f4e","ios":"levelo://app?vid=2819da96-e74b-4499-817d-c62867e34f4e"},"vehicle_type_id":"4","last_reported":1761917001,"current_range_meters":19600,"station_id":"ce4bgpp2rcd13ifvqc3g","pricing_plan_id":"cebpf4jnsgd1na2vs0mg"},{"bike_id":"ff50002c-4520-4545-a663-079038ba1614","system_id":"levelo_inurba_marseille","lat":43.30589,"lon":5.37194,"is_reserved":false,"is_disabled":false,"rental_uris":{"android":"levelo://app?vid=ff50002c-4520-4545-a663-079038ba1614","ios":"levelo://app?vid=ff50002c-4520-4545-a663-079038ba1614"},"vehicle_type_id":"4","last_reported":1761917001,"current_range_meters":19600,"station_id":"ce4bgqh2rcd13ifvqc4g","pricing_plan_id":"cebpf4jnsgd1na2vs0mg"},{"bike_id":"24eef590-d667-402a-b310-a9c88616b2c1","system_id":"levelo_inurba_marseille","lat":43.30124,"lon":5.3986,"is_reserved":false,"is_disabled":false,"rental_uris":{"android":"levelo://app?vid=24eef590-d667-402a-b310-a9c88616b2c1","ios":"levelo://app?vid=24eef590-d667-402a-b310-a9c88616b2c1"},"vehicle_type_id":"4","last_reported":1761917001,"current_range_meters":19600,"station_id":"ce4bh0h2rcd13ifvqd40","pricing_plan_id":"cebpf4jnsgd1na2vs0mg"},{"bike_id":"3d4141d4-2354-4a0a-86e7-5f6f5c0f44e8","system_id":"levelo_inurba_marseille","lat":43.30121,"lon":5.39851,"is_reserved":false,"is_disabled":false,"rental_uris":{"android":"levelo://app?vid=3d4141d4-2354-4a0a-86e7-5f6f5c0f44e8","ios":"levelo://app?vid=3d4141d4-2354-4a0a-86e7-5f6f5c0f44e8"},"vehicle_type_id":"4","last_reported":1761917001,"current_range_meters":19600,"station_id":"ce4bh0h2rcd13ifvqd40","pricing_plan_id":"cebpf4jnsgd1na2vs0mg"},{"bike_id":"dc7a4cc9-7638-4fa0-a0f0-e15ccd7730ba","system_id":"levelo_inurba_marseille","lat":43.29578,"lon":5.36744,"is_reserved":false,"is_disabled":false,"rental_uris":{"android":"levelo://app?vid=dc7a4cc9-7638-4fa0-a0f0-e15ccd7730ba","ios":"levelo://app?vid=dc7a4cc9-7638-4fa0-a0f0-e15ccd7730ba"},"vehicle_type_id":"4","last_reported":1761917001,"current_range_meters":20000,"station_id":"ce4bgph2rcd13ifvqc2g","pricing_plan_id":"cebpf4jnsgd1na2vs0mg"},{"bike_id":"4605960e-ce7d-4738-b867-8d48aafd9df7","system_id":"levelo_inurba_marseille","lat":43.30605,"lon":5.37234,"is_reserved":false,"is_disabled":true,"rental_uris":{"android":"levelo://app?vid=4605960e-ce7d-4738-b867-8d48aafd9df7","ios":"levelo://app?vid=4605960e-ce7d-4738-b867-8d48aafd9df7"},"vehicle_type_id":"4","last_reported":1761917001,"current_range_meters":20000,"station_id":"ce4bgqh2rcd13ifvqc4g","pricing_plan_id":"cebpf4jnsgd1na2vs0mg"},{"bike_id":"e6490d58-432c-4ff7-8dea-5fe82fd66182","system_id":"levelo_inurba_marseille","lat":43.32367,"lon":5.38888,"is_reserved":false,"is_disabled":false,"rental_uris":{"android":"levelo://app?vid=e6490d58-432c-4ff7-8dea-5fe82fd66182","ios":"levelo://app?vid=e6490d58-432c-4ff7-8dea-5fe82fd66182"},"vehicle_type_id":"4","last_reported":1761917001,"current_range_meters":20400,"station_id":"ce4bhqp2rcd13ifvqhog","pricing_plan_id":"cebpf4jnsgd1na2vs0mg"},{"bike_id":"94084d75-b1ec-4cf5-8736-b1d0c7eed7ce","system_id":"levelo_inurba_marseille","lat":43.33031,"lon":5.39046,"is_reserved":false,"is_disabled":false,"rental_uris":{"android":"levelo://app?vid=94084d75-b1ec-4cf5-8736-b1d0c7eed7ce","ios":"levelo://app?vid=94084d75-b1ec-4cf5-8736-b1d0c7eed7ce"},"vehicle_type_id":"4","last_reported":1761917001,"current_range_meters":20400,"station_id":"ce4bhr92rcd13ifvqhrg","pricing_plan_id":"cebpf4jnsgd1na2vs0mg"},{"bike_id":"32632625-b281-4348-990f-071d78c42b84","system_id":"levelo_inurba_marseille","lat":43.26569,"lon":5.39014,"is_reserved":false,"is_disabled":false,"rental_uris":{"android":"levelo://app?vid=32632625-b281-4348-990f-071d78c42b84","ios":"levelo://app?vid=32632625-b281-4348-990f-071d78c42b84"},"vehicle_type_id":"4","last_reported":1761917001,"current_range_meters":20400,"station_id":"","pricing_plan_id":"cebpf4jnsgd1na2vs0mg"},{"bike_id":"3150b169-6d8b-4786-81cd-4b890da98702","system_id":"levelo_inurba_marseille","lat":43.237898,"lon":5.36622,"is_reserved":false,"is_disabled":false,"rental_uris":{"android":"levelo://app?vid=3150b169-6d8b-4786-81cd-4b890da98702","ios":"levelo://app?vid=3150b169-6d8b-4786-81cd-4b890da98702"},"vehicle_type_id":"4","last_reported":1761917001,"current_range_meters":20400,"station_id":"st_d3nk18o9ro0c73en2l3g","pricing_plan_id":"cebpf4jnsgd1na2vs0mg"},{"bike_id":"a5f9d115-2eb0-463d-bf65-9070eaddf3fb","system_id":"levelo_inurba_marseille","lat":43.23959,"lon":5.36626,"is_reserved":false,"is_disabled":false,"rental_uris":{"android":"levelo://app?vid=a5f9d115-2eb0-463d-bf65-9070eaddf3fb","ios":"levelo://app?vid=a5f9d115-2eb0-463d-bf65-9070eaddf3fb"},"vehicle_type_id":"4","last_reported":1761917001,"current_range_meters":20400,"station_id":"ce4bhi12rcd13ifvqfp0","pricing_plan_id":"cebpf4jnsgd1na2vs0mg"},{"bike_id":"41598790-345d-414f-9e87-720cb432f278","system_id":"levelo_inurba_marseille","lat":43.29477,"lon":5.36227,"is_reserved":false,"is_disabled":false,"rental_uris":{"android":"levelo://app?vid=41598790-345d-414f-9e87-720cb432f278","ios":"levelo://app?vid=41598790-345d-414f-9e87-720cb432f278"},"vehicle_type_id":"4","last_reported":1761917001,"current_range_meters":20400,"station_id":"","pricing_plan_id":"cebpf4jnsgd1na2vs0mg"},{"bike_id":"50c2c89c-4a9b-41f6-af05-b4e430e07029","system_id":"levelo_inurba_marseille","lat":43.24627,"lon":5.43155,"is_reserved":false,"is_disabled":false,"rental_uris":{"android":"levelo://app?vid=50c2c89c-4a9b-41f6-af05-b4e430e07029","ios":"levelo://app?vid=50c2c89c-4a9b-41f6-af05-b4e430e07029"},"vehicle_type_id":"4","last_reported":1761917001,"current_range_meters":20400,"station_id":"st_d2m6c4gdas8pm72e190g","pricing_plan_id":"cebpf4jnsgd1na2vs0mg"},{"bike_id":"e30a6103-e269-4203-90f6-50178fe5590f","system_id":"levelo_inurba_marseille","lat":43.23152,"lon":5.4372,"is_reserved":false,"is_disabled":false,"rental_uris":{"android":"levelo://app?vid=e30a6103-e269-4203-90f6-50178fe5590f","ios":"levelo://app?vid=e30a6103-e269-4203-90f6-50178fe5590f"},"vehicle_type_id":"4","last_reported":1761917001,"current_range_meters":20400,"station_id":"ce4bhmp2rcd13ifvqgog","pricing_plan_id":"cebpf4jnsgd1na2vs0mg"},{"bike_id":"3ffbae57-8ecd-4e3d-96ad-932247e3fe54","system_id":"levelo_inurba_marseille","lat":43.31923,"lon":5.37303,"is_reserved":false,"is_disabled":false,"rental_uris":{"android":"levelo://app?vid=3ffbae57-8ecd-4e3d-96ad-932247e3fe54","ios":"levelo://app?vid=3ffbae57-8ecd-4e3d-96ad-932247e3fe54"},"vehicle_type_id":"4","last_reported":1761917001,"current_range_meters":20800,"station_id":"","pricing_plan_id":"cebpf4jnsgd1na2vs0mg"},{"bike_id":"30fe1658-7a14-463b-a80e-7a1b304d6740","system_id":"levelo_inurba_marseille","lat":43.2119,"lon":5.35074,"is_reserved":false,"is_disabled":false,"rental_uris":{"android":"levelo://app?vid=30fe1658-7a14-463b-a80e-7a1b304d6740","ios":"levelo://app?vid=30fe1658-7a14-463b-a80e-7a1b304d6740"},"vehicle_type_id":"4","last_reported":1761917001,"current_range_meters":20800,"station_id":"st_cvj6sg6p6f1abm77japg","pricing_plan_id":"cebpf4jnsgd1na2vs0mg"},{"bike_id":"74204de1-5ac6-4629-befd-205f396f5014","system_id":"levelo_inurba_marseille","lat":43.292938,"lon":5.377819,"is_reserved":false,"is_disabled":false,"rental_uris":{"android":"levelo://app?vid=74204de1-5ac6-4629-befd-205f396f5014","ios":"levelo://app?vid=74204de1-5ac6-4629-befd-205f396f5014"},"vehicle_type_id":"4","last_reported":1761917001,"current_range_meters":20800,"station_id":"ce4bha92rcd13ifvqeg0","pricing_plan_id":"cebpf4jnsgd1na2vs0mg"},{"bike_id":"8c564253-e0b4-4323-9d1c-73d7578723c4","system_id":"levelo_inurba_marseille","lat":43.316923,"lon":5.404823,"is_reserved":false,"is_disabled":false,"rental_uris":{"android":"levelo://app?vid=8c564253-e0b4-4323-9d1c-73d7578723c4","ios":"levelo://app?vid=8c564253-e0b4-4323-9d1c-73d7578723c4"},"vehicle_type_id":"4","last_reported":1761917001,"current_range_meters":20800,"station_id":"ce4bh012rcd13ifvqd00","pricing_plan_id":"cebpf4jnsgd1na2vs0mg"},{"bike_id":"2d97b67d-87bd-4b87-934d-0c52a8424a35","system_id":"levelo_inurba_marseille","lat":43.2594,"lon":5.40907,"is_reserved":false,"is_disabled":false,"rental_uris":{"android":"levelo://app?vid=2d97b67d-87bd-4b87-934d-0c52a8424a35","ios":"levelo://app?vid=2d97b67d-87bd-4b87-934d-0c52a8424a35"},"vehicle_type_id":"4","last_reported":1761917001,"current_range_meters":20800,"station_id":"ce4bhm92rcd13ifvqglg","pricing_plan_id":"cebpf4jnsgd1na2vs0mg"},{"bike_id":"7c19b7e9-393b-4fa2-b057-4dd7dff08f6d","system_id":"levelo_inurba_marseille","lat":43.21199,"lon":5.35067,"is_reserved":false,"is_disabled":false,"rental_uris":{"android":"levelo://app?vid=7c19b7e9-393b-4fa2-b057-4dd7dff08f6d","ios":"levelo://app?vid=7c19b7e9-393b-4fa2-b057-4dd7dff08f6d"},"vehicle_type_id":"4","last_reported":1761917001,"current_range_meters":20800,"station_id":"st_cvj6sg6p6f1abm77japg","pricing_plan_id":"cebpf4jnsgd1na2vs0mg"},{"bike_id":"cc0d6697-bf7c-4001-828f-c5cf42c80c59","system_id":"levelo_inurba_marseille","lat":43.211971,"lon":5.35066,"is_reserved":false,"is_disabled":false,"rental_uris":{"android":"levelo://app?vid=cc0d6697-bf7c-4001-828f-c5cf42c80c59","ios":"levelo://app?vid=cc0d6697-bf7c-4001-828f-c5cf42c80c59"},"vehicle_type_id":"4","last_reported":1761917001,"current_range_meters":20800,"station_id":"","pricing_plan_id":"cebpf4jnsgd1na2vs0mg"},{"bike_id":"a73a24c3-2218-4652-a302-2ad81b7034ad","system_id":"levelo_inurba_marseille","lat":43.318142,"lon":5.387603,"is_reserved":false,"is_disabled":false,"rental_uris":{"android":"levelo://app?vid=a73a24c3-2218-4652-a302-2ad81b7034ad","ios":"levelo://app?vid=a73a24c3-2218-4652-a302-2ad81b7034ad"},"vehicle_type_id":"4","last_reported":1761917001,"current_range_meters":20800,"station_id":"","pricing_plan_id":"cebpf4jnsgd1na2vs0mg"},{"bike_id":"4d7b76cb-c043-4012-b5de-8ce9f36e69d7","system_id":"levelo_inurba_marseille","lat":43.26194,"lon":5.37451,"is_reserved":false,"is_disabled":false,"rental_uris":{"android":"levelo://app?vid=4d7b76cb-c043-4012-b5de-8ce9f36e69d7","ios":"levelo://app?vid=4d7b76cb-c043-4012-b5de-8ce9f36e69d7"},"vehicle_type_id":"4","last_reported":1761917001,"current_range_meters":20800,"station_id":"ce4bhgp2rcd13ifvqfc0","pricing_plan_id":"cebpf4jnsgd1na2vs0mg"},{"bike_id":"c2161708-4d2b-4160-999b-34ec837d1e0e","system_id":"levelo_inurba_marseille","lat":43.26936,"lon":5.38942,"is_reserved":false,"is_disabled":false,"rental_uris":{"android":"levelo://app?vid=c2161708-4d2b-4160-999b-34ec837d1e0e","ios":"levelo://app?vid=c2161708-4d2b-4160-999b-34ec837d1e0e"},"vehicle_type_id":"4","last_reported":1761917001,"current_range_meters":20800,"station_id":"ce4bhhh2rcd13ifvqfl0","pricing_plan_id":"cebpf4jnsgd1na2vs0mg"},{"bike_id":"42ee845a-4e54-4f5b-8729-bb3ec7276302","system_id":"levelo_inurba_marseille","lat":43.29444,"lon":5.40129,"is_reserved":false,"is_disabled":false,"rental_uris":{"android":"levelo://app?vid=42ee845a-4e54-4f5b-8729-bb3ec7276302","ios":"levelo://app?vid=42ee845a-4e54-4f5b-8729-bb3ec7276302"},"vehicle_type_id":"4","last_reported":1761917001,"current_range_meters":21600,"station_id":"","pricing_plan_id":"cebpf4jnsgd1na2vs0mg"},{"bike_id":"cafda47c-669c-4452-bbf3-a34c3a45496d","system_id":"levelo_inurba_marseille","lat":43.31165,"lon":5.38723,"is_reserved":false,"is_disabled":false,"rental_uris":{"android":"levelo://app?vid=cafda47c-669c-4452-bbf3-a34c3a45496d","ios":"levelo://app?vid=cafda47c-669c-4452-bbf3-a34c3a45496d"},"vehicle_type_id":"4","last_reported":1761917001,"current_range_meters":21600,"station_id":"ce4bgv12rcd13ifvqcp0","pricing_plan_id":"cebpf4jnsgd1na2vs0mg"},{"bike_id":"f0b623d3-0945-4823-acd2-3859c939eb4d","system_id":"levelo_inurba_marseille","lat":43.27812,"lon":5.40724,"is_reserved":false,"is_disabled":false,"rental_uris":{"android":"levelo://app?vid=f0b623d3-0945-4823-acd2-3859c939eb4d","ios":"levelo://app?vid=f0b623d3-0945-4823-acd2-3859c939eb4d"},"vehicle_type_id":"4","last_reported":1761917001,"current_range_meters":21600,"station_id":"ce4bhnh2rcd13ifvqgtg","pricing_plan_id":"cebpf4jnsgd1na2vs0mg"},{"bike_id":"c311dcd7-8990-4d0c-b893-da6fc911ae2a","system_id":"levelo_inurba_marseille","lat":43.23193,"lon":5.39978,"is_reserved":false,"is_disabled":false,"rental_uris":{"android":"levelo://app?vid=c311dcd7-8990-4d0c-b893-da6fc911ae2a","ios":"levelo://app?vid=c311dcd7-8990-4d0c-b893-da6fc911ae2a"},"vehicle_type_id":"4","last_reported":1761917001,"current_range_meters":21600,"station_id":"ce4bhn12rcd13ifvqgqg","pricing_plan_id":"cebpf4jnsgd1na2vs0mg"},{"bike_id":"f4c38a56-4a35-49a9-bdea-5d14ae1ba768","system_id":"levelo_inurba_marseille","lat":43.29757,"lon":5.42791,"is_reserved":false,"is_disabled":false,"rental_uris":{"android":"levelo://app?vid=f4c38a56-4a35-49a9-bdea-5d14ae1ba768","ios":"levelo://app?vid=f4c38a56-4a35-49a9-bdea-5d14ae1ba768"},"vehicle_type_id":"4","last_reported":1761917001,"current_range_meters":21600,"station_id":"st_d3md5207bmas73dh9klg","pricing_plan_id":"cebpf4jnsgd1na2vs0mg"},{"bike_id":"4193ff42-98d8-41c3-a1f9-cd6af66a193d","system_id":"levelo_inurba_marseille","lat":43.27916,"lon":5.39589,"is_reserved":false,"is_disabled":false,"rental_uris":{"android":"levelo://app?vid=4193ff42-98d8-41c3-a1f9-cd6af66a193d","ios":"levelo://app?vid=4193ff42-98d8-41c3-a1f9-cd6af66a193d"},"vehicle_type_id":"4","last_reported":1761917001,"current_range_meters":21600,"station_id":"ce4bhf92rcd13ifvqf40","pricing_plan_id":"cebpf4jnsgd1na2vs0mg"},{"bike_id":"8e6a1a6c-5fc3-45f4-8981-c9a7c0bdc0bb","system_id":"levelo_inurba_marseille","lat":43.28405,"lon":5.37516,"is_reserved":false,"is_disabled":false,"rental_uris":{"android":"levelo://app?vid=8e6a1a6c-5fc3-45f4-8981-c9a7c0bdc0bb","ios":"levelo://app?vid=8e6a1a6c-5fc3-45f4-8981-c9a7c0bdc0bb"},"vehicle_type_id":"4","last_reported":1761917001,"current_range_meters":21600,"station_id":"ce4bh412rcd13ifvqds0","pricing_plan_id":"cebpf4jnsgd1na2vs0mg"},{"bike_id":"e35e0abe-4c2a-4cc0-a145-913ed5b94495","system_id":"levelo_inurba_marseille","lat":43.2416,"lon":5.36411,"is_reserved":false,"is_disabled":false,"rental_uris":{"android":"levelo://app?vid=e35e0abe-4c2a-4cc0-a145-913ed5b94495","ios":"levelo://app?vid=e35e0abe-4c2a-4cc0-a145-913ed5b94495"},"vehicle_type_id":"4","last_reported":1761917001,"current_range_meters":21600,"station_id":"cpo36qri1sfpv3e86is0","pricing_plan_id":"cebpf4jnsgd1na2vs0mg"},{"bike_id":"06fc4c44-20ba-493c-8944-d78c73d93c94","system_id":"levelo_inurba_marseille","lat":43.31186,"lon":5.39356,"is_reserved":false,"is_disabled":false,"rental_uris":{"android":"levelo://app?vid=06fc4c44-20ba-493c-8944-d78c73d93c94","ios":"levelo://app?vid=06fc4c44-20ba-493c-8944-d78c73d93c94"},"vehicle_type_id":"4","last_reported":1761917001,"current_range_meters":21600,"station_id":"","pricing_plan_id":"cebpf4jnsgd1na2vs0mg"},{"bike_id":"f967e88f-4593-47b4-9103-8f78c8d1a8a9","system_id":"levelo_inurba_marseille","lat":43.291004,"lon":5.381403,"is_reserved":false,"is_disabled":false,"rental_uris":{"android":"levelo://app?vid=f967e88f-4593-47b4-9103-8f78c8d1a8a9","ios":"levelo://app?vid=f967e88f-4593-47b4-9103-8f78c8d1a8a9"},"vehicle_type_id":"4","last_reported":1761917001,"current_range_meters":21600,"station_id":"ce4bh512rcd13ifvqe2g","pricing_plan_id":"cebpf4jnsgd1na2vs0mg"},{"bike_id":"661d1ac5-d28c-4d49-b650-17697c01f903","system_id":"levelo_inurba_marseille","lat":43.30118,"lon":5.37355,"is_reserved":false,"is_disabled":false,"rental_uris":{"android":"levelo://app?vid=661d1ac5-d28c-4d49-b650-17697c01f903","ios":"levelo://app?vid=661d1ac5-d28c-4d49-b650-17697c01f903"},"vehicle_type_id":"4","last_reported":1761917001,"current_range_meters":22000,"station_id":"ce4bgs92rcd13ifvqcc0","pricing_plan_id":"cebpf4jnsgd1na2vs0mg"},{"bike_id":"52b04612-cd38-411f-a68e-6bb9cb24a90a","system_id":"levelo_inurba_marseille","lat":43.24158,"lon":5.36398,"is_reserved":false,"is_disabled":false,"rental_uris":{"android":"levelo://app?vid=52b04612-cd38-411f-a68e-6bb9cb24a90a","ios":"levelo://app?vid=52b04612-cd38-411f-a68e-6bb9cb24a90a"},"vehicle_type_id":"4","last_reported":1761917001,"current_range_meters":22000,"station_id":"cpo36qri1sfpv3e86is0","pricing_plan_id":"cebpf4jnsgd1na2vs0mg"},{"bike_id":"cf7a8ce5-6096-4f39-86c5-cb2e7875b3f2","system_id":"levelo_inurba_marseille","lat":43.24548,"lon":5.39524,"is_reserved":false,"is_disabled":false,"rental_uris":{"android":"levelo://app?vid=cf7a8ce5-6096-4f39-86c5-cb2e7875b3f2","ios":"levelo://app?vid=cf7a8ce5-6096-4f39-86c5-cb2e7875b3f2"},"vehicle_type_id":"4","last_reported":1761917001,"current_range_meters":22000,"station_id":"ce4bhlp2rcd13ifvqgjg","pricing_plan_id":"cebpf4jnsgd1na2vs0mg"},{"bike_id":"7776d34e-6db1-4a95-b64a-dfa1faf6c280","system_id":"levelo_inurba_marseille","lat":43.30204,"lon":5.36972,"is_reserved":false,"is_disabled":false,"rental_uris":{"android":"levelo://app?vid=7776d34e-6db1-4a95-b64a-dfa1faf6c280","ios":"levelo://app?vid=7776d34e-6db1-4a95-b64a-dfa1faf6c280"},"vehicle_type_id":"4","last_reported":1761917001,"current_range_meters":22000,"station_id":"","pricing_plan_id":"cebpf4jnsgd1na2vs0mg"},{"bike_id":"aea69efe-0503-4b60-bce9-564bde7f7791","system_id":"levelo_inurba_marseille","lat":43.320986,"lon":5.367871,"is_reserved":false,"is_disabled":false,"rental_uris":{"android":"levelo://app?vid=aea69efe-0503-4b60-bce9-564bde7f7791","ios":"levelo://app?vid=aea69efe-0503-4b60-bce9-564bde7f7791"},"vehicle_type_id":"4","last_reported":1761917001,"current_range_meters":22000,"station_id":"ce4bhrh2rcd13ifvqhug","pricing_plan_id":"cebpf4jnsgd1na2vs0mg"},{"bike_id":"472741f9-26e2-4333-b314-91a5b1a6fe0b","system_id":"levelo_inurba_marseille","lat":43.26498,"lon":5.39539,"is_reserved":false,"is_disabled":false,"rental_uris":{"android":"levelo://app?vid=472741f9-26e2-4333-b314-91a5b1a6fe0b","ios":"levelo://app?vid=472741f9-26e2-4333-b314-91a5b1a6fe0b"},"vehicle_type_id":"4","last_reported":1761917001,"current_range_meters":22000,"station_id":"ce4bhi12rcd13ifvqfq0","pricing_plan_id":"cebpf4jnsgd1na2vs0mg"},{"bike_id":"d19c6481-1c2f-43da-986d-7a83750336db","system_id":"levelo_inurba_marseille","lat":43.26954,"lon":5.38632,"is_reserved":false,"is_disabled":false,"rental_uris":{"android":"levelo://app?vid=d19c6481-1c2f-43da-986d-7a83750336db","ios":"levelo://app?vid=d19c6481-1c2f-43da-986d-7a83750336db"},"vehicle_type_id":"4","last_reported":1761917001,"current_range_meters":22000,"station_id":"ce4bhh92rcd13ifvqfh0","pricing_plan_id":"cebpf4jnsgd1na2vs0mg"},{"bike_id":"e234df06-1f05-4887-b706-85c5b9955892","system_id":"levelo_inurba_marseille","lat":43.29844,"lon":5.36297,"is_reserved":false,"is_disabled":false,"rental_uris":{"android":"levelo://app?vid=e234df06-1f05-4887-b706-85c5b9955892","ios":"levelo://app?vid=e234df06-1f05-4887-b706-85c5b9955892"},"vehicle_type_id":"4","last_reported":1761917001,"current_range_meters":22000,"station_id":"ce4bgpp2rcd13ifvqc3g","pricing_plan_id":"cebpf4jnsgd1na2vs0mg"},{"bike_id":"bfb9b437-4620-43bb-af0a-ab327da65829","system_id":"levelo_inurba_marseille","lat":43.26931,"lon":5.40248,"is_reserved":false,"is_disabled":false,"rental_uris":{"android":"levelo://app?vid=bfb9b437-4620-43bb-af0a-ab327da65829","ios":"levelo://app?vid=bfb9b437-4620-43bb-af0a-ab327da65829"},"vehicle_type_id":"4","last_reported":1761917001,"current_range_meters":22000,"station_id":"cjm6bp8fraef2m0cb0m0","pricing_plan_id":"cebpf4jnsgd1na2vs0mg"},{"bike_id":"41005cb1-7301-433e-9322-5fb9cd7ca57c","system_id":"levelo_inurba_marseille","lat":43.2929,"lon":5.40124,"is_reserved":false,"is_disabled":false,"rental_uris":{"android":"levelo://app?vid=41005cb1-7301-433e-9322-5fb9cd7ca57c","ios":"levelo://app?vid=41005cb1-7301-433e-9322-5fb9cd7ca57c"},"vehicle_type_id":"4","last_reported":1761917001,"current_range_meters":22000,"station_id":"ce4bh312rcd13ifvqdk0","pricing_plan_id":"cebpf4jnsgd1na2vs0mg"},{"bike_id":"62de671e-7a32-4ba9-9083-1401010c4da7","system_id":"levelo_inurba_marseille","lat":43.23142,"lon":5.43732,"is_reserved":false,"is_disabled":false,"rental_uris":{"android":"levelo://app?vid=62de671e-7a32-4ba9-9083-1401010c4da7","ios":"levelo://app?vid=62de671e-7a32-4ba9-9083-1401010c4da7"},"vehicle_type_id":"4","last_reported":1761917001,"current_range_meters":22400,"station_id":"ce4bhmp2rcd13ifvqgog","pricing_plan_id":"cebpf4jnsgd1na2vs0mg"},{"bike_id":"79c3e17b-6b52-40f3-829f-6b443681b1d3","system_id":"levelo_inurba_marseille","lat":43.280996,"lon":5.396538,"is_reserved":false,"is_disabled":false,"rental_uris":{"android":"levelo://app?vid=79c3e17b-6b52-40f3-829f-6b443681b1d3","ios":"levelo://app?vid=79c3e17b-6b52-40f3-829f-6b443681b1d3"},"vehicle_type_id":"4","last_reported":1761917001,"current_range_meters":22400,"station_id":"ce4bho12rcd13ifvqh2g","pricing_plan_id":"cebpf4jnsgd1na2vs0mg"},{"bike_id":"4a184317-1e3b-470d-956b-662c13c20b76","system_id":"levelo_inurba_marseille","lat":43.30891,"lon":5.37215,"is_reserved":false,"is_disabled":false,"rental_uris":{"android":"levelo://app?vid=4a184317-1e3b-470d-956b-662c13c20b76","ios":"levelo://app?vid=4a184317-1e3b-470d-956b-662c13c20b76"},"vehicle_type_id":"4","last_reported":1761917001,"current_range_meters":22400,"station_id":"ce4bguh2rcd13ifvqckg","pricing_plan_id":"cebpf4jnsgd1na2vs0mg"},{"bike_id":"8ac4fbc9-ac0d-4af5-9421-6ac71f656b7f","system_id":"levelo_inurba_marseille","lat":43.29934,"lon":5.36541,"is_reserved":false,"is_disabled":false,"rental_uris":{"android":"levelo://app?vid=8ac4fbc9-ac0d-4af5-9421-6ac71f656b7f","ios":"levelo://app?vid=8ac4fbc9-ac0d-4af5-9421-6ac71f656b7f"},"vehicle_type_id":"4","last_reported":1761917001,"current_range_meters":22400,"station_id":"ce4bgm92rcd13ifvqbr0","pricing_plan_id":"cebpf4jnsgd1na2vs0mg"},{"bike_id":"7b398713-e01c-4991-ac43-9a866f67d1f1","system_id":"levelo_inurba_marseille","lat":43.21196,"lon":5.35067,"is_reserved":false,"is_disabled":false,"rental_uris":{"android":"levelo://app?vid=7b398713-e01c-4991-ac43-9a866f67d1f1","ios":"levelo://app?vid=7b398713-e01c-4991-ac43-9a866f67d1f1"},"vehicle_type_id":"4","last_reported":1761917001,"current_range_meters":22400,"station_id":"st_cvj6sg6p6f1abm77japg","pricing_plan_id":"cebpf4jnsgd1na2vs0mg"},{"bike_id":"6ee0d9ff-4d47-4f65-91d7-fd40a218e0b3","system_id":"levelo_inurba_marseille","lat":43.23148,"lon":5.43707,"is_reserved":false,"is_disabled":false,"rental_uris":{"android":"levelo://app?vid=6ee0d9ff-4d47-4f65-91d7-fd40a218e0b3","ios":"levelo://app?vid=6ee0d9ff-4d47-4f65-91d7-fd40a218e0b3"},"vehicle_type_id":"4","last_reported":1761917001,"current_range_meters":22400,"station_id":"ce4bhmp2rcd13ifvqgog","pricing_plan_id":"cebpf4jnsgd1na2vs0mg"},{"bike_id":"15eabd95-4639-4bd2-ac27-e38df8c429e0","system_id":"levelo_inurba_marseille","lat":43.24069,"lon":5.37774,"is_reserved":false,"is_disabled":false,"rental_uris":{"android":"levelo://app?vid=15eabd95-4639-4bd2-ac27-e38df8c429e0","ios":"levelo://app?vid=15eabd95-4639-4bd2-ac27-e38df8c429e0"},"vehicle_type_id":"4","last_reported":1761917001,"current_range_meters":22400,"station_id":"ce4bhnp2rcd13ifvqgvg","pricing_plan_id":"cebpf4jnsgd1na2vs0mg"},{"bike_id":"ba541a52-7e4e-4241-9791-ae6f1fb03dcd","system_id":"levelo_inurba_marseille","lat":43.319934,"lon":5.415981,"is_reserved":false,"is_disabled":false,"rental_uris":{"android":"levelo://app?vid=ba541a52-7e4e-4241-9791-ae6f1fb03dcd","ios":"levelo://app?vid=ba541a52-7e4e-4241-9791-ae6f1fb03dcd"},"vehicle_type_id":"4","last_reported":1761917001,"current_range_meters":22400,"station_id":"","pricing_plan_id":"cebpf4jnsgd1na2vs0mg"},{"bike_id":"dec126f9-526f-456f-9850-dca167a437d1","system_id":"levelo_inurba_marseille","lat":43.306022,"lon":5.372331,"is_reserved":false,"is_disabled":false,"rental_uris":{"android":"levelo://app?vid=dec126f9-526f-456f-9850-dca167a437d1","ios":"levelo://app?vid=dec126f9-526f-456f-9850-dca167a437d1"},"vehicle_type_id":"4","last_reported":1761917001,"current_range_meters":22800,"station_id":"ce4bgjh2rcd13ifvqbg0","pricing_plan_id":"cebpf4jnsgd1na2vs0mg"},{"bike_id":"4e391c44-1911-4be7-a906-0c62db9e237c","system_id":"levelo_inurba_marseille","lat":43.24654,"lon":5.38894,"is_reserved":false,"is_disabled":false,"rental_uris":{"android":"levelo://app?vid=4e391c44-1911-4be7-a906-0c62db9e237c","ios":"levelo://app?vid=4e391c44-1911-4be7-a906-0c62db9e237c"},"vehicle_type_id":"4","last_reported":1761917001,"current_range_meters":22800,"station_id":"ce4bhg12rcd13ifvqf60","pricing_plan_id":"cebpf4jnsgd1na2vs0mg"},{"bike_id":"03e17c82-010c-496d-86ce-e808795faea8","system_id":"levelo_inurba_marseille","lat":43.24071,"lon":5.37772,"is_reserved":false,"is_disabled":false,"rental_uris":{"android":"levelo://app?vid=03e17c82-010c-496d-86ce-e808795faea8","ios":"levelo://app?vid=03e17c82-010c-496d-86ce-e808795faea8"},"vehicle_type_id":"4","last_reported":1761917001,"current_range_meters":23200,"station_id":"ce4bhnp2rcd13ifvqgvg","pricing_plan_id":"cebpf4jnsgd1na2vs0mg"},{"bike_id":"f77a28de-ba16-41bc-a3a4-ba36b0519b67","system_id":"levelo_inurba_marseille","lat":43.29629,"lon":5.3734,"is_reserved":false,"is_disabled":false,"rental_uris":{"android":"levelo://app?vid=f77a28de-ba16-41bc-a3a4-ba36b0519b67","ios":"levelo://app?vid=f77a28de-ba16-41bc-a3a4-ba36b0519b67"},"vehicle_type_id":"4","last_reported":1761917001,"current_range_meters":24000,"station_id":"","pricing_plan_id":"cebpf4jnsgd1na2vs0mg"},{"bike_id":"adedb647-c734-4c20-93c9-de161618f608","system_id":"levelo_inurba_marseille","lat":43.28694,"lon":5.39989,"is_reserved":false,"is_disabled":false,"rental_uris":{"android":"levelo://app?vid=adedb647-c734-4c20-93c9-de161618f608","ios":"levelo://app?vid=adedb647-c734-4c20-93c9-de161618f608"},"vehicle_type_id":"4","last_reported":1761917001,"current_range_meters":24000,"station_id":"ce4bho92rcd13ifvqh3g","pricing_plan_id":"cebpf4jnsgd1na2vs0mg"},{"bike_id":"02330418-531f-49a0-aa99-3994b51952fe","system_id":"levelo_inurba_marseille","lat":43.28939,"lon":5.36638,"is_reserved":false,"is_disabled":false,"rental_uris":{"android":"levelo://app?vid=02330418-531f-49a0-aa99-3994b51952fe","ios":"levelo://app?vid=02330418-531f-49a0-aa99-3994b51952fe"},"vehicle_type_id":"4","last_reported":1761917001,"current_range_meters":24000,"station_id":"ce4bhap2rcd13ifvqek0","pricing_plan_id":"cebpf4jnsgd1na2vs0mg"},{"bike_id":"999e89c0-6c59-4e25-b353-b7e62a134369","system_id":"levelo_inurba_marseille","lat":43.259401,"lon":5.409031,"is_reserved":false,"is_disabled":false,"rental_uris":{"android":"levelo://app?vid=999e89c0-6c59-4e25-b353-b7e62a134369","ios":"levelo://app?vid=999e89c0-6c59-4e25-b353-b7e62a134369"},"vehicle_type_id":"4","last_reported":1761917001,"current_range_meters":24000,"station_id":"","pricing_plan_id":"cebpf4jnsgd1na2vs0mg"},{"bike_id":"f0d9a004-c8b6-4511-9519-7b624bec2ad5","system_id":"levelo_inurba_marseille","lat":43.25642,"lon":5.41884,"is_reserved":false,"is_disabled":false,"rental_uris":{"android":"levelo://app?vid=f0d9a004-c8b6-4511-9519-7b624bec2ad5","ios":"levelo://app?vid=f0d9a004-c8b6-4511-9519-7b624bec2ad5"},"vehicle_type_id":"4","last_reported":1761917001,"current_range_meters":24000,"station_id":"","pricing_plan_id":"cebpf4jnsgd1na2vs0mg"},{"bike_id":"522de9d4-e595-472c-92f1-e8d2e9f6ffcf","system_id":"levelo_inurba_marseille","lat":43.246618,"lon":5.381719,"is_reserved":false,"is_disabled":false,"rental_uris":{"android":"levelo://app?vid=522de9d4-e595-472c-92f1-e8d2e9f6ffcf","ios":"levelo://app?vid=522de9d4-e595-472c-92f1-e8d2e9f6ffcf"},"vehicle_type_id":"4","last_reported":1761917001,"current_range_meters":24000,"station_id":"ce4bhlp2rcd13ifvqgjg","pricing_plan_id":"cebpf4jnsgd1na2vs0mg"},{"bike_id":"885b29da-0796-452d-a46f-c91b2df7c0e7","system_id":"levelo_inurba_marseille","lat":43.30543,"lon":5.36544,"is_reserved":false,"is_disabled":false,"rental_uris":{"android":"levelo://app?vid=885b29da-0796-452d-a46f-c91b2df7c0e7","ios":"levelo://app?vid=885b29da-0796-452d-a46f-c91b2df7c0e7"},"vehicle_type_id":"4","last_reported":1761917001,"current_range_meters":24000,"station_id":"ce4bgs12rcd13ifvqcag","pricing_plan_id":"cebpf4jnsgd1na2vs0mg"},{"bike_id":"370b01d4-1220-41bf-a063-6e5dbc4edce4","system_id":"levelo_inurba_marseille","lat":43.29098,"lon":5.38172,"is_reserved":false,"is_disabled":false,"rental_uris":{"android":"levelo://app?vid=370b01d4-1220-41bf-a063-6e5dbc4edce4","ios":"levelo://app?vid=370b01d4-1220-41bf-a063-6e5dbc4edce4"},"vehicle_type_id":"4","last_reported":1761917001,"current_range_meters":24000,"station_id":"ce4bh512rcd13ifvqe2g","pricing_plan_id":"cebpf4jnsgd1na2vs0mg"},{"bike_id":"3f2fa165-597c-4387-83af-c7d5a7eaeb3f","system_id":"levelo_inurba_marseille","lat":43.29845,"lon":5.3628,"is_reserved":false,"is_disabled":false,"rental_uris":{"android":"levelo://app?vid=3f2fa165-597c-4387-83af-c7d5a7eaeb3f","ios":"levelo://app?vid=3f2fa165-597c-4387-83af-c7d5a7eaeb3f"},"vehicle_type_id":"4","last_reported":1761917001,"current_range_meters":24000,"station_id":"ce4bgpp2rcd13ifvqc3g","pricing_plan_id":"cebpf4jnsgd1na2vs0mg"},{"bike_id":"bfe05ca8-4607-4a21-8018-8ed70b7946f8","system_id":"levelo_inurba_marseille","lat":43.29854,"lon":5.36286,"is_reserved":false,"is_disabled":false,"rental_uris":{"android":"levelo://app?vid=bfe05ca8-4607-4a21-8018-8ed70b7946f8","ios":"levelo://app?vid=bfe05ca8-4607-4a21-8018-8ed70b7946f8"},"vehicle_type_id":"4","last_reported":1761917001,"current_range_meters":24000,"station_id":"ce4bgpp2rcd13ifvqc3g","pricing_plan_id":"cebpf4jnsgd1na2vs0mg"},{"bike_id":"6c665cd4-9d60-4ade-94da-3ec796f1d9dc","system_id":"levelo_inurba_marseille","lat":43.301634,"lon":5.366119,"is_reserved":false,"is_disabled":false,"rental_uris":{"android":"levelo://app?vid=6c665cd4-9d60-4ade-94da-3ec796f1d9dc","ios":"levelo://app?vid=6c665cd4-9d60-4ade-94da-3ec796f1d9dc"},"vehicle_type_id":"4","last_reported":1761917001,"current_range_meters":24000,"station_id":"ce4bgrh2rcd13ifvqc8g","pricing_plan_id":"cebpf4jnsgd1na2vs0mg"},{"bike_id":"fceafd0c-36a7-4baa-93ad-f9db423f9f8a","system_id":"levelo_inurba_marseille","lat":43.243553,"lon":5.370325,"is_reserved":false,"is_disabled":false,"rental_uris":{"android":"levelo://app?vid=fceafd0c-36a7-4baa-93ad-f9db423f9f8a","ios":"levelo://app?vid=fceafd0c-36a7-4baa-93ad-f9db423f9f8a"},"vehicle_type_id":"4","last_reported":1761917001,"current_range_meters":24000,"station_id":"ce4bhi12rcd13ifvqfp0","pricing_plan_id":"cebpf4jnsgd1na2vs0mg"},