{"last_updated":1728774495,"ttl":60,"version":"2.2","data":{"bikes":[{"bike_id":"36aeb9a0-146e-4853-b3de-3536c8a71bcb","system_id":"levelo_inurba_marseille","lat":43.30886,"lon":5.37184,"is_reserved":false,"is_disabled":false,"rental_uris":{"android":"levelo://app?vid=36aeb9a0-146e-4853-b3de-3536c8a71bcb","ios":"levelo://app?vid=36aeb9a0-146e-4853-b3de-3536c8a71bcb"},"vehicle_type_id":"4","last_reported":1728774495,"current_range_meters":38800,"station_id":"ce4bguh2rcd13ifvqckg","pricing_plan_id":"cebpf4jnsgd1na2vs0mg"},{"bike_id":"a88cc3d5-4214-4799-a463-c01d33dbb23e","system_id":"levelo_inurba_marseille","lat":43.25007,"lon":5.38919,"is_reserved":false,"is_disabled":false,"rental_uris":{"android":"levelo://app?vid=a88cc3d5-4214-4799-a463-c01d33dbb23e","ios":"levelo://app?vid=a88cc3d5-4214-4799-a463-c01d33dbb23e"},"vehicle_type_id":"4","last_reported":1728774495,"current_range_meters":19200,"station_id":"ce4bhgp2rcd13ifvqfd0","pricing_plan_id":"cebpf4jnsgd1na2vs0mg"},{"bike_id":"8a36bb65-dd05-437f-adaf-66c35c91f8ff","system_id":"levelo_inurba_marseille","lat":43.24171,"lon":5.36397,"is_reserved":false,"is_disabled":false,"rental_uris":{"android":"levelo://app?vid=8a36bb65-dd05-437f-adaf-66c35c91f8ff","ios":"levelo://app?vid=8a36bb65-dd05-437f-adaf-66c35c91f8ff"},"vehicle_type_id":"4","last_reported":1728774495,"current_range_meters":37600,"station_id":"cpo36qri1sfpv3e86is0","pricing_plan_id":"cebpf4jnsgd1na2vs0mg"},{"bike_id":"1a06f240-4b2e-4f9c-a613-a912036cb9ce","system_id":"levelo_inurba_marseille","lat":43.29922,"lon":5.37474,"is_reserved":false,"is_disabled":false,"rental_uris":{"android":"levelo://app?vid=1a06f240-4b2e-4f9c-a613-a912036cb9ce","ios":"levelo://app?vid=1a06f240-4b2e-4f9c-a613-a912036cb9ce"},"vehicle_type_id":"4","last_reported":1728774495,"current_range_meters":38000,"station_id":"ce4bgjh2rcd13ifvqbg0","pricing_plan_id":"cebpf4jnsgd1na2vs0mg"},{"bike_id":"be49e04f-56dd-4b61-b13c-bf6a68f1f153","system_id":"levelo_inurba_marseille","lat":43.28696,"lon":5.39974,"is_reserved":false,"is_disabled":false,"rental_uris":{"android":"levelo://app?vid=be49e04f-56dd-4b61-b13c-bf6a68f1f153","ios":"levelo://app?vid=be49e04f-56dd-4b61-b13c-bf6a68f1f153"},"vehicle_type_id":"4","last_reported":1728774495,"current_range_meters":32400,"station_id":"ce4bho92rcd13ifvqh3g","pricing_plan_id":"cebpf4jnsgd1na2vs0mg"},{"bike_id":"480c36bc-dd66-41df-b09a-76735c76211b","system_id":"levelo_inurba_marseille","lat":43.27996,"lon":5.41659,"is_reserved":false,"is_disabled":false,"rental_uris":{"android":"levelo://app?vid=480c36bc-dd66-41df-b09a-76735c76211b","ios":"levelo://app?vid=480c36bc-dd66-41df-b09a-76735c76211b"},"vehicle_type_id":"4","last_reported":1728774495,"current_range_meters":38000,"station_id":"ce4bho12rcd13ifvqh1g","pricing_plan_id":"cebpf4jnsgd1na2vs0mg"},{"bike_id":"1a8c2099-b686-448b-95f6-3164302769b3","system_id":"levelo_inurba_marseille","lat":43.29298,"lon":5.37457,"is_reserved":false,"is_disabled":false,"rental_uris":{"android":"levelo://app?vid=1a8c2099-b686-448b-95f6-3164302769b3","ios":"levelo://app?vid=1a8c2099-b686-448b-95f6-3164302769b3"},"vehicle_type_id":"4","last_reported":1728774495,"current_range_meters":38400,"station_id":"ce4bgi12rcd13ifvqb70","pricing_plan_id":"cebpf4jnsgd1na2vs0mg"},{"bike_id":"102471ee-d485-4122-8a0e-2f43e101d172","system_id":"levelo_inurba_marseille","lat":43.28723,"lon":5.36087,"is_reserved":false,"is_disabled":false,"rental_uris":{"android":"levelo://app?vid=102471ee-d485-4122-8a0e-2f43e101d172","ios":"levelo://app?vid=102471ee-d485-4122-8a0e-2f43e101d172"},"vehicle_type_id":"4","last_reported":1728774495,"current_range_meters":38000,"station_id":"cki0cbj6b192h4jlfktg","pricing_plan_id":"cebpf4jnsgd1na2vs0mg"},{"bike_id":"0cd993dc-190c-4d56-bce5-0c30cce473ad","system_id":"levelo_inurba_marseille","lat":43.33024,"lon":5.39033,"is_reserved":false,"is_disabled":false,"rental_uris":{"android":"levelo://app?vid=0cd993dc-190c-4d56-bce5-0c30cce473ad","ios":"levelo://app?vid=0cd993dc-190c-4d56-bce5-0c30cce473ad"},"vehicle_type_id":"4","last_reported":1728774495,"current_range_meters":38800,"station_id":"ce4bhr92rcd13ifvqhrg","pricing_plan_id":"cebpf4jnsgd1na2vs0mg"},{"bike_id":"e49be7dd-1e95-4af1-8431-31f4173ce85d","system_id":"levelo_inurba_marseille","lat":43.3211,"lon":5.36769,"is_reserved":false,"is_disabled":false,"rental_uris":{"android":"levelo://app?vid=e49be7dd-1e95-4af1-8431-31f4173ce85d","ios":"levelo://app?vid=e49be7dd-1e95-4af1-8431-31f4173ce85d"},"vehicle_type_id":"4","last_reported":1728774495,"current_range_meters":38800,"station_id":"ce4bhrh2rcd13ifvqhug","pricing_plan_id":"cebpf4jnsgd1na2vs0mg"},{"bike_id":"6143dcf9-c681-4212-af02-af18735f4829","system_id":"levelo_inurba_marseille","lat":43.28411,"lon":5.37525,"is_reserved":false,"is_disabled":false,"rental_uris":{"android":"levelo://app?vid=6143dcf9-c681-4212-af02-af18735f4829","ios":"levelo://app?vid=6143dcf9-c681-4212-af02-af18735f4829"},"vehicle_type_id":"4","last_reported":1728774495,"current_range_meters":38800,"station_id":"ce4bh412rcd13ifvqds0","pricing_plan_id":"cebpf4jnsgd1na2vs0mg"},{"bike_id":"61432fa4-e69a-43e1-a752-60da459a1e2e","system_id":"levelo_inurba_marseille","lat":43.33724,"lon":5.39188,"is_reserved":false,"is_disabled":false,"rental_uris":{"android":"levelo://app?vid=61432fa4-e69a-43e1-a752-60da459a1e2e","ios":"levelo://app?vid=61432fa4-e69a-43e1-a752-60da459a1e2e"},"vehicle_type_id":"4","last_reported":1728774495,"current_range_meters":35600,"station_id":"ce4bhr92rcd13ifvqhsg","pricing_plan_id":"cebpf4jnsgd1na2vs0mg"},{"bike_id":"6dfa1c15-62e5-4156-9ffa-4e5064dfd4c4","system_id":"levelo_inurba_marseille","lat":43.25109,"lon":5.40327,"is_reserved":false,"is_disabled":false,"rental_uris":{"android":"levelo://app?vid=6dfa1c15-62e5-4156-9ffa-4e5064dfd4c4","ios":"levelo://app?vid=6dfa1c15-62e5-4156-9ffa-4e5064dfd4c4"},"vehicle_type_id":"4","last_reported":1728774495,"current_range_meters":38800,"station_id":"ce4bhlh2rcd13ifvqgig","pricing_plan_id":"cebpf4jnsgd1na2vs0mg"},{"bike_id":"93b586e1-4b3f-403a-b3c4-fc6c6294be24","system_id":"levelo_inurba_marseille","lat":43.294067,"lon":5.384781,"is_reserved":false,"is_disabled":false,"rental_uris":{"android":"levelo://app?vid=93b586e1-4b3f-403a-b3c4-fc6c6294be24","ios":"levelo://app?vid=93b586e1-4b3f-403a-b3c4-fc6c6294be24"},"vehicle_type_id":"4","last_reported":1728774495,"current_range_meters":28400,"station_id":"ce4bhn12rcd13ifvqgqg","pricing_plan_id":"cebpf4jnsgd1na2vs0mg"},{"bike_id":"77bc0e44-4de9-46a0-9fc9-ecdc80eeec62","system_id":"levelo_inurba_marseille","lat":43.27177,"lon":5.40995,"is_reserved":false,"is_disabled":false,"rental_uris":{"android":"levelo://app?vid=77bc0e44-4de9-46a0-9fc9-ecdc80eeec62","ios":"levelo://app?vid=77bc0e44-4de9-46a0-9fc9-ecdc80eeec62"},"vehicle_type_id":"4","last_reported":1728774495,"current_range_meters":29600,"station_id":"ce4bhl12rcd13ifvqgf0","pricing_plan_id":"cebpf4jnsgd1na2vs0mg"},{"bike_id":"c63fd399-d51e-41cd-9fee-2b7fdccc7392","system_id":"levelo_inurba_marseille","lat":43.28931,"lon":5.36399,"is_reserved":false,"is_disabled":false,"rental_uris":{"android":"levelo://app?vid=c63fd399-d51e-41cd-9fee-2b7fdccc7392","ios":"levelo://app?vid=c63fd399-d51e-41cd-9fee-2b7fdccc7392"},"vehicle_type_id":"4","last_reported":1728774495,"current_range_meters":30400,"station_id":"ce4bhc92rcd13ifvqetg","pricing_plan_id":"cebpf4jnsgd1na2vs0mg"},{"bike_id":"aaec7671-c297-455f-bfe0-19c2a28bbab6","system_id":"levelo_inurba_marseille","lat":43.250012,"lon":5.389296,"is_reserved":false,"is_disabled":false,"rental_uris":{"android":"levelo://app?vid=aaec7671-c297-455f-bfe0-19c2a28bbab6","ios":"levelo://app?vid=aaec7671-c297-455f-bfe0-19c2a28bbab6"},"vehicle_type_id":"4","last_reported":1728774495,"current_range_meters":26000,"station_id":"ce4bhgp2rcd13ifvqfd0","pricing_plan_id":"cebpf4jnsgd1na2vs0mg"},{"bike_id":"c5c33660-077d-4f97-b2f0-40691ac09116","system_id":"levelo_inurba_marseille","lat":43.24393,"lon":5.3707,"is_reserved":false,"is_disabled":false,"rental_uris":{"android":"levelo://app?vid=c5c33660-077d-4f97-b2f0-40691ac09116","ios":"levelo://app?vid=c5c33660-077d-4f97-b2f0-40691ac09116"},"vehicle_type_id":"4","last_reported":1728774495,"current_range_meters":36400,"station_id":"ce4bhhh2rcd13ifvqfk0","pricing_plan_id":"cebpf4jnsgd1na2vs0mg"},{"bike_id":"931d1f9c-4cb2-40a2-a856-914a1c55fcf3","system_id":"levelo_inurba_marseille","lat":43.2457,"lon":5.41659,"is_reserved":false,"is_disabled":false,"rental_uris":{"android":"levelo://app?vid=931d1f9c-4cb2-40a2-a856-914a1c55fcf3","ios":"levelo://app?vid=931d1f9c-4cb2-40a2-a856-914a1c55fcf3"},"vehicle_type_id":"4","last_reported":1728774495,"current_range_meters":9200,"station_id":"","pricing_plan_id":"cebpf4jnsgd1na2vs0mg"},{"bike_id":"330f41a2-a0c2-4336-9738-ff0bf519ddda","system_id":"levelo_inurba_marseille","lat":43.29277,"lon":5.40126,"is_reserved":false,"is_disabled":false,"rental_uris":{"android":"levelo://app?vid=330f41a2-a0c2-4336-9738-ff0bf519ddda","ios":"levelo://app?vid=330f41a2-a0c2-4336-9738-ff0bf519ddda"},"vehicle_type_id":"4","last_reported":1728774495,"current_range_meters":38800,"station_id":"ce4bh312rcd13ifvqdk0","pricing_plan_id":"cebpf4jnsgd1na2vs0mg"},{"bike_id":"36ca0ca8-90a4-490c-8d77-4000acac3807","system_id":"levelo_inurba_marseille","lat":43.2844,"lon":5.39193,"is_reserved":false,"is_disabled":false,"rental_uris":{"android":"levelo://app?vid=36ca0ca8-90a4-490c-8d77-4000acac3807","ios":"levelo://app?vid=36ca0ca8-90a4-490c-8d77-4000acac3807"},"vehicle_type_id":"4","last_reported":1728774495,"current_range_meters":8000,"station_id":"ce4bhoh2rcd13ifvqh5g","pricing_plan_id":"cebpf4jnsgd1na2vs0mg"},{"bike_id":"0921d8f3-33c9-4091-ac98-53c85dd28a45","system_id":"levelo_inurba_marseille","lat":43.27071,"lon":5.42279,"is_reserved":false,"is_disabled":false,"rental_uris":{"android":"levelo://app?vid=0921d8f3-33c9-4091-ac98-53c85dd28a45","ios":"levelo://app?vid=0921d8f3-33c9-4091-ac98-53c85dd28a45"},"vehicle_type_id":"4","last_reported":1728774495,"current_range_meters":27600,"station_id":"ce4bhk92rcd13ifvqgb0","pricing_plan_id":"cebpf4jnsgd1na2vs0mg"},{"bike_id":"63cb0da8-a2ec-4b1f-9b41-02f576c26355","system_id":"levelo_inurba_marseille","lat":43.26799,"lon":5.4027,"is_reserved":false,"is_disabled":false,"rental_uris":{"android":"levelo://app?vid=63cb0da8-a2ec-4b1f-9b41-02f576c26355","ios":"levelo://app?vid=63cb0da8-a2ec-4b1f-9b41-02f576c26355"},"vehicle_type_id":"4","last_reported":1728774495,"current_range_meters":3200,"station_id":"ce501612rcd8frsf0b60","pricing_plan_id":"cebpf4jnsgd1na2vs0mg"},{"bike_id":"3ab72df3-c3ea-4a74-b7c7-f8fb2390496c","system_id":"levelo_inurba_marseille","lat":43.31072,"lon":5.38346,"is_reserved":false,"is_disabled":false,"rental_uris":{"android":"levelo://app?vid=3ab72df3-c3ea-4a74-b7c7-f8fb2390496c","ios":"levelo://app?vid=3ab72df3-c3ea-4a74-b7c7-f8fb2390496c"},"vehicle_type_id":"4","last_reported":1728774495,"current_range_meters":9600,"station_id":"ce4bgv92rcd13ifvqcr0","pricing_plan_id":"cebpf4jnsgd1na2vs0mg"},{"bike_id":"74b50dd3-0843-4c7b-a5ab-d32b751e3d96","system_id":"levelo_inurba_marseille","lat":43.31327,"lon":5.39694,"is_reserved":false,"is_disabled":false,"rental_uris":{"android":"levelo://app?vid=74b50dd3-0843-4c7b-a5ab-d32b751e3d96","ios":"levelo://app?vid=74b50dd3-0843-4c7b-a5ab-d32b751e3d96"},"vehicle_type_id":"4","last_reported":1728774495,"current_range_meters":38800,"station_id":"ce4bgvp2rcd13ifvqcu0","pricing_plan_id":"cebpf4jnsgd1na2vs0mg"},{"bike_id":"4ddca931-b0c6-4d19-9d23-116727b763a7","system_id":"levelo_inurba_marseille","lat":43.2909,"lon":5.38135,"is_reserved":false,"is_disabled":false,"rental_uris":{"android":"levelo://app?vid=4ddca931-b0c6-4d19-9d23-116727b763a7","ios":"levelo://app?vid=4ddca931-b0c6-4d19-9d23-116727b763a7"},"vehicle_type_id":"4","last_reported":1728774495,"current_range_meters":37600,"station_id":"ce4bh512rcd13ifvqe2g","pricing_plan_id":"cebpf4jnsgd1na2vs0mg"},{"bike_id":"0f742618-9bde-47ab-946a-fbe417187853","system_id":"levelo_inurba_marseille","lat":43.290405,"lon":5.359141,"is_reserved":false,"is_disabled":false,"rental_uris":{"android":"levelo://app?vid=0f742618-9bde-47ab-946a-fbe417187853","ios":"levelo://app?vid=0f742618-9bde-47ab-946a-fbe417187853"},"vehicle_type_id":"4","last_reported":1728774495,"current_range_meters":38400,"station_id":"ce4bha92rcd13ifvqeg0","pricing_plan_id":"cebpf4jnsgd1na2vs0mg"},{"bike_id":"0efb5f8a-ae8c-4665-8d55-4d630707f077","system_id":"levelo_inurba_marseille","lat":43.28465,"lon":5.35882,"is_reserved":false,"is_disabled":false,"rental_uris":{"android":"levelo://app?vid=0efb5f8a-ae8c-4665-8d55-4d630707f077","ios":"levelo://app?vid=0efb5f8a-ae8c-4665-8d55-4d630707f077"},"vehicle_type_id":"4","last_reported":1728774495,"current_range_meters":38800,"station_id":"ce4bhah2rcd13ifvqei0","pricing_plan_id":"cebpf4jnsgd1na2vs0mg"},{"bike_id":"f0d02166-6936-4e58-ac35-f5a54df6c97a","system_id":"levelo_inurba_marseille","lat":43.30299,"lon":5.39212,"is_reserved":false,"is_disabled":false,"rental_uris":{"android":"levelo://app?vid=f0d02166-6936-4e58-ac35-f5a54df6c97a","ios":"levelo://app?vid=f0d02166-6936-4e58-ac35-f5a54df6c97a"},"vehicle_type_id":"4","last_reported":1728774495,"current_range_meters":36800,"station_id":"ce4bgkh2rcd13ifvqbk0","pricing_plan_id":"cebpf4jnsgd1na2vs0mg"},{"bike_id":"1740a118-47c3-4f4f-8535-83e19762252e","system_id":"levelo_inurba_marseille","lat":43.31699,"lon":5.37747,"is_reserved":false,"is_disabled":false,"rental_uris":{"android":"levelo://app?vid=1740a118-47c3-4f4f-8535-83e19762252e","ios":"levelo://app?vid=1740a118-47c3-4f4f-8535-83e19762252e"},"vehicle_type_id":"4","last_reported":1728774495,"current_range_meters":2000,"station_id":"ce4bgth2rcd13ifvqch0","pricing_plan_id":"cebpf4jnsgd1na2vs0mg"},{"bike_id":"6b2daff3-9851-4dff-9081-e0ec010599e4","system_id":"levelo_inurba_marseille","lat":43.314515,"lon":5.37384,"is_reserved":false,"is_disabled":false,"rental_uris":{"android":"levelo://app?vid=6b2daff3-9851-4dff-9081-e0ec010599e4","ios":"levelo://app?vid=6b2daff3-9851-4dff-9081-e0ec010599e4"},"vehicle_type_id":"4","last_reported":1728774495,"current_range_meters":35200,"station_id":"","pricing_plan_id":"cebpf4jnsgd1na2vs0mg"},{"bike_id":"6f68d79b-bdbe-417d-a066-1075381457a2","system_id":"levelo_inurba_marseille","lat":43.24662,"lon":5.38163,"is_reserved":false,"is_disabled":false,"rental_uris":{"android":"levelo://app?vid=6f68d79b-bdbe-417d-a066-1075381457a2","ios":"levelo://app?vid=6f68d79b-bdbe-417d-a066-1075381457a2"},"vehicle_type_id":"4","last_reported":1728774495,"current_range_meters":16000,"station_id":"ce4bhih2rcd13ifvqfr0","pricing_plan_id":"cebpf4jnsgd1na2vs0mg"},{"bike_id":"f8fd929e-ef12-4998-8e1d-12522bd05de2","system_id":"levelo_inurba_marseille","lat":43.33024,"lon":5.3904,"is_reserved":false,"is_disabled":false,"rental_uris":{"android":"levelo://app?vid=f8fd929e-ef12-4998-8e1d-12522bd05de2","ios":"levelo://app?vid=f8fd929e-ef12-4998-8e1d-12522bd05de2"},"vehicle_type_id":"4","last_reported":1728774495,"current_range_meters":38800,"station_id":"ce4bhr92rcd13ifvqhrg","pricing_plan_id":"cebpf4jnsgd1na2vs0mg"},{"bike_id":"d432596f-4dce-47fb-95fe-139e821b1909","system_id":"levelo_inurba_marseille","lat":43.25001,"lon":5.38932,"is_reserved":false,"is_disabled":false,"rental_uris":{"android":"levelo://app?vid=d432596f-4dce-47fb-95fe-139e821b1909","ios":"levelo://app?vid=d432596f-4dce-47fb-95fe-139e821b1909"},"vehicle_type_id":"4","last_reported":1728774495,"current_range_meters":25600,"station_id":"ce4bhgp2rcd13ifvqfd0","pricing_plan_id":"cebpf4jnsgd1na2vs0mg"},{"bike_id":"d565d420-7d15-4098-be61-253f23a34933","system_id":"levelo_inurba_marseille","lat":43.28448,"lon":5.39204,"is_reserved":false,"is_disabled":false,"rental_uris":{"android":"levelo://app?vid=d565d420-7d15-4098-be61-253f23a34933","ios":"levelo://app?vid=d565d420-7d15-4098-be61-253f23a34933"},"vehicle_type_id":"4","last_reported":1728774495,"current_range_meters":28000,"station_id":"ce4bhoh2rcd13ifvqh5g","pricing_plan_id":"cebpf4jnsgd1na2vs0mg"},{"bike_id":"fa08456f-0316-46ca-b497-6c7d63a7f841","system_id":"levelo_inurba_marseille","lat":43.23193,"lon":5.35545,"is_reserved":false,"is_disabled":false,"rental_uris":{"android":"levelo://app?vid=fa08456f-0316-46ca-b497-6c7d63a7f841","ios":"levelo://app?vid=fa08456f-0316-46ca-b497-6c7d63a7f841"},"vehicle_type_id":"4","last_reported":1728774495,"current_range_meters":37600,"station_id":"ce4bhu92rcd13ifvqi70","pricing_plan_id":"cebpf4jnsgd1na2vs0mg"},{"bike_id":"7042fcd7-d053-43e8-aa8f-e9acc729f925","system_id":"levelo_inurba_marseille","lat":43.30645,"lon":5.4008,"is_reserved":false,"is_disabled":false,"rental_uris":{"android":"levelo://app?vid=7042fcd7-d053-43e8-aa8f-e9acc729f925","ios":"levelo://app?vid=7042fcd7-d053-43e8-aa8f-e9acc729f925"},"vehicle_type_id":"4","last_reported":1728774495,"current_range_meters":39200,"station_id":"ce4bh112rcd13ifvqda0","pricing_plan_id":"cebpf4jnsgd1na2vs0mg"},{"bike_id":"af72dc5b-e02f-4efa-8cbd-41822bfef337","system_id":"levelo_inurba_marseille","lat":43.27999,"lon":5.40005,"is_reserved":false,"is_disabled":false,"rental_uris":{"android":"levelo://app?vid=af72dc5b-e02f-4efa-8cbd-41822bfef337","ios":"levelo://app?vid=af72dc5b-e02f-4efa-8cbd-41822bfef337"},"vehicle_type_id":"4","last_reported":1728774495,"current_range_meters":33600,"station_id":"ce4bho92rcd13ifvqh4g","pricing_plan_id":"cebpf4jnsgd1na2vs0mg"},{"bike_id":"1e180aa4-3c18-4197-a07e-e8b56f6beec4","system_id":"levelo_inurba_marseille","lat":43.31366,"lon":5.366963,"is_reserved":false,"is_disabled":false,"rental_uris":{"android":"levelo://app?vid=1e180aa4-3c18-4197-a07e-e8b56f6beec4","ios":"levelo://app?vid=1e180aa4-3c18-4197-a07e-e8b56f6beec4"},"vehicle_type_id":"4","last_reported":1728774495,"current_range_meters":27200,"station_id":"ce4bgr92rcd13ifvqc6g","pricing_plan_id":"cebpf4jnsgd1na2vs0mg"},{"bike_id":"86851483-6460-4f2a-8d92-b3b47e5c55aa","system_id":"levelo_inurba_marseille","lat":43.2396,"lon":5.36626,"is_reserved":false,"is_disabled":false,"rental_uris":{"android":"levelo://app?vid=86851483-6460-4f2a-8d92-b3b47e5c55aa","ios":"levelo://app?vid=86851483-6460-4f2a-8d92-b3b47e5c55aa"},"vehicle_type_id":"4","last_reported":1728774495,"current_range_meters":38800,"station_id":"ce4bhi12rcd13ifvqfp0","pricing_plan_id":"cebpf4jnsgd1na2vs0mg"},{"bike_id":"969f0c9f-e24e-4c9e-a033-6bb183585ce3","system_id":"levelo_inurba_marseille","lat":43.30093,"lon":5.37844,"is_reserved":false,"is_disabled":false,"rental_uris":{"android":"levelo://app?vid=969f0c9f-e24e-4c9e-a033-6bb183585ce3","ios":"levelo://app?vid=969f0c9f-e24e-4c9e-a033-6bb183585ce3"},"vehicle_type_id":"4","last_reported":1728774495,"current_range_meters":9200,"station_id":"","pricing_plan_id":"cebpf4jnsgd1na2vs0mg"},{"bike_id":"900d410e-a263-4441-80a1-af67345a66d2","system_id":"levelo_inurba_marseille","lat":43.24386,"lon":5.37064,"is_reserved":false,"is_disabled":false,"rental_uris":{"android":"levelo://app?vid=900d410e-a263-4441-80a1-af67345a66d2","ios":"levelo://app?vid=900d410e-a263-4441-80a1-af67345a66d2"},"vehicle_type_id":"4","last_reported":1728774495,"current_range_meters":19200,"station_id":"ce4bhhh2rcd13ifvqfk0","pricing_plan_id":"cebpf4jnsgd1na2vs0mg"},{"bike_id":"17484043-4344-41a9-8192-117ae71fadc8","system_id":"levelo_inurba_marseille","lat":43.27992,"lon":5.41661,"is_reserved":false,"is_disabled":false,"rental_uris":{"android":"levelo://app?vid=17484043-4344-41a9-8192-117ae71fadc8","ios":"levelo://app?vid=17484043-4344-41a9-8192-117ae71fadc8"},"vehicle_type_id":"4","last_reported":1728774495,"current_range_meters":38800,"station_id":"ce4bho12rcd13ifvqh1g","pricing_plan_id":"cebpf4jnsgd1na2vs0mg"},{"bike_id":"50deecc9-6fe4-48a3-9ee7-031626dd77eb","system_id":"levelo_inurba_marseille","lat":43.3042,"lon":5.39756,"is_reserved":false,"is_disabled":false,"rental_uris":{"android":"levelo://app?vid=50deecc9-6fe4-48a3-9ee7-031626dd77eb","ios":"levelo://app?vid=50deecc9-6fe4-48a3-9ee7-031626dd77eb"},"vehicle_type_id":"4","last_reported":1728774495,"current_range_meters":39200,"station_id":"ce4bh092rcd13ifvqd20","pricing_plan_id":"cebpf4jnsgd1na2vs0mg"},{"bike_id":"2c08b66a-f2f6-4a1d-b2e0-65007aea605a","system_id":"levelo_inurba_marseille","lat":43.30138,"lon":5.39882,"is_reserved":false,"is_disabled":false,"rental_uris":{"android":"levelo://app?vid=2c08b66a-f2f6-4a1d-b2e0-65007aea605a","ios":"levelo://app?vid=2c08b66a-f2f6-4a1d-b2e0-65007aea605a"},"vehicle_type_id":"4","last_reported":1728774495,"current_range_meters":18800,"station_id":"ce4bh0h2rcd13ifvqd40","pricing_plan_id":"cebpf4jnsgd1na2vs0mg"},{"bike_id":"1d88376c-6674-4e5c-a3c5-0340c59f28ab","system_id":"levelo_inurba_marseille","lat":43.33603,"lon":5.4102,"is_reserved":false,"is_disabled":false,"rental_uris":{"android":"levelo://app?vid=1d88376c-6674-4e5c-a3c5-0340c59f28ab","ios":"levelo://app?vid=1d88376c-6674-4e5c-a3c5-0340c59f28ab"},"vehicle_type_id":"4","last_reported":1728774495,"current_range_meters":38000,"station_id":"ce4bhqh2rcd13ifvqhmg","pricing_plan_id":"cebpf4jnsgd1na2vs0mg"},{"bike_id":"334eb7c5-e537-4478-984a-f14151edc3e5","system_id":"levelo_inurba_marseille","lat":43.31272,"lon":5.40163,"is_reserved":false,"is_disabled":false,"rental_uris":{"android":"levelo://app?vid=334eb7c5-e537-4478-984a-f14151edc3e5","ios":"levelo://app?vid=334eb7c5-e537-4478-984a-f14151edc3e5"},"vehicle_type_id":"4","last_reported":1728774495,"current_range_meters":38400,"station_id":"ce4bh092rcd13ifvqd30","pricing_plan_id":"cebpf4jnsgd1na2vs0mg"},{"bike_id":"ee3d77b2-c4c3-417a-8170-d8edb7edeab8","system_id":"levelo_inurba_marseille","lat":43.22936,"lon":5.35378,"is_reserved":false,"is_disabled":false,"rental_uris":{"android":"levelo://app?vid=ee3d77b2-c4c3-417a-8170-d8edb7edeab8","ios":"levelo://app?vid=ee3d77b2-c4c3-417a-8170-d8edb7edeab8"},"vehicle_type_id":"4","last_reported":1728774495,"current_range_meters":9600,"station_id":"cpo3532slgdg3j2ikp40","pricing_plan_id":"cebpf4jnsgd1na2vs0mg"},{"bike_id":"d11e8d9a-7920-4230-9d73-634beb120f2f","system_id":"levelo_inurba_marseille","lat":43.29034,"lon":5.35914,"is_reserved":false,"is_disabled":false,"rental_uris":{"android":"levelo://app?vid=d11e8d9a-7920-4230-9d73-634beb120f2f","ios":"levelo://app?vid=d11e8d9a-7920-4230-9d73-634beb120f2f"},"vehicle_type_id":"4","last_reported":1728774495,"current_range_meters":38800,"station_id":"ce4bha92rcd13ifvqeg0","pricing_plan_id":"cebpf4jnsgd1na2vs0mg"},{"bike_id":"67958920-36de-4f6e-9456-bc4aa9d17976","system_id":"levelo_inurba_marseille","lat":43.28267,"lon":5.35073,"is_reserved":false,"is_disabled":false,"rental_uris":{"android":"levelo://app?vid=67958920-36de-4f6e-9456-bc4aa9d17976","ios":"levelo://app?vid=67958920-36de-4f6e-9456-bc4aa9d17976"},"vehicle_type_id":"4","last_reported":1728774495,"current_range_meters":38800,"station_id":"ce4bhbp2rcd13ifvqerg","pricing_plan_id":"cebpf4jnsgd1na2vs0mg"},{"bike_id":"f6581013-d91f-4a90-9ef7-674f4e86e30d","system_id":"levelo_inurba_marseille","lat":43.26056,"lon":5.39401,"is_reserved":false,"is_disabled":false,"rental_uris":{"android":"levelo://app?vid=f6581013-d91f-4a90-9ef7-674f4e86e30d","ios":"levelo://app?vid=f6581013-d91f-4a90-9ef7-674f4e86e30d"},"vehicle_type_id":"4","last_reported":1728774495,"current_range_meters":33600,"station_id":"ce4bhh92rcd13ifvqfj0","pricing_plan_id":"cebpf4jnsgd1na2vs0mg"},{"bike_id":"7ed8bd30-01ef-4a79-9d96-188ec6d810e0","system_id":"levelo_inurba_marseille","lat":43.26563,"lon":5.39007,"is_reserved":false,"is_disabled":false,"rental_uris":{"android":"levelo://app?vid=7ed8bd30-01ef-4a79-9d96-188ec6d810e0","ios":"levelo://app?vid=7ed8bd30-01ef-4a79-9d96-188ec6d810e0"},"vehicle_type_id":"4","last_reported":1728774495,"current_range_meters":12000,"station_id":"ce4bhe12rcd13ifvqf30","pricing_plan_id":"cebpf4jnsgd1na2vs0mg"},{"bike_id":"11d2acba-9213-43b7-bee9-c635a3c3b21c","system_id":"levelo_inurba_marseille","lat":43.26557,"lon":5.37289,"is_reserved":false,"is_disabled":false,"rental_uris":{"android":"levelo://app?vid=11d2acba-9213-43b7-bee9-c635a3c3b21c","ios":"levelo://app?vid=11d2acba-9213-43b7-bee9-c635a3c3b21c"},"vehicle_type_id":"4","last_reported":1728774495,"current_range_meters":38400,"station_id":"ce4bhg12rcd13ifvqf70","pricing_plan_id":"cebpf4jnsgd1na2vs0mg"},{"bike_id":"683f70bb-8ede-4516-a8a4-3219da6c61b4","system_id":"levelo_inurba_marseille","lat":43.31115,"lon":5.37767,"is_reserved":false,"is_disabled":false,"rental_uris":{"android":"levelo://app?vid=683f70bb-8ede-4516-a8a4-3219da6c61b4","ios":"levelo://app?vid=683f70bb-8ede-4516-a8a4-3219da6c61b4"},"vehicle_type_id":"4","last_reported":1728774495,"current_range_meters":39200,"station_id":"ce4bgt92rcd13ifvqcg0","pricing_plan_id":"cebpf4jnsgd1na2vs0mg"},{"bike_id":"bbd7fa77-219f-4deb-a793-188ed9a44506","system_id":"levelo_inurba_marseille","lat":43.25002,"lon":5.38924,"is_reserved":false,"is_disabled":false,"rental_uris":{"android":"levelo://app?vid=bbd7fa77-219f-4deb-a793-188ed9a44506","ios":"levelo://app?vid=bbd7fa77-219f-4deb-a793-188ed9a44506"},"vehicle_type_id":"4","last_reported":1728774495,"current_range_meters":20800,"station_id":"ce4bhgp2rcd13ifvqfd0","pricing_plan_id":"cebpf4jnsgd1na2vs0mg"},{"bike_id":"7c19233c-735a-4199-b3f3-68121391fafb","system_id":"levelo_inurba_marseille","lat":43.28409,"lon":5.37506,"is_reserved":false,"is_disabled":false,"rental_uris":{"android":"levelo://app?vid=7c19233c-735a-4199-b3f3-68121391fafb","ios":"levelo://app?vid=7c19233c-735a-4199-b3f3-68121391fafb"},"vehicle_type_id":"4","last_reported":1728774495,"current_range_meters":25600,"station_id":"ce4bh412rcd13ifvqds0","pricing_plan_id":"cebpf4jnsgd1na2vs0mg"},{"bike_id":"3ab83c40-479e-4d21-8761-681410fa78a2","system_id":"levelo_inurba_marseille","lat":43.28843,"lon":5.39316,"is_reserved":false,"is_disabled":false,"rental_uris":{"android":"levelo://app?vid=3ab83c40-479e-4d21-8761-681410fa78a2","ios":"levelo://app?vid=3ab83c40-479e-4d21-8761-681410fa78a2"},"vehicle_type_id":"4","last_reported":1728774495,"current_range_meters":10000,"station_id":"ce4bh2p2rcd13ifvqdi0","pricing_plan_id":"cebpf4jnsgd1na2vs0mg"},{"bike_id":"8c0e9837-fa02-4003-9312-c408e23a7367","system_id":"levelo_inurba_marseille","lat":43.2848,"lon":5.38427,"is_reserved":false,"is_disabled":false,"rental_uris":{"android":"levelo://app?vid=8c0e9837-fa02-4003-9312-c408e23a7367","ios":"levelo://app?vid=8c0e9837-fa02-4003-9312-c408e23a7367"},"vehicle_type_id":"4","last_reported":1728774495,"current_range_meters":8800,"station_id":"ce4bh512rcd13ifvqe3g","pricing_plan_id":"cebpf4jnsgd1na2vs0mg"},{"bike_id":"cec1e807-225d-4073-b5be-e6b643c96f31","system_id":"levelo_inurba_marseille","lat":43.24999,"lon":5.3893,"is_reserved":false,"is_disabled":false,"rental_uris":{"android":"levelo://app?vid=cec1e807-225d-4073-b5be-e6b643c96f31","ios":"levelo://app?vid=cec1e807-225d-4073-b5be-e6b643c96f31"},"vehicle_type_id":"4","last_reported":1728774495,"current_range_meters":17600,"station_id":"ce4bhgp2rcd13ifvqfd0","pricing_plan_id":"cebpf4jnsgd1na2vs0mg"},{"bike_id":"b550d9a5-6d28-4849-919d-9ff3eacbcff1","system_id":"levelo_inurba_marseille","lat":43.3172,"lon":5.37767,"is_reserved":false,"is_disabled":false,"rental_uris":{"android":"levelo://app?vid=b550d9a5-6d28-4849-919d-9ff3eacbcff1","ios":"levelo://app?vid=b550d9a5-6d28-4849-919d-9ff3eacbcff1"},"vehicle_type_id":"4","last_reported":1728774495,"current_range_meters":26000,"station_id":"ce4bgth2rcd13ifvqch0","pricing_plan_id":"cebpf4jnsgd1na2vs0mg"},{"bike_id":"8a563887-6b06-45d7-80d2-0ebbd75385e8","system_id":"levelo_inurba_marseille","lat":43.31493,"lon":5.373,"is_reserved":false,"is_disabled":false,"rental_uris":{"android":"levelo://app?vid=8a563887-6b06-45d7-80d2-0ebbd75385e8","ios":"levelo://app?vid=8a563887-6b06-45d7-80d2-0ebbd75385e8"},"vehicle_type_id":"4","last_reported":1728774495,"current_range_meters":38000,"station_id":"ce4bgt12rcd13ifvqcd0","pricing_plan_id":"cebpf4jnsgd1na2vs0mg"},{"bike_id":"83a4174b-629d-4bc4-836e-304b13210d85","system_id":"levelo_inurba_marseille","lat":43.27986,"lon":5.41664,"is_reserved":false,"is_disabled":false,"rental_uris":{"android":"levelo://app?vid=83a4174b-629d-4bc4-836e-304b13210d85","ios":"levelo://app?vid=83a4174b-629d-4bc4-836e-304b13210d85"},"vehicle_type_id":"4","last_reported":1728774495,"current_range_meters":38800,"station_id":"ce4bho12rcd13ifvqh1g","pricing_plan_id":"cebpf4jnsgd1na2vs0mg"},{"bike_id":"db5bc5ae-6bd4-4578-b248-795b698b8487","system_id":"levelo_inurba_marseille","lat":43.31076,"lon":5.38352,"is_reserved":false,"is_disabled":false,"rental_uris":{"android":"levelo://app?vid=db5bc5ae-6bd4-4578-b248-795b698b8487","ios":"levelo://app?vid=db5bc5ae-6bd4-4578-b248-795b698b8487"},"vehicle_type_id":"4","last_reported":1728774495,"current_range_meters":20000,"station_id":"ce4bgv92rcd13ifvqcr0","pricing_plan_id":"cebpf4jnsgd1na2vs0mg"},{"bike_id":"23406b0a-257d-4953-be80-00bf6ad023b5","system_id":"levelo_inurba_marseille","lat":43.24068,"lon":5.37762,"is_reserved":false,"is_disabled":false,"rental_uris":{"android":"levelo://app?vid=23406b0a-257d-4953-be80-00bf6ad023b5","ios":"levelo://app?vid=23406b0a-257d-4953-be80-00bf6ad023b5"},"vehicle_type_id":"4","last_reported":1728774495,"current_range_meters":9600,"station_id":"ce4bhnp2rcd13ifvqgvg","pricing_plan_id":"cebpf4jnsgd1na2vs0mg"},{"bike_id":"baf8ed53-e2c2-4ad3-aaa7-cc53b8bdc41d","system_id":"levelo_inurba_marseille","lat":43.3092,"lon":5.40157,"is_reserved":false,"is_disabled":false,"rental_uris":{"android":"levelo://app?vid=baf8ed53-e2c2-4ad3-aaa7-cc53b8bdc41d","ios":"levelo://app?vid=baf8ed53-e2c2-4ad3-aaa7-cc53b8bdc41d"},"vehicle_type_id":"4","last_reported":1728774495,"current_range_meters":29600,"station_id":"ce4bgvp2rcd13ifvqct0","pricing_plan_id":"cebpf4jnsgd1na2vs0mg"},{"bike_id":"3545951b-894d-4495-afdf-84cb7b3b25b3","system_id":"levelo_inurba_marseille","lat":43.23194,"lon":5.35557,"is_reserved":false,"is_disabled":false,"rental_uris":{"android":"levelo://app?vid=3545951b-894d-4495-afdf-84cb7b3b25b3","ios":"levelo://app?vid=3545951b-894d-4495-afdf-84cb7b3b25b3"},"vehicle_type_id":"4","last_reported":1728774495,"current_range_meters":32800,"station_id":"ce4bhu92rcd13ifvqi70","pricing_plan_id":"cebpf4jnsgd1na2vs0mg"},{"bike_id":"94b5b3e5-1466-4cd8-b5b3-d5cbebabce80","system_id":"levelo_inurba_marseille","lat":43.23956,"lon":5.36644,"is_reserved":false,"is_disabled":false,"rental_uris":{"android":"levelo://app?vid=94b5b3e5-1466-4cd8-b5b3-d5cbebabce80","ios":"levelo://app?vid=94b5b3e5-1466-4cd8-b5b3-d5cbebabce80"},"vehicle_type_id":"4","last_reported":1728774495,"current_range_meters":9600,"station_id":"ce4bhi12rcd13ifvqfp0","pricing_plan_id":"cebpf4jnsgd1na2vs0mg"},{"bike_id":"1e0ba4c2-c2b3-495c-b6a3-283edf3c2c86","system_id":"levelo_inurba_marseille","lat":43.31072,"lon":5.38354,"is_reserved":false,"is_disabled":false,"rental_uris":{"android":"levelo://app?vid=1e0ba4c2-c2b3-495c-b6a3-283edf3c2c86","ios":"levelo://app?vid=1e0ba4c2-c2b3-495c-b6a3-283edf3c2c86"},"vehicle_type_id":"4","last_reported":1728774495,"current_range_meters":24400,"station_id":"ce4bgv92rcd13ifvqcr0","pricing_plan_id":"cebpf4jnsgd1na2vs0mg"},{"bike_id":"ae5afccb-9422-4cba-8876-7d97218fdd1f","system_id":"levelo_inurba_marseille","lat":43.31357,"lon":5.38501,"is_reserved":false,"is_disabled":false,"rental_uris":{"android":"levelo://app?vid=ae5afccb-9422-4cba-8876-7d97218fdd1f","ios":"levelo://app?vid=ae5afccb-9422-4cba-8876-7d97218fdd1f"},"vehicle_type_id":"4","last_reported":1728774495,"current_range_meters":34800,"station_id":"ce4bgt92rcd13ifvqcf0","pricing_plan_id":"cebpf4jnsgd1na2vs0mg"},{"bike_id":"f78f0412-ee71-4a24-82a9-83d0770be959","system_id":"levelo_inurba_marseille","lat":43.28353,"lon":5.38632,"is_reserved":false,"is_disabled":false,"rental_uris":{"android":"levelo://app?vid=f78f0412-ee71-4a24-82a9-83d0770be959","ios":"levelo://app?vid=f78f0412-ee71-4a24-82a9-83d0770be959"},"vehicle_type_id":"4","last_reported":1728774495,"current_range_meters":27200,"station_id":"ce4bh492rcd13ifvqdvg","pricing_plan_id":"cebpf4jnsgd1na2vs0mg"},{"bike_id":"aa96c34c-298f-416e-9875-af359f633de3","system_id":"levelo_inurba_marseille","lat":43.29275,"lon":5.36844,"is_reserved":false,"is_disabled":false,"rental_uris":{"android":"levelo://app?vid=aa96c34c-298f-416e-9875-af359f633de3","ios":"levelo://app?vid=aa96c34c-298f-416e-9875-af359f633de3"},"vehicle_type_id":"4","last_reported":1728774495,"current_range_meters":22000,"station_id":"ce4bhbp2rcd13ifvqesg","pricing_plan_id":"cebpf4jnsgd1na2vs0mg"},{"bike_id":"2e4332d3-2239-45a2-8c0f-08f6cf4189b8","system_id":"levelo_inurba_marseille","lat":43.28759,"lon":5.37368,"is_reserved":false,"is_disabled":false,"rental_uris":{"android":"levelo://app?vid=2e4332d3-2239-45a2-8c0f-08f6cf4189b8","ios":"levelo://app?vid=2e4332d3-2239-45a2-8c0f-08f6cf4189b8"},"vehicle_type_id":"4","last_reported":1728774495,"current_range_meters":10800,"station_id":"","pricing_plan_id":"cebpf4jnsgd1na2vs0mg"},{"bike_id":"ddc9267c-6a26-4d52-bec3-8aeecb5f66c4","system_id":"levelo_inurba_marseille","lat":43.30136,"lon":5.37422,"is_reserved":false,"is_disabled":false,"rental_uris":{"android":"levelo://app?vid=ddc9267c-6a26-4d52-bec3-8aeecb5f66c4","ios":"levelo://app?vid=ddc9267c-6a26-4d52-bec3-8aeecb5f66c4"},"vehicle_type_id":"4","last_reported":1728774495,"current_range_meters":21600,"station_id":"ce4bgs92rcd13ifvqcc0","pricing_plan_id":"cebpf4jnsgd1na2vs0mg"},{"bike_id":"25ed2710-8c35-44e6-81fd-8fc7cf6b54a8","system_id":"levelo_inurba_marseille","lat":43.274948,"lon":5.424466,"is_reserved":false,"is_disabled":false,"rental_uris":{"android":"levelo://app?vid=25ed2710-8c35-44e6-81fd-8fc7cf6b54a8","ios":"levelo://app?vid=25ed2710-8c35-44e6-81fd-8fc7cf6b54a8"},"vehicle_type_id":"4","last_reported":1728774495,"current_range_meters":24000,"station_id":"ce4bhn92rcd13ifvqgrg","pricing_plan_id":"cebpf4jnsgd1na2vs0mg"},{"bike_id":"701a46cd-56e8-4593-9151-18ac094e52f4","system_id":"levelo_inurba_marseille","lat":43.28727,"lon":5.36094,"is_reserved":false,"is_disabled":false,"rental_uris":{"android":"levelo://app?vid=701a46cd-56e8-4593-9151-18ac094e52f4","ios":"levelo://app?vid=701a46cd-56e8-4593-9151-18ac094e52f4"},"vehicle_type_id":"4","last_reported":1728774495,"current_range_meters":36400,"station_id":"cki0cbj6b192h4jlfktg","pricing_plan_id":"cebpf4jnsgd1na2vs0mg"},{"bike_id":"0675332b-d30d-4aad-bbe4-d78ca87cbf54","system_id":"levelo_inurba_marseille","lat":43.30299,"lon":5.3921,"is_reserved":false,"is_disabled":false,"rental_uris":{"android":"levelo://app?vid=0675332b-d30d-4aad-bbe4-d78ca87cbf54","ios":"levelo://app?vid=0675332b-d30d-4aad-bbe4-d78ca87cbf54"},"vehicle_type_id":"4","last_reported":1728774495,"current_range_meters":38400,"station_id":"ce4bgkh2rcd13ifvqbk0","pricing_plan_id":"cebpf4jnsgd1na2vs0mg"},{"bike_id":"fda02240-df65-4d65-bbda-6f7e5d08eaf0","system_id":"levelo_inurba_marseille","lat":43.30412,"lon":5.41289,"is_reserved":false,"is_disabled":false,"rental_uris":{"android":"levelo://app?vid=fda02240-df65-4d65-bbda-6f7e5d08eaf0","ios":"levelo://app?vid=fda02240-df65-4d65-bbda-6f7e5d08eaf0"},"vehicle_type_id":"4","last_reported":1728774495,"current_range_meters":30000,"station_id":"ce4bhop2rcd13ifvqh8g","pricing_plan_id":"cebpf4jnsgd1na2vs0mg"},{"bike_id":"2114f7ff-483e-4059-9d88-4aa497a89314","system_id":"levelo_inurba_marseille","lat":43.250853,"lon":5.395257,"is_reserved":false,"is_disabled":false,"rental_uris":{"android":"levelo://app?vid=2114f7ff-483e-4059-9d88-4aa497a89314","ios":"levelo://app?vid=2114f7ff-483e-4059-9d88-4aa497a89314"},"vehicle_type_id":"4","last_reported":1728774495,"current_range_meters":14800,"station_id":"ce4bhm12rcd13ifvqgkg","pricing_plan_id":"cebpf4jnsgd1na2vs0mg"},{"bike_id":"ee789adc-9b88-48d2-8524-82153746a61e","system_id":"levelo_inurba_marseille","lat":43.28701,"lon":5.37397,"is_reserved":false,"is_disabled":false,"rental_uris":{"android":"levelo://app?vid=ee789adc-9b88-48d2-8524-82153746a61e","ios":"levelo://app?vid=ee789adc-9b88-48d2-8524-82153746a61e"},"vehicle_type_id":"4","last_reported":1728774495,"current_range_meters":39200,"station_id":"ce4bh3p2rcd13ifvqdq0","pricing_plan_id":"cebpf4jnsgd1na2vs0mg"},{"bike_id":"5efee0fd-b4b5-40de-b7c1-8f2aceec415e","system_id":"levelo_inurba_marseille","lat":43.28451,"lon":5.392,"is_reserved":false,"is_disabled":false,"rental_uris":{"android":"levelo://app?vid=5efee0fd-b4b5-40de-b7c1-8f2aceec415e","ios":"levelo://app?vid=5efee0fd-b4b5-40de-b7c1-8f2aceec415e"},"vehicle_type_id":"4","last_reported":1728774495,"current_range_meters":35600,"station_id":"ce4bhoh2rcd13ifvqh5g","pricing_plan_id":"cebpf4jnsgd1na2vs0mg"},{"bike_id":"5fcd241a-2ee4-49ed-a963-5e66485d4fea","system_id":"levelo_inurba_marseille","lat":43.24802,"lon":5.37454,"is_reserved":false,"is_disabled":false,"rental_uris":{"android":"levelo://app?vid=5fcd241a-2ee4-49ed-a963-5e66485d4fea","ios":"levelo://app?vid=5fcd241a-2ee4-49ed-a963-5e66485d4fea"},"vehicle_type_id":"4","last_reported":1728774495,"current_range_meters":17600,"station_id":"ce4bhgh2rcd13ifvqfb0","pricing_plan_id":"cebpf4jnsgd1na2vs0mg"},{"bike_id":"0773638a-4c32-4c69-ba2f-fd7b2ceae4a0","system_id":"levelo_inurba_marseille","lat":43.27614,"lon":5.36118,"is_reserved":false,"is_disabled":false,"rental_uris":{"android":"levelo://app?vid=0773638a-4c32-4c69-ba2f-fd7b2ceae4a0","ios":"levelo://app?vid=0773638a-4c32-4c69-ba2f-fd7b2ceae4a0"},"vehicle_type_id":"4","last_reported":1728774495,"current_range_meters":4000,"station_id":"ce4bgj92rcd13ifvqbe0","pricing_plan_id":"cebpf4jnsgd1na2vs0mg"},{"bike_id":"e422ce66-af8c-47b3-bf5b-56d15daf0a79","system_id":"levelo_inurba_marseille","lat":43.2396,"lon":5.36624,"is_reserved":false,"is_disabled":false,"rental_uris":{"android":"levelo://app?vid=e422ce66-af8c-47b3-bf5b-56d15daf0a79","ios":"levelo://app?vid=e422ce66-af8c-47b3-bf5b-56d15daf0a79"},"vehicle_type_id":"4","last_reported":1728774495,"current_range_meters":14000,"station_id":"ce4bhi12rcd13ifvqfp0","pricing_plan_id":"cebpf4jnsgd1na2vs0mg"},{"bike_id":"0e93c01b-9e71-4227-9295-5a4a2f7a0689","system_id":"levelo_inurba_marseille","lat":43.32659,"lon":5.40991,"is_reserved":false,"is_disabled":false,"rental_uris":{"android":"levelo://app?vid=0e93c01b-9e71-4227-9295-5a4a2f7a0689","ios":"levelo://app?vid=0e93c01b-9e71-4227-9295-5a4a2f7a0689"},"vehicle_type_id":"4","last_reported":1728774495,"current_range_meters":28800,"station_id":"ce4bhpp2rcd13ifvqhgg","pricing_plan_id":"cebpf4jnsgd1na2vs0mg"},{"bike_id":"19ed5c03-0e03-4011-aac5-3c05b288be88","system_id":"levelo_inurba_marseille","lat":43.30933,"lon":5.40143,"is_reserved":false,"is_disabled":false,"rental_uris":{"android":"levelo://app?vid=19ed5c03-0e03-4011-aac5-3c05b288be88","ios":"levelo://app?vid=19ed5c03-0e03-4011-aac5-3c05b288be88"},"vehicle_type_id":"4","last_reported":1728774495,"current_range_meters":33200,"station_id":"ce4bgvp2rcd13ifvqct0","pricing_plan_id":"cebpf4jnsgd1na2vs0mg"},{"bike_id":"12c16baa-fd96-4fd7-b545-6dd516b485e8","system_id":"levelo_inurba_marseille","lat":43.23185,"lon":5.39986,"is_reserved":false,"is_disabled":false,"rental_uris":{"android":"levelo://app?vid=12c16baa-fd96-4fd7-b545-6dd516b485e8","ios":"levelo://app?vid=12c16baa-fd96-4fd7-b545-6dd516b485e8"},"vehicle_type_id":"4","last_reported":1728774495,"current_range_meters":14000,"station_id":"ce4bhn12rcd13ifvqgqg","pricing_plan_id":"cebpf4jnsgd1na2vs0mg"},{"bike_id":"5f48668b-ea01-481e-99ee-35bc36a67628","system_id":"levelo_inurba_marseille","lat":43.29867,"lon":5.39736,"is_reserved":false,"is_disabled":false,"rental_uris":{"android":"levelo://app?vid=5f48668b-ea01-481e-99ee-35bc36a67628","ios":"levelo://app?vid=5f48668b-ea01-481e-99ee-35bc36a67628"},"vehicle_type_id":"4","last_reported":1728774495,"current_range_meters":8000,"station_id":"ce4bh0h2rcd13ifvqd50","pricing_plan_id":"cebpf4jnsgd1na2vs0mg"},{"bike_id":"5b60400f-1b06-4672-a005-6d0e007e96b6","system_id":"levelo_inurba_marseille","lat":43.25088,"lon":5.39523,"is_reserved":false,"is_disabled":false,"rental_uris":{"android":"levelo://app?vid=5b60400f-1b06-4672-a005-6d0e007e96b6","ios":"levelo://app?vid=5b60400f-1b06-4672-a005-6d0e007e96b6"},"vehicle_type_id":"4","last_reported":1728774495,"current_range_meters":12800,"station_id":"ce4bhm12rcd13ifvqgkg","pricing_plan_id":"cebpf4jnsgd1na2vs0mg"},{"bike_id":"e3cd8953-9e5a-44ad-a5cd-debf49a539ae","system_id":"levelo_inurba_marseille","lat":43.21249,"lon":5.35441,"is_reserved":false,"is_disabled":false,"rental_uris":{"android":"levelo://app?vid=e3cd8953-9e5a-44ad-a5cd-debf49a539ae","ios":"levelo://app?vid=e3cd8953-9e5a-44ad-a5cd-debf49a539ae"},"vehicle_type_id":"4","last_reported":1728774495,"current_range_meters":24400,"station_id":"","pricing_plan_id":"cebpf4jnsgd1na2vs0mg"},{"bike_id":"47d3d04e-9827-45c2-be83-981d774d4732","system_id":"levelo_inurba_marseille","lat":43.28107,"lon":5.37844,"is_reserved":false,"is_disabled":false,"rental_uris":{"android":"levelo://app?vid=47d3d04e-9827-45c2-be83-981d774d4732","ios":"levelo://app?vid=47d3d04e-9827-45c2-be83-981d774d4732"},"vehicle_type_id":"4","last_reported":1728774495,"current_range_meters":24400,"station_id":"ce4bha12rcd13ifvqee0","pricing_plan_id":"cebpf4jnsgd1na2vs0mg"},{"bike_id":"53481144-5f5c-4acf-9f73-e042e6bba806","system_id":"levelo_inurba_marseille","lat":43.27956,"lon":5.410386,"is_reserved":false,"is_disabled":false,"rental_uris":{"android":"levelo://app?vid=53481144-5f5c-4acf-9f73-e042e6bba806","ios":"levelo://app?vid=53481144-5f5c-4acf-9f73-e042e6bba806"},"vehicle_type_id":"4","last_reported":1728774495,"current_range_meters":38800,"station_id":"ce4bhnp2rcd13ifvqh0g","pricing_plan_id":"cebpf4jnsgd1na2vs0mg"},{"bike_id":"f6103c57-3750-4486-9811-6430a6ccacba","system_id":"levelo_inurba_marseille","lat":43.30423,"lon":5.39755,"is_reserved":false,"is_disabled":false,"rental_uris":{"android":"levelo://app?vid=f6103c57-3750-4486-9811-6430a6ccacba","ios":"levelo://app?vid=f6103c57-3750-4486-9811-6430a6ccacba"},"vehicle_type_id":"4","last_reported":1728774495,"current_range_meters":21600,"station_id":"ce4bh092rcd13ifvqd20","pricing_plan_id":"cebpf4jnsgd1na2vs0mg"},{"bike_id":"744d7d46-a030-452d-827a-600610e2a098","system_id":"levelo_inurba_marseille","lat":43.23177,"lon":5.39996,"is_reserved":false,"is_disabled":false,"rental_uris":{"android":"levelo://app?vid=744d7d46-a030-452d-827a-600610e2a098","ios":"levelo://app?vid=744d7d46-a030-452d-827a-600610e2a098"},"vehicle_type_id":"4","last_reported":1728774495,"current_range_meters":36800,"station_id":"ce4bhn12rcd13ifvqgqg","pricing_plan_id":"cebpf4jnsgd1na2vs0mg"},{"bike_id":"c07591cb-630f-4a71-a82f-ad2dc6224f9e","system_id":"levelo_inurba_marseille","lat":43.29265,"lon":5.40918,"is_reserved":false,"is_disabled":false,"rental_uris":{"android":"levelo://app?vid=c07591cb-630f-4a71-a82f-ad2dc6224f9e","ios":"levelo://app?vid=c07591cb-630f-4a71-a82f-ad2dc6224f9e"},"vehicle_type_id":"4","last_reported":1728774495,"current_range_meters":4800,"station_id":"ce4bh192rcd13ifvqdc0","pricing_plan_id":"cebpf4jnsgd1na2vs0mg"},{"bike_id":"e6a8aec1-d448-48fb-b2d3-480453e7edf3","system_id":"levelo_inurba_marseille","lat":43.31693,"lon":5.39819,"is_reserved":false,"is_disabled":false,"rental_uris":{"android":"levelo://app?vid=e6a8aec1-d448-48fb-b2d3-480453e7edf3","ios":"levelo://app?vid=e6a8aec1-d448-48fb-b2d3-480453e7edf3"},"vehicle_type_id":"4","last_reported":1728774495,"current_range_meters":8000,"station_id":"","pricing_plan_id":"cebpf4jnsgd1na2vs0mg"},{"bike_id":"739a2710-19dc-40e9-862d-bad6b2c3f468","system_id":"levelo_inurba_marseille","lat":43.31485,"lon":5.37302,"is_reserved":false,"is_disabled":false,"rental_uris":{"android":"levelo://app?vid=739a2710-19dc-40e9-862d-bad6b2c3f468","ios":"levelo://app?vid=739a2710-19dc-40e9-862d-bad6b2c3f468"},"vehicle_type_id":"4","last_reported":1728774495,"current_range_meters":2000,"station_id":"ce4bgt12rcd13ifvqcd0","pricing_plan_id":"cebpf4jnsgd1na2vs0mg"},{"bike_id":"87a5b595-fa8d-4102-801c-49be9e441495","system_id":"levelo_inurba_marseille","lat":43.31272,"lon":5.40172,"is_reserved":false,"is_disabled":false,"rental_uris":{"android":"levelo://app?vid=87a5b595-fa8d-4102-801c-49be9e441495","ios":"levelo://app?vid=87a5b595-fa8d-4102-801c-49be9e441495"},"vehicle_type_id":"4","last_reported":1728774495,"current_range_meters":17600,"station_id":"ce4bh092rcd13ifvqd30","pricing_plan_id":"cebpf4jnsgd1na2vs0mg"},{"bike_id":"6c88fd04-8064-4b69-af89-437a91515c00","system_id":"levelo_inurba_marseille","lat":43.284576,"lon":5.35889,"is_reserved":false,"is_disabled":false,"rental_uris":{"android":"levelo://app?vid=6c88fd04-8064-4b69-af89-437a91515c00","ios":"levelo://app?vid=6c88fd04-8064-4b69-af89-437a91515c00"},"vehicle_type_id":"4","last_reported":1728774495,"current_range_meters":38800,"station_id":"ce4bhah2rcd13ifvqei0","pricing_plan_id":"cebpf4jnsgd1na2vs0mg"},{"bike_id":"2d872557-bbdd-410e-bf75-53ad60354f58","system_id":"levelo_inurba_marseille","lat":43.26214,"lon":5.37443,"is_reserved":false,"is_disabled":false,"rental_uris":{"android":"levelo://app?vid=2d872557-bbdd-410e-bf75-53ad60354f58","ios":"levelo://app?vid=2d872557-bbdd-410e-bf75-53ad60354f58"},"vehicle_type_id":"4","last_reported":1728774495,"current_range_meters":25600,"station_id":"ce4bhgp2rcd13ifvqfc0","pricing_plan_id":"cebpf4jnsgd1na2vs0mg"},{"bike_id":"92c1af36-5649-40f5-84ed-a7b062884571","system_id":"levelo_inurba_marseille","lat":43.239591,"lon":5.366454,"is_reserved":false,"is_disabled":false,"rental_uris":{"android":"levelo://app?vid=92c1af36-5649-40f5-84ed-a7b062884571","ios":"levelo://app?vid=92c1af36-5649-40f5-84ed-a7b062884571"},"vehicle_type_id":"4","last_reported":1728774495,"current_range_meters":32000,"station_id":"ce4bhi12rcd13ifvqfp0","pricing_plan_id":"cebpf4jnsgd1na2vs0mg"},{"bike_id":"3b75fe99-810f-40ef-9f84-d5b1cf667dc9","system_id":"levelo_inurba_marseille","lat":43.23149,"lon":5.43707,"is_reserved":false,"is_disabled":false,"rental_uris":{"android":"levelo://app?vid=3b75fe99-810f-40ef-9f84-d5b1cf667dc9","ios":"levelo://app?vid=3b75fe99-810f-40ef-9f84-d5b1cf667dc9"},"vehicle_type_id":"4","last_reported":1728774495,"current_range_meters":28000,"station_id":"ce4bhmp2rcd13ifvqgog","pricing_plan_id":"cebpf4jnsgd1na2vs0mg"},{"bike_id":"6cb5b02c-2401-484a-8b7d-b4d2106d6b08","system_id":"levelo_inurba_marseille","lat":43.2319,"lon":5.35557,"is_reserved":false,"is_disabled":false,"rental_uris":{"android":"levelo://app?vid=6cb5b02c-2401-484a-8b7d-b4d2106d6b08","ios":"levelo://app?vid=6cb5b02c-2401-484a-8b7d-b4d2106d6b08"},"vehicle_type_id":"4","last_reported":1728774495,"current_range_meters":30400,"station_id":"ce4bhu92rcd13ifvqi70","pricing_plan_id":"cebpf4jnsgd1na2vs0mg"},{"bike_id":"ea203679-8246-41bb-bc64-80edd7e095b0","system_id":"levelo_inurba_marseille","lat":43.3302,"lon":5.39043,"is_reserved":false,"is_disabled":false,"rental_uris":{"android":"levelo://app?vid=ea203679-8246-41bb-bc64-80edd7e095b0","ios":"levelo://app?vid=ea203679-8246-41bb-bc64-80edd7e095b0"},"vehicle_type_id":"4","last_reported":1728774495,"current_range_meters":19200,"station_id":"ce4bhr92rcd13ifvqhrg","pricing_plan_id":"cebpf4jnsgd1na2vs0mg"},{"bike_id":"f7dd1dc7-fa4b-4758-aac5-4419d54d56ad","system_id":"levelo_inurba_marseille","lat":43.31758,"lon":5.39023,"is_reserved":false,"is_disabled":false,"rental_uris":{"android":"levelo://app?vid=f7dd1dc7-fa4b-4758-aac5-4419d54d56ad","ios":"levelo://app?vid=f7dd1dc7-fa4b-4758-aac5-4419d54d56ad"},"vehicle_type_id":"4","last_reported":1728774495,"current_range_meters":38800,"station_id":"ce4bhqp2rcd13ifvqhng","pricing_plan_id":"cebpf4jnsgd1na2vs0mg"},{"bike_id":"5342387b-13bf-4ecc-b703-417c00eeeeae","system_id":"levelo_inurba_marseille","lat":43.24666,"lon":5.38167,"is_reserved":false,"is_disabled":false,"rental_uris":{"android":"levelo://app?vid=5342387b-13bf-4ecc-b703-417c00eeeeae","ios":"levelo://app?vid=5342387b-13bf-4ecc-b703-417c00eeeeae"},"vehicle_type_id":"4","last_reported":1728774495,"current_range_meters":22800,"station_id":"ce4bhih2rcd13ifvqfr0","pricing_plan_id":"cebpf4jnsgd1na2vs0mg"},{"bike_id":"6084290d-6484-418e-aa18-3b3e374f7f05","system_id":"levelo_inurba_marseille","lat":43.31483,"lon":5.37304,"is_reserved":false,"is_disabled":false,"rental_uris":{"android":"levelo://app?vid=6084290d-6484-418e-aa18-3b3e374f7f05","ios":"levelo://app?vid=6084290d-6484-418e-aa18-3b3e374f7f05"},"vehicle_type_id":"4","last_reported":1728774495,"current_range_meters":13600,"station_id":"ce4bgt12rcd13ifvqcd0","pricing_plan_id":"cebpf4jnsgd1na2vs0mg"},{"bike_id":"291d5c40-7d56-4918-92bc-3d7517ef809b","system_id":"levelo_inurba_marseille","lat":43.30462,"lon":5.37905,"is_reserved":false,"is_disabled":false,"rental_uris":{"android":"levelo://app?vid=291d5c40-7d56-4918-92bc-3d7517ef809b","ios":"levelo://app?vid=291d5c40-7d56-4918-92bc-3d7517ef809b"},"vehicle_type_id":"4","last_reported":1728774495,"current_range_meters":36800,"station_id":"ce4bgup2rcd13ifvqcn0","pricing_plan_id":"cebpf4jnsgd1na2vs0mg"},{"bike_id":"a8bdbf8d-b15f-49e7-ab22-db3b431ba59d","system_id":"levelo_inurba_marseille","lat":43.27073,"lon":5.42277,"is_reserved":false,"is_disabled":false,"rental_uris":{"android":"levelo://app?vid=a8bdbf8d-b15f-49e7-ab22-db3b431ba59d","ios":"levelo://app?vid=a8bdbf8d-b15f-49e7-ab22-db3b431ba59d"},"vehicle_type_id":"4","last_reported":1728774495,"current_range_meters":38000,"station_id":"ce4bhk92rcd13ifvqgb0","pricing_plan_id":"cebpf4jnsgd1na2vs0mg"},{"bike_id":"8c1f35a9-763d-4c31-98c6-31c3498258d3","system_id":"levelo_inurba_marseille","lat":43.27916,"lon":5.3958,"is_reserved":false,"is_disabled":false,"rental_uris":{"android":"levelo://app?vid=8c1f35a9-763d-4c31-98c6-31c3498258d3","ios":"levelo://app?vid=8c1f35a9-763d-4c31-98c6-31c3498258d3"},"vehicle_type_id":"4","last_reported":1728774495,"current_range_meters":27200,"station_id":"ce4bhf92rcd13ifvqf40","pricing_plan_id":"cebpf4jnsgd1na2vs0mg"},{"bike_id":"f7ce4256-be52-4134-8541-9e34404ab10f","system_id":"levelo_inurba_marseille","lat":43.25495,"lon":5.37649,"is_reserved":false,"is_disabled":false,"rental_uris":{"android":"levelo://app?vid=f7ce4256-be52-4134-8541-9e34404ab10f","ios":"levelo://app?vid=f7ce4256-be52-4134-8541-9e34404ab10f"},"vehicle_type_id":"4","last_reported":1728774495,"current_range_meters":22000,"station_id":"ce4bhh12rcd13ifvqff0","pricing_plan_id":"cebpf4jnsgd1na2vs0mg"},{"bike_id":"9918290f-2b14-46fa-b63a-39827b599a5a","system_id":"levelo_inurba_marseille","lat":43.28713,"lon":5.37933,"is_reserved":false,"is_disabled":false,"rental_uris":{"android":"levelo://app?vid=9918290f-2b14-46fa-b63a-39827b599a5a","ios":"levelo://app?vid=9918290f-2b14-46fa-b63a-39827b599a5a"},"vehicle_type_id":"4","last_reported":1728774495,"current_range_meters":38800,"station_id":"ce4bh9p2rcd13ifvqec0","pricing_plan_id":"cebpf4jnsgd1na2vs0mg"},{"bike_id":"9f83e5ce-da23-425f-a4a3-58fab8fd16c2","system_id":"levelo_inurba_marseille","lat":43.28917,"lon":5.38407,"is_reserved":false,"is_disabled":false,"rental_uris":{"android":"levelo://app?vid=9f83e5ce-da23-425f-a4a3-58fab8fd16c2","ios":"levelo://app?vid=9f83e5ce-da23-425f-a4a3-58fab8fd16c2"},"vehicle_type_id":"4","last_reported":1728774495,"current_range_meters":19600,"station_id":"ce4bh612rcd13ifvqe6g","pricing_plan_id":"cebpf4jnsgd1na2vs0mg"},{"bike_id":"3a68b290-0b7a-440b-8c7e-935bc479e4e8","system_id":"levelo_inurba_marseille","lat":43.30142,"lon":5.37419,"is_reserved":false,"is_disabled":false,"rental_uris":{"android":"levelo://app?vid=3a68b290-0b7a-440b-8c7e-935bc479e4e8","ios":"levelo://app?vid=3a68b290-0b7a-440b-8c7e-935bc479e4e8"},"vehicle_type_id":"4","last_reported":1728774495,"current_range_meters":22400,"station_id":"ce4bgs92rcd13ifvqcc0","pricing_plan_id":"cebpf4jnsgd1na2vs0mg"},{"bike_id":"dec436c1-d01a-4e4e-a66d-a687a7901d68","system_id":"levelo_inurba_marseille","lat":43.25103,"lon":5.40319,"is_reserved":false,"is_disabled":false,"rental_uris":{"android":"levelo://app?vid=dec436c1-d01a-4e4e-a66d-a687a7901d68","ios":"levelo://app?vid=dec436c1-d01a-4e4e-a66d-a687a7901d68"},"vehicle_type_id":"4","last_reported":1728774495,"current_range_meters":38000,"station_id":"ce4bhlh2rcd13ifvqgig","pricing_plan_id":"cebpf4jnsgd1na2vs0mg"},{"bike_id":"24174b17-9a1a-42fc-b28d-ccdf79ae4c31","system_id":"levelo_inurba_marseille","lat":43.28154,"lon":5.42641,"is_reserved":false,"is_disabled":false,"rental_uris":{"android":"levelo://app?vid=24174b17-9a1a-42fc-b28d-ccdf79ae4c31","ios":"levelo://app?vid=24174b17-9a1a-42fc-b28d-ccdf79ae4c31"},"vehicle_type_id":"4","last_reported":1728774495,"current_range_meters":15200,"station_id":"ce4bhnh2rcd13ifvqgug","pricing_plan_id":"cebpf4jnsgd1na2vs0mg"},{"bike_id":"accb871e-a6d6-4416-b0e7-cca548384eeb","system_id":"levelo_inurba_marseille","lat":43.26552,"lon":5.3729,"is_reserved":false,"is_disabled":false,"rental_uris":{"android":"levelo://app?vid=accb871e-a6d6-4416-b0e7-cca548384eeb","ios":"levelo://app?vid=accb871e-a6d6-4416-b0e7-cca548384eeb"},"vehicle_type_id":"4","last_reported":1728774495,"current_range_meters":36400,"station_id":"ce4bhg12rcd13ifvqf70","pricing_plan_id":"cebpf4jnsgd1na2vs0mg"},{"bike_id":"360bf9d4-7a7a-4363-a459-888c749281e7","system_id":"levelo_inurba_marseille","lat":43.30279,"lon":5.37703,"is_reserved":false,"is_disabled":false,"rental_uris":{"android":"levelo://app?vid=360bf9d4-7a7a-4363-a459-888c749281e7","ios":"levelo://app?vid=360bf9d4-7a7a-4363-a459-888c749281e7"},"vehicle_type_id":"4","last_reported":1728774495,"current_range_meters":38400,"station_id":"ce4bguh2rcd13ifvqcj0","pricing_plan_id":"cebpf4jnsgd1na2vs0mg"},{"bike_id":"3007dc77-68fe-48f0-9c9f-7319b5e9fc9b","system_id":"levelo_inurba_marseille","lat":43.28268,"lon":5.35072,"is_reserved":false,"is_disabled":false,"rental_uris":{"android":"levelo://app?vid=3007dc77-68fe-48f0-9c9f-7319b5e9fc9b","ios":"levelo://app?vid=3007dc77-68fe-48f0-9c9f-7319b5e9fc9b"},"vehicle_type_id":"4","last_reported":1728774495,"current_range_meters":18800,"station_id":"ce4bhbp2rcd13ifvqerg","pricing_plan_id":"cebpf4jnsgd1na2vs0mg"},{"bike_id":"5bcb25d4-03ca-4ec9-8291-a3375ad99d18","system_id":"levelo_inurba_marseille","lat":43.341425,"lon":5.408904,"is_reserved":false,"is_disabled":false,"rental_uris":{"android":"levelo://app?vid=5bcb25d4-03ca-4ec9-8291-a3375ad99d18","ios":"levelo://app?vid=5bcb25d4-03ca-4ec9-8291-a3375ad99d18"},"vehicle_type_id":"4","last_reported":1728774495,"current_range_meters":11200,"station_id":"ce4bhqh2rcd13ifvqhlg","pricing_plan_id":"cebpf4jnsgd1na2vs0mg"},{"bike_id":"f463bffd-395b-45c4-87b1-620a763388ae","system_id":"levelo_inurba_marseille","lat":43.2586,"lon":5.39908,"is_reserved":false,"is_disabled":false,"rental_uris":{"android":"levelo://app?vid=f463bffd-395b-45c4-87b1-620a763388ae","ios":"levelo://app?vid=f463bffd-395b-45c4-87b1-620a763388ae"},"vehicle_type_id":"4","last_reported":1728774495,"current_range_meters":35600,"station_id":"ce4bhl92rcd13ifvqghg","pricing_plan_id":"cebpf4jnsgd1na2vs0mg"},{"bike_id":"9de88846-ec06-446f-b2e6-b28d79b5db8f","system_id":"levelo_inurba_marseille","lat":43.29558,"lon":5.42284,"is_reserved":false,"is_disabled":false,"rental_uris":{"android":"levelo://app?vid=9de88846-ec06-446f-b2e6-b28d79b5db8f","ios":"levelo://app?vid=9de88846-ec06-446f-b2e6-b28d79b5db8f"},"vehicle_type_id":"4","last_reported":1728774495,"current_range_meters":22000,"station_id":"ce4bhph2rcd13ifvqhdg","pricing_plan_id":"cebpf4jnsgd1na2vs0mg"},{"bike_id":"5fe7f623-098f-423c-9243-f773ebc82c3b","system_id":"levelo_inurba_marseille","lat":43.29779,"lon":5.39326,"is_reserved":false,"is_disabled":false,"rental_uris":{"android":"levelo://app?vid=5fe7f623-098f-423c-9243-f773ebc82c3b","ios":"levelo://app?vid=5fe7f623-098f-423c-9243-f773ebc82c3b"},"vehicle_type_id":"4","last_reported":1728774495,"current_range_meters":38800,"station_id":"chh1huq6cuj3fo74tm60","pricing_plan_id":"cebpf4jnsgd1na2vs0mg"},{"bike_id":"25e59862-8a09-482d-b3a5-7138deb4afc5","system_id":"levelo_inurba_marseille","lat":43.2306,"lon":5.35493,"is_reserved":false,"is_disabled":false,"rental_uris":{"android":"levelo://app?vid=25e59862-8a09-482d-b3a5-7138deb4afc5","ios":"levelo://app?vid=25e59862-8a09-482d-b3a5-7138deb4afc5"},"vehicle_type_id":"4","last_reported":1728774495,"current_range_meters":8400,"station_id":"cpo3342slgdg3j2ifvpg","pricing_plan_id":"cebpf4jnsgd1na2vs0mg"},{"bike_id":"81e6a043-ed21-48b2-b5f1-f14f165151cc","system_id":"levelo_inurba_marseille","lat":43.27986,"lon":5.41678,"is_reserved":false,"is_disabled":false,"rental_uris":{"android":"levelo://app?vid=81e6a043-ed21-48b2-b5f1-f14f165151cc","ios":"levelo://app?vid=81e6a043-ed21-48b2-b5f1-f14f165151cc"},"vehicle_type_id":"4","last_reported":1728774495,"current_range_meters":38800,"station_id":"ce4bho12rcd13ifvqh1g","pricing_plan_id":"cebpf4jnsgd1na2vs0mg"},{"bike_id":"bfc0ccc8-8df6-44c8-b201-c01af9a1adde","system_id":"levelo_inurba_marseille","lat":43.30882,"lon":5.39645,"is_reserved":false,"is_disabled":false,"rental_uris":{"android":"levelo://app?vid=bfc0ccc8-8df6-44c8-b201-c01af9a1adde","ios":"levelo://app?vid=bfc0ccc8-8df6-44c8-b201-c01af9a1adde"},"vehicle_type_id":"4","last_reported":1728774495,"current_range_meters":36000,"station_id":"ce4bh012rcd13ifvqcv0","pricing_plan_id":"cebpf4jnsgd1na2vs0mg"},{"bike_id":"e51151d9-04a6-4f0d-9096-9c4ad9c79eb2","system_id":"levelo_inurba_marseille","lat":43.255,"lon":5.37647,"is_reserved":false,"is_disabled":false,"rental_uris":{"android":"levelo://app?vid=e51151d9-04a6-4f0d-9096-9c4ad9c79eb2","ios":"levelo://app?vid=e51151d9-04a6-4f0d-9096-9c4ad9c79eb2"},"vehicle_type_id":"4","last_reported":1728774495,"current_range_meters":28000,"station_id":"ce4bhh12rcd13ifvqff0","pricing_plan_id":"cebpf4jnsgd1na2vs0mg"},{"bike_id":"b933402b-d1ca-49a8-bbf7-fb19281d941c","system_id":"levelo_inurba_marseille","lat":43.23191,"lon":5.35558,"is_reserved":false,"is_disabled":false,"rental_uris":{"android":"levelo://app?vid=b933402b-d1ca-49a8-bbf7-fb19281d941c","ios":"levelo://app?vid=b933402b-d1ca-49a8-bbf7-fb19281d941c"},"vehicle_type_id":"4","last_reported":1728774495,"current_range_meters":18800,"station_id":"ce4bhu92rcd13ifvqi70","pricing_plan_id":"cebpf4jnsgd1na2vs0mg"},{"bike_id":"9e702e73-81cb-4a09-96d1-bfe75db728a2","system_id":"levelo_inurba_marseille","lat":43.28568,"lon":5.39496,"is_reserved":false,"is_disabled":false,"rental_uris":{"android":"levelo://app?vid=9e702e73-81cb-4a09-96d1-bfe75db728a2","ios":"levelo://app?vid=9e702e73-81cb-4a09-96d1-bfe75db728a2"},"vehicle_type_id":"4","last_reported":1728774495,"current_range_meters":22800,"station_id":"ce4bh292rcd13ifvqdg0","pricing_plan_id":"cebpf4jnsgd1na2vs0mg"},{"bike_id":"a5c56eae-2cec-4dd7-83eb-7c28968ccb8d","system_id":"levelo_inurba_marseille","lat":43.3136,"lon":5.3849,"is_reserved":false,"is_disabled":false,"rental_uris":{"android":"levelo://app?vid=a5c56eae-2cec-4dd7-83eb-7c28968ccb8d","ios":"levelo://app?vid=a5c56eae-2cec-4dd7-83eb-7c28968ccb8d"},"vehicle_type_id":"4","last_reported":1728774495,"current_range_meters":8000,"station_id":"ce4bgt92rcd13ifvqcf0","pricing_plan_id":"cebpf4jnsgd1na2vs0mg"},{"bike_id":"7970863e-8239-4d6a-b504-8ff616f28b5b","system_id":"levelo_inurba_marseille","lat":43.28849,"lon":5.39317,"is_reserved":false,"is_disabled":false,"rental_uris":{"android":"levelo://app?vid=7970863e-8239-4d6a-b504-8ff616f28b5b","ios":"levelo://app?vid=7970863e-8239-4d6a-b504-8ff616f28b5b"},"vehicle_type_id":"4","last_reported":1728774495,"current_range_meters":4800,"station_id":"ce4bh2p2rcd13ifvqdi0","pricing_plan_id":"cebpf4jnsgd1na2vs0mg"},{"bike_id":"1dbb835e-7e76-477d-a73e-0f6fdca4b106","system_id":"levelo_inurba_marseille","lat":43.23176,"lon":5.39987,"is_reserved":false,"is_disabled":false,"rental_uris":{"android":"levelo://app?vid=1dbb835e-7e76-477d-a73e-0f6fdca4b106","ios":"levelo://app?vid=1dbb835e-7e76-477d-a73e-0f6fdca4b106"},"vehicle_type_id":"4","last_reported":1728774495,"current_range_meters":14800,"station_id":"ce4bhn12rcd13ifvqgqg","pricing_plan_id":"cebpf4jnsgd1na2vs0mg"},{"bike_id":"d751b74f-afbb-4075-ac46-9547555eee0f","system_id":"levelo_inurba_marseille","lat":43.3236,"lon":5.38885,"is_reserved":false,"is_disabled":false,"rental_uris":{"android":"levelo://app?vid=d751b74f-afbb-4075-ac46-9547555eee0f","ios":"levelo://app?vid=d751b74f-afbb-4075-ac46-9547555eee0f"},"vehicle_type_id":"4","last_reported":1728774495,"current_range_meters":18000,"station_id":"ce4bhqp2rcd13ifvqhog","pricing_plan_id":"cebpf4jnsgd1na2vs0mg"},{"bike_id":"9af258a0-3078-4fef-b7c4-03a959ce1206","system_id":"levelo_inurba_marseille","lat":43.29197,"lon":5.39305,"is_reserved":false,"is_disabled":false,"rental_uris":{"android":"levelo://app?vid=9af258a0-3078-4fef-b7c4-03a959ce1206","ios":"levelo://app?vid=9af258a0-3078-4fef-b7c4-03a959ce1206"},"vehicle_type_id":"4","last_reported":1728774495,"current_range_meters":10800,"station_id":"ce4bh192rcd13ifvqdd0","pricing_plan_id":"cebpf4jnsgd1na2vs0mg"},{"bike_id":"262ad37d-8ad8-447a-9929-14549db2fbc3","system_id":"levelo_inurba_marseille","lat":43.3054,"lon":5.38428,"is_reserved":false,"is_disabled":false,"rental_uris":{"android":"levelo://app?vid=262ad37d-8ad8-447a-9929-14549db2fbc3","ios":"levelo://app?vid=262ad37d-8ad8-447a-9929-14549db2fbc3"},"vehicle_type_id":"4","last_reported":1728774495,"current_range_meters":38000,"station_id":"ce4bgg92rcd13ifvqb30","pricing_plan_id":"cebpf4jnsgd1na2vs0mg"},{"bike_id":"51f915da-9be3-478d-a119-dc331c6cf5fd","system_id":"levelo_inurba_marseille","lat":43.30142,"lon":5.37415,"is_reserved":false,"is_disabled":false,"rental_uris":{"android":"levelo://app?vid=51f915da-9be3-478d-a119-dc331c6cf5fd","ios":"levelo://app?vid=51f915da-9be3-478d-a119-dc331c6cf5fd"},"vehicle_type_id":"4","last_reported":1728774495,"current_range_meters":36000,"station_id":"ce4bgs92rcd13ifvqcc0","pricing_plan_id":"cebpf4jnsgd1na2vs0mg"},{"bike_id":"7709d087-4ff0-4862-b632-64ea640b53cf","system_id":"levelo_inurba_marseille","lat":43.29203,"lon":5.39313,"is_reserved":false,"is_disabled":false,"rental_uris":{"android":"levelo://app?vid=7709d087-4ff0-4862-b632-64ea640b53cf","ios":"levelo://app?vid=7709d087-4ff0-4862-b632-64ea640b53cf"},"vehicle_type_id":"4","last_reported":1728774495,"current_range_meters":20800,"station_id":"ce4bh192rcd13ifvqdd0","pricing_plan_id":"cebpf4jnsgd1na2vs0mg"},{"bike_id":"dd488bb6-2002-40e1-9ea4-29c41547f763","system_id":"levelo_inurba_marseille","lat":43.283625,"lon":5.386345,"is_reserved":false,"is_disabled":false,"rental_uris":{"android":"levelo://app?vid=dd488bb6-2002-40e1-9ea4-29c41547f763","ios":"levelo://app?vid=dd488bb6-2002-40e1-9ea4-29c41547f763"},"vehicle_type_id":"4","last_reported":1728774495,"current_range_meters":38800,"station_id":"ce4bh492rcd13ifvqdvg","pricing_plan_id":"cebpf4jnsgd1na2vs0mg"},{"bike_id":"acbe997b-a9be-49ac-ad5e-d0e8fdd650d9","system_id":"levelo_inurba_marseille","lat":43.27824,"lon":5.39211,"is_reserved":false,"is_disabled":false,"rental_uris":{"android":"levelo://app?vid=acbe997b-a9be-49ac-ad5e-d0e8fdd650d9","ios":"levelo://app?vid=acbe997b-a9be-49ac-ad5e-d0e8fdd650d9"},"vehicle_type_id":"4","last_reported":1728774495,"current_range_meters":38800,"station_id":"ce4bhjp2rcd13ifvqga0","pricing_plan_id":"cebpf4jnsgd1na2vs0mg"},{"bike_id":"ac40ae16-afb8-4226-beb1-977ecc864581","system_id":"levelo_inurba_marseille","lat":43.29419,"lon":5.38627,"is_reserved":false,"is_disabled":false,"rental_uris":{"android":"levelo://app?vid=ac40ae16-afb8-4226-beb1-977ecc864581","ios":"levelo://app?vid=ac40ae16-afb8-4226-beb1-977ecc864581"},"vehicle_type_id":"4","last_reported":1728774495,"current_range_meters":38000,"station_id":"ce4bh2h2rcd13ifvqdh0","pricing_plan_id":"cebpf4jnsgd1na2vs0mg"},{"bike_id":"8f8eab8a-e14e-4f4d-9601-aad011507f2f","system_id":"levelo_inurba_marseille","lat":43.30426,"lon":5.38897,"is_reserved":false,"is_disabled":false,"rental_uris":{"android":"levelo://app?vid=8f8eab8a-e14e-4f4d-9601-aad011507f2f","ios":"levelo://app?vid=8f8eab8a-e14e-4f4d-9601-aad011507f2f"},"vehicle_type_id":"4","last_reported":1728774495,"current_range_meters":24000,"station_id":"ce4bgk12rcd13ifvqbi0","pricing_plan_id":"cebpf4jnsgd1na2vs0mg"},{"bike_id":"dde1bcfe-ea85-4872-900c-46d9b4e80ca0","system_id":"levelo_inurba_marseille","lat":43.31271,"lon":5.4016,"is_reserved":false,"is_disabled":false,"rental_uris":{"android":"levelo://app?vid=dde1bcfe-ea85-4872-900c-46d9b4e80ca0","ios":"levelo://app?vid=dde1bcfe-ea85-4872-900c-46d9b4e80ca0"},"vehicle_type_id":"4","last_reported":1728774495,"current_range_meters":25600,"station_id":"ce4bh092rcd13ifvqd30","pricing_plan_id":"cebpf4jnsgd1na2vs0mg"},{"bike_id":"922be445-130b-423a-97a6-dbeed6eb1c41","system_id":"levelo_inurba_marseille","lat":43.31703,"lon":5.37764,"is_reserved":false,"is_disabled":false,"rental_uris":{"android":"levelo://app?vid=922be445-130b-423a-97a6-dbeed6eb1c41","ios":"levelo://app?vid=922be445-130b-423a-97a6-dbeed6eb1c41"},"vehicle_type_id":"4","last_reported":1728774495,"current_range_meters":38800,"station_id":"ce4bgth2rcd13ifvqch0","pricing_plan_id":"cebpf4jnsgd1na2vs0mg"},{"bike_id":"6ff31e22-dbdf-494f-8326-d5712a233c5a","system_id":"levelo_inurba_marseille","lat":43.25822,"lon":5.39424,"is_reserved":false,"is_disabled":false,"rental_uris":{"android":"levelo://app?vid=6ff31e22-dbdf-494f-8326-d5712a233c5a","ios":"levelo://app?vid=6ff31e22-dbdf-494f-8326-d5712a233c5a"},"vehicle_type_id":"4","last_reported":1728774495,"current_range_meters":37600,"station_id":"ce4bhip2rcd13ifvqft0","pricing_plan_id":"cebpf4jnsgd1na2vs0mg"},{"bike_id":"4e18dddc-2684-4cf8-8c31-345dd1f8f224","system_id":"levelo_inurba_marseille","lat":43.27935,"lon":5.41048,"is_reserved":false,"is_disabled":false,"rental_uris":{"android":"levelo://app?vid=4e18dddc-2684-4cf8-8c31-345dd1f8f224","ios":"levelo://app?vid=4e18dddc-2684-4cf8-8c31-345dd1f8f224"},"vehicle_type_id":"4","last_reported":1728774495,"current_range_meters":38000,"station_id":"ce4bhnp2rcd13ifvqh0g","pricing_plan_id":"cebpf4jnsgd1na2vs0mg"},{"bike_id":"af1a61bb-7795-450f-9b3c-d036a05bd030","system_id":"levelo_inurba_marseille","lat":43.23185,"lon":5.39983,"is_reserved":false,"is_disabled":false,"rental_uris":{"android":"levelo://app?vid=af1a61bb-7795-450f-9b3c-d036a05bd030","ios":"levelo://app?vid=af1a61bb-7795-450f-9b3c-d036a05bd030"},"vehicle_type_id":"4","last_reported":1728774495,"current_range_meters":3200,"station_id":"ce4bhn12rcd13ifvqgqg","pricing_plan_id":"cebpf4jnsgd1na2vs0mg"},{"bike_id":"4fff3cf8-c6ac-4933-8f5b-9ee3a18d0c00","system_id":"levelo_inurba_marseille","lat":43.28268,"lon":5.35083,"is_reserved":false,"is_disabled":false,"rental_uris":{"android":"levelo://app?vid=4fff3cf8-c6ac-4933-8f5b-9ee3a18d0c00","ios":"levelo://app?vid=4fff3cf8-c6ac-4933-8f5b-9ee3a18d0c00"},"vehicle_type_id":"4","last_reported":1728774495,"current_range_meters":11200,"station_id":"ce4bhbp2rcd13ifvqerg","pricing_plan_id":"cebpf4jnsgd1na2vs0mg"},{"bike_id":"3977a3ec-2952-4b42-9ce6-3d18a888c86b","system_id":"levelo_inurba_marseille","lat":43.2743,"lon":5.39402,"is_reserved":false,"is_disabled":false,"rental_uris":{"android":"levelo://app?vid=3977a3ec-2952-4b42-9ce6-3d18a888c86b","ios":"levelo://app?vid=3977a3ec-2952-4b42-9ce6-3d18a888c86b"},"vehicle_type_id":"4","last_reported":1728774495,"current_range_meters":38800,"station_id":"ce4bhdp2rcd13ifvqf20","pricing_plan_id":"cebpf4jnsgd1na2vs0mg"},{"bike_id":"e4f0f21e-0c3d-4d74-b01c-3addb8ce8acf","system_id":"levelo_inurba_marseille","lat":43.28336,"lon":5.38104,"is_reserved":false,"is_disabled":false,"rental_uris":{"android":"levelo://app?vid=e4f0f21e-0c3d-4d74-b01c-3addb8ce8acf","ios":"levelo://app?vid=e4f0f21e-0c3d-4d74-b01c-3addb8ce8acf"},"vehicle_type_id":"4","last_reported":1728774495,"current_range_meters":5600,"station_id":"ce4bh412rcd13ifvqdr0","pricing_plan_id":"cebpf4jnsgd1na2vs0mg"},{"bike_id":"e6336660-e5d0-4336-aab6-9e2081b4b551","system_id":"levelo_inurba_marseille","lat":43.33732,"lon":5.39188,"is_reserved":false,"is_disabled":false,"rental_uris":{"android":"levelo://app?vid=e6336660-e5d0-4336-aab6-9e2081b4b551","ios":"levelo://app?vid=e6336660-e5d0-4336-aab6-9e2081b4b551"},"vehicle_type_id":"4","last_reported":1728774495,"current_range_meters":21600,"station_id":"ce4bhr92rcd13ifvqhsg","pricing_plan_id":"cebpf4jnsgd1na2vs0mg"},{"bike_id":"73dd85c9-f526-4350-b659-634165490578","system_id":"levelo_inurba_marseille","lat":43.24807,"lon":5.37456,"is_reserved":false,"is_disabled":false,"rental_uris":{"android":"levelo://app?vid=73dd85c9-f526-4350-b659-634165490578","ios":"levelo://app?vid=73dd85c9-f526-4350-b659-634165490578"},"vehicle_type_id":"4","last_reported":1728774495,"current_range_meters":38000,"station_id":"ce4bhgh2rcd13ifvqfb0","pricing_plan_id":"cebpf4jnsgd1na2vs0mg"},{"bike_id":"b2e9e370-9210-49f2-a2bc-03587913b57f","system_id":"levelo_inurba_marseille","lat":43.3248,"lon":5.36558,"is_reserved":false,"is_disabled":false,"rental_uris":{"android":"levelo://app?vid=b2e9e370-9210-49f2-a2bc-03587913b57f","ios":"levelo://app?vid=b2e9e370-9210-49f2-a2bc-03587913b57f"},"vehicle_type_id":"4","last_reported":1728774495,"current_range_meters":39200,"station_id":"ce4bhs12rcd13ifvqhvg","pricing_plan_id":"cebpf4jnsgd1na2vs0mg"},{"bike_id":"4ea83644-42f7-41f3-b589-fbcf318b2e4f","system_id":"levelo_inurba_marseille","lat":43.30606,"lon":5.37213,"is_reserved":false,"is_disabled":false,"rental_uris":{"android":"levelo://app?vid=4ea83644-42f7-41f3-b589-fbcf318b2e4f","ios":"levelo://app?vid=4ea83644-42f7-41f3-b589-fbcf318b2e4f"},"vehicle_type_id":"4","last_reported":1728774495,"current_range_meters":28000,"station_id":"ce4bgqh2rcd13ifvqc4g","pricing_plan_id":"cebpf4jnsgd1na2vs0mg"},{"bike_id":"55582e1e-1cd8-4e96-933c-025471d1c473","system_id":"levelo_inurba_marseille","lat":43.26932,"lon":5.38918,"is_reserved":false,"is_disabled":false,"rental_uris":{"android":"levelo://app?vid=55582e1e-1cd8-4e96-933c-025471d1c473","ios":"levelo://app?vid=55582e1e-1cd8-4e96-933c-025471d1c473"},"vehicle_type_id":"4","last_reported":1728774495,"current_range_meters":9200,"station_id":"ce4bhhh2rcd13ifvqfl0","pricing_plan_id":"cebpf4jnsgd1na2vs0mg"},{"bike_id":"e2bdcc9f-e106-4e3a-9ea6-a61f0e29c736","system_id":"levelo_inurba_marseille","lat":43.30801,"lon":5.38143,"is_reserved":false,"is_disabled":false,"rental_uris":{"android":"levelo://app?vid=e2bdcc9f-e106-4e3a-9ea6-a61f0e29c736","ios":"levelo://app?vid=e2bdcc9f-e106-4e3a-9ea6-a61f0e29c736"},"vehicle_type_id":"4","last_reported":1728774495,"current_range_meters":38800,"station_id":"ce4bgt12rcd13ifvqce0","pricing_plan_id":"cebpf4jnsgd1na2vs0mg"},{"bike_id":"d436aba9-cd69-47a3-8be1-18efe961d690","system_id":"levelo_inurba_marseille","lat":43.28663,"lon":5.36348,"is_reserved":false,"is_disabled":false,"rental_uris":{"android":"levelo://app?vid=d436aba9-cd69-47a3-8be1-18efe961d690","ios":"levelo://app?vid=d436aba9-cd69-47a3-8be1-18efe961d690"},"vehicle_type_id":"4","last_reported":1728774495,"current_range_meters":37600,"station_id":"ce4bhah2rcd13ifvqej0","pricing_plan_id":"cebpf4jnsgd1na2vs0mg"},{"bike_id":"98ee9e6c-a436-48c3-aa6d-74d566a0ee14","system_id":"levelo_inurba_marseille","lat":43.258525,"lon":5.394348,"is_reserved":false,"is_disabled":false,"rental_uris":{"android":"levelo://app?vid=98ee9e6c-a436-48c3-aa6d-74d566a0ee14","ios":"levelo://app?vid=98ee9e6c-a436-48c3-aa6d-74d566a0ee14"},"vehicle_type_id":"4","last_reported":1728774495,"current_range_meters":31200,"station_id":"ce4bhip2rcd13ifvqft0","pricing_plan_id":"cebpf4jnsgd1na2vs0mg"},{"bike_id":"e1f9486c-3843-42a6-aacd-4c828c67520a","system_id":"levelo_inurba_marseille","lat":43.23048,"lon":5.35499,"is_reserved":false,"is_disabled":false,"rental_uris":{"android":"levelo://app?vid=e1f9486c-3843-42a6-aacd-4c828c67520a","ios":"levelo://app?vid=e1f9486c-3843-42a6-aacd-4c828c67520a"},"vehicle_type_id":"4","last_reported":1728774495,"current_range_meters":34000,"station_id":"cpo3342slgdg3j2ifvpg","pricing_plan_id":"cebpf4jnsgd1na2vs0mg"},{"bike_id":"fa0766de-e798-4abf-a738-0e176508cef3","system_id":"levelo_inurba_marseille","lat":43.29163,"lon":5.37164,"is_reserved":false,"is_disabled":false,"rental_uris":{"android":"levelo://app?vid=fa0766de-e798-4abf-a738-0e176508cef3","ios":"levelo://app?vid=fa0766de-e798-4abf-a738-0e176508cef3"},"vehicle_type_id":"4","last_reported":1728774495,"current_range_meters":38000,"station_id":"ce4bha92rcd13ifvqeh0","pricing_plan_id":"cebpf4jnsgd1na2vs0mg"},{"bike_id":"17f0a58b-fa96-470d-a1b0-89c2a0c2bfbe","system_id":"levelo_inurba_marseille","lat":43.23196,"lon":5.35554,"is_reserved":false,"is_disabled":false,"rental_uris":{"android":"levelo://app?vid=17f0a58b-fa96-470d-a1b0-89c2a0c2bfbe","ios":"levelo://app?vid=17f0a58b-fa96-470d-a1b0-89c2a0c2bfbe"},"vehicle_type_id":"4","last_reported":1728774495,"current_range_meters":20800,"station_id":"ce4bhu92rcd13ifvqi70","pricing_plan_id":"cebpf4jnsgd1na2vs0mg"},{"bike_id":"9ef63fcd-347c-41b6-ae8c-e5889881fb6b","system_id":"levelo_inurba_marseille","lat":43.28566,"lon":5.39499,"is_reserved":false,"is_disabled":false,"rental_uris":{"android":"levelo://app?vid=9ef63fcd-347c-41b6-ae8c-e5889881fb6b","ios":"levelo://app?vid=9ef63fcd-347c-41b6-ae8c-e5889881fb6b"},"vehicle_type_id":"4","last_reported":1728774495,"current_range_meters":39200,"station_id":"ce4bh292rcd13ifvqdg0","pricing_plan_id":"cebpf4jnsgd1na2vs0mg"},{"bike_id":"a6346a84-eb58-4259-8f5c-834589e4bcec","system_id":"levelo_inurba_marseille","lat":43.32543,"lon":5.4145,"is_reserved":false,"is_disabled":false,"rental_uris":{"android":"levelo://app?vid=a6346a84-eb58-4259-8f5c-834589e4bcec","ios":"levelo://app?vid=a6346a84-eb58-4259-8f5c-834589e4bcec"},"vehicle_type_id":"4","last_reported":1728774495,"current_range_meters":37600,"station_id":"ce4bhq12rcd13ifvqhhg","pricing_plan_id":"cebpf4jnsgd1na2vs0mg"},{"bike_id":"0383fd16-e9b8-4410-b536-493a9708d1c6","system_id":"levelo_inurba_marseille","lat":43.33018,"lon":5.39047,"is_reserved":false,"is_disabled":false,"rental_uris":{"android":"levelo://app?vid=0383fd16-e9b8-4410-b536-493a9708d1c6","ios":"levelo://app?vid=0383fd16-e9b8-4410-b536-493a9708d1c6"},"vehicle_type_id":"4","last_reported":1728774495,"current_range_meters":38800,"station_id":"ce4bhr92rcd13ifvqhrg","pricing_plan_id":"cebpf4jnsgd1na2vs0mg"},{"bike_id":"b25409bc-df4d-476a-893e-c6a5838692b2","system_id":"levelo_inurba_marseille","lat":43.23197,"lon":5.35558,"is_reserved":false,"is_disabled":false,"rental_uris":{"android":"levelo://app?vid=b25409bc-df4d-476a-893e-c6a5838692b2","ios":"levelo://app?vid=b25409bc-df4d-476a-893e-c6a5838692b2"},"vehicle_type_id":"4","last_reported":1728774495,"current_range_meters":38800,"station_id":"ce4bhu92rcd13ifvqi70","pricing_plan_id":"cebpf4jnsgd1na2vs0mg"},{"bike_id":"887fedf8-944b-42a2-ab80-88181529dcf8","system_id":"levelo_inurba_marseille","lat":43.2806,"lon":5.40973,"is_reserved":false,"is_disabled":false,"rental_uris":{"android":"levelo://app?vid=887fedf8-944b-42a2-ab80-88181529dcf8","ios":"levelo://app?vid=887fedf8-944b-42a2-ab80-88181529dcf8"},"vehicle_type_id":"4","last_reported":1728774495,"current_range_meters":36000,"station_id":"","pricing_plan_id":"cebpf4jnsgd1na2vs0mg"},{"bike_id":"26c930a6-2b08-4dc9-b241-c60fbe1820fa","system_id":"levelo_inurba_marseille","lat":43.32366,"lon":5.38883,"is_reserved":false,"is_disabled":false,"rental_uris":{"android":"levelo://app?vid=26c930a6-2b08-4dc9-b241-c60fbe1820fa","ios":"levelo://app?vid=26c930a6-2b08-4dc9-b241-c60fbe1820fa"},"vehicle_type_id":"4","last_reported":1728774495,"current_range_meters":38800,"station_id":"ce4bhqp2rcd13ifvqhog","pricing_plan_id":"cebpf4jnsgd1na2vs0mg"},{"bike_id":"8fb2b431-bcb9-46ba-80fb-e26e84592fc5","system_id":"levelo_inurba_marseille","lat":43.23189,"lon":5.35559,"is_reserved":false,"is_disabled":false,"rental_uris":{"android":"levelo://app?vid=8fb2b431-bcb9-46ba-80fb-e26e84592fc5","ios":"levelo://app?vid=8fb2b431-bcb9-46ba-80fb-e26e84592fc5"},"vehicle_type_id":"4","last_reported":1728774495,"current_range_meters":29600,"station_id":"ce4bhu92rcd13ifvqi70","pricing_plan_id":"cebpf4jnsgd1na2vs0mg"},{"bike_id":"4b2e8f9e-ecd0-4291-9fee-2fd269b3180c","system_id":"levelo_inurba_marseille","lat":43.3248,"lon":5.36558,"is_reserved":false,"is_disabled":false,"rental_uris":{"android":"levelo://app?vid=4b2e8f9e-ecd0-4291-9fee-2fd269b3180c","ios":"levelo://app?vid=4b2e8f9e-ecd0-4291-9fee-2fd269b3180c"},"vehicle_type_id":"4","last_reported":1728774495,"current_range_meters":19200,"station_id":"ce4bhs12rcd13ifvqhvg","pricing_plan_id":"cebpf4jnsgd1na2vs0mg"},{"bike_id":"05b7de8e-0432-4ca6-9443-88c3e42ebb31","system_id":"levelo_inurba_marseille","lat":43.30647,"lon":5.40089,"is_reserved":false,"is_disabled":false,"rental_uris":{"android":"levelo://app?vid=05b7de8e-0432-4ca6-9443-88c3e42ebb31","ios":"levelo://app?vid=05b7de8e-0432-4ca6-9443-88c3e42ebb31"},"vehicle_type_id":"4","last_reported":1728774495,"current_range_meters":10800,"station_id":"ce4bh112rcd13ifvqda0","pricing_plan_id":"cebpf4jnsgd1na2vs0mg"},{"bike_id":"0a349fec-db0d-4802-be55-64ab3ca00c3d","system_id":"levelo_inurba_marseille","lat":43.28868,"lon":5.35842,"is_reserved":false,"is_disabled":false,"rental_uris":{"android":"levelo://app?vid=0a349fec-db0d-4802-be55-64ab3ca00c3d","ios":"levelo://app?vid=0a349fec-db0d-4802-be55-64ab3ca00c3d"},"vehicle_type_id":"4","last_reported":1728774495,"current_range_meters":38800,"station_id":"ce4bhb12rcd13ifvqem0","pricing_plan_id":"cebpf4jnsgd1na2vs0mg"},{"bike_id":"e2f25126-29b7-4581-a4fe-9e458716fb1d","system_id":"levelo_inurba_marseille","lat":43.239602,"lon":5.366356,"is_reserved":false,"is_disabled":false,"rental_uris":{"android":"levelo://app?vid=e2f25126-29b7-4581-a4fe-9e458716fb1d","ios":"levelo://app?vid=e2f25126-29b7-4581-a4fe-9e458716fb1d"},"vehicle_type_id":"4","last_reported":1728774495,"current_range_meters":26800,"station_id":"ce4bhi12rcd13ifvqfp0","pricing_plan_id":"cebpf4jnsgd1na2vs0mg"},{"bike_id":"4ec08f3e-201a-4bcf-846f-57279c6ce76f","system_id":"levelo_inurba_marseille","lat":43.29261,"lon":5.40911,"is_reserved":false,"is_disabled":false,"rental_uris":{"android":"levelo://app?vid=4ec08f3e-201a-4bcf-846f-57279c6ce76f","ios":"levelo://app?vid=4ec08f3e-201a-4bcf-846f-57279c6ce76f"},"vehicle_type_id":"4","last_reported":1728774495,"current_range_meters":38800,"station_id":"ce4bh192rcd13ifvqdc0","pricing_plan_id":"cebpf4jnsgd1na2vs0mg"},{"bike_id":"42f0c403-9926-45ee-8773-8d96e909a172","system_id":"levelo_inurba_marseille","lat":43.31231,"lon":5.36849,"is_reserved":false,"is_disabled":false,"rental_uris":{"android":"levelo://app?vid=42f0c403-9926-45ee-8773-8d96e909a172","ios":"levelo://app?vid=42f0c403-9926-45ee-8773-8d96e909a172"},"vehicle_type_id":"4","last_reported":1728774495,"current_range_meters":39200,"station_id":"ce4bgl92rcd13ifvqbq0","pricing_plan_id":"cebpf4jnsgd1na2vs0mg"},{"bike_id":"ff9c7749-df45-4d11-9ff4-089646be6522","system_id":"levelo_inurba_marseille","lat":43.28475,"lon":5.38424,"is_reserved":false,"is_disabled":false,"rental_uris":{"android":"levelo://app?vid=ff9c7749-df45-4d11-9ff4-089646be6522","ios":"levelo://app?vid=ff9c7749-df45-4d11-9ff4-089646be6522"},"vehicle_type_id":"4","last_reported":1728774495,"current_range_meters":38800,"station_id":"ce4bh512rcd13ifvqe3g","pricing_plan_id":"cebpf4jnsgd1na2vs0mg"},{"bike_id":"972e1e50-2e1e-454f-8635-5ea35f00e6a7","system_id":"levelo_inurba_marseille","lat":43.304622,"lon":5.401802,"is_reserved":false,"is_disabled":false,"rental_uris":{"android":"levelo://app?vid=972e1e50-2e1e-454f-8635-5ea35f00e6a7","ios":"levelo://app?vid=972e1e50-2e1e-454f-8635-5ea35f00e6a7"},"vehicle_type_id":"4","last_reported":1728774495,"current_range_meters":36000,"station_id":"","pricing_plan_id":"cebpf4jnsgd1na2vs0mg"},{"bike_id":"509c75f1-6dee-4835-b593-0a35aaec2b07","system_id":"levelo_inurba_marseille","lat":43.3088,"lon":5.3964,"is_reserved":false,"is_disabled":false,"rental_uris":{"android":"levelo://app?vid=509c75f1-6dee-4835-b593-0a35aaec2b07","ios":"levelo://app?vid=509c75f1-6dee-4835-b593-0a35aaec2b07"},"vehicle_type_id":"4","last_reported":1728774495,"current_range_meters":38800,"station_id":"ce4bh012rcd13ifvqcv0","pricing_plan_id":"cebpf4jnsgd1na2vs0mg"},{"bike_id":"a00de00a-905c-4db5-a610-907d6a3631fb","system_id":"levelo_inurba_marseille","lat":43.31722,"lon":5.42406,"is_reserved":false,"is_disabled":false,"rental_uris":{"android":"levelo://app?vid=a00de00a-905c-4db5-a610-907d6a3631fb","ios":"levelo://app?vid=a00de00a-905c-4db5-a610-907d6a3631fb"},"vehicle_type_id":"4","last_reported":1728774495,"current_range_meters":33600,"station_id":"ce4bhp92rcd13ifvqhbg","pricing_plan_id":"cebpf4jnsgd1na2vs0mg"},{"bike_id":"f93333f1-2bd5-4711-a8cb-01763ebd0455","system_id":"levelo_inurba_marseille","lat":43.281098,"lon":5.37822,"is_reserved":false,"is_disabled":false,"rental_uris":{"android":"levelo://app?vid=f93333f1-2bd5-4711-a8cb-01763ebd0455","ios":"levelo://app?vid=f93333f1-2bd5-4711-a8cb-01763ebd0455"},"vehicle_type_id":"4","last_reported":1728774495,"current_range_meters":6400,"station_id":"","pricing_plan_id":"cebpf4jnsgd1na2vs0mg"},{"bike_id":"6f6aa75e-2312-4bd3-bf06-df20614f1ef1","system_id":"levelo_inurba_marseille","lat":43.23189,"lon":5.39989,"is_reserved":false,"is_disabled":false,"rental_uris":{"android":"levelo://app?vid=6f6aa75e-2312-4bd3-bf06-df20614f1ef1","ios":"levelo://app?vid=6f6aa75e-2312-4bd3-bf06-df20614f1ef1"},"vehicle_type_id":"4","last_reported":1728774495,"current_range_meters":8000,"station_id":"ce4bhn12rcd13ifvqgqg","pricing_plan_id":"cebpf4jnsgd1na2vs0mg"},{"bike_id":"e6049eb7-a913-4c30-b891-92576278de4c","system_id":"levelo_inurba_marseille","lat":43.24803,"lon":5.37451,"is_reserved":false,"is_disabled":false,"rental_uris":{"android":"levelo://app?vid=e6049eb7-a913-4c30-b891-92576278de4c","ios":"levelo://app?vid=e6049eb7-a913-4c30-b891-92576278de4c"},"vehicle_type_id":"4","last_reported":1728774495,"current_range_meters":31200,"station_id":"ce4bhgh2rcd13ifvqfb0","pricing_plan_id":"cebpf4jnsgd1na2vs0mg"},{"bike_id":"1f6da07d-6221-4aec-a348-09aa636acfd5","system_id":"levelo_inurba_marseille","lat":43.27181,"lon":5.40992,"is_reserved":false,"is_disabled":false,"rental_uris":{"android":"levelo://app?vid=1f6da07d-6221-4aec-a348-09aa636acfd5","ios":"levelo://app?vid=1f6da07d-6221-4aec-a348-09aa636acfd5"},"vehicle_type_id":"4","last_reported":1728774495,"current_range_meters":39200,"station_id":"ce4bhl12rcd13ifvqgf0","pricing_plan_id":"cebpf4jnsgd1na2vs0mg"},{"bike_id":"3958f917-74c8-406f-a4e0-d83e1f24aa73","system_id":"levelo_inurba_marseille","lat":43.30259,"lon":5.38659,"is_reserved":false,"is_disabled":false,"rental_uris":{"android":"levelo://app?vid=3958f917-74c8-406f-a4e0-d83e1f24aa73","ios":"levelo://app?vid=3958f917-74c8-406f-a4e0-d83e1f24aa73"},"vehicle_type_id":"4","last_reported":1728774495,"current_range_meters":32400,"station_id":"","pricing_plan_id":"cebpf4jnsgd1na2vs0mg"},{"bike_id":"5a94b4b9-d430-47fb-9ca8-ac46a3d24520","system_id":"levelo_inurba_marseille","lat":43.28435,"lon":5.39185,"is_reserved":false,"is_disabled":false,"rental_uris":{"android":"levelo://app?vid=5a94b4b9-d430-47fb-9ca8-ac46a3d24520","ios":"levelo://app?vid=5a94b4b9-d430-47fb-9ca8-ac46a3d24520"},"vehicle_type_id":"4","last_reported":1728774495,"current_range_meters":17600,"station_id":"ce4bhoh2rcd13ifvqh5g","pricing_plan_id":"cebpf4jnsgd1na2vs0mg"},{"bike_id":"bb81938b-b4b4-4c07-9ecc-2be73736f0b6","system_id":"levelo_inurba_marseille","lat":43.2707,"lon":5.42276,"is_reserved":false,"is_disabled":false,"rental_uris":{"android":"levelo://app?vid=bb81938b-b4b4-4c07-9ecc-2be73736f0b6","ios":"levelo://app?vid=bb81938b-b4b4-4c07-9ecc-2be73736f0b6"},"vehicle_type_id":"4","last_reported":1728774495,"current_range_meters":10000,"station_id":"ce4bhk92rcd13ifvqgb0","pricing_plan_id":"cebpf4jnsgd1na2vs0mg"},{"bike_id":"db10b6f2-0d46-4403-9a8f-f91602098e5b","system_id":"levelo_inurba_marseille","lat":43.30171,"lon":5.36618,"is_reserved":false,"is_disabled":false,"rental_uris":{"android":"levelo://app?vid=db10b6f2-0d46-4403-9a8f-f91602098e5b","ios":"levelo://app?vid=db10b6f2-0d46-4403-9a8f-f91602098e5b"},"vehicle_type_id":"4","last_reported":1728774495,"current_range_meters":28000,"station_id":"ce4bgrh2rcd13ifvqc8g","pricing_plan_id":"cebpf4jnsgd1na2vs0mg"},{"bike_id":"d5742cbf-bac4-4293-a1fc-34458719b16d","system_id":"levelo_inurba_marseille","lat":43.30429,"lon":5.39749,"is_reserved":false,"is_disabled":false,"rental_uris":{"android":"levelo://app?vid=d5742cbf-bac4-4293-a1fc-34458719b16d","ios":"levelo://app?vid=d5742cbf-bac4-4293-a1fc-34458719b16d"},"vehicle_type_id":"4","last_reported":1728774495,"current_range_meters":23200,"station_id":"ce4bh092rcd13ifvqd20","pricing_plan_id":"cebpf4jnsgd1na2vs0mg"},{"bike_id":"a4217625-26b1-46c3-83cf-a9b3a5d673ce","system_id":"levelo_inurba_marseille","lat":43.310723,"lon":5.368933,"is_reserved":false,"is_disabled":false,"rental_uris":{"android":"levelo://app?vid=a4217625-26b1-46c3-83cf-a9b3a5d673ce","ios":"levelo://app?vid=a4217625-26b1-46c3-83cf-a9b3a5d673ce"},"vehicle_type_id":"4","last_reported":1728774495,"current_range_meters":33200,"station_id":"","pricing_plan_id":"cebpf4jnsgd1na2vs0mg"},{"bike_id":"d0bd3e91-81ba-405f-b7e3-a682fce6aab6","system_id":"levelo_inurba_marseille","lat":43.23183,"lon":5.39996,"is_reserved":false,"is_disabled":false,"rental_uris":{"android":"levelo://app?vid=d0bd3e91-81ba-405f-b7e3-a682fce6aab6","ios":"levelo://app?vid=d0bd3e91-81ba-405f-b7e3-a682fce6aab6"},"vehicle_type_id":"4","last_reported":1728774495,"current_range_meters":32800,"station_id":"ce4bhn12rcd13ifvqgqg","pricing_plan_id":"cebpf4jnsgd1na2vs0mg"},{"bike_id":"1dd63510-d3dc-49a0-9b34-4150d50fbc89","system_id":"levelo_inurba_marseille","lat":43.30885,"lon":5.39644,"is_reserved":false,"is_disabled":false,"rental_uris":{"android":"levelo://app?vid=1dd63510-d3dc-49a0-9b34-4150d50fbc89","ios":"levelo://app?vid=1dd63510-d3dc-49a0-9b34-4150d50fbc89"},"vehicle_type_id":"4","last_reported":1728774495,"current_range_meters":9200,"station_id":"ce4bh012rcd13ifvqcv0","pricing_plan_id":"cebpf4jnsgd1na2vs0mg"},{"bike_id":"e53d9dac-6d16-4334-ad56-d0d38fcf4eb7","system_id":"levelo_inurba_marseille","lat":43.27971,"lon":5.41824,"is_reserved":false,"is_disabled":false,"rental_uris":{"android":"levelo://app?vid=e53d9dac-6d16-4334-ad56-d0d38fcf4eb7","ios":"levelo://app?vid=e53d9dac-6d16-4334-ad56-d0d38fcf4eb7"},"vehicle_type_id":"4","last_reported":1728774495,"current_range_meters":27200,"station_id":"","pricing_plan_id":"cebpf4jnsgd1na2vs0mg"},{"bike_id":"0b0a7f72-75a3-4b2d-8e1a-a2f5b22072af","system_id":"levelo_inurba_marseille","lat":43.3137,"lon":5.36695,"is_reserved":false,"is_disabled":false,"rental_uris":{"android":"levelo://app?vid=0b0a7f72-75a3-4b2d-8e1a-a2f5b22072af","ios":"levelo://app?vid=0b0a7f72-75a3-4b2d-8e1a-a2f5b22072af"},"vehicle_type_id":"4","last_reported":1728774495,"current_range_meters":30400,"station_id":"ce4bgr92rcd13ifvqc6g","pricing_plan_id":"cebpf4jnsgd1na2vs0mg"},{"bike_id":"5ab70f1b-3f2c-4f8b-a0cc-cdba02fd83d4","system_id":"levelo_inurba_marseille","lat":43.32479,"lon":5.36547,"is_reserved":false,"is_disabled":false,"rental_uris":{"android":"levelo://app?vid=5ab70f1b-3f2c-4f8b-a0cc-cdba02fd83d4","ios":"levelo://app?vid=5ab70f1b-3f2c-4f8b-a0cc-cdba02fd83d4"},"vehicle_type_id":"4","last_reported":1728774495,"current_range_meters":34800,"station_id":"ce4bhs12rcd13ifvqhvg","pricing_plan_id":"cebpf4jnsgd1na2vs0mg"},{"bike_id":"9c28d0fa-25ec-44de-945c-41f66d44fdd8","system_id":"levelo_inurba_marseille","lat":43.30546,"lon":5.3655,"is_reserved":false,"is_disabled":false,"rental_uris":{"android":"levelo://app?vid=9c28d0fa-25ec-44de-945c-41f66d44fdd8","ios":"levelo://app?vid=9c28d0fa-25ec-44de-945c-41f66d44fdd8"},"vehicle_type_id":"4","last_reported":1728774495,"current_range_meters":38800,"station_id":"ce4bgs12rcd13ifvqcag","pricing_plan_id":"cebpf4jnsgd1na2vs0mg"},{"bike_id":"dca05137-5c70-4a29-82e4-70d4f81f5280","system_id":"levelo_inurba_marseille","lat":43.28026,"lon":5.36941,"is_reserved":false,"is_disabled":false,"rental_uris":{"android":"levelo://app?vid=dca05137-5c70-4a29-82e4-70d4f81f5280","ios":"levelo://app?vid=dca05137-5c70-4a29-82e4-70d4f81f5280"},"vehicle_type_id":"4","last_reported":1728774495,"current_range_meters":37600,"station_id":"ce4bha12rcd13ifvqef0","pricing_plan_id":"cebpf4jnsgd1na2vs0mg"},{"bike_id":"b9b2126e-fbc2-460f-8611-6813c35558f7","system_id":"levelo_inurba_marseille","lat":43.26943,"lon":5.40244,"is_reserved":false,"is_disabled":false,"rental_uris":{"android":"levelo://app?vid=b9b2126e-fbc2-460f-8611-6813c35558f7","ios":"levelo://app?vid=b9b2126e-fbc2-460f-8611-6813c35558f7"},"vehicle_type_id":"4","last_reported":1728774495,"current_range_meters":35600,"station_id":"cjm6bp8fraef2m0cb0m0","pricing_plan_id":"cebpf4jnsgd1na2vs0mg"},{"bike_id":"892b5846-2819-4447-9dc4-c8f576ddca1b","system_id":"levelo_inurba_marseille","lat":43.29553,"lon":5.4229,"is_reserved":false,"is_disabled":false,"rental_uris":{"android":"levelo://app?vid=892b5846-2819-4447-9dc4-c8f576ddca1b","ios":"levelo://app?vid=892b5846-2819-4447-9dc4-c8f576ddca1b"},"vehicle_type_id":"4","last_reported":1728774495,"current_range_meters":25200,"station_id":"ce4bhph2rcd13ifvqhdg","pricing_plan_id":"cebpf4jnsgd1na2vs0mg"},{"bike_id":"050f873d-7804-4cea-883a-fc18bfb38f65","system_id":"levelo_inurba_marseille","lat":43.29559,"lon":5.42279,"is_reserved":false,"is_disabled":false,"rental_uris":{"android":"levelo://app?vid=050f873d-7804-4cea-883a-fc18bfb38f65","ios":"levelo://app?vid=050f873d-7804-4cea-883a-fc18bfb38f65"},"vehicle_type_id":"4","last_reported":1728774495,"current_range_meters":28400,"station_id":"ce4bhph2rcd13ifvqhdg","pricing_plan_id":"cebpf4jnsgd1na2vs0mg"},{"bike_id":"2c4c4fdd-4be3-40ba-ae9f-53b1d6165fc5","system_id":"levelo_inurba_marseille","lat":43.28849,"lon":5.35833,"is_reserved":false,"is_disabled":false,"rental_uris":{"android":"levelo://app?vid=2c4c4fdd-4be3-40ba-ae9f-53b1d6165fc5","ios":"levelo://app?vid=2c4c4fdd-4be3-40ba-ae9f-53b1d6165fc5"},"vehicle_type_id":"4","last_reported":1728774495,"current_range_meters":9200,"station_id":"ce4bhb12rcd13ifvqem0","pricing_plan_id":"cebpf4jnsgd1na2vs0mg"},{"bike_id":"0543a387-6298-4e6b-851e-6229777551b7","system_id":"levelo_inurba_marseille","lat":43.27059,"lon":5.40255,"is_reserved":false,"is_disabled":false,"rental_uris":{"android":"levelo://app?vid=0543a387-6298-4e6b-851e-6229777551b7","ios":"levelo://app?vid=0543a387-6298-4e6b-851e-6229777551b7"},"vehicle_type_id":"4","last_reported":1728774495,"current_range_meters":22800,"station_id":"ce4bhk92rcd13ifvqgc0","pricing_plan_id":"cebpf4jnsgd1na2vs0mg"},{"bike_id":"7e6935f4-8f70-4b95-a429-bfc9c553e07c","system_id":"levelo_inurba_marseille","lat":43.25866,"lon":5.39895,"is_reserved":false,"is_disabled":false,"rental_uris":{"android":"levelo://app?vid=7e6935f4-8f70-4b95-a429-bfc9c553e07c","ios":"levelo://app?vid=7e6935f4-8f70-4b95-a429-bfc9c553e07c"},"vehicle_type_id":"4","last_reported":1728774495,"current_range_meters":28000,"station_id":"ce4bhl92rcd13ifvqghg","pricing_plan_id":"cebpf4jnsgd1na2vs0mg"},{"bike_id":"d8db30fa-01a2-4f66-ab04-e0ee82f329a6","system_id":"levelo_inurba_marseille","lat":43.30952,"lon":5.39043,"is_reserved":false,"is_disabled":false,"rental_uris":{"android":"levelo://app?vid=d8db30fa-01a2-4f66-ab04-e0ee82f329a6","ios":"levelo://app?vid=d8db30fa-01a2-4f66-ab04-e0ee82f329a6"},"vehicle_type_id":"4","last_reported":1728774495,"current_range_meters":38800,"station_id":"ce4bgup2rcd13ifvqco0","pricing_plan_id":"cebpf4jnsgd1na2vs0mg"},{"bike_id":"e5e1e730-0c65-4835-8ac7-8ff51e36f2db","system_id":"levelo_inurba_marseille","lat":43.29196,"lon":5.35816,"is_reserved":false,"is_disabled":false,"rental_uris":{"android":"levelo://app?vid=e5e1e730-0c65-4835-8ac7-8ff51e36f2db","ios":"levelo://app?vid=e5e1e730-0c65-4835-8ac7-8ff51e36f2db"},"vehicle_type_id":"4","last_reported":1728774495,"current_range_meters":23200,"station_id":"ce4bhb12rcd13ifvqel0","pricing_plan_id":"cebpf4jnsgd1na2vs0mg"},{"bike_id":"b3aaaef3-1ecf-4a7a-b3bb-79a6e0c2b54e","system_id":"levelo_inurba_marseille","lat":43.28409,"lon":5.37506,"is_reserved":false,"is_disabled":false,"rental_uris":{"android":"levelo://app?vid=b3aaaef3-1ecf-4a7a-b3bb-79a6e0c2b54e","ios":"levelo://app?vid=b3aaaef3-1ecf-4a7a-b3bb-79a6e0c2b54e"},"vehicle_type_id":"4","last_reported":1728774495,"current_range_meters":27200,"station_id":"ce4bh412rcd13ifvqds0","pricing_plan_id":"cebpf4jnsgd1na2vs0mg"},{"bike_id":"49316722-f5ca-469e-b328-cdeaebfb0c7f","system_id":"levelo_inurba_marseille","lat":43.23952,"lon":5.36637,"is_reserved":false,"is_disabled":false,"rental_uris":{"android":"levelo://app?vid=49316722-f5ca-469e-b328-cdeaebfb0c7f","ios":"levelo://app?vid=49316722-f5ca-469e-b328-cdeaebfb0c7f"},"vehicle_type_id":"4","last_reported":1728774495,"current_range_meters":8400,"station_id":"ce4bhi12rcd13ifvqfp0","pricing_plan_id":"cebpf4jnsgd1na2vs0mg"},{"bike_id":"d514656f-e02e-4977-8b06-40e7ac73dd61","system_id":"levelo_inurba_marseille","lat":43.29295,"lon":5.37458,"is_reserved":false,"is_disabled":false,"rental_uris":{"android":"levelo://app?vid=d514656f-e02e-4977-8b06-40e7ac73dd61","ios":"levelo://app?vid=d514656f-e02e-4977-8b06-40e7ac73dd61"},"vehicle_type_id":"4","last_reported":1728774495,"current_range_meters":7200,"station_id":"ce4bgi12rcd13ifvqb70","pricing_plan_id":"cebpf4jnsgd1na2vs0mg"},{"bike_id":"f1cdfb05-92b5-4b90-a67e-7e51782adcc0","system_id":"levelo_inurba_marseille","lat":43.30958,"lon":5.39036,"is_reserved":false,"is_disabled":false,"rental_uris":{"android":"levelo://app?vid=f1cdfb05-92b5-4b90-a67e-7e51782adcc0","ios":"levelo://app?vid=f1cdfb05-92b5-4b90-a67e-7e51782adcc0"},"vehicle_type_id":"4","last_reported":1728774495,"current_range_meters":30400,"station_id":"ce4bgup2rcd13ifvqco0","pricing_plan_id":"cebpf4jnsgd1na2vs0mg"},{"bike_id":"5dc15543-f6d7-4698-8a7f-fc63e20a974a","system_id":"levelo_inurba_marseille","lat":43.30205,"lon":5.39466,"is_reserved":false,"is_disabled":false,"rental_uris":{"android":"levelo://app?vid=5dc15543-f6d7-4698-8a7f-fc63e20a974a","ios":"levelo://app?vid=5dc15543-f6d7-4698-8a7f-fc63e20a974a"},"vehicle_type_id":"4","last_reported":1728774495,"current_range_meters":36400,"station_id":"ce4bh0p2rcd13ifvqd70","pricing_plan_id":"cebpf4jnsgd1na2vs0mg"},{"bike_id":"2161a8ba-aa43-475e-8cf3-eb30ad070ad3","system_id":"levelo_inurba_marseille","lat":43.25498,"lon":5.37649,"is_reserved":false,"is_disabled":false,"rental_uris":{"android":"levelo://app?vid=2161a8ba-aa43-475e-8cf3-eb30ad070ad3","ios":"levelo://app?vid=2161a8ba-aa43-475e-8cf3-eb30ad070ad3"},"vehicle_type_id":"4","last_reported":1728774495,"current_range_meters":38000,"station_id":"ce4bhh12rcd13ifvqff0","pricing_plan_id":"cebpf4jnsgd1na2vs0mg"},{"bike_id":"c12cb0d6-db93-4418-b913-57eec8fad5ea","system_id":"levelo_inurba_marseille","lat":43.27934,"lon":5.41054,"is_reserved":false,"is_disabled":false,"rental_uris":{"android":"levelo://app?vid=c12cb0d6-db93-4418-b913-57eec8fad5ea","ios":"levelo://app?vid=c12cb0d6-db93-4418-b913-57eec8fad5ea"},"vehicle_type_id":"4","last_reported":1728774495,"current_range_meters":18800,"station_id":"ce4bhnp2rcd13ifvqh0g","pricing_plan_id":"cebpf4jnsgd1na2vs0mg"},{"bike_id":"8ad819da-54fa-49e0-ac1f-edf3769f3a80","system_id":"levelo_inurba_marseille","lat":43.30422,"lon":5.39755,"is_reserved":false,"is_disabled":false,"rental_uris":{"android":"levelo://app?vid=8ad819da-54fa-49e0-ac1f-edf3769f3a80","ios":"levelo://app?vid=8ad819da-54fa-49e0-ac1f-edf3769f3a80"},"vehicle_type_id":"4","last_reported":1728774495,"current_range_meters":27600,"station_id":"ce4bh092rcd13ifvqd20","pricing_plan_id":"cebpf4jnsgd1na2vs0mg"},{"bike_id":"e73a13af-dc3f-4e02-8349-f5a2ae4139fc","system_id":"levelo_inurba_marseille","lat":43.31115,"lon":5.37758,"is_reserved":false,"is_disabled":false,"rental_uris":{"android":"levelo://app?vid=e73a13af-dc3f-4e02-8349-f5a2ae4139fc","ios":"levelo://app?vid=e73a13af-dc3f-4e02-8349-f5a2ae4139fc"},"vehicle_type_id":"4","last_reported":1728774495,"current_range_meters":19200,"station_id":"ce4bgt92rcd13ifvqcg0","pricing_plan_id":"cebpf4jnsgd1na2vs0mg"},{"bike_id":"aad69708-28ac-43e6-945e-619f5a7c6bfd","system_id":"levelo_inurba_marseille","lat":43.33781,"lon":5.37443,"is_reserved":false,"is_disabled":false,"rental_uris":{"android":"levelo://app?vid=aad69708-28ac-43e6-945e-619f5a7c6bfd","ios":"levelo://app?vid=aad69708-28ac-43e6-945e-619f5a7c6bfd"},"vehicle_type_id":"4","last_reported":1728774495,"current_range_meters":36000,"station_id":"","pricing_plan_id":"cebpf4jnsgd1na2vs0mg"},{"bike_id":"0c9b7f4c-1d71-47fa-9173-c5d109bd7e1a","system_id":"levelo_inurba_marseille","lat":43.28454,"lon":5.35894,"is_reserved":false,"is_disabled":false,"rental_uris":{"android":"levelo://app?vid=0c9b7f4c-1d71-47fa-9173-c5d109bd7e1a","ios":"levelo://app?vid=0c9b7f4c-1d71-47fa-9173-c5d109bd7e1a"},"vehicle_type_id":"4","last_reported":1728774495,"current_range_meters":16800,"station_id":"ce4bhah2rcd13ifvqei0","pricing_plan_id":"cebpf4jnsgd1na2vs0mg"},{"bike_id":"39a458cd-b171-4db4-845e-1b09793c026f","system_id":"levelo_inurba_marseille","lat":43.29062,"lon":5.37146,"is_reserved":false,"is_disabled":false,"rental_uris":{"android":"levelo://app?vid=39a458cd-b171-4db4-845e-1b09793c026f","ios":"levelo://app?vid=39a458cd-b171-4db4-845e-1b09793c026f"},"vehicle_type_id":"4","last_reported":1728774495,"current_range_meters":8000,"station_id":"ce4bh5p2rcd13ifvqe4g","pricing_plan_id":"cebpf4jnsgd1na2vs0mg"},{"bike_id":"51e3b945-7963-447b-9621-5dac09ee7143","system_id":"levelo_inurba_marseille","lat":43.31173,"lon":5.38715,"is_reserved":false,"is_disabled":false,"rental_uris":{"android":"levelo://app?vid=51e3b945-7963-447b-9621-5dac09ee7143","ios":"levelo://app?vid=51e3b945-7963-447b-9621-5dac09ee7143"},"vehicle_type_id":"4","last_reported":1728774495,"current_range_meters":6800,"station_id":"ce4bgv12rcd13ifvqcp0","pricing_plan_id":"cebpf4jnsgd1na2vs0mg"},{"bike_id":"71cf7286-1207-48ea-9905-84e8b1d59926","system_id":"levelo_inurba_marseille","lat":43.23153,"lon":5.43699,"is_reserved":false,"is_disabled":false,"rental_uris":{"android":"levelo://app?vid=71cf7286-1207-48ea-9905-84e8b1d59926","ios":"levelo://app?vid=71cf7286-1207-48ea-9905-84e8b1d59926"},"vehicle_type_id":"4","last_reported":1728774495,"current_range_meters":36000,"station_id":"ce4bhmp2rcd13ifvqgog","pricing_plan_id":"cebpf4jnsgd1na2vs0mg"},{"bike_id":"0c8ff47c-58b0-4b14-8ea9-c57b187e4e4f","system_id":"levelo_inurba_marseille","lat":43.295837,"lon":5.367417,"is_reserved":false,"is_disabled":false,"rental_uris":{"android":"levelo://app?vid=0c8ff47c-58b0-4b14-8ea9-c57b187e4e4f","ios":"levelo://app?vid=0c8ff47c-58b0-4b14-8ea9-c57b187e4e4f"},"vehicle_type_id":"4","last_reported":1728774495,"current_range_meters":37600,"station_id":"ce4bgph2rcd13ifvqc2g","pricing_plan_id":"cebpf4jnsgd1na2vs0mg"},{"bike_id":"7996ba8a-261a-4f8f-966d-b91d9fb2cb46","system_id":"levelo_inurba_marseille","lat":43.25492,"lon":5.37651,"is_reserved":false,"is_disabled":false,"rental_uris":{"android":"levelo://app?vid=7996ba8a-261a-4f8f-966d-b91d9fb2cb46","ios":"levelo://app?vid=7996ba8a-261a-4f8f-966d-b91d9fb2cb46"},"vehicle_type_id":"4","last_reported":1728774495,"current_range_meters":19600,"station_id":"ce4bhh12rcd13ifvqff0","pricing_plan_id":"cebpf4jnsgd1na2vs0mg"},{"bike_id":"14824876-7240-40a1-801e-d3ee70628152","system_id":"levelo_inurba_marseille","lat":43.32359,"lon":5.38882,"is_reserved":false,"is_disabled":false,"rental_uris":{"android":"levelo://app?vid=14824876-7240-40a1-801e-d3ee70628152","ios":"levelo://app?vid=14824876-7240-40a1-801e-d3ee70628152"},"vehicle_type_id":"4","last_reported":1728774495,"current_range_meters":38800,"station_id":"ce4bhqp2rcd13ifvqhog","pricing_plan_id":"cebpf4jnsgd1na2vs0mg"},{"bike_id":"dbc68946-c891-4683-a222-612ae931f5b8","system_id":"levelo_inurba_marseille","lat":43.27833,"lon":5.39214,"is_reserved":false,"is_disabled":false,"rental_uris":{"android":"levelo://app?vid=dbc68946-c891-4683-a222-612ae931f5b8","ios":"levelo://app?vid=dbc68946-c891-4683-a222-612ae931f5b8"},"vehicle_type_id":"4","last_reported":1728774495,"current_range_meters":39200,"station_id":"ce4bhjp2rcd13ifvqga0","pricing_plan_id":"cebpf4jnsgd1na2vs0mg"},