{"last_updated":1750687839,"ttl":60,"version":"2.2","data":{"bikes":[{"bike_id":"3da29fb8-fc97-44c6-b9ac-31dd456b2fd4","system_id":"levelo_inurba_marseille","lat":43.33771,"lon":5.37424,"is_reserved":false,"is_disabled":true,"rental_uris":{"android":"levelo://app?vid=3da29fb8-fc97-44c6-b9ac-31dd456b2fd4","ios":"levelo://app?vid=3da29fb8-fc97-44c6-b9ac-31dd456b2fd4"},"vehicle_type_id":"4","last_reported":1750687840,"current_range_meters":0,"station_id":"","pricing_plan_id":"cebpf4jnsgd1na2vs0mg"},{"bike_id":"01861ad8-a8d7-4be6-816e-651927c87584","system_id":"levelo_inurba_marseille","lat":43.33751,"lon":5.37456,"is_reserved":false,"is_disabled":true,"rental_uris":{"android":"levelo://app?vid=01861ad8-a8d7-4be6-816e-651927c87584","ios":"levelo://app?vid=01861ad8-a8d7-4be6-816e-651927c87584"},"vehicle_type_id":"4","last_reported":1750687840,"current_range_meters":0,"station_id":"","pricing_plan_id":"cebpf4jnsgd1na2vs0mg"},{"bike_id":"f0a1d594-9817-42ab-a8d6-aea4947e8858","system_id":"levelo_inurba_marseille","lat":43.28797,"lon":5.43444,"is_reserved":false,"is_disabled":true,"rental_uris":{"android":"levelo://app?vid=f0a1d594-9817-42ab-a8d6-aea4947e8858","ios":"levelo://app?vid=f0a1d594-9817-42ab-a8d6-aea4947e8858"},"vehicle_type_id":"4","last_reported":1750687840,"current_range_meters":0,"station_id":"","pricing_plan_id":"cebpf4jnsgd1na2vs0mg"},{"bike_id":"c0fdf436-f4cf-4209-b50d-124ebeb8d178","system_id":"levelo_inurba_marseille","lat":43.311175,"lon":5.377581,"is_reserved":false,"is_disabled":true,"rental_uris":{"android":"levelo://app?vid=c0fdf436-f4cf-4209-b50d-124ebeb8d178","ios":"levelo://app?vid=c0fdf436-f4cf-4209-b50d-124ebeb8d178"},"vehicle_type_id":"4","last_reported":1750687840,"current_range_meters":0,"station_id":"","pricing_plan_id":"cebpf4jnsgd1na2vs0mg"},{"bike_id":"38fa1014-dc0c-49c9-ad0a-4ed146026865","system_id":"levelo_inurba_marseille","lat":43.211934,"lon":5.350732,"is_reserved":false,"is_disabled":true,"rental_uris":{"android":"levelo://app?vid=38fa1014-dc0c-49c9-ad0a-4ed146026865","ios":"levelo://app?vid=38fa1014-dc0c-49c9-ad0a-4ed146026865"},"vehicle_type_id":"4","last_reported":1750687840,"current_range_meters":0,"station_id":"","pricing_plan_id":"cebpf4jnsgd1na2vs0mg"},{"bike_id":"62a493c7-4534-4419-ad43-0582de34a72a","system_id":"levelo_inurba_marseille","lat":43.21366,"lon":5.355183,"is_reserved":false,"is_disabled":true,"rental_uris":{"android":"levelo://app?vid=62a493c7-4534-4419-ad43-0582de34a72a","ios":"levelo://app?vid=62a493c7-4534-4419-ad43-0582de34a72a"},"vehicle_type_id":"4","last_reported":1750687840,"current_range_meters":0,"station_id":"","pricing_plan_id":"cebpf4jnsgd1na2vs0mg"},{"bike_id":"bec97e80-f20a-4137-a561-725ff16a4b68","system_id":"levelo_inurba_marseille","lat":43.2715,"lon":5.39199,"is_reserved":false,"is_disabled":true,"rental_uris":{"android":"levelo://app?vid=bec97e80-f20a-4137-a561-725ff16a4b68","ios":"levelo://app?vid=bec97e80-f20a-4137-a561-725ff16a4b68"},"vehicle_type_id":"4","last_reported":1750687840,"current_range_meters":0,"station_id":"","pricing_plan_id":"cebpf4jnsgd1na2vs0mg"},{"bike_id":"b627105c-3934-4ca1-8179-b0b3f7c80098","system_id":"levelo_inurba_marseille","lat":43.29556,"lon":5.36534,"is_reserved":false,"is_disabled":true,"rental_uris":{"android":"levelo://app?vid=b627105c-3934-4ca1-8179-b0b3f7c80098","ios":"levelo://app?vid=b627105c-3934-4ca1-8179-b0b3f7c80098"},"vehicle_type_id":"4","last_reported":1750687840,"current_range_meters":0,"station_id":"","pricing_plan_id":"cebpf4jnsgd1na2vs0mg"},{"bike_id":"91aba767-1cca-4550-b38f-d3b7ad9c97e6","system_id":"levelo_inurba_marseille","lat":43.282279,"lon":5.402952,"is_reserved":false,"is_disabled":true,"rental_uris":{"android":"levelo://app?vid=91aba767-1cca-4550-b38f-d3b7ad9c97e6","ios":"levelo://app?vid=91aba767-1cca-4550-b38f-d3b7ad9c97e6"},"vehicle_type_id":"4","last_reported":1750687840,"current_range_meters":0,"station_id":"","pricing_plan_id":"cebpf4jnsgd1na2vs0mg"},{"bike_id":"3a3a1818-f20a-442b-bfcf-0e0a18008f43","system_id":"levelo_inurba_marseille","lat":43.2663,"lon":5.37489,"is_reserved":false,"is_disabled":true,"rental_uris":{"android":"levelo://app?vid=3a3a1818-f20a-442b-bfcf-0e0a18008f43","ios":"levelo://app?vid=3a3a1818-f20a-442b-bfcf-0e0a18008f43"},"vehicle_type_id":"4","last_reported":1750687840,"current_range_meters":0,"station_id":"","pricing_plan_id":"cebpf4jnsgd1na2vs0mg"},{"bike_id":"d4bb8b23-784a-4522-b633-31bcb0d76eaa","system_id":"levelo_inurba_marseille","lat":43.23159,"lon":5.43759,"is_reserved":false,"is_disabled":true,"rental_uris":{"android":"levelo://app?vid=d4bb8b23-784a-4522-b633-31bcb0d76eaa","ios":"levelo://app?vid=d4bb8b23-784a-4522-b633-31bcb0d76eaa"},"vehicle_type_id":"4","last_reported":1750687840,"current_range_meters":0,"station_id":"","pricing_plan_id":"cebpf4jnsgd1na2vs0mg"},{"bike_id":"d6609b4f-333b-43c1-9ebe-8726f5e76e88","system_id":"levelo_inurba_marseille","lat":43.337444,"lon":5.374475,"is_reserved":false,"is_disabled":true,"rental_uris":{"android":"levelo://app?vid=d6609b4f-333b-43c1-9ebe-8726f5e76e88","ios":"levelo://app?vid=d6609b4f-333b-43c1-9ebe-8726f5e76e88"},"vehicle_type_id":"4","last_reported":1750687840,"current_range_meters":0,"station_id":"","pricing_plan_id":"cebpf4jnsgd1na2vs0mg"},{"bike_id":"88ae5b64-1dbd-48a9-b30e-c1d98d52e5a6","system_id":"levelo_inurba_marseille","lat":43.28073,"lon":5.4077,"is_reserved":false,"is_disabled":true,"rental_uris":{"android":"levelo://app?vid=88ae5b64-1dbd-48a9-b30e-c1d98d52e5a6","ios":"levelo://app?vid=88ae5b64-1dbd-48a9-b30e-c1d98d52e5a6"},"vehicle_type_id":"4","last_reported":1750687840,"current_range_meters":0,"station_id":"","pricing_plan_id":"cebpf4jnsgd1na2vs0mg"},{"bike_id":"0c86cdad-b64a-47bf-ba91-5b398064181c","system_id":"levelo_inurba_marseille","lat":43.38411,"lon":5.35853,"is_reserved":false,"is_disabled":true,"rental_uris":{"android":"levelo://app?vid=0c86cdad-b64a-47bf-ba91-5b398064181c","ios":"levelo://app?vid=0c86cdad-b64a-47bf-ba91-5b398064181c"},"vehicle_type_id":"4","last_reported":1750687840,"current_range_meters":0,"station_id":"","pricing_plan_id":"cebpf4jnsgd1na2vs0mg"},{"bike_id":"efc590e7-44d1-4421-8500-85eb3feb2898","system_id":"levelo_inurba_marseille","lat":43.29799,"lon":5.38109,"is_reserved":false,"is_disabled":true,"rental_uris":{"android":"levelo://app?vid=efc590e7-44d1-4421-8500-85eb3feb2898","ios":"levelo://app?vid=efc590e7-44d1-4421-8500-85eb3feb2898"},"vehicle_type_id":"4","last_reported":1750687840,"current_range_meters":0,"station_id":"ce4bgip2rcd13ifvqbb0","pricing_plan_id":"cebpf4jnsgd1na2vs0mg"},{"bike_id":"676335f2-aadd-47bf-ab9f-d2a617eafe93","system_id":"levelo_inurba_marseille","lat":43.31484,"lon":5.373096,"is_reserved":false,"is_disabled":true,"rental_uris":{"android":"levelo://app?vid=676335f2-aadd-47bf-ab9f-d2a617eafe93","ios":"levelo://app?vid=676335f2-aadd-47bf-ab9f-d2a617eafe93"},"vehicle_type_id":"4","last_reported":1750687840,"current_range_meters":0,"station_id":"ce4bgt12rcd13ifvqcd0","pricing_plan_id":"cebpf4jnsgd1na2vs0mg"},{"bike_id":"f893e036-efc9-4e08-8560-5c5fc5e14a07","system_id":"levelo_inurba_marseille","lat":43.31076,"lon":5.38351,"is_reserved":false,"is_disabled":true,"rental_uris":{"android":"levelo://app?vid=f893e036-efc9-4e08-8560-5c5fc5e14a07","ios":"levelo://app?vid=f893e036-efc9-4e08-8560-5c5fc5e14a07"},"vehicle_type_id":"4","last_reported":1750687840,"current_range_meters":0,"station_id":"ce4bgv92rcd13ifvqcr0","pricing_plan_id":"cebpf4jnsgd1na2vs0mg"},{"bike_id":"e0419d78-22b4-4ae3-b85d-3aa88ab88aab","system_id":"levelo_inurba_marseille","lat":43.29411,"lon":5.38607,"is_reserved":false,"is_disabled":true,"rental_uris":{"android":"levelo://app?vid=e0419d78-22b4-4ae3-b85d-3aa88ab88aab","ios":"levelo://app?vid=e0419d78-22b4-4ae3-b85d-3aa88ab88aab"},"vehicle_type_id":"4","last_reported":1750687840,"current_range_meters":0,"station_id":"ce4bh2h2rcd13ifvqdh0","pricing_plan_id":"cebpf4jnsgd1na2vs0mg"},{"bike_id":"1414e526-d84b-4cf1-bd8a-e4798a70cf8d","system_id":"levelo_inurba_marseille","lat":43.28898,"lon":5.38212,"is_reserved":false,"is_disabled":true,"rental_uris":{"android":"levelo://app?vid=1414e526-d84b-4cf1-bd8a-e4798a70cf8d","ios":"levelo://app?vid=1414e526-d84b-4cf1-bd8a-e4798a70cf8d"},"vehicle_type_id":"4","last_reported":1750687840,"current_range_meters":0,"station_id":"ce4bh4p2rcd13ifvqe1g","pricing_plan_id":"cebpf4jnsgd1na2vs0mg"},{"bike_id":"f4a7a35a-1fe1-4273-bddc-2406e3d8f4df","system_id":"levelo_inurba_marseille","lat":43.29024,"lon":5.38137,"is_reserved":false,"is_disabled":true,"rental_uris":{"android":"levelo://app?vid=f4a7a35a-1fe1-4273-bddc-2406e3d8f4df","ios":"levelo://app?vid=f4a7a35a-1fe1-4273-bddc-2406e3d8f4df"},"vehicle_type_id":"4","last_reported":1750687840,"current_range_meters":0,"station_id":"ce4bh4p2rcd13ifvqe1g","pricing_plan_id":"cebpf4jnsgd1na2vs0mg"},{"bike_id":"2550a059-1d4f-4063-9529-31dd9bc49a99","system_id":"levelo_inurba_marseille","lat":43.28035,"lon":5.36942,"is_reserved":false,"is_disabled":true,"rental_uris":{"android":"levelo://app?vid=2550a059-1d4f-4063-9529-31dd9bc49a99","ios":"levelo://app?vid=2550a059-1d4f-4063-9529-31dd9bc49a99"},"vehicle_type_id":"4","last_reported":1750687840,"current_range_meters":0,"station_id":"ce4bha12rcd13ifvqef0","pricing_plan_id":"cebpf4jnsgd1na2vs0mg"},{"bike_id":"bb6b45ae-8bd9-4ae6-9709-e20159b0c7d4","system_id":"levelo_inurba_marseille","lat":43.28999,"lon":5.35607,"is_reserved":false,"is_disabled":true,"rental_uris":{"android":"levelo://app?vid=bb6b45ae-8bd9-4ae6-9709-e20159b0c7d4","ios":"levelo://app?vid=bb6b45ae-8bd9-4ae6-9709-e20159b0c7d4"},"vehicle_type_id":"4","last_reported":1750687840,"current_range_meters":0,"station_id":"ce4bhb92rcd13ifvqen0","pricing_plan_id":"cebpf4jnsgd1na2vs0mg"},{"bike_id":"ebf92c56-7951-4439-bb96-43d4a496c5ab","system_id":"levelo_inurba_marseille","lat":43.29234,"lon":5.36079,"is_reserved":false,"is_disabled":true,"rental_uris":{"android":"levelo://app?vid=ebf92c56-7951-4439-bb96-43d4a496c5ab","ios":"levelo://app?vid=ebf92c56-7951-4439-bb96-43d4a496c5ab"},"vehicle_type_id":"4","last_reported":1750687840,"current_range_meters":0,"station_id":"ce4bhbh2rcd13ifvqeqg","pricing_plan_id":"cebpf4jnsgd1na2vs0mg"},{"bike_id":"4da07b4e-ebc5-41e1-8f08-3442d95830ce","system_id":"levelo_inurba_marseille","lat":43.28149,"lon":5.42642,"is_reserved":false,"is_disabled":true,"rental_uris":{"android":"levelo://app?vid=4da07b4e-ebc5-41e1-8f08-3442d95830ce","ios":"levelo://app?vid=4da07b4e-ebc5-41e1-8f08-3442d95830ce"},"vehicle_type_id":"4","last_reported":1750687840,"current_range_meters":0,"station_id":"ce4bhnh2rcd13ifvqgug","pricing_plan_id":"cebpf4jnsgd1na2vs0mg"},{"bike_id":"04964c9e-4be0-467e-9de0-a693e03ca283","system_id":"levelo_inurba_marseille","lat":43.33605,"lon":5.41036,"is_reserved":false,"is_disabled":true,"rental_uris":{"android":"levelo://app?vid=04964c9e-4be0-467e-9de0-a693e03ca283","ios":"levelo://app?vid=04964c9e-4be0-467e-9de0-a693e03ca283"},"vehicle_type_id":"4","last_reported":1750687840,"current_range_meters":0,"station_id":"ce4bhqh2rcd13ifvqhmg","pricing_plan_id":"cebpf4jnsgd1na2vs0mg"},{"bike_id":"0616c89e-afdc-4d2d-8b80-7e5e208bf1a6","system_id":"levelo_inurba_marseille","lat":43.32112,"lon":5.36794,"is_reserved":false,"is_disabled":true,"rental_uris":{"android":"levelo://app?vid=0616c89e-afdc-4d2d-8b80-7e5e208bf1a6","ios":"levelo://app?vid=0616c89e-afdc-4d2d-8b80-7e5e208bf1a6"},"vehicle_type_id":"4","last_reported":1750687840,"current_range_meters":0,"station_id":"ce4bhrh2rcd13ifvqhug","pricing_plan_id":"cebpf4jnsgd1na2vs0mg"},{"bike_id":"fe35375f-96f2-4d14-94d0-a21e3d334489","system_id":"levelo_inurba_marseille","lat":43.24183,"lon":5.36411,"is_reserved":false,"is_disabled":true,"rental_uris":{"android":"levelo://app?vid=fe35375f-96f2-4d14-94d0-a21e3d334489","ios":"levelo://app?vid=fe35375f-96f2-4d14-94d0-a21e3d334489"},"vehicle_type_id":"4","last_reported":1750687840,"current_range_meters":0,"station_id":"cpo36qri1sfpv3e86is0","pricing_plan_id":"cebpf4jnsgd1na2vs0mg"},{"bike_id":"8b115e77-3740-43ec-a086-20a4b93f8304","system_id":"levelo_inurba_marseille","lat":43.24167,"lon":5.36397,"is_reserved":false,"is_disabled":true,"rental_uris":{"android":"levelo://app?vid=8b115e77-3740-43ec-a086-20a4b93f8304","ios":"levelo://app?vid=8b115e77-3740-43ec-a086-20a4b93f8304"},"vehicle_type_id":"4","last_reported":1750687840,"current_range_meters":0,"station_id":"cpo36qri1sfpv3e86is0","pricing_plan_id":"cebpf4jnsgd1na2vs0mg"},{"bike_id":"ad4a860c-cb86-4b57-931e-81605fd14171","system_id":"levelo_inurba_marseille","lat":43.30157,"lon":5.38098,"is_reserved":false,"is_disabled":true,"rental_uris":{"android":"levelo://app?vid=ad4a860c-cb86-4b57-931e-81605fd14171","ios":"levelo://app?vid=ad4a860c-cb86-4b57-931e-81605fd14171"},"vehicle_type_id":"4","last_reported":1750687840,"current_range_meters":400,"station_id":"ce4bgjp2rcd13ifvqbh0","pricing_plan_id":"cebpf4jnsgd1na2vs0mg"},{"bike_id":"d939bdca-942b-493d-b2bb-9d6bd2a7c894","system_id":"levelo_inurba_marseille","lat":43.304712,"lon":5.400906,"is_reserved":false,"is_disabled":true,"rental_uris":{"android":"levelo://app?vid=d939bdca-942b-493d-b2bb-9d6bd2a7c894","ios":"levelo://app?vid=d939bdca-942b-493d-b2bb-9d6bd2a7c894"},"vehicle_type_id":"4","last_reported":1750687840,"current_range_meters":400,"station_id":"ce4bgvp2rcd13ifvqct0","pricing_plan_id":"cebpf4jnsgd1na2vs0mg"},{"bike_id":"bda22ee2-8261-4efd-8120-1c023ee995f0","system_id":"levelo_inurba_marseille","lat":43.29262,"lon":5.38435,"is_reserved":false,"is_disabled":true,"rental_uris":{"android":"levelo://app?vid=bda22ee2-8261-4efd-8120-1c023ee995f0","ios":"levelo://app?vid=bda22ee2-8261-4efd-8120-1c023ee995f0"},"vehicle_type_id":"4","last_reported":1750687840,"current_range_meters":400,"station_id":"ce4bh692rcd13ifvqea0","pricing_plan_id":"cebpf4jnsgd1na2vs0mg"},{"bike_id":"ea9bcf7c-207b-4a3f-94d0-b74ac7c32c6f","system_id":"levelo_inurba_marseille","lat":43.26205,"lon":5.37915,"is_reserved":false,"is_disabled":true,"rental_uris":{"android":"levelo://app?vid=ea9bcf7c-207b-4a3f-94d0-b74ac7c32c6f","ios":"levelo://app?vid=ea9bcf7c-207b-4a3f-94d0-b74ac7c32c6f"},"vehicle_type_id":"4","last_reported":1750687840,"current_range_meters":400,"station_id":"ce4bhjp2rcd13ifvqg90","pricing_plan_id":"cebpf4jnsgd1na2vs0mg"},{"bike_id":"c97d875c-093c-4a18-88bd-0f2c53778776","system_id":"levelo_inurba_marseille","lat":43.303947,"lon":5.409903,"is_reserved":false,"is_disabled":true,"rental_uris":{"android":"levelo://app?vid=c97d875c-093c-4a18-88bd-0f2c53778776","ios":"levelo://app?vid=c97d875c-093c-4a18-88bd-0f2c53778776"},"vehicle_type_id":"4","last_reported":1750687840,"current_range_meters":400,"station_id":"ce4bhop2rcd13ifvqh8g","pricing_plan_id":"cebpf4jnsgd1na2vs0mg"},{"bike_id":"e33d6114-e768-4962-ac07-ecceca34b693","system_id":"levelo_inurba_marseille","lat":43.2549,"lon":5.40113,"is_reserved":false,"is_disabled":true,"rental_uris":{"android":"levelo://app?vid=e33d6114-e768-4962-ac07-ecceca34b693","ios":"levelo://app?vid=e33d6114-e768-4962-ac07-ecceca34b693"},"vehicle_type_id":"4","last_reported":1750687840,"current_range_meters":800,"station_id":"","pricing_plan_id":"cebpf4jnsgd1na2vs0mg"},{"bike_id":"640ac247-50a8-42f8-8c73-2900416eb62b","system_id":"levelo_inurba_marseille","lat":43.29627,"lon":5.40597,"is_reserved":false,"is_disabled":true,"rental_uris":{"android":"levelo://app?vid=640ac247-50a8-42f8-8c73-2900416eb62b","ios":"levelo://app?vid=640ac247-50a8-42f8-8c73-2900416eb62b"},"vehicle_type_id":"4","last_reported":1750687840,"current_range_meters":800,"station_id":"ce4bh0h2rcd13ifvqd60","pricing_plan_id":"cebpf4jnsgd1na2vs0mg"},{"bike_id":"4d79361b-71f6-4786-968d-a1644f9de55c","system_id":"levelo_inurba_marseille","lat":43.31726,"lon":5.40431,"is_reserved":false,"is_disabled":true,"rental_uris":{"android":"levelo://app?vid=4d79361b-71f6-4786-968d-a1644f9de55c","ios":"levelo://app?vid=4d79361b-71f6-4786-968d-a1644f9de55c"},"vehicle_type_id":"4","last_reported":1750687840,"current_range_meters":1200,"station_id":"ce4bh012rcd13ifvqd00","pricing_plan_id":"cebpf4jnsgd1na2vs0mg"},{"bike_id":"99bf6023-2bda-473b-8c92-b441f076f4e7","system_id":"levelo_inurba_marseille","lat":43.2903,"lon":5.38644,"is_reserved":false,"is_disabled":true,"rental_uris":{"android":"levelo://app?vid=99bf6023-2bda-473b-8c92-b441f076f4e7","ios":"levelo://app?vid=99bf6023-2bda-473b-8c92-b441f076f4e7"},"vehicle_type_id":"4","last_reported":1750687840,"current_range_meters":1200,"station_id":"ce4bh4p2rcd13ifvqe0g","pricing_plan_id":"cebpf4jnsgd1na2vs0mg"},{"bike_id":"1b77ec5c-e732-4ae1-8f86-7f1add3eb2b1","system_id":"levelo_inurba_marseille","lat":43.30355,"lon":5.41872,"is_reserved":false,"is_disabled":true,"rental_uris":{"android":"levelo://app?vid=1b77ec5c-e732-4ae1-8f86-7f1add3eb2b1","ios":"levelo://app?vid=1b77ec5c-e732-4ae1-8f86-7f1add3eb2b1"},"vehicle_type_id":"4","last_reported":1750687840,"current_range_meters":1200,"station_id":"ce4bhop2rcd13ifvqh7g","pricing_plan_id":"cebpf4jnsgd1na2vs0mg"},{"bike_id":"e1b8d9b5-b50f-4aed-a078-14b454119d79","system_id":"levelo_inurba_marseille","lat":43.26942,"lon":5.40221,"is_reserved":false,"is_disabled":true,"rental_uris":{"android":"levelo://app?vid=e1b8d9b5-b50f-4aed-a078-14b454119d79","ios":"levelo://app?vid=e1b8d9b5-b50f-4aed-a078-14b454119d79"},"vehicle_type_id":"4","last_reported":1750687840,"current_range_meters":1200,"station_id":"cjm6bp8fraef2m0cb0m0","pricing_plan_id":"cebpf4jnsgd1na2vs0mg"},{"bike_id":"ceda4b53-04ec-4389-bf19-3e0d7283974a","system_id":"levelo_inurba_marseille","lat":43.29536,"lon":5.39401,"is_reserved":false,"is_disabled":true,"rental_uris":{"android":"levelo://app?vid=ceda4b53-04ec-4389-bf19-3e0d7283974a","ios":"levelo://app?vid=ceda4b53-04ec-4389-bf19-3e0d7283974a"},"vehicle_type_id":"4","last_reported":1750687840,"current_range_meters":1600,"station_id":"ce4bh292rcd13ifvqdf0","pricing_plan_id":"cebpf4jnsgd1na2vs0mg"},{"bike_id":"e5eca828-0de4-4be7-9a09-024e18335ad1","system_id":"levelo_inurba_marseille","lat":43.28443,"lon":5.35926,"is_reserved":false,"is_disabled":true,"rental_uris":{"android":"levelo://app?vid=e5eca828-0de4-4be7-9a09-024e18335ad1","ios":"levelo://app?vid=e5eca828-0de4-4be7-9a09-024e18335ad1"},"vehicle_type_id":"4","last_reported":1750687840,"current_range_meters":1600,"station_id":"ce4bhah2rcd13ifvqei0","pricing_plan_id":"cebpf4jnsgd1na2vs0mg"},{"bike_id":"8a5f0e00-0d33-4f95-aece-8ab5ea0c1f33","system_id":"levelo_inurba_marseille","lat":43.28613,"lon":5.35106,"is_reserved":false,"is_disabled":true,"rental_uris":{"android":"levelo://app?vid=8a5f0e00-0d33-4f95-aece-8ab5ea0c1f33","ios":"levelo://app?vid=8a5f0e00-0d33-4f95-aece-8ab5ea0c1f33"},"vehicle_type_id":"4","last_reported":1750687840,"current_range_meters":1600,"station_id":"ce4bhch2rcd13ifvqeug","pricing_plan_id":"cebpf4jnsgd1na2vs0mg"},{"bike_id":"ce63dd6e-1b1c-494f-9862-e71b54b2118d","system_id":"levelo_inurba_marseille","lat":43.27939,"lon":5.41047,"is_reserved":false,"is_disabled":true,"rental_uris":{"android":"levelo://app?vid=ce63dd6e-1b1c-494f-9862-e71b54b2118d","ios":"levelo://app?vid=ce63dd6e-1b1c-494f-9862-e71b54b2118d"},"vehicle_type_id":"4","last_reported":1750687840,"current_range_meters":1600,"station_id":"ce4bhnp2rcd13ifvqh0g","pricing_plan_id":"cebpf4jnsgd1na2vs0mg"},{"bike_id":"295275bf-db04-45bf-906f-a13c904fa3a2","system_id":"levelo_inurba_marseille","lat":43.33614,"lon":5.41006,"is_reserved":false,"is_disabled":true,"rental_uris":{"android":"levelo://app?vid=295275bf-db04-45bf-906f-a13c904fa3a2","ios":"levelo://app?vid=295275bf-db04-45bf-906f-a13c904fa3a2"},"vehicle_type_id":"4","last_reported":1750687840,"current_range_meters":1600,"station_id":"ce4bhqh2rcd13ifvqhmg","pricing_plan_id":"cebpf4jnsgd1na2vs0mg"},{"bike_id":"693a8a22-51c8-4768-a3d3-0421de4d6068","system_id":"levelo_inurba_marseille","lat":43.33722,"lon":5.39188,"is_reserved":false,"is_disabled":true,"rental_uris":{"android":"levelo://app?vid=693a8a22-51c8-4768-a3d3-0421de4d6068","ios":"levelo://app?vid=693a8a22-51c8-4768-a3d3-0421de4d6068"},"vehicle_type_id":"4","last_reported":1750687840,"current_range_meters":1600,"station_id":"ce4bhr92rcd13ifvqhsg","pricing_plan_id":"cebpf4jnsgd1na2vs0mg"},{"bike_id":"bbd609ee-b024-4f9a-acc2-f4f42afdb430","system_id":"levelo_inurba_marseille","lat":43.29532,"lon":5.38545,"is_reserved":false,"is_disabled":true,"rental_uris":{"android":"levelo://app?vid=bbd609ee-b024-4f9a-acc2-f4f42afdb430","ios":"levelo://app?vid=bbd609ee-b024-4f9a-acc2-f4f42afdb430"},"vehicle_type_id":"4","last_reported":1750687840,"current_range_meters":2000,"station_id":"ce4bgih2rcd13ifvqba0","pricing_plan_id":"cebpf4jnsgd1na2vs0mg"},{"bike_id":"f185358a-cf7e-4251-b0fc-5d30c069bad0","system_id":"levelo_inurba_marseille","lat":43.29192,"lon":5.39313,"is_reserved":false,"is_disabled":true,"rental_uris":{"android":"levelo://app?vid=f185358a-cf7e-4251-b0fc-5d30c069bad0","ios":"levelo://app?vid=f185358a-cf7e-4251-b0fc-5d30c069bad0"},"vehicle_type_id":"4","last_reported":1750687840,"current_range_meters":2000,"station_id":"ce4bh192rcd13ifvqdd0","pricing_plan_id":"cebpf4jnsgd1na2vs0mg"},{"bike_id":"50f620b1-55be-4f5b-94c4-090d05a31ec7","system_id":"levelo_inurba_marseille","lat":43.29002,"lon":5.35619,"is_reserved":false,"is_disabled":true,"rental_uris":{"android":"levelo://app?vid=50f620b1-55be-4f5b-94c4-090d05a31ec7","ios":"levelo://app?vid=50f620b1-55be-4f5b-94c4-090d05a31ec7"},"vehicle_type_id":"4","last_reported":1750687840,"current_range_meters":2000,"station_id":"ce4bhb92rcd13ifvqen0","pricing_plan_id":"cebpf4jnsgd1na2vs0mg"},{"bike_id":"7bb7686a-4083-47ac-97fb-140ab20153eb","system_id":"levelo_inurba_marseille","lat":43.24994,"lon":5.3893,"is_reserved":false,"is_disabled":true,"rental_uris":{"android":"levelo://app?vid=7bb7686a-4083-47ac-97fb-140ab20153eb","ios":"levelo://app?vid=7bb7686a-4083-47ac-97fb-140ab20153eb"},"vehicle_type_id":"4","last_reported":1750687840,"current_range_meters":2000,"station_id":"ce4bhgp2rcd13ifvqfd0","pricing_plan_id":"cebpf4jnsgd1na2vs0mg"},{"bike_id":"991e6c2c-70b3-4f0f-ab36-69f1f014e93b","system_id":"levelo_inurba_marseille","lat":43.275,"lon":5.42458,"is_reserved":false,"is_disabled":false,"rental_uris":{"android":"levelo://app?vid=991e6c2c-70b3-4f0f-ab36-69f1f014e93b","ios":"levelo://app?vid=991e6c2c-70b3-4f0f-ab36-69f1f014e93b"},"vehicle_type_id":"4","last_reported":1750687840,"current_range_meters":2800,"station_id":"ce4bhn92rcd13ifvqgrg","pricing_plan_id":"cebpf4jnsgd1na2vs0mg"},{"bike_id":"75b0b529-f29b-44bd-b237-f867bfad72c7","system_id":"levelo_inurba_marseille","lat":43.31881,"lon":5.40728,"is_reserved":false,"is_disabled":false,"rental_uris":{"android":"levelo://app?vid=75b0b529-f29b-44bd-b237-f867bfad72c7","ios":"levelo://app?vid=75b0b529-f29b-44bd-b237-f867bfad72c7"},"vehicle_type_id":"4","last_reported":1750687840,"current_range_meters":2800,"station_id":"ce4bhq12rcd13ifvqhig","pricing_plan_id":"cebpf4jnsgd1na2vs0mg"},{"bike_id":"bc982420-423e-4ad8-9171-068e5de85af8","system_id":"levelo_inurba_marseille","lat":43.29158,"lon":5.37912,"is_reserved":false,"is_disabled":false,"rental_uris":{"android":"levelo://app?vid=bc982420-423e-4ad8-9171-068e5de85af8","ios":"levelo://app?vid=bc982420-423e-4ad8-9171-068e5de85af8"},"vehicle_type_id":"4","last_reported":1750687840,"current_range_meters":3200,"station_id":"","pricing_plan_id":"cebpf4jnsgd1na2vs0mg"},{"bike_id":"6831b330-b9be-44f0-a104-731b743fc700","system_id":"levelo_inurba_marseille","lat":43.31882,"lon":5.40736,"is_reserved":false,"is_disabled":false,"rental_uris":{"android":"levelo://app?vid=6831b330-b9be-44f0-a104-731b743fc700","ios":"levelo://app?vid=6831b330-b9be-44f0-a104-731b743fc700"},"vehicle_type_id":"4","last_reported":1750687840,"current_range_meters":3200,"station_id":"ce4bhq12rcd13ifvqhig","pricing_plan_id":"cebpf4jnsgd1na2vs0mg"},{"bike_id":"a66f85b3-f692-41aa-98b6-3f97b9a3f52d","system_id":"levelo_inurba_marseille","lat":43.2281,"lon":5.34914,"is_reserved":false,"is_disabled":false,"rental_uris":{"android":"levelo://app?vid=a66f85b3-f692-41aa-98b6-3f97b9a3f52d","ios":"levelo://app?vid=a66f85b3-f692-41aa-98b6-3f97b9a3f52d"},"vehicle_type_id":"4","last_reported":1750687840,"current_range_meters":3600,"station_id":"","pricing_plan_id":"cebpf4jnsgd1na2vs0mg"},{"bike_id":"315d89df-fb8c-40e9-bd02-a7881e6f4613","system_id":"levelo_inurba_marseille","lat":43.292187,"lon":5.400418,"is_reserved":false,"is_disabled":false,"rental_uris":{"android":"levelo://app?vid=315d89df-fb8c-40e9-bd02-a7881e6f4613","ios":"levelo://app?vid=315d89df-fb8c-40e9-bd02-a7881e6f4613"},"vehicle_type_id":"4","last_reported":1750687840,"current_range_meters":3600,"station_id":"","pricing_plan_id":"cebpf4jnsgd1na2vs0mg"},{"bike_id":"0a9bfb1b-37c3-42f1-b15d-61e620b5b15b","system_id":"levelo_inurba_marseille","lat":43.29684,"lon":5.37297,"is_reserved":false,"is_disabled":false,"rental_uris":{"android":"levelo://app?vid=0a9bfb1b-37c3-42f1-b15d-61e620b5b15b","ios":"levelo://app?vid=0a9bfb1b-37c3-42f1-b15d-61e620b5b15b"},"vehicle_type_id":"4","last_reported":1750687840,"current_range_meters":3600,"station_id":"ce4bgk12rcd13ifvqbj0","pricing_plan_id":"cebpf4jnsgd1na2vs0mg"},{"bike_id":"5a6dfa64-9fea-4493-b046-2ac0a5377286","system_id":"levelo_inurba_marseille","lat":43.27493,"lon":5.42447,"is_reserved":false,"is_disabled":false,"rental_uris":{"android":"levelo://app?vid=5a6dfa64-9fea-4493-b046-2ac0a5377286","ios":"levelo://app?vid=5a6dfa64-9fea-4493-b046-2ac0a5377286"},"vehicle_type_id":"4","last_reported":1750687840,"current_range_meters":3600,"station_id":"ce4bhn92rcd13ifvqgrg","pricing_plan_id":"cebpf4jnsgd1na2vs0mg"},{"bike_id":"8bd4135d-bc67-4b0f-9552-013b64de7d6a","system_id":"levelo_inurba_marseille","lat":43.32661,"lon":5.40996,"is_reserved":false,"is_disabled":false,"rental_uris":{"android":"levelo://app?vid=8bd4135d-bc67-4b0f-9552-013b64de7d6a","ios":"levelo://app?vid=8bd4135d-bc67-4b0f-9552-013b64de7d6a"},"vehicle_type_id":"4","last_reported":1750687840,"current_range_meters":3600,"station_id":"ce4bhpp2rcd13ifvqhgg","pricing_plan_id":"cebpf4jnsgd1na2vs0mg"},{"bike_id":"9cb193d0-906b-4ac2-85c5-eea810b1d20f","system_id":"levelo_inurba_marseille","lat":43.29406,"lon":5.43182,"is_reserved":false,"is_disabled":false,"rental_uris":{"android":"levelo://app?vid=9cb193d0-906b-4ac2-85c5-eea810b1d20f","ios":"levelo://app?vid=9cb193d0-906b-4ac2-85c5-eea810b1d20f"},"vehicle_type_id":"4","last_reported":1750687840,"current_range_meters":4000,"station_id":"","pricing_plan_id":"cebpf4jnsgd1na2vs0mg"},{"bike_id":"0ccd24b7-588b-4acd-b1f4-59a71facf9e8","system_id":"levelo_inurba_marseille","lat":43.25315,"lon":5.4045,"is_reserved":false,"is_disabled":false,"rental_uris":{"android":"levelo://app?vid=0ccd24b7-588b-4acd-b1f4-59a71facf9e8","ios":"levelo://app?vid=0ccd24b7-588b-4acd-b1f4-59a71facf9e8"},"vehicle_type_id":"4","last_reported":1750687840,"current_range_meters":4000,"station_id":"","pricing_plan_id":"cebpf4jnsgd1na2vs0mg"},{"bike_id":"0ca92b67-7b97-4c62-a151-8550d67e90c5","system_id":"levelo_inurba_marseille","lat":43.29265,"lon":5.40906,"is_reserved":false,"is_disabled":false,"rental_uris":{"android":"levelo://app?vid=0ca92b67-7b97-4c62-a151-8550d67e90c5","ios":"levelo://app?vid=0ca92b67-7b97-4c62-a151-8550d67e90c5"},"vehicle_type_id":"4","last_reported":1750687840,"current_range_meters":4000,"station_id":"ce4bh192rcd13ifvqdc0","pricing_plan_id":"cebpf4jnsgd1na2vs0mg"},{"bike_id":"3ec52c39-b8bd-48cb-ae2f-a6ac1110570f","system_id":"levelo_inurba_marseille","lat":43.29014,"lon":5.38137,"is_reserved":false,"is_disabled":false,"rental_uris":{"android":"levelo://app?vid=3ec52c39-b8bd-48cb-ae2f-a6ac1110570f","ios":"levelo://app?vid=3ec52c39-b8bd-48cb-ae2f-a6ac1110570f"},"vehicle_type_id":"4","last_reported":1750687840,"current_range_meters":4000,"station_id":"ce4bh4p2rcd13ifvqe1g","pricing_plan_id":"cebpf4jnsgd1na2vs0mg"},{"bike_id":"cbbf71b5-6569-4e9b-ba90-3ac2da187ffd","system_id":"levelo_inurba_marseille","lat":43.28044,"lon":5.35076,"is_reserved":false,"is_disabled":false,"rental_uris":{"android":"levelo://app?vid=cbbf71b5-6569-4e9b-ba90-3ac2da187ffd","ios":"levelo://app?vid=cbbf71b5-6569-4e9b-ba90-3ac2da187ffd"},"vehicle_type_id":"4","last_reported":1750687840,"current_range_meters":4400,"station_id":"","pricing_plan_id":"cebpf4jnsgd1na2vs0mg"},{"bike_id":"0503e1d2-ec4f-4cb3-9ea6-e4f3eb558d3e","system_id":"levelo_inurba_marseille","lat":43.29925,"lon":5.36967,"is_reserved":false,"is_disabled":false,"rental_uris":{"android":"levelo://app?vid=0503e1d2-ec4f-4cb3-9ea6-e4f3eb558d3e","ios":"levelo://app?vid=0503e1d2-ec4f-4cb3-9ea6-e4f3eb558d3e"},"vehicle_type_id":"4","last_reported":1750687840,"current_range_meters":4400,"station_id":"","pricing_plan_id":"cebpf4jnsgd1na2vs0mg"},{"bike_id":"60b60e85-2c93-4556-839b-2c73c5e2298f","system_id":"levelo_inurba_marseille","lat":43.28714,"lon":5.379433,"is_reserved":false,"is_disabled":false,"rental_uris":{"android":"levelo://app?vid=60b60e85-2c93-4556-839b-2c73c5e2298f","ios":"levelo://app?vid=60b60e85-2c93-4556-839b-2c73c5e2298f"},"vehicle_type_id":"4","last_reported":1750687840,"current_range_meters":4400,"station_id":"ce4bgr92rcd13ifvqc7g","pricing_plan_id":"cebpf4jnsgd1na2vs0mg"},{"bike_id":"e48339d1-d1ad-4d42-ac18-30a19b190998","system_id":"levelo_inurba_marseille","lat":43.30646,"lon":5.40099,"is_reserved":false,"is_disabled":false,"rental_uris":{"android":"levelo://app?vid=e48339d1-d1ad-4d42-ac18-30a19b190998","ios":"levelo://app?vid=e48339d1-d1ad-4d42-ac18-30a19b190998"},"vehicle_type_id":"4","last_reported":1750687840,"current_range_meters":4400,"station_id":"ce4bh112rcd13ifvqda0","pricing_plan_id":"cebpf4jnsgd1na2vs0mg"},{"bike_id":"1de23681-4ffe-4931-829d-a30656777003","system_id":"levelo_inurba_marseille","lat":43.25499,"lon":5.37651,"is_reserved":false,"is_disabled":false,"rental_uris":{"android":"levelo://app?vid=1de23681-4ffe-4931-829d-a30656777003","ios":"levelo://app?vid=1de23681-4ffe-4931-829d-a30656777003"},"vehicle_type_id":"4","last_reported":1750687840,"current_range_meters":4400,"station_id":"ce4bhh12rcd13ifvqff0","pricing_plan_id":"cebpf4jnsgd1na2vs0mg"},{"bike_id":"1123acd7-294d-4246-84c5-724ebfd8d156","system_id":"levelo_inurba_marseille","lat":43.24169,"lon":5.36399,"is_reserved":false,"is_disabled":false,"rental_uris":{"android":"levelo://app?vid=1123acd7-294d-4246-84c5-724ebfd8d156","ios":"levelo://app?vid=1123acd7-294d-4246-84c5-724ebfd8d156"},"vehicle_type_id":"4","last_reported":1750687840,"current_range_meters":4400,"station_id":"cpo36qri1sfpv3e86is0","pricing_plan_id":"cebpf4jnsgd1na2vs0mg"},{"bike_id":"3d07ef76-af52-42e0-81f1-5f4963c9ee29","system_id":"levelo_inurba_marseille","lat":43.294825,"lon":5.438432,"is_reserved":false,"is_disabled":false,"rental_uris":{"android":"levelo://app?vid=3d07ef76-af52-42e0-81f1-5f4963c9ee29","ios":"levelo://app?vid=3d07ef76-af52-42e0-81f1-5f4963c9ee29"},"vehicle_type_id":"4","last_reported":1750687840,"current_range_meters":4800,"station_id":"","pricing_plan_id":"cebpf4jnsgd1na2vs0mg"},{"bike_id":"b31c0edc-3edd-434c-a5d8-19c7da0a35ac","system_id":"levelo_inurba_marseille","lat":43.313583,"lon":5.367113,"is_reserved":false,"is_disabled":false,"rental_uris":{"android":"levelo://app?vid=b31c0edc-3edd-434c-a5d8-19c7da0a35ac","ios":"levelo://app?vid=b31c0edc-3edd-434c-a5d8-19c7da0a35ac"},"vehicle_type_id":"4","last_reported":1750687840,"current_range_meters":4800,"station_id":"ce4bgr92rcd13ifvqc6g","pricing_plan_id":"cebpf4jnsgd1na2vs0mg"},{"bike_id":"122bc31f-54d8-444c-b7a3-d238720f1b39","system_id":"levelo_inurba_marseille","lat":43.28663,"lon":5.36348,"is_reserved":false,"is_disabled":false,"rental_uris":{"android":"levelo://app?vid=122bc31f-54d8-444c-b7a3-d238720f1b39","ios":"levelo://app?vid=122bc31f-54d8-444c-b7a3-d238720f1b39"},"vehicle_type_id":"4","last_reported":1750687840,"current_range_meters":5600,"station_id":"ce4bhah2rcd13ifvqej0","pricing_plan_id":"cebpf4jnsgd1na2vs0mg"},{"bike_id":"4365dba8-21ac-46eb-8028-2d897604597f","system_id":"levelo_inurba_marseille","lat":43.32368,"lon":5.38889,"is_reserved":false,"is_disabled":false,"rental_uris":{"android":"levelo://app?vid=4365dba8-21ac-46eb-8028-2d897604597f","ios":"levelo://app?vid=4365dba8-21ac-46eb-8028-2d897604597f"},"vehicle_type_id":"4","last_reported":1750687840,"current_range_meters":5600,"station_id":"ce4bhqp2rcd13ifvqhog","pricing_plan_id":"cebpf4jnsgd1na2vs0mg"},{"bike_id":"b7036bc1-c072-4f36-9c66-21ff695540f4","system_id":"levelo_inurba_marseille","lat":43.246831,"lon":5.394353,"is_reserved":false,"is_disabled":false,"rental_uris":{"android":"levelo://app?vid=b7036bc1-c072-4f36-9c66-21ff695540f4","ios":"levelo://app?vid=b7036bc1-c072-4f36-9c66-21ff695540f4"},"vehicle_type_id":"4","last_reported":1750687840,"current_range_meters":6000,"station_id":"","pricing_plan_id":"cebpf4jnsgd1na2vs0mg"},{"bike_id":"714155d0-aede-495d-b5c1-761d3cd81898","system_id":"levelo_inurba_marseille","lat":43.29911,"lon":5.37473,"is_reserved":false,"is_disabled":false,"rental_uris":{"android":"levelo://app?vid=714155d0-aede-495d-b5c1-761d3cd81898","ios":"levelo://app?vid=714155d0-aede-495d-b5c1-761d3cd81898"},"vehicle_type_id":"4","last_reported":1750687840,"current_range_meters":6000,"station_id":"ce4bgjh2rcd13ifvqbg0","pricing_plan_id":"cebpf4jnsgd1na2vs0mg"},{"bike_id":"280d848d-e698-4b95-bcd6-07c3c39656ee","system_id":"levelo_inurba_marseille","lat":43.306,"lon":5.37229,"is_reserved":false,"is_disabled":false,"rental_uris":{"android":"levelo://app?vid=280d848d-e698-4b95-bcd6-07c3c39656ee","ios":"levelo://app?vid=280d848d-e698-4b95-bcd6-07c3c39656ee"},"vehicle_type_id":"4","last_reported":1750687840,"current_range_meters":6000,"station_id":"ce4bgqh2rcd13ifvqc4g","pricing_plan_id":"cebpf4jnsgd1na2vs0mg"},{"bike_id":"6d2d482a-c7a9-4108-bfa9-6507c4b01926","system_id":"levelo_inurba_marseille","lat":43.30831,"lon":5.38167,"is_reserved":false,"is_disabled":false,"rental_uris":{"android":"levelo://app?vid=6d2d482a-c7a9-4108-bfa9-6507c4b01926","ios":"levelo://app?vid=6d2d482a-c7a9-4108-bfa9-6507c4b01926"},"vehicle_type_id":"4","last_reported":1750687840,"current_range_meters":6000,"station_id":"ce4bgt12rcd13ifvqce0","pricing_plan_id":"cebpf4jnsgd1na2vs0mg"},{"bike_id":"ecc231bb-d1d4-431a-8e27-8e17cdfdda03","system_id":"levelo_inurba_marseille","lat":43.30881,"lon":5.39651,"is_reserved":false,"is_disabled":false,"rental_uris":{"android":"levelo://app?vid=ecc231bb-d1d4-431a-8e27-8e17cdfdda03","ios":"levelo://app?vid=ecc231bb-d1d4-431a-8e27-8e17cdfdda03"},"vehicle_type_id":"4","last_reported":1750687840,"current_range_meters":6000,"station_id":"ce4bh012rcd13ifvqcv0","pricing_plan_id":"cebpf4jnsgd1na2vs0mg"},{"bike_id":"fa567ffc-7ccf-4f41-9e85-a239962c4096","system_id":"levelo_inurba_marseille","lat":43.29223,"lon":5.36058,"is_reserved":false,"is_disabled":false,"rental_uris":{"android":"levelo://app?vid=fa567ffc-7ccf-4f41-9e85-a239962c4096","ios":"levelo://app?vid=fa567ffc-7ccf-4f41-9e85-a239962c4096"},"vehicle_type_id":"4","last_reported":1750687840,"current_range_meters":6000,"station_id":"ce4bhbh2rcd13ifvqeqg","pricing_plan_id":"cebpf4jnsgd1na2vs0mg"},{"bike_id":"621d0e2c-eb99-429b-89f1-ffedb1b7afdd","system_id":"levelo_inurba_marseille","lat":43.28261,"lon":5.35078,"is_reserved":false,"is_disabled":false,"rental_uris":{"android":"levelo://app?vid=621d0e2c-eb99-429b-89f1-ffedb1b7afdd","ios":"levelo://app?vid=621d0e2c-eb99-429b-89f1-ffedb1b7afdd"},"vehicle_type_id":"4","last_reported":1750687840,"current_range_meters":6000,"station_id":"ce4bhbp2rcd13ifvqerg","pricing_plan_id":"cebpf4jnsgd1na2vs0mg"},{"bike_id":"1f52d4ba-5452-46ea-abc7-7c193439260d","system_id":"levelo_inurba_marseille","lat":43.25084,"lon":5.39526,"is_reserved":false,"is_disabled":false,"rental_uris":{"android":"levelo://app?vid=1f52d4ba-5452-46ea-abc7-7c193439260d","ios":"levelo://app?vid=1f52d4ba-5452-46ea-abc7-7c193439260d"},"vehicle_type_id":"4","last_reported":1750687840,"current_range_meters":6000,"station_id":"ce4bhm12rcd13ifvqgkg","pricing_plan_id":"cebpf4jnsgd1na2vs0mg"},{"bike_id":"f356a822-bfa1-49d6-8d23-eaf609179a4d","system_id":"levelo_inurba_marseille","lat":43.23145,"lon":5.43723,"is_reserved":false,"is_disabled":false,"rental_uris":{"android":"levelo://app?vid=f356a822-bfa1-49d6-8d23-eaf609179a4d","ios":"levelo://app?vid=f356a822-bfa1-49d6-8d23-eaf609179a4d"},"vehicle_type_id":"4","last_reported":1750687840,"current_range_meters":6000,"station_id":"ce4bhmp2rcd13ifvqgog","pricing_plan_id":"cebpf4jnsgd1na2vs0mg"},{"bike_id":"797e96ee-7ea4-4208-85ec-7f76149d0c44","system_id":"levelo_inurba_marseille","lat":43.29904,"lon":5.43657,"is_reserved":false,"is_disabled":false,"rental_uris":{"android":"levelo://app?vid=797e96ee-7ea4-4208-85ec-7f76149d0c44","ios":"levelo://app?vid=797e96ee-7ea4-4208-85ec-7f76149d0c44"},"vehicle_type_id":"4","last_reported":1750687840,"current_range_meters":6000,"station_id":"ce4bhpp2rcd13ifvqhfg","pricing_plan_id":"cebpf4jnsgd1na2vs0mg"},{"bike_id":"4e359c52-fc82-4956-b3dd-a3d7ea82b38e","system_id":"levelo_inurba_marseille","lat":43.320943,"lon":5.36757,"is_reserved":false,"is_disabled":false,"rental_uris":{"android":"levelo://app?vid=4e359c52-fc82-4956-b3dd-a3d7ea82b38e","ios":"levelo://app?vid=4e359c52-fc82-4956-b3dd-a3d7ea82b38e"},"vehicle_type_id":"4","last_reported":1750687840,"current_range_meters":6000,"station_id":"ce4bhrh2rcd13ifvqhug","pricing_plan_id":"cebpf4jnsgd1na2vs0mg"},{"bike_id":"7259895b-85c7-4133-9112-698931f41c78","system_id":"levelo_inurba_marseille","lat":43.29532,"lon":5.37538,"is_reserved":false,"is_disabled":false,"rental_uris":{"android":"levelo://app?vid=7259895b-85c7-4133-9112-698931f41c78","ios":"levelo://app?vid=7259895b-85c7-4133-9112-698931f41c78"},"vehicle_type_id":"4","last_reported":1750687840,"current_range_meters":6400,"station_id":"ce4bgkp2rcd13ifvqbmg","pricing_plan_id":"cebpf4jnsgd1na2vs0mg"},{"bike_id":"b65c803d-b128-4081-89d0-3438efc1c1dc","system_id":"levelo_inurba_marseille","lat":43.312367,"lon":5.36851,"is_reserved":false,"is_disabled":false,"rental_uris":{"android":"levelo://app?vid=b65c803d-b128-4081-89d0-3438efc1c1dc","ios":"levelo://app?vid=b65c803d-b128-4081-89d0-3438efc1c1dc"},"vehicle_type_id":"4","last_reported":1750687840,"current_range_meters":6400,"station_id":"ce4bgl92rcd13ifvqbq0","pricing_plan_id":"cebpf4jnsgd1na2vs0mg"},{"bike_id":"e00116b5-29ba-45d1-b032-69dbad09bbba","system_id":"levelo_inurba_marseille","lat":43.298997,"lon":5.436671,"is_reserved":false,"is_disabled":false,"rental_uris":{"android":"levelo://app?vid=e00116b5-29ba-45d1-b032-69dbad09bbba","ios":"levelo://app?vid=e00116b5-29ba-45d1-b032-69dbad09bbba"},"vehicle_type_id":"4","last_reported":1750687840,"current_range_meters":6400,"station_id":"ce4bhpp2rcd13ifvqhfg","pricing_plan_id":"cebpf4jnsgd1na2vs0mg"},{"bike_id":"e672c7ab-9539-485a-b360-1e12bbab178b","system_id":"levelo_inurba_marseille","lat":43.30333,"lon":5.43498,"is_reserved":false,"is_disabled":false,"rental_uris":{"android":"levelo://app?vid=e672c7ab-9539-485a-b360-1e12bbab178b","ios":"levelo://app?vid=e672c7ab-9539-485a-b360-1e12bbab178b"},"vehicle_type_id":"4","last_reported":1750687840,"current_range_meters":6800,"station_id":"","pricing_plan_id":"cebpf4jnsgd1na2vs0mg"},{"bike_id":"2918bcfc-3ae7-4e90-b1ca-239f9a284a9c","system_id":"levelo_inurba_marseille","lat":43.30561,"lon":5.39414,"is_reserved":false,"is_disabled":false,"rental_uris":{"android":"levelo://app?vid=2918bcfc-3ae7-4e90-b1ca-239f9a284a9c","ios":"levelo://app?vid=2918bcfc-3ae7-4e90-b1ca-239f9a284a9c"},"vehicle_type_id":"4","last_reported":1750687840,"current_range_meters":6800,"station_id":"","pricing_plan_id":"cebpf4jnsgd1na2vs0mg"},{"bike_id":"2f20e2c6-bc30-42d2-9f93-01aaacad1eb3","system_id":"levelo_inurba_marseille","lat":43.27628,"lon":5.41795,"is_reserved":false,"is_disabled":false,"rental_uris":{"android":"levelo://app?vid=2f20e2c6-bc30-42d2-9f93-01aaacad1eb3","ios":"levelo://app?vid=2f20e2c6-bc30-42d2-9f93-01aaacad1eb3"},"vehicle_type_id":"4","last_reported":1750687840,"current_range_meters":6800,"station_id":"","pricing_plan_id":"cebpf4jnsgd1na2vs0mg"},{"bike_id":"ec1f226c-cac0-4bdf-981b-748363e4d01d","system_id":"levelo_inurba_marseille","lat":43.27376,"lon":5.36257,"is_reserved":false,"is_disabled":false,"rental_uris":{"android":"levelo://app?vid=ec1f226c-cac0-4bdf-981b-748363e4d01d","ios":"levelo://app?vid=ec1f226c-cac0-4bdf-981b-748363e4d01d"},"vehicle_type_id":"4","last_reported":1750687840,"current_range_meters":6800,"station_id":"ce4bhbh2rcd13ifvqeo0","pricing_plan_id":"cebpf4jnsgd1na2vs0mg"},{"bike_id":"efa9657d-3ee1-47d1-a78c-8258bde3487a","system_id":"levelo_inurba_marseille","lat":43.26932,"lon":5.38622,"is_reserved":false,"is_disabled":false,"rental_uris":{"android":"levelo://app?vid=efa9657d-3ee1-47d1-a78c-8258bde3487a","ios":"levelo://app?vid=efa9657d-3ee1-47d1-a78c-8258bde3487a"},"vehicle_type_id":"4","last_reported":1750687840,"current_range_meters":6800,"station_id":"ce4bhh92rcd13ifvqfh0","pricing_plan_id":"cebpf4jnsgd1na2vs0mg"},{"bike_id":"908c6621-7f5d-4c2e-9d8a-35d1d8e732ca","system_id":"levelo_inurba_marseille","lat":43.23963,"lon":5.36631,"is_reserved":false,"is_disabled":false,"rental_uris":{"android":"levelo://app?vid=908c6621-7f5d-4c2e-9d8a-35d1d8e732ca","ios":"levelo://app?vid=908c6621-7f5d-4c2e-9d8a-35d1d8e732ca"},"vehicle_type_id":"4","last_reported":1750687840,"current_range_meters":6800,"station_id":"ce4bhi12rcd13ifvqfp0","pricing_plan_id":"cebpf4jnsgd1na2vs0mg"},{"bike_id":"efab422b-adc2-479b-82ba-7c4158a4c74e","system_id":"levelo_inurba_marseille","lat":43.24085,"lon":5.37756,"is_reserved":false,"is_disabled":false,"rental_uris":{"android":"levelo://app?vid=efab422b-adc2-479b-82ba-7c4158a4c74e","ios":"levelo://app?vid=efab422b-adc2-479b-82ba-7c4158a4c74e"},"vehicle_type_id":"4","last_reported":1750687840,"current_range_meters":6800,"station_id":"ce4bhnp2rcd13ifvqgvg","pricing_plan_id":"cebpf4jnsgd1na2vs0mg"},{"bike_id":"2732cc42-69c3-447e-a99b-baedc39a619e","system_id":"levelo_inurba_marseille","lat":43.32333,"lon":5.40608,"is_reserved":false,"is_disabled":false,"rental_uris":{"android":"levelo://app?vid=2732cc42-69c3-447e-a99b-baedc39a619e","ios":"levelo://app?vid=2732cc42-69c3-447e-a99b-baedc39a619e"},"vehicle_type_id":"4","last_reported":1750687840,"current_range_meters":6800,"station_id":"ce4bhq92rcd13ifvqhjg","pricing_plan_id":"cebpf4jnsgd1na2vs0mg"},{"bike_id":"390bd475-fb91-417c-90cc-e6ca5256b008","system_id":"levelo_inurba_marseille","lat":43.313516,"lon":5.367209,"is_reserved":false,"is_disabled":false,"rental_uris":{"android":"levelo://app?vid=390bd475-fb91-417c-90cc-e6ca5256b008","ios":"levelo://app?vid=390bd475-fb91-417c-90cc-e6ca5256b008"},"vehicle_type_id":"4","last_reported":1750687840,"current_range_meters":7200,"station_id":"ce4bgr92rcd13ifvqc6g","pricing_plan_id":"cebpf4jnsgd1na2vs0mg"},{"bike_id":"fab8a934-65b7-46cc-b609-90e1688b2e99","system_id":"levelo_inurba_marseille","lat":43.295654,"lon":5.399887,"is_reserved":false,"is_disabled":false,"rental_uris":{"android":"levelo://app?vid=fab8a934-65b7-46cc-b609-90e1688b2e99","ios":"levelo://app?vid=fab8a934-65b7-46cc-b609-90e1688b2e99"},"vehicle_type_id":"4","last_reported":1750687840,"current_range_meters":7200,"station_id":"ce4bh312rcd13ifvqdj0","pricing_plan_id":"cebpf4jnsgd1na2vs0mg"},{"bike_id":"90bdc0cd-30b0-4156-b432-d6f618c37cd6","system_id":"levelo_inurba_marseille","lat":43.31712,"lon":5.3778,"is_reserved":false,"is_disabled":false,"rental_uris":{"android":"levelo://app?vid=90bdc0cd-30b0-4156-b432-d6f618c37cd6","ios":"levelo://app?vid=90bdc0cd-30b0-4156-b432-d6f618c37cd6"},"vehicle_type_id":"4","last_reported":1750687840,"current_range_meters":8000,"station_id":"ce4bgth2rcd13ifvqch0","pricing_plan_id":"cebpf4jnsgd1na2vs0mg"},{"bike_id":"628cd271-9659-4214-b008-65386804d519","system_id":"levelo_inurba_marseille","lat":43.24809,"lon":5.37472,"is_reserved":false,"is_disabled":false,"rental_uris":{"android":"levelo://app?vid=628cd271-9659-4214-b008-65386804d519","ios":"levelo://app?vid=628cd271-9659-4214-b008-65386804d519"},"vehicle_type_id":"4","last_reported":1750687840,"current_range_meters":8000,"station_id":"ce4bhgh2rcd13ifvqfb0","pricing_plan_id":"cebpf4jnsgd1na2vs0mg"},{"bike_id":"2cf44482-c2e9-4399-a95b-5342854cd1d9","system_id":"levelo_inurba_marseille","lat":43.33635,"lon":5.41034,"is_reserved":false,"is_disabled":false,"rental_uris":{"android":"levelo://app?vid=2cf44482-c2e9-4399-a95b-5342854cd1d9","ios":"levelo://app?vid=2cf44482-c2e9-4399-a95b-5342854cd1d9"},"vehicle_type_id":"4","last_reported":1750687840,"current_range_meters":8000,"station_id":"ce4bhqh2rcd13ifvqhmg","pricing_plan_id":"cebpf4jnsgd1na2vs0mg"},{"bike_id":"f66a6e34-c553-4ffc-a010-eca73da9f571","system_id":"levelo_inurba_marseille","lat":43.28063,"lon":5.39924,"is_reserved":false,"is_disabled":false,"rental_uris":{"android":"levelo://app?vid=f66a6e34-c553-4ffc-a010-eca73da9f571","ios":"levelo://app?vid=f66a6e34-c553-4ffc-a010-eca73da9f571"},"vehicle_type_id":"4","last_reported":1750687840,"current_range_meters":8400,"station_id":"","pricing_plan_id":"cebpf4jnsgd1na2vs0mg"},{"bike_id":"6a305ad9-c045-472c-abab-e326a968ba11","system_id":"levelo_inurba_marseille","lat":43.28257,"lon":5.35108,"is_reserved":false,"is_disabled":false,"rental_uris":{"android":"levelo://app?vid=6a305ad9-c045-472c-abab-e326a968ba11","ios":"levelo://app?vid=6a305ad9-c045-472c-abab-e326a968ba11"},"vehicle_type_id":"4","last_reported":1750687840,"current_range_meters":8400,"station_id":"ce4bhbp2rcd13ifvqerg","pricing_plan_id":"cebpf4jnsgd1na2vs0mg"},{"bike_id":"36c8ba3c-4752-4ea3-bd36-d1735f85c6e9","system_id":"levelo_inurba_marseille","lat":43.31524,"lon":5.38037,"is_reserved":false,"is_disabled":false,"rental_uris":{"android":"levelo://app?vid=36c8ba3c-4752-4ea3-bd36-d1735f85c6e9","ios":"levelo://app?vid=36c8ba3c-4752-4ea3-bd36-d1735f85c6e9"},"vehicle_type_id":"4","last_reported":1750687840,"current_range_meters":8400,"station_id":"ce4bhsp2rcd13ifvqi50","pricing_plan_id":"cebpf4jnsgd1na2vs0mg"},{"bike_id":"0dd3a91e-3793-4e3b-b5a4-071e38d87a0f","system_id":"levelo_inurba_marseille","lat":43.21187,"lon":5.35071,"is_reserved":false,"is_disabled":false,"rental_uris":{"android":"levelo://app?vid=0dd3a91e-3793-4e3b-b5a4-071e38d87a0f","ios":"levelo://app?vid=0dd3a91e-3793-4e3b-b5a4-071e38d87a0f"},"vehicle_type_id":"4","last_reported":1750687840,"current_range_meters":8400,"station_id":"st_cvj6sg6p6f1abm77japg","pricing_plan_id":"cebpf4jnsgd1na2vs0mg"},{"bike_id":"8c6de0c1-9eaf-4c18-8155-d956789067ae","system_id":"levelo_inurba_marseille","lat":43.27974,"lon":5.44317,"is_reserved":false,"is_disabled":false,"rental_uris":{"android":"levelo://app?vid=8c6de0c1-9eaf-4c18-8155-d956789067ae","ios":"levelo://app?vid=8c6de0c1-9eaf-4c18-8155-d956789067ae"},"vehicle_type_id":"4","last_reported":1750687840,"current_range_meters":8800,"station_id":"","pricing_plan_id":"cebpf4jnsgd1na2vs0mg"},{"bike_id":"a9e5e555-fdaf-49c0-b286-f0f2659b17d0","system_id":"levelo_inurba_marseille","lat":43.28347,"lon":5.43247,"is_reserved":false,"is_disabled":false,"rental_uris":{"android":"levelo://app?vid=a9e5e555-fdaf-49c0-b286-f0f2659b17d0","ios":"levelo://app?vid=a9e5e555-fdaf-49c0-b286-f0f2659b17d0"},"vehicle_type_id":"4","last_reported":1750687840,"current_range_meters":8800,"station_id":"","pricing_plan_id":"cebpf4jnsgd1na2vs0mg"},{"bike_id":"8ce8f9e4-a75b-4ada-b28b-582786b94197","system_id":"levelo_inurba_marseille","lat":43.29859,"lon":5.37686,"is_reserved":false,"is_disabled":false,"rental_uris":{"android":"levelo://app?vid=8ce8f9e4-a75b-4ada-b28b-582786b94197","ios":"levelo://app?vid=8ce8f9e4-a75b-4ada-b28b-582786b94197"},"vehicle_type_id":"4","last_reported":1750687840,"current_range_meters":8800,"station_id":"","pricing_plan_id":"cebpf4jnsgd1na2vs0mg"},{"bike_id":"00db048b-f3ac-4711-917a-c59681faac25","system_id":"levelo_inurba_marseille","lat":43.29904,"lon":5.37482,"is_reserved":false,"is_disabled":false,"rental_uris":{"android":"levelo://app?vid=00db048b-f3ac-4711-917a-c59681faac25","ios":"levelo://app?vid=00db048b-f3ac-4711-917a-c59681faac25"},"vehicle_type_id":"4","last_reported":1750687840,"current_range_meters":8800,"station_id":"ce4bgjh2rcd13ifvqbg0","pricing_plan_id":"cebpf4jnsgd1na2vs0mg"},{"bike_id":"7a044cdd-bdd3-419c-a6b3-763cce4bba7d","system_id":"levelo_inurba_marseille","lat":43.30792,"lon":5.38153,"is_reserved":false,"is_disabled":false,"rental_uris":{"android":"levelo://app?vid=7a044cdd-bdd3-419c-a6b3-763cce4bba7d","ios":"levelo://app?vid=7a044cdd-bdd3-419c-a6b3-763cce4bba7d"},"vehicle_type_id":"4","last_reported":1750687840,"current_range_meters":8800,"station_id":"ce4bgt12rcd13ifvqce0","pricing_plan_id":"cebpf4jnsgd1na2vs0mg"},{"bike_id":"504e3055-dd1e-450d-9150-85a5819446f7","system_id":"levelo_inurba_marseille","lat":43.30319,"lon":5.40446,"is_reserved":false,"is_disabled":false,"rental_uris":{"android":"levelo://app?vid=504e3055-dd1e-450d-9150-85a5819446f7","ios":"levelo://app?vid=504e3055-dd1e-450d-9150-85a5819446f7"},"vehicle_type_id":"4","last_reported":1750687840,"current_range_meters":8800,"station_id":"ce4bh012rcd13ifvqd10","pricing_plan_id":"cebpf4jnsgd1na2vs0mg"},{"bike_id":"a433f69e-b33e-4d91-bc3e-5fa3aaf9fc8c","system_id":"levelo_inurba_marseille","lat":43.29267,"lon":5.36845,"is_reserved":false,"is_disabled":false,"rental_uris":{"android":"levelo://app?vid=a433f69e-b33e-4d91-bc3e-5fa3aaf9fc8c","ios":"levelo://app?vid=a433f69e-b33e-4d91-bc3e-5fa3aaf9fc8c"},"vehicle_type_id":"4","last_reported":1750687840,"current_range_meters":8800,"station_id":"ce4bhbp2rcd13ifvqesg","pricing_plan_id":"cebpf4jnsgd1na2vs0mg"},{"bike_id":"702dbc80-b65b-4b22-bcff-2528e9afc76b","system_id":"levelo_inurba_marseille","lat":43.28613,"lon":5.35111,"is_reserved":false,"is_disabled":false,"rental_uris":{"android":"levelo://app?vid=702dbc80-b65b-4b22-bcff-2528e9afc76b","ios":"levelo://app?vid=702dbc80-b65b-4b22-bcff-2528e9afc76b"},"vehicle_type_id":"4","last_reported":1750687840,"current_range_meters":8800,"station_id":"ce4bhch2rcd13ifvqeug","pricing_plan_id":"cebpf4jnsgd1na2vs0mg"},{"bike_id":"8d197929-9fd5-4312-a5f7-b6d7fc6475a8","system_id":"levelo_inurba_marseille","lat":43.23508,"lon":5.35997,"is_reserved":false,"is_disabled":false,"rental_uris":{"android":"levelo://app?vid=8d197929-9fd5-4312-a5f7-b6d7fc6475a8","ios":"levelo://app?vid=8d197929-9fd5-4312-a5f7-b6d7fc6475a8"},"vehicle_type_id":"4","last_reported":1750687840,"current_range_meters":9200,"station_id":"","pricing_plan_id":"cebpf4jnsgd1na2vs0mg"},{"bike_id":"c35f1469-6975-4dfe-932a-86edbe01a878","system_id":"levelo_inurba_marseille","lat":43.29183,"lon":5.37519,"is_reserved":false,"is_disabled":false,"rental_uris":{"android":"levelo://app?vid=c35f1469-6975-4dfe-932a-86edbe01a878","ios":"levelo://app?vid=c35f1469-6975-4dfe-932a-86edbe01a878"},"vehicle_type_id":"4","last_reported":1750687840,"current_range_meters":9200,"station_id":"","pricing_plan_id":"cebpf4jnsgd1na2vs0mg"},{"bike_id":"3a28251d-0250-4373-b769-a417e43f09f1","system_id":"levelo_inurba_marseille","lat":43.30532,"lon":5.36533,"is_reserved":false,"is_disabled":false,"rental_uris":{"android":"levelo://app?vid=3a28251d-0250-4373-b769-a417e43f09f1","ios":"levelo://app?vid=3a28251d-0250-4373-b769-a417e43f09f1"},"vehicle_type_id":"4","last_reported":1750687840,"current_range_meters":9200,"station_id":"ce4bgs12rcd13ifvqcag","pricing_plan_id":"cebpf4jnsgd1na2vs0mg"},{"bike_id":"e583696a-868d-4576-a288-dcf678e45501","system_id":"levelo_inurba_marseille","lat":43.24373,"lon":5.37078,"is_reserved":false,"is_disabled":false,"rental_uris":{"android":"levelo://app?vid=e583696a-868d-4576-a288-dcf678e45501","ios":"levelo://app?vid=e583696a-868d-4576-a288-dcf678e45501"},"vehicle_type_id":"4","last_reported":1750687840,"current_range_meters":9200,"station_id":"ce4bhhh2rcd13ifvqfk0","pricing_plan_id":"cebpf4jnsgd1na2vs0mg"},{"bike_id":"13920610-105c-40f8-a4a7-1e8529941564","system_id":"levelo_inurba_marseille","lat":43.25917,"lon":5.40883,"is_reserved":false,"is_disabled":false,"rental_uris":{"android":"levelo://app?vid=13920610-105c-40f8-a4a7-1e8529941564","ios":"levelo://app?vid=13920610-105c-40f8-a4a7-1e8529941564"},"vehicle_type_id":"4","last_reported":1750687840,"current_range_meters":9200,"station_id":"ce4bhm92rcd13ifvqglg","pricing_plan_id":"cebpf4jnsgd1na2vs0mg"},{"bike_id":"f10e38ce-c08a-4001-873a-ec3e8846285a","system_id":"levelo_inurba_marseille","lat":43.329213,"lon":5.380427,"is_reserved":false,"is_disabled":false,"rental_uris":{"android":"levelo://app?vid=f10e38ce-c08a-4001-873a-ec3e8846285a","ios":"levelo://app?vid=f10e38ce-c08a-4001-873a-ec3e8846285a"},"vehicle_type_id":"4","last_reported":1750687840,"current_range_meters":9600,"station_id":"","pricing_plan_id":"cebpf4jnsgd1na2vs0mg"},{"bike_id":"f821aa9e-8618-4035-a6a4-a18998cdd785","system_id":"levelo_inurba_marseille","lat":43.29845,"lon":5.36272,"is_reserved":false,"is_disabled":false,"rental_uris":{"android":"levelo://app?vid=f821aa9e-8618-4035-a6a4-a18998cdd785","ios":"levelo://app?vid=f821aa9e-8618-4035-a6a4-a18998cdd785"},"vehicle_type_id":"4","last_reported":1750687840,"current_range_meters":9600,"station_id":"ce4bgpp2rcd13ifvqc3g","pricing_plan_id":"cebpf4jnsgd1na2vs0mg"},{"bike_id":"40c7e2cb-7437-479f-877f-3882fdf03a01","system_id":"levelo_inurba_marseille","lat":43.28041,"lon":5.36953,"is_reserved":false,"is_disabled":false,"rental_uris":{"android":"levelo://app?vid=40c7e2cb-7437-479f-877f-3882fdf03a01","ios":"levelo://app?vid=40c7e2cb-7437-479f-877f-3882fdf03a01"},"vehicle_type_id":"4","last_reported":1750687840,"current_range_meters":9600,"station_id":"ce4bha12rcd13ifvqef0","pricing_plan_id":"cebpf4jnsgd1na2vs0mg"},{"bike_id":"79a5989f-a8df-4cbd-b558-8784499b9b58","system_id":"levelo_inurba_marseille","lat":43.28615,"lon":5.35104,"is_reserved":false,"is_disabled":false,"rental_uris":{"android":"levelo://app?vid=79a5989f-a8df-4cbd-b558-8784499b9b58","ios":"levelo://app?vid=79a5989f-a8df-4cbd-b558-8784499b9b58"},"vehicle_type_id":"4","last_reported":1750687840,"current_range_meters":9600,"station_id":"ce4bhch2rcd13ifvqeug","pricing_plan_id":"cebpf4jnsgd1na2vs0mg"},{"bike_id":"d0355270-d04c-4910-acd5-96415de64e67","system_id":"levelo_inurba_marseille","lat":43.33726,"lon":5.39172,"is_reserved":false,"is_disabled":false,"rental_uris":{"android":"levelo://app?vid=d0355270-d04c-4910-acd5-96415de64e67","ios":"levelo://app?vid=d0355270-d04c-4910-acd5-96415de64e67"},"vehicle_type_id":"4","last_reported":1750687840,"current_range_meters":9600,"station_id":"ce4bhr92rcd13ifvqhsg","pricing_plan_id":"cebpf4jnsgd1na2vs0mg"},{"bike_id":"008ac6e0-b1cf-4c53-9fc8-3bdb2303addb","system_id":"levelo_inurba_marseille","lat":43.2906,"lon":5.39043,"is_reserved":false,"is_disabled":false,"rental_uris":{"android":"levelo://app?vid=008ac6e0-b1cf-4c53-9fc8-3bdb2303addb","ios":"levelo://app?vid=008ac6e0-b1cf-4c53-9fc8-3bdb2303addb"},"vehicle_type_id":"4","last_reported":1750687840,"current_range_meters":10000,"station_id":"","pricing_plan_id":"cebpf4jnsgd1na2vs0mg"},{"bike_id":"70764641-799a-4261-99bd-903918c1b74a","system_id":"levelo_inurba_marseille","lat":43.32887,"lon":5.38326,"is_reserved":false,"is_disabled":false,"rental_uris":{"android":"levelo://app?vid=70764641-799a-4261-99bd-903918c1b74a","ios":"levelo://app?vid=70764641-799a-4261-99bd-903918c1b74a"},"vehicle_type_id":"4","last_reported":1750687840,"current_range_meters":10000,"station_id":"","pricing_plan_id":"cebpf4jnsgd1na2vs0mg"},{"bike_id":"0d85428d-9e2a-4b5c-b5b5-81efb9c627b7","system_id":"levelo_inurba_marseille","lat":43.31239,"lon":5.36909,"is_reserved":false,"is_disabled":false,"rental_uris":{"android":"levelo://app?vid=0d85428d-9e2a-4b5c-b5b5-81efb9c627b7","ios":"levelo://app?vid=0d85428d-9e2a-4b5c-b5b5-81efb9c627b7"},"vehicle_type_id":"4","last_reported":1750687840,"current_range_meters":10000,"station_id":"ce4bgl92rcd13ifvqbq0","pricing_plan_id":"cebpf4jnsgd1na2vs0mg"},{"bike_id":"a81bb845-3c69-4e60-b96a-9ec7765d8b44","system_id":"levelo_inurba_marseille","lat":43.31356,"lon":5.3674,"is_reserved":false,"is_disabled":false,"rental_uris":{"android":"levelo://app?vid=a81bb845-3c69-4e60-b96a-9ec7765d8b44","ios":"levelo://app?vid=a81bb845-3c69-4e60-b96a-9ec7765d8b44"},"vehicle_type_id":"4","last_reported":1750687840,"current_range_meters":10000,"station_id":"ce4bgr92rcd13ifvqc6g","pricing_plan_id":"cebpf4jnsgd1na2vs0mg"},{"bike_id":"af014a0b-1a83-4ba7-a4ed-25e17737a42e","system_id":"levelo_inurba_marseille","lat":43.31113,"lon":5.37765,"is_reserved":false,"is_disabled":false,"rental_uris":{"android":"levelo://app?vid=af014a0b-1a83-4ba7-a4ed-25e17737a42e","ios":"levelo://app?vid=af014a0b-1a83-4ba7-a4ed-25e17737a42e"},"vehicle_type_id":"4","last_reported":1750687840,"current_range_meters":10000,"station_id":"ce4bgt92rcd13ifvqcg0","pricing_plan_id":"cebpf4jnsgd1na2vs0mg"},{"bike_id":"6561b88d-7066-4f26-a7b1-fd526a1ad570","system_id":"levelo_inurba_marseille","lat":43.30472,"lon":5.37897,"is_reserved":false,"is_disabled":false,"rental_uris":{"android":"levelo://app?vid=6561b88d-7066-4f26-a7b1-fd526a1ad570","ios":"levelo://app?vid=6561b88d-7066-4f26-a7b1-fd526a1ad570"},"vehicle_type_id":"4","last_reported":1750687840,"current_range_meters":10000,"station_id":"ce4bgup2rcd13ifvqcn0","pricing_plan_id":"cebpf4jnsgd1na2vs0mg"},{"bike_id":"55b6c2dc-b7db-476c-b842-cecfcf0069df","system_id":"levelo_inurba_marseille","lat":43.26548,"lon":5.37294,"is_reserved":false,"is_disabled":false,"rental_uris":{"android":"levelo://app?vid=55b6c2dc-b7db-476c-b842-cecfcf0069df","ios":"levelo://app?vid=55b6c2dc-b7db-476c-b842-cecfcf0069df"},"vehicle_type_id":"4","last_reported":1750687840,"current_range_meters":10000,"station_id":"ce4bhg12rcd13ifvqf70","pricing_plan_id":"cebpf4jnsgd1na2vs0mg"},{"bike_id":"ad493fb3-a825-4f89-a635-4be1c1102b11","system_id":"levelo_inurba_marseille","lat":43.29849,"lon":5.37649,"is_reserved":false,"is_disabled":false,"rental_uris":{"android":"levelo://app?vid=ad493fb3-a825-4f89-a635-4be1c1102b11","ios":"levelo://app?vid=ad493fb3-a825-4f89-a635-4be1c1102b11"},"vehicle_type_id":"4","last_reported":1750687840,"current_range_meters":10800,"station_id":"","pricing_plan_id":"cebpf4jnsgd1na2vs0mg"},{"bike_id":"2268bcb3-3c65-4d11-bcd7-b28e8db4f050","system_id":"levelo_inurba_marseille","lat":43.30889,"lon":5.39645,"is_reserved":false,"is_disabled":false,"rental_uris":{"android":"levelo://app?vid=2268bcb3-3c65-4d11-bcd7-b28e8db4f050","ios":"levelo://app?vid=2268bcb3-3c65-4d11-bcd7-b28e8db4f050"},"vehicle_type_id":"4","last_reported":1750687840,"current_range_meters":10800,"station_id":"ce4bh012rcd13ifvqcv0","pricing_plan_id":"cebpf4jnsgd1na2vs0mg"},{"bike_id":"cad7de69-72bd-4004-81d8-d7a315c6ceba","system_id":"levelo_inurba_marseille","lat":43.26564,"lon":5.3903,"is_reserved":false,"is_disabled":false,"rental_uris":{"android":"levelo://app?vid=cad7de69-72bd-4004-81d8-d7a315c6ceba","ios":"levelo://app?vid=cad7de69-72bd-4004-81d8-d7a315c6ceba"},"vehicle_type_id":"4","last_reported":1750687840,"current_range_meters":10800,"station_id":"ce4bhe12rcd13ifvqf30","pricing_plan_id":"cebpf4jnsgd1na2vs0mg"},{"bike_id":"a9223fb5-aee0-46cb-bc8e-98d772760742","system_id":"levelo_inurba_marseille","lat":43.26207,"lon":5.37473,"is_reserved":false,"is_disabled":false,"rental_uris":{"android":"levelo://app?vid=a9223fb5-aee0-46cb-bc8e-98d772760742","ios":"levelo://app?vid=a9223fb5-aee0-46cb-bc8e-98d772760742"},"vehicle_type_id":"4","last_reported":1750687840,"current_range_meters":10800,"station_id":"ce4bhgp2rcd13ifvqfc0","pricing_plan_id":"cebpf4jnsgd1na2vs0mg"},{"bike_id":"0ac24836-1209-412c-b20f-55d51ce07651","system_id":"levelo_inurba_marseille","lat":43.30797,"lon":5.43545,"is_reserved":false,"is_disabled":false,"rental_uris":{"android":"levelo://app?vid=0ac24836-1209-412c-b20f-55d51ce07651","ios":"levelo://app?vid=0ac24836-1209-412c-b20f-55d51ce07651"},"vehicle_type_id":"4","last_reported":1750687840,"current_range_meters":10800,"station_id":"ce4bhph2rcd13ifvqheg","pricing_plan_id":"cebpf4jnsgd1na2vs0mg"},{"bike_id":"cd74af28-79fa-44d7-bfb3-a63961abcf07","system_id":"levelo_inurba_marseille","lat":43.34167,"lon":5.40913,"is_reserved":false,"is_disabled":false,"rental_uris":{"android":"levelo://app?vid=cd74af28-79fa-44d7-bfb3-a63961abcf07","ios":"levelo://app?vid=cd74af28-79fa-44d7-bfb3-a63961abcf07"},"vehicle_type_id":"4","last_reported":1750687840,"current_range_meters":10800,"station_id":"ce4bhqh2rcd13ifvqhlg","pricing_plan_id":"cebpf4jnsgd1na2vs0mg"},{"bike_id":"b121b815-4832-48cb-be5c-48bedc9fea93","system_id":"levelo_inurba_marseille","lat":43.256798,"lon":5.409633,"is_reserved":false,"is_disabled":false,"rental_uris":{"android":"levelo://app?vid=b121b815-4832-48cb-be5c-48bedc9fea93","ios":"levelo://app?vid=b121b815-4832-48cb-be5c-48bedc9fea93"},"vehicle_type_id":"4","last_reported":1750687840,"current_range_meters":11200,"station_id":"","pricing_plan_id":"cebpf4jnsgd1na2vs0mg"},{"bike_id":"7bcb5c0f-2e10-40f3-a3d4-1a69fa0c94d9","system_id":"levelo_inurba_marseille","lat":43.24409,"lon":5.37103,"is_reserved":false,"is_disabled":false,"rental_uris":{"android":"levelo://app?vid=7bcb5c0f-2e10-40f3-a3d4-1a69fa0c94d9","ios":"levelo://app?vid=7bcb5c0f-2e10-40f3-a3d4-1a69fa0c94d9"},"vehicle_type_id":"4","last_reported":1750687840,"current_range_meters":11200,"station_id":"ce4bhhh2rcd13ifvqfk0","pricing_plan_id":"cebpf4jnsgd1na2vs0mg"},{"bike_id":"d5380462-5555-4147-86a8-6996c68f5bfe","system_id":"levelo_inurba_marseille","lat":43.2781,"lon":5.40705,"is_reserved":false,"is_disabled":false,"rental_uris":{"android":"levelo://app?vid=d5380462-5555-4147-86a8-6996c68f5bfe","ios":"levelo://app?vid=d5380462-5555-4147-86a8-6996c68f5bfe"},"vehicle_type_id":"4","last_reported":1750687840,"current_range_meters":11200,"station_id":"ce4bhnh2rcd13ifvqgtg","pricing_plan_id":"cebpf4jnsgd1na2vs0mg"},{"bike_id":"66f943d8-9eae-4657-b66f-697b45638bfe","system_id":"levelo_inurba_marseille","lat":43.32118,"lon":5.36801,"is_reserved":false,"is_disabled":false,"rental_uris":{"android":"levelo://app?vid=66f943d8-9eae-4657-b66f-697b45638bfe","ios":"levelo://app?vid=66f943d8-9eae-4657-b66f-697b45638bfe"},"vehicle_type_id":"4","last_reported":1750687840,"current_range_meters":11200,"station_id":"ce4bhrh2rcd13ifvqhug","pricing_plan_id":"cebpf4jnsgd1na2vs0mg"},{"bike_id":"dcb881bc-3243-46bf-9708-9904614a9a14","system_id":"levelo_inurba_marseille","lat":43.32375,"lon":5.36768,"is_reserved":false,"is_disabled":false,"rental_uris":{"android":"levelo://app?vid=dcb881bc-3243-46bf-9708-9904614a9a14","ios":"levelo://app?vid=dcb881bc-3243-46bf-9708-9904614a9a14"},"vehicle_type_id":"4","last_reported":1750687840,"current_range_meters":11200,"station_id":"ce4bhsh2rcd13ifvqi2g","pricing_plan_id":"cebpf4jnsgd1na2vs0mg"},{"bike_id":"ebe7f221-44c9-42e5-afb1-9c52cc40414f","system_id":"levelo_inurba_marseille","lat":43.32353,"lon":5.36749,"is_reserved":false,"is_disabled":false,"rental_uris":{"android":"levelo://app?vid=ebe7f221-44c9-42e5-afb1-9c52cc40414f","ios":"levelo://app?vid=ebe7f221-44c9-42e5-afb1-9c52cc40414f"},"vehicle_type_id":"4","last_reported":1750687840,"current_range_meters":11200,"station_id":"ce4bhsh2rcd13ifvqi2g","pricing_plan_id":"cebpf4jnsgd1na2vs0mg"},{"bike_id":"bacc9864-06f7-4e1c-b403-88c23eeb6d09","system_id":"levelo_inurba_marseille","lat":43.31326,"lon":5.3673,"is_reserved":false,"is_disabled":false,"rental_uris":{"android":"levelo://app?vid=bacc9864-06f7-4e1c-b403-88c23eeb6d09","ios":"levelo://app?vid=bacc9864-06f7-4e1c-b403-88c23eeb6d09"},"vehicle_type_id":"4","last_reported":1750687840,"current_range_meters":11600,"station_id":"ce4bgr92rcd13ifvqc6g","pricing_plan_id":"cebpf4jnsgd1na2vs0mg"},{"bike_id":"f0ca8935-9caf-4fee-b501-54d6eb7c1c61","system_id":"levelo_inurba_marseille","lat":43.27565,"lon":5.38421,"is_reserved":false,"is_disabled":false,"rental_uris":{"android":"levelo://app?vid=f0ca8935-9caf-4fee-b501-54d6eb7c1c61","ios":"levelo://app?vid=f0ca8935-9caf-4fee-b501-54d6eb7c1c61"},"vehicle_type_id":"4","last_reported":1750687840,"current_range_meters":11600,"station_id":"ce4bhh92rcd13ifvqfi0","pricing_plan_id":"cebpf4jnsgd1na2vs0mg"},{"bike_id":"bc154c26-bb3b-4607-8c6e-c6073494abba","system_id":"levelo_inurba_marseille","lat":43.31715,"lon":5.4371,"is_reserved":false,"is_disabled":false,"rental_uris":{"android":"levelo://app?vid=bc154c26-bb3b-4607-8c6e-c6073494abba","ios":"levelo://app?vid=bc154c26-bb3b-4607-8c6e-c6073494abba"},"vehicle_type_id":"4","last_reported":1750687840,"current_range_meters":11600,"station_id":"ce4bhp92rcd13ifvqhcg","pricing_plan_id":"cebpf4jnsgd1na2vs0mg"},{"bike_id":"c903e63d-2b4e-468e-bdbb-44bc2c3ee4be","system_id":"levelo_inurba_marseille","lat":43.21189,"lon":5.35104,"is_reserved":false,"is_disabled":false,"rental_uris":{"android":"levelo://app?vid=c903e63d-2b4e-468e-bdbb-44bc2c3ee4be","ios":"levelo://app?vid=c903e63d-2b4e-468e-bdbb-44bc2c3ee4be"},"vehicle_type_id":"4","last_reported":1750687840,"current_range_meters":11600,"station_id":"st_cvj6sg6p6f1abm77japg","pricing_plan_id":"cebpf4jnsgd1na2vs0mg"},{"bike_id":"43ab9605-86b4-46f7-9744-be17755fad64","system_id":"levelo_inurba_marseille","lat":43.30124,"lon":5.39878,"is_reserved":false,"is_disabled":false,"rental_uris":{"android":"levelo://app?vid=43ab9605-86b4-46f7-9744-be17755fad64","ios":"levelo://app?vid=43ab9605-86b4-46f7-9744-be17755fad64"},"vehicle_type_id":"4","last_reported":1750687840,"current_range_meters":12000,"station_id":"ce4bh0h2rcd13ifvqd40","pricing_plan_id":"cebpf4jnsgd1na2vs0mg"},{"bike_id":"c42ba187-385b-448c-a57d-2e9d9f4f3c6d","system_id":"levelo_inurba_marseille","lat":43.337444,"lon":5.374475,"is_reserved":false,"is_disabled":false,"rental_uris":{"android":"levelo://app?vid=c42ba187-385b-448c-a57d-2e9d9f4f3c6d","ios":"levelo://app?vid=c42ba187-385b-448c-a57d-2e9d9f4f3c6d"},"vehicle_type_id":"4","last_reported":1750687840,"current_range_meters":12000,"station_id":"ce4bho12rcd13ifvqh2g","pricing_plan_id":"cebpf4jnsgd1na2vs0mg"},{"bike_id":"99c5813d-660e-4826-8197-aeb2710801e5","system_id":"levelo_inurba_marseille","lat":43.29884,"lon":5.36547,"is_reserved":false,"is_disabled":false,"rental_uris":{"android":"levelo://app?vid=99c5813d-660e-4826-8197-aeb2710801e5","ios":"levelo://app?vid=99c5813d-660e-4826-8197-aeb2710801e5"},"vehicle_type_id":"4","last_reported":1750687840,"current_range_meters":12400,"station_id":"","pricing_plan_id":"cebpf4jnsgd1na2vs0mg"},{"bike_id":"a310f4f6-fbbc-4b8a-8b94-afa74b9c4e81","system_id":"levelo_inurba_marseille","lat":43.27493,"lon":5.4245,"is_reserved":false,"is_disabled":false,"rental_uris":{"android":"levelo://app?vid=a310f4f6-fbbc-4b8a-8b94-afa74b9c4e81","ios":"levelo://app?vid=a310f4f6-fbbc-4b8a-8b94-afa74b9c4e81"},"vehicle_type_id":"4","last_reported":1750687840,"current_range_meters":12400,"station_id":"ce4bhn92rcd13ifvqgrg","pricing_plan_id":"cebpf4jnsgd1na2vs0mg"},{"bike_id":"9a92f04c-8580-45e6-8177-eef468f86f11","system_id":"levelo_inurba_marseille","lat":43.32386,"lon":5.36775,"is_reserved":false,"is_disabled":false,"rental_uris":{"android":"levelo://app?vid=9a92f04c-8580-45e6-8177-eef468f86f11","ios":"levelo://app?vid=9a92f04c-8580-45e6-8177-eef468f86f11"},"vehicle_type_id":"4","last_reported":1750687840,"current_range_meters":12400,"station_id":"ce4bhsh2rcd13ifvqi2g","pricing_plan_id":"cebpf4jnsgd1na2vs0mg"},{"bike_id":"723f5d56-ac33-4c94-8bb8-ee4c6dc93f60","system_id":"levelo_inurba_marseille","lat":43.229371,"lon":5.353806,"is_reserved":false,"is_disabled":false,"rental_uris":{"android":"levelo://app?vid=723f5d56-ac33-4c94-8bb8-ee4c6dc93f60","ios":"levelo://app?vid=723f5d56-ac33-4c94-8bb8-ee4c6dc93f60"},"vehicle_type_id":"4","last_reported":1750687840,"current_range_meters":12400,"station_id":"cpo3532slgdg3j2ikp40","pricing_plan_id":"cebpf4jnsgd1na2vs0mg"},{"bike_id":"e8eec57c-002f-4f65-9689-b5be0057196c","system_id":"levelo_inurba_marseille","lat":43.29783,"lon":5.38111,"is_reserved":false,"is_disabled":false,"rental_uris":{"android":"levelo://app?vid=e8eec57c-002f-4f65-9689-b5be0057196c","ios":"levelo://app?vid=e8eec57c-002f-4f65-9689-b5be0057196c"},"vehicle_type_id":"4","last_reported":1750687840,"current_range_meters":12800,"station_id":"ce4bgip2rcd13ifvqbb0","pricing_plan_id":"cebpf4jnsgd1na2vs0mg"},{"bike_id":"d41995ee-ca88-439c-bfd3-696138810392","system_id":"levelo_inurba_marseille","lat":43.30551,"lon":5.36558,"is_reserved":false,"is_disabled":false,"rental_uris":{"android":"levelo://app?vid=d41995ee-ca88-439c-bfd3-696138810392","ios":"levelo://app?vid=d41995ee-ca88-439c-bfd3-696138810392"},"vehicle_type_id":"4","last_reported":1750687840,"current_range_meters":12800,"station_id":"ce4bgs12rcd13ifvqcag","pricing_plan_id":"cebpf4jnsgd1na2vs0mg"},{"bike_id":"4f5e0230-cfdb-4456-a0a4-f08743b0b924","system_id":"levelo_inurba_marseille","lat":43.2994,"lon":5.36557,"is_reserved":false,"is_disabled":false,"rental_uris":{"android":"levelo://app?vid=4f5e0230-cfdb-4456-a0a4-f08743b0b924","ios":"levelo://app?vid=4f5e0230-cfdb-4456-a0a4-f08743b0b924"},"vehicle_type_id":"4","last_reported":1750687840,"current_range_meters":13600,"station_id":"ce4bgm92rcd13ifvqbr0","pricing_plan_id":"cebpf4jnsgd1na2vs0mg"},{"bike_id":"33eaa518-1370-464c-b946-12fbbb19eb02","system_id":"levelo_inurba_marseille","lat":43.303182,"lon":5.404425,"is_reserved":false,"is_disabled":false,"rental_uris":{"android":"levelo://app?vid=33eaa518-1370-464c-b946-12fbbb19eb02","ios":"levelo://app?vid=33eaa518-1370-464c-b946-12fbbb19eb02"},"vehicle_type_id":"4","last_reported":1750687840,"current_range_meters":13600,"station_id":"ce4bh012rcd13ifvqd10","pricing_plan_id":"cebpf4jnsgd1na2vs0mg"},{"bike_id":"91a32001-0a0e-41ee-ae0b-c83cad9a04f7","system_id":"levelo_inurba_marseille","lat":43.27053,"lon":5.40259,"is_reserved":false,"is_disabled":false,"rental_uris":{"android":"levelo://app?vid=91a32001-0a0e-41ee-ae0b-c83cad9a04f7","ios":"levelo://app?vid=91a32001-0a0e-41ee-ae0b-c83cad9a04f7"},"vehicle_type_id":"4","last_reported":1750687840,"current_range_meters":13600,"station_id":"ce4bhk92rcd13ifvqgc0","pricing_plan_id":"cebpf4jnsgd1na2vs0mg"},{"bike_id":"71d1b8fb-770b-4bbc-a79c-9143e950261c","system_id":"levelo_inurba_marseille","lat":43.27169,"lon":5.40988,"is_reserved":false,"is_disabled":false,"rental_uris":{"android":"levelo://app?vid=71d1b8fb-770b-4bbc-a79c-9143e950261c","ios":"levelo://app?vid=71d1b8fb-770b-4bbc-a79c-9143e950261c"},"vehicle_type_id":"4","last_reported":1750687840,"current_range_meters":13600,"station_id":"ce4bhl12rcd13ifvqgf0","pricing_plan_id":"cebpf4jnsgd1na2vs0mg"},{"bike_id":"5922a1a4-c60f-4430-8bce-56f5d3cd1178","system_id":"levelo_inurba_marseille","lat":43.32055,"lon":5.41556,"is_reserved":false,"is_disabled":false,"rental_uris":{"android":"levelo://app?vid=5922a1a4-c60f-4430-8bce-56f5d3cd1178","ios":"levelo://app?vid=5922a1a4-c60f-4430-8bce-56f5d3cd1178"},"vehicle_type_id":"4","last_reported":1750687840,"current_range_meters":13600,"station_id":"ce4bhq92rcd13ifvqhkg","pricing_plan_id":"cebpf4jnsgd1na2vs0mg"},{"bike_id":"878f6a13-fa3f-419b-9b84-32825500b9d7","system_id":"levelo_inurba_marseille","lat":43.28511,"lon":5.38405,"is_reserved":false,"is_disabled":false,"rental_uris":{"android":"levelo://app?vid=878f6a13-fa3f-419b-9b84-32825500b9d7","ios":"levelo://app?vid=878f6a13-fa3f-419b-9b84-32825500b9d7"},"vehicle_type_id":"4","last_reported":1750687840,"current_range_meters":14000,"station_id":"","pricing_plan_id":"cebpf4jnsgd1na2vs0mg"},{"bike_id":"e3cf368c-bc3c-4398-97db-2ca327c5eff0","system_id":"levelo_inurba_marseille","lat":43.3009,"lon":5.39078,"is_reserved":false,"is_disabled":false,"rental_uris":{"android":"levelo://app?vid=e3cf368c-bc3c-4398-97db-2ca327c5eff0","ios":"levelo://app?vid=e3cf368c-bc3c-4398-97db-2ca327c5eff0"},"vehicle_type_id":"4","last_reported":1750687840,"current_range_meters":14000,"station_id":"ce4bh192rcd13ifvqdb0","pricing_plan_id":"cebpf4jnsgd1na2vs0mg"},{"bike_id":"7cb8be58-35ab-42ba-af4b-1b17d9977ae0","system_id":"levelo_inurba_marseille","lat":43.28612,"lon":5.35098,"is_reserved":false,"is_disabled":false,"rental_uris":{"android":"levelo://app?vid=7cb8be58-35ab-42ba-af4b-1b17d9977ae0","ios":"levelo://app?vid=7cb8be58-35ab-42ba-af4b-1b17d9977ae0"},"vehicle_type_id":"4","last_reported":1750687840,"current_range_meters":14000,"station_id":"ce4bhch2rcd13ifvqeug","pricing_plan_id":"cebpf4jnsgd1na2vs0mg"},{"bike_id":"81d5c217-c9fc-4273-9ae9-4c7850a7d223","system_id":"levelo_inurba_marseille","lat":43.32474,"lon":5.36598,"is_reserved":false,"is_disabled":false,"rental_uris":{"android":"levelo://app?vid=81d5c217-c9fc-4273-9ae9-4c7850a7d223","ios":"levelo://app?vid=81d5c217-c9fc-4273-9ae9-4c7850a7d223"},"vehicle_type_id":"4","last_reported":1750687840,"current_range_meters":14000,"station_id":"ce4bhs12rcd13ifvqhvg","pricing_plan_id":"cebpf4jnsgd1na2vs0mg"},{"bike_id":"8d137669-6e88-4d73-8506-29ed1f7e573a","system_id":"levelo_inurba_marseille","lat":43.23191,"lon":5.35548,"is_reserved":false,"is_disabled":false,"rental_uris":{"android":"levelo://app?vid=8d137669-6e88-4d73-8506-29ed1f7e573a","ios":"levelo://app?vid=8d137669-6e88-4d73-8506-29ed1f7e573a"},"vehicle_type_id":"4","last_reported":1750687840,"current_range_meters":14000,"station_id":"ce4bhu92rcd13ifvqi70","pricing_plan_id":"cebpf4jnsgd1na2vs0mg"},{"bike_id":"a69156ca-7afd-4760-8d18-8e2581fdad03","system_id":"levelo_inurba_marseille","lat":43.22933,"lon":5.353806,"is_reserved":false,"is_disabled":false,"rental_uris":{"android":"levelo://app?vid=a69156ca-7afd-4760-8d18-8e2581fdad03","ios":"levelo://app?vid=a69156ca-7afd-4760-8d18-8e2581fdad03"},"vehicle_type_id":"4","last_reported":1750687840,"current_range_meters":14000,"station_id":"cpo3532slgdg3j2ikp40","pricing_plan_id":"cebpf4jnsgd1na2vs0mg"},{"bike_id":"8899992d-631f-41e3-810f-1c8870261916","system_id":"levelo_inurba_marseille","lat":43.2119,"lon":5.35075,"is_reserved":false,"is_disabled":false,"rental_uris":{"android":"levelo://app?vid=8899992d-631f-41e3-810f-1c8870261916","ios":"levelo://app?vid=8899992d-631f-41e3-810f-1c8870261916"},"vehicle_type_id":"4","last_reported":1750687840,"current_range_meters":14000,"station_id":"st_cvj6sg6p6f1abm77japg","pricing_plan_id":"cebpf4jnsgd1na2vs0mg"},{"bike_id":"9ad43fe6-1b49-4ea3-9f06-a5733a9a82aa","system_id":"levelo_inurba_marseille","lat":43.211925,"lon":5.350833,"is_reserved":false,"is_disabled":false,"rental_uris":{"android":"levelo://app?vid=9ad43fe6-1b49-4ea3-9f06-a5733a9a82aa","ios":"levelo://app?vid=9ad43fe6-1b49-4ea3-9f06-a5733a9a82aa"},"vehicle_type_id":"4","last_reported":1750687840,"current_range_meters":14400,"station_id":"","pricing_plan_id":"cebpf4jnsgd1na2vs0mg"},{"bike_id":"b10093d3-73e4-407c-bc82-2362aeb33c49","system_id":"levelo_inurba_marseille","lat":43.298606,"lon":5.397288,"is_reserved":false,"is_disabled":false,"rental_uris":{"android":"levelo://app?vid=b10093d3-73e4-407c-bc82-2362aeb33c49","ios":"levelo://app?vid=b10093d3-73e4-407c-bc82-2362aeb33c49"},"vehicle_type_id":"4","last_reported":1750687840,"current_range_meters":14400,"station_id":"ce4bh0h2rcd13ifvqd50","pricing_plan_id":"cebpf4jnsgd1na2vs0mg"},{"bike_id":"f702cb72-a78a-4ea4-84d8-f9dfa3ac7096","system_id":"levelo_inurba_marseille","lat":43.24662,"lon":5.38168,"is_reserved":false,"is_disabled":false,"rental_uris":{"android":"levelo://app?vid=f702cb72-a78a-4ea4-84d8-f9dfa3ac7096","ios":"levelo://app?vid=f702cb72-a78a-4ea4-84d8-f9dfa3ac7096"},"vehicle_type_id":"4","last_reported":1750687840,"current_range_meters":14400,"station_id":"ce4bhih2rcd13ifvqfr0","pricing_plan_id":"cebpf4jnsgd1na2vs0mg"},{"bike_id":"36ee4635-6d58-43c2-8cec-51daaa215973","system_id":"levelo_inurba_marseille","lat":43.24171,"lon":5.36403,"is_reserved":false,"is_disabled":false,"rental_uris":{"android":"levelo://app?vid=36ee4635-6d58-43c2-8cec-51daaa215973","ios":"levelo://app?vid=36ee4635-6d58-43c2-8cec-51daaa215973"},"vehicle_type_id":"4","last_reported":1750687840,"current_range_meters":14400,"station_id":"cpo36qri1sfpv3e86is0","pricing_plan_id":"cebpf4jnsgd1na2vs0mg"},{"bike_id":"175434a2-13f0-4bf4-9fe9-1e01255207a2","system_id":"levelo_inurba_marseille","lat":43.24164,"lon":5.364,"is_reserved":false,"is_disabled":false,"rental_uris":{"android":"levelo://app?vid=175434a2-13f0-4bf4-9fe9-1e01255207a2","ios":"levelo://app?vid=175434a2-13f0-4bf4-9fe9-1e01255207a2"},"vehicle_type_id":"4","last_reported":1750687840,"current_range_meters":14400,"station_id":"cpo36qri1sfpv3e86is0","pricing_plan_id":"cebpf4jnsgd1na2vs0mg"},{"bike_id":"d1e50195-3b98-4355-8033-d7cc97e2d52d","system_id":"levelo_inurba_marseille","lat":43.34647,"lon":5.36687,"is_reserved":false,"is_disabled":false,"rental_uris":{"android":"levelo://app?vid=d1e50195-3b98-4355-8033-d7cc97e2d52d","ios":"levelo://app?vid=d1e50195-3b98-4355-8033-d7cc97e2d52d"},"vehicle_type_id":"4","last_reported":1750687840,"current_range_meters":14800,"station_id":"","pricing_plan_id":"cebpf4jnsgd1na2vs0mg"},{"bike_id":"dcb10811-af0c-4a83-a2ce-c0bcfa4230a2","system_id":"levelo_inurba_marseille","lat":43.28423,"lon":5.34992,"is_reserved":false,"is_disabled":false,"rental_uris":{"android":"levelo://app?vid=dcb10811-af0c-4a83-a2ce-c0bcfa4230a2","ios":"levelo://app?vid=dcb10811-af0c-4a83-a2ce-c0bcfa4230a2"},"vehicle_type_id":"4","last_reported":1750687840,"current_range_meters":14800,"station_id":"ce4bhbh2rcd13ifvqepg","pricing_plan_id":"cebpf4jnsgd1na2vs0mg"},{"bike_id":"6a42d39f-0bd8-482c-bccc-97f7d0f86db8","system_id":"levelo_inurba_marseille","lat":43.23149,"lon":5.4373,"is_reserved":false,"is_disabled":false,"rental_uris":{"android":"levelo://app?vid=6a42d39f-0bd8-482c-bccc-97f7d0f86db8","ios":"levelo://app?vid=6a42d39f-0bd8-482c-bccc-97f7d0f86db8"},"vehicle_type_id":"4","last_reported":1750687840,"current_range_meters":14800,"station_id":"ce4bhmp2rcd13ifvqgog","pricing_plan_id":"cebpf4jnsgd1na2vs0mg"},{"bike_id":"e3c98ea9-5ede-4f57-8f11-2e25041a9538","system_id":"levelo_inurba_marseille","lat":43.29899,"lon":5.43657,"is_reserved":false,"is_disabled":false,"rental_uris":{"android":"levelo://app?vid=e3c98ea9-5ede-4f57-8f11-2e25041a9538","ios":"levelo://app?vid=e3c98ea9-5ede-4f57-8f11-2e25041a9538"},"vehicle_type_id":"4","last_reported":1750687840,"current_range_meters":14800,"station_id":"ce4bhpp2rcd13ifvqhfg","pricing_plan_id":"cebpf4jnsgd1na2vs0mg"},{"bike_id":"877848d5-f2da-4afb-a5b8-c9a474bbd8bf","system_id":"levelo_inurba_marseille","lat":43.28357,"lon":5.38642,"is_reserved":false,"is_disabled":false,"rental_uris":{"android":"levelo://app?vid=877848d5-f2da-4afb-a5b8-c9a474bbd8bf","ios":"levelo://app?vid=877848d5-f2da-4afb-a5b8-c9a474bbd8bf"},"vehicle_type_id":"4","last_reported":1750687840,"current_range_meters":15200,"station_id":"ce4bh492rcd13ifvqdvg","pricing_plan_id":"cebpf4jnsgd1na2vs0mg"},{"bike_id":"99eb6325-7d0b-4d67-aed0-dbeba611320b","system_id":"levelo_inurba_marseille","lat":43.283932,"lon":5.349373,"is_reserved":false,"is_disabled":false,"rental_uris":{"android":"levelo://app?vid=99eb6325-7d0b-4d67-aed0-dbeba611320b","ios":"levelo://app?vid=99eb6325-7d0b-4d67-aed0-dbeba611320b"},"vehicle_type_id":"4","last_reported":1750687840,"current_range_meters":15200,"station_id":"ce4bhbh2rcd13ifvqepg","pricing_plan_id":"cebpf4jnsgd1na2vs0mg"},{"bike_id":"3f5feefb-afac-4fae-bf96-2312f50939a4","system_id":"levelo_inurba_marseille","lat":43.211881,"lon":5.350742,"is_reserved":false,"is_disabled":false,"rental_uris":{"android":"levelo://app?vid=3f5feefb-afac-4fae-bf96-2312f50939a4","ios":"levelo://app?vid=3f5feefb-afac-4fae-bf96-2312f50939a4"},"vehicle_type_id":"4","last_reported":1750687840,"current_range_meters":15200,"station_id":"st_cvj6sg6p6f1abm77japg","pricing_plan_id":"cebpf4jnsgd1na2vs0mg"},{"bike_id":"f2479ec5-2f13-4f00-bb84-fab82f46d308","system_id":"levelo_inurba_marseille","lat":43.25765,"lon":5.38977,"is_reserved":false,"is_disabled":false,"rental_uris":{"android":"levelo://app?vid=f2479ec5-2f13-4f00-bb84-fab82f46d308","ios":"levelo://app?vid=f2479ec5-2f13-4f00-bb84-fab82f46d308"},"vehicle_type_id":"4","last_reported":1750687840,"current_range_meters":16000,"station_id":"","pricing_plan_id":"cebpf4jnsgd1na2vs0mg"},{"bike_id":"aa72c9cc-0a0e-4b74-bfe6-6b72bec4ce8c","system_id":"levelo_inurba_marseille","lat":43.290698,"lon":5.371461,"is_reserved":false,"is_disabled":false,"rental_uris":{"android":"levelo://app?vid=aa72c9cc-0a0e-4b74-bfe6-6b72bec4ce8c","ios":"levelo://app?vid=aa72c9cc-0a0e-4b74-bfe6-6b72bec4ce8c"},"vehicle_type_id":"4","last_reported":1750687840,"current_range_meters":16000,"station_id":"ce4bh5p2rcd13ifvqe4g","pricing_plan_id":"cebpf4jnsgd1na2vs0mg"},{"bike_id":"58e3de6a-5eab-4f18-9436-2c0a5c2808fe","system_id":"levelo_inurba_marseille","lat":43.26196,"lon":5.37456,"is_reserved":false,"is_disabled":false,"rental_uris":{"android":"levelo://app?vid=58e3de6a-5eab-4f18-9436-2c0a5c2808fe","ios":"levelo://app?vid=58e3de6a-5eab-4f18-9436-2c0a5c2808fe"},"vehicle_type_id":"4","last_reported":1750687840,"current_range_meters":16000,"station_id":"ce4bhgp2rcd13ifvqfc0","pricing_plan_id":"cebpf4jnsgd1na2vs0mg"},{"bike_id":"96dcd71f-47d4-4092-a693-e1c3ed0b15e1","system_id":"levelo_inurba_marseille","lat":43.33731,"lon":5.39186,"is_reserved":false,"is_disabled":false,"rental_uris":{"android":"levelo://app?vid=96dcd71f-47d4-4092-a693-e1c3ed0b15e1","ios":"levelo://app?vid=96dcd71f-47d4-4092-a693-e1c3ed0b15e1"},"vehicle_type_id":"4","last_reported":1750687840,"current_range_meters":16000,"station_id":"ce4bhr92rcd13ifvqhsg","pricing_plan_id":"cebpf4jnsgd1na2vs0mg"},{"bike_id":"67d3ea8c-b74b-4f74-a1da-3a599371ada7","system_id":"levelo_inurba_marseille","lat":43.333679,"lon":5.3662,"is_reserved":false,"is_disabled":false,"rental_uris":{"android":"levelo://app?vid=67d3ea8c-b74b-4f74-a1da-3a599371ada7","ios":"levelo://app?vid=67d3ea8c-b74b-4f74-a1da-3a599371ada7"},"vehicle_type_id":"4","last_reported":1750687840,"current_range_meters":16000,"station_id":"ce4bhrh2rcd13ifvqhug","pricing_plan_id":"cebpf4jnsgd1na2vs0mg"},{"bike_id":"09bd72ae-82c1-40cc-80b6-850e05f46440","system_id":"levelo_inurba_marseille","lat":43.32349,"lon":5.36774,"is_reserved":false,"is_disabled":false,"rental_uris":{"android":"levelo://app?vid=09bd72ae-82c1-40cc-80b6-850e05f46440","ios":"levelo://app?vid=09bd72ae-82c1-40cc-80b6-850e05f46440"},"vehicle_type_id":"4","last_reported":1750687840,"current_range_meters":16000,"station_id":"ce4bhsh2rcd13ifvqi2g","pricing_plan_id":"cebpf4jnsgd1na2vs0mg"},{"bike_id":"23ed33e6-e9b9-4ba1-b728-ad5f21a64a04","system_id":"levelo_inurba_marseille","lat":43.28722,"lon":5.36078,"is_reserved":false,"is_disabled":false,"rental_uris":{"android":"levelo://app?vid=23ed33e6-e9b9-4ba1-b728-ad5f21a64a04","ios":"levelo://app?vid=23ed33e6-e9b9-4ba1-b728-ad5f21a64a04"},"vehicle_type_id":"4","last_reported":1750687840,"current_range_meters":16000,"station_id":"cki0cbj6b192h4jlfktg","pricing_plan_id":"cebpf4jnsgd1na2vs0mg"},{"bike_id":"9213f417-38fe-4ac6-ba73-fa7495d6b748","system_id":"levelo_inurba_marseille","lat":43.2418,"lon":5.36385,"is_reserved":false,"is_disabled":false,"rental_uris":{"android":"levelo://app?vid=9213f417-38fe-4ac6-ba73-fa7495d6b748","ios":"levelo://app?vid=9213f417-38fe-4ac6-ba73-fa7495d6b748"},"vehicle_type_id":"4","last_reported":1750687840,"current_range_meters":16000,"station_id":"cpo36qri1sfpv3e86is0","pricing_plan_id":"cebpf4jnsgd1na2vs0mg"},{"bike_id":"e77b75b6-d130-43a3-abb4-254740d44e61","system_id":"levelo_inurba_marseille","lat":43.24157,"lon":5.36429,"is_reserved":false,"is_disabled":false,"rental_uris":{"android":"levelo://app?vid=e77b75b6-d130-43a3-abb4-254740d44e61","ios":"levelo://app?vid=e77b75b6-d130-43a3-abb4-254740d44e61"},"vehicle_type_id":"4","last_reported":1750687840,"current_range_meters":16000,"station_id":"cpo36qri1sfpv3e86is0","pricing_plan_id":"cebpf4jnsgd1na2vs0mg"},{"bike_id":"709c1451-0f01-4113-a733-ed7dbe8abbe7","system_id":"levelo_inurba_marseille","lat":43.3057,"lon":5.36529,"is_reserved":false,"is_disabled":false,"rental_uris":{"android":"levelo://app?vid=709c1451-0f01-4113-a733-ed7dbe8abbe7","ios":"levelo://app?vid=709c1451-0f01-4113-a733-ed7dbe8abbe7"},"vehicle_type_id":"4","last_reported":1750687840,"current_range_meters":16400,"station_id":"ce4bgs12rcd13ifvqcag","pricing_plan_id":"cebpf4jnsgd1na2vs0mg"},{"bike_id":"fbd0b782-429b-43bb-8841-44d7d21a8d6a","system_id":"levelo_inurba_marseille","lat":43.30546,"lon":5.3653,"is_reserved":false,"is_disabled":false,"rental_uris":{"android":"levelo://app?vid=fbd0b782-429b-43bb-8841-44d7d21a8d6a","ios":"levelo://app?vid=fbd0b782-429b-43bb-8841-44d7d21a8d6a"},"vehicle_type_id":"4","last_reported":1750687840,"current_range_meters":16400,"station_id":"ce4bgs12rcd13ifvqcag","pricing_plan_id":"cebpf4jnsgd1na2vs0mg"},{"bike_id":"f114ad0e-a1c5-411c-9718-f5e2ccd98303","system_id":"levelo_inurba_marseille","lat":43.30803,"lon":5.38154,"is_reserved":false,"is_disabled":false,"rental_uris":{"android":"levelo://app?vid=f114ad0e-a1c5-411c-9718-f5e2ccd98303","ios":"levelo://app?vid=f114ad0e-a1c5-411c-9718-f5e2ccd98303"},"vehicle_type_id":"4","last_reported":1750687840,"current_range_meters":16400,"station_id":"ce4bgt12rcd13ifvqce0","pricing_plan_id":"cebpf4jnsgd1na2vs0mg"},{"bike_id":"bf6fd1ce-91a2-4279-bbce-b64661176b1f","system_id":"levelo_inurba_marseille","lat":43.30906,"lon":5.39657,"is_reserved":false,"is_disabled":false,"rental_uris":{"android":"levelo://app?vid=bf6fd1ce-91a2-4279-bbce-b64661176b1f","ios":"levelo://app?vid=bf6fd1ce-91a2-4279-bbce-b64661176b1f"},"vehicle_type_id":"4","last_reported":1750687840,"current_range_meters":16400,"station_id":"ce4bh012rcd13ifvqcv0","pricing_plan_id":"cebpf4jnsgd1na2vs0mg"},{"bike_id":"024ba39c-5c8e-4d91-ac60-3f3263851dfd","system_id":"levelo_inurba_marseille","lat":43.28103,"lon":5.37838,"is_reserved":false,"is_disabled":false,"rental_uris":{"android":"levelo://app?vid=024ba39c-5c8e-4d91-ac60-3f3263851dfd","ios":"levelo://app?vid=024ba39c-5c8e-4d91-ac60-3f3263851dfd"},"vehicle_type_id":"4","last_reported":1750687840,"current_range_meters":16400,"station_id":"ce4bha12rcd13ifvqee0","pricing_plan_id":"cebpf4jnsgd1na2vs0mg"},{"bike_id":"c0b3b047-0a1d-447b-abc5-e14c12a1bbc6","system_id":"levelo_inurba_marseille","lat":43.26691,"lon":5.38266,"is_reserved":false,"is_disabled":false,"rental_uris":{"android":"levelo://app?vid=c0b3b047-0a1d-447b-abc5-e14c12a1bbc6","ios":"levelo://app?vid=c0b3b047-0a1d-447b-abc5-e14c12a1bbc6"},"vehicle_type_id":"4","last_reported":1750687840,"current_range_meters":16400,"station_id":"ce4bhg92rcd13ifvqf90","pricing_plan_id":"cebpf4jnsgd1na2vs0mg"},{"bike_id":"950f7f9f-899b-47e3-b097-2ade7879ad8f","system_id":"levelo_inurba_marseille","lat":43.27071,"lon":5.42293,"is_reserved":false,"is_disabled":false,"rental_uris":{"android":"levelo://app?vid=950f7f9f-899b-47e3-b097-2ade7879ad8f","ios":"levelo://app?vid=950f7f9f-899b-47e3-b097-2ade7879ad8f"},"vehicle_type_id":"4","last_reported":1750687840,"current_range_meters":16400,"station_id":"ce4bhk92rcd13ifvqgb0","pricing_plan_id":"cebpf4jnsgd1na2vs0mg"},{"bike_id":"6e484f63-7dc7-40d1-9847-219a634d8c49","system_id":"levelo_inurba_marseille","lat":43.23168,"lon":5.43727,"is_reserved":false,"is_disabled":false,"rental_uris":{"android":"levelo://app?vid=6e484f63-7dc7-40d1-9847-219a634d8c49","ios":"levelo://app?vid=6e484f63-7dc7-40d1-9847-219a634d8c49"},"vehicle_type_id":"4","last_reported":1750687840,"current_range_meters":16400,"station_id":"ce4bhmp2rcd13ifvqgog","pricing_plan_id":"cebpf4jnsgd1na2vs0mg"},{"bike_id":"d3b4acd1-475d-43e1-bb04-3b5b22c96457","system_id":"levelo_inurba_marseille","lat":43.29898,"lon":5.43688,"is_reserved":false,"is_disabled":false,"rental_uris":{"android":"levelo://app?vid=d3b4acd1-475d-43e1-bb04-3b5b22c96457","ios":"levelo://app?vid=d3b4acd1-475d-43e1-bb04-3b5b22c96457"},"vehicle_type_id":"4","last_reported":1750687840,"current_range_meters":16400,"station_id":"ce4bhpp2rcd13ifvqhfg","pricing_plan_id":"cebpf4jnsgd1na2vs0mg"},{"bike_id":"708a5153-e9eb-4b8c-828a-f2918a7ff712","system_id":"levelo_inurba_marseille","lat":43.33741,"lon":5.39176,"is_reserved":false,"is_disabled":false,"rental_uris":{"android":"levelo://app?vid=708a5153-e9eb-4b8c-828a-f2918a7ff712","ios":"levelo://app?vid=708a5153-e9eb-4b8c-828a-f2918a7ff712"},"vehicle_type_id":"4","last_reported":1750687840,"current_range_meters":16400,"station_id":"ce4bhr92rcd13ifvqhsg","pricing_plan_id":"cebpf4jnsgd1na2vs0mg"},{"bike_id":"0e4c682c-26f0-4240-a9fa-9ea7c2dfb029","system_id":"levelo_inurba_marseille","lat":43.28616,"lon":5.37067,"is_reserved":false,"is_disabled":false,"rental_uris":{"android":"levelo://app?vid=0e4c682c-26f0-4240-a9fa-9ea7c2dfb029","ios":"levelo://app?vid=0e4c682c-26f0-4240-a9fa-9ea7c2dfb029"},"vehicle_type_id":"4","last_reported":1750687840,"current_range_meters":16400,"station_id":"ce4bht12rcd13ifvqi60","pricing_plan_id":"cebpf4jnsgd1na2vs0mg"},{"bike_id":"66fe660e-bbbe-4cd1-b5fb-9344c71cb66e","system_id":"levelo_inurba_marseille","lat":43.2119,"lon":5.35108,"is_reserved":false,"is_disabled":false,"rental_uris":{"android":"levelo://app?vid=66fe660e-bbbe-4cd1-b5fb-9344c71cb66e","ios":"levelo://app?vid=66fe660e-bbbe-4cd1-b5fb-9344c71cb66e"},"vehicle_type_id":"4","last_reported":1750687840,"current_range_meters":16400,"station_id":"st_cvj6sg6p6f1abm77japg","pricing_plan_id":"cebpf4jnsgd1na2vs0mg"},{"bike_id":"157b740c-2794-4406-b577-27c810512491","system_id":"levelo_inurba_marseille","lat":43.31483,"lon":5.37142,"is_reserved":false,"is_disabled":false,"rental_uris":{"android":"levelo://app?vid=157b740c-2794-4406-b577-27c810512491","ios":"levelo://app?vid=157b740c-2794-4406-b577-27c810512491"},"vehicle_type_id":"4","last_reported":1750687840,"current_range_meters":16800,"station_id":"","pricing_plan_id":"cebpf4jnsgd1na2vs0mg"},{"bike_id":"12e60382-1c84-4910-bc15-8db55b7d028f","system_id":"levelo_inurba_marseille","lat":43.291979,"lon":5.358054,"is_reserved":false,"is_disabled":false,"rental_uris":{"android":"levelo://app?vid=12e60382-1c84-4910-bc15-8db55b7d028f","ios":"levelo://app?vid=12e60382-1c84-4910-bc15-8db55b7d028f"},"vehicle_type_id":"4","last_reported":1750687840,"current_range_meters":16800,"station_id":"","pricing_plan_id":"cebpf4jnsgd1na2vs0mg"},{"bike_id":"7bd7ab6e-0284-4340-acb8-397b5bd3427c","system_id":"levelo_inurba_marseille","lat":43.32021,"lon":5.36818,"is_reserved":false,"is_disabled":false,"rental_uris":{"android":"levelo://app?vid=7bd7ab6e-0284-4340-acb8-397b5bd3427c","ios":"levelo://app?vid=7bd7ab6e-0284-4340-acb8-397b5bd3427c"},"vehicle_type_id":"4","last_reported":1750687840,"current_range_meters":16800,"station_id":"","pricing_plan_id":"cebpf4jnsgd1na2vs0mg"},{"bike_id":"af8ac115-b126-43d0-8dc2-1ca55684e741","system_id":"levelo_inurba_marseille","lat":43.28423,"lon":5.35001,"is_reserved":false,"is_disabled":false,"rental_uris":{"android":"levelo://app?vid=af8ac115-b126-43d0-8dc2-1ca55684e741","ios":"levelo://app?vid=af8ac115-b126-43d0-8dc2-1ca55684e741"},"vehicle_type_id":"4","last_reported":1750687840,"current_range_meters":16800,"station_id":"ce4bhbh2rcd13ifvqepg","pricing_plan_id":"cebpf4jnsgd1na2vs0mg"},{"bike_id":"96ef821a-0688-49e0-8f66-5c7dda11c1a7","system_id":"levelo_inurba_marseille","lat":43.30804,"lon":5.43524,"is_reserved":false,"is_disabled":false,"rental_uris":{"android":"levelo://app?vid=96ef821a-0688-49e0-8f66-5c7dda11c1a7","ios":"levelo://app?vid=96ef821a-0688-49e0-8f66-5c7dda11c1a7"},"vehicle_type_id":"4","last_reported":1750687840,"current_range_meters":16800,"station_id":"ce4bhph2rcd13ifvqheg","pricing_plan_id":"cebpf4jnsgd1na2vs0mg"},{"bike_id":"f1f10d8d-12e3-469c-86a0-760fa8c8f99f","system_id":"levelo_inurba_marseille","lat":43.32049,"lon":5.41542,"is_reserved":false,"is_disabled":false,"rental_uris":{"android":"levelo://app?vid=f1f10d8d-12e3-469c-86a0-760fa8c8f99f","ios":"levelo://app?vid=f1f10d8d-12e3-469c-86a0-760fa8c8f99f"},"vehicle_type_id":"4","last_reported":1750687840,"current_range_meters":16800,"station_id":"ce4bhq92rcd13ifvqhkg","pricing_plan_id":"cebpf4jnsgd1na2vs0mg"},{"bike_id":"a47b3ca7-ac74-4aca-9c76-314ff6c96723","system_id":"levelo_inurba_marseille","lat":43.24169,"lon":5.364012,"is_reserved":false,"is_disabled":false,"rental_uris":{"android":"levelo://app?vid=a47b3ca7-ac74-4aca-9c76-314ff6c96723","ios":"levelo://app?vid=a47b3ca7-ac74-4aca-9c76-314ff6c96723"},"vehicle_type_id":"4","last_reported":1750687840,"current_range_meters":16800,"station_id":"cpo36qri1sfpv3e86is0","pricing_plan_id":"cebpf4jnsgd1na2vs0mg"},{"bike_id":"ff359b06-e82b-4518-b602-f9c62162a27d","system_id":"levelo_inurba_marseille","lat":43.211887,"lon":5.350863,"is_reserved":false,"is_disabled":false,"rental_uris":{"android":"levelo://app?vid=ff359b06-e82b-4518-b602-f9c62162a27d","ios":"levelo://app?vid=ff359b06-e82b-4518-b602-f9c62162a27d"},"vehicle_type_id":"4","last_reported":1750687840,"current_range_meters":16800,"station_id":"st_cvj6sg6p6f1abm77japg","pricing_plan_id":"cebpf4jnsgd1na2vs0mg"},{"bike_id":"8bc99dda-0ecb-4209-a614-58636df6b374","system_id":"levelo_inurba_marseille","lat":43.21203,"lon":5.35059,"is_reserved":false,"is_disabled":false,"rental_uris":{"android":"levelo://app?vid=8bc99dda-0ecb-4209-a614-58636df6b374","ios":"levelo://app?vid=8bc99dda-0ecb-4209-a614-58636df6b374"},"vehicle_type_id":"4","last_reported":1750687840,"current_range_meters":16800,"station_id":"st_cvj6sg6p6f1abm77japg","pricing_plan_id":"cebpf4jnsgd1na2vs0mg"},{"bike_id":"ede9d90e-40c0-4c71-93b8-e7868f45b71f","system_id":"levelo_inurba_marseille","lat":43.24999,"lon":5.40287,"is_reserved":false,"is_disabled":false,"rental_uris":{"android":"levelo://app?vid=ede9d90e-40c0-4c71-93b8-e7868f45b71f","ios":"levelo://app?vid=ede9d90e-40c0-4c71-93b8-e7868f45b71f"},"vehicle_type_id":"4","last_reported":1750687840,"current_range_meters":17200,"station_id":"","pricing_plan_id":"cebpf4jnsgd1na2vs0mg"},{"bike_id":"a2f82b75-0ebb-4c75-a9d4-11be415acd0c","system_id":"levelo_inurba_marseille","lat":43.33602,"lon":5.4103,"is_reserved":false,"is_disabled":false,"rental_uris":{"android":"levelo://app?vid=a2f82b75-0ebb-4c75-a9d4-11be415acd0c","ios":"levelo://app?vid=a2f82b75-0ebb-4c75-a9d4-11be415acd0c"},"vehicle_type_id":"4","last_reported":1750687840,"current_range_meters":17200,"station_id":"ce4bhqh2rcd13ifvqhmg","pricing_plan_id":"cebpf4jnsgd1na2vs0mg"},{"bike_id":"a8abc887-2091-4c07-a19b-55285501d8c9","system_id":"levelo_inurba_marseille","lat":43.33718,"lon":5.39183,"is_reserved":false,"is_disabled":false,"rental_uris":{"android":"levelo://app?vid=a8abc887-2091-4c07-a19b-55285501d8c9","ios":"levelo://app?vid=a8abc887-2091-4c07-a19b-55285501d8c9"},"vehicle_type_id":"4","last_reported":1750687840,"current_range_meters":17200,"station_id":"ce4bhr92rcd13ifvqhsg","pricing_plan_id":"cebpf4jnsgd1na2vs0mg"},{"bike_id":"c3b67a3c-755c-43da-b7f2-a4d8a045bf9d","system_id":"levelo_inurba_marseille","lat":43.212029,"lon":5.350631,"is_reserved":false,"is_disabled":false,"rental_uris":{"android":"levelo://app?vid=c3b67a3c-755c-43da-b7f2-a4d8a045bf9d","ios":"levelo://app?vid=c3b67a3c-755c-43da-b7f2-a4d8a045bf9d"},"vehicle_type_id":"4","last_reported":1750687840,"current_range_meters":17200,"station_id":"st_cvj6sg6p6f1abm77japg","pricing_plan_id":"cebpf4jnsgd1na2vs0mg"},{"bike_id":"b6b861fa-fd27-43ad-89fb-4be1a264be92","system_id":"levelo_inurba_marseille","lat":43.25307,"lon":5.37497,"is_reserved":false,"is_disabled":false,"rental_uris":{"android":"levelo://app?vid=b6b861fa-fd27-43ad-89fb-4be1a264be92","ios":"levelo://app?vid=b6b861fa-fd27-43ad-89fb-4be1a264be92"},"vehicle_type_id":"4","last_reported":1750687840,"current_range_meters":17600,"station_id":"","pricing_plan_id":"cebpf4jnsgd1na2vs0mg"},{"bike_id":"7c3f6852-4f29-42a9-a8c1-e2b82bb43fcf","system_id":"levelo_inurba_marseille","lat":43.29243,"lon":5.42662,"is_reserved":false,"is_disabled":false,"rental_uris":{"android":"levelo://app?vid=7c3f6852-4f29-42a9-a8c1-e2b82bb43fcf","ios":"levelo://app?vid=7c3f6852-4f29-42a9-a8c1-e2b82bb43fcf"},"vehicle_type_id":"4","last_reported":1750687840,"current_range_meters":17600,"station_id":"","pricing_plan_id":"cebpf4jnsgd1na2vs0mg"},{"bike_id":"14e79219-1f5f-4c79-83d1-506755e3dbde","system_id":"levelo_inurba_marseille","lat":43.30436,"lon":5.38897,"is_reserved":false,"is_disabled":false,"rental_uris":{"android":"levelo://app?vid=14e79219-1f5f-4c79-83d1-506755e3dbde","ios":"levelo://app?vid=14e79219-1f5f-4c79-83d1-506755e3dbde"},"vehicle_type_id":"4","last_reported":1750687840,"current_range_meters":17600,"station_id":"ce4bgk12rcd13ifvqbi0","pricing_plan_id":"cebpf4jnsgd1na2vs0mg"},{"bike_id":"c7b15556-063a-41a2-bb7c-b6ebea3d7355","system_id":"levelo_inurba_marseille","lat":43.27389,"lon":5.36243,"is_reserved":false,"is_disabled":false,"rental_uris":{"android":"levelo://app?vid=c7b15556-063a-41a2-bb7c-b6ebea3d7355","ios":"levelo://app?vid=c7b15556-063a-41a2-bb7c-b6ebea3d7355"},"vehicle_type_id":"4","last_reported":1750687840,"current_range_meters":17600,"station_id":"ce4bhbh2rcd13ifvqeo0","pricing_plan_id":"cebpf4jnsgd1na2vs0mg"},{"bike_id":"7212a8c7-fff4-4f34-a7d0-903557425cd1","system_id":"levelo_inurba_marseille","lat":43.25723,"lon":5.41105,"is_reserved":false,"is_disabled":false,"rental_uris":{"android":"levelo://app?vid=7212a8c7-fff4-4f34-a7d0-903557425cd1","ios":"levelo://app?vid=7212a8c7-fff4-4f34-a7d0-903557425cd1"},"vehicle_type_id":"4","last_reported":1750687840,"current_range_meters":17600,"station_id":"ce4bhkp2rcd13ifvqgd0","pricing_plan_id":"cebpf4jnsgd1na2vs0mg"},{"bike_id":"cdab7ea0-0a3c-444a-adba-369c02ca39d9","system_id":"levelo_inurba_marseille","lat":43.27502,"lon":5.42458,"is_reserved":false,"is_disabled":false,"rental_uris":{"android":"levelo://app?vid=cdab7ea0-0a3c-444a-adba-369c02ca39d9","ios":"levelo://app?vid=cdab7ea0-0a3c-444a-adba-369c02ca39d9"},"vehicle_type_id":"4","last_reported":1750687840,"current_range_meters":17600,"station_id":"ce4bhn92rcd13ifvqgrg","pricing_plan_id":"cebpf4jnsgd1na2vs0mg"},{"bike_id":"e6e1ec66-36d4-41d2-872a-c2836e7851fd","system_id":"levelo_inurba_marseille","lat":43.21744,"lon":5.34613,"is_reserved":false,"is_disabled":false,"rental_uris":{"android":"levelo://app?vid=e6e1ec66-36d4-41d2-872a-c2836e7851fd","ios":"levelo://app?vid=e6e1ec66-36d4-41d2-872a-c2836e7851fd"},"vehicle_type_id":"4","last_reported":1750687840,"current_range_meters":17600,"station_id":"st_cvj6r9ubvosntc0bgbag","pricing_plan_id":"cebpf4jnsgd1na2vs0mg"},{"bike_id":"8780c620-3138-4867-9072-84058d8bfbcd","system_id":"levelo_inurba_marseille","lat":43.29708,"lon":5.36602,"is_reserved":false,"is_disabled":false,"rental_uris":{"android":"levelo://app?vid=8780c620-3138-4867-9072-84058d8bfbcd","ios":"levelo://app?vid=8780c620-3138-4867-9072-84058d8bfbcd"},"vehicle_type_id":"4","last_reported":1750687840,"current_range_meters":18000,"station_id":"ce4bgn12rcd13ifvqbt0","pricing_plan_id":"cebpf4jnsgd1na2vs0mg"},{"bike_id":"65837e07-df57-4e75-a19e-5529c47cd8d7","system_id":"levelo_inurba_marseille","lat":43.30469,"lon":5.379,"is_reserved":false,"is_disabled":false,"rental_uris":{"android":"levelo://app?vid=65837e07-df57-4e75-a19e-5529c47cd8d7","ios":"levelo://app?vid=65837e07-df57-4e75-a19e-5529c47cd8d7"},"vehicle_type_id":"4","last_reported":1750687840,"current_range_meters":18000,"station_id":"ce4bgup2rcd13ifvqcn0","pricing_plan_id":"cebpf4jnsgd1na2vs0mg"},{"bike_id":"3e1fc936-a7d0-4fca-a163-01aaa035daae","system_id":"levelo_inurba_marseille","lat":43.28407,"lon":5.34996,"is_reserved":false,"is_disabled":false,"rental_uris":{"android":"levelo://app?vid=3e1fc936-a7d0-4fca-a163-01aaa035daae","ios":"levelo://app?vid=3e1fc936-a7d0-4fca-a163-01aaa035daae"},"vehicle_type_id":"4","last_reported":1750687840,"current_range_meters":18000,"station_id":"ce4bhbh2rcd13ifvqepg","pricing_plan_id":"cebpf4jnsgd1na2vs0mg"},{"bike_id":"bc06c25f-fd4d-417c-bd1e-e658638f1d6d","system_id":"levelo_inurba_marseille","lat":43.28265,"lon":5.35072,"is_reserved":false,"is_disabled":false,"rental_uris":{"android":"levelo://app?vid=bc06c25f-fd4d-417c-bd1e-e658638f1d6d","ios":"levelo://app?vid=bc06c25f-fd4d-417c-bd1e-e658638f1d6d"},"vehicle_type_id":"4","last_reported":1750687840,"current_range_meters":18000,"station_id":"ce4bhbp2rcd13ifvqerg","pricing_plan_id":"cebpf4jnsgd1na2vs0mg"},