{"last_updated":1760782142,"ttl":60,"version":"2.2","data":{"bikes":[{"bike_id":"c4199fd5-233a-4099-91d2-002664892edb","system_id":"levelo_inurba_marseille","lat":43.292693,"lon":5.384375,"is_reserved":false,"is_disabled":false,"rental_uris":{"android":"levelo://app?vid=c4199fd5-233a-4099-91d2-002664892edb","ios":"levelo://app?vid=c4199fd5-233a-4099-91d2-002664892edb"},"vehicle_type_id":"4","last_reported":1760782143,"current_range_meters":2800,"station_id":"ce4bh692rcd13ifvqea0","pricing_plan_id":"cebpf4jnsgd1na2vs0mg"},{"bike_id":"a7a3d3c5-649b-4492-b3e7-f6085d66b534","system_id":"levelo_inurba_marseille","lat":43.2997,"lon":5.38494,"is_reserved":false,"is_disabled":false,"rental_uris":{"android":"levelo://app?vid=a7a3d3c5-649b-4492-b3e7-f6085d66b534","ios":"levelo://app?vid=a7a3d3c5-649b-4492-b3e7-f6085d66b534"},"vehicle_type_id":"4","last_reported":1760782143,"current_range_meters":2800,"station_id":"ce4bgj92rcd13ifvqbd0","pricing_plan_id":"cebpf4jnsgd1na2vs0mg"},{"bike_id":"dfbb16fb-2eda-41cc-9e20-134eed548e29","system_id":"levelo_inurba_marseille","lat":43.30272,"lon":5.37721,"is_reserved":false,"is_disabled":false,"rental_uris":{"android":"levelo://app?vid=dfbb16fb-2eda-41cc-9e20-134eed548e29","ios":"levelo://app?vid=dfbb16fb-2eda-41cc-9e20-134eed548e29"},"vehicle_type_id":"4","last_reported":1760782143,"current_range_meters":3200,"station_id":"ce4bguh2rcd13ifvqcj0","pricing_plan_id":"cebpf4jnsgd1na2vs0mg"},{"bike_id":"02a09aa0-a3ad-4488-939b-77743a91c702","system_id":"levelo_inurba_marseille","lat":43.29278,"lon":5.40122,"is_reserved":false,"is_disabled":false,"rental_uris":{"android":"levelo://app?vid=02a09aa0-a3ad-4488-939b-77743a91c702","ios":"levelo://app?vid=02a09aa0-a3ad-4488-939b-77743a91c702"},"vehicle_type_id":"4","last_reported":1760782143,"current_range_meters":3200,"station_id":"ce4bh312rcd13ifvqdk0","pricing_plan_id":"cebpf4jnsgd1na2vs0mg"},{"bike_id":"be1c4bc2-ea26-4165-ae2c-40ac4665f215","system_id":"levelo_inurba_marseille","lat":43.29301,"lon":5.42719,"is_reserved":false,"is_disabled":true,"rental_uris":{"android":"levelo://app?vid=be1c4bc2-ea26-4165-ae2c-40ac4665f215","ios":"levelo://app?vid=be1c4bc2-ea26-4165-ae2c-40ac4665f215"},"vehicle_type_id":"4","last_reported":1760782143,"current_range_meters":3200,"station_id":"","pricing_plan_id":"cebpf4jnsgd1na2vs0mg"},{"bike_id":"c74f2ca5-96a6-4d1d-8da7-c53e876a0712","system_id":"levelo_inurba_marseille","lat":43.27055,"lon":5.40261,"is_reserved":false,"is_disabled":false,"rental_uris":{"android":"levelo://app?vid=c74f2ca5-96a6-4d1d-8da7-c53e876a0712","ios":"levelo://app?vid=c74f2ca5-96a6-4d1d-8da7-c53e876a0712"},"vehicle_type_id":"4","last_reported":1760782143,"current_range_meters":3600,"station_id":"ce4bhk92rcd13ifvqgc0","pricing_plan_id":"cebpf4jnsgd1na2vs0mg"},{"bike_id":"6651f61c-1fe4-4fa1-be9d-697a74379b42","system_id":"levelo_inurba_marseille","lat":43.24546,"lon":5.39526,"is_reserved":false,"is_disabled":false,"rental_uris":{"android":"levelo://app?vid=6651f61c-1fe4-4fa1-be9d-697a74379b42","ios":"levelo://app?vid=6651f61c-1fe4-4fa1-be9d-697a74379b42"},"vehicle_type_id":"4","last_reported":1760782143,"current_range_meters":3600,"station_id":"ce4bhlp2rcd13ifvqgjg","pricing_plan_id":"cebpf4jnsgd1na2vs0mg"},{"bike_id":"395314b9-fea3-4a4a-8145-cf7ab2d4c961","system_id":"levelo_inurba_marseille","lat":43.323578,"lon":5.367559,"is_reserved":false,"is_disabled":false,"rental_uris":{"android":"levelo://app?vid=395314b9-fea3-4a4a-8145-cf7ab2d4c961","ios":"levelo://app?vid=395314b9-fea3-4a4a-8145-cf7ab2d4c961"},"vehicle_type_id":"4","last_reported":1760782143,"current_range_meters":3600,"station_id":"ce4bhsh2rcd13ifvqi2g","pricing_plan_id":"cebpf4jnsgd1na2vs0mg"},{"bike_id":"dcbca3d0-5817-4e7d-b2ed-65473920904b","system_id":"levelo_inurba_marseille","lat":43.303114,"lon":5.369047,"is_reserved":false,"is_disabled":false,"rental_uris":{"android":"levelo://app?vid=dcbca3d0-5817-4e7d-b2ed-65473920904b","ios":"levelo://app?vid=dcbca3d0-5817-4e7d-b2ed-65473920904b"},"vehicle_type_id":"4","last_reported":1760782143,"current_range_meters":4000,"station_id":"ce4bgqh2rcd13ifvqc5g","pricing_plan_id":"cebpf4jnsgd1na2vs0mg"},{"bike_id":"a68fc264-1407-4d57-978a-088bef01d931","system_id":"levelo_inurba_marseille","lat":43.29248,"lon":5.38451,"is_reserved":false,"is_disabled":false,"rental_uris":{"android":"levelo://app?vid=a68fc264-1407-4d57-978a-088bef01d931","ios":"levelo://app?vid=a68fc264-1407-4d57-978a-088bef01d931"},"vehicle_type_id":"4","last_reported":1760782143,"current_range_meters":4000,"station_id":"ce4bh692rcd13ifvqea0","pricing_plan_id":"cebpf4jnsgd1na2vs0mg"},{"bike_id":"03b76bca-2594-45fa-8b14-e3bcf530755e","system_id":"levelo_inurba_marseille","lat":43.29031,"lon":5.38645,"is_reserved":false,"is_disabled":false,"rental_uris":{"android":"levelo://app?vid=03b76bca-2594-45fa-8b14-e3bcf530755e","ios":"levelo://app?vid=03b76bca-2594-45fa-8b14-e3bcf530755e"},"vehicle_type_id":"4","last_reported":1760782143,"current_range_meters":4000,"station_id":"ce4bh4p2rcd13ifvqe0g","pricing_plan_id":"cebpf4jnsgd1na2vs0mg"},{"bike_id":"47b6a661-48b8-461f-9827-f48295e67bbf","system_id":"levelo_inurba_marseille","lat":43.263016,"lon":5.398362,"is_reserved":false,"is_disabled":false,"rental_uris":{"android":"levelo://app?vid=47b6a661-48b8-461f-9827-f48295e67bbf","ios":"levelo://app?vid=47b6a661-48b8-461f-9827-f48295e67bbf"},"vehicle_type_id":"4","last_reported":1760782143,"current_range_meters":4400,"station_id":"","pricing_plan_id":"cebpf4jnsgd1na2vs0mg"},{"bike_id":"daf6941b-3de8-43a6-b02a-e376cde1cbef","system_id":"levelo_inurba_marseille","lat":43.23963,"lon":5.36639,"is_reserved":false,"is_disabled":false,"rental_uris":{"android":"levelo://app?vid=daf6941b-3de8-43a6-b02a-e376cde1cbef","ios":"levelo://app?vid=daf6941b-3de8-43a6-b02a-e376cde1cbef"},"vehicle_type_id":"4","last_reported":1760782143,"current_range_meters":4400,"station_id":"ce4bhi12rcd13ifvqfp0","pricing_plan_id":"cebpf4jnsgd1na2vs0mg"},{"bike_id":"121f55c8-5a85-4142-a96c-bf52eb873442","system_id":"levelo_inurba_marseille","lat":43.304671,"lon":5.369213,"is_reserved":false,"is_disabled":false,"rental_uris":{"android":"levelo://app?vid=121f55c8-5a85-4142-a96c-bf52eb873442","ios":"levelo://app?vid=121f55c8-5a85-4142-a96c-bf52eb873442"},"vehicle_type_id":"4","last_reported":1760782143,"current_range_meters":4400,"station_id":"","pricing_plan_id":"cebpf4jnsgd1na2vs0mg"},{"bike_id":"4d01285c-1bd5-4edc-a382-43bb35e7dfd5","system_id":"levelo_inurba_marseille","lat":43.305351,"lon":5.365558,"is_reserved":false,"is_disabled":false,"rental_uris":{"android":"levelo://app?vid=4d01285c-1bd5-4edc-a382-43bb35e7dfd5","ios":"levelo://app?vid=4d01285c-1bd5-4edc-a382-43bb35e7dfd5"},"vehicle_type_id":"4","last_reported":1760782143,"current_range_meters":4800,"station_id":"ce4bgs12rcd13ifvqcag","pricing_plan_id":"cebpf4jnsgd1na2vs0mg"},{"bike_id":"e5227e84-1f04-40cb-9893-598d6a21fc27","system_id":"levelo_inurba_marseille","lat":43.21745,"lon":5.34606,"is_reserved":false,"is_disabled":false,"rental_uris":{"android":"levelo://app?vid=e5227e84-1f04-40cb-9893-598d6a21fc27","ios":"levelo://app?vid=e5227e84-1f04-40cb-9893-598d6a21fc27"},"vehicle_type_id":"4","last_reported":1760782143,"current_range_meters":5600,"station_id":"st_cvj6r9ubvosntc0bgbag","pricing_plan_id":"cebpf4jnsgd1na2vs0mg"},{"bike_id":"e257a5c9-b99e-4af1-ac4f-b017f1c8b418","system_id":"levelo_inurba_marseille","lat":43.33759,"lon":5.37438,"is_reserved":false,"is_disabled":false,"rental_uris":{"android":"levelo://app?vid=e257a5c9-b99e-4af1-ac4f-b017f1c8b418","ios":"levelo://app?vid=e257a5c9-b99e-4af1-ac4f-b017f1c8b418"},"vehicle_type_id":"4","last_reported":1760782143,"current_range_meters":5600,"station_id":"","pricing_plan_id":"cebpf4jnsgd1na2vs0mg"},{"bike_id":"7f53dbbe-21b8-4afd-b473-605a32b4013e","system_id":"levelo_inurba_marseille","lat":43.25495,"lon":5.37647,"is_reserved":false,"is_disabled":false,"rental_uris":{"android":"levelo://app?vid=7f53dbbe-21b8-4afd-b473-605a32b4013e","ios":"levelo://app?vid=7f53dbbe-21b8-4afd-b473-605a32b4013e"},"vehicle_type_id":"4","last_reported":1760782143,"current_range_meters":5600,"station_id":"ce4bhh12rcd13ifvqff0","pricing_plan_id":"cebpf4jnsgd1na2vs0mg"},{"bike_id":"ffd73f9e-7f59-4f51-b194-0f67b9e7b826","system_id":"levelo_inurba_marseille","lat":43.33601,"lon":5.41033,"is_reserved":false,"is_disabled":false,"rental_uris":{"android":"levelo://app?vid=ffd73f9e-7f59-4f51-b194-0f67b9e7b826","ios":"levelo://app?vid=ffd73f9e-7f59-4f51-b194-0f67b9e7b826"},"vehicle_type_id":"4","last_reported":1760782143,"current_range_meters":5600,"station_id":"ce4bhqh2rcd13ifvqhmg","pricing_plan_id":"cebpf4jnsgd1na2vs0mg"},{"bike_id":"239d16d8-88c7-4aee-8506-4f55eb58b91f","system_id":"levelo_inurba_marseille","lat":43.3082,"lon":5.43533,"is_reserved":false,"is_disabled":true,"rental_uris":{"android":"levelo://app?vid=239d16d8-88c7-4aee-8506-4f55eb58b91f","ios":"levelo://app?vid=239d16d8-88c7-4aee-8506-4f55eb58b91f"},"vehicle_type_id":"4","last_reported":1760782143,"current_range_meters":6000,"station_id":"ce4bhph2rcd13ifvqheg","pricing_plan_id":"cebpf4jnsgd1na2vs0mg"},{"bike_id":"19062fad-4a94-43cf-b3db-f1a2c78d3984","system_id":"levelo_inurba_marseille","lat":43.28439,"lon":5.39179,"is_reserved":false,"is_disabled":false,"rental_uris":{"android":"levelo://app?vid=19062fad-4a94-43cf-b3db-f1a2c78d3984","ios":"levelo://app?vid=19062fad-4a94-43cf-b3db-f1a2c78d3984"},"vehicle_type_id":"4","last_reported":1760782143,"current_range_meters":6400,"station_id":"ce4bhoh2rcd13ifvqh5g","pricing_plan_id":"cebpf4jnsgd1na2vs0mg"},{"bike_id":"eaf73094-ad72-4926-85d6-16f3f0d7a30d","system_id":"levelo_inurba_marseille","lat":43.225557,"lon":5.416297,"is_reserved":false,"is_disabled":false,"rental_uris":{"android":"levelo://app?vid=eaf73094-ad72-4926-85d6-16f3f0d7a30d","ios":"levelo://app?vid=eaf73094-ad72-4926-85d6-16f3f0d7a30d"},"vehicle_type_id":"4","last_reported":1760782143,"current_range_meters":6400,"station_id":"st_d2o4gvlbi1j2169b742g","pricing_plan_id":"cebpf4jnsgd1na2vs0mg"},{"bike_id":"07e48457-1ffb-4ce9-bc4d-5cb77df9cb0b","system_id":"levelo_inurba_marseille","lat":43.28406,"lon":5.34981,"is_reserved":false,"is_disabled":false,"rental_uris":{"android":"levelo://app?vid=07e48457-1ffb-4ce9-bc4d-5cb77df9cb0b","ios":"levelo://app?vid=07e48457-1ffb-4ce9-bc4d-5cb77df9cb0b"},"vehicle_type_id":"4","last_reported":1760782143,"current_range_meters":6400,"station_id":"ce4bhbh2rcd13ifvqepg","pricing_plan_id":"cebpf4jnsgd1na2vs0mg"},{"bike_id":"837692bb-f932-46c7-ab0c-6d7fd45b8f82","system_id":"levelo_inurba_marseille","lat":43.236,"lon":5.37413,"is_reserved":false,"is_disabled":false,"rental_uris":{"android":"levelo://app?vid=837692bb-f932-46c7-ab0c-6d7fd45b8f82","ios":"levelo://app?vid=837692bb-f932-46c7-ab0c-6d7fd45b8f82"},"vehicle_type_id":"4","last_reported":1760782143,"current_range_meters":6400,"station_id":"","pricing_plan_id":"cebpf4jnsgd1na2vs0mg"},{"bike_id":"5fe869cd-2b61-4adf-8654-fbdd6c029797","system_id":"levelo_inurba_marseille","lat":43.30428,"lon":5.38896,"is_reserved":false,"is_disabled":false,"rental_uris":{"android":"levelo://app?vid=5fe869cd-2b61-4adf-8654-fbdd6c029797","ios":"levelo://app?vid=5fe869cd-2b61-4adf-8654-fbdd6c029797"},"vehicle_type_id":"4","last_reported":1760782143,"current_range_meters":6400,"station_id":"ce4bgk12rcd13ifvqbi0","pricing_plan_id":"cebpf4jnsgd1na2vs0mg"},{"bike_id":"fd314a9d-f78f-4c54-ba38-b83db037eb7d","system_id":"levelo_inurba_marseille","lat":43.211942,"lon":5.350763,"is_reserved":false,"is_disabled":false,"rental_uris":{"android":"levelo://app?vid=fd314a9d-f78f-4c54-ba38-b83db037eb7d","ios":"levelo://app?vid=fd314a9d-f78f-4c54-ba38-b83db037eb7d"},"vehicle_type_id":"4","last_reported":1760782143,"current_range_meters":6400,"station_id":"","pricing_plan_id":"cebpf4jnsgd1na2vs0mg"},{"bike_id":"319ca0b6-643b-48b4-abfd-ce9e2dffe92f","system_id":"levelo_inurba_marseille","lat":43.22574,"lon":5.41628,"is_reserved":false,"is_disabled":false,"rental_uris":{"android":"levelo://app?vid=319ca0b6-643b-48b4-abfd-ce9e2dffe92f","ios":"levelo://app?vid=319ca0b6-643b-48b4-abfd-ce9e2dffe92f"},"vehicle_type_id":"4","last_reported":1760782143,"current_range_meters":6800,"station_id":"st_d2o4gvlbi1j2169b742g","pricing_plan_id":"cebpf4jnsgd1na2vs0mg"},{"bike_id":"24d82d64-1145-442f-a9f5-19238b0b39ef","system_id":"levelo_inurba_marseille","lat":43.272133,"lon":5.391866,"is_reserved":false,"is_disabled":false,"rental_uris":{"android":"levelo://app?vid=24d82d64-1145-442f-a9f5-19238b0b39ef","ios":"levelo://app?vid=24d82d64-1145-442f-a9f5-19238b0b39ef"},"vehicle_type_id":"4","last_reported":1760782143,"current_range_meters":6800,"station_id":"","pricing_plan_id":"cebpf4jnsgd1na2vs0mg"},{"bike_id":"f5ea6c64-c184-4a9d-a7a3-7a26f261aece","system_id":"levelo_inurba_marseille","lat":43.290699,"lon":5.359135,"is_reserved":false,"is_disabled":false,"rental_uris":{"android":"levelo://app?vid=f5ea6c64-c184-4a9d-a7a3-7a26f261aece","ios":"levelo://app?vid=f5ea6c64-c184-4a9d-a7a3-7a26f261aece"},"vehicle_type_id":"4","last_reported":1760782143,"current_range_meters":7200,"station_id":"ce4bha92rcd13ifvqeg0","pricing_plan_id":"cebpf4jnsgd1na2vs0mg"},{"bike_id":"0f578e39-8e1b-40d3-96a6-c996987d4b3b","system_id":"levelo_inurba_marseille","lat":43.3093,"lon":5.40147,"is_reserved":false,"is_disabled":false,"rental_uris":{"android":"levelo://app?vid=0f578e39-8e1b-40d3-96a6-c996987d4b3b","ios":"levelo://app?vid=0f578e39-8e1b-40d3-96a6-c996987d4b3b"},"vehicle_type_id":"4","last_reported":1760782143,"current_range_meters":7200,"station_id":"ce4bgvp2rcd13ifvqct0","pricing_plan_id":"cebpf4jnsgd1na2vs0mg"},{"bike_id":"b198fdae-a02e-4380-b40a-23fa0f5e4197","system_id":"levelo_inurba_marseille","lat":43.2862,"lon":5.406969,"is_reserved":false,"is_disabled":false,"rental_uris":{"android":"levelo://app?vid=b198fdae-a02e-4380-b40a-23fa0f5e4197","ios":"levelo://app?vid=b198fdae-a02e-4380-b40a-23fa0f5e4197"},"vehicle_type_id":"4","last_reported":1760782143,"current_range_meters":7200,"station_id":"","pricing_plan_id":"cebpf4jnsgd1na2vs0mg"},{"bike_id":"fbec26d2-9d8c-486c-942e-6a22466e9a7c","system_id":"levelo_inurba_marseille","lat":43.29276,"lon":5.36845,"is_reserved":false,"is_disabled":false,"rental_uris":{"android":"levelo://app?vid=fbec26d2-9d8c-486c-942e-6a22466e9a7c","ios":"levelo://app?vid=fbec26d2-9d8c-486c-942e-6a22466e9a7c"},"vehicle_type_id":"4","last_reported":1760782143,"current_range_meters":7200,"station_id":"ce4bhbp2rcd13ifvqesg","pricing_plan_id":"cebpf4jnsgd1na2vs0mg"},{"bike_id":"5556543b-c8ce-4c3c-8d65-609e8f5df9de","system_id":"levelo_inurba_marseille","lat":43.217925,"lon":5.345993,"is_reserved":false,"is_disabled":false,"rental_uris":{"android":"levelo://app?vid=5556543b-c8ce-4c3c-8d65-609e8f5df9de","ios":"levelo://app?vid=5556543b-c8ce-4c3c-8d65-609e8f5df9de"},"vehicle_type_id":"4","last_reported":1760782143,"current_range_meters":8000,"station_id":"","pricing_plan_id":"cebpf4jnsgd1na2vs0mg"},{"bike_id":"0765be9c-2d34-4922-914e-b42902493348","system_id":"levelo_inurba_marseille","lat":43.2757,"lon":5.38421,"is_reserved":false,"is_disabled":false,"rental_uris":{"android":"levelo://app?vid=0765be9c-2d34-4922-914e-b42902493348","ios":"levelo://app?vid=0765be9c-2d34-4922-914e-b42902493348"},"vehicle_type_id":"4","last_reported":1760782143,"current_range_meters":8000,"station_id":"ce4bhh92rcd13ifvqfi0","pricing_plan_id":"cebpf4jnsgd1na2vs0mg"},{"bike_id":"0c01c257-728d-46a3-a07a-b79f81ce023c","system_id":"levelo_inurba_marseille","lat":43.29965,"lon":5.38602,"is_reserved":false,"is_disabled":false,"rental_uris":{"android":"levelo://app?vid=0c01c257-728d-46a3-a07a-b79f81ce023c","ios":"levelo://app?vid=0c01c257-728d-46a3-a07a-b79f81ce023c"},"vehicle_type_id":"4","last_reported":1760782143,"current_range_meters":8000,"station_id":"","pricing_plan_id":"cebpf4jnsgd1na2vs0mg"},{"bike_id":"416f580b-31c7-4ade-8604-dbd86eb8155f","system_id":"levelo_inurba_marseille","lat":43.28164,"lon":5.42124,"is_reserved":false,"is_disabled":false,"rental_uris":{"android":"levelo://app?vid=416f580b-31c7-4ade-8604-dbd86eb8155f","ios":"levelo://app?vid=416f580b-31c7-4ade-8604-dbd86eb8155f"},"vehicle_type_id":"4","last_reported":1760782143,"current_range_meters":8000,"station_id":"","pricing_plan_id":"cebpf4jnsgd1na2vs0mg"},{"bike_id":"edc2b540-f4d1-424e-9002-80823ed0b6b2","system_id":"levelo_inurba_marseille","lat":43.283816,"lon":5.37021,"is_reserved":false,"is_disabled":false,"rental_uris":{"android":"levelo://app?vid=edc2b540-f4d1-424e-9002-80823ed0b6b2","ios":"levelo://app?vid=edc2b540-f4d1-424e-9002-80823ed0b6b2"},"vehicle_type_id":"4","last_reported":1760782143,"current_range_meters":8000,"station_id":"","pricing_plan_id":"cebpf4jnsgd1na2vs0mg"},{"bike_id":"17266aff-8a59-4bd1-a91d-49e08e53d11c","system_id":"levelo_inurba_marseille","lat":43.29503,"lon":5.4091,"is_reserved":false,"is_disabled":false,"rental_uris":{"android":"levelo://app?vid=17266aff-8a59-4bd1-a91d-49e08e53d11c","ios":"levelo://app?vid=17266aff-8a59-4bd1-a91d-49e08e53d11c"},"vehicle_type_id":"4","last_reported":1760782143,"current_range_meters":8000,"station_id":"","pricing_plan_id":"cebpf4jnsgd1na2vs0mg"},{"bike_id":"5fe6e873-dba1-40dd-bc65-77de126f2710","system_id":"levelo_inurba_marseille","lat":43.332893,"lon":5.395256,"is_reserved":false,"is_disabled":false,"rental_uris":{"android":"levelo://app?vid=5fe6e873-dba1-40dd-bc65-77de126f2710","ios":"levelo://app?vid=5fe6e873-dba1-40dd-bc65-77de126f2710"},"vehicle_type_id":"4","last_reported":1760782143,"current_range_meters":8000,"station_id":"","pricing_plan_id":"cebpf4jnsgd1na2vs0mg"},{"bike_id":"fc51ab56-00b6-4f2e-8684-b5ef6e82017a","system_id":"levelo_inurba_marseille","lat":43.28861,"lon":5.42515,"is_reserved":false,"is_disabled":false,"rental_uris":{"android":"levelo://app?vid=fc51ab56-00b6-4f2e-8684-b5ef6e82017a","ios":"levelo://app?vid=fc51ab56-00b6-4f2e-8684-b5ef6e82017a"},"vehicle_type_id":"4","last_reported":1760782143,"current_range_meters":8000,"station_id":"st_d3b462108ojc7389ooeg","pricing_plan_id":"cebpf4jnsgd1na2vs0mg"},{"bike_id":"cfb3fcf1-7d43-4247-8d54-ff93bd89ba87","system_id":"levelo_inurba_marseille","lat":43.30697,"lon":5.39714,"is_reserved":false,"is_disabled":false,"rental_uris":{"android":"levelo://app?vid=cfb3fcf1-7d43-4247-8d54-ff93bd89ba87","ios":"levelo://app?vid=cfb3fcf1-7d43-4247-8d54-ff93bd89ba87"},"vehicle_type_id":"4","last_reported":1760782143,"current_range_meters":8000,"station_id":"","pricing_plan_id":"cebpf4jnsgd1na2vs0mg"},{"bike_id":"f32286ab-ad9a-4859-87c0-7d0f7a9688d9","system_id":"levelo_inurba_marseille","lat":43.23153,"lon":5.43717,"is_reserved":false,"is_disabled":false,"rental_uris":{"android":"levelo://app?vid=f32286ab-ad9a-4859-87c0-7d0f7a9688d9","ios":"levelo://app?vid=f32286ab-ad9a-4859-87c0-7d0f7a9688d9"},"vehicle_type_id":"4","last_reported":1760782143,"current_range_meters":8400,"station_id":"ce4bhmp2rcd13ifvqgog","pricing_plan_id":"cebpf4jnsgd1na2vs0mg"},{"bike_id":"9dd1d8fe-c2a8-4a70-a175-61f5f9fe7fd2","system_id":"levelo_inurba_marseille","lat":43.3217,"lon":5.38702,"is_reserved":false,"is_disabled":false,"rental_uris":{"android":"levelo://app?vid=9dd1d8fe-c2a8-4a70-a175-61f5f9fe7fd2","ios":"levelo://app?vid=9dd1d8fe-c2a8-4a70-a175-61f5f9fe7fd2"},"vehicle_type_id":"4","last_reported":1760782143,"current_range_meters":8400,"station_id":"","pricing_plan_id":"cebpf4jnsgd1na2vs0mg"},{"bike_id":"6135013d-c5d0-4021-8ab8-3d22e7e458e0","system_id":"levelo_inurba_marseille","lat":43.29099,"lon":5.38144,"is_reserved":false,"is_disabled":false,"rental_uris":{"android":"levelo://app?vid=6135013d-c5d0-4021-8ab8-3d22e7e458e0","ios":"levelo://app?vid=6135013d-c5d0-4021-8ab8-3d22e7e458e0"},"vehicle_type_id":"4","last_reported":1760782143,"current_range_meters":8400,"station_id":"ce4bh512rcd13ifvqe2g","pricing_plan_id":"cebpf4jnsgd1na2vs0mg"},{"bike_id":"abb7e1f7-66b8-4be6-b353-5060479353db","system_id":"levelo_inurba_marseille","lat":43.30157,"lon":5.38099,"is_reserved":false,"is_disabled":false,"rental_uris":{"android":"levelo://app?vid=abb7e1f7-66b8-4be6-b353-5060479353db","ios":"levelo://app?vid=abb7e1f7-66b8-4be6-b353-5060479353db"},"vehicle_type_id":"4","last_reported":1760782143,"current_range_meters":8400,"station_id":"ce4bgjp2rcd13ifvqbh0","pricing_plan_id":"cebpf4jnsgd1na2vs0mg"},{"bike_id":"a50c8777-9525-4175-a65c-3e711c90478b","system_id":"levelo_inurba_marseille","lat":43.292623,"lon":5.384357,"is_reserved":false,"is_disabled":false,"rental_uris":{"android":"levelo://app?vid=a50c8777-9525-4175-a65c-3e711c90478b","ios":"levelo://app?vid=a50c8777-9525-4175-a65c-3e711c90478b"},"vehicle_type_id":"4","last_reported":1760782143,"current_range_meters":8400,"station_id":"ce4bh692rcd13ifvqea0","pricing_plan_id":"cebpf4jnsgd1na2vs0mg"},{"bike_id":"0f9c20ae-f80b-4bc4-a84d-e94070c41d3b","system_id":"levelo_inurba_marseille","lat":43.2257,"lon":5.41625,"is_reserved":false,"is_disabled":false,"rental_uris":{"android":"levelo://app?vid=0f9c20ae-f80b-4bc4-a84d-e94070c41d3b","ios":"levelo://app?vid=0f9c20ae-f80b-4bc4-a84d-e94070c41d3b"},"vehicle_type_id":"4","last_reported":1760782143,"current_range_meters":8400,"station_id":"st_d2o4gvlbi1j2169b742g","pricing_plan_id":"cebpf4jnsgd1na2vs0mg"},{"bike_id":"2fad9211-819b-4892-bf52-014fbefdb6cb","system_id":"levelo_inurba_marseille","lat":43.301519,"lon":5.373953,"is_reserved":false,"is_disabled":false,"rental_uris":{"android":"levelo://app?vid=2fad9211-819b-4892-bf52-014fbefdb6cb","ios":"levelo://app?vid=2fad9211-819b-4892-bf52-014fbefdb6cb"},"vehicle_type_id":"4","last_reported":1760782143,"current_range_meters":8400,"station_id":"ce4bgs92rcd13ifvqcc0","pricing_plan_id":"cebpf4jnsgd1na2vs0mg"},{"bike_id":"c5e45447-2956-450f-bd7e-88aaf308c04d","system_id":"levelo_inurba_marseille","lat":43.290039,"lon":5.365334,"is_reserved":false,"is_disabled":false,"rental_uris":{"android":"levelo://app?vid=c5e45447-2956-450f-bd7e-88aaf308c04d","ios":"levelo://app?vid=c5e45447-2956-450f-bd7e-88aaf308c04d"},"vehicle_type_id":"4","last_reported":1760782143,"current_range_meters":8800,"station_id":"","pricing_plan_id":"cebpf4jnsgd1na2vs0mg"},{"bike_id":"8bd272a3-683a-4148-9970-3334beb0a457","system_id":"levelo_inurba_marseille","lat":43.28547,"lon":5.44085,"is_reserved":false,"is_disabled":false,"rental_uris":{"android":"levelo://app?vid=8bd272a3-683a-4148-9970-3334beb0a457","ios":"levelo://app?vid=8bd272a3-683a-4148-9970-3334beb0a457"},"vehicle_type_id":"4","last_reported":1760782143,"current_range_meters":8800,"station_id":"st_d3j3df2ikq2c7380ej80","pricing_plan_id":"cebpf4jnsgd1na2vs0mg"},{"bike_id":"017a56f7-c113-4dd8-bd5e-8a954d7e961f","system_id":"levelo_inurba_marseille","lat":43.26033,"lon":5.375461,"is_reserved":false,"is_disabled":false,"rental_uris":{"android":"levelo://app?vid=017a56f7-c113-4dd8-bd5e-8a954d7e961f","ios":"levelo://app?vid=017a56f7-c113-4dd8-bd5e-8a954d7e961f"},"vehicle_type_id":"4","last_reported":1760782143,"current_range_meters":8800,"station_id":"ce4bhgh2rcd13ifvqfa0","pricing_plan_id":"cebpf4jnsgd1na2vs0mg"},{"bike_id":"a817b630-bbed-48d3-97f4-9bd571b9ebab","system_id":"levelo_inurba_marseille","lat":43.29996,"lon":5.37357,"is_reserved":false,"is_disabled":false,"rental_uris":{"android":"levelo://app?vid=a817b630-bbed-48d3-97f4-9bd571b9ebab","ios":"levelo://app?vid=a817b630-bbed-48d3-97f4-9bd571b9ebab"},"vehicle_type_id":"4","last_reported":1760782143,"current_range_meters":8800,"station_id":"","pricing_plan_id":"cebpf4jnsgd1na2vs0mg"},{"bike_id":"245a030c-0c43-41f8-a4cc-088d55252b06","system_id":"levelo_inurba_marseille","lat":43.24479,"lon":5.36925,"is_reserved":false,"is_disabled":false,"rental_uris":{"android":"levelo://app?vid=245a030c-0c43-41f8-a4cc-088d55252b06","ios":"levelo://app?vid=245a030c-0c43-41f8-a4cc-088d55252b06"},"vehicle_type_id":"4","last_reported":1760782143,"current_range_meters":9200,"station_id":"","pricing_plan_id":"cebpf4jnsgd1na2vs0mg"},{"bike_id":"ea883585-d0e4-4bcb-922c-57b2a3efdeac","system_id":"levelo_inurba_marseille","lat":43.30522,"lon":5.36859,"is_reserved":false,"is_disabled":false,"rental_uris":{"android":"levelo://app?vid=ea883585-d0e4-4bcb-922c-57b2a3efdeac","ios":"levelo://app?vid=ea883585-d0e4-4bcb-922c-57b2a3efdeac"},"vehicle_type_id":"4","last_reported":1760782143,"current_range_meters":9200,"station_id":"","pricing_plan_id":"cebpf4jnsgd1na2vs0mg"},{"bike_id":"da2a3911-1a2c-472e-9ade-a9777785b7f1","system_id":"levelo_inurba_marseille","lat":43.31268,"lon":5.40168,"is_reserved":false,"is_disabled":false,"rental_uris":{"android":"levelo://app?vid=da2a3911-1a2c-472e-9ade-a9777785b7f1","ios":"levelo://app?vid=da2a3911-1a2c-472e-9ade-a9777785b7f1"},"vehicle_type_id":"4","last_reported":1760782143,"current_range_meters":9600,"station_id":"ce4bh092rcd13ifvqd30","pricing_plan_id":"cebpf4jnsgd1na2vs0mg"},{"bike_id":"7fc0cda4-3b38-447e-872d-f9b833784b7c","system_id":"levelo_inurba_marseille","lat":43.23959,"lon":5.36627,"is_reserved":false,"is_disabled":true,"rental_uris":{"android":"levelo://app?vid=7fc0cda4-3b38-447e-872d-f9b833784b7c","ios":"levelo://app?vid=7fc0cda4-3b38-447e-872d-f9b833784b7c"},"vehicle_type_id":"4","last_reported":1760782143,"current_range_meters":9600,"station_id":"ce4bhi12rcd13ifvqfp0","pricing_plan_id":"cebpf4jnsgd1na2vs0mg"},{"bike_id":"f04b1f8f-12bd-452e-8b9c-3e7bdd6e923f","system_id":"levelo_inurba_marseille","lat":43.27059,"lon":5.40256,"is_reserved":false,"is_disabled":false,"rental_uris":{"android":"levelo://app?vid=f04b1f8f-12bd-452e-8b9c-3e7bdd6e923f","ios":"levelo://app?vid=f04b1f8f-12bd-452e-8b9c-3e7bdd6e923f"},"vehicle_type_id":"4","last_reported":1760782143,"current_range_meters":9600,"station_id":"ce4bhk92rcd13ifvqgc0","pricing_plan_id":"cebpf4jnsgd1na2vs0mg"},{"bike_id":"4b08cfe7-5df1-4e29-905e-03a9992f8dfa","system_id":"levelo_inurba_marseille","lat":43.33775,"lon":5.37429,"is_reserved":false,"is_disabled":false,"rental_uris":{"android":"levelo://app?vid=4b08cfe7-5df1-4e29-905e-03a9992f8dfa","ios":"levelo://app?vid=4b08cfe7-5df1-4e29-905e-03a9992f8dfa"},"vehicle_type_id":"4","last_reported":1760782143,"current_range_meters":9600,"station_id":"","pricing_plan_id":"cebpf4jnsgd1na2vs0mg"},{"bike_id":"5ef02582-c97b-4c9d-b747-7a0a6a179e1e","system_id":"levelo_inurba_marseille","lat":43.298512,"lon":5.362866,"is_reserved":false,"is_disabled":false,"rental_uris":{"android":"levelo://app?vid=5ef02582-c97b-4c9d-b747-7a0a6a179e1e","ios":"levelo://app?vid=5ef02582-c97b-4c9d-b747-7a0a6a179e1e"},"vehicle_type_id":"4","last_reported":1760782143,"current_range_meters":10000,"station_id":"ce4bgpp2rcd13ifvqc3g","pricing_plan_id":"cebpf4jnsgd1na2vs0mg"},{"bike_id":"83647afe-2fcd-4289-8c0b-2a8dae92db43","system_id":"levelo_inurba_marseille","lat":43.28921,"lon":5.38399,"is_reserved":false,"is_disabled":false,"rental_uris":{"android":"levelo://app?vid=83647afe-2fcd-4289-8c0b-2a8dae92db43","ios":"levelo://app?vid=83647afe-2fcd-4289-8c0b-2a8dae92db43"},"vehicle_type_id":"4","last_reported":1760782143,"current_range_meters":10000,"station_id":"ce4bh612rcd13ifvqe6g","pricing_plan_id":"cebpf4jnsgd1na2vs0mg"},{"bike_id":"d1cbcb3c-5d5c-44ad-ac09-d8532ca01882","system_id":"levelo_inurba_marseille","lat":43.27369,"lon":5.36253,"is_reserved":false,"is_disabled":false,"rental_uris":{"android":"levelo://app?vid=d1cbcb3c-5d5c-44ad-ac09-d8532ca01882","ios":"levelo://app?vid=d1cbcb3c-5d5c-44ad-ac09-d8532ca01882"},"vehicle_type_id":"4","last_reported":1760782143,"current_range_meters":10800,"station_id":"ce4bhbh2rcd13ifvqeo0","pricing_plan_id":"cebpf4jnsgd1na2vs0mg"},{"bike_id":"b3edc609-7782-46af-831c-544f1d118f47","system_id":"levelo_inurba_marseille","lat":43.30817,"lon":5.43521,"is_reserved":false,"is_disabled":false,"rental_uris":{"android":"levelo://app?vid=b3edc609-7782-46af-831c-544f1d118f47","ios":"levelo://app?vid=b3edc609-7782-46af-831c-544f1d118f47"},"vehicle_type_id":"4","last_reported":1760782143,"current_range_meters":10800,"station_id":"ce4bhph2rcd13ifvqheg","pricing_plan_id":"cebpf4jnsgd1na2vs0mg"},{"bike_id":"a3411cd9-721e-4707-87bc-ffafa71c833d","system_id":"levelo_inurba_marseille","lat":43.25859,"lon":5.399,"is_reserved":false,"is_disabled":false,"rental_uris":{"android":"levelo://app?vid=a3411cd9-721e-4707-87bc-ffafa71c833d","ios":"levelo://app?vid=a3411cd9-721e-4707-87bc-ffafa71c833d"},"vehicle_type_id":"4","last_reported":1760782143,"current_range_meters":10800,"station_id":"ce4bhl92rcd13ifvqghg","pricing_plan_id":"cebpf4jnsgd1na2vs0mg"},{"bike_id":"e0b489d5-313d-4b97-a869-ac716097557c","system_id":"levelo_inurba_marseille","lat":43.26488,"lon":5.395457,"is_reserved":false,"is_disabled":false,"rental_uris":{"android":"levelo://app?vid=e0b489d5-313d-4b97-a869-ac716097557c","ios":"levelo://app?vid=e0b489d5-313d-4b97-a869-ac716097557c"},"vehicle_type_id":"4","last_reported":1760782143,"current_range_meters":10800,"station_id":"ce4bhi12rcd13ifvqfq0","pricing_plan_id":"cebpf4jnsgd1na2vs0mg"},{"bike_id":"39e88578-2170-4b2d-a9d5-8b8a963eddf4","system_id":"levelo_inurba_marseille","lat":43.28419,"lon":5.34992,"is_reserved":false,"is_disabled":false,"rental_uris":{"android":"levelo://app?vid=39e88578-2170-4b2d-a9d5-8b8a963eddf4","ios":"levelo://app?vid=39e88578-2170-4b2d-a9d5-8b8a963eddf4"},"vehicle_type_id":"4","last_reported":1760782143,"current_range_meters":10800,"station_id":"ce4bhbh2rcd13ifvqepg","pricing_plan_id":"cebpf4jnsgd1na2vs0mg"},{"bike_id":"71469145-1700-41a7-8219-7cf39ceb41b9","system_id":"levelo_inurba_marseille","lat":43.27492,"lon":5.42455,"is_reserved":false,"is_disabled":false,"rental_uris":{"android":"levelo://app?vid=71469145-1700-41a7-8219-7cf39ceb41b9","ios":"levelo://app?vid=71469145-1700-41a7-8219-7cf39ceb41b9"},"vehicle_type_id":"4","last_reported":1760782143,"current_range_meters":10800,"station_id":"ce4bhn92rcd13ifvqgrg","pricing_plan_id":"cebpf4jnsgd1na2vs0mg"},{"bike_id":"b8f90e59-7520-413b-88b6-725027c4fe2d","system_id":"levelo_inurba_marseille","lat":43.27202,"lon":5.40992,"is_reserved":false,"is_disabled":false,"rental_uris":{"android":"levelo://app?vid=b8f90e59-7520-413b-88b6-725027c4fe2d","ios":"levelo://app?vid=b8f90e59-7520-413b-88b6-725027c4fe2d"},"vehicle_type_id":"4","last_reported":1760782143,"current_range_meters":10800,"station_id":"ce4bhl12rcd13ifvqgf0","pricing_plan_id":"cebpf4jnsgd1na2vs0mg"},{"bike_id":"924ac669-be8b-47aa-9a8e-6f22baf815eb","system_id":"levelo_inurba_marseille","lat":43.337692,"lon":5.374734,"is_reserved":false,"is_disabled":false,"rental_uris":{"android":"levelo://app?vid=924ac669-be8b-47aa-9a8e-6f22baf815eb","ios":"levelo://app?vid=924ac669-be8b-47aa-9a8e-6f22baf815eb"},"vehicle_type_id":"4","last_reported":1760782143,"current_range_meters":11200,"station_id":"","pricing_plan_id":"cebpf4jnsgd1na2vs0mg"},{"bike_id":"fd90df22-5407-4860-884a-ff2370b7a60d","system_id":"levelo_inurba_marseille","lat":43.292235,"lon":5.37735,"is_reserved":false,"is_disabled":false,"rental_uris":{"android":"levelo://app?vid=fd90df22-5407-4860-884a-ff2370b7a60d","ios":"levelo://app?vid=fd90df22-5407-4860-884a-ff2370b7a60d"},"vehicle_type_id":"4","last_reported":1760782143,"current_range_meters":11200,"station_id":"ce4bgi12rcd13ifvqb80","pricing_plan_id":"cebpf4jnsgd1na2vs0mg"},{"bike_id":"f93cd2a0-fd80-4ae4-86fe-1f767d8cc36c","system_id":"levelo_inurba_marseille","lat":43.30538,"lon":5.36545,"is_reserved":false,"is_disabled":false,"rental_uris":{"android":"levelo://app?vid=f93cd2a0-fd80-4ae4-86fe-1f767d8cc36c","ios":"levelo://app?vid=f93cd2a0-fd80-4ae4-86fe-1f767d8cc36c"},"vehicle_type_id":"4","last_reported":1760782143,"current_range_meters":11600,"station_id":"ce4bgs12rcd13ifvqcag","pricing_plan_id":"cebpf4jnsgd1na2vs0mg"},{"bike_id":"606fec93-cfed-47a4-931e-a2b3c382399f","system_id":"levelo_inurba_marseille","lat":43.29256,"lon":5.37624,"is_reserved":false,"is_disabled":false,"rental_uris":{"android":"levelo://app?vid=606fec93-cfed-47a4-931e-a2b3c382399f","ios":"levelo://app?vid=606fec93-cfed-47a4-931e-a2b3c382399f"},"vehicle_type_id":"4","last_reported":1760782143,"current_range_meters":11600,"station_id":"ce4bgi12rcd13ifvqb80","pricing_plan_id":"cebpf4jnsgd1na2vs0mg"},{"bike_id":"1e328c61-581d-4d10-8276-943ecab854d4","system_id":"levelo_inurba_marseille","lat":43.295787,"lon":5.375215,"is_reserved":false,"is_disabled":false,"rental_uris":{"android":"levelo://app?vid=1e328c61-581d-4d10-8276-943ecab854d4","ios":"levelo://app?vid=1e328c61-581d-4d10-8276-943ecab854d4"},"vehicle_type_id":"4","last_reported":1760782143,"current_range_meters":11600,"station_id":"ce4bgh92rcd13ifvqb50","pricing_plan_id":"cebpf4jnsgd1na2vs0mg"},{"bike_id":"6e51bc6f-4279-4b54-bc8c-71cddc15b6a8","system_id":"levelo_inurba_marseille","lat":43.28934,"lon":5.36647,"is_reserved":false,"is_disabled":false,"rental_uris":{"android":"levelo://app?vid=6e51bc6f-4279-4b54-bc8c-71cddc15b6a8","ios":"levelo://app?vid=6e51bc6f-4279-4b54-bc8c-71cddc15b6a8"},"vehicle_type_id":"4","last_reported":1760782143,"current_range_meters":11600,"station_id":"ce4bhap2rcd13ifvqek0","pricing_plan_id":"cebpf4jnsgd1na2vs0mg"},{"bike_id":"059794a7-bbb4-4073-88a1-7cf38593c2e7","system_id":"levelo_inurba_marseille","lat":43.23788,"lon":5.36633,"is_reserved":false,"is_disabled":false,"rental_uris":{"android":"levelo://app?vid=059794a7-bbb4-4073-88a1-7cf38593c2e7","ios":"levelo://app?vid=059794a7-bbb4-4073-88a1-7cf38593c2e7"},"vehicle_type_id":"4","last_reported":1760782143,"current_range_meters":12000,"station_id":"st_d3nk18o9ro0c73en2l3g","pricing_plan_id":"cebpf4jnsgd1na2vs0mg"},{"bike_id":"4172ae5d-a78d-4578-aae2-38ee34bffa63","system_id":"levelo_inurba_marseille","lat":43.308907,"lon":5.371979,"is_reserved":false,"is_disabled":false,"rental_uris":{"android":"levelo://app?vid=4172ae5d-a78d-4578-aae2-38ee34bffa63","ios":"levelo://app?vid=4172ae5d-a78d-4578-aae2-38ee34bffa63"},"vehicle_type_id":"4","last_reported":1760782143,"current_range_meters":12000,"station_id":"ce4bguh2rcd13ifvqckg","pricing_plan_id":"cebpf4jnsgd1na2vs0mg"},{"bike_id":"3b7dcef1-a053-42c6-a90b-2e90d183394e","system_id":"levelo_inurba_marseille","lat":43.22563,"lon":5.41623,"is_reserved":false,"is_disabled":false,"rental_uris":{"android":"levelo://app?vid=3b7dcef1-a053-42c6-a90b-2e90d183394e","ios":"levelo://app?vid=3b7dcef1-a053-42c6-a90b-2e90d183394e"},"vehicle_type_id":"4","last_reported":1760782143,"current_range_meters":12000,"station_id":"","pricing_plan_id":"cebpf4jnsgd1na2vs0mg"},{"bike_id":"450389c3-960c-4328-be5d-321b14502538","system_id":"levelo_inurba_marseille","lat":43.23953,"lon":5.36639,"is_reserved":false,"is_disabled":false,"rental_uris":{"android":"levelo://app?vid=450389c3-960c-4328-be5d-321b14502538","ios":"levelo://app?vid=450389c3-960c-4328-be5d-321b14502538"},"vehicle_type_id":"4","last_reported":1760782143,"current_range_meters":12000,"station_id":"ce4bhi12rcd13ifvqfp0","pricing_plan_id":"cebpf4jnsgd1na2vs0mg"},{"bike_id":"13602366-f220-4faa-adc2-56e0b4a84c9c","system_id":"levelo_inurba_marseille","lat":43.29901,"lon":5.43653,"is_reserved":false,"is_disabled":true,"rental_uris":{"android":"levelo://app?vid=13602366-f220-4faa-adc2-56e0b4a84c9c","ios":"levelo://app?vid=13602366-f220-4faa-adc2-56e0b4a84c9c"},"vehicle_type_id":"4","last_reported":1760782143,"current_range_meters":12000,"station_id":"ce4bhpp2rcd13ifvqhfg","pricing_plan_id":"cebpf4jnsgd1na2vs0mg"},{"bike_id":"e082eb77-dff0-4841-8bc1-1b3492c0d507","system_id":"levelo_inurba_marseille","lat":43.27989,"lon":5.4167,"is_reserved":false,"is_disabled":false,"rental_uris":{"android":"levelo://app?vid=e082eb77-dff0-4841-8bc1-1b3492c0d507","ios":"levelo://app?vid=e082eb77-dff0-4841-8bc1-1b3492c0d507"},"vehicle_type_id":"4","last_reported":1760782143,"current_range_meters":12000,"station_id":"ce4bho12rcd13ifvqh1g","pricing_plan_id":"cebpf4jnsgd1na2vs0mg"},{"bike_id":"75b02a51-1325-435e-9661-29bb451a696a","system_id":"levelo_inurba_marseille","lat":43.31448,"lon":5.38488,"is_reserved":false,"is_disabled":false,"rental_uris":{"android":"levelo://app?vid=75b02a51-1325-435e-9661-29bb451a696a","ios":"levelo://app?vid=75b02a51-1325-435e-9661-29bb451a696a"},"vehicle_type_id":"4","last_reported":1760782143,"current_range_meters":12000,"station_id":"","pricing_plan_id":"cebpf4jnsgd1na2vs0mg"},{"bike_id":"0b170382-a38a-48fc-b060-b901de311f1a","system_id":"levelo_inurba_marseille","lat":43.33047,"lon":5.39024,"is_reserved":false,"is_disabled":false,"rental_uris":{"android":"levelo://app?vid=0b170382-a38a-48fc-b060-b901de311f1a","ios":"levelo://app?vid=0b170382-a38a-48fc-b060-b901de311f1a"},"vehicle_type_id":"4","last_reported":1760782143,"current_range_meters":12400,"station_id":"ce4bhr92rcd13ifvqhrg","pricing_plan_id":"cebpf4jnsgd1na2vs0mg"},{"bike_id":"a572d534-8d63-4451-bc9e-d0cda76f40c2","system_id":"levelo_inurba_marseille","lat":43.2962,"lon":5.37715,"is_reserved":false,"is_disabled":false,"rental_uris":{"android":"levelo://app?vid=a572d534-8d63-4451-bc9e-d0cda76f40c2","ios":"levelo://app?vid=a572d534-8d63-4451-bc9e-d0cda76f40c2"},"vehicle_type_id":"4","last_reported":1760782143,"current_range_meters":12400,"station_id":"ce4bgi92rcd13ifvqb90","pricing_plan_id":"cebpf4jnsgd1na2vs0mg"},{"bike_id":"f24fc9a8-50ba-4d61-be76-05251224c078","system_id":"levelo_inurba_marseille","lat":43.30949,"lon":5.39036,"is_reserved":false,"is_disabled":false,"rental_uris":{"android":"levelo://app?vid=f24fc9a8-50ba-4d61-be76-05251224c078","ios":"levelo://app?vid=f24fc9a8-50ba-4d61-be76-05251224c078"},"vehicle_type_id":"4","last_reported":1760782143,"current_range_meters":12400,"station_id":"ce4bgup2rcd13ifvqco0","pricing_plan_id":"cebpf4jnsgd1na2vs0mg"},{"bike_id":"8c30526d-4d62-49e0-92a1-2ed039e24496","system_id":"levelo_inurba_marseille","lat":43.28702,"lon":5.38301,"is_reserved":false,"is_disabled":false,"rental_uris":{"android":"levelo://app?vid=8c30526d-4d62-49e0-92a1-2ed039e24496","ios":"levelo://app?vid=8c30526d-4d62-49e0-92a1-2ed039e24496"},"vehicle_type_id":"4","last_reported":1760782143,"current_range_meters":12800,"station_id":"","pricing_plan_id":"cebpf4jnsgd1na2vs0mg"},{"bike_id":"8fee8982-b7e2-4676-9272-5b35374c7346","system_id":"levelo_inurba_marseille","lat":43.29571,"lon":5.37532,"is_reserved":false,"is_disabled":false,"rental_uris":{"android":"levelo://app?vid=8fee8982-b7e2-4676-9272-5b35374c7346","ios":"levelo://app?vid=8fee8982-b7e2-4676-9272-5b35374c7346"},"vehicle_type_id":"4","last_reported":1760782143,"current_range_meters":13600,"station_id":"ce4bgh92rcd13ifvqb50","pricing_plan_id":"cebpf4jnsgd1na2vs0mg"},{"bike_id":"10016a10-06c9-440f-a456-6a26a5cd8dfd","system_id":"levelo_inurba_marseille","lat":43.23964,"lon":5.36623,"is_reserved":false,"is_disabled":true,"rental_uris":{"android":"levelo://app?vid=10016a10-06c9-440f-a456-6a26a5cd8dfd","ios":"levelo://app?vid=10016a10-06c9-440f-a456-6a26a5cd8dfd"},"vehicle_type_id":"4","last_reported":1760782143,"current_range_meters":13600,"station_id":"ce4bhi12rcd13ifvqfp0","pricing_plan_id":"cebpf4jnsgd1na2vs0mg"},{"bike_id":"7e98c73c-0daf-470c-8187-471fc9a15ebd","system_id":"levelo_inurba_marseille","lat":43.24163,"lon":5.36393,"is_reserved":false,"is_disabled":false,"rental_uris":{"android":"levelo://app?vid=7e98c73c-0daf-470c-8187-471fc9a15ebd","ios":"levelo://app?vid=7e98c73c-0daf-470c-8187-471fc9a15ebd"},"vehicle_type_id":"4","last_reported":1760782143,"current_range_meters":13600,"station_id":"cpo36qri1sfpv3e86is0","pricing_plan_id":"cebpf4jnsgd1na2vs0mg"},{"bike_id":"d414b289-5cc2-4a85-92e2-d89ed29bf121","system_id":"levelo_inurba_marseille","lat":43.29893,"lon":5.4366,"is_reserved":false,"is_disabled":false,"rental_uris":{"android":"levelo://app?vid=d414b289-5cc2-4a85-92e2-d89ed29bf121","ios":"levelo://app?vid=d414b289-5cc2-4a85-92e2-d89ed29bf121"},"vehicle_type_id":"4","last_reported":1760782143,"current_range_meters":13600,"station_id":"ce4bhpp2rcd13ifvqhfg","pricing_plan_id":"cebpf4jnsgd1na2vs0mg"},{"bike_id":"f82c2440-9ccc-4cd9-9901-8bf0cfdffe7e","system_id":"levelo_inurba_marseille","lat":43.27206,"lon":5.39188,"is_reserved":false,"is_disabled":false,"rental_uris":{"android":"levelo://app?vid=f82c2440-9ccc-4cd9-9901-8bf0cfdffe7e","ios":"levelo://app?vid=f82c2440-9ccc-4cd9-9901-8bf0cfdffe7e"},"vehicle_type_id":"4","last_reported":1760782143,"current_range_meters":13600,"station_id":"ce4bhhp2rcd13ifvqfm0","pricing_plan_id":"cebpf4jnsgd1na2vs0mg"},{"bike_id":"b35843bb-8826-4f0d-a706-15255e94599e","system_id":"levelo_inurba_marseille","lat":43.28018,"lon":5.40392,"is_reserved":false,"is_disabled":false,"rental_uris":{"android":"levelo://app?vid=b35843bb-8826-4f0d-a706-15255e94599e","ios":"levelo://app?vid=b35843bb-8826-4f0d-a706-15255e94599e"},"vehicle_type_id":"4","last_reported":1760782143,"current_range_meters":13600,"station_id":"","pricing_plan_id":"cebpf4jnsgd1na2vs0mg"},{"bike_id":"fbe8ed1f-1d60-4924-bae7-19e6e404e0f9","system_id":"levelo_inurba_marseille","lat":43.301226,"lon":5.431169,"is_reserved":false,"is_disabled":false,"rental_uris":{"android":"levelo://app?vid=fbe8ed1f-1d60-4924-bae7-19e6e404e0f9","ios":"levelo://app?vid=fbe8ed1f-1d60-4924-bae7-19e6e404e0f9"},"vehicle_type_id":"4","last_reported":1760782143,"current_range_meters":13600,"station_id":"st_d3js3co5814s73ftftug","pricing_plan_id":"cebpf4jnsgd1na2vs0mg"},{"bike_id":"a966d4b9-ce79-4e8a-936f-b23887d4be25","system_id":"levelo_inurba_marseille","lat":43.2887,"lon":5.42527,"is_reserved":false,"is_disabled":false,"rental_uris":{"android":"levelo://app?vid=a966d4b9-ce79-4e8a-936f-b23887d4be25","ios":"levelo://app?vid=a966d4b9-ce79-4e8a-936f-b23887d4be25"},"vehicle_type_id":"4","last_reported":1760782143,"current_range_meters":13600,"station_id":"st_d3b462108ojc7389ooeg","pricing_plan_id":"cebpf4jnsgd1na2vs0mg"},{"bike_id":"0a414463-fe1a-4833-8a11-178a3c2c879a","system_id":"levelo_inurba_marseille","lat":43.29852,"lon":5.37897,"is_reserved":false,"is_disabled":false,"rental_uris":{"android":"levelo://app?vid=0a414463-fe1a-4833-8a11-178a3c2c879a","ios":"levelo://app?vid=0a414463-fe1a-4833-8a11-178a3c2c879a"},"vehicle_type_id":"4","last_reported":1760782143,"current_range_meters":14000,"station_id":"","pricing_plan_id":"cebpf4jnsgd1na2vs0mg"},{"bike_id":"e427aaaf-ebc8-4540-808e-fa07955f06df","system_id":"levelo_inurba_marseille","lat":43.258813,"lon":5.39428,"is_reserved":false,"is_disabled":false,"rental_uris":{"android":"levelo://app?vid=e427aaaf-ebc8-4540-808e-fa07955f06df","ios":"levelo://app?vid=e427aaaf-ebc8-4540-808e-fa07955f06df"},"vehicle_type_id":"4","last_reported":1760782143,"current_range_meters":14000,"station_id":"","pricing_plan_id":"cebpf4jnsgd1na2vs0mg"},{"bike_id":"8df55d1c-f117-4d7e-bf77-2c1831e1b3d7","system_id":"levelo_inurba_marseille","lat":43.23777,"lon":5.36635,"is_reserved":false,"is_disabled":false,"rental_uris":{"android":"levelo://app?vid=8df55d1c-f117-4d7e-bf77-2c1831e1b3d7","ios":"levelo://app?vid=8df55d1c-f117-4d7e-bf77-2c1831e1b3d7"},"vehicle_type_id":"4","last_reported":1760782143,"current_range_meters":14000,"station_id":"st_d3nk18o9ro0c73en2l3g","pricing_plan_id":"cebpf4jnsgd1na2vs0mg"},{"bike_id":"b1db1391-3474-48f3-85bd-dfc79b190eda","system_id":"levelo_inurba_marseille","lat":43.29303,"lon":5.36106,"is_reserved":false,"is_disabled":false,"rental_uris":{"android":"levelo://app?vid=b1db1391-3474-48f3-85bd-dfc79b190eda","ios":"levelo://app?vid=b1db1391-3474-48f3-85bd-dfc79b190eda"},"vehicle_type_id":"4","last_reported":1760782143,"current_range_meters":14400,"station_id":"","pricing_plan_id":"cebpf4jnsgd1na2vs0mg"},{"bike_id":"ae6eb0f2-4874-4ceb-8d8c-7385a8266f58","system_id":"levelo_inurba_marseille","lat":43.29518,"lon":5.37922,"is_reserved":false,"is_disabled":false,"rental_uris":{"android":"levelo://app?vid=ae6eb0f2-4874-4ceb-8d8c-7385a8266f58","ios":"levelo://app?vid=ae6eb0f2-4874-4ceb-8d8c-7385a8266f58"},"vehicle_type_id":"4","last_reported":1760782143,"current_range_meters":14400,"station_id":"","pricing_plan_id":"cebpf4jnsgd1na2vs0mg"},{"bike_id":"85b5ee01-c99a-4e60-9826-41a60c0d5015","system_id":"levelo_inurba_marseille","lat":43.23151,"lon":5.4373,"is_reserved":false,"is_disabled":false,"rental_uris":{"android":"levelo://app?vid=85b5ee01-c99a-4e60-9826-41a60c0d5015","ios":"levelo://app?vid=85b5ee01-c99a-4e60-9826-41a60c0d5015"},"vehicle_type_id":"4","last_reported":1760782143,"current_range_meters":14800,"station_id":"ce4bhmp2rcd13ifvqgog","pricing_plan_id":"cebpf4jnsgd1na2vs0mg"},{"bike_id":"e4c64875-bd7a-4464-a273-73ca51a12ab5","system_id":"levelo_inurba_marseille","lat":43.25863,"lon":5.39903,"is_reserved":false,"is_disabled":false,"rental_uris":{"android":"levelo://app?vid=e4c64875-bd7a-4464-a273-73ca51a12ab5","ios":"levelo://app?vid=e4c64875-bd7a-4464-a273-73ca51a12ab5"},"vehicle_type_id":"4","last_reported":1760782143,"current_range_meters":14800,"station_id":"ce4bhl92rcd13ifvqghg","pricing_plan_id":"cebpf4jnsgd1na2vs0mg"},{"bike_id":"23d41a40-c2c8-4b1b-ab87-58223543eb75","system_id":"levelo_inurba_marseille","lat":43.2417,"lon":5.36398,"is_reserved":false,"is_disabled":false,"rental_uris":{"android":"levelo://app?vid=23d41a40-c2c8-4b1b-ab87-58223543eb75","ios":"levelo://app?vid=23d41a40-c2c8-4b1b-ab87-58223543eb75"},"vehicle_type_id":"4","last_reported":1760782143,"current_range_meters":14800,"station_id":"cpo36qri1sfpv3e86is0","pricing_plan_id":"cebpf4jnsgd1na2vs0mg"},{"bike_id":"c8e7e487-2046-4072-98bc-53764ffcd62b","system_id":"levelo_inurba_marseille","lat":43.25842,"lon":5.39431,"is_reserved":false,"is_disabled":true,"rental_uris":{"android":"levelo://app?vid=c8e7e487-2046-4072-98bc-53764ffcd62b","ios":"levelo://app?vid=c8e7e487-2046-4072-98bc-53764ffcd62b"},"vehicle_type_id":"4","last_reported":1760782143,"current_range_meters":15200,"station_id":"ce4bhip2rcd13ifvqft0","pricing_plan_id":"cebpf4jnsgd1na2vs0mg"},{"bike_id":"f220cc1b-9199-423c-957e-e087b4a6c5ec","system_id":"levelo_inurba_marseille","lat":43.24809,"lon":5.37459,"is_reserved":false,"is_disabled":false,"rental_uris":{"android":"levelo://app?vid=f220cc1b-9199-423c-957e-e087b4a6c5ec","ios":"levelo://app?vid=f220cc1b-9199-423c-957e-e087b4a6c5ec"},"vehicle_type_id":"4","last_reported":1760782143,"current_range_meters":15200,"station_id":"ce4bhgh2rcd13ifvqfb0","pricing_plan_id":"cebpf4jnsgd1na2vs0mg"},{"bike_id":"1382b748-840e-4ecc-afc5-0fb4eeaeb841","system_id":"levelo_inurba_marseille","lat":43.311121,"lon":5.37767,"is_reserved":false,"is_disabled":false,"rental_uris":{"android":"levelo://app?vid=1382b748-840e-4ecc-afc5-0fb4eeaeb841","ios":"levelo://app?vid=1382b748-840e-4ecc-afc5-0fb4eeaeb841"},"vehicle_type_id":"4","last_reported":1760782143,"current_range_meters":15200,"station_id":"ce4bgt92rcd13ifvqcg0","pricing_plan_id":"cebpf4jnsgd1na2vs0mg"},{"bike_id":"b5384ef3-f722-490e-a099-66d8c4d1cd6b","system_id":"levelo_inurba_marseille","lat":43.285443,"lon":5.441108,"is_reserved":false,"is_disabled":false,"rental_uris":{"android":"levelo://app?vid=b5384ef3-f722-490e-a099-66d8c4d1cd6b","ios":"levelo://app?vid=b5384ef3-f722-490e-a099-66d8c4d1cd6b"},"vehicle_type_id":"4","last_reported":1760782143,"current_range_meters":15200,"station_id":"st_d3j3df2ikq2c7380ej80","pricing_plan_id":"cebpf4jnsgd1na2vs0mg"},{"bike_id":"4d61a64f-16ce-43a8-8985-3f5b0b5d8ace","system_id":"levelo_inurba_marseille","lat":43.30181,"lon":5.36606,"is_reserved":false,"is_disabled":false,"rental_uris":{"android":"levelo://app?vid=4d61a64f-16ce-43a8-8985-3f5b0b5d8ace","ios":"levelo://app?vid=4d61a64f-16ce-43a8-8985-3f5b0b5d8ace"},"vehicle_type_id":"4","last_reported":1760782143,"current_range_meters":15200,"station_id":"ce4bgrh2rcd13ifvqc8g","pricing_plan_id":"cebpf4jnsgd1na2vs0mg"},{"bike_id":"fa68b210-55bb-4a86-a8f5-f651a77004e6","system_id":"levelo_inurba_marseille","lat":43.23201,"lon":5.35553,"is_reserved":false,"is_disabled":false,"rental_uris":{"android":"levelo://app?vid=fa68b210-55bb-4a86-a8f5-f651a77004e6","ios":"levelo://app?vid=fa68b210-55bb-4a86-a8f5-f651a77004e6"},"vehicle_type_id":"4","last_reported":1760782143,"current_range_meters":15200,"station_id":"ce4bhu92rcd13ifvqi70","pricing_plan_id":"cebpf4jnsgd1na2vs0mg"},{"bike_id":"25bd64c9-91bc-4c74-b712-6d069cdfe34d","system_id":"levelo_inurba_marseille","lat":43.32067,"lon":5.36758,"is_reserved":false,"is_disabled":false,"rental_uris":{"android":"levelo://app?vid=25bd64c9-91bc-4c74-b712-6d069cdfe34d","ios":"levelo://app?vid=25bd64c9-91bc-4c74-b712-6d069cdfe34d"},"vehicle_type_id":"4","last_reported":1760782143,"current_range_meters":16000,"station_id":"ce4bhrh2rcd13ifvqhug","pricing_plan_id":"cebpf4jnsgd1na2vs0mg"},{"bike_id":"81e2005e-24eb-402b-92c9-ffb66a9802cc","system_id":"levelo_inurba_marseille","lat":43.21751,"lon":5.34603,"is_reserved":false,"is_disabled":false,"rental_uris":{"android":"levelo://app?vid=81e2005e-24eb-402b-92c9-ffb66a9802cc","ios":"levelo://app?vid=81e2005e-24eb-402b-92c9-ffb66a9802cc"},"vehicle_type_id":"4","last_reported":1760782143,"current_range_meters":16000,"station_id":"st_cvj6r9ubvosntc0bgbag","pricing_plan_id":"cebpf4jnsgd1na2vs0mg"},{"bike_id":"a02896ab-c389-4c6f-9fe7-46012810d72f","system_id":"levelo_inurba_marseille","lat":43.28413,"lon":5.34986,"is_reserved":false,"is_disabled":false,"rental_uris":{"android":"levelo://app?vid=a02896ab-c389-4c6f-9fe7-46012810d72f","ios":"levelo://app?vid=a02896ab-c389-4c6f-9fe7-46012810d72f"},"vehicle_type_id":"4","last_reported":1760782143,"current_range_meters":16000,"station_id":"ce4bhbh2rcd13ifvqepg","pricing_plan_id":"cebpf4jnsgd1na2vs0mg"},{"bike_id":"c1186a5a-b485-4464-903f-745ba8838248","system_id":"levelo_inurba_marseille","lat":43.29842,"lon":5.36272,"is_reserved":false,"is_disabled":false,"rental_uris":{"android":"levelo://app?vid=c1186a5a-b485-4464-903f-745ba8838248","ios":"levelo://app?vid=c1186a5a-b485-4464-903f-745ba8838248"},"vehicle_type_id":"4","last_reported":1760782143,"current_range_meters":16000,"station_id":"ce4bgpp2rcd13ifvqc3g","pricing_plan_id":"cebpf4jnsgd1na2vs0mg"},{"bike_id":"e9b42dd2-63ad-4090-b4e1-d0798255957c","system_id":"levelo_inurba_marseille","lat":43.23959,"lon":5.36634,"is_reserved":false,"is_disabled":false,"rental_uris":{"android":"levelo://app?vid=e9b42dd2-63ad-4090-b4e1-d0798255957c","ios":"levelo://app?vid=e9b42dd2-63ad-4090-b4e1-d0798255957c"},"vehicle_type_id":"4","last_reported":1760782143,"current_range_meters":16000,"station_id":"ce4bhi12rcd13ifvqfp0","pricing_plan_id":"cebpf4jnsgd1na2vs0mg"},{"bike_id":"7303d285-ddce-4ed4-9b43-efee1d571c3e","system_id":"levelo_inurba_marseille","lat":43.30181,"lon":5.38068,"is_reserved":false,"is_disabled":false,"rental_uris":{"android":"levelo://app?vid=7303d285-ddce-4ed4-9b43-efee1d571c3e","ios":"levelo://app?vid=7303d285-ddce-4ed4-9b43-efee1d571c3e"},"vehicle_type_id":"4","last_reported":1760782143,"current_range_meters":16000,"station_id":"ce4bgjp2rcd13ifvqbh0","pricing_plan_id":"cebpf4jnsgd1na2vs0mg"},{"bike_id":"ac6d2c4d-74a8-443d-a9f9-0d9807feacda","system_id":"levelo_inurba_marseille","lat":43.33772,"lon":5.37469,"is_reserved":false,"is_disabled":false,"rental_uris":{"android":"levelo://app?vid=ac6d2c4d-74a8-443d-a9f9-0d9807feacda","ios":"levelo://app?vid=ac6d2c4d-74a8-443d-a9f9-0d9807feacda"},"vehicle_type_id":"4","last_reported":1760782143,"current_range_meters":16000,"station_id":"","pricing_plan_id":"cebpf4jnsgd1na2vs0mg"},{"bike_id":"6426e4fa-7f79-410d-acfa-0a51b3b2658a","system_id":"levelo_inurba_marseille","lat":43.312502,"lon":5.404077,"is_reserved":false,"is_disabled":false,"rental_uris":{"android":"levelo://app?vid=6426e4fa-7f79-410d-acfa-0a51b3b2658a","ios":"levelo://app?vid=6426e4fa-7f79-410d-acfa-0a51b3b2658a"},"vehicle_type_id":"4","last_reported":1760782143,"current_range_meters":16400,"station_id":"","pricing_plan_id":"cebpf4jnsgd1na2vs0mg"},{"bike_id":"05be6c66-e1b2-4e90-9074-f509a58707f5","system_id":"levelo_inurba_marseille","lat":43.289811,"lon":5.37175,"is_reserved":false,"is_disabled":false,"rental_uris":{"android":"levelo://app?vid=05be6c66-e1b2-4e90-9074-f509a58707f5","ios":"levelo://app?vid=05be6c66-e1b2-4e90-9074-f509a58707f5"},"vehicle_type_id":"4","last_reported":1760782143,"current_range_meters":16400,"station_id":"","pricing_plan_id":"cebpf4jnsgd1na2vs0mg"},{"bike_id":"365b1110-8604-4b2d-ad9b-3263b8a258f2","system_id":"levelo_inurba_marseille","lat":43.28655,"lon":5.3634,"is_reserved":false,"is_disabled":false,"rental_uris":{"android":"levelo://app?vid=365b1110-8604-4b2d-ad9b-3263b8a258f2","ios":"levelo://app?vid=365b1110-8604-4b2d-ad9b-3263b8a258f2"},"vehicle_type_id":"4","last_reported":1760782143,"current_range_meters":16400,"station_id":"ce4bhah2rcd13ifvqej0","pricing_plan_id":"cebpf4jnsgd1na2vs0mg"},{"bike_id":"bf2c3617-0e72-4f4a-8585-0c63bcbc4fce","system_id":"levelo_inurba_marseille","lat":43.28612,"lon":5.35103,"is_reserved":false,"is_disabled":true,"rental_uris":{"android":"levelo://app?vid=bf2c3617-0e72-4f4a-8585-0c63bcbc4fce","ios":"levelo://app?vid=bf2c3617-0e72-4f4a-8585-0c63bcbc4fce"},"vehicle_type_id":"4","last_reported":1760782143,"current_range_meters":16400,"station_id":"ce4bhch2rcd13ifvqeug","pricing_plan_id":"cebpf4jnsgd1na2vs0mg"},{"bike_id":"d712d0ff-3096-41ad-87d0-b640167ff060","system_id":"levelo_inurba_marseille","lat":43.31541,"lon":5.38512,"is_reserved":false,"is_disabled":false,"rental_uris":{"android":"levelo://app?vid=d712d0ff-3096-41ad-87d0-b640167ff060","ios":"levelo://app?vid=d712d0ff-3096-41ad-87d0-b640167ff060"},"vehicle_type_id":"4","last_reported":1760782143,"current_range_meters":16400,"station_id":"","pricing_plan_id":"cebpf4jnsgd1na2vs0mg"},{"bike_id":"3e9130f7-2dc2-48e9-a6a6-56327ea869ab","system_id":"levelo_inurba_marseille","lat":43.241669,"lon":5.363934,"is_reserved":false,"is_disabled":false,"rental_uris":{"android":"levelo://app?vid=3e9130f7-2dc2-48e9-a6a6-56327ea869ab","ios":"levelo://app?vid=3e9130f7-2dc2-48e9-a6a6-56327ea869ab"},"vehicle_type_id":"4","last_reported":1760782143,"current_range_meters":16400,"station_id":"cpo36qri1sfpv3e86is0","pricing_plan_id":"cebpf4jnsgd1na2vs0mg"},{"bike_id":"3fb547c2-a087-4235-9134-559db55ab38f","system_id":"levelo_inurba_marseille","lat":43.24649,"lon":5.3889,"is_reserved":false,"is_disabled":false,"rental_uris":{"android":"levelo://app?vid=3fb547c2-a087-4235-9134-559db55ab38f","ios":"levelo://app?vid=3fb547c2-a087-4235-9134-559db55ab38f"},"vehicle_type_id":"4","last_reported":1760782143,"current_range_meters":16400,"station_id":"ce4bhg12rcd13ifvqf60","pricing_plan_id":"cebpf4jnsgd1na2vs0mg"},{"bike_id":"52fd7d39-d26d-4c32-8ad5-5e9990103a20","system_id":"levelo_inurba_marseille","lat":43.29252,"lon":5.38446,"is_reserved":false,"is_disabled":false,"rental_uris":{"android":"levelo://app?vid=52fd7d39-d26d-4c32-8ad5-5e9990103a20","ios":"levelo://app?vid=52fd7d39-d26d-4c32-8ad5-5e9990103a20"},"vehicle_type_id":"4","last_reported":1760782143,"current_range_meters":16400,"station_id":"ce4bh692rcd13ifvqea0","pricing_plan_id":"cebpf4jnsgd1na2vs0mg"},{"bike_id":"074be791-6c38-4f2f-8dd0-b227e073e27e","system_id":"levelo_inurba_marseille","lat":43.24164,"lon":5.36401,"is_reserved":false,"is_disabled":false,"rental_uris":{"android":"levelo://app?vid=074be791-6c38-4f2f-8dd0-b227e073e27e","ios":"levelo://app?vid=074be791-6c38-4f2f-8dd0-b227e073e27e"},"vehicle_type_id":"4","last_reported":1760782143,"current_range_meters":16800,"station_id":"cpo36qri1sfpv3e86is0","pricing_plan_id":"cebpf4jnsgd1na2vs0mg"},{"bike_id":"838aa66d-6981-4ac9-b6c1-d770c4877fde","system_id":"levelo_inurba_marseille","lat":43.272008,"lon":5.39181,"is_reserved":false,"is_disabled":false,"rental_uris":{"android":"levelo://app?vid=838aa66d-6981-4ac9-b6c1-d770c4877fde","ios":"levelo://app?vid=838aa66d-6981-4ac9-b6c1-d770c4877fde"},"vehicle_type_id":"4","last_reported":1760782143,"current_range_meters":16800,"station_id":"ce4bhhp2rcd13ifvqfm0","pricing_plan_id":"cebpf4jnsgd1na2vs0mg"},{"bike_id":"cf4c14bf-7635-4f96-a4b6-ee6481db3804","system_id":"levelo_inurba_marseille","lat":43.32293,"lon":5.38287,"is_reserved":false,"is_disabled":false,"rental_uris":{"android":"levelo://app?vid=cf4c14bf-7635-4f96-a4b6-ee6481db3804","ios":"levelo://app?vid=cf4c14bf-7635-4f96-a4b6-ee6481db3804"},"vehicle_type_id":"4","last_reported":1760782143,"current_range_meters":16800,"station_id":"ce4bhr12rcd13ifvqhqg","pricing_plan_id":"cebpf4jnsgd1na2vs0mg"},{"bike_id":"a7b3764b-b896-4840-bd7e-9880973af195","system_id":"levelo_inurba_marseille","lat":43.292287,"lon":5.360602,"is_reserved":false,"is_disabled":false,"rental_uris":{"android":"levelo://app?vid=a7b3764b-b896-4840-bd7e-9880973af195","ios":"levelo://app?vid=a7b3764b-b896-4840-bd7e-9880973af195"},"vehicle_type_id":"4","last_reported":1760782143,"current_range_meters":16800,"station_id":"","pricing_plan_id":"cebpf4jnsgd1na2vs0mg"},{"bike_id":"6da9de72-3f1d-4789-a24f-e01432db5520","system_id":"levelo_inurba_marseille","lat":43.27191,"lon":5.40978,"is_reserved":false,"is_disabled":false,"rental_uris":{"android":"levelo://app?vid=6da9de72-3f1d-4789-a24f-e01432db5520","ios":"levelo://app?vid=6da9de72-3f1d-4789-a24f-e01432db5520"},"vehicle_type_id":"4","last_reported":1760782143,"current_range_meters":16800,"station_id":"ce4bhl12rcd13ifvqgf0","pricing_plan_id":"cebpf4jnsgd1na2vs0mg"},{"bike_id":"f4b21278-7a88-4f1e-8b50-4cb4a181722f","system_id":"levelo_inurba_marseille","lat":43.285376,"lon":5.441136,"is_reserved":false,"is_disabled":false,"rental_uris":{"android":"levelo://app?vid=f4b21278-7a88-4f1e-8b50-4cb4a181722f","ios":"levelo://app?vid=f4b21278-7a88-4f1e-8b50-4cb4a181722f"},"vehicle_type_id":"4","last_reported":1760782143,"current_range_meters":16800,"station_id":"st_d3j3df2ikq2c7380ej80","pricing_plan_id":"cebpf4jnsgd1na2vs0mg"},{"bike_id":"8ec422cd-d572-4209-9cdd-abb1db002c28","system_id":"levelo_inurba_marseille","lat":43.30636,"lon":5.37185,"is_reserved":false,"is_disabled":false,"rental_uris":{"android":"levelo://app?vid=8ec422cd-d572-4209-9cdd-abb1db002c28","ios":"levelo://app?vid=8ec422cd-d572-4209-9cdd-abb1db002c28"},"vehicle_type_id":"4","last_reported":1760782143,"current_range_meters":16800,"station_id":"ce4bgqh2rcd13ifvqc4g","pricing_plan_id":"cebpf4jnsgd1na2vs0mg"},{"bike_id":"7719375d-6907-45b6-93d9-8cbd7f64256f","system_id":"levelo_inurba_marseille","lat":43.23958,"lon":5.36629,"is_reserved":false,"is_disabled":false,"rental_uris":{"android":"levelo://app?vid=7719375d-6907-45b6-93d9-8cbd7f64256f","ios":"levelo://app?vid=7719375d-6907-45b6-93d9-8cbd7f64256f"},"vehicle_type_id":"4","last_reported":1760782143,"current_range_meters":17200,"station_id":"ce4bhi12rcd13ifvqfp0","pricing_plan_id":"cebpf4jnsgd1na2vs0mg"},{"bike_id":"6e25cdbd-18b6-4a38-a3d4-d2d5668a783c","system_id":"levelo_inurba_marseille","lat":43.28418,"lon":5.34981,"is_reserved":false,"is_disabled":false,"rental_uris":{"android":"levelo://app?vid=6e25cdbd-18b6-4a38-a3d4-d2d5668a783c","ios":"levelo://app?vid=6e25cdbd-18b6-4a38-a3d4-d2d5668a783c"},"vehicle_type_id":"4","last_reported":1760782143,"current_range_meters":17200,"station_id":"ce4bhbh2rcd13ifvqepg","pricing_plan_id":"cebpf4jnsgd1na2vs0mg"},{"bike_id":"08e156f4-f389-47f2-a554-82d58ee52248","system_id":"levelo_inurba_marseille","lat":43.23784,"lon":5.36633,"is_reserved":false,"is_disabled":false,"rental_uris":{"android":"levelo://app?vid=08e156f4-f389-47f2-a554-82d58ee52248","ios":"levelo://app?vid=08e156f4-f389-47f2-a554-82d58ee52248"},"vehicle_type_id":"4","last_reported":1760782143,"current_range_meters":17200,"station_id":"st_d3nk18o9ro0c73en2l3g","pricing_plan_id":"cebpf4jnsgd1na2vs0mg"},{"bike_id":"599774d4-5d24-4284-92bf-2ebad3c49073","system_id":"levelo_inurba_marseille","lat":43.30185,"lon":5.36634,"is_reserved":false,"is_disabled":false,"rental_uris":{"android":"levelo://app?vid=599774d4-5d24-4284-92bf-2ebad3c49073","ios":"levelo://app?vid=599774d4-5d24-4284-92bf-2ebad3c49073"},"vehicle_type_id":"4","last_reported":1760782143,"current_range_meters":17200,"station_id":"ce4bgrh2rcd13ifvqc8g","pricing_plan_id":"cebpf4jnsgd1na2vs0mg"},{"bike_id":"6cbc56d2-7ae4-434e-8dca-32e623ba30bb","system_id":"levelo_inurba_marseille","lat":43.273846,"lon":5.362595,"is_reserved":false,"is_disabled":false,"rental_uris":{"android":"levelo://app?vid=6cbc56d2-7ae4-434e-8dca-32e623ba30bb","ios":"levelo://app?vid=6cbc56d2-7ae4-434e-8dca-32e623ba30bb"},"vehicle_type_id":"4","last_reported":1760782143,"current_range_meters":17200,"station_id":"ce4bhbh2rcd13ifvqeo0","pricing_plan_id":"cebpf4jnsgd1na2vs0mg"},{"bike_id":"c765cbdf-aead-4e61-8ffc-ca7adeb73a7b","system_id":"levelo_inurba_marseille","lat":43.29349,"lon":5.37851,"is_reserved":false,"is_disabled":false,"rental_uris":{"android":"levelo://app?vid=c765cbdf-aead-4e61-8ffc-ca7adeb73a7b","ios":"levelo://app?vid=c765cbdf-aead-4e61-8ffc-ca7adeb73a7b"},"vehicle_type_id":"4","last_reported":1760782143,"current_range_meters":17200,"station_id":"ce4bgjh2rcd13ifvqbf0","pricing_plan_id":"cebpf4jnsgd1na2vs0mg"},{"bike_id":"c71eb113-4d35-4018-a1da-74dbb9bb0d5c","system_id":"levelo_inurba_marseille","lat":43.29272,"lon":5.36848,"is_reserved":false,"is_disabled":false,"rental_uris":{"android":"levelo://app?vid=c71eb113-4d35-4018-a1da-74dbb9bb0d5c","ios":"levelo://app?vid=c71eb113-4d35-4018-a1da-74dbb9bb0d5c"},"vehicle_type_id":"4","last_reported":1760782143,"current_range_meters":17600,"station_id":"ce4bhbp2rcd13ifvqesg","pricing_plan_id":"cebpf4jnsgd1na2vs0mg"},{"bike_id":"8b47997b-03f3-49a4-97c1-260ad9eaaf57","system_id":"levelo_inurba_marseille","lat":43.29895,"lon":5.436647,"is_reserved":false,"is_disabled":false,"rental_uris":{"android":"levelo://app?vid=8b47997b-03f3-49a4-97c1-260ad9eaaf57","ios":"levelo://app?vid=8b47997b-03f3-49a4-97c1-260ad9eaaf57"},"vehicle_type_id":"4","last_reported":1760782143,"current_range_meters":17600,"station_id":"ce4bhpp2rcd13ifvqhfg","pricing_plan_id":"cebpf4jnsgd1na2vs0mg"},{"bike_id":"1e887256-61fa-42dd-9723-68b5d461a392","system_id":"levelo_inurba_marseille","lat":43.24077,"lon":5.37742,"is_reserved":false,"is_disabled":false,"rental_uris":{"android":"levelo://app?vid=1e887256-61fa-42dd-9723-68b5d461a392","ios":"levelo://app?vid=1e887256-61fa-42dd-9723-68b5d461a392"},"vehicle_type_id":"4","last_reported":1760782143,"current_range_meters":17600,"station_id":"ce4bhnp2rcd13ifvqgvg","pricing_plan_id":"cebpf4jnsgd1na2vs0mg"},{"bike_id":"edcb744a-1021-4493-86cd-94aad7a8dbc8","system_id":"levelo_inurba_marseille","lat":43.30599,"lon":5.37482,"is_reserved":false,"is_disabled":false,"rental_uris":{"android":"levelo://app?vid=edcb744a-1021-4493-86cd-94aad7a8dbc8","ios":"levelo://app?vid=edcb744a-1021-4493-86cd-94aad7a8dbc8"},"vehicle_type_id":"4","last_reported":1760782143,"current_range_meters":17600,"station_id":"","pricing_plan_id":"cebpf4jnsgd1na2vs0mg"},{"bike_id":"4a23c317-76a9-400a-acae-5f3e1322bc46","system_id":"levelo_inurba_marseille","lat":43.217533,"lon":5.346076,"is_reserved":false,"is_disabled":false,"rental_uris":{"android":"levelo://app?vid=4a23c317-76a9-400a-acae-5f3e1322bc46","ios":"levelo://app?vid=4a23c317-76a9-400a-acae-5f3e1322bc46"},"vehicle_type_id":"4","last_reported":1760782143,"current_range_meters":17600,"station_id":"","pricing_plan_id":"cebpf4jnsgd1na2vs0mg"},{"bike_id":"109ac308-54fd-47d6-af56-fc67913ab9d0","system_id":"levelo_inurba_marseille","lat":43.30125,"lon":5.43108,"is_reserved":false,"is_disabled":false,"rental_uris":{"android":"levelo://app?vid=109ac308-54fd-47d6-af56-fc67913ab9d0","ios":"levelo://app?vid=109ac308-54fd-47d6-af56-fc67913ab9d0"},"vehicle_type_id":"4","last_reported":1760782143,"current_range_meters":17600,"station_id":"st_d3js3co5814s73ftftug","pricing_plan_id":"cebpf4jnsgd1na2vs0mg"},{"bike_id":"6abe062a-30a3-4bd9-87d0-fe4d14339518","system_id":"levelo_inurba_marseille","lat":43.22565,"lon":5.4163,"is_reserved":false,"is_disabled":false,"rental_uris":{"android":"levelo://app?vid=6abe062a-30a3-4bd9-87d0-fe4d14339518","ios":"levelo://app?vid=6abe062a-30a3-4bd9-87d0-fe4d14339518"},"vehicle_type_id":"4","last_reported":1760782143,"current_range_meters":18000,"station_id":"st_d2o4gvlbi1j2169b742g","pricing_plan_id":"cebpf4jnsgd1na2vs0mg"},{"bike_id":"f0eb7414-2832-4037-bed7-4cddf5d3fc93","system_id":"levelo_inurba_marseille","lat":43.29292,"lon":5.37451,"is_reserved":false,"is_disabled":false,"rental_uris":{"android":"levelo://app?vid=f0eb7414-2832-4037-bed7-4cddf5d3fc93","ios":"levelo://app?vid=f0eb7414-2832-4037-bed7-4cddf5d3fc93"},"vehicle_type_id":"4","last_reported":1760782143,"current_range_meters":18000,"station_id":"ce4bgi12rcd13ifvqb70","pricing_plan_id":"cebpf4jnsgd1na2vs0mg"},{"bike_id":"ac44a13f-262d-4b67-b371-c31d76a70b51","system_id":"levelo_inurba_marseille","lat":43.23785,"lon":5.36633,"is_reserved":false,"is_disabled":false,"rental_uris":{"android":"levelo://app?vid=ac44a13f-262d-4b67-b371-c31d76a70b51","ios":"levelo://app?vid=ac44a13f-262d-4b67-b371-c31d76a70b51"},"vehicle_type_id":"4","last_reported":1760782143,"current_range_meters":18000,"station_id":"st_d3nk18o9ro0c73en2l3g","pricing_plan_id":"cebpf4jnsgd1na2vs0mg"},{"bike_id":"8cd818e3-a9e2-4f48-92b2-26306f507696","system_id":"levelo_inurba_marseille","lat":43.31349,"lon":5.37913,"is_reserved":false,"is_disabled":false,"rental_uris":{"android":"levelo://app?vid=8cd818e3-a9e2-4f48-92b2-26306f507696","ios":"levelo://app?vid=8cd818e3-a9e2-4f48-92b2-26306f507696"},"vehicle_type_id":"4","last_reported":1760782143,"current_range_meters":18000,"station_id":"","pricing_plan_id":"cebpf4jnsgd1na2vs0mg"},{"bike_id":"9f3ebcd2-d64e-40c8-9aa7-cd8fe0e6670d","system_id":"levelo_inurba_marseille","lat":43.24073,"lon":5.37763,"is_reserved":false,"is_disabled":false,"rental_uris":{"android":"levelo://app?vid=9f3ebcd2-d64e-40c8-9aa7-cd8fe0e6670d","ios":"levelo://app?vid=9f3ebcd2-d64e-40c8-9aa7-cd8fe0e6670d"},"vehicle_type_id":"4","last_reported":1760782143,"current_range_meters":18000,"station_id":"ce4bhnp2rcd13ifvqgvg","pricing_plan_id":"cebpf4jnsgd1na2vs0mg"},{"bike_id":"55451b7c-8dcd-41d0-8898-ee7dfb9c51f1","system_id":"levelo_inurba_marseille","lat":43.2863,"lon":5.35098,"is_reserved":false,"is_disabled":false,"rental_uris":{"android":"levelo://app?vid=55451b7c-8dcd-41d0-8898-ee7dfb9c51f1","ios":"levelo://app?vid=55451b7c-8dcd-41d0-8898-ee7dfb9c51f1"},"vehicle_type_id":"4","last_reported":1760782143,"current_range_meters":18000,"station_id":"ce4bhch2rcd13ifvqeug","pricing_plan_id":"cebpf4jnsgd1na2vs0mg"},{"bike_id":"2a7bc58a-d2a7-4761-ae41-f8cceede8138","system_id":"levelo_inurba_marseille","lat":43.21752,"lon":5.34604,"is_reserved":false,"is_disabled":false,"rental_uris":{"android":"levelo://app?vid=2a7bc58a-d2a7-4761-ae41-f8cceede8138","ios":"levelo://app?vid=2a7bc58a-d2a7-4761-ae41-f8cceede8138"},"vehicle_type_id":"4","last_reported":1760782143,"current_range_meters":18000,"station_id":"st_cvj6r9ubvosntc0bgbag","pricing_plan_id":"cebpf4jnsgd1na2vs0mg"},{"bike_id":"a3bea987-4c2d-47e9-ab2e-048f59a06e29","system_id":"levelo_inurba_marseille","lat":43.323488,"lon":5.367142,"is_reserved":false,"is_disabled":false,"rental_uris":{"android":"levelo://app?vid=a3bea987-4c2d-47e9-ab2e-048f59a06e29","ios":"levelo://app?vid=a3bea987-4c2d-47e9-ab2e-048f59a06e29"},"vehicle_type_id":"4","last_reported":1760782143,"current_range_meters":18000,"station_id":"ce4bhsh2rcd13ifvqi2g","pricing_plan_id":"cebpf4jnsgd1na2vs0mg"},{"bike_id":"9c724647-f74e-470c-9863-48aae8acdf3f","system_id":"levelo_inurba_marseille","lat":43.298606,"lon":5.363004,"is_reserved":false,"is_disabled":false,"rental_uris":{"android":"levelo://app?vid=9c724647-f74e-470c-9863-48aae8acdf3f","ios":"levelo://app?vid=9c724647-f74e-470c-9863-48aae8acdf3f"},"vehicle_type_id":"4","last_reported":1760782143,"current_range_meters":18000,"station_id":"ce4bgpp2rcd13ifvqc3g","pricing_plan_id":"cebpf4jnsgd1na2vs0mg"},{"bike_id":"0f787efd-37ca-4060-a03d-15d3c3ce389f","system_id":"levelo_inurba_marseille","lat":43.299959,"lon":5.373616,"is_reserved":false,"is_disabled":false,"rental_uris":{"android":"levelo://app?vid=0f787efd-37ca-4060-a03d-15d3c3ce389f","ios":"levelo://app?vid=0f787efd-37ca-4060-a03d-15d3c3ce389f"},"vehicle_type_id":"4","last_reported":1760782143,"current_range_meters":18000,"station_id":"","pricing_plan_id":"cebpf4jnsgd1na2vs0mg"},{"bike_id":"2663a65f-6255-4d4e-8364-1915fbc5200e","system_id":"levelo_inurba_marseille","lat":43.26788,"lon":5.39412,"is_reserved":false,"is_disabled":false,"rental_uris":{"android":"levelo://app?vid=2663a65f-6255-4d4e-8364-1915fbc5200e","ios":"levelo://app?vid=2663a65f-6255-4d4e-8364-1915fbc5200e"},"vehicle_type_id":"4","last_reported":1760782143,"current_range_meters":18000,"station_id":"ce4bhh12rcd13ifvqfg0","pricing_plan_id":"cebpf4jnsgd1na2vs0mg"},{"bike_id":"6d7a8de0-0c18-476d-997f-272cb55910a6","system_id":"levelo_inurba_marseille","lat":43.28419,"lon":5.34983,"is_reserved":false,"is_disabled":false,"rental_uris":{"android":"levelo://app?vid=6d7a8de0-0c18-476d-997f-272cb55910a6","ios":"levelo://app?vid=6d7a8de0-0c18-476d-997f-272cb55910a6"},"vehicle_type_id":"4","last_reported":1760782143,"current_range_meters":18800,"station_id":"ce4bhbh2rcd13ifvqepg","pricing_plan_id":"cebpf4jnsgd1na2vs0mg"},{"bike_id":"86ce52f8-f590-4694-90e1-216ddc477b29","system_id":"levelo_inurba_marseille","lat":43.30968,"lon":5.3812,"is_reserved":false,"is_disabled":false,"rental_uris":{"android":"levelo://app?vid=86ce52f8-f590-4694-90e1-216ddc477b29","ios":"levelo://app?vid=86ce52f8-f590-4694-90e1-216ddc477b29"},"vehicle_type_id":"4","last_reported":1760782143,"current_range_meters":18800,"station_id":"","pricing_plan_id":"cebpf4jnsgd1na2vs0mg"},{"bike_id":"48cf1a2c-e962-4f32-9187-b34db94bcde6","system_id":"levelo_inurba_marseille","lat":43.28621,"lon":5.37061,"is_reserved":false,"is_disabled":false,"rental_uris":{"android":"levelo://app?vid=48cf1a2c-e962-4f32-9187-b34db94bcde6","ios":"levelo://app?vid=48cf1a2c-e962-4f32-9187-b34db94bcde6"},"vehicle_type_id":"4","last_reported":1760782143,"current_range_meters":18800,"station_id":"ce4bht12rcd13ifvqi60","pricing_plan_id":"cebpf4jnsgd1na2vs0mg"},{"bike_id":"ec9b3e09-59b2-46f5-b30e-4f6e4b4da5d0","system_id":"levelo_inurba_marseille","lat":43.237914,"lon":5.36621,"is_reserved":false,"is_disabled":false,"rental_uris":{"android":"levelo://app?vid=ec9b3e09-59b2-46f5-b30e-4f6e4b4da5d0","ios":"levelo://app?vid=ec9b3e09-59b2-46f5-b30e-4f6e4b4da5d0"},"vehicle_type_id":"4","last_reported":1760782143,"current_range_meters":18800,"station_id":"st_d3nk18o9ro0c73en2l3g","pricing_plan_id":"cebpf4jnsgd1na2vs0mg"},{"bike_id":"c4a28662-75fe-4a64-bd1e-6e355e77c012","system_id":"levelo_inurba_marseille","lat":43.27917,"lon":5.39576,"is_reserved":false,"is_disabled":false,"rental_uris":{"android":"levelo://app?vid=c4a28662-75fe-4a64-bd1e-6e355e77c012","ios":"levelo://app?vid=c4a28662-75fe-4a64-bd1e-6e355e77c012"},"vehicle_type_id":"4","last_reported":1760782143,"current_range_meters":18800,"station_id":"ce4bhf92rcd13ifvqf40","pricing_plan_id":"cebpf4jnsgd1na2vs0mg"},{"bike_id":"7a8ac50b-c3a4-490a-8f96-9c005f89ed5d","system_id":"levelo_inurba_marseille","lat":43.26521,"lon":5.39049,"is_reserved":false,"is_disabled":false,"rental_uris":{"android":"levelo://app?vid=7a8ac50b-c3a4-490a-8f96-9c005f89ed5d","ios":"levelo://app?vid=7a8ac50b-c3a4-490a-8f96-9c005f89ed5d"},"vehicle_type_id":"4","last_reported":1760782143,"current_range_meters":19200,"station_id":"","pricing_plan_id":"cebpf4jnsgd1na2vs0mg"},{"bike_id":"7b4102bf-aba1-447f-93de-ffef7042242e","system_id":"levelo_inurba_marseille","lat":43.2777,"lon":5.37581,"is_reserved":false,"is_disabled":false,"rental_uris":{"android":"levelo://app?vid=7b4102bf-aba1-447f-93de-ffef7042242e","ios":"levelo://app?vid=7b4102bf-aba1-447f-93de-ffef7042242e"},"vehicle_type_id":"4","last_reported":1760782143,"current_range_meters":19200,"station_id":"","pricing_plan_id":"cebpf4jnsgd1na2vs0mg"},{"bike_id":"8f6c99a9-2111-4ea5-ba4d-4bb0a3b06aa1","system_id":"levelo_inurba_marseille","lat":43.2982,"lon":5.44055,"is_reserved":false,"is_disabled":false,"rental_uris":{"android":"levelo://app?vid=8f6c99a9-2111-4ea5-ba4d-4bb0a3b06aa1","ios":"levelo://app?vid=8f6c99a9-2111-4ea5-ba4d-4bb0a3b06aa1"},"vehicle_type_id":"4","last_reported":1760782143,"current_range_meters":19200,"station_id":"st_d3jp68qikq2c7381ktn0","pricing_plan_id":"cebpf4jnsgd1na2vs0mg"},{"bike_id":"6b06aa68-6da8-4f5c-bf18-9f5045bd8fa8","system_id":"levelo_inurba_marseille","lat":43.241939,"lon":5.363811,"is_reserved":false,"is_disabled":false,"rental_uris":{"android":"levelo://app?vid=6b06aa68-6da8-4f5c-bf18-9f5045bd8fa8","ios":"levelo://app?vid=6b06aa68-6da8-4f5c-bf18-9f5045bd8fa8"},"vehicle_type_id":"4","last_reported":1760782143,"current_range_meters":19200,"station_id":"cpo36qri1sfpv3e86is0","pricing_plan_id":"cebpf4jnsgd1na2vs0mg"},{"bike_id":"453dc821-47cb-4802-951c-a7079e87fb81","system_id":"levelo_inurba_marseille","lat":43.2665,"lon":5.38285,"is_reserved":false,"is_disabled":false,"rental_uris":{"android":"levelo://app?vid=453dc821-47cb-4802-951c-a7079e87fb81","ios":"levelo://app?vid=453dc821-47cb-4802-951c-a7079e87fb81"},"vehicle_type_id":"4","last_reported":1760782143,"current_range_meters":19200,"station_id":"ce4bhg92rcd13ifvqf90","pricing_plan_id":"cebpf4jnsgd1na2vs0mg"},{"bike_id":"50b0c317-2203-48dc-b972-8f39b38a376e","system_id":"levelo_inurba_marseille","lat":43.30146,"lon":5.39875,"is_reserved":false,"is_disabled":true,"rental_uris":{"android":"levelo://app?vid=50b0c317-2203-48dc-b972-8f39b38a376e","ios":"levelo://app?vid=50b0c317-2203-48dc-b972-8f39b38a376e"},"vehicle_type_id":"4","last_reported":1760782143,"current_range_meters":19200,"station_id":"ce4bh0h2rcd13ifvqd40","pricing_plan_id":"cebpf4jnsgd1na2vs0mg"},{"bike_id":"7fd36eea-805d-4dce-89b5-46f277eaf158","system_id":"levelo_inurba_marseille","lat":43.305097,"lon":5.366695,"is_reserved":false,"is_disabled":false,"rental_uris":{"android":"levelo://app?vid=7fd36eea-805d-4dce-89b5-46f277eaf158","ios":"levelo://app?vid=7fd36eea-805d-4dce-89b5-46f277eaf158"},"vehicle_type_id":"4","last_reported":1760782143,"current_range_meters":19200,"station_id":"","pricing_plan_id":"cebpf4jnsgd1na2vs0mg"},{"bike_id":"3f9922fa-5fa2-4bb2-b6fe-411d28b8df2c","system_id":"levelo_inurba_marseille","lat":43.284612,"lon":5.381455,"is_reserved":false,"is_disabled":false,"rental_uris":{"android":"levelo://app?vid=3f9922fa-5fa2-4bb2-b6fe-411d28b8df2c","ios":"levelo://app?vid=3f9922fa-5fa2-4bb2-b6fe-411d28b8df2c"},"vehicle_type_id":"4","last_reported":1760782143,"current_range_meters":19200,"station_id":"","pricing_plan_id":"cebpf4jnsgd1na2vs0mg"},{"bike_id":"b506d310-cbad-4631-89e6-cbd56349fc4d","system_id":"levelo_inurba_marseille","lat":43.29906,"lon":5.4365,"is_reserved":false,"is_disabled":false,"rental_uris":{"android":"levelo://app?vid=b506d310-cbad-4631-89e6-cbd56349fc4d","ios":"levelo://app?vid=b506d310-cbad-4631-89e6-cbd56349fc4d"},"vehicle_type_id":"4","last_reported":1760782143,"current_range_meters":19200,"station_id":"ce4bhpp2rcd13ifvqhfg","pricing_plan_id":"cebpf4jnsgd1na2vs0mg"},{"bike_id":"312610b4-8cc6-4618-8030-01d2c8a572c6","system_id":"levelo_inurba_marseille","lat":43.29294,"lon":5.37428,"is_reserved":false,"is_disabled":false,"rental_uris":{"android":"levelo://app?vid=312610b4-8cc6-4618-8030-01d2c8a572c6","ios":"levelo://app?vid=312610b4-8cc6-4618-8030-01d2c8a572c6"},"vehicle_type_id":"4","last_reported":1760782143,"current_range_meters":19200,"station_id":"ce4bgi12rcd13ifvqb70","pricing_plan_id":"cebpf4jnsgd1na2vs0mg"},{"bike_id":"2431f2d3-9aeb-41fc-8ae9-ad0b47aec9ef","system_id":"levelo_inurba_marseille","lat":43.27814,"lon":5.40715,"is_reserved":false,"is_disabled":false,"rental_uris":{"android":"levelo://app?vid=2431f2d3-9aeb-41fc-8ae9-ad0b47aec9ef","ios":"levelo://app?vid=2431f2d3-9aeb-41fc-8ae9-ad0b47aec9ef"},"vehicle_type_id":"4","last_reported":1760782143,"current_range_meters":19600,"station_id":"ce4bhnh2rcd13ifvqgtg","pricing_plan_id":"cebpf4jnsgd1na2vs0mg"},{"bike_id":"0c6ee780-2994-4cb9-a9c7-1a0dec5c1d01","system_id":"levelo_inurba_marseille","lat":43.237849,"lon":5.366369,"is_reserved":false,"is_disabled":false,"rental_uris":{"android":"levelo://app?vid=0c6ee780-2994-4cb9-a9c7-1a0dec5c1d01","ios":"levelo://app?vid=0c6ee780-2994-4cb9-a9c7-1a0dec5c1d01"},"vehicle_type_id":"4","last_reported":1760782143,"current_range_meters":19600,"station_id":"st_d3nk18o9ro0c73en2l3g","pricing_plan_id":"cebpf4jnsgd1na2vs0mg"},{"bike_id":"fdc69431-5025-4180-8f88-e57dfd788ba0","system_id":"levelo_inurba_marseille","lat":43.29615,"lon":5.37734,"is_reserved":false,"is_disabled":false,"rental_uris":{"android":"levelo://app?vid=fdc69431-5025-4180-8f88-e57dfd788ba0","ios":"levelo://app?vid=fdc69431-5025-4180-8f88-e57dfd788ba0"},"vehicle_type_id":"4","last_reported":1760782143,"current_range_meters":19600,"station_id":"ce4bgi92rcd13ifvqb90","pricing_plan_id":"cebpf4jnsgd1na2vs0mg"},{"bike_id":"e49f1957-12ca-4f31-9218-007afff6f309","system_id":"levelo_inurba_marseille","lat":43.237855,"lon":5.366174,"is_reserved":false,"is_disabled":false,"rental_uris":{"android":"levelo://app?vid=e49f1957-12ca-4f31-9218-007afff6f309","ios":"levelo://app?vid=e49f1957-12ca-4f31-9218-007afff6f309"},"vehicle_type_id":"4","last_reported":1760782143,"current_range_meters":19600,"station_id":"st_d3nk18o9ro0c73en2l3g","pricing_plan_id":"cebpf4jnsgd1na2vs0mg"},{"bike_id":"9652283e-21f4-4490-ac9e-ffa9429f0005","system_id":"levelo_inurba_marseille","lat":43.29048,"lon":5.40507,"is_reserved":false,"is_disabled":false,"rental_uris":{"android":"levelo://app?vid=9652283e-21f4-4490-ac9e-ffa9429f0005","ios":"levelo://app?vid=9652283e-21f4-4490-ac9e-ffa9429f0005"},"vehicle_type_id":"4","last_reported":1760782143,"current_range_meters":19600,"station_id":"","pricing_plan_id":"cebpf4jnsgd1na2vs0mg"},{"bike_id":"c8d48fd0-6e0e-4158-b985-45ec424e163f","system_id":"levelo_inurba_marseille","lat":43.282539,"lon":5.351068,"is_reserved":false,"is_disabled":false,"rental_uris":{"android":"levelo://app?vid=c8d48fd0-6e0e-4158-b985-45ec424e163f","ios":"levelo://app?vid=c8d48fd0-6e0e-4158-b985-45ec424e163f"},"vehicle_type_id":"4","last_reported":1760782143,"current_range_meters":19600,"station_id":"ce4bhbp2rcd13ifvqerg","pricing_plan_id":"cebpf4jnsgd1na2vs0mg"},{"bike_id":"29975269-f43f-4199-9487-f3f73bf129ed","system_id":"levelo_inurba_marseille","lat":43.2927,"lon":5.36839,"is_reserved":false,"is_disabled":false,"rental_uris":{"android":"levelo://app?vid=29975269-f43f-4199-9487-f3f73bf129ed","ios":"levelo://app?vid=29975269-f43f-4199-9487-f3f73bf129ed"},"vehicle_type_id":"4","last_reported":1760782143,"current_range_meters":19600,"station_id":"ce4bhbp2rcd13ifvqesg","pricing_plan_id":"cebpf4jnsgd1na2vs0mg"},{"bike_id":"d1668fd5-d05d-42a9-b5d1-4388db8ac6a3","system_id":"levelo_inurba_marseille","lat":43.31764,"lon":5.39029,"is_reserved":false,"is_disabled":false,"rental_uris":{"android":"levelo://app?vid=d1668fd5-d05d-42a9-b5d1-4388db8ac6a3","ios":"levelo://app?vid=d1668fd5-d05d-42a9-b5d1-4388db8ac6a3"},"vehicle_type_id":"4","last_reported":1760782143,"current_range_meters":19600,"station_id":"ce4bhqp2rcd13ifvqhng","pricing_plan_id":"cebpf4jnsgd1na2vs0mg"},{"bike_id":"8589c67f-6502-4db1-9057-26d05add0402","system_id":"levelo_inurba_marseille","lat":43.29264,"lon":5.37616,"is_reserved":false,"is_disabled":false,"rental_uris":{"android":"levelo://app?vid=8589c67f-6502-4db1-9057-26d05add0402","ios":"levelo://app?vid=8589c67f-6502-4db1-9057-26d05add0402"},"vehicle_type_id":"4","last_reported":1760782143,"current_range_meters":19600,"station_id":"ce4bgi12rcd13ifvqb80","pricing_plan_id":"cebpf4jnsgd1na2vs0mg"},{"bike_id":"28cea3f5-2bb1-41df-ba10-15386141f061","system_id":"levelo_inurba_marseille","lat":43.24078,"lon":5.37753,"is_reserved":false,"is_disabled":false,"rental_uris":{"android":"levelo://app?vid=28cea3f5-2bb1-41df-ba10-15386141f061","ios":"levelo://app?vid=28cea3f5-2bb1-41df-ba10-15386141f061"},"vehicle_type_id":"4","last_reported":1760782143,"current_range_meters":19600,"station_id":"ce4bhnp2rcd13ifvqgvg","pricing_plan_id":"cebpf4jnsgd1na2vs0mg"},{"bike_id":"5d1f47ec-8cf5-4790-9e21-c06026e32919","system_id":"levelo_inurba_marseille","lat":43.24053,"lon":5.37767,"is_reserved":false,"is_disabled":false,"rental_uris":{"android":"levelo://app?vid=5d1f47ec-8cf5-4790-9e21-c06026e32919","ios":"levelo://app?vid=5d1f47ec-8cf5-4790-9e21-c06026e32919"},"vehicle_type_id":"4","last_reported":1760782143,"current_range_meters":19600,"station_id":"ce4bhnp2rcd13ifvqgvg","pricing_plan_id":"cebpf4jnsgd1na2vs0mg"},{"bike_id":"9f25b450-6fed-4b3d-ae3b-91b2c5c78a89","system_id":"levelo_inurba_marseille","lat":43.29869,"lon":5.38429,"is_reserved":false,"is_disabled":false,"rental_uris":{"android":"levelo://app?vid=9f25b450-6fed-4b3d-ae3b-91b2c5c78a89","ios":"levelo://app?vid=9f25b450-6fed-4b3d-ae3b-91b2c5c78a89"},"vehicle_type_id":"4","last_reported":1760782143,"current_range_meters":20000,"station_id":"","pricing_plan_id":"cebpf4jnsgd1na2vs0mg"},{"bike_id":"935ce31d-a9ed-4368-bc23-083d2a1458b8","system_id":"levelo_inurba_marseille","lat":43.30329,"lon":5.36877,"is_reserved":false,"is_disabled":false,"rental_uris":{"android":"levelo://app?vid=935ce31d-a9ed-4368-bc23-083d2a1458b8","ios":"levelo://app?vid=935ce31d-a9ed-4368-bc23-083d2a1458b8"},"vehicle_type_id":"4","last_reported":1760782143,"current_range_meters":20000,"station_id":"ce4bgqh2rcd13ifvqc5g","pricing_plan_id":"cebpf4jnsgd1na2vs0mg"},{"bike_id":"29be6ed6-88e4-4ecf-b823-8e951f978743","system_id":"levelo_inurba_marseille","lat":43.25101,"lon":5.40328,"is_reserved":false,"is_disabled":false,"rental_uris":{"android":"levelo://app?vid=29be6ed6-88e4-4ecf-b823-8e951f978743","ios":"levelo://app?vid=29be6ed6-88e4-4ecf-b823-8e951f978743"},"vehicle_type_id":"4","last_reported":1760782143,"current_range_meters":20000,"station_id":"ce4bhlh2rcd13ifvqgig","pricing_plan_id":"cebpf4jnsgd1na2vs0mg"},{"bike_id":"d43f3f0b-a234-4a84-acc2-4f02fc3451a7","system_id":"levelo_inurba_marseille","lat":43.24391,"lon":5.37064,"is_reserved":false,"is_disabled":true,"rental_uris":{"android":"levelo://app?vid=d43f3f0b-a234-4a84-acc2-4f02fc3451a7","ios":"levelo://app?vid=d43f3f0b-a234-4a84-acc2-4f02fc3451a7"},"vehicle_type_id":"4","last_reported":1760782143,"current_range_meters":20000,"station_id":"ce4bhhh2rcd13ifvqfk0","pricing_plan_id":"cebpf4jnsgd1na2vs0mg"},{"bike_id":"c22e92c8-3fe0-4c56-ab21-210e12f7f0b4","system_id":"levelo_inurba_marseille","lat":43.319468,"lon":5.415278,"is_reserved":false,"is_disabled":false,"rental_uris":{"android":"levelo://app?vid=c22e92c8-3fe0-4c56-ab21-210e12f7f0b4","ios":"levelo://app?vid=c22e92c8-3fe0-4c56-ab21-210e12f7f0b4"},"vehicle_type_id":"4","last_reported":1760782143,"current_range_meters":20000,"station_id":"","pricing_plan_id":"cebpf4jnsgd1na2vs0mg"},{"bike_id":"f9615a0d-59d5-4530-9451-f51dd89f7040","system_id":"levelo_inurba_marseille","lat":43.29802,"lon":5.36313,"is_reserved":false,"is_disabled":false,"rental_uris":{"android":"levelo://app?vid=f9615a0d-59d5-4530-9451-f51dd89f7040","ios":"levelo://app?vid=f9615a0d-59d5-4530-9451-f51dd89f7040"},"vehicle_type_id":"4","last_reported":1760782143,"current_range_meters":20000,"station_id":"","pricing_plan_id":"cebpf4jnsgd1na2vs0mg"},{"bike_id":"f1ad9d1d-9c06-41a3-9d14-eb8ccc0cf505","system_id":"levelo_inurba_marseille","lat":43.303745,"lon":5.424872,"is_reserved":false,"is_disabled":false,"rental_uris":{"android":"levelo://app?vid=f1ad9d1d-9c06-41a3-9d14-eb8ccc0cf505","ios":"levelo://app?vid=f1ad9d1d-9c06-41a3-9d14-eb8ccc0cf505"},"vehicle_type_id":"4","last_reported":1760782143,"current_range_meters":20000,"station_id":"ce4bhoh2rcd13ifvqh6g","pricing_plan_id":"cebpf4jnsgd1na2vs0mg"},{"bike_id":"953f0f91-35e1-457d-ade3-a9a3adf23708","system_id":"levelo_inurba_marseille","lat":43.21716,"lon":5.34618,"is_reserved":false,"is_disabled":false,"rental_uris":{"android":"levelo://app?vid=953f0f91-35e1-457d-ade3-a9a3adf23708","ios":"levelo://app?vid=953f0f91-35e1-457d-ade3-a9a3adf23708"},"vehicle_type_id":"4","last_reported":1760782143,"current_range_meters":20400,"station_id":"st_cvj6r9ubvosntc0bgbag","pricing_plan_id":"cebpf4jnsgd1na2vs0mg"},{"bike_id":"95b11048-a16a-4978-850d-f323bd33cba1","system_id":"levelo_inurba_marseille","lat":43.28272,"lon":5.35068,"is_reserved":false,"is_disabled":false,"rental_uris":{"android":"levelo://app?vid=95b11048-a16a-4978-850d-f323bd33cba1","ios":"levelo://app?vid=95b11048-a16a-4978-850d-f323bd33cba1"},"vehicle_type_id":"4","last_reported":1760782143,"current_range_meters":20400,"station_id":"ce4bhbp2rcd13ifvqerg","pricing_plan_id":"cebpf4jnsgd1na2vs0mg"},{"bike_id":"a6a47198-4cdf-48e8-891e-29d9869e2d03","system_id":"levelo_inurba_marseille","lat":43.295181,"lon":5.390399,"is_reserved":false,"is_disabled":false,"rental_uris":{"android":"levelo://app?vid=a6a47198-4cdf-48e8-891e-29d9869e2d03","ios":"levelo://app?vid=a6a47198-4cdf-48e8-891e-29d9869e2d03"},"vehicle_type_id":"4","last_reported":1760782143,"current_range_meters":20400,"station_id":"","pricing_plan_id":"cebpf4jnsgd1na2vs0mg"},{"bike_id":"8b9ef284-f57e-43ad-9332-2ba9d0b1b211","system_id":"levelo_inurba_marseille","lat":43.23801,"lon":5.36631,"is_reserved":false,"is_disabled":false,"rental_uris":{"android":"levelo://app?vid=8b9ef284-f57e-43ad-9332-2ba9d0b1b211","ios":"levelo://app?vid=8b9ef284-f57e-43ad-9332-2ba9d0b1b211"},"vehicle_type_id":"4","last_reported":1760782143,"current_range_meters":20400,"station_id":"st_d3nk18o9ro0c73en2l3g","pricing_plan_id":"cebpf4jnsgd1na2vs0mg"},{"bike_id":"110680dd-924b-4c03-a14a-cc6035f87ef1","system_id":"levelo_inurba_marseille","lat":43.30152,"lon":5.3809,"is_reserved":false,"is_disabled":false,"rental_uris":{"android":"levelo://app?vid=110680dd-924b-4c03-a14a-cc6035f87ef1","ios":"levelo://app?vid=110680dd-924b-4c03-a14a-cc6035f87ef1"},"vehicle_type_id":"4","last_reported":1760782143,"current_range_meters":20400,"station_id":"ce4bgjp2rcd13ifvqbh0","pricing_plan_id":"cebpf4jnsgd1na2vs0mg"},{"bike_id":"0a15e0ed-05e4-445a-a116-794932a0413c","system_id":"levelo_inurba_marseille","lat":43.28717,"lon":5.36097,"is_reserved":false,"is_disabled":false,"rental_uris":{"android":"levelo://app?vid=0a15e0ed-05e4-445a-a116-794932a0413c","ios":"levelo://app?vid=0a15e0ed-05e4-445a-a116-794932a0413c"},"vehicle_type_id":"4","last_reported":1760782143,"current_range_meters":20400,"station_id":"cki0cbj6b192h4jlfktg","pricing_plan_id":"cebpf4jnsgd1na2vs0mg"},{"bike_id":"b950505f-40e1-453e-bbe4-8a18eaac8b30","system_id":"levelo_inurba_marseille","lat":43.28276,"lon":5.35074,"is_reserved":false,"is_disabled":false,"rental_uris":{"android":"levelo://app?vid=b950505f-40e1-453e-bbe4-8a18eaac8b30","ios":"levelo://app?vid=b950505f-40e1-453e-bbe4-8a18eaac8b30"},"vehicle_type_id":"4","last_reported":1760782143,"current_range_meters":20400,"station_id":"ce4bhbp2rcd13ifvqerg","pricing_plan_id":"cebpf4jnsgd1na2vs0mg"},{"bike_id":"f781a6d4-292d-4408-89eb-3b335e572580","system_id":"levelo_inurba_marseille","lat":43.27199,"lon":5.39184,"is_reserved":false,"is_disabled":false,"rental_uris":{"android":"levelo://app?vid=f781a6d4-292d-4408-89eb-3b335e572580","ios":"levelo://app?vid=f781a6d4-292d-4408-89eb-3b335e572580"},"vehicle_type_id":"4","last_reported":1760782143,"current_range_meters":20400,"station_id":"ce4bhhp2rcd13ifvqfm0","pricing_plan_id":"cebpf4jnsgd1na2vs0mg"},{"bike_id":"836dc977-33cb-4fdc-b43c-5cbf669af7a4","system_id":"levelo_inurba_marseille","lat":43.22557,"lon":5.41632,"is_reserved":false,"is_disabled":false,"rental_uris":{"android":"levelo://app?vid=836dc977-33cb-4fdc-b43c-5cbf669af7a4","ios":"levelo://app?vid=836dc977-33cb-4fdc-b43c-5cbf669af7a4"},"vehicle_type_id":"4","last_reported":1760782143,"current_range_meters":20400,"station_id":"st_d2o4gvlbi1j2169b742g","pricing_plan_id":"cebpf4jnsgd1na2vs0mg"},{"bike_id":"22e431fa-1615-4a3f-a2bd-edd662d4a2b3","system_id":"levelo_inurba_marseille","lat":43.27205,"lon":5.391975,"is_reserved":false,"is_disabled":false,"rental_uris":{"android":"levelo://app?vid=22e431fa-1615-4a3f-a2bd-edd662d4a2b3","ios":"levelo://app?vid=22e431fa-1615-4a3f-a2bd-edd662d4a2b3"},"vehicle_type_id":"4","last_reported":1760782143,"current_range_meters":20800,"station_id":"ce4bhhp2rcd13ifvqfm0","pricing_plan_id":"cebpf4jnsgd1na2vs0mg"},{"bike_id":"d9dbd1b8-9174-4b47-9f3e-adfffcf7d908","system_id":"levelo_inurba_marseille","lat":43.294856,"lon":5.43298,"is_reserved":false,"is_disabled":false,"rental_uris":{"android":"levelo://app?vid=d9dbd1b8-9174-4b47-9f3e-adfffcf7d908","ios":"levelo://app?vid=d9dbd1b8-9174-4b47-9f3e-adfffcf7d908"},"vehicle_type_id":"4","last_reported":1760782143,"current_range_meters":20800,"station_id":"st_d3j5ugp08ojc73fj9d10","pricing_plan_id":"cebpf4jnsgd1na2vs0mg"},{"bike_id":"30bb346f-15c1-45e0-93b5-118e2e0441d1","system_id":"levelo_inurba_marseille","lat":43.27623,"lon":5.36109,"is_reserved":false,"is_disabled":false,"rental_uris":{"android":"levelo://app?vid=30bb346f-15c1-45e0-93b5-118e2e0441d1","ios":"levelo://app?vid=30bb346f-15c1-45e0-93b5-118e2e0441d1"},"vehicle_type_id":"4","last_reported":1760782143,"current_range_meters":20800,"station_id":"ce4bgj92rcd13ifvqbe0","pricing_plan_id":"cebpf4jnsgd1na2vs0mg"},{"bike_id":"0a950a0d-01ce-40b2-be0e-ad7894fd72f2","system_id":"levelo_inurba_marseille","lat":43.320899,"lon":5.367669,"is_reserved":false,"is_disabled":true,"rental_uris":{"android":"levelo://app?vid=0a950a0d-01ce-40b2-be0e-ad7894fd72f2","ios":"levelo://app?vid=0a950a0d-01ce-40b2-be0e-ad7894fd72f2"},"vehicle_type_id":"4","last_reported":1760782143,"current_range_meters":20800,"station_id":"ce4bhrh2rcd13ifvqhug","pricing_plan_id":"cebpf4jnsgd1na2vs0mg"},{"bike_id":"4fdcb7e9-cd7b-4638-8e68-9af0f3f0eff9","system_id":"levelo_inurba_marseille","lat":43.21748,"lon":5.34607,"is_reserved":false,"is_disabled":false,"rental_uris":{"android":"levelo://app?vid=4fdcb7e9-cd7b-4638-8e68-9af0f3f0eff9","ios":"levelo://app?vid=4fdcb7e9-cd7b-4638-8e68-9af0f3f0eff9"},"vehicle_type_id":"4","last_reported":1760782143,"current_range_meters":20800,"station_id":"st_cvj6r9ubvosntc0bgbag","pricing_plan_id":"cebpf4jnsgd1na2vs0mg"},{"bike_id":"e0987155-e9eb-4955-8b28-d06da6d54c0e","system_id":"levelo_inurba_marseille","lat":43.3015,"lon":5.3809,"is_reserved":false,"is_disabled":false,"rental_uris":{"android":"levelo://app?vid=e0987155-e9eb-4955-8b28-d06da6d54c0e","ios":"levelo://app?vid=e0987155-e9eb-4955-8b28-d06da6d54c0e"},"vehicle_type_id":"4","last_reported":1760782143,"current_range_meters":20800,"station_id":"ce4bgjp2rcd13ifvqbh0","pricing_plan_id":"cebpf4jnsgd1na2vs0mg"},{"bike_id":"3131666e-88ed-4179-a14c-e36e4fc90bc9","system_id":"levelo_inurba_marseille","lat":43.29519,"lon":5.37505,"is_reserved":false,"is_disabled":false,"rental_uris":{"android":"levelo://app?vid=3131666e-88ed-4179-a14c-e36e4fc90bc9","ios":"levelo://app?vid=3131666e-88ed-4179-a14c-e36e4fc90bc9"},"vehicle_type_id":"4","last_reported":1760782143,"current_range_meters":20800,"station_id":"ce4bgkp2rcd13ifvqbmg","pricing_plan_id":"cebpf4jnsgd1na2vs0mg"},{"bike_id":"0f340d93-ea9e-466b-836b-699f9b10a737","system_id":"levelo_inurba_marseille","lat":43.2175,"lon":5.346,"is_reserved":false,"is_disabled":false,"rental_uris":{"android":"levelo://app?vid=0f340d93-ea9e-466b-836b-699f9b10a737","ios":"levelo://app?vid=0f340d93-ea9e-466b-836b-699f9b10a737"},"vehicle_type_id":"4","last_reported":1760782143,"current_range_meters":20800,"station_id":"st_cvj6r9ubvosntc0bgbag","pricing_plan_id":"cebpf4jnsgd1na2vs0mg"},{"bike_id":"c91723ce-bcb6-4ff3-a4d9-3abe80d4f70d","system_id":"levelo_inurba_marseille","lat":43.29247,"lon":5.36855,"is_reserved":false,"is_disabled":false,"rental_uris":{"android":"levelo://app?vid=c91723ce-bcb6-4ff3-a4d9-3abe80d4f70d","ios":"levelo://app?vid=c91723ce-bcb6-4ff3-a4d9-3abe80d4f70d"},"vehicle_type_id":"4","last_reported":1760782143,"current_range_meters":21600,"station_id":"ce4bhbp2rcd13ifvqesg","pricing_plan_id":"cebpf4jnsgd1na2vs0mg"},{"bike_id":"78d3cbfa-263a-46c1-80a5-3f912c4d2829","system_id":"levelo_inurba_marseille","lat":43.295752,"lon":5.375136,"is_reserved":false,"is_disabled":false,"rental_uris":{"android":"levelo://app?vid=78d3cbfa-263a-46c1-80a5-3f912c4d2829","ios":"levelo://app?vid=78d3cbfa-263a-46c1-80a5-3f912c4d2829"},"vehicle_type_id":"4","last_reported":1760782143,"current_range_meters":21600,"station_id":"ce4bgh92rcd13ifvqb50","pricing_plan_id":"cebpf4jnsgd1na2vs0mg"},{"bike_id":"2afed4a9-0503-42fb-998e-c27db92e8838","system_id":"levelo_inurba_marseille","lat":43.259841,"lon":5.408533,"is_reserved":false,"is_disabled":false,"rental_uris":{"android":"levelo://app?vid=2afed4a9-0503-42fb-998e-c27db92e8838","ios":"levelo://app?vid=2afed4a9-0503-42fb-998e-c27db92e8838"},"vehicle_type_id":"4","last_reported":1760782143,"current_range_meters":21600,"station_id":"","pricing_plan_id":"cebpf4jnsgd1na2vs0mg"},{"bike_id":"7fa555b6-af71-4c8d-b236-5117052b29f6","system_id":"levelo_inurba_marseille","lat":43.27564,"lon":5.3843,"is_reserved":false,"is_disabled":false,"rental_uris":{"android":"levelo://app?vid=7fa555b6-af71-4c8d-b236-5117052b29f6","ios":"levelo://app?vid=7fa555b6-af71-4c8d-b236-5117052b29f6"},"vehicle_type_id":"4","last_reported":1760782143,"current_range_meters":21600,"station_id":"ce4bhh92rcd13ifvqfi0","pricing_plan_id":"cebpf4jnsgd1na2vs0mg"},{"bike_id":"dfbf4ac6-dc34-4582-99a6-c4aff4d84e89","system_id":"levelo_inurba_marseille","lat":43.29719,"lon":5.37681,"is_reserved":false,"is_disabled":false,"rental_uris":{"android":"levelo://app?vid=dfbf4ac6-dc34-4582-99a6-c4aff4d84e89","ios":"levelo://app?vid=dfbf4ac6-dc34-4582-99a6-c4aff4d84e89"},"vehicle_type_id":"4","last_reported":1760782143,"current_range_meters":21600,"station_id":"ce4bgkh2rcd13ifvqbl0","pricing_plan_id":"cebpf4jnsgd1na2vs0mg"},{"bike_id":"ac8d0651-72b3-49df-9bad-4204660a002a","system_id":"levelo_inurba_marseille","lat":43.29854,"lon":5.36267,"is_reserved":false,"is_disabled":false,"rental_uris":{"android":"levelo://app?vid=ac8d0651-72b3-49df-9bad-4204660a002a","ios":"levelo://app?vid=ac8d0651-72b3-49df-9bad-4204660a002a"},"vehicle_type_id":"4","last_reported":1760782143,"current_range_meters":21600,"station_id":"ce4bgpp2rcd13ifvqc3g","pricing_plan_id":"cebpf4jnsgd1na2vs0mg"},{"bike_id":"20007d3f-221c-4619-9199-4407920f6a5d","system_id":"levelo_inurba_marseille","lat":43.24545,"lon":5.39528,"is_reserved":false,"is_disabled":false,"rental_uris":{"android":"levelo://app?vid=20007d3f-221c-4619-9199-4407920f6a5d","ios":"levelo://app?vid=20007d3f-221c-4619-9199-4407920f6a5d"},"vehicle_type_id":"4","last_reported":1760782143,"current_range_meters":21600,"station_id":"ce4bhlp2rcd13ifvqgjg","pricing_plan_id":"cebpf4jnsgd1na2vs0mg"},{"bike_id":"61913086-2b3c-4258-9a29-3719dad07dbc","system_id":"levelo_inurba_marseille","lat":43.23777,"lon":5.36628,"is_reserved":false,"is_disabled":false,"rental_uris":{"android":"levelo://app?vid=61913086-2b3c-4258-9a29-3719dad07dbc","ios":"levelo://app?vid=61913086-2b3c-4258-9a29-3719dad07dbc"},"vehicle_type_id":"4","last_reported":1760782143,"current_range_meters":21600,"station_id":"st_d3nk18o9ro0c73en2l3g","pricing_plan_id":"cebpf4jnsgd1na2vs0mg"},{"bike_id":"32eebeb8-b22c-4326-b88b-f7553ca33104","system_id":"levelo_inurba_marseille","lat":43.292636,"lon":5.38436,"is_reserved":false,"is_disabled":false,"rental_uris":{"android":"levelo://app?vid=32eebeb8-b22c-4326-b88b-f7553ca33104","ios":"levelo://app?vid=32eebeb8-b22c-4326-b88b-f7553ca33104"},"vehicle_type_id":"4","last_reported":1760782143,"current_range_meters":21600,"station_id":"ce4bh692rcd13ifvqea0","pricing_plan_id":"cebpf4jnsgd1na2vs0mg"},{"bike_id":"4ba3f80f-3bc4-4b92-93c0-45e0b5e57b39","system_id":"levelo_inurba_marseille","lat":43.30462,"lon":5.37908,"is_reserved":false,"is_disabled":false,"rental_uris":{"android":"levelo://app?vid=4ba3f80f-3bc4-4b92-93c0-45e0b5e57b39","ios":"levelo://app?vid=4ba3f80f-3bc4-4b92-93c0-45e0b5e57b39"},"vehicle_type_id":"4","last_reported":1760782143,"current_range_meters":21600,"station_id":"ce4bgup2rcd13ifvqcn0","pricing_plan_id":"cebpf4jnsgd1na2vs0mg"},{"bike_id":"070a12ba-5872-4820-bd2f-b82bc2ca48d5","system_id":"levelo_inurba_marseille","lat":43.24073,"lon":5.37757,"is_reserved":false,"is_disabled":false,"rental_uris":{"android":"levelo://app?vid=070a12ba-5872-4820-bd2f-b82bc2ca48d5","ios":"levelo://app?vid=070a12ba-5872-4820-bd2f-b82bc2ca48d5"},"vehicle_type_id":"4","last_reported":1760782143,"current_range_meters":21600,"station_id":"ce4bhnp2rcd13ifvqgvg","pricing_plan_id":"cebpf4jnsgd1na2vs0mg"},{"bike_id":"0de78b4b-4add-4e3a-b94b-b56e60d12e2a","system_id":"levelo_inurba_marseille","lat":43.28594,"lon":5.35573,"is_reserved":false,"is_disabled":false,"rental_uris":{"android":"levelo://app?vid=0de78b4b-4add-4e3a-b94b-b56e60d12e2a","ios":"levelo://app?vid=0de78b4b-4add-4e3a-b94b-b56e60d12e2a"},"vehicle_type_id":"4","last_reported":1760782143,"current_range_meters":22000,"station_id":"","pricing_plan_id":"cebpf4jnsgd1na2vs0mg"},{"bike_id":"59f7aa1e-8cfb-4c98-93d6-073af7532710","system_id":"levelo_inurba_marseille","lat":43.281501,"lon":5.426534,"is_reserved":false,"is_disabled":false,"rental_uris":{"android":"levelo://app?vid=59f7aa1e-8cfb-4c98-93d6-073af7532710","ios":"levelo://app?vid=59f7aa1e-8cfb-4c98-93d6-073af7532710"},"vehicle_type_id":"4","last_reported":1760782143,"current_range_meters":22000,"station_id":"ce4bhnh2rcd13ifvqgug","pricing_plan_id":"cebpf4jnsgd1na2vs0mg"},{"bike_id":"c530e950-50a8-4b2f-81e6-a5f7e6f752e8","system_id":"levelo_inurba_marseille","lat":43.33759,"lon":5.37473,"is_reserved":false,"is_disabled":false,"rental_uris":{"android":"levelo://app?vid=c530e950-50a8-4b2f-81e6-a5f7e6f752e8","ios":"levelo://app?vid=c530e950-50a8-4b2f-81e6-a5f7e6f752e8"},"vehicle_type_id":"4","last_reported":1760782143,"current_range_meters":22000,"station_id":"","pricing_plan_id":"cebpf4jnsgd1na2vs0mg"},{"bike_id":"59f6d2ae-c266-4f1b-bf46-ed4d65d07583","system_id":"levelo_inurba_marseille","lat":43.27914,"lon":5.38011,"is_reserved":false,"is_disabled":false,"rental_uris":{"android":"levelo://app?vid=59f6d2ae-c266-4f1b-bf46-ed4d65d07583","ios":"levelo://app?vid=59f6d2ae-c266-4f1b-bf46-ed4d65d07583"},"vehicle_type_id":"4","last_reported":1760782143,"current_range_meters":22000,"station_id":"ce4bhf92rcd13ifvqf50","pricing_plan_id":"cebpf4jnsgd1na2vs0mg"},{"bike_id":"0ea9dfc3-90c8-4720-b823-084af4b20fef","system_id":"levelo_inurba_marseille","lat":43.30549,"lon":5.36567,"is_reserved":false,"is_disabled":false,"rental_uris":{"android":"levelo://app?vid=0ea9dfc3-90c8-4720-b823-084af4b20fef","ios":"levelo://app?vid=0ea9dfc3-90c8-4720-b823-084af4b20fef"},"vehicle_type_id":"4","last_reported":1760782143,"current_range_meters":22000,"station_id":"ce4bgs12rcd13ifvqcag","pricing_plan_id":"cebpf4jnsgd1na2vs0mg"},{"bike_id":"6d7bf742-faef-4591-bc55-d0672314a8b6","system_id":"levelo_inurba_marseille","lat":43.27204,"lon":5.39177,"is_reserved":false,"is_disabled":false,"rental_uris":{"android":"levelo://app?vid=6d7bf742-faef-4591-bc55-d0672314a8b6","ios":"levelo://app?vid=6d7bf742-faef-4591-bc55-d0672314a8b6"},"vehicle_type_id":"4","last_reported":1760782143,"current_range_meters":22000,"station_id":"ce4bhhp2rcd13ifvqfm0","pricing_plan_id":"cebpf4jnsgd1na2vs0mg"},{"bike_id":"a21678ba-b4b8-4963-a7ae-d345741e87f0","system_id":"levelo_inurba_marseille","lat":43.28838,"lon":5.35851,"is_reserved":false,"is_disabled":false,"rental_uris":{"android":"levelo://app?vid=a21678ba-b4b8-4963-a7ae-d345741e87f0","ios":"levelo://app?vid=a21678ba-b4b8-4963-a7ae-d345741e87f0"},"vehicle_type_id":"4","last_reported":1760782143,"current_range_meters":22000,"station_id":"ce4bhb12rcd13ifvqem0","pricing_plan_id":"cebpf4jnsgd1na2vs0mg"},{"bike_id":"9daf190f-2826-4ff1-b944-0e82b7f885c4","system_id":"levelo_inurba_marseille","lat":43.29538,"lon":5.37508,"is_reserved":false,"is_disabled":false,"rental_uris":{"android":"levelo://app?vid=9daf190f-2826-4ff1-b944-0e82b7f885c4","ios":"levelo://app?vid=9daf190f-2826-4ff1-b944-0e82b7f885c4"},"vehicle_type_id":"4","last_reported":1760782143,"current_range_meters":22000,"station_id":"ce4bgkp2rcd13ifvqbmg","pricing_plan_id":"cebpf4jnsgd1na2vs0mg"},{"bike_id":"3661a29d-859b-4cd1-8df3-37aa2ff0cb72","system_id":"levelo_inurba_marseille","lat":43.21192,"lon":5.35072,"is_reserved":false,"is_disabled":false,"rental_uris":{"android":"levelo://app?vid=3661a29d-859b-4cd1-8df3-37aa2ff0cb72","ios":"levelo://app?vid=3661a29d-859b-4cd1-8df3-37aa2ff0cb72"},