{"last_updated":1747030572,"ttl":60,"version":"2.2","data":{"bikes":[{"bike_id":"237a059b-0913-4209-8b24-691ceec45172","system_id":"levelo_inurba_marseille","lat":43.337444,"lon":5.374475,"is_reserved":false,"is_disabled":true,"rental_uris":{"android":"levelo://app?vid=237a059b-0913-4209-8b24-691ceec45172","ios":"levelo://app?vid=237a059b-0913-4209-8b24-691ceec45172"},"vehicle_type_id":"4","last_reported":1747030572,"current_range_meters":2800,"station_id":"","pricing_plan_id":"cebpf4jnsgd1na2vs0mg"},{"bike_id":"814c300d-d261-4866-b022-44e7c5159380","system_id":"levelo_inurba_marseille","lat":43.24173,"lon":5.36418,"is_reserved":false,"is_disabled":true,"rental_uris":{"android":"levelo://app?vid=814c300d-d261-4866-b022-44e7c5159380","ios":"levelo://app?vid=814c300d-d261-4866-b022-44e7c5159380"},"vehicle_type_id":"4","last_reported":1747030572,"current_range_meters":3200,"station_id":"cpo36qri1sfpv3e86is0","pricing_plan_id":"cebpf4jnsgd1na2vs0mg"},{"bike_id":"c7b2effd-ed37-4223-a0c6-29d0e842dbd5","system_id":"levelo_inurba_marseille","lat":43.30065,"lon":5.37813,"is_reserved":false,"is_disabled":false,"rental_uris":{"android":"levelo://app?vid=c7b2effd-ed37-4223-a0c6-29d0e842dbd5","ios":"levelo://app?vid=c7b2effd-ed37-4223-a0c6-29d0e842dbd5"},"vehicle_type_id":"4","last_reported":1747030572,"current_range_meters":3200,"station_id":"","pricing_plan_id":"cebpf4jnsgd1na2vs0mg"},{"bike_id":"c4893eba-3dde-45a7-a825-6b9e4ddd23d5","system_id":"levelo_inurba_marseille","lat":43.23962,"lon":5.36628,"is_reserved":false,"is_disabled":false,"rental_uris":{"android":"levelo://app?vid=c4893eba-3dde-45a7-a825-6b9e4ddd23d5","ios":"levelo://app?vid=c4893eba-3dde-45a7-a825-6b9e4ddd23d5"},"vehicle_type_id":"4","last_reported":1747030572,"current_range_meters":3600,"station_id":"ce4bhi12rcd13ifvqfp0","pricing_plan_id":"cebpf4jnsgd1na2vs0mg"},{"bike_id":"58841c27-2ef4-4a41-8e77-ad54fbe76f62","system_id":"levelo_inurba_marseille","lat":43.24083,"lon":5.37754,"is_reserved":false,"is_disabled":false,"rental_uris":{"android":"levelo://app?vid=58841c27-2ef4-4a41-8e77-ad54fbe76f62","ios":"levelo://app?vid=58841c27-2ef4-4a41-8e77-ad54fbe76f62"},"vehicle_type_id":"4","last_reported":1747030572,"current_range_meters":4000,"station_id":"ce4bhnp2rcd13ifvqgvg","pricing_plan_id":"cebpf4jnsgd1na2vs0mg"},{"bike_id":"69cbfb42-f4c4-4a8d-8c72-2341c51aec27","system_id":"levelo_inurba_marseille","lat":43.24655,"lon":5.388959,"is_reserved":false,"is_disabled":false,"rental_uris":{"android":"levelo://app?vid=69cbfb42-f4c4-4a8d-8c72-2341c51aec27","ios":"levelo://app?vid=69cbfb42-f4c4-4a8d-8c72-2341c51aec27"},"vehicle_type_id":"4","last_reported":1747030572,"current_range_meters":4000,"station_id":"ce4bhg12rcd13ifvqf60","pricing_plan_id":"cebpf4jnsgd1na2vs0mg"},{"bike_id":"0ae16d20-a1e7-41ef-876d-f95f6b5b97f0","system_id":"levelo_inurba_marseille","lat":43.27475,"lon":5.42484,"is_reserved":false,"is_disabled":false,"rental_uris":{"android":"levelo://app?vid=0ae16d20-a1e7-41ef-876d-f95f6b5b97f0","ios":"levelo://app?vid=0ae16d20-a1e7-41ef-876d-f95f6b5b97f0"},"vehicle_type_id":"4","last_reported":1747030572,"current_range_meters":4400,"station_id":"ce4bhn92rcd13ifvqgrg","pricing_plan_id":"cebpf4jnsgd1na2vs0mg"},{"bike_id":"c9deaedf-5e5e-40b5-8021-90d32a33051a","system_id":"levelo_inurba_marseille","lat":43.30914,"lon":5.36814,"is_reserved":false,"is_disabled":false,"rental_uris":{"android":"levelo://app?vid=c9deaedf-5e5e-40b5-8021-90d32a33051a","ios":"levelo://app?vid=c9deaedf-5e5e-40b5-8021-90d32a33051a"},"vehicle_type_id":"4","last_reported":1747030572,"current_range_meters":4400,"station_id":"ce4bgn92rcd13ifvqbvg","pricing_plan_id":"cebpf4jnsgd1na2vs0mg"},{"bike_id":"b4eb3e5a-6855-4316-ab5e-8510957087f7","system_id":"levelo_inurba_marseille","lat":43.24806,"lon":5.37462,"is_reserved":false,"is_disabled":false,"rental_uris":{"android":"levelo://app?vid=b4eb3e5a-6855-4316-ab5e-8510957087f7","ios":"levelo://app?vid=b4eb3e5a-6855-4316-ab5e-8510957087f7"},"vehicle_type_id":"4","last_reported":1747030572,"current_range_meters":4800,"station_id":"ce4bhgh2rcd13ifvqfb0","pricing_plan_id":"cebpf4jnsgd1na2vs0mg"},{"bike_id":"f1f47090-376e-489a-b9ad-7bf5f4813c6a","system_id":"levelo_inurba_marseille","lat":43.29677,"lon":5.37661,"is_reserved":false,"is_disabled":true,"rental_uris":{"android":"levelo://app?vid=f1f47090-376e-489a-b9ad-7bf5f4813c6a","ios":"levelo://app?vid=f1f47090-376e-489a-b9ad-7bf5f4813c6a"},"vehicle_type_id":"4","last_reported":1747030572,"current_range_meters":4800,"station_id":"ce4bgkh2rcd13ifvqbl0","pricing_plan_id":"cebpf4jnsgd1na2vs0mg"},{"bike_id":"b6bc38c1-0e16-417a-8d43-51437946c28e","system_id":"levelo_inurba_marseille","lat":43.28708,"lon":5.37937,"is_reserved":false,"is_disabled":false,"rental_uris":{"android":"levelo://app?vid=b6bc38c1-0e16-417a-8d43-51437946c28e","ios":"levelo://app?vid=b6bc38c1-0e16-417a-8d43-51437946c28e"},"vehicle_type_id":"4","last_reported":1747030572,"current_range_meters":4800,"station_id":"ce4bh9p2rcd13ifvqec0","pricing_plan_id":"cebpf4jnsgd1na2vs0mg"},{"bike_id":"22932bc6-1947-449b-a3ce-701d2ddc38d2","system_id":"levelo_inurba_marseille","lat":43.24043,"lon":5.37772,"is_reserved":false,"is_disabled":false,"rental_uris":{"android":"levelo://app?vid=22932bc6-1947-449b-a3ce-701d2ddc38d2","ios":"levelo://app?vid=22932bc6-1947-449b-a3ce-701d2ddc38d2"},"vehicle_type_id":"4","last_reported":1747030572,"current_range_meters":5600,"station_id":"ce4bhnp2rcd13ifvqgvg","pricing_plan_id":"cebpf4jnsgd1na2vs0mg"},{"bike_id":"4df5783b-4b71-49bc-8945-64bd7d2c5ac1","system_id":"levelo_inurba_marseille","lat":43.26949,"lon":5.38633,"is_reserved":false,"is_disabled":false,"rental_uris":{"android":"levelo://app?vid=4df5783b-4b71-49bc-8945-64bd7d2c5ac1","ios":"levelo://app?vid=4df5783b-4b71-49bc-8945-64bd7d2c5ac1"},"vehicle_type_id":"4","last_reported":1747030572,"current_range_meters":6000,"station_id":"ce4bhh92rcd13ifvqfh0","pricing_plan_id":"cebpf4jnsgd1na2vs0mg"},{"bike_id":"48b73517-8a40-4b3f-aad3-968dd3319f04","system_id":"levelo_inurba_marseille","lat":43.31716,"lon":5.436953,"is_reserved":false,"is_disabled":false,"rental_uris":{"android":"levelo://app?vid=48b73517-8a40-4b3f-aad3-968dd3319f04","ios":"levelo://app?vid=48b73517-8a40-4b3f-aad3-968dd3319f04"},"vehicle_type_id":"4","last_reported":1747030572,"current_range_meters":6400,"station_id":"ce4bhp92rcd13ifvqhcg","pricing_plan_id":"cebpf4jnsgd1na2vs0mg"},{"bike_id":"bfee20c1-2a70-499f-8f94-908a9aa08101","system_id":"levelo_inurba_marseille","lat":43.30788,"lon":5.3764,"is_reserved":false,"is_disabled":false,"rental_uris":{"android":"levelo://app?vid=bfee20c1-2a70-499f-8f94-908a9aa08101","ios":"levelo://app?vid=bfee20c1-2a70-499f-8f94-908a9aa08101"},"vehicle_type_id":"4","last_reported":1747030572,"current_range_meters":6800,"station_id":"ce4bgv92rcd13ifvqcq0","pricing_plan_id":"cebpf4jnsgd1na2vs0mg"},{"bike_id":"fc2577e7-1497-425b-9d4f-ab8d7dc843c6","system_id":"levelo_inurba_marseille","lat":43.33771,"lon":5.37485,"is_reserved":false,"is_disabled":false,"rental_uris":{"android":"levelo://app?vid=fc2577e7-1497-425b-9d4f-ab8d7dc843c6","ios":"levelo://app?vid=fc2577e7-1497-425b-9d4f-ab8d7dc843c6"},"vehicle_type_id":"4","last_reported":1747030572,"current_range_meters":6800,"station_id":"","pricing_plan_id":"cebpf4jnsgd1na2vs0mg"},{"bike_id":"63bdd50a-b728-4d10-9320-dbc9bfa5973f","system_id":"levelo_inurba_marseille","lat":43.270722,"lon":5.422824,"is_reserved":false,"is_disabled":false,"rental_uris":{"android":"levelo://app?vid=63bdd50a-b728-4d10-9320-dbc9bfa5973f","ios":"levelo://app?vid=63bdd50a-b728-4d10-9320-dbc9bfa5973f"},"vehicle_type_id":"4","last_reported":1747030572,"current_range_meters":6800,"station_id":"ce4bhk92rcd13ifvqgb0","pricing_plan_id":"cebpf4jnsgd1na2vs0mg"},{"bike_id":"349ab267-2d63-414f-8605-837bf3d40763","system_id":"levelo_inurba_marseille","lat":43.26489,"lon":5.39576,"is_reserved":false,"is_disabled":false,"rental_uris":{"android":"levelo://app?vid=349ab267-2d63-414f-8605-837bf3d40763","ios":"levelo://app?vid=349ab267-2d63-414f-8605-837bf3d40763"},"vehicle_type_id":"4","last_reported":1747030572,"current_range_meters":6800,"station_id":"ce4bhi12rcd13ifvqfq0","pricing_plan_id":"cebpf4jnsgd1na2vs0mg"},{"bike_id":"95c07f58-992e-486e-9e01-f8c38af93653","system_id":"levelo_inurba_marseille","lat":43.30549,"lon":5.36701,"is_reserved":false,"is_disabled":true,"rental_uris":{"android":"levelo://app?vid=95c07f58-992e-486e-9e01-f8c38af93653","ios":"levelo://app?vid=95c07f58-992e-486e-9e01-f8c38af93653"},"vehicle_type_id":"4","last_reported":1747030572,"current_range_meters":6800,"station_id":"ce4bgrp2rcd13ifvqc9g","pricing_plan_id":"cebpf4jnsgd1na2vs0mg"},{"bike_id":"41f43e05-d897-45ff-8bad-32a9a60e29b8","system_id":"levelo_inurba_marseille","lat":43.3029,"lon":5.36581,"is_reserved":false,"is_disabled":false,"rental_uris":{"android":"levelo://app?vid=41f43e05-d897-45ff-8bad-32a9a60e29b8","ios":"levelo://app?vid=41f43e05-d897-45ff-8bad-32a9a60e29b8"},"vehicle_type_id":"4","last_reported":1747030572,"current_range_meters":6800,"station_id":"","pricing_plan_id":"cebpf4jnsgd1na2vs0mg"},{"bike_id":"3c3c5b22-55bc-42a2-9167-9d4c8e3d6343","system_id":"levelo_inurba_marseille","lat":43.31489,"lon":5.37311,"is_reserved":false,"is_disabled":false,"rental_uris":{"android":"levelo://app?vid=3c3c5b22-55bc-42a2-9167-9d4c8e3d6343","ios":"levelo://app?vid=3c3c5b22-55bc-42a2-9167-9d4c8e3d6343"},"vehicle_type_id":"4","last_reported":1747030572,"current_range_meters":7200,"station_id":"ce4bgt12rcd13ifvqcd0","pricing_plan_id":"cebpf4jnsgd1na2vs0mg"},{"bike_id":"bfd5e787-a75e-4dab-9738-e35cbb0c870a","system_id":"levelo_inurba_marseille","lat":43.32518,"lon":5.36566,"is_reserved":false,"is_disabled":false,"rental_uris":{"android":"levelo://app?vid=bfd5e787-a75e-4dab-9738-e35cbb0c870a","ios":"levelo://app?vid=bfd5e787-a75e-4dab-9738-e35cbb0c870a"},"vehicle_type_id":"4","last_reported":1747030572,"current_range_meters":7200,"station_id":"ce4bhs12rcd13ifvqhvg","pricing_plan_id":"cebpf4jnsgd1na2vs0mg"},{"bike_id":"3e733da9-78a8-4603-bf1c-cc79231fc198","system_id":"levelo_inurba_marseille","lat":43.30164,"lon":5.38083,"is_reserved":false,"is_disabled":false,"rental_uris":{"android":"levelo://app?vid=3e733da9-78a8-4603-bf1c-cc79231fc198","ios":"levelo://app?vid=3e733da9-78a8-4603-bf1c-cc79231fc198"},"vehicle_type_id":"4","last_reported":1747030572,"current_range_meters":7200,"station_id":"ce4bgjp2rcd13ifvqbh0","pricing_plan_id":"cebpf4jnsgd1na2vs0mg"},{"bike_id":"79ae0aca-448b-4e6b-b2a5-1eca06e4ee41","system_id":"levelo_inurba_marseille","lat":43.27378,"lon":5.36254,"is_reserved":false,"is_disabled":false,"rental_uris":{"android":"levelo://app?vid=79ae0aca-448b-4e6b-b2a5-1eca06e4ee41","ios":"levelo://app?vid=79ae0aca-448b-4e6b-b2a5-1eca06e4ee41"},"vehicle_type_id":"4","last_reported":1747030572,"current_range_meters":7200,"station_id":"ce4bhbh2rcd13ifvqeo0","pricing_plan_id":"cebpf4jnsgd1na2vs0mg"},{"bike_id":"95c76411-9b59-4b8a-9189-78fb377dc2e7","system_id":"levelo_inurba_marseille","lat":43.29106,"lon":5.40075,"is_reserved":false,"is_disabled":false,"rental_uris":{"android":"levelo://app?vid=95c76411-9b59-4b8a-9189-78fb377dc2e7","ios":"levelo://app?vid=95c76411-9b59-4b8a-9189-78fb377dc2e7"},"vehicle_type_id":"4","last_reported":1747030572,"current_range_meters":7200,"station_id":"","pricing_plan_id":"cebpf4jnsgd1na2vs0mg"},{"bike_id":"4be526c1-c099-4e56-8476-6a072fafda70","system_id":"levelo_inurba_marseille","lat":43.25086,"lon":5.40219,"is_reserved":false,"is_disabled":false,"rental_uris":{"android":"levelo://app?vid=4be526c1-c099-4e56-8476-6a072fafda70","ios":"levelo://app?vid=4be526c1-c099-4e56-8476-6a072fafda70"},"vehicle_type_id":"4","last_reported":1747030572,"current_range_meters":7200,"station_id":"","pricing_plan_id":"cebpf4jnsgd1na2vs0mg"},{"bike_id":"cda33d96-b0f5-4976-a031-efabf74d78c8","system_id":"levelo_inurba_marseille","lat":43.305143,"lon":5.366093,"is_reserved":false,"is_disabled":true,"rental_uris":{"android":"levelo://app?vid=cda33d96-b0f5-4976-a031-efabf74d78c8","ios":"levelo://app?vid=cda33d96-b0f5-4976-a031-efabf74d78c8"},"vehicle_type_id":"4","last_reported":1747030572,"current_range_meters":8000,"station_id":"","pricing_plan_id":"cebpf4jnsgd1na2vs0mg"},{"bike_id":"387f7f3b-5790-4e94-9b50-58161fa0b526","system_id":"levelo_inurba_marseille","lat":43.24173,"lon":5.36388,"is_reserved":false,"is_disabled":false,"rental_uris":{"android":"levelo://app?vid=387f7f3b-5790-4e94-9b50-58161fa0b526","ios":"levelo://app?vid=387f7f3b-5790-4e94-9b50-58161fa0b526"},"vehicle_type_id":"4","last_reported":1747030572,"current_range_meters":8000,"station_id":"cpo36qri1sfpv3e86is0","pricing_plan_id":"cebpf4jnsgd1na2vs0mg"},{"bike_id":"38fd2285-da0e-4f6a-be1d-f6c2112df572","system_id":"levelo_inurba_marseille","lat":43.28642,"lon":5.3635,"is_reserved":false,"is_disabled":true,"rental_uris":{"android":"levelo://app?vid=38fd2285-da0e-4f6a-be1d-f6c2112df572","ios":"levelo://app?vid=38fd2285-da0e-4f6a-be1d-f6c2112df572"},"vehicle_type_id":"4","last_reported":1747030572,"current_range_meters":8000,"station_id":"ce4bhah2rcd13ifvqej0","pricing_plan_id":"cebpf4jnsgd1na2vs0mg"},{"bike_id":"910f58e1-bc11-4d4a-be16-a826726f8216","system_id":"levelo_inurba_marseille","lat":43.2904,"lon":5.359105,"is_reserved":false,"is_disabled":true,"rental_uris":{"android":"levelo://app?vid=910f58e1-bc11-4d4a-be16-a826726f8216","ios":"levelo://app?vid=910f58e1-bc11-4d4a-be16-a826726f8216"},"vehicle_type_id":"4","last_reported":1747030572,"current_range_meters":8000,"station_id":"ce4bha92rcd13ifvqeg0","pricing_plan_id":"cebpf4jnsgd1na2vs0mg"},{"bike_id":"a709c096-19a6-423a-ad85-f5169b2557a1","system_id":"levelo_inurba_marseille","lat":43.27065,"lon":5.42279,"is_reserved":false,"is_disabled":true,"rental_uris":{"android":"levelo://app?vid=a709c096-19a6-423a-ad85-f5169b2557a1","ios":"levelo://app?vid=a709c096-19a6-423a-ad85-f5169b2557a1"},"vehicle_type_id":"4","last_reported":1747030572,"current_range_meters":8000,"station_id":"ce4bhk92rcd13ifvqgb0","pricing_plan_id":"cebpf4jnsgd1na2vs0mg"},{"bike_id":"6d705489-d3d5-4e12-a28e-5d7bb8b109f3","system_id":"levelo_inurba_marseille","lat":43.26861,"lon":5.42759,"is_reserved":false,"is_disabled":false,"rental_uris":{"android":"levelo://app?vid=6d705489-d3d5-4e12-a28e-5d7bb8b109f3","ios":"levelo://app?vid=6d705489-d3d5-4e12-a28e-5d7bb8b109f3"},"vehicle_type_id":"4","last_reported":1747030572,"current_range_meters":8400,"station_id":"","pricing_plan_id":"cebpf4jnsgd1na2vs0mg"},{"bike_id":"4327240e-995b-4db0-8943-aba121ff29a8","system_id":"levelo_inurba_marseille","lat":43.30149,"lon":5.38089,"is_reserved":false,"is_disabled":false,"rental_uris":{"android":"levelo://app?vid=4327240e-995b-4db0-8943-aba121ff29a8","ios":"levelo://app?vid=4327240e-995b-4db0-8943-aba121ff29a8"},"vehicle_type_id":"4","last_reported":1747030572,"current_range_meters":8400,"station_id":"ce4bgjp2rcd13ifvqbh0","pricing_plan_id":"cebpf4jnsgd1na2vs0mg"},{"bike_id":"5d616a98-f6a1-4789-a02d-abb0d20dd49c","system_id":"levelo_inurba_marseille","lat":43.23192,"lon":5.39988,"is_reserved":false,"is_disabled":true,"rental_uris":{"android":"levelo://app?vid=5d616a98-f6a1-4789-a02d-abb0d20dd49c","ios":"levelo://app?vid=5d616a98-f6a1-4789-a02d-abb0d20dd49c"},"vehicle_type_id":"4","last_reported":1747030572,"current_range_meters":8400,"station_id":"ce4bhn12rcd13ifvqgqg","pricing_plan_id":"cebpf4jnsgd1na2vs0mg"},{"bike_id":"7d1ac5d5-d4c2-4b61-a97f-68945c90da7b","system_id":"levelo_inurba_marseille","lat":43.27485,"lon":5.42463,"is_reserved":false,"is_disabled":false,"rental_uris":{"android":"levelo://app?vid=7d1ac5d5-d4c2-4b61-a97f-68945c90da7b","ios":"levelo://app?vid=7d1ac5d5-d4c2-4b61-a97f-68945c90da7b"},"vehicle_type_id":"4","last_reported":1747030572,"current_range_meters":8400,"station_id":"ce4bhn92rcd13ifvqgrg","pricing_plan_id":"cebpf4jnsgd1na2vs0mg"},{"bike_id":"8a17cb83-f1c1-4246-8513-90f3c14cfa95","system_id":"levelo_inurba_marseille","lat":43.30151,"lon":5.380848,"is_reserved":false,"is_disabled":false,"rental_uris":{"android":"levelo://app?vid=8a17cb83-f1c1-4246-8513-90f3c14cfa95","ios":"levelo://app?vid=8a17cb83-f1c1-4246-8513-90f3c14cfa95"},"vehicle_type_id":"4","last_reported":1747030572,"current_range_meters":8400,"station_id":"ce4bgjp2rcd13ifvqbh0","pricing_plan_id":"cebpf4jnsgd1na2vs0mg"},{"bike_id":"a1121b36-b5cd-4dda-96ef-13a3dfaa55e1","system_id":"levelo_inurba_marseille","lat":43.301401,"lon":5.387791,"is_reserved":false,"is_disabled":true,"rental_uris":{"android":"levelo://app?vid=a1121b36-b5cd-4dda-96ef-13a3dfaa55e1","ios":"levelo://app?vid=a1121b36-b5cd-4dda-96ef-13a3dfaa55e1"},"vehicle_type_id":"4","last_reported":1747030572,"current_range_meters":8800,"station_id":"","pricing_plan_id":"cebpf4jnsgd1na2vs0mg"},{"bike_id":"6663a384-abed-48bd-861f-d563c5fcecd4","system_id":"levelo_inurba_marseille","lat":43.284165,"lon":5.349824,"is_reserved":false,"is_disabled":true,"rental_uris":{"android":"levelo://app?vid=6663a384-abed-48bd-861f-d563c5fcecd4","ios":"levelo://app?vid=6663a384-abed-48bd-861f-d563c5fcecd4"},"vehicle_type_id":"4","last_reported":1747030572,"current_range_meters":8800,"station_id":"ce4bhbh2rcd13ifvqepg","pricing_plan_id":"cebpf4jnsgd1na2vs0mg"},{"bike_id":"4b460be1-c693-4bb9-911d-ee0bb3e597f1","system_id":"levelo_inurba_marseille","lat":43.32509,"lon":5.36618,"is_reserved":false,"is_disabled":false,"rental_uris":{"android":"levelo://app?vid=4b460be1-c693-4bb9-911d-ee0bb3e597f1","ios":"levelo://app?vid=4b460be1-c693-4bb9-911d-ee0bb3e597f1"},"vehicle_type_id":"4","last_reported":1747030572,"current_range_meters":9200,"station_id":"ce4bhs12rcd13ifvqhvg","pricing_plan_id":"cebpf4jnsgd1na2vs0mg"},{"bike_id":"3ee007b4-701a-43a3-a268-87c67c8eea49","system_id":"levelo_inurba_marseille","lat":43.26233,"lon":5.40455,"is_reserved":false,"is_disabled":false,"rental_uris":{"android":"levelo://app?vid=3ee007b4-701a-43a3-a268-87c67c8eea49","ios":"levelo://app?vid=3ee007b4-701a-43a3-a268-87c67c8eea49"},"vehicle_type_id":"4","last_reported":1747030572,"current_range_meters":9200,"station_id":"ce4bhmh2rcd13ifvqgmg","pricing_plan_id":"cebpf4jnsgd1na2vs0mg"},{"bike_id":"c33c979d-9903-40dc-a17f-25ccdad88704","system_id":"levelo_inurba_marseille","lat":43.29514,"lon":5.39421,"is_reserved":false,"is_disabled":true,"rental_uris":{"android":"levelo://app?vid=c33c979d-9903-40dc-a17f-25ccdad88704","ios":"levelo://app?vid=c33c979d-9903-40dc-a17f-25ccdad88704"},"vehicle_type_id":"4","last_reported":1747030572,"current_range_meters":9200,"station_id":"ce4bh292rcd13ifvqdf0","pricing_plan_id":"cebpf4jnsgd1na2vs0mg"},{"bike_id":"d0d183e6-ea29-444c-b2ee-967d9c04f039","system_id":"levelo_inurba_marseille","lat":43.26564,"lon":5.38998,"is_reserved":false,"is_disabled":false,"rental_uris":{"android":"levelo://app?vid=d0d183e6-ea29-444c-b2ee-967d9c04f039","ios":"levelo://app?vid=d0d183e6-ea29-444c-b2ee-967d9c04f039"},"vehicle_type_id":"4","last_reported":1747030572,"current_range_meters":9200,"station_id":"ce4bhe12rcd13ifvqf30","pricing_plan_id":"cebpf4jnsgd1na2vs0mg"},{"bike_id":"082c1f9f-4719-4cfe-b34a-37cfa3666b2e","system_id":"levelo_inurba_marseille","lat":43.2874,"lon":5.39963,"is_reserved":false,"is_disabled":true,"rental_uris":{"android":"levelo://app?vid=082c1f9f-4719-4cfe-b34a-37cfa3666b2e","ios":"levelo://app?vid=082c1f9f-4719-4cfe-b34a-37cfa3666b2e"},"vehicle_type_id":"4","last_reported":1747030572,"current_range_meters":9200,"station_id":"ce4bho92rcd13ifvqh3g","pricing_plan_id":"cebpf4jnsgd1na2vs0mg"},{"bike_id":"093772c5-fb44-482c-a0c3-8501aa31b989","system_id":"levelo_inurba_marseille","lat":43.29901,"lon":5.43643,"is_reserved":false,"is_disabled":true,"rental_uris":{"android":"levelo://app?vid=093772c5-fb44-482c-a0c3-8501aa31b989","ios":"levelo://app?vid=093772c5-fb44-482c-a0c3-8501aa31b989"},"vehicle_type_id":"4","last_reported":1747030572,"current_range_meters":9200,"station_id":"ce4bhpp2rcd13ifvqhfg","pricing_plan_id":"cebpf4jnsgd1na2vs0mg"},{"bike_id":"4c225c91-81ad-4607-a332-a6df2a9845bf","system_id":"levelo_inurba_marseille","lat":43.25129,"lon":5.40427,"is_reserved":false,"is_disabled":false,"rental_uris":{"android":"levelo://app?vid=4c225c91-81ad-4607-a332-a6df2a9845bf","ios":"levelo://app?vid=4c225c91-81ad-4607-a332-a6df2a9845bf"},"vehicle_type_id":"4","last_reported":1747030572,"current_range_meters":9600,"station_id":"","pricing_plan_id":"cebpf4jnsgd1na2vs0mg"},{"bike_id":"e471f90e-354f-45b7-a017-6e607e5ac360","system_id":"levelo_inurba_marseille","lat":43.30453,"lon":5.37906,"is_reserved":false,"is_disabled":false,"rental_uris":{"android":"levelo://app?vid=e471f90e-354f-45b7-a017-6e607e5ac360","ios":"levelo://app?vid=e471f90e-354f-45b7-a017-6e607e5ac360"},"vehicle_type_id":"4","last_reported":1747030572,"current_range_meters":9200,"station_id":"ce4bgup2rcd13ifvqcn0","pricing_plan_id":"cebpf4jnsgd1na2vs0mg"},{"bike_id":"4b8071f5-69a5-472c-8c01-3da02b499dbe","system_id":"levelo_inurba_marseille","lat":43.29278,"lon":5.36842,"is_reserved":false,"is_disabled":true,"rental_uris":{"android":"levelo://app?vid=4b8071f5-69a5-472c-8c01-3da02b499dbe","ios":"levelo://app?vid=4b8071f5-69a5-472c-8c01-3da02b499dbe"},"vehicle_type_id":"4","last_reported":1747030572,"current_range_meters":9600,"station_id":"ce4bhbp2rcd13ifvqesg","pricing_plan_id":"cebpf4jnsgd1na2vs0mg"},{"bike_id":"14a6e8ff-d441-4237-b12f-0b46baf4884d","system_id":"levelo_inurba_marseille","lat":43.27911,"lon":5.39582,"is_reserved":false,"is_disabled":true,"rental_uris":{"android":"levelo://app?vid=14a6e8ff-d441-4237-b12f-0b46baf4884d","ios":"levelo://app?vid=14a6e8ff-d441-4237-b12f-0b46baf4884d"},"vehicle_type_id":"4","last_reported":1747030572,"current_range_meters":9600,"station_id":"ce4bhf92rcd13ifvqf40","pricing_plan_id":"cebpf4jnsgd1na2vs0mg"},{"bike_id":"83a5dddc-f08f-476e-a316-d0e0dfb65037","system_id":"levelo_inurba_marseille","lat":43.31741,"lon":5.42433,"is_reserved":false,"is_disabled":false,"rental_uris":{"android":"levelo://app?vid=83a5dddc-f08f-476e-a316-d0e0dfb65037","ios":"levelo://app?vid=83a5dddc-f08f-476e-a316-d0e0dfb65037"},"vehicle_type_id":"4","last_reported":1747030572,"current_range_meters":10000,"station_id":"ce4bhp92rcd13ifvqhbg","pricing_plan_id":"cebpf4jnsgd1na2vs0mg"},{"bike_id":"e04887a7-c9a6-4b18-bcf3-65035c239cd4","system_id":"levelo_inurba_marseille","lat":43.30804,"lon":5.38155,"is_reserved":false,"is_disabled":false,"rental_uris":{"android":"levelo://app?vid=e04887a7-c9a6-4b18-bcf3-65035c239cd4","ios":"levelo://app?vid=e04887a7-c9a6-4b18-bcf3-65035c239cd4"},"vehicle_type_id":"4","last_reported":1747030572,"current_range_meters":10000,"station_id":"ce4bgt12rcd13ifvqce0","pricing_plan_id":"cebpf4jnsgd1na2vs0mg"},{"bike_id":"75f7e021-a9c5-4232-90b8-1417f51b2982","system_id":"levelo_inurba_marseille","lat":43.224957,"lon":5.347901,"is_reserved":false,"is_disabled":true,"rental_uris":{"android":"levelo://app?vid=75f7e021-a9c5-4232-90b8-1417f51b2982","ios":"levelo://app?vid=75f7e021-a9c5-4232-90b8-1417f51b2982"},"vehicle_type_id":"4","last_reported":1747030572,"current_range_meters":10000,"station_id":"st_cvj5dfep6f1abm77gieg","pricing_plan_id":"cebpf4jnsgd1na2vs0mg"},{"bike_id":"3e65b7fa-d7c3-4fd7-ba88-2c063c440251","system_id":"levelo_inurba_marseille","lat":43.25122,"lon":5.40323,"is_reserved":false,"is_disabled":true,"rental_uris":{"android":"levelo://app?vid=3e65b7fa-d7c3-4fd7-ba88-2c063c440251","ios":"levelo://app?vid=3e65b7fa-d7c3-4fd7-ba88-2c063c440251"},"vehicle_type_id":"4","last_reported":1747030572,"current_range_meters":10000,"station_id":"ce4bhlh2rcd13ifvqgig","pricing_plan_id":"cebpf4jnsgd1na2vs0mg"},{"bike_id":"126fb8eb-da50-40f1-a54d-439415e9033d","system_id":"levelo_inurba_marseille","lat":43.29759,"lon":5.37114,"is_reserved":false,"is_disabled":false,"rental_uris":{"android":"levelo://app?vid=126fb8eb-da50-40f1-a54d-439415e9033d","ios":"levelo://app?vid=126fb8eb-da50-40f1-a54d-439415e9033d"},"vehicle_type_id":"4","last_reported":1747030572,"current_range_meters":10000,"station_id":"ce4bgop2rcd13ifvqc1g","pricing_plan_id":"cebpf4jnsgd1na2vs0mg"},{"bike_id":"4071bc6b-0376-4f46-b2a9-db87b2084a00","system_id":"levelo_inurba_marseille","lat":43.28282,"lon":5.35076,"is_reserved":false,"is_disabled":true,"rental_uris":{"android":"levelo://app?vid=4071bc6b-0376-4f46-b2a9-db87b2084a00","ios":"levelo://app?vid=4071bc6b-0376-4f46-b2a9-db87b2084a00"},"vehicle_type_id":"4","last_reported":1747030572,"current_range_meters":10000,"station_id":"ce4bhbp2rcd13ifvqerg","pricing_plan_id":"cebpf4jnsgd1na2vs0mg"},{"bike_id":"c80f8f6d-0a84-40ba-a770-93ad44f051f3","system_id":"levelo_inurba_marseille","lat":43.29509,"lon":5.38546,"is_reserved":false,"is_disabled":true,"rental_uris":{"android":"levelo://app?vid=c80f8f6d-0a84-40ba-a770-93ad44f051f3","ios":"levelo://app?vid=c80f8f6d-0a84-40ba-a770-93ad44f051f3"},"vehicle_type_id":"4","last_reported":1747030572,"current_range_meters":10000,"station_id":"ce4bgih2rcd13ifvqba0","pricing_plan_id":"cebpf4jnsgd1na2vs0mg"},{"bike_id":"eec0c522-001d-43e5-add1-98db49238595","system_id":"levelo_inurba_marseille","lat":43.23153,"lon":5.43723,"is_reserved":false,"is_disabled":false,"rental_uris":{"android":"levelo://app?vid=eec0c522-001d-43e5-add1-98db49238595","ios":"levelo://app?vid=eec0c522-001d-43e5-add1-98db49238595"},"vehicle_type_id":"4","last_reported":1747030572,"current_range_meters":10000,"station_id":"ce4bhmp2rcd13ifvqgog","pricing_plan_id":"cebpf4jnsgd1na2vs0mg"},{"bike_id":"283fdfb9-005b-4325-8d66-9428f105ee8b","system_id":"levelo_inurba_marseille","lat":43.30951,"lon":5.374434,"is_reserved":false,"is_disabled":false,"rental_uris":{"android":"levelo://app?vid=283fdfb9-005b-4325-8d66-9428f105ee8b","ios":"levelo://app?vid=283fdfb9-005b-4325-8d66-9428f105ee8b"},"vehicle_type_id":"4","last_reported":1747030572,"current_range_meters":10000,"station_id":"","pricing_plan_id":"cebpf4jnsgd1na2vs0mg"},{"bike_id":"d5ac3055-7153-4470-8fcf-96c2d081c1d5","system_id":"levelo_inurba_marseille","lat":43.29777,"lon":5.3811,"is_reserved":false,"is_disabled":false,"rental_uris":{"android":"levelo://app?vid=d5ac3055-7153-4470-8fcf-96c2d081c1d5","ios":"levelo://app?vid=d5ac3055-7153-4470-8fcf-96c2d081c1d5"},"vehicle_type_id":"4","last_reported":1747030572,"current_range_meters":9600,"station_id":"ce4bgip2rcd13ifvqbb0","pricing_plan_id":"cebpf4jnsgd1na2vs0mg"},{"bike_id":"de608a0b-278b-468e-957e-8246fb76906b","system_id":"levelo_inurba_marseille","lat":43.279551,"lon":5.387188,"is_reserved":false,"is_disabled":true,"rental_uris":{"android":"levelo://app?vid=de608a0b-278b-468e-957e-8246fb76906b","ios":"levelo://app?vid=de608a0b-278b-468e-957e-8246fb76906b"},"vehicle_type_id":"4","last_reported":1747030572,"current_range_meters":10000,"station_id":"ce4bhg12rcd13ifvqf80","pricing_plan_id":"cebpf4jnsgd1na2vs0mg"},{"bike_id":"de4a530f-3b17-41b9-bd98-d22e64d46bdc","system_id":"levelo_inurba_marseille","lat":43.321051,"lon":5.367801,"is_reserved":false,"is_disabled":false,"rental_uris":{"android":"levelo://app?vid=de4a530f-3b17-41b9-bd98-d22e64d46bdc","ios":"levelo://app?vid=de4a530f-3b17-41b9-bd98-d22e64d46bdc"},"vehicle_type_id":"4","last_reported":1747030572,"current_range_meters":10000,"station_id":"ce4bhrh2rcd13ifvqhug","pricing_plan_id":"cebpf4jnsgd1na2vs0mg"},{"bike_id":"f52c819d-ca4b-4640-b458-b877db1bf990","system_id":"levelo_inurba_marseille","lat":43.29875,"lon":5.41034,"is_reserved":false,"is_disabled":false,"rental_uris":{"android":"levelo://app?vid=f52c819d-ca4b-4640-b458-b877db1bf990","ios":"levelo://app?vid=f52c819d-ca4b-4640-b458-b877db1bf990"},"vehicle_type_id":"4","last_reported":1747030572,"current_range_meters":10800,"station_id":"","pricing_plan_id":"cebpf4jnsgd1na2vs0mg"},{"bike_id":"19708695-a8ee-4716-9e14-a794ed2f1a40","system_id":"levelo_inurba_marseille","lat":43.265639,"lon":5.390184,"is_reserved":false,"is_disabled":false,"rental_uris":{"android":"levelo://app?vid=19708695-a8ee-4716-9e14-a794ed2f1a40","ios":"levelo://app?vid=19708695-a8ee-4716-9e14-a794ed2f1a40"},"vehicle_type_id":"4","last_reported":1747030572,"current_range_meters":10800,"station_id":"ce4bhe12rcd13ifvqf30","pricing_plan_id":"cebpf4jnsgd1na2vs0mg"},{"bike_id":"784b1b93-ba74-4bd0-8f66-55ccc930a9b0","system_id":"levelo_inurba_marseille","lat":43.30147,"lon":5.38104,"is_reserved":false,"is_disabled":false,"rental_uris":{"android":"levelo://app?vid=784b1b93-ba74-4bd0-8f66-55ccc930a9b0","ios":"levelo://app?vid=784b1b93-ba74-4bd0-8f66-55ccc930a9b0"},"vehicle_type_id":"4","last_reported":1747030572,"current_range_meters":10800,"station_id":"ce4bgjp2rcd13ifvqbh0","pricing_plan_id":"cebpf4jnsgd1na2vs0mg"},{"bike_id":"cc62d2da-5a20-4806-9c3f-389790a326f5","system_id":"levelo_inurba_marseille","lat":43.24399,"lon":5.37093,"is_reserved":false,"is_disabled":true,"rental_uris":{"android":"levelo://app?vid=cc62d2da-5a20-4806-9c3f-389790a326f5","ios":"levelo://app?vid=cc62d2da-5a20-4806-9c3f-389790a326f5"},"vehicle_type_id":"4","last_reported":1747030572,"current_range_meters":10800,"station_id":"ce4bhhh2rcd13ifvqfk0","pricing_plan_id":"cebpf4jnsgd1na2vs0mg"},{"bike_id":"55856a3b-99d2-496f-a027-bba5a37668e6","system_id":"levelo_inurba_marseille","lat":43.28341,"lon":5.38092,"is_reserved":false,"is_disabled":true,"rental_uris":{"android":"levelo://app?vid=55856a3b-99d2-496f-a027-bba5a37668e6","ios":"levelo://app?vid=55856a3b-99d2-496f-a027-bba5a37668e6"},"vehicle_type_id":"4","last_reported":1747030572,"current_range_meters":10800,"station_id":"ce4bh412rcd13ifvqdr0","pricing_plan_id":"cebpf4jnsgd1na2vs0mg"},{"bike_id":"d769f653-2284-4ccd-8df9-03b5aebbcb34","system_id":"levelo_inurba_marseille","lat":43.2696,"lon":5.43144,"is_reserved":false,"is_disabled":false,"rental_uris":{"android":"levelo://app?vid=d769f653-2284-4ccd-8df9-03b5aebbcb34","ios":"levelo://app?vid=d769f653-2284-4ccd-8df9-03b5aebbcb34"},"vehicle_type_id":"4","last_reported":1747030572,"current_range_meters":11200,"station_id":"","pricing_plan_id":"cebpf4jnsgd1na2vs0mg"},{"bike_id":"2dc8f571-bdc0-40fd-8798-698cac4d179c","system_id":"levelo_inurba_marseille","lat":43.30207,"lon":5.39482,"is_reserved":false,"is_disabled":false,"rental_uris":{"android":"levelo://app?vid=2dc8f571-bdc0-40fd-8798-698cac4d179c","ios":"levelo://app?vid=2dc8f571-bdc0-40fd-8798-698cac4d179c"},"vehicle_type_id":"4","last_reported":1747030572,"current_range_meters":11200,"station_id":"ce4bh0p2rcd13ifvqd70","pricing_plan_id":"cebpf4jnsgd1na2vs0mg"},{"bike_id":"9401e170-3654-4a41-bf35-9a468db0c37f","system_id":"levelo_inurba_marseille","lat":43.25131,"lon":5.40318,"is_reserved":false,"is_disabled":false,"rental_uris":{"android":"levelo://app?vid=9401e170-3654-4a41-bf35-9a468db0c37f","ios":"levelo://app?vid=9401e170-3654-4a41-bf35-9a468db0c37f"},"vehicle_type_id":"4","last_reported":1747030572,"current_range_meters":11600,"station_id":"ce4bhlh2rcd13ifvqgig","pricing_plan_id":"cebpf4jnsgd1na2vs0mg"},{"bike_id":"b654d356-9b98-43e8-a6a7-3d01ed9e919a","system_id":"levelo_inurba_marseille","lat":43.3014,"lon":5.38777,"is_reserved":false,"is_disabled":false,"rental_uris":{"android":"levelo://app?vid=b654d356-9b98-43e8-a6a7-3d01ed9e919a","ios":"levelo://app?vid=b654d356-9b98-43e8-a6a7-3d01ed9e919a"},"vehicle_type_id":"4","last_reported":1747030572,"current_range_meters":12000,"station_id":"ce4bghh2rcd13ifvqb60","pricing_plan_id":"cebpf4jnsgd1na2vs0mg"},{"bike_id":"68d8f3cb-2ff9-4cad-8197-16a050b2ecab","system_id":"levelo_inurba_marseille","lat":43.3046,"lon":5.37911,"is_reserved":false,"is_disabled":false,"rental_uris":{"android":"levelo://app?vid=68d8f3cb-2ff9-4cad-8197-16a050b2ecab","ios":"levelo://app?vid=68d8f3cb-2ff9-4cad-8197-16a050b2ecab"},"vehicle_type_id":"4","last_reported":1747030572,"current_range_meters":12400,"station_id":"ce4bgup2rcd13ifvqcn0","pricing_plan_id":"cebpf4jnsgd1na2vs0mg"},{"bike_id":"1f7af883-3e19-47d1-9f0c-d45bc0b675ea","system_id":"levelo_inurba_marseille","lat":43.30537,"lon":5.36721,"is_reserved":false,"is_disabled":false,"rental_uris":{"android":"levelo://app?vid=1f7af883-3e19-47d1-9f0c-d45bc0b675ea","ios":"levelo://app?vid=1f7af883-3e19-47d1-9f0c-d45bc0b675ea"},"vehicle_type_id":"4","last_reported":1747030572,"current_range_meters":12400,"station_id":"","pricing_plan_id":"cebpf4jnsgd1na2vs0mg"},{"bike_id":"03eb35db-c9f2-4083-8a14-331f78548517","system_id":"levelo_inurba_marseille","lat":43.28454,"lon":5.35885,"is_reserved":false,"is_disabled":false,"rental_uris":{"android":"levelo://app?vid=03eb35db-c9f2-4083-8a14-331f78548517","ios":"levelo://app?vid=03eb35db-c9f2-4083-8a14-331f78548517"},"vehicle_type_id":"4","last_reported":1747030572,"current_range_meters":12000,"station_id":"ce4bhah2rcd13ifvqei0","pricing_plan_id":"cebpf4jnsgd1na2vs0mg"},{"bike_id":"2ee4d910-0ee1-4bc5-86c8-c77afad12b4f","system_id":"levelo_inurba_marseille","lat":43.32112,"lon":5.36769,"is_reserved":false,"is_disabled":false,"rental_uris":{"android":"levelo://app?vid=2ee4d910-0ee1-4bc5-86c8-c77afad12b4f","ios":"levelo://app?vid=2ee4d910-0ee1-4bc5-86c8-c77afad12b4f"},"vehicle_type_id":"4","last_reported":1747030572,"current_range_meters":12400,"station_id":"ce4bhrh2rcd13ifvqhug","pricing_plan_id":"cebpf4jnsgd1na2vs0mg"},{"bike_id":"81ddb101-84f7-4a77-91cf-71bef855ad25","system_id":"levelo_inurba_marseille","lat":43.27369,"lon":5.36265,"is_reserved":false,"is_disabled":false,"rental_uris":{"android":"levelo://app?vid=81ddb101-84f7-4a77-91cf-71bef855ad25","ios":"levelo://app?vid=81ddb101-84f7-4a77-91cf-71bef855ad25"},"vehicle_type_id":"4","last_reported":1747030572,"current_range_meters":12400,"station_id":"ce4bhbh2rcd13ifvqeo0","pricing_plan_id":"cebpf4jnsgd1na2vs0mg"},{"bike_id":"3a61634e-a01c-4273-a389-105239270ea7","system_id":"levelo_inurba_marseille","lat":43.30145,"lon":5.38069,"is_reserved":false,"is_disabled":false,"rental_uris":{"android":"levelo://app?vid=3a61634e-a01c-4273-a389-105239270ea7","ios":"levelo://app?vid=3a61634e-a01c-4273-a389-105239270ea7"},"vehicle_type_id":"4","last_reported":1747030572,"current_range_meters":12800,"station_id":"ce4bgjp2rcd13ifvqbh0","pricing_plan_id":"cebpf4jnsgd1na2vs0mg"},{"bike_id":"8aa95a32-f084-4cbb-a8ec-ac9ae023b144","system_id":"levelo_inurba_marseille","lat":43.24081,"lon":5.37756,"is_reserved":false,"is_disabled":false,"rental_uris":{"android":"levelo://app?vid=8aa95a32-f084-4cbb-a8ec-ac9ae023b144","ios":"levelo://app?vid=8aa95a32-f084-4cbb-a8ec-ac9ae023b144"},"vehicle_type_id":"4","last_reported":1747030572,"current_range_meters":12800,"station_id":"ce4bhnp2rcd13ifvqgvg","pricing_plan_id":"cebpf4jnsgd1na2vs0mg"},{"bike_id":"c717b955-1d23-42a6-bf63-f39e0d9342dd","system_id":"levelo_inurba_marseille","lat":43.28272,"lon":5.43106,"is_reserved":false,"is_disabled":false,"rental_uris":{"android":"levelo://app?vid=c717b955-1d23-42a6-bf63-f39e0d9342dd","ios":"levelo://app?vid=c717b955-1d23-42a6-bf63-f39e0d9342dd"},"vehicle_type_id":"4","last_reported":1747030572,"current_range_meters":12800,"station_id":"","pricing_plan_id":"cebpf4jnsgd1na2vs0mg"},{"bike_id":"9045e522-fb74-40e8-a360-46477ae935cc","system_id":"levelo_inurba_marseille","lat":43.24176,"lon":5.39726,"is_reserved":false,"is_disabled":false,"rental_uris":{"android":"levelo://app?vid=9045e522-fb74-40e8-a360-46477ae935cc","ios":"levelo://app?vid=9045e522-fb74-40e8-a360-46477ae935cc"},"vehicle_type_id":"4","last_reported":1747030572,"current_range_meters":12800,"station_id":"ce4bhn12rcd13ifvqgpg","pricing_plan_id":"cebpf4jnsgd1na2vs0mg"},{"bike_id":"f3bc9fe4-a9bd-43c8-8a47-ffaeebc00913","system_id":"levelo_inurba_marseille","lat":43.3234,"lon":5.40621,"is_reserved":false,"is_disabled":false,"rental_uris":{"android":"levelo://app?vid=f3bc9fe4-a9bd-43c8-8a47-ffaeebc00913","ios":"levelo://app?vid=f3bc9fe4-a9bd-43c8-8a47-ffaeebc00913"},"vehicle_type_id":"4","last_reported":1747030572,"current_range_meters":12800,"station_id":"ce4bhq92rcd13ifvqhjg","pricing_plan_id":"cebpf4jnsgd1na2vs0mg"},{"bike_id":"54101157-aa5c-4754-a5e5-1895f7ff0107","system_id":"levelo_inurba_marseille","lat":43.26468,"lon":5.39563,"is_reserved":false,"is_disabled":false,"rental_uris":{"android":"levelo://app?vid=54101157-aa5c-4754-a5e5-1895f7ff0107","ios":"levelo://app?vid=54101157-aa5c-4754-a5e5-1895f7ff0107"},"vehicle_type_id":"4","last_reported":1747030572,"current_range_meters":13600,"station_id":"ce4bhi12rcd13ifvqfq0","pricing_plan_id":"cebpf4jnsgd1na2vs0mg"},{"bike_id":"77b898d6-83c3-4819-8f10-342d8faa3aa9","system_id":"levelo_inurba_marseille","lat":43.27076,"lon":5.42275,"is_reserved":false,"is_disabled":true,"rental_uris":{"android":"levelo://app?vid=77b898d6-83c3-4819-8f10-342d8faa3aa9","ios":"levelo://app?vid=77b898d6-83c3-4819-8f10-342d8faa3aa9"},"vehicle_type_id":"4","last_reported":1747030572,"current_range_meters":13600,"station_id":"ce4bhk92rcd13ifvqgb0","pricing_plan_id":"cebpf4jnsgd1na2vs0mg"},{"bike_id":"9d0c938b-9f4a-4fa5-9043-ec8059bc8a59","system_id":"levelo_inurba_marseille","lat":43.30167,"lon":5.38083,"is_reserved":false,"is_disabled":false,"rental_uris":{"android":"levelo://app?vid=9d0c938b-9f4a-4fa5-9043-ec8059bc8a59","ios":"levelo://app?vid=9d0c938b-9f4a-4fa5-9043-ec8059bc8a59"},"vehicle_type_id":"4","last_reported":1747030572,"current_range_meters":14000,"station_id":"ce4bgjp2rcd13ifvqbh0","pricing_plan_id":"cebpf4jnsgd1na2vs0mg"},{"bike_id":"bca1914e-cac6-4a8a-9d51-4094f86b9c58","system_id":"levelo_inurba_marseille","lat":43.289737,"lon":5.366553,"is_reserved":false,"is_disabled":true,"rental_uris":{"android":"levelo://app?vid=bca1914e-cac6-4a8a-9d51-4094f86b9c58","ios":"levelo://app?vid=bca1914e-cac6-4a8a-9d51-4094f86b9c58"},"vehicle_type_id":"4","last_reported":1747030572,"current_range_meters":14000,"station_id":"","pricing_plan_id":"cebpf4jnsgd1na2vs0mg"},{"bike_id":"da5c3b57-57cf-42df-9ddc-7013bfc1e471","system_id":"levelo_inurba_marseille","lat":43.29936,"lon":5.3655,"is_reserved":false,"is_disabled":false,"rental_uris":{"android":"levelo://app?vid=da5c3b57-57cf-42df-9ddc-7013bfc1e471","ios":"levelo://app?vid=da5c3b57-57cf-42df-9ddc-7013bfc1e471"},"vehicle_type_id":"4","last_reported":1747030572,"current_range_meters":14000,"station_id":"ce4bgm92rcd13ifvqbr0","pricing_plan_id":"cebpf4jnsgd1na2vs0mg"},{"bike_id":"e97c484f-c4f9-4871-bb4b-648f86012817","system_id":"levelo_inurba_marseille","lat":43.26568,"lon":5.39008,"is_reserved":false,"is_disabled":false,"rental_uris":{"android":"levelo://app?vid=e97c484f-c4f9-4871-bb4b-648f86012817","ios":"levelo://app?vid=e97c484f-c4f9-4871-bb4b-648f86012817"},"vehicle_type_id":"4","last_reported":1747030572,"current_range_meters":14000,"station_id":"ce4bhe12rcd13ifvqf30","pricing_plan_id":"cebpf4jnsgd1na2vs0mg"},{"bike_id":"28ac0b76-bde6-4473-9ce1-dd898998f843","system_id":"levelo_inurba_marseille","lat":43.29585,"lon":5.3811,"is_reserved":false,"is_disabled":false,"rental_uris":{"android":"levelo://app?vid=28ac0b76-bde6-4473-9ce1-dd898998f843","ios":"levelo://app?vid=28ac0b76-bde6-4473-9ce1-dd898998f843"},"vehicle_type_id":"4","last_reported":1747030572,"current_range_meters":14000,"station_id":"ce4bgl12rcd13ifvqbo0","pricing_plan_id":"cebpf4jnsgd1na2vs0mg"},{"bike_id":"0a4dc782-e1df-48ff-81bf-b707284fe935","system_id":"levelo_inurba_marseille","lat":43.28435,"lon":5.34997,"is_reserved":false,"is_disabled":true,"rental_uris":{"android":"levelo://app?vid=0a4dc782-e1df-48ff-81bf-b707284fe935","ios":"levelo://app?vid=0a4dc782-e1df-48ff-81bf-b707284fe935"},"vehicle_type_id":"4","last_reported":1747030572,"current_range_meters":14000,"station_id":"ce4bhbh2rcd13ifvqepg","pricing_plan_id":"cebpf4jnsgd1na2vs0mg"},{"bike_id":"a63da369-f316-4936-b7dc-41d1da1b1831","system_id":"levelo_inurba_marseille","lat":43.29951,"lon":5.38484,"is_reserved":false,"is_disabled":true,"rental_uris":{"android":"levelo://app?vid=a63da369-f316-4936-b7dc-41d1da1b1831","ios":"levelo://app?vid=a63da369-f316-4936-b7dc-41d1da1b1831"},"vehicle_type_id":"4","last_reported":1747030572,"current_range_meters":14400,"station_id":"ce4bgj92rcd13ifvqbd0","pricing_plan_id":"cebpf4jnsgd1na2vs0mg"},{"bike_id":"b3c9ad64-d7d6-42df-b044-faf8c2709059","system_id":"levelo_inurba_marseille","lat":43.25827,"lon":5.39432,"is_reserved":false,"is_disabled":false,"rental_uris":{"android":"levelo://app?vid=b3c9ad64-d7d6-42df-b044-faf8c2709059","ios":"levelo://app?vid=b3c9ad64-d7d6-42df-b044-faf8c2709059"},"vehicle_type_id":"4","last_reported":1747030572,"current_range_meters":15200,"station_id":"ce4bhip2rcd13ifvqft0","pricing_plan_id":"cebpf4jnsgd1na2vs0mg"},{"bike_id":"a218fffe-f127-4efe-a3ce-e43f2545f3f8","system_id":"levelo_inurba_marseille","lat":43.27501,"lon":5.42457,"is_reserved":false,"is_disabled":false,"rental_uris":{"android":"levelo://app?vid=a218fffe-f127-4efe-a3ce-e43f2545f3f8","ios":"levelo://app?vid=a218fffe-f127-4efe-a3ce-e43f2545f3f8"},"vehicle_type_id":"4","last_reported":1747030572,"current_range_meters":15200,"station_id":"ce4bhn92rcd13ifvqgrg","pricing_plan_id":"cebpf4jnsgd1na2vs0mg"},{"bike_id":"0b1c8292-c329-4aa8-92d1-c391c9c0fef8","system_id":"levelo_inurba_marseille","lat":43.278447,"lon":5.421611,"is_reserved":false,"is_disabled":false,"rental_uris":{"android":"levelo://app?vid=0b1c8292-c329-4aa8-92d1-c391c9c0fef8","ios":"levelo://app?vid=0b1c8292-c329-4aa8-92d1-c391c9c0fef8"},"vehicle_type_id":"4","last_reported":1747030572,"current_range_meters":15200,"station_id":"","pricing_plan_id":"cebpf4jnsgd1na2vs0mg"},{"bike_id":"9375d37a-be5e-40fd-9924-5edaeac85299","system_id":"levelo_inurba_marseille","lat":43.31754,"lon":5.39011,"is_reserved":false,"is_disabled":false,"rental_uris":{"android":"levelo://app?vid=9375d37a-be5e-40fd-9924-5edaeac85299","ios":"levelo://app?vid=9375d37a-be5e-40fd-9924-5edaeac85299"},"vehicle_type_id":"4","last_reported":1747030572,"current_range_meters":16000,"station_id":"ce4bhqp2rcd13ifvqhng","pricing_plan_id":"cebpf4jnsgd1na2vs0mg"},{"bike_id":"82074ffc-1641-46a8-aaed-6d5bd32624ea","system_id":"levelo_inurba_marseille","lat":43.29874,"lon":5.39725,"is_reserved":false,"is_disabled":false,"rental_uris":{"android":"levelo://app?vid=82074ffc-1641-46a8-aaed-6d5bd32624ea","ios":"levelo://app?vid=82074ffc-1641-46a8-aaed-6d5bd32624ea"},"vehicle_type_id":"4","last_reported":1747030572,"current_range_meters":16000,"station_id":"ce4bh0h2rcd13ifvqd50","pricing_plan_id":"cebpf4jnsgd1na2vs0mg"},{"bike_id":"b6f0504a-f7d7-4a97-b810-e7c9e7b1c671","system_id":"levelo_inurba_marseille","lat":43.27919,"lon":5.41221,"is_reserved":false,"is_disabled":false,"rental_uris":{"android":"levelo://app?vid=b6f0504a-f7d7-4a97-b810-e7c9e7b1c671","ios":"levelo://app?vid=b6f0504a-f7d7-4a97-b810-e7c9e7b1c671"},"vehicle_type_id":"4","last_reported":1747030572,"current_range_meters":16000,"station_id":"","pricing_plan_id":"cebpf4jnsgd1na2vs0mg"},{"bike_id":"2a2e92a8-9be2-42a0-8f8b-e8c99ed20b3a","system_id":"levelo_inurba_marseille","lat":43.23165,"lon":5.39938,"is_reserved":false,"is_disabled":false,"rental_uris":{"android":"levelo://app?vid=2a2e92a8-9be2-42a0-8f8b-e8c99ed20b3a","ios":"levelo://app?vid=2a2e92a8-9be2-42a0-8f8b-e8c99ed20b3a"},"vehicle_type_id":"4","last_reported":1747030572,"current_range_meters":16000,"station_id":"","pricing_plan_id":"cebpf4jnsgd1na2vs0mg"},{"bike_id":"41d206a9-3e4c-4676-ba58-a52da07fc332","system_id":"levelo_inurba_marseille","lat":43.28412,"lon":5.34976,"is_reserved":false,"is_disabled":false,"rental_uris":{"android":"levelo://app?vid=41d206a9-3e4c-4676-ba58-a52da07fc332","ios":"levelo://app?vid=41d206a9-3e4c-4676-ba58-a52da07fc332"},"vehicle_type_id":"4","last_reported":1747030572,"current_range_meters":16000,"station_id":"ce4bhbh2rcd13ifvqepg","pricing_plan_id":"cebpf4jnsgd1na2vs0mg"},{"bike_id":"b63e6078-9c65-41bd-aa73-a2ddabd6b5de","system_id":"levelo_inurba_marseille","lat":43.2959,"lon":5.3673,"is_reserved":false,"is_disabled":true,"rental_uris":{"android":"levelo://app?vid=b63e6078-9c65-41bd-aa73-a2ddabd6b5de","ios":"levelo://app?vid=b63e6078-9c65-41bd-aa73-a2ddabd6b5de"},"vehicle_type_id":"4","last_reported":1747030572,"current_range_meters":16000,"station_id":"ce4bgph2rcd13ifvqc2g","pricing_plan_id":"cebpf4jnsgd1na2vs0mg"},{"bike_id":"8d0cb374-b189-4d08-b524-423970ae355e","system_id":"levelo_inurba_marseille","lat":43.30462,"lon":5.37901,"is_reserved":false,"is_disabled":false,"rental_uris":{"android":"levelo://app?vid=8d0cb374-b189-4d08-b524-423970ae355e","ios":"levelo://app?vid=8d0cb374-b189-4d08-b524-423970ae355e"},"vehicle_type_id":"4","last_reported":1747030572,"current_range_meters":16000,"station_id":"ce4bgup2rcd13ifvqcn0","pricing_plan_id":"cebpf4jnsgd1na2vs0mg"},{"bike_id":"2d031530-acae-45c8-b984-ebd85cff888b","system_id":"levelo_inurba_marseille","lat":43.28846,"lon":5.39324,"is_reserved":false,"is_disabled":true,"rental_uris":{"android":"levelo://app?vid=2d031530-acae-45c8-b984-ebd85cff888b","ios":"levelo://app?vid=2d031530-acae-45c8-b984-ebd85cff888b"},"vehicle_type_id":"4","last_reported":1747030572,"current_range_meters":16400,"station_id":"ce4bh2p2rcd13ifvqdi0","pricing_plan_id":"cebpf4jnsgd1na2vs0mg"},{"bike_id":"9b15f22f-afb6-4d8e-b341-696a684a5f8a","system_id":"levelo_inurba_marseille","lat":43.29828,"lon":5.38092,"is_reserved":false,"is_disabled":false,"rental_uris":{"android":"levelo://app?vid=9b15f22f-afb6-4d8e-b341-696a684a5f8a","ios":"levelo://app?vid=9b15f22f-afb6-4d8e-b341-696a684a5f8a"},"vehicle_type_id":"4","last_reported":1747030572,"current_range_meters":16400,"station_id":"ce4bgip2rcd13ifvqbb0","pricing_plan_id":"cebpf4jnsgd1na2vs0mg"},{"bike_id":"923bc3c8-9653-42f6-ab2d-a12cb585d499","system_id":"levelo_inurba_marseille","lat":43.29446,"lon":5.38695,"is_reserved":false,"is_disabled":false,"rental_uris":{"android":"levelo://app?vid=923bc3c8-9653-42f6-ab2d-a12cb585d499","ios":"levelo://app?vid=923bc3c8-9653-42f6-ab2d-a12cb585d499"},"vehicle_type_id":"4","last_reported":1747030572,"current_range_meters":16400,"station_id":"","pricing_plan_id":"cebpf4jnsgd1na2vs0mg"},{"bike_id":"1a0414b0-34ae-49ee-905b-d6960c184e30","system_id":"levelo_inurba_marseille","lat":43.292072,"lon":5.393186,"is_reserved":false,"is_disabled":false,"rental_uris":{"android":"levelo://app?vid=1a0414b0-34ae-49ee-905b-d6960c184e30","ios":"levelo://app?vid=1a0414b0-34ae-49ee-905b-d6960c184e30"},"vehicle_type_id":"4","last_reported":1747030572,"current_range_meters":16800,"station_id":"ce4bh192rcd13ifvqdd0","pricing_plan_id":"cebpf4jnsgd1na2vs0mg"},{"bike_id":"aca142bd-2716-4ee3-8c04-bd27c952c647","system_id":"levelo_inurba_marseille","lat":43.264369,"lon":5.374947,"is_reserved":false,"is_disabled":false,"rental_uris":{"android":"levelo://app?vid=aca142bd-2716-4ee3-8c04-bd27c952c647","ios":"levelo://app?vid=aca142bd-2716-4ee3-8c04-bd27c952c647"},"vehicle_type_id":"4","last_reported":1747030572,"current_range_meters":16800,"station_id":"","pricing_plan_id":"cebpf4jnsgd1na2vs0mg"},{"bike_id":"bb84fdad-e309-4160-b1a7-177bf33bc36f","system_id":"levelo_inurba_marseille","lat":43.297958,"lon":5.381103,"is_reserved":false,"is_disabled":true,"rental_uris":{"android":"levelo://app?vid=bb84fdad-e309-4160-b1a7-177bf33bc36f","ios":"levelo://app?vid=bb84fdad-e309-4160-b1a7-177bf33bc36f"},"vehicle_type_id":"4","last_reported":1747030572,"current_range_meters":16800,"station_id":"ce4bgip2rcd13ifvqbb0","pricing_plan_id":"cebpf4jnsgd1na2vs0mg"},{"bike_id":"1e24f8d1-c00b-4961-95d4-33fdd4fe0c44","system_id":"levelo_inurba_marseille","lat":43.240708,"lon":5.377669,"is_reserved":false,"is_disabled":false,"rental_uris":{"android":"levelo://app?vid=1e24f8d1-c00b-4961-95d4-33fdd4fe0c44","ios":"levelo://app?vid=1e24f8d1-c00b-4961-95d4-33fdd4fe0c44"},"vehicle_type_id":"4","last_reported":1747030572,"current_range_meters":11600,"station_id":"ce4bhnp2rcd13ifvqgvg","pricing_plan_id":"cebpf4jnsgd1na2vs0mg"},{"bike_id":"1aab4aa2-19b2-47ee-8a2e-43fbbfc39058","system_id":"levelo_inurba_marseille","lat":43.30127,"lon":5.387868,"is_reserved":false,"is_disabled":true,"rental_uris":{"android":"levelo://app?vid=1aab4aa2-19b2-47ee-8a2e-43fbbfc39058","ios":"levelo://app?vid=1aab4aa2-19b2-47ee-8a2e-43fbbfc39058"},"vehicle_type_id":"4","last_reported":1747030572,"current_range_meters":16800,"station_id":"ce4bghh2rcd13ifvqb60","pricing_plan_id":"cebpf4jnsgd1na2vs0mg"},{"bike_id":"480f32df-ae2b-43a7-b183-654ea6855a9e","system_id":"levelo_inurba_marseille","lat":43.31496,"lon":5.3729,"is_reserved":false,"is_disabled":false,"rental_uris":{"android":"levelo://app?vid=480f32df-ae2b-43a7-b183-654ea6855a9e","ios":"levelo://app?vid=480f32df-ae2b-43a7-b183-654ea6855a9e"},"vehicle_type_id":"4","last_reported":1747030572,"current_range_meters":17200,"station_id":"ce4bgt12rcd13ifvqcd0","pricing_plan_id":"cebpf4jnsgd1na2vs0mg"},{"bike_id":"b818e05f-995c-4d2d-8bfb-651fbe07c437","system_id":"levelo_inurba_marseille","lat":43.29795,"lon":5.3809,"is_reserved":false,"is_disabled":false,"rental_uris":{"android":"levelo://app?vid=b818e05f-995c-4d2d-8bfb-651fbe07c437","ios":"levelo://app?vid=b818e05f-995c-4d2d-8bfb-651fbe07c437"},"vehicle_type_id":"4","last_reported":1747030572,"current_range_meters":17200,"station_id":"ce4bgip2rcd13ifvqbb0","pricing_plan_id":"cebpf4jnsgd1na2vs0mg"},{"bike_id":"cc12fcbb-d996-49c7-bccc-d5e17d1125b1","system_id":"levelo_inurba_marseille","lat":43.22941,"lon":5.3542,"is_reserved":false,"is_disabled":false,"rental_uris":{"android":"levelo://app?vid=cc12fcbb-d996-49c7-bccc-d5e17d1125b1","ios":"levelo://app?vid=cc12fcbb-d996-49c7-bccc-d5e17d1125b1"},"vehicle_type_id":"4","last_reported":1747030572,"current_range_meters":17200,"station_id":"cpo3532slgdg3j2ikp40","pricing_plan_id":"cebpf4jnsgd1na2vs0mg"},{"bike_id":"97f5a318-f47f-4241-8f91-59c4a84173e1","system_id":"levelo_inurba_marseille","lat":43.284502,"lon":5.358641,"is_reserved":false,"is_disabled":false,"rental_uris":{"android":"levelo://app?vid=97f5a318-f47f-4241-8f91-59c4a84173e1","ios":"levelo://app?vid=97f5a318-f47f-4241-8f91-59c4a84173e1"},"vehicle_type_id":"4","last_reported":1747030572,"current_range_meters":17200,"station_id":"ce4bhah2rcd13ifvqei0","pricing_plan_id":"cebpf4jnsgd1na2vs0mg"},{"bike_id":"978173a6-fef4-45ec-9274-0d4999167a56","system_id":"levelo_inurba_marseille","lat":43.28846,"lon":5.39319,"is_reserved":false,"is_disabled":false,"rental_uris":{"android":"levelo://app?vid=978173a6-fef4-45ec-9274-0d4999167a56","ios":"levelo://app?vid=978173a6-fef4-45ec-9274-0d4999167a56"},"vehicle_type_id":"4","last_reported":1747030572,"current_range_meters":17200,"station_id":"ce4bh2p2rcd13ifvqdi0","pricing_plan_id":"cebpf4jnsgd1na2vs0mg"},{"bike_id":"b5ac7f50-531f-48e8-87f6-cd1ade2144d4","system_id":"levelo_inurba_marseille","lat":43.3092,"lon":5.37196,"is_reserved":false,"is_disabled":false,"rental_uris":{"android":"levelo://app?vid=b5ac7f50-531f-48e8-87f6-cd1ade2144d4","ios":"levelo://app?vid=b5ac7f50-531f-48e8-87f6-cd1ade2144d4"},"vehicle_type_id":"4","last_reported":1747030572,"current_range_meters":17600,"station_id":"ce4bguh2rcd13ifvqckg","pricing_plan_id":"cebpf4jnsgd1na2vs0mg"},{"bike_id":"a59d535e-3ee9-469b-86b3-f400640fe8d0","system_id":"levelo_inurba_marseille","lat":43.29031,"lon":5.39968,"is_reserved":false,"is_disabled":false,"rental_uris":{"android":"levelo://app?vid=a59d535e-3ee9-469b-86b3-f400640fe8d0","ios":"levelo://app?vid=a59d535e-3ee9-469b-86b3-f400640fe8d0"},"vehicle_type_id":"4","last_reported":1747030572,"current_range_meters":17600,"station_id":"ce4bh392rcd13ifvqdm0","pricing_plan_id":"cebpf4jnsgd1na2vs0mg"},{"bike_id":"6468759b-81a4-45e4-a3df-42b3101b1468","system_id":"levelo_inurba_marseille","lat":43.28934,"lon":5.39618,"is_reserved":false,"is_disabled":false,"rental_uris":{"android":"levelo://app?vid=6468759b-81a4-45e4-a3df-42b3101b1468","ios":"levelo://app?vid=6468759b-81a4-45e4-a3df-42b3101b1468"},"vehicle_type_id":"4","last_reported":1747030572,"current_range_meters":18000,"station_id":"ce4bh3h2rcd13ifvqdn0","pricing_plan_id":"cebpf4jnsgd1na2vs0mg"},{"bike_id":"23164260-ece6-43ed-80fc-dba92e0fca3c","system_id":"levelo_inurba_marseille","lat":43.24376,"lon":5.37071,"is_reserved":false,"is_disabled":true,"rental_uris":{"android":"levelo://app?vid=23164260-ece6-43ed-80fc-dba92e0fca3c","ios":"levelo://app?vid=23164260-ece6-43ed-80fc-dba92e0fca3c"},"vehicle_type_id":"4","last_reported":1747030572,"current_range_meters":18000,"station_id":"ce4bhhh2rcd13ifvqfk0","pricing_plan_id":"cebpf4jnsgd1na2vs0mg"},{"bike_id":"05b069c4-5736-4ee3-a75b-753ebf7daa75","system_id":"levelo_inurba_marseille","lat":43.24685,"lon":5.38138,"is_reserved":false,"is_disabled":false,"rental_uris":{"android":"levelo://app?vid=05b069c4-5736-4ee3-a75b-753ebf7daa75","ios":"levelo://app?vid=05b069c4-5736-4ee3-a75b-753ebf7daa75"},"vehicle_type_id":"4","last_reported":1747030572,"current_range_meters":18800,"station_id":"ce4bhih2rcd13ifvqfr0","pricing_plan_id":"cebpf4jnsgd1na2vs0mg"},{"bike_id":"ea1eca92-ae8d-4090-800e-971b03021a45","system_id":"levelo_inurba_marseille","lat":43.27494,"lon":5.42451,"is_reserved":false,"is_disabled":false,"rental_uris":{"android":"levelo://app?vid=ea1eca92-ae8d-4090-800e-971b03021a45","ios":"levelo://app?vid=ea1eca92-ae8d-4090-800e-971b03021a45"},"vehicle_type_id":"4","last_reported":1747030572,"current_range_meters":18800,"station_id":"ce4bhn92rcd13ifvqgrg","pricing_plan_id":"cebpf4jnsgd1na2vs0mg"},{"bike_id":"3cd37263-dfd4-481c-855d-c38f32aaebfc","system_id":"levelo_inurba_marseille","lat":43.29605,"lon":5.38112,"is_reserved":false,"is_disabled":false,"rental_uris":{"android":"levelo://app?vid=3cd37263-dfd4-481c-855d-c38f32aaebfc","ios":"levelo://app?vid=3cd37263-dfd4-481c-855d-c38f32aaebfc"},"vehicle_type_id":"4","last_reported":1747030572,"current_range_meters":18800,"station_id":"ce4bgl12rcd13ifvqbo0","pricing_plan_id":"cebpf4jnsgd1na2vs0mg"},{"bike_id":"274428a0-f624-470d-97ad-4d677cbd848f","system_id":"levelo_inurba_marseille","lat":43.270656,"lon":5.422811,"is_reserved":false,"is_disabled":false,"rental_uris":{"android":"levelo://app?vid=274428a0-f624-470d-97ad-4d677cbd848f","ios":"levelo://app?vid=274428a0-f624-470d-97ad-4d677cbd848f"},"vehicle_type_id":"4","last_reported":1747030572,"current_range_meters":19200,"station_id":"ce4bhk92rcd13ifvqgb0","pricing_plan_id":"cebpf4jnsgd1na2vs0mg"},{"bike_id":"954c5792-bbc1-424f-84fe-dd0461c387e4","system_id":"levelo_inurba_marseille","lat":43.261981,"lon":5.37475,"is_reserved":false,"is_disabled":true,"rental_uris":{"android":"levelo://app?vid=954c5792-bbc1-424f-84fe-dd0461c387e4","ios":"levelo://app?vid=954c5792-bbc1-424f-84fe-dd0461c387e4"},"vehicle_type_id":"4","last_reported":1747030572,"current_range_meters":19200,"station_id":"ce4bhgp2rcd13ifvqfc0","pricing_plan_id":"cebpf4jnsgd1na2vs0mg"},{"bike_id":"38b7b9f0-4d03-4b6a-b846-b1a53fc87f21","system_id":"levelo_inurba_marseille","lat":43.262631,"lon":5.405323,"is_reserved":false,"is_disabled":false,"rental_uris":{"android":"levelo://app?vid=38b7b9f0-4d03-4b6a-b846-b1a53fc87f21","ios":"levelo://app?vid=38b7b9f0-4d03-4b6a-b846-b1a53fc87f21"},"vehicle_type_id":"4","last_reported":1747030572,"current_range_meters":19200,"station_id":"ce4bh412rcd13ifvqds0","pricing_plan_id":"cebpf4jnsgd1na2vs0mg"},{"bike_id":"b7fa8707-e073-4ec8-8d54-7671cd93f98a","system_id":"levelo_inurba_marseille","lat":43.29577,"lon":5.3674,"is_reserved":false,"is_disabled":false,"rental_uris":{"android":"levelo://app?vid=b7fa8707-e073-4ec8-8d54-7671cd93f98a","ios":"levelo://app?vid=b7fa8707-e073-4ec8-8d54-7671cd93f98a"},"vehicle_type_id":"4","last_reported":1747030572,"current_range_meters":19200,"station_id":"ce4bgph2rcd13ifvqc2g","pricing_plan_id":"cebpf4jnsgd1na2vs0mg"},{"bike_id":"630f6ac1-f75a-44e1-925a-e67c88f57a0e","system_id":"levelo_inurba_marseille","lat":43.32489,"lon":5.36568,"is_reserved":false,"is_disabled":false,"rental_uris":{"android":"levelo://app?vid=630f6ac1-f75a-44e1-925a-e67c88f57a0e","ios":"levelo://app?vid=630f6ac1-f75a-44e1-925a-e67c88f57a0e"},"vehicle_type_id":"4","last_reported":1747030572,"current_range_meters":19200,"station_id":"ce4bhs12rcd13ifvqhvg","pricing_plan_id":"cebpf4jnsgd1na2vs0mg"},{"bike_id":"8acb5c33-715c-472b-b181-6250c36ed015","system_id":"levelo_inurba_marseille","lat":43.301472,"lon":5.380864,"is_reserved":false,"is_disabled":true,"rental_uris":{"android":"levelo://app?vid=8acb5c33-715c-472b-b181-6250c36ed015","ios":"levelo://app?vid=8acb5c33-715c-472b-b181-6250c36ed015"},"vehicle_type_id":"4","last_reported":1747030572,"current_range_meters":19200,"station_id":"","pricing_plan_id":"cebpf4jnsgd1na2vs0mg"},{"bike_id":"d0d77266-b030-48e7-bb4a-e4747b4776ec","system_id":"levelo_inurba_marseille","lat":43.301267,"lon":5.398736,"is_reserved":false,"is_disabled":true,"rental_uris":{"android":"levelo://app?vid=d0d77266-b030-48e7-bb4a-e4747b4776ec","ios":"levelo://app?vid=d0d77266-b030-48e7-bb4a-e4747b4776ec"},"vehicle_type_id":"4","last_reported":1747030572,"current_range_meters":19200,"station_id":"ce4bh0h2rcd13ifvqd40","pricing_plan_id":"cebpf4jnsgd1na2vs0mg"},{"bike_id":"432b76af-8e9b-4449-9a69-df1dea541e85","system_id":"levelo_inurba_marseille","lat":43.29279,"lon":5.401533,"is_reserved":false,"is_disabled":true,"rental_uris":{"android":"levelo://app?vid=432b76af-8e9b-4449-9a69-df1dea541e85","ios":"levelo://app?vid=432b76af-8e9b-4449-9a69-df1dea541e85"},"vehicle_type_id":"4","last_reported":1747030572,"current_range_meters":19200,"station_id":"ce4bh312rcd13ifvqdk0","pricing_plan_id":"cebpf4jnsgd1na2vs0mg"},{"bike_id":"6a4f700e-2091-4ba2-940a-dc26934d0b22","system_id":"levelo_inurba_marseille","lat":43.292578,"lon":5.376091,"is_reserved":false,"is_disabled":false,"rental_uris":{"android":"levelo://app?vid=6a4f700e-2091-4ba2-940a-dc26934d0b22","ios":"levelo://app?vid=6a4f700e-2091-4ba2-940a-dc26934d0b22"},"vehicle_type_id":"4","last_reported":1747030572,"current_range_meters":19600,"station_id":"ce4bgi12rcd13ifvqb80","pricing_plan_id":"cebpf4jnsgd1na2vs0mg"},{"bike_id":"4a6f7873-aa8b-43bb-98f9-8ea5e8041a47","system_id":"levelo_inurba_marseille","lat":43.23154,"lon":5.43718,"is_reserved":false,"is_disabled":false,"rental_uris":{"android":"levelo://app?vid=4a6f7873-aa8b-43bb-98f9-8ea5e8041a47","ios":"levelo://app?vid=4a6f7873-aa8b-43bb-98f9-8ea5e8041a47"},"vehicle_type_id":"4","last_reported":1747030572,"current_range_meters":19600,"station_id":"ce4bhmp2rcd13ifvqgog","pricing_plan_id":"cebpf4jnsgd1na2vs0mg"},{"bike_id":"1fe5cd3c-b89c-47be-8fa0-fbcac5696485","system_id":"levelo_inurba_marseille","lat":43.26562,"lon":5.39005,"is_reserved":false,"is_disabled":false,"rental_uris":{"android":"levelo://app?vid=1fe5cd3c-b89c-47be-8fa0-fbcac5696485","ios":"levelo://app?vid=1fe5cd3c-b89c-47be-8fa0-fbcac5696485"},"vehicle_type_id":"4","last_reported":1747030572,"current_range_meters":19600,"station_id":"ce4bhe12rcd13ifvqf30","pricing_plan_id":"cebpf4jnsgd1na2vs0mg"},{"bike_id":"9106c49b-ffec-4724-8209-6a8d1ccdba5d","system_id":"levelo_inurba_marseille","lat":43.28511,"lon":5.38561,"is_reserved":false,"is_disabled":false,"rental_uris":{"android":"levelo://app?vid=9106c49b-ffec-4724-8209-6a8d1ccdba5d","ios":"levelo://app?vid=9106c49b-ffec-4724-8209-6a8d1ccdba5d"},"vehicle_type_id":"4","last_reported":1747030572,"current_range_meters":19600,"station_id":"ce4bh8p2rcd13ifvqeb0","pricing_plan_id":"cebpf4jnsgd1na2vs0mg"},{"bike_id":"fff0e4d4-39ac-48d5-99a5-85615c4a83f8","system_id":"levelo_inurba_marseille","lat":43.2996,"lon":5.39196,"is_reserved":false,"is_disabled":true,"rental_uris":{"android":"levelo://app?vid=fff0e4d4-39ac-48d5-99a5-85615c4a83f8","ios":"levelo://app?vid=fff0e4d4-39ac-48d5-99a5-85615c4a83f8"},"vehicle_type_id":"4","last_reported":1747030572,"current_range_meters":19600,"station_id":"","pricing_plan_id":"cebpf4jnsgd1na2vs0mg"},{"bike_id":"e7e57d17-c958-4785-bfee-d2ebb179b235","system_id":"levelo_inurba_marseille","lat":43.24072,"lon":5.377648,"is_reserved":false,"is_disabled":false,"rental_uris":{"android":"levelo://app?vid=e7e57d17-c958-4785-bfee-d2ebb179b235","ios":"levelo://app?vid=e7e57d17-c958-4785-bfee-d2ebb179b235"},"vehicle_type_id":"4","last_reported":1747030572,"current_range_meters":19600,"station_id":"ce4bhnp2rcd13ifvqgvg","pricing_plan_id":"cebpf4jnsgd1na2vs0mg"},{"bike_id":"3769e37c-7c8e-48aa-b11b-297503382a57","system_id":"levelo_inurba_marseille","lat":43.30464,"lon":5.37914,"is_reserved":false,"is_disabled":false,"rental_uris":{"android":"levelo://app?vid=3769e37c-7c8e-48aa-b11b-297503382a57","ios":"levelo://app?vid=3769e37c-7c8e-48aa-b11b-297503382a57"},"vehicle_type_id":"4","last_reported":1747030572,"current_range_meters":19600,"station_id":"ce4bgup2rcd13ifvqcn0","pricing_plan_id":"cebpf4jnsgd1na2vs0mg"},{"bike_id":"f1342c4c-a94b-4654-9628-680ba7db74df","system_id":"levelo_inurba_marseille","lat":43.23194,"lon":5.3557,"is_reserved":false,"is_disabled":true,"rental_uris":{"android":"levelo://app?vid=f1342c4c-a94b-4654-9628-680ba7db74df","ios":"levelo://app?vid=f1342c4c-a94b-4654-9628-680ba7db74df"},"vehicle_type_id":"4","last_reported":1747030572,"current_range_meters":20000,"station_id":"ce4bhu92rcd13ifvqi70","pricing_plan_id":"cebpf4jnsgd1na2vs0mg"},{"bike_id":"652f956e-4ab9-4dc8-84e0-4ff9ff81b07e","system_id":"levelo_inurba_marseille","lat":43.29025,"lon":5.39968,"is_reserved":false,"is_disabled":false,"rental_uris":{"android":"levelo://app?vid=652f956e-4ab9-4dc8-84e0-4ff9ff81b07e","ios":"levelo://app?vid=652f956e-4ab9-4dc8-84e0-4ff9ff81b07e"},"vehicle_type_id":"4","last_reported":1747030572,"current_range_meters":20000,"station_id":"ce4bh392rcd13ifvqdm0","pricing_plan_id":"cebpf4jnsgd1na2vs0mg"},{"bike_id":"52113851-1488-4df3-816e-7070c016bca6","system_id":"levelo_inurba_marseille","lat":43.26567,"lon":5.39006,"is_reserved":false,"is_disabled":false,"rental_uris":{"android":"levelo://app?vid=52113851-1488-4df3-816e-7070c016bca6","ios":"levelo://app?vid=52113851-1488-4df3-816e-7070c016bca6"},"vehicle_type_id":"4","last_reported":1747030572,"current_range_meters":20000,"station_id":"ce4bhe12rcd13ifvqf30","pricing_plan_id":"cebpf4jnsgd1na2vs0mg"},{"bike_id":"0a3e9417-6643-4978-9498-8312436bc84a","system_id":"levelo_inurba_marseille","lat":43.27624,"lon":5.36125,"is_reserved":false,"is_disabled":false,"rental_uris":{"android":"levelo://app?vid=0a3e9417-6643-4978-9498-8312436bc84a","ios":"levelo://app?vid=0a3e9417-6643-4978-9498-8312436bc84a"},"vehicle_type_id":"4","last_reported":1747030572,"current_range_meters":20000,"station_id":"ce4bgj92rcd13ifvqbe0","pricing_plan_id":"cebpf4jnsgd1na2vs0mg"},{"bike_id":"73db1a9a-2d5f-44bb-ad65-d6438549cc88","system_id":"levelo_inurba_marseille","lat":43.300856,"lon":5.390688,"is_reserved":false,"is_disabled":false,"rental_uris":{"android":"levelo://app?vid=73db1a9a-2d5f-44bb-ad65-d6438549cc88","ios":"levelo://app?vid=73db1a9a-2d5f-44bb-ad65-d6438549cc88"},"vehicle_type_id":"4","last_reported":1747030572,"current_range_meters":20400,"station_id":"ce4bh192rcd13ifvqdb0","pricing_plan_id":"cebpf4jnsgd1na2vs0mg"},{"bike_id":"f9a179c9-c076-46d7-af0c-342a9be6583e","system_id":"levelo_inurba_marseille","lat":43.313474,"lon":5.367169,"is_reserved":false,"is_disabled":false,"rental_uris":{"android":"levelo://app?vid=f9a179c9-c076-46d7-af0c-342a9be6583e","ios":"levelo://app?vid=f9a179c9-c076-46d7-af0c-342a9be6583e"},"vehicle_type_id":"4","last_reported":1747030572,"current_range_meters":20400,"station_id":"ce4bgr92rcd13ifvqc6g","pricing_plan_id":"cebpf4jnsgd1na2vs0mg"},{"bike_id":"6b335384-884e-4a9b-a5c3-4f818d710f88","system_id":"levelo_inurba_marseille","lat":43.32546,"lon":5.41431,"is_reserved":false,"is_disabled":false,"rental_uris":{"android":"levelo://app?vid=6b335384-884e-4a9b-a5c3-4f818d710f88","ios":"levelo://app?vid=6b335384-884e-4a9b-a5c3-4f818d710f88"},"vehicle_type_id":"4","last_reported":1747030572,"current_range_meters":20400,"station_id":"ce4bhq12rcd13ifvqhhg","pricing_plan_id":"cebpf4jnsgd1na2vs0mg"},{"bike_id":"af870e04-8d0c-4a00-a73d-c5c448081eaf","system_id":"levelo_inurba_marseille","lat":43.29034,"lon":5.38642,"is_reserved":false,"is_disabled":true,"rental_uris":{"android":"levelo://app?vid=af870e04-8d0c-4a00-a73d-c5c448081eaf","ios":"levelo://app?vid=af870e04-8d0c-4a00-a73d-c5c448081eaf"},"vehicle_type_id":"4","last_reported":1747030572,"current_range_meters":20400,"station_id":"ce4bh4p2rcd13ifvqe0g","pricing_plan_id":"cebpf4jnsgd1na2vs0mg"},{"bike_id":"2cc6ab33-b884-4b84-8f2e-73a9d9cc1642","system_id":"levelo_inurba_marseille","lat":43.2885,"lon":5.39346,"is_reserved":false,"is_disabled":true,"rental_uris":{"android":"levelo://app?vid=2cc6ab33-b884-4b84-8f2e-73a9d9cc1642","ios":"levelo://app?vid=2cc6ab33-b884-4b84-8f2e-73a9d9cc1642"},"vehicle_type_id":"4","last_reported":1747030572,"current_range_meters":20400,"station_id":"ce4bh2p2rcd13ifvqdi0","pricing_plan_id":"cebpf4jnsgd1na2vs0mg"},{"bike_id":"b336a229-0bf1-452c-97d8-afd000b0f02e","system_id":"levelo_inurba_marseille","lat":43.32488,"lon":5.36577,"is_reserved":false,"is_disabled":false,"rental_uris":{"android":"levelo://app?vid=b336a229-0bf1-452c-97d8-afd000b0f02e","ios":"levelo://app?vid=b336a229-0bf1-452c-97d8-afd000b0f02e"},"vehicle_type_id":"4","last_reported":1747030572,"current_range_meters":20400,"station_id":"ce4bhs12rcd13ifvqhvg","pricing_plan_id":"cebpf4jnsgd1na2vs0mg"},{"bike_id":"c84cc980-38fe-4761-924e-99f94b7ce9c7","system_id":"levelo_inurba_marseille","lat":43.337444,"lon":5.374475,"is_reserved":false,"is_disabled":true,"rental_uris":{"android":"levelo://app?vid=c84cc980-38fe-4761-924e-99f94b7ce9c7","ios":"levelo://app?vid=c84cc980-38fe-4761-924e-99f94b7ce9c7"},"vehicle_type_id":"4","last_reported":1747030572,"current_range_meters":20800,"station_id":"","pricing_plan_id":"cebpf4jnsgd1na2vs0mg"},{"bike_id":"7f9abf71-8019-498c-8243-8b5ce9ff851e","system_id":"levelo_inurba_marseille","lat":43.298539,"lon":5.362953,"is_reserved":false,"is_disabled":true,"rental_uris":{"android":"levelo://app?vid=7f9abf71-8019-498c-8243-8b5ce9ff851e","ios":"levelo://app?vid=7f9abf71-8019-498c-8243-8b5ce9ff851e"},"vehicle_type_id":"4","last_reported":1747030572,"current_range_meters":20800,"station_id":"","pricing_plan_id":"cebpf4jnsgd1na2vs0mg"},{"bike_id":"cc25aae6-3197-44f8-8471-8a0efb35cc4f","system_id":"levelo_inurba_marseille","lat":43.30619,"lon":5.36571,"is_reserved":false,"is_disabled":true,"rental_uris":{"android":"levelo://app?vid=cc25aae6-3197-44f8-8471-8a0efb35cc4f","ios":"levelo://app?vid=cc25aae6-3197-44f8-8471-8a0efb35cc4f"},"vehicle_type_id":"4","last_reported":1747030572,"current_range_meters":21600,"station_id":"","pricing_plan_id":"cebpf4jnsgd1na2vs0mg"},{"bike_id":"d3cbc46f-5375-4d60-978c-d259ee44514f","system_id":"levelo_inurba_marseille","lat":43.29308,"lon":5.37467,"is_reserved":false,"is_disabled":true,"rental_uris":{"android":"levelo://app?vid=d3cbc46f-5375-4d60-978c-d259ee44514f","ios":"levelo://app?vid=d3cbc46f-5375-4d60-978c-d259ee44514f"},"vehicle_type_id":"4","last_reported":1747030572,"current_range_meters":22000,"station_id":"","pricing_plan_id":"cebpf4jnsgd1na2vs0mg"},{"bike_id":"6144ad03-1e2b-4d52-86c0-aa5bb18d5e62","system_id":"levelo_inurba_marseille","lat":43.30911,"lon":5.36841,"is_reserved":false,"is_disabled":false,"rental_uris":{"android":"levelo://app?vid=6144ad03-1e2b-4d52-86c0-aa5bb18d5e62","ios":"levelo://app?vid=6144ad03-1e2b-4d52-86c0-aa5bb18d5e62"},"vehicle_type_id":"4","last_reported":1747030572,"current_range_meters":22000,"station_id":"ce4bgn92rcd13ifvqbvg","pricing_plan_id":"cebpf4jnsgd1na2vs0mg"},{"bike_id":"4b7374e2-1f59-4821-bf67-04e49065ca69","system_id":"levelo_inurba_marseille","lat":43.30419,"lon":5.41284,"is_reserved":false,"is_disabled":false,"rental_uris":{"android":"levelo://app?vid=4b7374e2-1f59-4821-bf67-04e49065ca69","ios":"levelo://app?vid=4b7374e2-1f59-4821-bf67-04e49065ca69"},"vehicle_type_id":"4","last_reported":1747030572,"current_range_meters":22000,"station_id":"ce4bhop2rcd13ifvqh8g","pricing_plan_id":"cebpf4jnsgd1na2vs0mg"},{"bike_id":"dc53d17a-6042-4f83-8552-4e608df3f076","system_id":"levelo_inurba_marseille","lat":43.25523,"lon":5.40096,"is_reserved":false,"is_disabled":false,"rental_uris":{"android":"levelo://app?vid=dc53d17a-6042-4f83-8552-4e608df3f076","ios":"levelo://app?vid=dc53d17a-6042-4f83-8552-4e608df3f076"},"vehicle_type_id":"4","last_reported":1747030572,"current_range_meters":22000,"station_id":"","pricing_plan_id":"cebpf4jnsgd1na2vs0mg"},{"bike_id":"ff183e16-c4fa-4bbe-919e-8042e3104900","system_id":"levelo_inurba_marseille","lat":43.30593,"lon":5.39356,"is_reserved":false,"is_disabled":false,"rental_uris":{"android":"levelo://app?vid=ff183e16-c4fa-4bbe-919e-8042e3104900","ios":"levelo://app?vid=ff183e16-c4fa-4bbe-919e-8042e3104900"},"vehicle_type_id":"4","last_reported":1747030572,"current_range_meters":22000,"station_id":"ce4bh0p2rcd13ifvqd80","pricing_plan_id":"cebpf4jnsgd1na2vs0mg"},{"bike_id":"2a33aaa6-52d9-45f5-ba56-fc2f38642a8a","system_id":"levelo_inurba_marseille","lat":43.26554,"lon":5.39013,"is_reserved":false,"is_disabled":false,"rental_uris":{"android":"levelo://app?vid=2a33aaa6-52d9-45f5-ba56-fc2f38642a8a","ios":"levelo://app?vid=2a33aaa6-52d9-45f5-ba56-fc2f38642a8a"},"vehicle_type_id":"4","last_reported":1747030572,"current_range_meters":22000,"station_id":"ce4bhe12rcd13ifvqf30","pricing_plan_id":"cebpf4jnsgd1na2vs0mg"},{"bike_id":"d901c09c-6e4b-4bcf-842a-166cbf431e38","system_id":"levelo_inurba_marseille","lat":43.280347,"lon":5.369463,"is_reserved":false,"is_disabled":false,"rental_uris":{"android":"levelo://app?vid=d901c09c-6e4b-4bcf-842a-166cbf431e38","ios":"levelo://app?vid=d901c09c-6e4b-4bcf-842a-166cbf431e38"},"vehicle_type_id":"4","last_reported":1747030572,"current_range_meters":21600,"station_id":"ce4bha12rcd13ifvqef0","pricing_plan_id":"cebpf4jnsgd1na2vs0mg"},{"bike_id":"9f952b18-032d-4a87-a464-b179467689ad","system_id":"levelo_inurba_marseille","lat":43.28301,"lon":5.35047,"is_reserved":false,"is_disabled":true,"rental_uris":{"android":"levelo://app?vid=9f952b18-032d-4a87-a464-b179467689ad","ios":"levelo://app?vid=9f952b18-032d-4a87-a464-b179467689ad"},"vehicle_type_id":"4","last_reported":1747030572,"current_range_meters":22000,"station_id":"ce4bhbp2rcd13ifvqerg","pricing_plan_id":"cebpf4jnsgd1na2vs0mg"},{"bike_id":"d353e965-bc02-4251-9678-be1fdc36b36a","system_id":"levelo_inurba_marseille","lat":43.305913,"lon":5.393547,"is_reserved":false,"is_disabled":false,"rental_uris":{"android":"levelo://app?vid=d353e965-bc02-4251-9678-be1fdc36b36a","ios":"levelo://app?vid=d353e965-bc02-4251-9678-be1fdc36b36a"},"vehicle_type_id":"4","last_reported":1747030572,"current_range_meters":22400,"station_id":"ce4bh0p2rcd13ifvqd80","pricing_plan_id":"cebpf4jnsgd1na2vs0mg"},{"bike_id":"b5bf798b-62b6-4c83-b4af-1967f8178485","system_id":"levelo_inurba_marseille","lat":43.34141,"lon":5.40916,"is_reserved":false,"is_disabled":false,"rental_uris":{"android":"levelo://app?vid=b5bf798b-62b6-4c83-b4af-1967f8178485","ios":"levelo://app?vid=b5bf798b-62b6-4c83-b4af-1967f8178485"},"vehicle_type_id":"4","last_reported":1747030572,"current_range_meters":22400,"station_id":"ce4bhqh2rcd13ifvqhlg","pricing_plan_id":"cebpf4jnsgd1na2vs0mg"},{"bike_id":"d3d2d228-ae16-4c9f-817b-422a5897c8ae","system_id":"levelo_inurba_marseille","lat":43.3014,"lon":5.38077,"is_reserved":false,"is_disabled":false,"rental_uris":{"android":"levelo://app?vid=d3d2d228-ae16-4c9f-817b-422a5897c8ae","ios":"levelo://app?vid=d3d2d228-ae16-4c9f-817b-422a5897c8ae"},"vehicle_type_id":"4","last_reported":1747030572,"current_range_meters":22400,"station_id":"ce4bgjp2rcd13ifvqbh0","pricing_plan_id":"cebpf4jnsgd1na2vs0mg"},{"bike_id":"b278dad6-6039-4cf6-8b5a-949bd390ba48","system_id":"levelo_inurba_marseille","lat":43.29691,"lon":5.37698,"is_reserved":false,"is_disabled":false,"rental_uris":{"android":"levelo://app?vid=b278dad6-6039-4cf6-8b5a-949bd390ba48","ios":"levelo://app?vid=b278dad6-6039-4cf6-8b5a-949bd390ba48"},"vehicle_type_id":"4","last_reported":1747030572,"current_range_meters":22400,"station_id":"ce4bgkh2rcd13ifvqbl0","pricing_plan_id":"cebpf4jnsgd1na2vs0mg"},{"bike_id":"fcf9463b-401b-4157-a5a9-4c36ca7d015d","system_id":"levelo_inurba_marseille","lat":43.307,"lon":5.37052,"is_reserved":false,"is_disabled":false,"rental_uris":{"android":"levelo://app?vid=fcf9463b-401b-4157-a5a9-4c36ca7d015d","ios":"levelo://app?vid=fcf9463b-401b-4157-a5a9-4c36ca7d015d"},"vehicle_type_id":"4","last_reported":1747030572,"current_range_meters":22400,"station_id":"","pricing_plan_id":"cebpf4jnsgd1na2vs0mg"},{"bike_id":"45eb10b2-1312-490c-9fcf-3c7991e677d0","system_id":"levelo_inurba_marseille","lat":43.299559,"lon":5.36344,"is_reserved":false,"is_disabled":false,"rental_uris":{"android":"levelo://app?vid=45eb10b2-1312-490c-9fcf-3c7991e677d0","ios":"levelo://app?vid=45eb10b2-1312-490c-9fcf-3c7991e677d0"},"vehicle_type_id":"4","last_reported":1747030572,"current_range_meters":22400,"station_id":"ce4bgpp2rcd13ifvqc3g","pricing_plan_id":"cebpf4jnsgd1na2vs0mg"},{"bike_id":"025b2018-5ff3-4c4c-9661-1931d34e9be8","system_id":"levelo_inurba_marseille","lat":43.236,"lon":5.36101,"is_reserved":false,"is_disabled":true,"rental_uris":{"android":"levelo://app?vid=025b2018-5ff3-4c4c-9661-1931d34e9be8","ios":"levelo://app?vid=025b2018-5ff3-4c4c-9661-1931d34e9be8"},"vehicle_type_id":"4","last_reported":1747030572,"current_range_meters":22400,"station_id":"","pricing_plan_id":"cebpf4jnsgd1na2vs0mg"},{"bike_id":"986f1567-4a9f-471e-ad2c-3c962c5d9526","system_id":"levelo_inurba_marseille","lat":43.28137,"lon":5.386,"is_reserved":false,"is_disabled":true,"rental_uris":{"android":"levelo://app?vid=986f1567-4a9f-471e-ad2c-3c962c5d9526","ios":"levelo://app?vid=986f1567-4a9f-471e-ad2c-3c962c5d9526"},"vehicle_type_id":"4","last_reported":1747030572,"current_range_meters":22400,"station_id":"","pricing_plan_id":"cebpf4jnsgd1na2vs0mg"},{"bike_id":"51b842fb-a4c5-4612-90c5-316723f419bd","system_id":"levelo_inurba_marseille","lat":43.24077,"lon":5.3776,"is_reserved":false,"is_disabled":false,"rental_uris":{"android":"levelo://app?vid=51b842fb-a4c5-4612-90c5-316723f419bd","ios":"levelo://app?vid=51b842fb-a4c5-4612-90c5-316723f419bd"},"vehicle_type_id":"4","last_reported":1747030572,"current_range_meters":22800,"station_id":"ce4bhnp2rcd13ifvqgvg","pricing_plan_id":"cebpf4jnsgd1na2vs0mg"},{"bike_id":"67e56853-184e-4c96-9e9a-2d26adb2b653","system_id":"levelo_inurba_marseille","lat":43.31239,"lon":5.36851,"is_reserved":false,"is_disabled":false,"rental_uris":{"android":"levelo://app?vid=67e56853-184e-4c96-9e9a-2d26adb2b653","ios":"levelo://app?vid=67e56853-184e-4c96-9e9a-2d26adb2b653"},"vehicle_type_id":"4","last_reported":1747030572,"current_range_meters":22800,"station_id":"ce4bgl92rcd13ifvqbq0","pricing_plan_id":"cebpf4jnsgd1na2vs0mg"},{"bike_id":"b4d55357-1b25-4fe9-9a08-bdc3bcaa89c7","system_id":"levelo_inurba_marseille","lat":43.29193,"lon":5.35979,"is_reserved":false,"is_disabled":true,"rental_uris":{"android":"levelo://app?vid=b4d55357-1b25-4fe9-9a08-bdc3bcaa89c7","ios":"levelo://app?vid=b4d55357-1b25-4fe9-9a08-bdc3bcaa89c7"},"vehicle_type_id":"4","last_reported":1747030572,"current_range_meters":22800,"station_id":"ce4bhbh2rcd13ifvqeqg","pricing_plan_id":"cebpf4jnsgd1na2vs0mg"},{"bike_id":"0d4a9615-a58e-4761-8417-851eabd64d7e","system_id":"levelo_inurba_marseille","lat":43.29634,"lon":5.37704,"is_reserved":false,"is_disabled":true,"rental_uris":{"android":"levelo://app?vid=0d4a9615-a58e-4761-8417-851eabd64d7e","ios":"levelo://app?vid=0d4a9615-a58e-4761-8417-851eabd64d7e"},"vehicle_type_id":"4","last_reported":1747030572,"current_range_meters":23200,"station_id":"ce4bgi92rcd13ifvqb90","pricing_plan_id":"cebpf4jnsgd1na2vs0mg"},{"bike_id":"1d9e65c2-3819-4a24-b424-8a33ec4b67e8","system_id":"levelo_inurba_marseille","lat":43.27194,"lon":5.40973,"is_reserved":false,"is_disabled":false,"rental_uris":{"android":"levelo://app?vid=1d9e65c2-3819-4a24-b424-8a33ec4b67e8","ios":"levelo://app?vid=1d9e65c2-3819-4a24-b424-8a33ec4b67e8"},"vehicle_type_id":"4","last_reported":1747030572,"current_range_meters":23200,"station_id":"ce4bhl12rcd13ifvqgf0","pricing_plan_id":"cebpf4jnsgd1na2vs0mg"},{"bike_id":"e8815478-bcd4-4572-8bfb-c6fcfe62f0a2","system_id":"levelo_inurba_marseille","lat":43.26259,"lon":5.40456,"is_reserved":false,"is_disabled":false,"rental_uris":{"android":"levelo://app?vid=e8815478-bcd4-4572-8bfb-c6fcfe62f0a2","ios":"levelo://app?vid=e8815478-bcd4-4572-8bfb-c6fcfe62f0a2"},"vehicle_type_id":"4","last_reported":1747030572,"current_range_meters":23200,"station_id":"ce4bhmh2rcd13ifvqgmg","pricing_plan_id":"cebpf4jnsgd1na2vs0mg"},{"bike_id":"e4ee2a8f-3964-4b1d-a533-2a2d91192b3d","system_id":"levelo_inurba_marseille","lat":43.3107,"lon":5.38355,"is_reserved":false,"is_disabled":false,"rental_uris":{"android":"levelo://app?vid=e4ee2a8f-3964-4b1d-a533-2a2d91192b3d","ios":"levelo://app?vid=e4ee2a8f-3964-4b1d-a533-2a2d91192b3d"},"vehicle_type_id":"4","last_reported":1747030572,"current_range_meters":23200,"station_id":"ce4bgv92rcd13ifvqcr0","pricing_plan_id":"cebpf4jnsgd1na2vs0mg"},{"bike_id":"36b9d717-ff45-4630-b0ca-dea1b6c762ec","system_id":"levelo_inurba_marseille","lat":43.30436,"lon":5.38888,"is_reserved":false,"is_disabled":true,"rental_uris":{"android":"levelo://app?vid=36b9d717-ff45-4630-b0ca-dea1b6c762ec","ios":"levelo://app?vid=36b9d717-ff45-4630-b0ca-dea1b6c762ec"},"vehicle_type_id":"4","last_reported":1747030572,"current_range_meters":23200,"station_id":"ce4bgk12rcd13ifvqbi0","pricing_plan_id":"cebpf4jnsgd1na2vs0mg"},{"bike_id":"bb1e5410-15c7-41e7-9427-a78349fbc6b8","system_id":"levelo_inurba_marseille","lat":43.31688,"lon":5.40473,"is_reserved":false,"is_disabled":false,"rental_uris":{"android":"levelo://app?vid=bb1e5410-15c7-41e7-9427-a78349fbc6b8","ios":"levelo://app?vid=bb1e5410-15c7-41e7-9427-a78349fbc6b8"},"vehicle_type_id":"4","last_reported":1747030572,"current_range_meters":23200,"station_id":"ce4bh012rcd13ifvqd00","pricing_plan_id":"cebpf4jnsgd1na2vs0mg"},{"bike_id":"81e56a83-0f38-4053-8247-0af6d61d1407","system_id":"levelo_inurba_marseille","lat":43.31881,"lon":5.4074,"is_reserved":false,"is_disabled":false,"rental_uris":{"android":"levelo://app?vid=81e56a83-0f38-4053-8247-0af6d61d1407","ios":"levelo://app?vid=81e56a83-0f38-4053-8247-0af6d61d1407"},"vehicle_type_id":"4","last_reported":1747030572,"current_range_meters":24000,"station_id":"ce4bhq12rcd13ifvqhig","pricing_plan_id":"cebpf4jnsgd1na2vs0mg"},{"bike_id":"b4029d84-6d0d-4823-aa5e-f584ea026b78","system_id":"levelo_inurba_marseille","lat":43.308807,"lon":5.37191,"is_reserved":false,"is_disabled":false,"rental_uris":{"android":"levelo://app?vid=b4029d84-6d0d-4823-aa5e-f584ea026b78","ios":"levelo://app?vid=b4029d84-6d0d-4823-aa5e-f584ea026b78"},"vehicle_type_id":"4","last_reported":1747030572,"current_range_meters":24000,"station_id":"ce4bguh2rcd13ifvqckg","pricing_plan_id":"cebpf4jnsgd1na2vs0mg"},{"bike_id":"ae9cc5b0-1bb4-4def-974f-05c4bfd04ea6","system_id":"levelo_inurba_marseille","lat":43.292742,"lon":5.367928,"is_reserved":false,"is_disabled":true,"rental_uris":{"android":"levelo://app?vid=ae9cc5b0-1bb4-4def-974f-05c4bfd04ea6","ios":"levelo://app?vid=ae9cc5b0-1bb4-4def-974f-05c4bfd04ea6"},"vehicle_type_id":"4","last_reported":1747030572,"current_range_meters":24000,"station_id":"","pricing_plan_id":"cebpf4jnsgd1na2vs0mg"},{"bike_id":"447fe98c-cf4d-484a-a9da-718d7a5b2c5e","system_id":"levelo_inurba_marseille","lat":43.26571,"lon":5.39005,"is_reserved":false,"is_disabled":false,"rental_uris":{"android":"levelo://app?vid=447fe98c-cf4d-484a-a9da-718d7a5b2c5e","ios":"levelo://app?vid=447fe98c-cf4d-484a-a9da-718d7a5b2c5e"},"vehicle_type_id":"4","last_reported":1747030572,"current_range_meters":24000,"station_id":"ce4bhe12rcd13ifvqf30","pricing_plan_id":"cebpf4jnsgd1na2vs0mg"},{"bike_id":"f7b28b14-5137-4023-b1b7-b7e5bb33d722","system_id":"levelo_inurba_marseille","lat":43.25907,"lon":5.40874,"is_reserved":false,"is_disabled":false,"rental_uris":{"android":"levelo://app?vid=f7b28b14-5137-4023-b1b7-b7e5bb33d722","ios":"levelo://app?vid=f7b28b14-5137-4023-b1b7-b7e5bb33d722"},"vehicle_type_id":"4","last_reported":1747030572,"current_range_meters":23200,"station_id":"ce4bhm92rcd13ifvqglg","pricing_plan_id":"cebpf4jnsgd1na2vs0mg"},{"bike_id":"22076a30-cd42-4842-af66-be73565e119a","system_id":"levelo_inurba_marseille","lat":43.25739,"lon":5.41104,"is_reserved":false,"is_disabled":false,"rental_uris":{"android":"levelo://app?vid=22076a30-cd42-4842-af66-be73565e119a","ios":"levelo://app?vid=22076a30-cd42-4842-af66-be73565e119a"},"vehicle_type_id":"4","last_reported":1747030572,"current_range_meters":24400,"station_id":"ce4bhkp2rcd13ifvqgd0","pricing_plan_id":"cebpf4jnsgd1na2vs0mg"},{"bike_id":"b6cdc041-3af3-48e1-8b58-61be4c2ab622","system_id":"levelo_inurba_marseille","lat":43.29271,"lon":5.3686,"is_reserved":false,"is_disabled":false,"rental_uris":{"android":"levelo://app?vid=b6cdc041-3af3-48e1-8b58-61be4c2ab622","ios":"levelo://app?vid=b6cdc041-3af3-48e1-8b58-61be4c2ab622"},"vehicle_type_id":"4","last_reported":1747030572,"current_range_meters":24400,"station_id":"ce4bhbp2rcd13ifvqesg","pricing_plan_id":"cebpf4jnsgd1na2vs0mg"},{"bike_id":"e6782632-c1fe-42de-b21b-94e58fc56a6e","system_id":"levelo_inurba_marseille","lat":43.25492,"lon":5.37647,"is_reserved":false,"is_disabled":true,"rental_uris":{"android":"levelo://app?vid=e6782632-c1fe-42de-b21b-94e58fc56a6e","ios":"levelo://app?vid=e6782632-c1fe-42de-b21b-94e58fc56a6e"},"vehicle_type_id":"4","last_reported":1747030572,"current_range_meters":24400,"station_id":"ce4bhh12rcd13ifvqff0","pricing_plan_id":"cebpf4jnsgd1na2vs0mg"},{"bike_id":"3bb76f8d-de22-4c8b-9c35-324f92e2c0ce","system_id":"levelo_inurba_marseille","lat":43.27342,"lon":5.39175,"is_reserved":false,"is_disabled":true,"rental_uris":{"android":"levelo://app?vid=3bb76f8d-de22-4c8b-9c35-324f92e2c0ce","ios":"levelo://app?vid=3bb76f8d-de22-4c8b-9c35-324f92e2c0ce"},"vehicle_type_id":"4","last_reported":1747030572,"current_range_meters":24400,"station_id":"ce4bhgp2rcd13ifvqfe0","pricing_plan_id":"cebpf4jnsgd1na2vs0mg"},{"bike_id":"86d434e0-932f-4735-a0ed-8dfac3545a4e","system_id":"levelo_inurba_marseille","lat":43.28935,"lon":5.36634,"is_reserved":false,"is_disabled":false,"rental_uris":{"android":"levelo://app?vid=86d434e0-932f-4735-a0ed-8dfac3545a4e","ios":"levelo://app?vid=86d434e0-932f-4735-a0ed-8dfac3545a4e"},"vehicle_type_id":"4","last_reported":1747030572,"current_range_meters":24400,"station_id":"ce4bhap2rcd13ifvqek0","pricing_plan_id":"cebpf4jnsgd1na2vs0mg"},{"bike_id":"581a76c6-406f-436c-80cf-424046378536","system_id":"levelo_inurba_marseille","lat":43.23133,"lon":5.43707,"is_reserved":false,"is_disabled":false,"rental_uris":{"android":"levelo://app?vid=581a76c6-406f-436c-80cf-424046378536","ios":"levelo://app?vid=581a76c6-406f-436c-80cf-424046378536"},"vehicle_type_id":"4","last_reported":1747030572,"current_range_meters":24400,"station_id":"ce4bhmp2rcd13ifvqgog","pricing_plan_id":"cebpf4jnsgd1na2vs0mg"},{"bike_id":"c443853b-2310-4034-82aa-6cd53311afb4","system_id":"levelo_inurba_marseille","lat":43.316857,"lon":5.40468,"is_reserved":false,"is_disabled":false,"rental_uris":{"android":"levelo://app?vid=c443853b-2310-4034-82aa-6cd53311afb4","ios":"levelo://app?vid=c443853b-2310-4034-82aa-6cd53311afb4"},"vehicle_type_id":"4","last_reported":1747030572,"current_range_meters":24800,"station_id":"ce4bh012rcd13ifvqd00","pricing_plan_id":"cebpf4jnsgd1na2vs0mg"},{"bike_id":"05636d95-4876-41cc-8402-743863118824","system_id":"levelo_inurba_marseille","lat":43.26768,"lon":5.3944,"is_reserved":false,"is_disabled":true,"rental_uris":{"android":"levelo://app?vid=05636d95-4876-41cc-8402-743863118824","ios":"levelo://app?vid=05636d95-4876-41cc-8402-743863118824"},"vehicle_type_id":"4","last_reported":1747030572,"current_range_meters":24800,"station_id":"ce4bhh12rcd13ifvqfg0","pricing_plan_id":"cebpf4jnsgd1na2vs0mg"},{"bike_id":"2ebd0a7a-93ad-4326-891a-8998a012928e","system_id":"levelo_inurba_marseille","lat":43.27494,"lon":5.42455,"is_reserved":false,"is_disabled":false,"rental_uris":{"android":"levelo://app?vid=2ebd0a7a-93ad-4326-891a-8998a012928e","ios":"levelo://app?vid=2ebd0a7a-93ad-4326-891a-8998a012928e"},"vehicle_type_id":"4","last_reported":1747030572,"current_range_meters":24800,"station_id":"ce4bhn92rcd13ifvqgrg","pricing_plan_id":"cebpf4jnsgd1na2vs0mg"},{"bike_id":"99bdd88a-6c79-4c7b-9277-5e8dbca0d025","system_id":"levelo_inurba_marseille","lat":43.2709,"lon":5.4229,"is_reserved":false,"is_disabled":false,"rental_uris":{"android":"levelo://app?vid=99bdd88a-6c79-4c7b-9277-5e8dbca0d025","ios":"levelo://app?vid=99bdd88a-6c79-4c7b-9277-5e8dbca0d025"},"vehicle_type_id":"4","last_reported":1747030572,"current_range_meters":24800,"station_id":"ce4bhk92rcd13ifvqgb0","pricing_plan_id":"cebpf4jnsgd1na2vs0mg"},{"bike_id":"7eb75628-4f17-4cf4-a0e2-bfbe9a19d9fd","system_id":"levelo_inurba_marseille","lat":43.306582,"lon":5.40095,"is_reserved":false,"is_disabled":true,"rental_uris":{"android":"levelo://app?vid=7eb75628-4f17-4cf4-a0e2-bfbe9a19d9fd","ios":"levelo://app?vid=7eb75628-4f17-4cf4-a0e2-bfbe9a19d9fd"},"vehicle_type_id":"4","last_reported":1747030572,"current_range_meters":24800,"station_id":"ce4bh112rcd13ifvqda0","pricing_plan_id":"cebpf4jnsgd1na2vs0mg"},{"bike_id":"95b50147-3860-439b-b602-781dd5169959","system_id":"levelo_inurba_marseille","lat":43.29257,"lon":5.36859,"is_reserved":false,"is_disabled":true,"rental_uris":{"android":"levelo://app?vid=95b50147-3860-439b-b602-781dd5169959","ios":"levelo://app?vid=95b50147-3860-439b-b602-781dd5169959"},"vehicle_type_id":"4","last_reported":1747030572,"current_range_meters":24800,"station_id":"ce4bhbp2rcd13ifvqesg","pricing_plan_id":"cebpf4jnsgd1na2vs0mg"},{"bike_id":"53c6a168-2397-4ce5-ace2-f48db5d8dfe4","system_id":"levelo_inurba_marseille","lat":43.29778,"lon":5.37102,"is_reserved":false,"is_disabled":false,"rental_uris":{"android":"levelo://app?vid=53c6a168-2397-4ce5-ace2-f48db5d8dfe4","ios":"levelo://app?vid=53c6a168-2397-4ce5-ace2-f48db5d8dfe4"},"vehicle_type_id":"4","last_reported":1747030572,"current_range_meters":25200,"station_id":"ce4bgop2rcd13ifvqc1g","pricing_plan_id":"cebpf4jnsgd1na2vs0mg"},{"bike_id":"fb6d8be5-b35c-41ef-be9f-6b556a1c0b62","system_id":"levelo_inurba_marseille","lat":43.28935,"lon":5.3664,"is_reserved":false,"is_disabled":false,"rental_uris":{"android":"levelo://app?vid=fb6d8be5-b35c-41ef-be9f-6b556a1c0b62","ios":"levelo://app?vid=fb6d8be5-b35c-41ef-be9f-6b556a1c0b62"},"vehicle_type_id":"4","last_reported":1747030572,"current_range_meters":25200,"station_id":"ce4bhap2rcd13ifvqek0","pricing_plan_id":"cebpf4jnsgd1na2vs0mg"},{"bike_id":"ed7aedb1-1f7c-4b6e-a276-d15f61ab6109","system_id":"levelo_inurba_marseille","lat":43.30462,"lon":5.37903,"is_reserved":false,"is_disabled":true,"rental_uris":{"android":"levelo://app?vid=ed7aedb1-1f7c-4b6e-a276-d15f61ab6109","ios":"levelo://app?vid=ed7aedb1-1f7c-4b6e-a276-d15f61ab6109"},"vehicle_type_id":"4","last_reported":1747030572,"current_range_meters":25200,"station_id":"ce4bgup2rcd13ifvqcn0","pricing_plan_id":"cebpf4jnsgd1na2vs0mg"},{"bike_id":"ebcadc07-4256-45d7-af27-ac3797fb9ed3","system_id":"levelo_inurba_marseille","lat":43.28413,"lon":5.37521,"is_reserved":false,"is_disabled":true,"rental_uris":{"android":"levelo://app?vid=ebcadc07-4256-45d7-af27-ac3797fb9ed3","ios":"levelo://app?vid=ebcadc07-4256-45d7-af27-ac3797fb9ed3"},"vehicle_type_id":"4","last_reported":1747030572,"current_range_meters":25200,"station_id":"ce4bh412rcd13ifvqds0","pricing_plan_id":"cebpf4jnsgd1na2vs0mg"},{"bike_id":"05fcf912-b407-446b-9796-dbaae3a4e645","system_id":"levelo_inurba_marseille","lat":43.29869,"lon":5.39729,"is_reserved":false,"is_disabled":false,"rental_uris":{"android":"levelo://app?vid=05fcf912-b407-446b-9796-dbaae3a4e645","ios":"levelo://app?vid=05fcf912-b407-446b-9796-dbaae3a4e645"},"vehicle_type_id":"4","last_reported":1747030572,"current_range_meters":25200,"station_id":"ce4bh0h2rcd13ifvqd50","pricing_plan_id":"cebpf4jnsgd1na2vs0mg"},{"bike_id":"dd7e108d-2a75-44ac-9d5b-72e64a1f01fc","system_id":"levelo_inurba_marseille","lat":43.27501,"lon":5.424533,"is_reserved":false,"is_disabled":false,"rental_uris":{"android":"levelo://app?vid=dd7e108d-2a75-44ac-9d5b-72e64a1f01fc","ios":"levelo://app?vid=dd7e108d-2a75-44ac-9d5b-72e64a1f01fc"},"vehicle_type_id":"4","last_reported":1747030572,"current_range_meters":25200,"station_id":"ce4bhn92rcd13ifvqgrg","pricing_plan_id":"cebpf4jnsgd1na2vs0mg"},{"bike_id":"4cdcdf7b-4d3c-49ac-a58f-02fa69ee9f1d","system_id":"levelo_inurba_marseille","lat":43.320372,"lon":5.415753,"is_reserved":false,"is_disabled":false,"rental_uris":{"android":"levelo://app?vid=4cdcdf7b-4d3c-49ac-a58f-02fa69ee9f1d","ios":"levelo://app?vid=4cdcdf7b-4d3c-49ac-a58f-02fa69ee9f1d"},"vehicle_type_id":"4","last_reported":1747030572,"current_range_meters":25600,"station_id":"ce4bhq92rcd13ifvqhkg","pricing_plan_id":"cebpf4jnsgd1na2vs0mg"},{"bike_id":"9091c9c9-8f0e-47b9-9f55-f5ccfba57b85","system_id":"levelo_inurba_marseille","lat":43.32543,"lon":5.4143,"is_reserved":false,"is_disabled":false,"rental_uris":{"android":"levelo://app?vid=9091c9c9-8f0e-47b9-9f55-f5ccfba57b85","ios":"levelo://app?vid=9091c9c9-8f0e-47b9-9f55-f5ccfba57b85"},"vehicle_type_id":"4","last_reported":1747030572,"current_range_meters":25600,"station_id":"ce4bhq12rcd13ifvqhhg","pricing_plan_id":"cebpf4jnsgd1na2vs0mg"},{"bike_id":"a6146c81-0f87-436c-9fc2-610bbd3d7c6f","system_id":"levelo_inurba_marseille","lat":43.24184,"lon":5.39728,"is_reserved":false,"is_disabled":false,"rental_uris":{"android":"levelo://app?vid=a6146c81-0f87-436c-9fc2-610bbd3d7c6f","ios":"levelo://app?vid=a6146c81-0f87-436c-9fc2-610bbd3d7c6f"},"vehicle_type_id":"4","last_reported":1747030572,"current_range_meters":25600,"station_id":"ce4bhn12rcd13ifvqgpg","pricing_plan_id":"cebpf4jnsgd1na2vs0mg"},{"bike_id":"af8d6d99-adf9-47a0-aade-e1275b34249d","system_id":"levelo_inurba_marseille","lat":43.23152,"lon":5.43727,"is_reserved":false,"is_disabled":false,"rental_uris":{"android":"levelo://app?vid=af8d6d99-adf9-47a0-aade-e1275b34249d","ios":"levelo://app?vid=af8d6d99-adf9-47a0-aade-e1275b34249d"},"vehicle_type_id":"4","last_reported":1747030572,"current_range_meters":25200,"station_id":"ce4bhmp2rcd13ifvqgog","pricing_plan_id":"cebpf4jnsgd1na2vs0mg"},{"bike_id":"40a7b2ab-49f8-4a57-9575-f98dd9e88f9b","system_id":"levelo_inurba_marseille","lat":43.29539,"lon":5.37489,"is_reserved":false,"is_disabled":true,"rental_uris":{"android":"levelo://app?vid=40a7b2ab-49f8-4a57-9575-f98dd9e88f9b","ios":"levelo://app?vid=40a7b2ab-49f8-4a57-9575-f98dd9e88f9b"},"vehicle_type_id":"4","last_reported":1747030572,"current_range_meters":25600,"station_id":"ce4bgkp2rcd13ifvqbmg","pricing_plan_id":"cebpf4jnsgd1na2vs0mg"},{"bike_id":"563aaa92-3305-4a25-9c7f-3c02bfd87cae","system_id":"levelo_inurba_marseille","lat":43.297766,"lon":5.393546,"is_reserved":false,"is_disabled":true,"rental_uris":{"android":"levelo://app?vid=563aaa92-3305-4a25-9c7f-3c02bfd87cae","ios":"levelo://app?vid=563aaa92-3305-4a25-9c7f-3c02bfd87cae"},"vehicle_type_id":"4","last_reported":1747030572,"current_range_meters":25600,"station_id":"chh1huq6cuj3fo74tm60","pricing_plan_id":"cebpf4jnsgd1na2vs0mg"},{"bike_id":"aa9baa0c-b8c4-498d-97db-add0ce07899d","system_id":"levelo_inurba_marseille","lat":43.297939,"lon":5.393379,"is_reserved":false,"is_disabled":true,"rental_uris":{"android":"levelo://app?vid=aa9baa0c-b8c4-498d-97db-add0ce07899d","ios":"levelo://app?vid=aa9baa0c-b8c4-498d-97db-add0ce07899d"},"vehicle_type_id":"4","last_reported":1747030572,"current_range_meters":25600,"station_id":"","pricing_plan_id":"cebpf4jnsgd1na2vs0mg"},{"bike_id":"8a12bab0-f85b-42db-93e9-592954468933","system_id":"levelo_inurba_marseille","lat":43.30138,"lon":5.38103,"is_reserved":false,"is_disabled":false,"rental_uris":{"android":"levelo://app?vid=8a12bab0-f85b-42db-93e9-592954468933","ios":"levelo://app?vid=8a12bab0-f85b-42db-93e9-592954468933"},"vehicle_type_id":"4","last_reported":1747030572,"current_range_meters":26000,"station_id":"ce4bgjp2rcd13ifvqbh0","pricing_plan_id":"cebpf4jnsgd1na2vs0mg"},{"bike_id":"09f9e6e6-54b7-44f1-8b13-96bf6f452638","system_id":"levelo_inurba_marseille","lat":43.29777,"lon":5.45995,"is_reserved":false,"is_disabled":false,"rental_uris":{"android":"levelo://app?vid=09f9e6e6-54b7-44f1-8b13-96bf6f452638","ios":"levelo://app?vid=09f9e6e6-54b7-44f1-8b13-96bf6f452638"},"vehicle_type_id":"4","last_reported":1747030572,"current_range_meters":26000,"station_id":"","pricing_plan_id":"cebpf4jnsgd1na2vs0mg"},{"bike_id":"47d6d049-7050-4bac-b6a3-34a9fcad21bf","system_id":"levelo_inurba_marseille","lat":43.27498,"lon":5.42456,"is_reserved":false,"is_disabled":false,"rental_uris":{"android":"levelo://app?vid=47d6d049-7050-4bac-b6a3-34a9fcad21bf","ios":"levelo://app?vid=47d6d049-7050-4bac-b6a3-34a9fcad21bf"},"vehicle_type_id":"4","last_reported":1747030572,"current_range_meters":26000,"station_id":"ce4bhn92rcd13ifvqgrg","pricing_plan_id":"cebpf4jnsgd1na2vs0mg"},{"bike_id":"3b6c663c-1f1a-4a99-b988-a5d44feb1bdb","system_id":"levelo_inurba_marseille","lat":43.26552,"lon":5.39028,"is_reserved":false,"is_disabled":false,"rental_uris":{"android":"levelo://app?vid=3b6c663c-1f1a-4a99-b988-a5d44feb1bdb","ios":"levelo://app?vid=3b6c663c-1f1a-4a99-b988-a5d44feb1bdb"},"vehicle_type_id":"4","last_reported":1747030572,"current_range_meters":26000,"station_id":"ce4bhe12rcd13ifvqf30","pricing_plan_id":"cebpf4jnsgd1na2vs0mg"},{"bike_id":"c3da1891-50ae-4fd1-82de-29ed5f6a0385","system_id":"levelo_inurba_marseille","lat":43.30545,"lon":5.367057,"is_reserved":false,"is_disabled":false,"rental_uris":{"android":"levelo://app?vid=c3da1891-50ae-4fd1-82de-29ed5f6a0385","ios":"levelo://app?vid=c3da1891-50ae-4fd1-82de-29ed5f6a0385"},"vehicle_type_id":"4","last_reported":1747030572,"current_range_meters":26000,"station_id":"ce4bgrp2rcd13ifvqc9g","pricing_plan_id":"cebpf4jnsgd1na2vs0mg"},{"bike_id":"7004a2bb-a902-41bb-884d-811fd57bbb9e","system_id":"levelo_inurba_marseille","lat":43.30457,"lon":5.37914,"is_reserved":false,"is_disabled":false,"rental_uris":{"android":"levelo://app?vid=7004a2bb-a902-41bb-884d-811fd57bbb9e","ios":"levelo://app?vid=7004a2bb-a902-41bb-884d-811fd57bbb9e"},"vehicle_type_id":"4","last_reported":1747030572,"current_range_meters":26000,"station_id":"ce4bgup2rcd13ifvqcn0","pricing_plan_id":"cebpf4jnsgd1na2vs0mg"},{"bike_id":"1806c447-b7d4-41de-ab1b-359589127fc7","system_id":"levelo_inurba_marseille","lat":43.32336,"lon":5.40631,"is_reserved":false,"is_disabled":false,"rental_uris":{"android":"levelo://app?vid=1806c447-b7d4-41de-ab1b-359589127fc7","ios":"levelo://app?vid=1806c447-b7d4-41de-ab1b-359589127fc7"},"vehicle_type_id":"4","last_reported":1747030572,"current_range_meters":26000,"station_id":"ce4bhq92rcd13ifvqhjg","pricing_plan_id":"cebpf4jnsgd1na2vs0mg"},{"bike_id":"b123e2b9-a098-4c60-a60b-b5d4bb6aa64f","system_id":"levelo_inurba_marseille","lat":43.27494,"lon":5.42452,"is_reserved":false,"is_disabled":false,"rental_uris":{"android":"levelo://app?vid=b123e2b9-a098-4c60-a60b-b5d4bb6aa64f","ios":"levelo://app?vid=b123e2b9-a098-4c60-a60b-b5d4bb6aa64f"},"vehicle_type_id":"4","last_reported":1747030572,"current_range_meters":26000,"station_id":"ce4bhn92rcd13ifvqgrg","pricing_plan_id":"cebpf4jnsgd1na2vs0mg"},{"bike_id":"fc767cd4-a644-4838-9f92-314c59099b12","system_id":"levelo_inurba_marseille","lat":43.30441,"lon":5.37922,"is_reserved":false,"is_disabled":false,"rental_uris":{"android":"levelo://app?vid=fc767cd4-a644-4838-9f92-314c59099b12","ios":"levelo://app?vid=fc767cd4-a644-4838-9f92-314c59099b12"},"vehicle_type_id":"4","last_reported":1747030572,"current_range_meters":26000,"station_id":"ce4bgup2rcd13ifvqcn0","pricing_plan_id":"cebpf4jnsgd1na2vs0mg"},{"bike_id":"2aff00df-3d4f-4caa-90ca-4c8fb72f5c08","system_id":"levelo_inurba_marseille","lat":43.31286,"lon":5.37344,"is_reserved":false,"is_disabled":false,"rental_uris":{"android":"levelo://app?vid=2aff00df-3d4f-4caa-90ca-4c8fb72f5c08","ios":"levelo://app?vid=2aff00df-3d4f-4caa-90ca-4c8fb72f5c08"},"vehicle_type_id":"4","last_reported":1747030572,"current_range_meters":26000,"station_id":"","pricing_plan_id":"cebpf4jnsgd1na2vs0mg"},{"bike_id":"70f251d9-ca94-4f0d-8c0f-d98b39023f20","system_id":"levelo_inurba_marseille","lat":43.29265,"lon":5.37625,"is_reserved":false,"is_disabled":false,"rental_uris":{"android":"levelo://app?vid=70f251d9-ca94-4f0d-8c0f-d98b39023f20","ios":"levelo://app?vid=70f251d9-ca94-4f0d-8c0f-d98b39023f20"},"vehicle_type_id":"4","last_reported":1747030572,"current_range_meters":26000,"station_id":"ce4bgi12rcd13ifvqb80","pricing_plan_id":"cebpf4jnsgd1na2vs0mg"},{"bike_id":"b68fbe80-0579-4b3d-bb2b-6ce89d8811dc","system_id":"levelo_inurba_marseille","lat":43.32044,"lon":5.4155,"is_reserved":false,"is_disabled":false,"rental_uris":{"android":"levelo://app?vid=b68fbe80-0579-4b3d-bb2b-6ce89d8811dc","ios":"levelo://app?vid=b68fbe80-0579-4b3d-bb2b-6ce89d8811dc"},"vehicle_type_id":"4","last_reported":1747030572,"current_range_meters":26800,"station_id":"ce4bhq92rcd13ifvqhkg","pricing_plan_id":"cebpf4jnsgd1na2vs0mg"},{"bike_id":"5086c210-7dd4-4e72-b800-922f9b41850f","system_id":"levelo_inurba_marseille","lat":43.24186,"lon":5.3973,"is_reserved":false,"is_disabled":false,"rental_uris":{"android":"levelo://app?vid=5086c210-7dd4-4e72-b800-922f9b41850f","ios":"levelo://app?vid=5086c210-7dd4-4e72-b800-922f9b41850f"},"vehicle_type_id":"4","last_reported":1747030572,"current_range_meters":26800,"station_id":"ce4bhn12rcd13ifvqgpg","pricing_plan_id":"cebpf4jnsgd1na2vs0mg"},{"bike_id":"f5bf8f46-e61d-4752-a720-5d5821945773","system_id":"levelo_inurba_marseille","lat":43.30152,"lon":5.38073,"is_reserved":false,"is_disabled":false,"rental_uris":{"android":"levelo://app?vid=f5bf8f46-e61d-4752-a720-5d5821945773","ios":"levelo://app?vid=f5bf8f46-e61d-4752-a720-5d5821945773"},"vehicle_type_id":"4","last_reported":1747030572,"current_range_meters":26800,"station_id":"ce4bgjp2rcd13ifvqbh0","pricing_plan_id":"cebpf4jnsgd1na2vs0mg"},{"bike_id":"6bcdd801-4e7f-4fce-afe5-cead4f23f342","system_id":"levelo_inurba_marseille","lat":43.31686,"lon":5.37751,"is_reserved":false,"is_disabled":false,"rental_uris":{"android":"levelo://app?vid=6bcdd801-4e7f-4fce-afe5-cead4f23f342","ios":"levelo://app?vid=6bcdd801-4e7f-4fce-afe5-cead4f23f342"},"vehicle_type_id":"4","last_reported":1747030572,"current_range_meters":26800,"station_id":"ce4bgth2rcd13ifvqch0","pricing_plan_id":"cebpf4jnsgd1na2vs0mg"},{"bike_id":"3152984a-399d-4c64-9052-23a31d43701e","system_id":"levelo_inurba_marseille","lat":43.28937,"lon":5.39629,"is_reserved":false,"is_disabled":false,"rental_uris":{"android":"levelo://app?vid=3152984a-399d-4c64-9052-23a31d43701e","ios":"levelo://app?vid=3152984a-399d-4c64-9052-23a31d43701e"},"vehicle_type_id":"4","last_reported":1747030572,"current_range_meters":26800,"station_id":"ce4bh3h2rcd13ifvqdn0","pricing_plan_id":"cebpf4jnsgd1na2vs0mg"},{"bike_id":"3872a9bc-8d3e-4de2-b3a4-7e7847dbbb7d","system_id":"levelo_inurba_marseille","lat":43.30294,"lon":5.40165,"is_reserved":false,"is_disabled":true,"rental_uris":{"android":"levelo://app?vid=3872a9bc-8d3e-4de2-b3a4-7e7847dbbb7d","ios":"levelo://app?vid=3872a9bc-8d3e-4de2-b3a4-7e7847dbbb7d"},"vehicle_type_id":"4","last_reported":1747030572,"current_range_meters":26800,"station_id":"ce4bgvh2rcd13ifvqcs0","pricing_plan_id":"cebpf4jnsgd1na2vs0mg"},{"bike_id":"0a4b4923-351f-40dd-8fa6-11ff9b8290fa","system_id":"levelo_inurba_marseille","lat":43.30455,"lon":5.37915,"is_reserved":false,"is_disabled":false,"rental_uris":{"android":"levelo://app?vid=0a4b4923-351f-40dd-8fa6-11ff9b8290fa","ios":"levelo://app?vid=0a4b4923-351f-40dd-8fa6-11ff9b8290fa"},"vehicle_type_id":"4","last_reported":1747030572,"current_range_meters":26000,"station_id":"ce4bgup2rcd13ifvqcn0","pricing_plan_id":"cebpf4jnsgd1na2vs0mg"},{"bike_id":"c00b5082-7aa4-4a0f-b6f2-501ebbebadf8","system_id":"levelo_inurba_marseille","lat":43.306369,"lon":5.400953,"is_reserved":false,"is_disabled":false,"rental_uris":{"android":"levelo://app?vid=c00b5082-7aa4-4a0f-b6f2-501ebbebadf8","ios":"levelo://app?vid=c00b5082-7aa4-4a0f-b6f2-501ebbebadf8"},"vehicle_type_id":"4","last_reported":1747030572,"current_range_meters":26800,"station_id":"ce4bh112rcd13ifvqda0","pricing_plan_id":"cebpf4jnsgd1na2vs0mg"},