{"last_updated":1706551718,"ttl":30,"version":"2.2","data":{"bikes":[{"bike_id":"c1bda3ae-fbd3-4604-9da6-15403ac2caf7","system_id":"levelo_inurba_marseille","lat":43.31479,"lon":5.37309,"is_reserved":false,"is_disabled":false,"rental_uris":{"android":"levelo://app?vid=c1bda3ae-fbd3-4604-9da6-15403ac2caf7","ios":"levelo://app?vid=c1bda3ae-fbd3-4604-9da6-15403ac2caf7"},"vehicle_type_id":"4","last_reported":1706551718,"current_range_meters":0,"station_id":"ce4bgt12rcd13ifvqcd0","pricing_plan_id":"free"},{"bike_id":"b15ffd8c-018d-47ed-b3fc-3f601c32826b","system_id":"levelo_inurba_marseille","lat":43.314811,"lon":5.373104,"is_reserved":false,"is_disabled":false,"rental_uris":{"android":"levelo://app?vid=b15ffd8c-018d-47ed-b3fc-3f601c32826b","ios":"levelo://app?vid=b15ffd8c-018d-47ed-b3fc-3f601c32826b"},"vehicle_type_id":"4","last_reported":1706551718,"current_range_meters":0,"station_id":"ce4bgt12rcd13ifvqcd0","pricing_plan_id":"free"},{"bike_id":"a73213d5-6e07-448d-bcb6-6fb81052d7a9","system_id":"levelo_inurba_marseille","lat":43.30892,"lon":5.37198,"is_reserved":false,"is_disabled":false,"rental_uris":{"android":"levelo://app?vid=a73213d5-6e07-448d-bcb6-6fb81052d7a9","ios":"levelo://app?vid=a73213d5-6e07-448d-bcb6-6fb81052d7a9"},"vehicle_type_id":"4","last_reported":1706551718,"current_range_meters":22400,"station_id":"ce4bguh2rcd13ifvqckg","pricing_plan_id":"free"},{"bike_id":"239de732-a9d7-43b5-b14e-0326ad83b5bd","system_id":"levelo_inurba_marseille","lat":43.30895,"lon":5.37208,"is_reserved":false,"is_disabled":false,"rental_uris":{"android":"levelo://app?vid=239de732-a9d7-43b5-b14e-0326ad83b5bd","ios":"levelo://app?vid=239de732-a9d7-43b5-b14e-0326ad83b5bd"},"vehicle_type_id":"4","last_reported":1706551718,"current_range_meters":14800,"station_id":"ce4bguh2rcd13ifvqckg","pricing_plan_id":"free"},{"bike_id":"3dd60310-c57e-47bd-a784-2b42fed99bf6","system_id":"levelo_inurba_marseille","lat":43.30879,"lon":5.37199,"is_reserved":false,"is_disabled":false,"rental_uris":{"android":"levelo://app?vid=3dd60310-c57e-47bd-a784-2b42fed99bf6","ios":"levelo://app?vid=3dd60310-c57e-47bd-a784-2b42fed99bf6"},"vehicle_type_id":"4","last_reported":1706551718,"current_range_meters":10400,"station_id":"ce4bguh2rcd13ifvqckg","pricing_plan_id":"free"},{"bike_id":"6b6d2908-fc76-446b-883c-0fd868e51f00","system_id":"levelo_inurba_marseille","lat":43.305989,"lon":5.37225,"is_reserved":false,"is_disabled":false,"rental_uris":{"android":"levelo://app?vid=6b6d2908-fc76-446b-883c-0fd868e51f00","ios":"levelo://app?vid=6b6d2908-fc76-446b-883c-0fd868e51f00"},"vehicle_type_id":"4","last_reported":1706551718,"current_range_meters":27200,"station_id":"ce4bgqh2rcd13ifvqc4g","pricing_plan_id":"free"},{"bike_id":"67729521-91ce-482e-89d2-f1b57d900451","system_id":"levelo_inurba_marseille","lat":43.305898,"lon":5.372175,"is_reserved":false,"is_disabled":false,"rental_uris":{"android":"levelo://app?vid=67729521-91ce-482e-89d2-f1b57d900451","ios":"levelo://app?vid=67729521-91ce-482e-89d2-f1b57d900451"},"vehicle_type_id":"4","last_reported":1706551718,"current_range_meters":0,"station_id":"ce4bgqh2rcd13ifvqc4g","pricing_plan_id":"free"},{"bike_id":"d6f5915e-cbc0-43ca-a336-deb21e607484","system_id":"levelo_inurba_marseille","lat":43.311106,"lon":5.377557,"is_reserved":false,"is_disabled":false,"rental_uris":{"android":"levelo://app?vid=d6f5915e-cbc0-43ca-a336-deb21e607484","ios":"levelo://app?vid=d6f5915e-cbc0-43ca-a336-deb21e607484"},"vehicle_type_id":"4","last_reported":1706551718,"current_range_meters":10800,"station_id":"","pricing_plan_id":"free"},{"bike_id":"7e81efea-a2e1-4b3e-b8e8-47347884538c","system_id":"levelo_inurba_marseille","lat":43.311131,"lon":5.377651,"is_reserved":false,"is_disabled":false,"rental_uris":{"android":"levelo://app?vid=7e81efea-a2e1-4b3e-b8e8-47347884538c","ios":"levelo://app?vid=7e81efea-a2e1-4b3e-b8e8-47347884538c"},"vehicle_type_id":"4","last_reported":1706551718,"current_range_meters":3600,"station_id":"ce4bgt92rcd13ifvqcg0","pricing_plan_id":"free"},{"bike_id":"97807fe8-66d7-4795-ae9e-56808d441591","system_id":"levelo_inurba_marseille","lat":43.311125,"lon":5.377624,"is_reserved":false,"is_disabled":false,"rental_uris":{"android":"levelo://app?vid=97807fe8-66d7-4795-ae9e-56808d441591","ios":"levelo://app?vid=97807fe8-66d7-4795-ae9e-56808d441591"},"vehicle_type_id":"4","last_reported":1706551718,"current_range_meters":10400,"station_id":"ce4bgt92rcd13ifvqcg0","pricing_plan_id":"free"},{"bike_id":"b6f17dc9-fb3d-43ab-8655-dafe3cfa3d1e","system_id":"levelo_inurba_marseille","lat":43.311131,"lon":5.377651,"is_reserved":false,"is_disabled":false,"rental_uris":{"android":"levelo://app?vid=b6f17dc9-fb3d-43ab-8655-dafe3cfa3d1e","ios":"levelo://app?vid=b6f17dc9-fb3d-43ab-8655-dafe3cfa3d1e"},"vehicle_type_id":"4","last_reported":1706551718,"current_range_meters":13200,"station_id":"ce4bgt92rcd13ifvqcg0","pricing_plan_id":"free"},{"bike_id":"3e7143e6-9bb8-48ee-a4d3-ecd334eb6c36","system_id":"levelo_inurba_marseille","lat":43.311131,"lon":5.377651,"is_reserved":false,"is_disabled":false,"rental_uris":{"android":"levelo://app?vid=3e7143e6-9bb8-48ee-a4d3-ecd334eb6c36","ios":"levelo://app?vid=3e7143e6-9bb8-48ee-a4d3-ecd334eb6c36"},"vehicle_type_id":"4","last_reported":1706551718,"current_range_meters":0,"station_id":"ce4bgt92rcd13ifvqcg0","pricing_plan_id":"free"},{"bike_id":"d1c519b7-6d5e-4bd3-8b40-28ef977b6ecc","system_id":"levelo_inurba_marseille","lat":43.311131,"lon":5.377651,"is_reserved":false,"is_disabled":false,"rental_uris":{"android":"levelo://app?vid=d1c519b7-6d5e-4bd3-8b40-28ef977b6ecc","ios":"levelo://app?vid=d1c519b7-6d5e-4bd3-8b40-28ef977b6ecc"},"vehicle_type_id":"4","last_reported":1706551718,"current_range_meters":24000,"station_id":"ce4bgt92rcd13ifvqcg0","pricing_plan_id":"free"},{"bike_id":"d3f31ab8-054b-4b16-9d12-a2cea84be87d","system_id":"levelo_inurba_marseille","lat":43.31119,"lon":5.37773,"is_reserved":false,"is_disabled":false,"rental_uris":{"android":"levelo://app?vid=d3f31ab8-054b-4b16-9d12-a2cea84be87d","ios":"levelo://app?vid=d3f31ab8-054b-4b16-9d12-a2cea84be87d"},"vehicle_type_id":"4","last_reported":1706551718,"current_range_meters":15200,"station_id":"ce4bgt92rcd13ifvqcg0","pricing_plan_id":"free"},{"bike_id":"77d5d66a-c706-425c-81a3-b14a4f6decfa","system_id":"levelo_inurba_marseille","lat":43.311125,"lon":5.377624,"is_reserved":false,"is_disabled":false,"rental_uris":{"android":"levelo://app?vid=77d5d66a-c706-425c-81a3-b14a4f6decfa","ios":"levelo://app?vid=77d5d66a-c706-425c-81a3-b14a4f6decfa"},"vehicle_type_id":"4","last_reported":1706551718,"current_range_meters":25600,"station_id":"ce4bgt92rcd13ifvqcg0","pricing_plan_id":"free"},{"bike_id":"4ea09ac5-64f1-41f9-a89f-66bf29278133","system_id":"levelo_inurba_marseille","lat":43.30779,"lon":5.37666,"is_reserved":false,"is_disabled":false,"rental_uris":{"android":"levelo://app?vid=4ea09ac5-64f1-41f9-a89f-66bf29278133","ios":"levelo://app?vid=4ea09ac5-64f1-41f9-a89f-66bf29278133"},"vehicle_type_id":"4","last_reported":1706551718,"current_range_meters":2800,"station_id":"ce4bgv92rcd13ifvqcq0","pricing_plan_id":"free"},{"bike_id":"fa7fc8ff-bb1a-4210-aabf-edfd43824bee","system_id":"levelo_inurba_marseille","lat":43.317075,"lon":5.377367,"is_reserved":false,"is_disabled":false,"rental_uris":{"android":"levelo://app?vid=fa7fc8ff-bb1a-4210-aabf-edfd43824bee","ios":"levelo://app?vid=fa7fc8ff-bb1a-4210-aabf-edfd43824bee"},"vehicle_type_id":"4","last_reported":1706551718,"current_range_meters":2800,"station_id":"ce4bgth2rcd13ifvqch0","pricing_plan_id":"free"},{"bike_id":"b83daeb9-a39c-4884-86e2-16a37c651f7f","system_id":"levelo_inurba_marseille","lat":43.31999,"lon":5.376164,"is_reserved":false,"is_disabled":false,"rental_uris":{"android":"levelo://app?vid=b83daeb9-a39c-4884-86e2-16a37c651f7f","ios":"levelo://app?vid=b83daeb9-a39c-4884-86e2-16a37c651f7f"},"vehicle_type_id":"4","last_reported":1706551718,"current_range_meters":400,"station_id":"","pricing_plan_id":"free"},{"bike_id":"78331664-9b25-472a-85e9-f61051304054","system_id":"levelo_inurba_marseille","lat":43.315293,"lon":5.380349,"is_reserved":false,"is_disabled":false,"rental_uris":{"android":"levelo://app?vid=78331664-9b25-472a-85e9-f61051304054","ios":"levelo://app?vid=78331664-9b25-472a-85e9-f61051304054"},"vehicle_type_id":"4","last_reported":1706551718,"current_range_meters":2000,"station_id":"ce4bhsp2rcd13ifvqi50","pricing_plan_id":"free"},{"bike_id":"dd11690c-1bdc-496d-8c2b-becd0f85a4b6","system_id":"levelo_inurba_marseille","lat":43.315293,"lon":5.380349,"is_reserved":false,"is_disabled":false,"rental_uris":{"android":"levelo://app?vid=dd11690c-1bdc-496d-8c2b-becd0f85a4b6","ios":"levelo://app?vid=dd11690c-1bdc-496d-8c2b-becd0f85a4b6"},"vehicle_type_id":"4","last_reported":1706551718,"current_range_meters":12800,"station_id":"ce4bhsp2rcd13ifvqi50","pricing_plan_id":"free"},{"bike_id":"410ef1d2-6320-4d94-9a93-ae691de786ef","system_id":"levelo_inurba_marseille","lat":43.301939,"lon":5.366286,"is_reserved":false,"is_disabled":false,"rental_uris":{"android":"levelo://app?vid=410ef1d2-6320-4d94-9a93-ae691de786ef","ios":"levelo://app?vid=410ef1d2-6320-4d94-9a93-ae691de786ef"},"vehicle_type_id":"4","last_reported":1706551718,"current_range_meters":4400,"station_id":"ce4bgrh2rcd13ifvqc8g","pricing_plan_id":"free"},{"bike_id":"cc61af7d-b6ad-4682-8953-bb29eb41b7f0","system_id":"levelo_inurba_marseille","lat":43.30428,"lon":5.377351,"is_reserved":false,"is_disabled":false,"rental_uris":{"android":"levelo://app?vid=cc61af7d-b6ad-4682-8953-bb29eb41b7f0","ios":"levelo://app?vid=cc61af7d-b6ad-4682-8953-bb29eb41b7f0"},"vehicle_type_id":"4","last_reported":1706551718,"current_range_meters":0,"station_id":"","pricing_plan_id":"free"},{"bike_id":"88c14f06-e2f8-4000-99a8-0a52526b1149","system_id":"levelo_inurba_marseille","lat":43.308012,"lon":5.381511,"is_reserved":false,"is_disabled":false,"rental_uris":{"android":"levelo://app?vid=88c14f06-e2f8-4000-99a8-0a52526b1149","ios":"levelo://app?vid=88c14f06-e2f8-4000-99a8-0a52526b1149"},"vehicle_type_id":"4","last_reported":1706551718,"current_range_meters":29200,"station_id":"ce4bgt12rcd13ifvqce0","pricing_plan_id":"free"},{"bike_id":"363a0d26-7fcf-4986-9237-b4e69da6d3ee","system_id":"levelo_inurba_marseille","lat":43.308012,"lon":5.381511,"is_reserved":false,"is_disabled":false,"rental_uris":{"android":"levelo://app?vid=363a0d26-7fcf-4986-9237-b4e69da6d3ee","ios":"levelo://app?vid=363a0d26-7fcf-4986-9237-b4e69da6d3ee"},"vehicle_type_id":"4","last_reported":1706551718,"current_range_meters":18000,"station_id":"ce4bgt12rcd13ifvqce0","pricing_plan_id":"free"},{"bike_id":"4c1d912b-8425-4b28-bcd4-0691a1724560","system_id":"levelo_inurba_marseille","lat":43.324801,"lon":5.365738,"is_reserved":false,"is_disabled":false,"rental_uris":{"android":"levelo://app?vid=4c1d912b-8425-4b28-bcd4-0691a1724560","ios":"levelo://app?vid=4c1d912b-8425-4b28-bcd4-0691a1724560"},"vehicle_type_id":"4","last_reported":1706551718,"current_range_meters":28000,"station_id":"ce4bhs12rcd13ifvqhvg","pricing_plan_id":"free"},{"bike_id":"11c30585-a193-4157-8eb9-d99a32e94516","system_id":"levelo_inurba_marseille","lat":43.324771,"lon":5.36557,"is_reserved":false,"is_disabled":false,"rental_uris":{"android":"levelo://app?vid=11c30585-a193-4157-8eb9-d99a32e94516","ios":"levelo://app?vid=11c30585-a193-4157-8eb9-d99a32e94516"},"vehicle_type_id":"4","last_reported":1706551718,"current_range_meters":19200,"station_id":"ce4bhs12rcd13ifvqhvg","pricing_plan_id":"free"},{"bike_id":"13bd44b9-8ecb-46da-981f-fe222ffce708","system_id":"levelo_inurba_marseille","lat":43.324771,"lon":5.36557,"is_reserved":false,"is_disabled":false,"rental_uris":{"android":"levelo://app?vid=13bd44b9-8ecb-46da-981f-fe222ffce708","ios":"levelo://app?vid=13bd44b9-8ecb-46da-981f-fe222ffce708"},"vehicle_type_id":"4","last_reported":1706551718,"current_range_meters":12800,"station_id":"ce4bhs12rcd13ifvqhvg","pricing_plan_id":"free"},{"bike_id":"dc00bdf8-dc57-4b02-8d44-8ea4906debe3","system_id":"levelo_inurba_marseille","lat":43.324771,"lon":5.36557,"is_reserved":false,"is_disabled":false,"rental_uris":{"android":"levelo://app?vid=dc00bdf8-dc57-4b02-8d44-8ea4906debe3","ios":"levelo://app?vid=dc00bdf8-dc57-4b02-8d44-8ea4906debe3"},"vehicle_type_id":"4","last_reported":1706551718,"current_range_meters":12400,"station_id":"ce4bhs12rcd13ifvqhvg","pricing_plan_id":"free"},{"bike_id":"2d40c143-6cb5-4df6-a200-396289dcd0f5","system_id":"levelo_inurba_marseille","lat":43.324771,"lon":5.36557,"is_reserved":false,"is_disabled":false,"rental_uris":{"android":"levelo://app?vid=2d40c143-6cb5-4df6-a200-396289dcd0f5","ios":"levelo://app?vid=2d40c143-6cb5-4df6-a200-396289dcd0f5"},"vehicle_type_id":"4","last_reported":1706551718,"current_range_meters":3200,"station_id":"ce4bhs12rcd13ifvqhvg","pricing_plan_id":"free"},{"bike_id":"96bada0b-1fa9-4706-87e9-8f67e261e440","system_id":"levelo_inurba_marseille","lat":43.324771,"lon":5.36557,"is_reserved":false,"is_disabled":false,"rental_uris":{"android":"levelo://app?vid=96bada0b-1fa9-4706-87e9-8f67e261e440","ios":"levelo://app?vid=96bada0b-1fa9-4706-87e9-8f67e261e440"},"vehicle_type_id":"4","last_reported":1706551718,"current_range_meters":24000,"station_id":"ce4bhs12rcd13ifvqhvg","pricing_plan_id":"free"},{"bike_id":"0e2a37f8-6f90-4c3c-b1eb-4b32b71a810c","system_id":"levelo_inurba_marseille","lat":43.30143,"lon":5.37413,"is_reserved":false,"is_disabled":false,"rental_uris":{"android":"levelo://app?vid=0e2a37f8-6f90-4c3c-b1eb-4b32b71a810c","ios":"levelo://app?vid=0e2a37f8-6f90-4c3c-b1eb-4b32b71a810c"},"vehicle_type_id":"4","last_reported":1706551718,"current_range_meters":6000,"station_id":"ce4bgs92rcd13ifvqcc0","pricing_plan_id":"free"},{"bike_id":"dd6b7008-c30f-4316-8921-b5028f9d3f38","system_id":"levelo_inurba_marseille","lat":43.319935,"lon":5.381699,"is_reserved":false,"is_disabled":false,"rental_uris":{"android":"levelo://app?vid=dd6b7008-c30f-4316-8921-b5028f9d3f38","ios":"levelo://app?vid=dd6b7008-c30f-4316-8921-b5028f9d3f38"},"vehicle_type_id":"4","last_reported":1706551718,"current_range_meters":21200,"station_id":"ce4bhr12rcd13ifvqhpg","pricing_plan_id":"free"},{"bike_id":"0ca84510-6630-47d1-867a-145dbc99d2a1","system_id":"levelo_inurba_marseille","lat":43.319935,"lon":5.381699,"is_reserved":false,"is_disabled":false,"rental_uris":{"android":"levelo://app?vid=0ca84510-6630-47d1-867a-145dbc99d2a1","ios":"levelo://app?vid=0ca84510-6630-47d1-867a-145dbc99d2a1"},"vehicle_type_id":"4","last_reported":1706551718,"current_range_meters":21200,"station_id":"ce4bhr12rcd13ifvqhpg","pricing_plan_id":"free"},{"bike_id":"bb929bd9-481f-47ef-b3a2-06363540c0cc","system_id":"levelo_inurba_marseille","lat":43.319935,"lon":5.381699,"is_reserved":false,"is_disabled":false,"rental_uris":{"android":"levelo://app?vid=bb929bd9-481f-47ef-b3a2-06363540c0cc","ios":"levelo://app?vid=bb929bd9-481f-47ef-b3a2-06363540c0cc"},"vehicle_type_id":"4","last_reported":1706551718,"current_range_meters":5600,"station_id":"ce4bhr12rcd13ifvqhpg","pricing_plan_id":"free"},{"bike_id":"62359dd4-e5a2-43d3-8c03-a9073c8bb30e","system_id":"levelo_inurba_marseille","lat":43.314811,"lon":5.373103,"is_reserved":false,"is_disabled":false,"rental_uris":{"android":"levelo://app?vid=62359dd4-e5a2-43d3-8c03-a9073c8bb30e","ios":"levelo://app?vid=62359dd4-e5a2-43d3-8c03-a9073c8bb30e"},"vehicle_type_id":"4","last_reported":1706551718,"current_range_meters":17600,"station_id":"ce4bgt12rcd13ifvqcd0","pricing_plan_id":"free"},{"bike_id":"a6345780-30db-47f2-acfb-6adc1facc2d6","system_id":"levelo_inurba_marseille","lat":43.319935,"lon":5.381699,"is_reserved":false,"is_disabled":false,"rental_uris":{"android":"levelo://app?vid=a6345780-30db-47f2-acfb-6adc1facc2d6","ios":"levelo://app?vid=a6345780-30db-47f2-acfb-6adc1facc2d6"},"vehicle_type_id":"4","last_reported":1706551718,"current_range_meters":2000,"station_id":"ce4bhr12rcd13ifvqhpg","pricing_plan_id":"free"},{"bike_id":"ab6c2503-27a9-414c-a4fc-29b59ac999ac","system_id":"levelo_inurba_marseille","lat":43.313571,"lon":5.384829,"is_reserved":false,"is_disabled":false,"rental_uris":{"android":"levelo://app?vid=ab6c2503-27a9-414c-a4fc-29b59ac999ac","ios":"levelo://app?vid=ab6c2503-27a9-414c-a4fc-29b59ac999ac"},"vehicle_type_id":"4","last_reported":1706551718,"current_range_meters":2000,"station_id":"ce4bgt92rcd13ifvqcf0","pricing_plan_id":"free"},{"bike_id":"90af10d2-7f4f-4866-a073-0f8d9da53454","system_id":"levelo_inurba_marseille","lat":43.299222,"lon":5.365554,"is_reserved":false,"is_disabled":false,"rental_uris":{"android":"levelo://app?vid=90af10d2-7f4f-4866-a073-0f8d9da53454","ios":"levelo://app?vid=90af10d2-7f4f-4866-a073-0f8d9da53454"},"vehicle_type_id":"4","last_reported":1706551718,"current_range_meters":6800,"station_id":"ce4bgm92rcd13ifvqbr0","pricing_plan_id":"free"},{"bike_id":"1af55742-6e65-4dd6-b3f1-b02cde217cd1","system_id":"levelo_inurba_marseille","lat":43.299724,"lon":5.371829,"is_reserved":false,"is_disabled":false,"rental_uris":{"android":"levelo://app?vid=1af55742-6e65-4dd6-b3f1-b02cde217cd1","ios":"levelo://app?vid=1af55742-6e65-4dd6-b3f1-b02cde217cd1"},"vehicle_type_id":"4","last_reported":1706551718,"current_range_meters":16400,"station_id":"ce4bgr92rcd13ifvqc7g","pricing_plan_id":"free"},{"bike_id":"e06b6678-073e-48e8-bab7-c71da6ffb526","system_id":"levelo_inurba_marseille","lat":43.299724,"lon":5.371829,"is_reserved":false,"is_disabled":false,"rental_uris":{"android":"levelo://app?vid=e06b6678-073e-48e8-bab7-c71da6ffb526","ios":"levelo://app?vid=e06b6678-073e-48e8-bab7-c71da6ffb526"},"vehicle_type_id":"4","last_reported":1706551718,"current_range_meters":3600,"station_id":"ce4bgr92rcd13ifvqc7g","pricing_plan_id":"free"},{"bike_id":"9323400c-73ec-4fbb-928f-f9c5d92e73e7","system_id":"levelo_inurba_marseille","lat":43.29847,"lon":5.36277,"is_reserved":false,"is_disabled":false,"rental_uris":{"android":"levelo://app?vid=9323400c-73ec-4fbb-928f-f9c5d92e73e7","ios":"levelo://app?vid=9323400c-73ec-4fbb-928f-f9c5d92e73e7"},"vehicle_type_id":"4","last_reported":1706551718,"current_range_meters":4000,"station_id":"ce4bgpp2rcd13ifvqc3g","pricing_plan_id":"free"},{"bike_id":"42086f5e-77ac-48d7-845b-12029625e110","system_id":"levelo_inurba_marseille","lat":43.298433,"lon":5.362774,"is_reserved":false,"is_disabled":false,"rental_uris":{"android":"levelo://app?vid=42086f5e-77ac-48d7-845b-12029625e110","ios":"levelo://app?vid=42086f5e-77ac-48d7-845b-12029625e110"},"vehicle_type_id":"4","last_reported":1706551718,"current_range_meters":22000,"station_id":"ce4bgpp2rcd13ifvqc3g","pricing_plan_id":"free"},{"bike_id":"c15cea4c-2046-40dd-bb9f-c27aa41028eb","system_id":"levelo_inurba_marseille","lat":43.298433,"lon":5.362774,"is_reserved":false,"is_disabled":false,"rental_uris":{"android":"levelo://app?vid=c15cea4c-2046-40dd-bb9f-c27aa41028eb","ios":"levelo://app?vid=c15cea4c-2046-40dd-bb9f-c27aa41028eb"},"vehicle_type_id":"4","last_reported":1706551718,"current_range_meters":2000,"station_id":"ce4bgpp2rcd13ifvqc3g","pricing_plan_id":"free"},{"bike_id":"6f8f13b6-a233-43fc-b8ee-4852519f9fe0","system_id":"levelo_inurba_marseille","lat":43.298433,"lon":5.362774,"is_reserved":false,"is_disabled":false,"rental_uris":{"android":"levelo://app?vid=6f8f13b6-a233-43fc-b8ee-4852519f9fe0","ios":"levelo://app?vid=6f8f13b6-a233-43fc-b8ee-4852519f9fe0"},"vehicle_type_id":"4","last_reported":1706551718,"current_range_meters":10800,"station_id":"ce4bgpp2rcd13ifvqc3g","pricing_plan_id":"free"},{"bike_id":"e88ecf03-45fd-4093-989a-5cf308bb5698","system_id":"levelo_inurba_marseille","lat":43.298433,"lon":5.362774,"is_reserved":false,"is_disabled":false,"rental_uris":{"android":"levelo://app?vid=e88ecf03-45fd-4093-989a-5cf308bb5698","ios":"levelo://app?vid=e88ecf03-45fd-4093-989a-5cf308bb5698"},"vehicle_type_id":"4","last_reported":1706551718,"current_range_meters":19200,"station_id":"ce4bgpp2rcd13ifvqc3g","pricing_plan_id":"free"},{"bike_id":"1ea1df20-ea84-4ece-8b9f-42e7d69ab281","system_id":"levelo_inurba_marseille","lat":43.298433,"lon":5.362774,"is_reserved":false,"is_disabled":false,"rental_uris":{"android":"levelo://app?vid=1ea1df20-ea84-4ece-8b9f-42e7d69ab281","ios":"levelo://app?vid=1ea1df20-ea84-4ece-8b9f-42e7d69ab281"},"vehicle_type_id":"4","last_reported":1706551718,"current_range_meters":6400,"station_id":"ce4bgpp2rcd13ifvqc3g","pricing_plan_id":"free"},{"bike_id":"c9975522-a47f-421d-82d9-4a67b7a42740","system_id":"levelo_inurba_marseille","lat":43.298433,"lon":5.362774,"is_reserved":false,"is_disabled":false,"rental_uris":{"android":"levelo://app?vid=c9975522-a47f-421d-82d9-4a67b7a42740","ios":"levelo://app?vid=c9975522-a47f-421d-82d9-4a67b7a42740"},"vehicle_type_id":"4","last_reported":1706551718,"current_range_meters":800,"station_id":"ce4bgpp2rcd13ifvqc3g","pricing_plan_id":"free"},{"bike_id":"6e57927d-33c6-4b4e-b43d-05a8e97676cb","system_id":"levelo_inurba_marseille","lat":43.298433,"lon":5.362774,"is_reserved":false,"is_disabled":false,"rental_uris":{"android":"levelo://app?vid=6e57927d-33c6-4b4e-b43d-05a8e97676cb","ios":"levelo://app?vid=6e57927d-33c6-4b4e-b43d-05a8e97676cb"},"vehicle_type_id":"4","last_reported":1706551718,"current_range_meters":10800,"station_id":"ce4bgpp2rcd13ifvqc3g","pricing_plan_id":"free"},{"bike_id":"6dc11bcf-b192-42be-b204-e0facbade258","system_id":"levelo_inurba_marseille","lat":43.299243,"lon":5.37481,"is_reserved":false,"is_disabled":false,"rental_uris":{"android":"levelo://app?vid=6dc11bcf-b192-42be-b204-e0facbade258","ios":"levelo://app?vid=6dc11bcf-b192-42be-b204-e0facbade258"},"vehicle_type_id":"4","last_reported":1706551718,"current_range_meters":11600,"station_id":"ce4bgjh2rcd13ifvqbg0","pricing_plan_id":"free"},{"bike_id":"11276585-f17b-4b0c-9778-7880d29226f1","system_id":"levelo_inurba_marseille","lat":43.311722,"lon":5.387247,"is_reserved":false,"is_disabled":false,"rental_uris":{"android":"levelo://app?vid=11276585-f17b-4b0c-9778-7880d29226f1","ios":"levelo://app?vid=11276585-f17b-4b0c-9778-7880d29226f1"},"vehicle_type_id":"4","last_reported":1706551718,"current_range_meters":24800,"station_id":"ce4bgv12rcd13ifvqcp0","pricing_plan_id":"free"},{"bike_id":"0f204089-8036-41aa-8154-73e73ef85fae","system_id":"levelo_inurba_marseille","lat":43.31165,"lon":5.38716,"is_reserved":false,"is_disabled":false,"rental_uris":{"android":"levelo://app?vid=0f204089-8036-41aa-8154-73e73ef85fae","ios":"levelo://app?vid=0f204089-8036-41aa-8154-73e73ef85fae"},"vehicle_type_id":"4","last_reported":1706551718,"current_range_meters":0,"station_id":"ce4bgv12rcd13ifvqcp0","pricing_plan_id":"free"},{"bike_id":"bf6d7d92-c6fb-483b-962e-c72bfff71072","system_id":"levelo_inurba_marseille","lat":43.311722,"lon":5.387247,"is_reserved":false,"is_disabled":false,"rental_uris":{"android":"levelo://app?vid=bf6d7d92-c6fb-483b-962e-c72bfff71072","ios":"levelo://app?vid=bf6d7d92-c6fb-483b-962e-c72bfff71072"},"vehicle_type_id":"4","last_reported":1706551718,"current_range_meters":16800,"station_id":"ce4bgv12rcd13ifvqcp0","pricing_plan_id":"free"},{"bike_id":"9e1ad6d1-4c53-4c7a-9dc1-5845c2cadacf","system_id":"levelo_inurba_marseille","lat":43.311722,"lon":5.387247,"is_reserved":false,"is_disabled":false,"rental_uris":{"android":"levelo://app?vid=9e1ad6d1-4c53-4c7a-9dc1-5845c2cadacf","ios":"levelo://app?vid=9e1ad6d1-4c53-4c7a-9dc1-5845c2cadacf"},"vehicle_type_id":"4","last_reported":1706551718,"current_range_meters":4400,"station_id":"ce4bgv12rcd13ifvqcp0","pricing_plan_id":"free"},{"bike_id":"49bae286-3703-4036-91e7-2b22336089b9","system_id":"levelo_inurba_marseille","lat":43.311722,"lon":5.387247,"is_reserved":false,"is_disabled":false,"rental_uris":{"android":"levelo://app?vid=49bae286-3703-4036-91e7-2b22336089b9","ios":"levelo://app?vid=49bae286-3703-4036-91e7-2b22336089b9"},"vehicle_type_id":"4","last_reported":1706551718,"current_range_meters":11200,"station_id":"ce4bgv12rcd13ifvqcp0","pricing_plan_id":"free"},{"bike_id":"ecc16a4e-aa68-43b2-a249-41326e74d1fd","system_id":"levelo_inurba_marseille","lat":43.311722,"lon":5.387247,"is_reserved":false,"is_disabled":false,"rental_uris":{"android":"levelo://app?vid=ecc16a4e-aa68-43b2-a249-41326e74d1fd","ios":"levelo://app?vid=ecc16a4e-aa68-43b2-a249-41326e74d1fd"},"vehicle_type_id":"4","last_reported":1706551718,"current_range_meters":23600,"station_id":"ce4bgv12rcd13ifvqcp0","pricing_plan_id":"free"},{"bike_id":"e1539f0d-02e3-46ca-8fd2-b115fd55a782","system_id":"levelo_inurba_marseille","lat":43.322872,"lon":5.382756,"is_reserved":false,"is_disabled":false,"rental_uris":{"android":"levelo://app?vid=e1539f0d-02e3-46ca-8fd2-b115fd55a782","ios":"levelo://app?vid=e1539f0d-02e3-46ca-8fd2-b115fd55a782"},"vehicle_type_id":"4","last_reported":1706551718,"current_range_meters":19600,"station_id":"ce4bhr12rcd13ifvqhqg","pricing_plan_id":"free"},{"bike_id":"1f2b6846-b736-4c13-8e93-35bbe19944bd","system_id":"levelo_inurba_marseille","lat":43.299243,"lon":5.37481,"is_reserved":false,"is_disabled":false,"rental_uris":{"android":"levelo://app?vid=1f2b6846-b736-4c13-8e93-35bbe19944bd","ios":"levelo://app?vid=1f2b6846-b736-4c13-8e93-35bbe19944bd"},"vehicle_type_id":"4","last_reported":1706551718,"current_range_meters":12800,"station_id":"ce4bgjh2rcd13ifvqbg0","pricing_plan_id":"free"},{"bike_id":"09ec5261-6dc4-4f45-a640-bac2ae33bdc0","system_id":"levelo_inurba_marseille","lat":43.322872,"lon":5.382756,"is_reserved":false,"is_disabled":false,"rental_uris":{"android":"levelo://app?vid=09ec5261-6dc4-4f45-a640-bac2ae33bdc0","ios":"levelo://app?vid=09ec5261-6dc4-4f45-a640-bac2ae33bdc0"},"vehicle_type_id":"4","last_reported":1706551718,"current_range_meters":11200,"station_id":"ce4bhr12rcd13ifvqhqg","pricing_plan_id":"free"},{"bike_id":"4c76a369-40e2-427c-bdd2-4ff8a4634e1e","system_id":"levelo_inurba_marseille","lat":43.322872,"lon":5.382756,"is_reserved":false,"is_disabled":false,"rental_uris":{"android":"levelo://app?vid=4c76a369-40e2-427c-bdd2-4ff8a4634e1e","ios":"levelo://app?vid=4c76a369-40e2-427c-bdd2-4ff8a4634e1e"},"vehicle_type_id":"4","last_reported":1706551718,"current_range_meters":15200,"station_id":"ce4bhr12rcd13ifvqhqg","pricing_plan_id":"free"},{"bike_id":"b393d938-03e9-4493-bb59-0ad2df777920","system_id":"levelo_inurba_marseille","lat":43.322872,"lon":5.382756,"is_reserved":false,"is_disabled":false,"rental_uris":{"android":"levelo://app?vid=b393d938-03e9-4493-bb59-0ad2df777920","ios":"levelo://app?vid=b393d938-03e9-4493-bb59-0ad2df777920"},"vehicle_type_id":"4","last_reported":1706551718,"current_range_meters":13200,"station_id":"ce4bhr12rcd13ifvqhqg","pricing_plan_id":"free"},{"bike_id":"889580a8-390b-425d-ba86-1d259400af7d","system_id":"levelo_inurba_marseille","lat":43.322872,"lon":5.382756,"is_reserved":false,"is_disabled":false,"rental_uris":{"android":"levelo://app?vid=889580a8-390b-425d-ba86-1d259400af7d","ios":"levelo://app?vid=889580a8-390b-425d-ba86-1d259400af7d"},"vehicle_type_id":"4","last_reported":1706551718,"current_range_meters":28400,"station_id":"ce4bhr12rcd13ifvqhqg","pricing_plan_id":"free"},{"bike_id":"cf62d359-233b-4b18-95f1-d62d25ae2727","system_id":"levelo_inurba_marseille","lat":43.328371,"lon":5.366909,"is_reserved":false,"is_disabled":false,"rental_uris":{"android":"levelo://app?vid=cf62d359-233b-4b18-95f1-d62d25ae2727","ios":"levelo://app?vid=cf62d359-233b-4b18-95f1-d62d25ae2727"},"vehicle_type_id":"4","last_reported":1706551718,"current_range_meters":14000,"station_id":"ce4bhs92rcd13ifvqi0g","pricing_plan_id":"free"},{"bike_id":"12d7300c-7281-4d65-b928-1f4a31310a0c","system_id":"levelo_inurba_marseille","lat":43.328371,"lon":5.366909,"is_reserved":false,"is_disabled":false,"rental_uris":{"android":"levelo://app?vid=12d7300c-7281-4d65-b928-1f4a31310a0c","ios":"levelo://app?vid=12d7300c-7281-4d65-b928-1f4a31310a0c"},"vehicle_type_id":"4","last_reported":1706551718,"current_range_meters":20000,"station_id":"ce4bhs92rcd13ifvqi0g","pricing_plan_id":"free"},{"bike_id":"da669c02-ed5d-4764-a763-a0425441c3dd","system_id":"levelo_inurba_marseille","lat":43.328371,"lon":5.366909,"is_reserved":false,"is_disabled":false,"rental_uris":{"android":"levelo://app?vid=da669c02-ed5d-4764-a763-a0425441c3dd","ios":"levelo://app?vid=da669c02-ed5d-4764-a763-a0425441c3dd"},"vehicle_type_id":"4","last_reported":1706551718,"current_range_meters":22000,"station_id":"ce4bhs92rcd13ifvqi0g","pricing_plan_id":"free"},{"bike_id":"d2b97ecc-d3fe-4623-8a49-3bca3638979b","system_id":"levelo_inurba_marseille","lat":43.297794,"lon":5.370888,"is_reserved":false,"is_disabled":false,"rental_uris":{"android":"levelo://app?vid=d2b97ecc-d3fe-4623-8a49-3bca3638979b","ios":"levelo://app?vid=d2b97ecc-d3fe-4623-8a49-3bca3638979b"},"vehicle_type_id":"4","last_reported":1706551718,"current_range_meters":14800,"station_id":"ce4bgop2rcd13ifvqc1g","pricing_plan_id":"free"},{"bike_id":"9cc30769-75e2-40a7-b116-b561ec6b360f","system_id":"levelo_inurba_marseille","lat":43.32833,"lon":5.36672,"is_reserved":false,"is_disabled":false,"rental_uris":{"android":"levelo://app?vid=9cc30769-75e2-40a7-b116-b561ec6b360f","ios":"levelo://app?vid=9cc30769-75e2-40a7-b116-b561ec6b360f"},"vehicle_type_id":"4","last_reported":1706551718,"current_range_meters":2800,"station_id":"ce4bhs92rcd13ifvqi0g","pricing_plan_id":"free"},{"bike_id":"1c9d37d0-9c22-419e-afa7-1697cb75aab3","system_id":"levelo_inurba_marseille","lat":43.328371,"lon":5.366909,"is_reserved":false,"is_disabled":false,"rental_uris":{"android":"levelo://app?vid=1c9d37d0-9c22-419e-afa7-1697cb75aab3","ios":"levelo://app?vid=1c9d37d0-9c22-419e-afa7-1697cb75aab3"},"vehicle_type_id":"4","last_reported":1706551718,"current_range_meters":18000,"station_id":"ce4bhs92rcd13ifvqi0g","pricing_plan_id":"free"},{"bike_id":"486a7b4e-fb77-4275-9af6-e492c7828df7","system_id":"levelo_inurba_marseille","lat":43.295748,"lon":5.37522,"is_reserved":false,"is_disabled":false,"rental_uris":{"android":"levelo://app?vid=486a7b4e-fb77-4275-9af6-e492c7828df7","ios":"levelo://app?vid=486a7b4e-fb77-4275-9af6-e492c7828df7"},"vehicle_type_id":"4","last_reported":1706551718,"current_range_meters":2000,"station_id":"ce4bgh92rcd13ifvqb50","pricing_plan_id":"free"},{"bike_id":"e967c2a2-4189-4fe7-8e92-38307a05ce64","system_id":"levelo_inurba_marseille","lat":43.299028,"lon":5.381509,"is_reserved":false,"is_disabled":false,"rental_uris":{"android":"levelo://app?vid=e967c2a2-4189-4fe7-8e92-38307a05ce64","ios":"levelo://app?vid=e967c2a2-4189-4fe7-8e92-38307a05ce64"},"vehicle_type_id":"4","last_reported":1706551718,"current_range_meters":0,"station_id":"ce4bgj12rcd13ifvqbc0","pricing_plan_id":"free"},{"bike_id":"51ab1711-a055-40b0-b6cf-296736494fa5","system_id":"levelo_inurba_marseille","lat":43.309589,"lon":5.390258,"is_reserved":false,"is_disabled":false,"rental_uris":{"android":"levelo://app?vid=51ab1711-a055-40b0-b6cf-296736494fa5","ios":"levelo://app?vid=51ab1711-a055-40b0-b6cf-296736494fa5"},"vehicle_type_id":"4","last_reported":1706551718,"current_range_meters":9200,"station_id":"ce4bgup2rcd13ifvqco0","pricing_plan_id":"free"},{"bike_id":"0f3269ce-d5e5-41cb-973e-c850e6a105fc","system_id":"levelo_inurba_marseille","lat":43.309589,"lon":5.390258,"is_reserved":false,"is_disabled":false,"rental_uris":{"android":"levelo://app?vid=0f3269ce-d5e5-41cb-973e-c850e6a105fc","ios":"levelo://app?vid=0f3269ce-d5e5-41cb-973e-c850e6a105fc"},"vehicle_type_id":"4","last_reported":1706551718,"current_range_meters":7200,"station_id":"ce4bgup2rcd13ifvqco0","pricing_plan_id":"free"},{"bike_id":"d30a5de0-2364-44dc-8b2e-b802eab1811d","system_id":"levelo_inurba_marseille","lat":43.309589,"lon":5.390258,"is_reserved":false,"is_disabled":false,"rental_uris":{"android":"levelo://app?vid=d30a5de0-2364-44dc-8b2e-b802eab1811d","ios":"levelo://app?vid=d30a5de0-2364-44dc-8b2e-b802eab1811d"},"vehicle_type_id":"4","last_reported":1706551718,"current_range_meters":12800,"station_id":"ce4bgup2rcd13ifvqco0","pricing_plan_id":"free"},{"bike_id":"4e7b26c9-6ab7-4801-8b09-6ac03146f5cc","system_id":"levelo_inurba_marseille","lat":43.317557,"lon":5.390173,"is_reserved":false,"is_disabled":false,"rental_uris":{"android":"levelo://app?vid=4e7b26c9-6ab7-4801-8b09-6ac03146f5cc","ios":"levelo://app?vid=4e7b26c9-6ab7-4801-8b09-6ac03146f5cc"},"vehicle_type_id":"4","last_reported":1706551718,"current_range_meters":18400,"station_id":"ce4bhqp2rcd13ifvqhng","pricing_plan_id":"free"},{"bike_id":"792ca53d-a85b-4708-a86b-198a6178534c","system_id":"levelo_inurba_marseille","lat":43.317557,"lon":5.390173,"is_reserved":false,"is_disabled":false,"rental_uris":{"android":"levelo://app?vid=792ca53d-a85b-4708-a86b-198a6178534c","ios":"levelo://app?vid=792ca53d-a85b-4708-a86b-198a6178534c"},"vehicle_type_id":"4","last_reported":1706551718,"current_range_meters":18000,"station_id":"ce4bhqp2rcd13ifvqhng","pricing_plan_id":"free"},{"bike_id":"e089453b-319c-4b50-8352-cfa6bbc27328","system_id":"levelo_inurba_marseille","lat":43.317557,"lon":5.390173,"is_reserved":false,"is_disabled":false,"rental_uris":{"android":"levelo://app?vid=e089453b-319c-4b50-8352-cfa6bbc27328","ios":"levelo://app?vid=e089453b-319c-4b50-8352-cfa6bbc27328"},"vehicle_type_id":"4","last_reported":1706551718,"current_range_meters":16400,"station_id":"ce4bhqp2rcd13ifvqhng","pricing_plan_id":"free"},{"bike_id":"6a05545e-2ac2-4a73-9703-b52cadcb8b95","system_id":"levelo_inurba_marseille","lat":43.304278,"lon":5.388868,"is_reserved":false,"is_disabled":false,"rental_uris":{"android":"levelo://app?vid=6a05545e-2ac2-4a73-9703-b52cadcb8b95","ios":"levelo://app?vid=6a05545e-2ac2-4a73-9703-b52cadcb8b95"},"vehicle_type_id":"4","last_reported":1706551718,"current_range_meters":9200,"station_id":"ce4bgk12rcd13ifvqbi0","pricing_plan_id":"free"},{"bike_id":"f7c57630-a73e-4f4d-b63e-aa68cdf2297d","system_id":"levelo_inurba_marseille","lat":43.298037,"lon":5.381066,"is_reserved":false,"is_disabled":false,"rental_uris":{"android":"levelo://app?vid=f7c57630-a73e-4f4d-b63e-aa68cdf2297d","ios":"levelo://app?vid=f7c57630-a73e-4f4d-b63e-aa68cdf2297d"},"vehicle_type_id":"4","last_reported":1706551718,"current_range_meters":18800,"station_id":"ce4bgip2rcd13ifvqbb0","pricing_plan_id":"free"},{"bike_id":"8cf312e4-82b2-4029-856f-06afa7a7b3d6","system_id":"levelo_inurba_marseille","lat":43.295748,"lon":5.37522,"is_reserved":false,"is_disabled":false,"rental_uris":{"android":"levelo://app?vid=8cf312e4-82b2-4029-856f-06afa7a7b3d6","ios":"levelo://app?vid=8cf312e4-82b2-4029-856f-06afa7a7b3d6"},"vehicle_type_id":"4","last_reported":1706551718,"current_range_meters":10400,"station_id":"ce4bgh92rcd13ifvqb50","pricing_plan_id":"free"},{"bike_id":"4dacac65-7c45-445d-96c7-f4052d44b6f8","system_id":"levelo_inurba_marseille","lat":43.30439,"lon":5.38892,"is_reserved":false,"is_disabled":false,"rental_uris":{"android":"levelo://app?vid=4dacac65-7c45-445d-96c7-f4052d44b6f8","ios":"levelo://app?vid=4dacac65-7c45-445d-96c7-f4052d44b6f8"},"vehicle_type_id":"4","last_reported":1706551718,"current_range_meters":8000,"station_id":"ce4bgk12rcd13ifvqbi0","pricing_plan_id":"free"},{"bike_id":"df518589-4ae9-4e55-9423-8bfacb77a141","system_id":"levelo_inurba_marseille","lat":43.304274,"lon":5.388873,"is_reserved":false,"is_disabled":false,"rental_uris":{"android":"levelo://app?vid=df518589-4ae9-4e55-9423-8bfacb77a141","ios":"levelo://app?vid=df518589-4ae9-4e55-9423-8bfacb77a141"},"vehicle_type_id":"4","last_reported":1706551718,"current_range_meters":28000,"station_id":"ce4bgk12rcd13ifvqbi0","pricing_plan_id":"free"},{"bike_id":"11774811-71ac-4a3b-90a1-50bda41dfa74","system_id":"levelo_inurba_marseille","lat":43.29787,"lon":5.381046,"is_reserved":false,"is_disabled":false,"rental_uris":{"android":"levelo://app?vid=11774811-71ac-4a3b-90a1-50bda41dfa74","ios":"levelo://app?vid=11774811-71ac-4a3b-90a1-50bda41dfa74"},"vehicle_type_id":"4","last_reported":1706551718,"current_range_meters":0,"station_id":"ce4bgip2rcd13ifvqbb0","pricing_plan_id":"free"},{"bike_id":"e70a95ff-e717-4ea2-bb59-73aeefdeeb52","system_id":"levelo_inurba_marseille","lat":43.30435,"lon":5.38897,"is_reserved":false,"is_disabled":false,"rental_uris":{"android":"levelo://app?vid=e70a95ff-e717-4ea2-bb59-73aeefdeeb52","ios":"levelo://app?vid=e70a95ff-e717-4ea2-bb59-73aeefdeeb52"},"vehicle_type_id":"4","last_reported":1706551718,"current_range_meters":15200,"station_id":"ce4bgk12rcd13ifvqbi0","pricing_plan_id":"free"},{"bike_id":"b252e5b5-7f32-439d-8fc0-ece451f4bb89","system_id":"levelo_inurba_marseille","lat":43.29625,"lon":5.37728,"is_reserved":false,"is_disabled":false,"rental_uris":{"android":"levelo://app?vid=b252e5b5-7f32-439d-8fc0-ece451f4bb89","ios":"levelo://app?vid=b252e5b5-7f32-439d-8fc0-ece451f4bb89"},"vehicle_type_id":"4","last_reported":1706551718,"current_range_meters":0,"station_id":"ce4bgi92rcd13ifvqb90","pricing_plan_id":"free"},{"bike_id":"86d23395-f216-49ff-9096-39f53bb16add","system_id":"levelo_inurba_marseille","lat":43.298037,"lon":5.381066,"is_reserved":false,"is_disabled":false,"rental_uris":{"android":"levelo://app?vid=86d23395-f216-49ff-9096-39f53bb16add","ios":"levelo://app?vid=86d23395-f216-49ff-9096-39f53bb16add"},"vehicle_type_id":"4","last_reported":1706551718,"current_range_meters":22800,"station_id":"ce4bgip2rcd13ifvqbb0","pricing_plan_id":"free"},{"bike_id":"234c7f8e-263d-49b4-b691-ed09e8f1c7fe","system_id":"levelo_inurba_marseille","lat":43.298037,"lon":5.381066,"is_reserved":false,"is_disabled":false,"rental_uris":{"android":"levelo://app?vid=234c7f8e-263d-49b4-b691-ed09e8f1c7fe","ios":"levelo://app?vid=234c7f8e-263d-49b4-b691-ed09e8f1c7fe"},"vehicle_type_id":"4","last_reported":1706551718,"current_range_meters":800,"station_id":"ce4bgip2rcd13ifvqbb0","pricing_plan_id":"free"},{"bike_id":"26534e01-f72c-46f6-8bfc-8b9284d8db27","system_id":"levelo_inurba_marseille","lat":43.29979,"lon":5.38491,"is_reserved":false,"is_disabled":false,"rental_uris":{"android":"levelo://app?vid=26534e01-f72c-46f6-8bfc-8b9284d8db27","ios":"levelo://app?vid=26534e01-f72c-46f6-8bfc-8b9284d8db27"},"vehicle_type_id":"4","last_reported":1706551718,"current_range_meters":0,"station_id":"ce4bgj92rcd13ifvqbd0","pricing_plan_id":"free"},{"bike_id":"46b09eed-5e22-4e7c-a430-9694b47db813","system_id":"levelo_inurba_marseille","lat":43.29531,"lon":5.37511,"is_reserved":false,"is_disabled":false,"rental_uris":{"android":"levelo://app?vid=46b09eed-5e22-4e7c-a430-9694b47db813","ios":"levelo://app?vid=46b09eed-5e22-4e7c-a430-9694b47db813"},"vehicle_type_id":"4","last_reported":1706551718,"current_range_meters":5600,"station_id":"ce4bgkp2rcd13ifvqbmg","pricing_plan_id":"free"},{"bike_id":"112fad80-5a00-44e0-ba8b-fba985f1631a","system_id":"levelo_inurba_marseille","lat":43.299717,"lon":5.384845,"is_reserved":false,"is_disabled":false,"rental_uris":{"android":"levelo://app?vid=112fad80-5a00-44e0-ba8b-fba985f1631a","ios":"levelo://app?vid=112fad80-5a00-44e0-ba8b-fba985f1631a"},"vehicle_type_id":"4","last_reported":1706551718,"current_range_meters":13200,"station_id":"ce4bgj92rcd13ifvqbd0","pricing_plan_id":"free"},{"bike_id":"8b785fc3-9085-44d7-8d05-9e9361e2492f","system_id":"levelo_inurba_marseille","lat":43.295279,"lon":5.375048,"is_reserved":false,"is_disabled":false,"rental_uris":{"android":"levelo://app?vid=8b785fc3-9085-44d7-8d05-9e9361e2492f","ios":"levelo://app?vid=8b785fc3-9085-44d7-8d05-9e9361e2492f"},"vehicle_type_id":"4","last_reported":1706551718,"current_range_meters":7200,"station_id":"ce4bgkp2rcd13ifvqbmg","pricing_plan_id":"free"},{"bike_id":"6ec47ea6-9740-470e-97a1-e3a593cb9264","system_id":"levelo_inurba_marseille","lat":43.299717,"lon":5.384845,"is_reserved":false,"is_disabled":false,"rental_uris":{"android":"levelo://app?vid=6ec47ea6-9740-470e-97a1-e3a593cb9264","ios":"levelo://app?vid=6ec47ea6-9740-470e-97a1-e3a593cb9264"},"vehicle_type_id":"4","last_reported":1706551718,"current_range_meters":1200,"station_id":"ce4bgj92rcd13ifvqbd0","pricing_plan_id":"free"},{"bike_id":"36f56311-f07b-4d50-8358-58bde14085dd","system_id":"levelo_inurba_marseille","lat":43.299724,"lon":5.384848,"is_reserved":false,"is_disabled":false,"rental_uris":{"android":"levelo://app?vid=36f56311-f07b-4d50-8358-58bde14085dd","ios":"levelo://app?vid=36f56311-f07b-4d50-8358-58bde14085dd"},"vehicle_type_id":"4","last_reported":1706551718,"current_range_meters":24800,"station_id":"ce4bgj92rcd13ifvqbd0","pricing_plan_id":"free"},{"bike_id":"ec6ebdb6-369e-44ae-bc9d-e190c314d25c","system_id":"levelo_inurba_marseille","lat":43.299753,"lon":5.384955,"is_reserved":false,"is_disabled":false,"rental_uris":{"android":"levelo://app?vid=ec6ebdb6-369e-44ae-bc9d-e190c314d25c","ios":"levelo://app?vid=ec6ebdb6-369e-44ae-bc9d-e190c314d25c"},"vehicle_type_id":"4","last_reported":1706551718,"current_range_meters":0,"station_id":"ce4bgj92rcd13ifvqbd0","pricing_plan_id":"free"},{"bike_id":"ddbe3439-f2a6-4107-bc82-804b234c2abd","system_id":"levelo_inurba_marseille","lat":43.29969,"lon":5.38489,"is_reserved":false,"is_disabled":false,"rental_uris":{"android":"levelo://app?vid=ddbe3439-f2a6-4107-bc82-804b234c2abd","ios":"levelo://app?vid=ddbe3439-f2a6-4107-bc82-804b234c2abd"},"vehicle_type_id":"4","last_reported":1706551718,"current_range_meters":4800,"station_id":"ce4bgj92rcd13ifvqbd0","pricing_plan_id":"free"},{"bike_id":"3916c5ff-285a-4002-a85e-b2142113f8ae","system_id":"levelo_inurba_marseille","lat":43.299717,"lon":5.384845,"is_reserved":false,"is_disabled":false,"rental_uris":{"android":"levelo://app?vid=3916c5ff-285a-4002-a85e-b2142113f8ae","ios":"levelo://app?vid=3916c5ff-285a-4002-a85e-b2142113f8ae"},"vehicle_type_id":"4","last_reported":1706551718,"current_range_meters":4400,"station_id":"ce4bgj92rcd13ifvqbd0","pricing_plan_id":"free"},{"bike_id":"20377827-eb1b-44d5-8167-f65cdeccd606","system_id":"levelo_inurba_marseille","lat":43.299724,"lon":5.371829,"is_reserved":false,"is_disabled":false,"rental_uris":{"android":"levelo://app?vid=20377827-eb1b-44d5-8167-f65cdeccd606","ios":"levelo://app?vid=20377827-eb1b-44d5-8167-f65cdeccd606"},"vehicle_type_id":"4","last_reported":1706551718,"current_range_meters":0,"station_id":"ce4bgr92rcd13ifvqc7g","pricing_plan_id":"free"},{"bike_id":"ae2aacfe-9a4b-47a7-96fe-39bb56cac4c0","system_id":"levelo_inurba_marseille","lat":43.295279,"lon":5.375048,"is_reserved":false,"is_disabled":false,"rental_uris":{"android":"levelo://app?vid=ae2aacfe-9a4b-47a7-96fe-39bb56cac4c0","ios":"levelo://app?vid=ae2aacfe-9a4b-47a7-96fe-39bb56cac4c0"},"vehicle_type_id":"4","last_reported":1706551718,"current_range_meters":5200,"station_id":"ce4bgkp2rcd13ifvqbmg","pricing_plan_id":"free"},{"bike_id":"9048d58e-049e-440f-a2bf-a33603289161","system_id":"levelo_inurba_marseille","lat":43.299724,"lon":5.384848,"is_reserved":false,"is_disabled":false,"rental_uris":{"android":"levelo://app?vid=9048d58e-049e-440f-a2bf-a33603289161","ios":"levelo://app?vid=9048d58e-049e-440f-a2bf-a33603289161"},"vehicle_type_id":"4","last_reported":1706551718,"current_range_meters":9600,"station_id":"ce4bgj92rcd13ifvqbd0","pricing_plan_id":"free"},{"bike_id":"de25d637-84ec-4203-b892-3e1c2d7c4ddb","system_id":"levelo_inurba_marseille","lat":43.33174,"lon":5.36449,"is_reserved":false,"is_disabled":false,"rental_uris":{"android":"levelo://app?vid=de25d637-84ec-4203-b892-3e1c2d7c4ddb","ios":"levelo://app?vid=de25d637-84ec-4203-b892-3e1c2d7c4ddb"},"vehicle_type_id":"4","last_reported":1706551718,"current_range_meters":16000,"station_id":"","pricing_plan_id":"free"},{"bike_id":"12dd9e47-1ac3-44a4-b056-e02bc32175a7","system_id":"levelo_inurba_marseille","lat":43.32365,"lon":5.38876,"is_reserved":false,"is_disabled":false,"rental_uris":{"android":"levelo://app?vid=12dd9e47-1ac3-44a4-b056-e02bc32175a7","ios":"levelo://app?vid=12dd9e47-1ac3-44a4-b056-e02bc32175a7"},"vehicle_type_id":"4","last_reported":1706551718,"current_range_meters":29600,"station_id":"ce4bhqp2rcd13ifvqhog","pricing_plan_id":"free"},{"bike_id":"25e224de-8b9c-45ce-8303-81296717e208","system_id":"levelo_inurba_marseille","lat":43.32366,"lon":5.38882,"is_reserved":false,"is_disabled":false,"rental_uris":{"android":"levelo://app?vid=25e224de-8b9c-45ce-8303-81296717e208","ios":"levelo://app?vid=25e224de-8b9c-45ce-8303-81296717e208"},"vehicle_type_id":"4","last_reported":1706551718,"current_range_meters":6400,"station_id":"ce4bhqp2rcd13ifvqhog","pricing_plan_id":"free"},{"bike_id":"e3ab5b93-4cf8-47e0-822f-32a1aa3f31c0","system_id":"levelo_inurba_marseille","lat":43.29601,"lon":5.381084,"is_reserved":false,"is_disabled":false,"rental_uris":{"android":"levelo://app?vid=e3ab5b93-4cf8-47e0-822f-32a1aa3f31c0","ios":"levelo://app?vid=e3ab5b93-4cf8-47e0-822f-32a1aa3f31c0"},"vehicle_type_id":"4","last_reported":1706551718,"current_range_meters":2800,"station_id":"ce4bgl12rcd13ifvqbo0","pricing_plan_id":"free"},{"bike_id":"105762fc-0ccd-4048-8fdd-0ac3ec92bd8b","system_id":"levelo_inurba_marseille","lat":43.29602,"lon":5.381084,"is_reserved":false,"is_disabled":false,"rental_uris":{"android":"levelo://app?vid=105762fc-0ccd-4048-8fdd-0ac3ec92bd8b","ios":"levelo://app?vid=105762fc-0ccd-4048-8fdd-0ac3ec92bd8b"},"vehicle_type_id":"4","last_reported":1706551718,"current_range_meters":24800,"station_id":"ce4bgl12rcd13ifvqbo0","pricing_plan_id":"free"},{"bike_id":"d686f5e5-7b6d-44b2-840e-60a0dbc4cd8b","system_id":"levelo_inurba_marseille","lat":43.303002,"lon":5.392142,"is_reserved":false,"is_disabled":false,"rental_uris":{"android":"levelo://app?vid=d686f5e5-7b6d-44b2-840e-60a0dbc4cd8b","ios":"levelo://app?vid=d686f5e5-7b6d-44b2-840e-60a0dbc4cd8b"},"vehicle_type_id":"4","last_reported":1706551718,"current_range_meters":2800,"station_id":"ce4bgkh2rcd13ifvqbk0","pricing_plan_id":"free"},{"bike_id":"8385f63b-6a6f-481a-90e5-cd2b103f850f","system_id":"levelo_inurba_marseille","lat":43.302992,"lon":5.392136,"is_reserved":false,"is_disabled":false,"rental_uris":{"android":"levelo://app?vid=8385f63b-6a6f-481a-90e5-cd2b103f850f","ios":"levelo://app?vid=8385f63b-6a6f-481a-90e5-cd2b103f850f"},"vehicle_type_id":"4","last_reported":1706551718,"current_range_meters":10800,"station_id":"ce4bgkh2rcd13ifvqbk0","pricing_plan_id":"free"},{"bike_id":"3b4dea3f-3e3f-4a75-aec9-358003468d22","system_id":"levelo_inurba_marseille","lat":43.30093,"lon":5.390825,"is_reserved":false,"is_disabled":false,"rental_uris":{"android":"levelo://app?vid=3b4dea3f-3e3f-4a75-aec9-358003468d22","ios":"levelo://app?vid=3b4dea3f-3e3f-4a75-aec9-358003468d22"},"vehicle_type_id":"4","last_reported":1706551718,"current_range_meters":14000,"station_id":"ce4bh192rcd13ifvqdb0","pricing_plan_id":"free"},{"bike_id":"5246b5f7-07aa-43d8-8982-3da78f803863","system_id":"levelo_inurba_marseille","lat":43.30097,"lon":5.39089,"is_reserved":false,"is_disabled":false,"rental_uris":{"android":"levelo://app?vid=5246b5f7-07aa-43d8-8982-3da78f803863","ios":"levelo://app?vid=5246b5f7-07aa-43d8-8982-3da78f803863"},"vehicle_type_id":"4","last_reported":1706551718,"current_range_meters":0,"station_id":"","pricing_plan_id":"free"},{"bike_id":"91d79d03-a9ac-4b4f-b050-9f5225b0e947","system_id":"levelo_inurba_marseille","lat":43.283998,"lon":5.375062,"is_reserved":false,"is_disabled":false,"rental_uris":{"android":"levelo://app?vid=91d79d03-a9ac-4b4f-b050-9f5225b0e947","ios":"levelo://app?vid=91d79d03-a9ac-4b4f-b050-9f5225b0e947"},"vehicle_type_id":"4","last_reported":1706551718,"current_range_meters":19200,"station_id":"ce4bh412rcd13ifvqds0","pricing_plan_id":"free"},{"bike_id":"408a3134-c2df-4744-88d7-aa3682f32ca8","system_id":"levelo_inurba_marseille","lat":43.292644,"lon":5.384257,"is_reserved":false,"is_disabled":false,"rental_uris":{"android":"levelo://app?vid=408a3134-c2df-4744-88d7-aa3682f32ca8","ios":"levelo://app?vid=408a3134-c2df-4744-88d7-aa3682f32ca8"},"vehicle_type_id":"4","last_reported":1706551718,"current_range_meters":6000,"station_id":"ce4bh692rcd13ifvqea0","pricing_plan_id":"free"},{"bike_id":"549987e8-113c-47c5-8db5-ccc67718b8a9","system_id":"levelo_inurba_marseille","lat":43.291675,"lon":5.371583,"is_reserved":false,"is_disabled":false,"rental_uris":{"android":"levelo://app?vid=549987e8-113c-47c5-8db5-ccc67718b8a9","ios":"levelo://app?vid=549987e8-113c-47c5-8db5-ccc67718b8a9"},"vehicle_type_id":"4","last_reported":1706551718,"current_range_meters":1200,"station_id":"ce4bha92rcd13ifvqeh0","pricing_plan_id":"free"},{"bike_id":"bfa7672a-7613-4e17-8fdc-9a87244753f0","system_id":"levelo_inurba_marseille","lat":43.309038,"lon":5.396546,"is_reserved":false,"is_disabled":false,"rental_uris":{"android":"levelo://app?vid=bfa7672a-7613-4e17-8fdc-9a87244753f0","ios":"levelo://app?vid=bfa7672a-7613-4e17-8fdc-9a87244753f0"},"vehicle_type_id":"4","last_reported":1706551718,"current_range_meters":0,"station_id":"ce4bh012rcd13ifvqcv0","pricing_plan_id":"free"},{"bike_id":"62fad4f8-64f0-43fd-a4a8-ab110b704d51","system_id":"levelo_inurba_marseille","lat":43.298764,"lon":5.388973,"is_reserved":false,"is_disabled":false,"rental_uris":{"android":"levelo://app?vid=62fad4f8-64f0-43fd-a4a8-ab110b704d51","ios":"levelo://app?vid=62fad4f8-64f0-43fd-a4a8-ab110b704d51"},"vehicle_type_id":"4","last_reported":1706551718,"current_range_meters":9200,"station_id":"ce4bh392rcd13ifvqdl0","pricing_plan_id":"free"},{"bike_id":"f3a01e4c-1943-47ce-9cf6-390519327942","system_id":"levelo_inurba_marseille","lat":43.291994,"lon":5.357886,"is_reserved":false,"is_disabled":false,"rental_uris":{"android":"levelo://app?vid=f3a01e4c-1943-47ce-9cf6-390519327942","ios":"levelo://app?vid=f3a01e4c-1943-47ce-9cf6-390519327942"},"vehicle_type_id":"4","last_reported":1706551718,"current_range_meters":0,"station_id":"ce4bhb12rcd13ifvqel0","pricing_plan_id":"free"},{"bike_id":"58abfaf0-9b00-4fb3-8037-d937dc0d9d18","system_id":"levelo_inurba_marseille","lat":43.309038,"lon":5.396546,"is_reserved":false,"is_disabled":false,"rental_uris":{"android":"levelo://app?vid=58abfaf0-9b00-4fb3-8037-d937dc0d9d18","ios":"levelo://app?vid=58abfaf0-9b00-4fb3-8037-d937dc0d9d18"},"vehicle_type_id":"4","last_reported":1706551718,"current_range_meters":31600,"station_id":"ce4bh012rcd13ifvqcv0","pricing_plan_id":"free"},{"bike_id":"b889ce7b-5794-477c-9733-1d4127c31207","system_id":"levelo_inurba_marseille","lat":43.298764,"lon":5.388973,"is_reserved":false,"is_disabled":false,"rental_uris":{"android":"levelo://app?vid=b889ce7b-5794-477c-9733-1d4127c31207","ios":"levelo://app?vid=b889ce7b-5794-477c-9733-1d4127c31207"},"vehicle_type_id":"4","last_reported":1706551718,"current_range_meters":19200,"station_id":"ce4bh392rcd13ifvqdl0","pricing_plan_id":"free"},{"bike_id":"f01ba673-8744-4ddc-b04e-b482ea23aed0","system_id":"levelo_inurba_marseille","lat":43.309038,"lon":5.396546,"is_reserved":false,"is_disabled":false,"rental_uris":{"android":"levelo://app?vid=f01ba673-8744-4ddc-b04e-b482ea23aed0","ios":"levelo://app?vid=f01ba673-8744-4ddc-b04e-b482ea23aed0"},"vehicle_type_id":"4","last_reported":1706551718,"current_range_meters":25200,"station_id":"ce4bh012rcd13ifvqcv0","pricing_plan_id":"free"},{"bike_id":"2b9c6f9e-3706-4447-bf40-c81e83ff61a2","system_id":"levelo_inurba_marseille","lat":43.313291,"lon":5.396838,"is_reserved":false,"is_disabled":false,"rental_uris":{"android":"levelo://app?vid=2b9c6f9e-3706-4447-bf40-c81e83ff61a2","ios":"levelo://app?vid=2b9c6f9e-3706-4447-bf40-c81e83ff61a2"},"vehicle_type_id":"4","last_reported":1706551718,"current_range_meters":0,"station_id":"ce4bgvp2rcd13ifvqcu0","pricing_plan_id":"free"},{"bike_id":"f53485f9-f98f-46e0-b0ca-bab93f000b79","system_id":"levelo_inurba_marseille","lat":43.31328,"lon":5.3969,"is_reserved":false,"is_disabled":false,"rental_uris":{"android":"levelo://app?vid=f53485f9-f98f-46e0-b0ca-bab93f000b79","ios":"levelo://app?vid=f53485f9-f98f-46e0-b0ca-bab93f000b79"},"vehicle_type_id":"4","last_reported":1706551718,"current_range_meters":20400,"station_id":"ce4bgvp2rcd13ifvqcu0","pricing_plan_id":"free"},{"bike_id":"c07daf04-e21b-4f24-a83e-49b9ec655b9c","system_id":"levelo_inurba_marseille","lat":43.309038,"lon":5.396546,"is_reserved":false,"is_disabled":false,"rental_uris":{"android":"levelo://app?vid=c07daf04-e21b-4f24-a83e-49b9ec655b9c","ios":"levelo://app?vid=c07daf04-e21b-4f24-a83e-49b9ec655b9c"},"vehicle_type_id":"4","last_reported":1706551718,"current_range_meters":31600,"station_id":"ce4bh012rcd13ifvqcv0","pricing_plan_id":"free"},{"bike_id":"d485ecf2-367c-43a1-b72b-feb3e4b25e11","system_id":"levelo_inurba_marseille","lat":43.31332,"lon":5.39691,"is_reserved":false,"is_disabled":false,"rental_uris":{"android":"levelo://app?vid=d485ecf2-367c-43a1-b72b-feb3e4b25e11","ios":"levelo://app?vid=d485ecf2-367c-43a1-b72b-feb3e4b25e11"},"vehicle_type_id":"4","last_reported":1706551718,"current_range_meters":18000,"station_id":"ce4bgvp2rcd13ifvqcu0","pricing_plan_id":"free"},{"bike_id":"0c9e817e-c7c8-48a7-a32d-61161f33e401","system_id":"levelo_inurba_marseille","lat":43.31332,"lon":5.39691,"is_reserved":false,"is_disabled":false,"rental_uris":{"android":"levelo://app?vid=0c9e817e-c7c8-48a7-a32d-61161f33e401","ios":"levelo://app?vid=0c9e817e-c7c8-48a7-a32d-61161f33e401"},"vehicle_type_id":"4","last_reported":1706551718,"current_range_meters":15200,"station_id":"","pricing_plan_id":"free"},{"bike_id":"f5e7ae9a-d3e2-40d7-b6a6-13962af8917f","system_id":"levelo_inurba_marseille","lat":43.313275,"lon":5.396925,"is_reserved":false,"is_disabled":false,"rental_uris":{"android":"levelo://app?vid=f5e7ae9a-d3e2-40d7-b6a6-13962af8917f","ios":"levelo://app?vid=f5e7ae9a-d3e2-40d7-b6a6-13962af8917f"},"vehicle_type_id":"4","last_reported":1706551718,"current_range_meters":27600,"station_id":"ce4bgvp2rcd13ifvqcu0","pricing_plan_id":"free"},{"bike_id":"05342dcd-fa39-4a3d-8efe-7144b2b91637","system_id":"levelo_inurba_marseille","lat":43.313291,"lon":5.396838,"is_reserved":false,"is_disabled":false,"rental_uris":{"android":"levelo://app?vid=05342dcd-fa39-4a3d-8efe-7144b2b91637","ios":"levelo://app?vid=05342dcd-fa39-4a3d-8efe-7144b2b91637"},"vehicle_type_id":"4","last_reported":1706551718,"current_range_meters":31600,"station_id":"ce4bgvp2rcd13ifvqcu0","pricing_plan_id":"free"},{"bike_id":"fb17a4ee-4e95-46e3-a3ad-8113320125a8","system_id":"levelo_inurba_marseille","lat":43.313291,"lon":5.396838,"is_reserved":false,"is_disabled":false,"rental_uris":{"android":"levelo://app?vid=fb17a4ee-4e95-46e3-a3ad-8113320125a8","ios":"levelo://app?vid=fb17a4ee-4e95-46e3-a3ad-8113320125a8"},"vehicle_type_id":"4","last_reported":1706551718,"current_range_meters":17200,"station_id":"ce4bgvp2rcd13ifvqcu0","pricing_plan_id":"free"},{"bike_id":"b36fd92c-f2dc-4b9f-b79f-68b10cd4ccd8","system_id":"levelo_inurba_marseille","lat":43.31325,"lon":5.39694,"is_reserved":false,"is_disabled":false,"rental_uris":{"android":"levelo://app?vid=b36fd92c-f2dc-4b9f-b79f-68b10cd4ccd8","ios":"levelo://app?vid=b36fd92c-f2dc-4b9f-b79f-68b10cd4ccd8"},"vehicle_type_id":"4","last_reported":1706551718,"current_range_meters":15200,"station_id":"ce4bgvp2rcd13ifvqcu0","pricing_plan_id":"free"},{"bike_id":"067a3f54-cdb1-4351-888c-7235aaac275f","system_id":"levelo_inurba_marseille","lat":43.313291,"lon":5.396838,"is_reserved":false,"is_disabled":false,"rental_uris":{"android":"levelo://app?vid=067a3f54-cdb1-4351-888c-7235aaac275f","ios":"levelo://app?vid=067a3f54-cdb1-4351-888c-7235aaac275f"},"vehicle_type_id":"4","last_reported":1706551718,"current_range_meters":10800,"station_id":"ce4bgvp2rcd13ifvqcu0","pricing_plan_id":"free"},{"bike_id":"a98330eb-a9a0-4a2e-a8a3-4dd1858a8ab0","system_id":"levelo_inurba_marseille","lat":43.313291,"lon":5.396838,"is_reserved":false,"is_disabled":false,"rental_uris":{"android":"levelo://app?vid=a98330eb-a9a0-4a2e-a8a3-4dd1858a8ab0","ios":"levelo://app?vid=a98330eb-a9a0-4a2e-a8a3-4dd1858a8ab0"},"vehicle_type_id":"4","last_reported":1706551718,"current_range_meters":0,"station_id":"ce4bgvp2rcd13ifvqcu0","pricing_plan_id":"free"},{"bike_id":"2ba9c382-4c2a-41d5-a599-588cca805834","system_id":"levelo_inurba_marseille","lat":43.313291,"lon":5.396838,"is_reserved":false,"is_disabled":false,"rental_uris":{"android":"levelo://app?vid=2ba9c382-4c2a-41d5-a599-588cca805834","ios":"levelo://app?vid=2ba9c382-4c2a-41d5-a599-588cca805834"},"vehicle_type_id":"4","last_reported":1706551718,"current_range_meters":11200,"station_id":"ce4bgvp2rcd13ifvqcu0","pricing_plan_id":"free"},{"bike_id":"cc52c09c-7a69-4db8-8458-5524e6df3151","system_id":"levelo_inurba_marseille","lat":43.31324,"lon":5.39699,"is_reserved":false,"is_disabled":false,"rental_uris":{"android":"levelo://app?vid=cc52c09c-7a69-4db8-8458-5524e6df3151","ios":"levelo://app?vid=cc52c09c-7a69-4db8-8458-5524e6df3151"},"vehicle_type_id":"4","last_reported":1706551718,"current_range_meters":10400,"station_id":"ce4bgvp2rcd13ifvqcu0","pricing_plan_id":"free"},{"bike_id":"9ff86a96-fd20-486d-b875-86f908f0d73a","system_id":"levelo_inurba_marseille","lat":43.309038,"lon":5.396546,"is_reserved":false,"is_disabled":false,"rental_uris":{"android":"levelo://app?vid=9ff86a96-fd20-486d-b875-86f908f0d73a","ios":"levelo://app?vid=9ff86a96-fd20-486d-b875-86f908f0d73a"},"vehicle_type_id":"4","last_reported":1706551718,"current_range_meters":0,"station_id":"ce4bh012rcd13ifvqcv0","pricing_plan_id":"free"},{"bike_id":"3d92389c-d90c-4b42-981f-6ee300ebfcfa","system_id":"levelo_inurba_marseille","lat":43.309038,"lon":5.396546,"is_reserved":false,"is_disabled":false,"rental_uris":{"android":"levelo://app?vid=3d92389c-d90c-4b42-981f-6ee300ebfcfa","ios":"levelo://app?vid=3d92389c-d90c-4b42-981f-6ee300ebfcfa"},"vehicle_type_id":"4","last_reported":1706551718,"current_range_meters":12400,"station_id":"ce4bh012rcd13ifvqcv0","pricing_plan_id":"free"},{"bike_id":"f17e3cc8-695b-4fcb-a4c2-51d5477f1cf5","system_id":"levelo_inurba_marseille","lat":43.309038,"lon":5.396546,"is_reserved":false,"is_disabled":false,"rental_uris":{"android":"levelo://app?vid=f17e3cc8-695b-4fcb-a4c2-51d5477f1cf5","ios":"levelo://app?vid=f17e3cc8-695b-4fcb-a4c2-51d5477f1cf5"},"vehicle_type_id":"4","last_reported":1706551718,"current_range_meters":9200,"station_id":"ce4bh012rcd13ifvqcv0","pricing_plan_id":"free"},{"bike_id":"82aac62b-717b-4064-92b1-aed2b5e26911","system_id":"levelo_inurba_marseille","lat":43.29536,"lon":5.3855,"is_reserved":false,"is_disabled":false,"rental_uris":{"android":"levelo://app?vid=82aac62b-717b-4064-92b1-aed2b5e26911","ios":"levelo://app?vid=82aac62b-717b-4064-92b1-aed2b5e26911"},"vehicle_type_id":"4","last_reported":1706551718,"current_range_meters":0,"station_id":"ce4bgih2rcd13ifvqba0","pricing_plan_id":"free"},{"bike_id":"1d35432d-80ed-4301-8896-7b17e7619688","system_id":"levelo_inurba_marseille","lat":43.29529,"lon":5.385581,"is_reserved":false,"is_disabled":false,"rental_uris":{"android":"levelo://app?vid=1d35432d-80ed-4301-8896-7b17e7619688","ios":"levelo://app?vid=1d35432d-80ed-4301-8896-7b17e7619688"},"vehicle_type_id":"4","last_reported":1706551718,"current_range_meters":1200,"station_id":"ce4bgih2rcd13ifvqba0","pricing_plan_id":"free"},{"bike_id":"60f1cf31-39c9-48e4-a389-3f64a40a8605","system_id":"levelo_inurba_marseille","lat":43.290624,"lon":5.359245,"is_reserved":false,"is_disabled":false,"rental_uris":{"android":"levelo://app?vid=60f1cf31-39c9-48e4-a389-3f64a40a8605","ios":"levelo://app?vid=60f1cf31-39c9-48e4-a389-3f64a40a8605"},"vehicle_type_id":"4","last_reported":1706551718,"current_range_meters":1600,"station_id":"ce4bha92rcd13ifvqeg0","pricing_plan_id":"free"},{"bike_id":"58b03b76-67bc-4333-bab9-427da0f7bd35","system_id":"levelo_inurba_marseille","lat":43.30216,"lon":5.3947,"is_reserved":false,"is_disabled":false,"rental_uris":{"android":"levelo://app?vid=58b03b76-67bc-4333-bab9-427da0f7bd35","ios":"levelo://app?vid=58b03b76-67bc-4333-bab9-427da0f7bd35"},"vehicle_type_id":"4","last_reported":1706551718,"current_range_meters":3600,"station_id":"ce4bh0p2rcd13ifvqd70","pricing_plan_id":"free"},{"bike_id":"c3785a8d-4dc0-42b2-a6b6-19b42eedbc45","system_id":"levelo_inurba_marseille","lat":43.290631,"lon":5.359244,"is_reserved":false,"is_disabled":false,"rental_uris":{"android":"levelo://app?vid=c3785a8d-4dc0-42b2-a6b6-19b42eedbc45","ios":"levelo://app?vid=c3785a8d-4dc0-42b2-a6b6-19b42eedbc45"},"vehicle_type_id":"4","last_reported":1706551718,"current_range_meters":20000,"station_id":"ce4bha92rcd13ifvqeg0","pricing_plan_id":"free"},{"bike_id":"fce8f618-1868-46f4-afa5-fee6450bcf1b","system_id":"levelo_inurba_marseille","lat":43.302008,"lon":5.394694,"is_reserved":false,"is_disabled":false,"rental_uris":{"android":"levelo://app?vid=fce8f618-1868-46f4-afa5-fee6450bcf1b","ios":"levelo://app?vid=fce8f618-1868-46f4-afa5-fee6450bcf1b"},"vehicle_type_id":"4","last_reported":1706551718,"current_range_meters":22000,"station_id":"ce4bh0p2rcd13ifvqd70","pricing_plan_id":"free"},{"bike_id":"1bb7c3c0-5b1d-4f3b-a883-601465374af8","system_id":"levelo_inurba_marseille","lat":43.290624,"lon":5.359245,"is_reserved":false,"is_disabled":false,"rental_uris":{"android":"levelo://app?vid=1bb7c3c0-5b1d-4f3b-a883-601465374af8","ios":"levelo://app?vid=1bb7c3c0-5b1d-4f3b-a883-601465374af8"},"vehicle_type_id":"4","last_reported":1706551718,"current_range_meters":19200,"station_id":"ce4bha92rcd13ifvqeg0","pricing_plan_id":"free"},{"bike_id":"2c1e47ad-3478-424c-8c66-23a600b1f0dc","system_id":"levelo_inurba_marseille","lat":43.290441,"lon":5.359123,"is_reserved":false,"is_disabled":false,"rental_uris":{"android":"levelo://app?vid=2c1e47ad-3478-424c-8c66-23a600b1f0dc","ios":"levelo://app?vid=2c1e47ad-3478-424c-8c66-23a600b1f0dc"},"vehicle_type_id":"4","last_reported":1706551718,"current_range_meters":20800,"station_id":"","pricing_plan_id":"free"},{"bike_id":"97404771-33ec-4987-9af4-a9d4a5d3e747","system_id":"levelo_inurba_marseille","lat":43.290624,"lon":5.359245,"is_reserved":false,"is_disabled":false,"rental_uris":{"android":"levelo://app?vid=97404771-33ec-4987-9af4-a9d4a5d3e747","ios":"levelo://app?vid=97404771-33ec-4987-9af4-a9d4a5d3e747"},"vehicle_type_id":"4","last_reported":1706551718,"current_range_meters":8400,"station_id":"ce4bha92rcd13ifvqeg0","pricing_plan_id":"free"},{"bike_id":"78f2d48b-a967-4457-9d54-10f52768e3df","system_id":"levelo_inurba_marseille","lat":43.290631,"lon":5.359244,"is_reserved":false,"is_disabled":false,"rental_uris":{"android":"levelo://app?vid=78f2d48b-a967-4457-9d54-10f52768e3df","ios":"levelo://app?vid=78f2d48b-a967-4457-9d54-10f52768e3df"},"vehicle_type_id":"4","last_reported":1706551718,"current_range_meters":22800,"station_id":"ce4bha92rcd13ifvqeg0","pricing_plan_id":"free"},{"bike_id":"2bccb6e7-0d6b-4977-8fe0-e8b85c06f0e3","system_id":"levelo_inurba_marseille","lat":43.289184,"lon":5.366408,"is_reserved":false,"is_disabled":false,"rental_uris":{"android":"levelo://app?vid=2bccb6e7-0d6b-4977-8fe0-e8b85c06f0e3","ios":"levelo://app?vid=2bccb6e7-0d6b-4977-8fe0-e8b85c06f0e3"},"vehicle_type_id":"4","last_reported":1706551718,"current_range_meters":7600,"station_id":"ce4bhap2rcd13ifvqek0","pricing_plan_id":"free"},{"bike_id":"d2986293-5dc2-4ff1-a501-b9cc26f9c107","system_id":"levelo_inurba_marseille","lat":43.29417,"lon":5.38629,"is_reserved":false,"is_disabled":false,"rental_uris":{"android":"levelo://app?vid=d2986293-5dc2-4ff1-a501-b9cc26f9c107","ios":"levelo://app?vid=d2986293-5dc2-4ff1-a501-b9cc26f9c107"},"vehicle_type_id":"4","last_reported":1706551718,"current_range_meters":0,"station_id":"ce4bh2h2rcd13ifvqdh0","pricing_plan_id":"free"},{"bike_id":"3232283e-e3ef-4ec2-92e0-a15a247a09ae","system_id":"levelo_inurba_marseille","lat":43.29418,"lon":5.38631,"is_reserved":false,"is_disabled":false,"rental_uris":{"android":"levelo://app?vid=3232283e-e3ef-4ec2-92e0-a15a247a09ae","ios":"levelo://app?vid=3232283e-e3ef-4ec2-92e0-a15a247a09ae"},"vehicle_type_id":"4","last_reported":1706551718,"current_range_meters":24800,"station_id":"ce4bh2h2rcd13ifvqdh0","pricing_plan_id":"free"},{"bike_id":"7dfe3d6f-2376-4f00-909b-c02892962068","system_id":"levelo_inurba_marseille","lat":43.289184,"lon":5.366408,"is_reserved":false,"is_disabled":false,"rental_uris":{"android":"levelo://app?vid=7dfe3d6f-2376-4f00-909b-c02892962068","ios":"levelo://app?vid=7dfe3d6f-2376-4f00-909b-c02892962068"},"vehicle_type_id":"4","last_reported":1706551718,"current_range_meters":1200,"station_id":"ce4bhap2rcd13ifvqek0","pricing_plan_id":"free"},{"bike_id":"16d589da-d935-40a8-adce-34bbbff47be4","system_id":"levelo_inurba_marseille","lat":43.294162,"lon":5.386292,"is_reserved":false,"is_disabled":false,"rental_uris":{"android":"levelo://app?vid=16d589da-d935-40a8-adce-34bbbff47be4","ios":"levelo://app?vid=16d589da-d935-40a8-adce-34bbbff47be4"},"vehicle_type_id":"4","last_reported":1706551718,"current_range_meters":24800,"station_id":"ce4bh2h2rcd13ifvqdh0","pricing_plan_id":"free"},{"bike_id":"947059b3-9f18-4094-95ea-9e84b5f296f6","system_id":"levelo_inurba_marseille","lat":43.289468,"lon":5.363719,"is_reserved":false,"is_disabled":false,"rental_uris":{"android":"levelo://app?vid=947059b3-9f18-4094-95ea-9e84b5f296f6","ios":"levelo://app?vid=947059b3-9f18-4094-95ea-9e84b5f296f6"},"vehicle_type_id":"4","last_reported":1706551718,"current_range_meters":0,"station_id":"ce4bhc92rcd13ifvqetg","pricing_plan_id":"free"},{"bike_id":"17ef3a11-6075-4107-be86-7f4893483359","system_id":"levelo_inurba_marseille","lat":43.289184,"lon":5.366408,"is_reserved":false,"is_disabled":false,"rental_uris":{"android":"levelo://app?vid=17ef3a11-6075-4107-be86-7f4893483359","ios":"levelo://app?vid=17ef3a11-6075-4107-be86-7f4893483359"},"vehicle_type_id":"4","last_reported":1706551718,"current_range_meters":400,"station_id":"ce4bhap2rcd13ifvqek0","pricing_plan_id":"free"},{"bike_id":"8d5fb7b8-b91a-4e47-a9b1-053877d9721d","system_id":"levelo_inurba_marseille","lat":43.289184,"lon":5.366408,"is_reserved":false,"is_disabled":false,"rental_uris":{"android":"levelo://app?vid=8d5fb7b8-b91a-4e47-a9b1-053877d9721d","ios":"levelo://app?vid=8d5fb7b8-b91a-4e47-a9b1-053877d9721d"},"vehicle_type_id":"4","last_reported":1706551718,"current_range_meters":8800,"station_id":"ce4bhap2rcd13ifvqek0","pricing_plan_id":"free"},{"bike_id":"d5ce3b46-b9fc-4d89-a91c-b722e97b2d60","system_id":"levelo_inurba_marseille","lat":43.289184,"lon":5.366408,"is_reserved":false,"is_disabled":false,"rental_uris":{"android":"levelo://app?vid=d5ce3b46-b9fc-4d89-a91c-b722e97b2d60","ios":"levelo://app?vid=d5ce3b46-b9fc-4d89-a91c-b722e97b2d60"},"vehicle_type_id":"4","last_reported":1706551718,"current_range_meters":18400,"station_id":"ce4bhap2rcd13ifvqek0","pricing_plan_id":"free"},{"bike_id":"d26f5bdf-3c12-49a2-b03b-eb4fca799f15","system_id":"levelo_inurba_marseille","lat":43.289468,"lon":5.363719,"is_reserved":false,"is_disabled":false,"rental_uris":{"android":"levelo://app?vid=d26f5bdf-3c12-49a2-b03b-eb4fca799f15","ios":"levelo://app?vid=d26f5bdf-3c12-49a2-b03b-eb4fca799f15"},"vehicle_type_id":"4","last_reported":1706551718,"current_range_meters":22400,"station_id":"ce4bhc92rcd13ifvqetg","pricing_plan_id":"free"},{"bike_id":"ef0b4de9-5165-4bfe-8123-c89cc4069c6c","system_id":"levelo_inurba_marseille","lat":43.292642,"lon":5.384254,"is_reserved":false,"is_disabled":false,"rental_uris":{"android":"levelo://app?vid=ef0b4de9-5165-4bfe-8123-c89cc4069c6c","ios":"levelo://app?vid=ef0b4de9-5165-4bfe-8123-c89cc4069c6c"},"vehicle_type_id":"4","last_reported":1706551718,"current_range_meters":0,"station_id":"ce4bh692rcd13ifvqea0","pricing_plan_id":"free"},{"bike_id":"c6dc3a86-1221-4e31-9549-71619586481a","system_id":"levelo_inurba_marseille","lat":43.292644,"lon":5.384257,"is_reserved":false,"is_disabled":false,"rental_uris":{"android":"levelo://app?vid=c6dc3a86-1221-4e31-9549-71619586481a","ios":"levelo://app?vid=c6dc3a86-1221-4e31-9549-71619586481a"},"vehicle_type_id":"4","last_reported":1706551718,"current_range_meters":20400,"station_id":"ce4bh692rcd13ifvqea0","pricing_plan_id":"free"},{"bike_id":"41a7fad1-189c-44be-9925-2f0e517df3e9","system_id":"levelo_inurba_marseille","lat":43.29269,"lon":5.38448,"is_reserved":false,"is_disabled":false,"rental_uris":{"android":"levelo://app?vid=41a7fad1-189c-44be-9925-2f0e517df3e9","ios":"levelo://app?vid=41a7fad1-189c-44be-9925-2f0e517df3e9"},"vehicle_type_id":"4","last_reported":1706551718,"current_range_meters":0,"station_id":"ce4bh692rcd13ifvqea0","pricing_plan_id":"free"},{"bike_id":"9cb5b04d-4b41-4f00-a55b-143d2688c999","system_id":"levelo_inurba_marseille","lat":43.292644,"lon":5.384257,"is_reserved":false,"is_disabled":false,"rental_uris":{"android":"levelo://app?vid=9cb5b04d-4b41-4f00-a55b-143d2688c999","ios":"levelo://app?vid=9cb5b04d-4b41-4f00-a55b-143d2688c999"},"vehicle_type_id":"4","last_reported":1706551718,"current_range_meters":5600,"station_id":"ce4bh692rcd13ifvqea0","pricing_plan_id":"free"},{"bike_id":"c64c8508-d594-477f-a8c6-22bda059acd5","system_id":"levelo_inurba_marseille","lat":43.2901,"lon":5.35612,"is_reserved":false,"is_disabled":false,"rental_uris":{"android":"levelo://app?vid=c64c8508-d594-477f-a8c6-22bda059acd5","ios":"levelo://app?vid=c64c8508-d594-477f-a8c6-22bda059acd5"},"vehicle_type_id":"4","last_reported":1706551718,"current_range_meters":20000,"station_id":"ce4bhb92rcd13ifvqen0","pricing_plan_id":"free"},{"bike_id":"3976a428-840c-4786-ba99-d47b4ba4e93e","system_id":"levelo_inurba_marseille","lat":43.290104,"lon":5.356111,"is_reserved":false,"is_disabled":false,"rental_uris":{"android":"levelo://app?vid=3976a428-840c-4786-ba99-d47b4ba4e93e","ios":"levelo://app?vid=3976a428-840c-4786-ba99-d47b4ba4e93e"},"vehicle_type_id":"4","last_reported":1706551718,"current_range_meters":2000,"station_id":"ce4bhb92rcd13ifvqen0","pricing_plan_id":"free"},{"bike_id":"321f3dda-2407-4eef-a486-1b34dd5872c9","system_id":"levelo_inurba_marseille","lat":43.297815,"lon":5.393548,"is_reserved":false,"is_disabled":false,"rental_uris":{"android":"levelo://app?vid=321f3dda-2407-4eef-a486-1b34dd5872c9","ios":"levelo://app?vid=321f3dda-2407-4eef-a486-1b34dd5872c9"},"vehicle_type_id":"4","last_reported":1706551718,"current_range_meters":2000,"station_id":"chh1huq6cuj3fo74tm60","pricing_plan_id":"free"},{"bike_id":"a1df9e09-21b8-4c02-8ee9-7524fc7ade4f","system_id":"levelo_inurba_marseille","lat":43.289743,"lon":5.378304,"is_reserved":false,"is_disabled":false,"rental_uris":{"android":"levelo://app?vid=a1df9e09-21b8-4c02-8ee9-7524fc7ade4f","ios":"levelo://app?vid=a1df9e09-21b8-4c02-8ee9-7524fc7ade4f"},"vehicle_type_id":"4","last_reported":1706551718,"current_range_meters":0,"station_id":"ce4bh9p2rcd13ifvqed0","pricing_plan_id":"free"},{"bike_id":"536d2704-3927-4957-837a-b2b86a24d827","system_id":"levelo_inurba_marseille","lat":43.330442,"lon":5.389148,"is_reserved":false,"is_disabled":false,"rental_uris":{"android":"levelo://app?vid=536d2704-3927-4957-837a-b2b86a24d827","ios":"levelo://app?vid=536d2704-3927-4957-837a-b2b86a24d827"},"vehicle_type_id":"4","last_reported":1706551718,"current_range_meters":18000,"station_id":"ce4bhr92rcd13ifvqhrg","pricing_plan_id":"free"},{"bike_id":"560df544-b0a0-46e5-bc31-37959c9ad887","system_id":"levelo_inurba_marseille","lat":43.297815,"lon":5.393548,"is_reserved":false,"is_disabled":false,"rental_uris":{"android":"levelo://app?vid=560df544-b0a0-46e5-bc31-37959c9ad887","ios":"levelo://app?vid=560df544-b0a0-46e5-bc31-37959c9ad887"},"vehicle_type_id":"4","last_reported":1706551718,"current_range_meters":22800,"station_id":"chh1huq6cuj3fo74tm60","pricing_plan_id":"free"},{"bike_id":"bbb1d834-f758-49cb-b381-24024fbe0863","system_id":"levelo_inurba_marseille","lat":43.295169,"lon":5.390426,"is_reserved":false,"is_disabled":false,"rental_uris":{"android":"levelo://app?vid=bbb1d834-f758-49cb-b381-24024fbe0863","ios":"levelo://app?vid=bbb1d834-f758-49cb-b381-24024fbe0863"},"vehicle_type_id":"4","last_reported":1706551718,"current_range_meters":10000,"station_id":"ce4bh3p2rcd13ifvqdp0","pricing_plan_id":"free"},{"bike_id":"b7e9febd-67eb-4972-9aa9-ea8a8f06e051","system_id":"levelo_inurba_marseille","lat":43.330442,"lon":5.389148,"is_reserved":false,"is_disabled":false,"rental_uris":{"android":"levelo://app?vid=b7e9febd-67eb-4972-9aa9-ea8a8f06e051","ios":"levelo://app?vid=b7e9febd-67eb-4972-9aa9-ea8a8f06e051"},"vehicle_type_id":"4","last_reported":1706551718,"current_range_meters":16800,"station_id":"ce4bhr92rcd13ifvqhrg","pricing_plan_id":"free"},{"bike_id":"2c35eee9-0a73-4a36-80a9-96c0004dabf1","system_id":"levelo_inurba_marseille","lat":43.33025,"lon":5.3904,"is_reserved":false,"is_disabled":false,"rental_uris":{"android":"levelo://app?vid=2c35eee9-0a73-4a36-80a9-96c0004dabf1","ios":"levelo://app?vid=2c35eee9-0a73-4a36-80a9-96c0004dabf1"},"vehicle_type_id":"4","last_reported":1706551718,"current_range_meters":30400,"station_id":"ce4bhr92rcd13ifvqhrg","pricing_plan_id":"free"},{"bike_id":"84c18c5f-064f-4753-ad49-7892cdfac9ff","system_id":"levelo_inurba_marseille","lat":43.330442,"lon":5.389148,"is_reserved":false,"is_disabled":false,"rental_uris":{"android":"levelo://app?vid=84c18c5f-064f-4753-ad49-7892cdfac9ff","ios":"levelo://app?vid=84c18c5f-064f-4753-ad49-7892cdfac9ff"},"vehicle_type_id":"4","last_reported":1706551718,"current_range_meters":15600,"station_id":"ce4bhr92rcd13ifvqhrg","pricing_plan_id":"free"},{"bike_id":"d63b2dfe-736b-417f-b8bf-416dcfe32c7f","system_id":"levelo_inurba_marseille","lat":43.295169,"lon":5.390426,"is_reserved":false,"is_disabled":false,"rental_uris":{"android":"levelo://app?vid=d63b2dfe-736b-417f-b8bf-416dcfe32c7f","ios":"levelo://app?vid=d63b2dfe-736b-417f-b8bf-416dcfe32c7f"},"vehicle_type_id":"4","last_reported":1706551718,"current_range_meters":7200,"station_id":"ce4bh3p2rcd13ifvqdp0","pricing_plan_id":"free"},{"bike_id":"e87b583a-d640-42ab-a628-61b09c329ce9","system_id":"levelo_inurba_marseille","lat":43.330442,"lon":5.389148,"is_reserved":false,"is_disabled":false,"rental_uris":{"android":"levelo://app?vid=e87b583a-d640-42ab-a628-61b09c329ce9","ios":"levelo://app?vid=e87b583a-d640-42ab-a628-61b09c329ce9"},"vehicle_type_id":"4","last_reported":1706551718,"current_range_meters":30400,"station_id":"ce4bhr92rcd13ifvqhrg","pricing_plan_id":"free"},{"bike_id":"ca0d8e53-0e04-4cb7-a2a9-e398803487ef","system_id":"levelo_inurba_marseille","lat":43.330442,"lon":5.389148,"is_reserved":false,"is_disabled":false,"rental_uris":{"android":"levelo://app?vid=ca0d8e53-0e04-4cb7-a2a9-e398803487ef","ios":"levelo://app?vid=ca0d8e53-0e04-4cb7-a2a9-e398803487ef"},"vehicle_type_id":"4","last_reported":1706551718,"current_range_meters":30800,"station_id":"ce4bhr92rcd13ifvqhrg","pricing_plan_id":"free"},{"bike_id":"02cbd6b1-23b8-4ee0-bec2-942c382699dd","system_id":"levelo_inurba_marseille","lat":43.28856,"lon":5.358371,"is_reserved":false,"is_disabled":false,"rental_uris":{"android":"levelo://app?vid=02cbd6b1-23b8-4ee0-bec2-942c382699dd","ios":"levelo://app?vid=02cbd6b1-23b8-4ee0-bec2-942c382699dd"},"vehicle_type_id":"4","last_reported":1706551718,"current_range_meters":6400,"station_id":"ce4bhb12rcd13ifvqem0","pricing_plan_id":"free"},{"bike_id":"58128b7a-3763-4051-bef1-0091184a6744","system_id":"levelo_inurba_marseille","lat":43.303837,"lon":5.418724,"is_reserved":false,"is_disabled":false,"rental_uris":{"android":"levelo://app?vid=58128b7a-3763-4051-bef1-0091184a6744","ios":"levelo://app?vid=58128b7a-3763-4051-bef1-0091184a6744"},"vehicle_type_id":"4","last_reported":1706551718,"current_range_meters":11200,"station_id":"ce4bhop2rcd13ifvqh7g","pricing_plan_id":"free"},{"bike_id":"d745797d-d48b-41a2-a87a-e95b1ea7a4eb","system_id":"levelo_inurba_marseille","lat":43.28856,"lon":5.358371,"is_reserved":false,"is_disabled":false,"rental_uris":{"android":"levelo://app?vid=d745797d-d48b-41a2-a87a-e95b1ea7a4eb","ios":"levelo://app?vid=d745797d-d48b-41a2-a87a-e95b1ea7a4eb"},"vehicle_type_id":"4","last_reported":1706551718,"current_range_meters":5200,"station_id":"ce4bhb12rcd13ifvqem0","pricing_plan_id":"free"},{"bike_id":"dc0cb5b0-1098-450d-af84-8fb9ff29bf5f","system_id":"levelo_inurba_marseille","lat":43.28856,"lon":5.358371,"is_reserved":false,"is_disabled":false,"rental_uris":{"android":"levelo://app?vid=dc0cb5b0-1098-450d-af84-8fb9ff29bf5f","ios":"levelo://app?vid=dc0cb5b0-1098-450d-af84-8fb9ff29bf5f"},"vehicle_type_id":"4","last_reported":1706551718,"current_range_meters":4400,"station_id":"ce4bhb12rcd13ifvqem0","pricing_plan_id":"free"},{"bike_id":"996874ac-4858-428d-9bcb-6194a257f641","system_id":"levelo_inurba_marseille","lat":43.28856,"lon":5.358371,"is_reserved":false,"is_disabled":false,"rental_uris":{"android":"levelo://app?vid=996874ac-4858-428d-9bcb-6194a257f641","ios":"levelo://app?vid=996874ac-4858-428d-9bcb-6194a257f641"},"vehicle_type_id":"4","last_reported":1706551718,"current_range_meters":9600,"station_id":"ce4bhb12rcd13ifvqem0","pricing_plan_id":"free"},{"bike_id":"8a0f8543-0cb2-4c5c-8806-0bec6eb02c85","system_id":"levelo_inurba_marseille","lat":43.290094,"lon":5.381264,"is_reserved":false,"is_disabled":false,"rental_uris":{"android":"levelo://app?vid=8a0f8543-0cb2-4c5c-8806-0bec6eb02c85","ios":"levelo://app?vid=8a0f8543-0cb2-4c5c-8806-0bec6eb02c85"},"vehicle_type_id":"4","last_reported":1706551718,"current_range_meters":0,"station_id":"ce4bh4p2rcd13ifvqe1g","pricing_plan_id":"free"},{"bike_id":"128e4a2a-f584-4d49-b391-82a98ebba749","system_id":"levelo_inurba_marseille","lat":43.312728,"lon":5.401743,"is_reserved":false,"is_disabled":false,"rental_uris":{"android":"levelo://app?vid=128e4a2a-f584-4d49-b391-82a98ebba749","ios":"levelo://app?vid=128e4a2a-f584-4d49-b391-82a98ebba749"},"vehicle_type_id":"4","last_reported":1706551718,"current_range_meters":17600,"station_id":"ce4bh092rcd13ifvqd30","pricing_plan_id":"free"},{"bike_id":"f7e38767-d006-4982-a901-2c36f318c099","system_id":"levelo_inurba_marseille","lat":43.309371,"lon":5.401449,"is_reserved":false,"is_disabled":false,"rental_uris":{"android":"levelo://app?vid=f7e38767-d006-4982-a901-2c36f318c099","ios":"levelo://app?vid=f7e38767-d006-4982-a901-2c36f318c099"},"vehicle_type_id":"4","last_reported":1706551718,"current_range_meters":0,"station_id":"ce4bgvp2rcd13ifvqct0","pricing_plan_id":"free"},{"bike_id":"73a44a91-95d2-4043-bbfd-651bde033ab0","system_id":"levelo_inurba_marseille","lat":43.309371,"lon":5.401449,"is_reserved":false,"is_disabled":false,"rental_uris":{"android":"levelo://app?vid=73a44a91-95d2-4043-bbfd-651bde033ab0","ios":"levelo://app?vid=73a44a91-95d2-4043-bbfd-651bde033ab0"},"vehicle_type_id":"4","last_reported":1706551718,"current_range_meters":17600,"station_id":"ce4bgvp2rcd13ifvqct0","pricing_plan_id":"free"},{"bike_id":"7128ed34-91ea-4022-82c3-1136ced4ab6f","system_id":"levelo_inurba_marseille","lat":43.309371,"lon":5.401449,"is_reserved":false,"is_disabled":false,"rental_uris":{"android":"levelo://app?vid=7128ed34-91ea-4022-82c3-1136ced4ab6f","ios":"levelo://app?vid=7128ed34-91ea-4022-82c3-1136ced4ab6f"},"vehicle_type_id":"4","last_reported":1706551718,"current_range_meters":0,"station_id":"ce4bgvp2rcd13ifvqct0","pricing_plan_id":"free"},{"bike_id":"a563cdbf-78b8-441c-8dce-8da1c3325b92","system_id":"levelo_inurba_marseille","lat":43.337502,"lon":5.374518,"is_reserved":false,"is_disabled":false,"rental_uris":{"android":"levelo://app?vid=a563cdbf-78b8-441c-8dce-8da1c3325b92","ios":"levelo://app?vid=a563cdbf-78b8-441c-8dce-8da1c3325b92"},"vehicle_type_id":"4","last_reported":1706551718,"current_range_meters":20000,"station_id":"","pricing_plan_id":"free"},{"bike_id":"b7f12eab-e0a6-499e-87ec-2b4381c4602a","system_id":"levelo_inurba_marseille","lat":43.337544,"lon":5.374554,"is_reserved":false,"is_disabled":false,"rental_uris":{"android":"levelo://app?vid=b7f12eab-e0a6-499e-87ec-2b4381c4602a","ios":"levelo://app?vid=b7f12eab-e0a6-499e-87ec-2b4381c4602a"},"vehicle_type_id":"4","last_reported":1706551718,"current_range_meters":21600,"station_id":"","pricing_plan_id":"free"},{"bike_id":"2fe24097-b1c2-4583-ba1f-cf8501171a4c","system_id":"levelo_inurba_marseille","lat":43.33752,"lon":5.37489,"is_reserved":false,"is_disabled":false,"rental_uris":{"android":"levelo://app?vid=2fe24097-b1c2-4583-ba1f-cf8501171a4c","ios":"levelo://app?vid=2fe24097-b1c2-4583-ba1f-cf8501171a4c"},"vehicle_type_id":"4","last_reported":1706551718,"current_range_meters":6400,"station_id":"","pricing_plan_id":"free"},{"bike_id":"663b4048-76fd-43f1-8346-64e09c2c7288","system_id":"levelo_inurba_marseille","lat":43.337579,"lon":5.374576,"is_reserved":false,"is_disabled":false,"rental_uris":{"android":"levelo://app?vid=663b4048-76fd-43f1-8346-64e09c2c7288","ios":"levelo://app?vid=663b4048-76fd-43f1-8346-64e09c2c7288"},"vehicle_type_id":"4","last_reported":1706551718,"current_range_meters":18000,"station_id":"","pricing_plan_id":"free"},{"bike_id":"91b6ff85-6ee5-4dda-afcf-7e77437e0e9c","system_id":"levelo_inurba_marseille","lat":43.337625,"lon":5.374337,"is_reserved":false,"is_disabled":false,"rental_uris":{"android":"levelo://app?vid=91b6ff85-6ee5-4dda-afcf-7e77437e0e9c","ios":"levelo://app?vid=91b6ff85-6ee5-4dda-afcf-7e77437e0e9c"},"vehicle_type_id":"4","last_reported":1706551718,"current_range_meters":22000,"station_id":"","pricing_plan_id":"free"},{"bike_id":"3c082ef8-998e-4b68-a29d-6b97c12f9805","system_id":"levelo_inurba_marseille","lat":43.306365,"lon":5.400832,"is_reserved":false,"is_disabled":false,"rental_uris":{"android":"levelo://app?vid=3c082ef8-998e-4b68-a29d-6b97c12f9805","ios":"levelo://app?vid=3c082ef8-998e-4b68-a29d-6b97c12f9805"},"vehicle_type_id":"4","last_reported":1706551718,"current_range_meters":24800,"station_id":"ce4bh112rcd13ifvqda0","pricing_plan_id":"free"},{"bike_id":"b7d3b81d-d85a-44b5-a0c7-8f9c9f74639e","system_id":"levelo_inurba_marseille","lat":43.337652,"lon":5.374317,"is_reserved":false,"is_disabled":false,"rental_uris":{"android":"levelo://app?vid=b7d3b81d-d85a-44b5-a0c7-8f9c9f74639e","ios":"levelo://app?vid=b7d3b81d-d85a-44b5-a0c7-8f9c9f74639e"},"vehicle_type_id":"4","last_reported":1706551718,"current_range_meters":25600,"station_id":"","pricing_plan_id":"free"},{"bike_id":"1facbbf3-baac-42f8-85eb-cb1e36f3e4b9","system_id":"levelo_inurba_marseille","lat":43.33762,"lon":5.374955,"is_reserved":false,"is_disabled":false,"rental_uris":{"android":"levelo://app?vid=1facbbf3-baac-42f8-85eb-cb1e36f3e4b9","ios":"levelo://app?vid=1facbbf3-baac-42f8-85eb-cb1e36f3e4b9"},"vehicle_type_id":"4","last_reported":1706551718,"current_range_meters":8400,"station_id":"","pricing_plan_id":"free"},{"bike_id":"12568932-a9a7-4d52-8b2c-668683b75358","system_id":"levelo_inurba_marseille","lat":43.337641,"lon":5.374852,"is_reserved":false,"is_disabled":false,"rental_uris":{"android":"levelo://app?vid=12568932-a9a7-4d52-8b2c-668683b75358","ios":"levelo://app?vid=12568932-a9a7-4d52-8b2c-668683b75358"},"vehicle_type_id":"4","last_reported":1706551718,"current_range_meters":18000,"station_id":"","pricing_plan_id":"free"},{"bike_id":"23e8d7b3-8bca-40b5-b77e-6c26efbb4cf9","system_id":"levelo_inurba_marseille","lat":43.30142,"lon":5.39869,"is_reserved":false,"is_disabled":false,"rental_uris":{"android":"levelo://app?vid=23e8d7b3-8bca-40b5-b77e-6c26efbb4cf9","ios":"levelo://app?vid=23e8d7b3-8bca-40b5-b77e-6c26efbb4cf9"},"vehicle_type_id":"4","last_reported":1706551718,"current_range_meters":0,"station_id":"ce4bh0h2rcd13ifvqd40","pricing_plan_id":"free"},{"bike_id":"05384337-4ea4-4d2d-b78f-c26b4cc1aff2","system_id":"levelo_inurba_marseille","lat":43.31133,"lon":5.4024,"is_reserved":false,"is_disabled":false,"rental_uris":{"android":"levelo://app?vid=05384337-4ea4-4d2d-b78f-c26b4cc1aff2","ios":"levelo://app?vid=05384337-4ea4-4d2d-b78f-c26b4cc1aff2"},"vehicle_type_id":"4","last_reported":1706551718,"current_range_meters":16400,"station_id":"ce4bh112rcd13ifvqda0","pricing_plan_id":"free"},{"bike_id":"0eb4c450-9d13-4625-b5f8-2708f1e0c9e2","system_id":"levelo_inurba_marseille","lat":43.286593,"lon":5.363346,"is_reserved":false,"is_disabled":false,"rental_uris":{"android":"levelo://app?vid=0eb4c450-9d13-4625-b5f8-2708f1e0c9e2","ios":"levelo://app?vid=0eb4c450-9d13-4625-b5f8-2708f1e0c9e2"},"vehicle_type_id":"4","last_reported":1706551718,"current_range_meters":14000,"station_id":"ce4bhah2rcd13ifvqej0","pricing_plan_id":"free"},{"bike_id":"54c7e8bc-34b9-4735-9532-d5fc6184a089","system_id":"levelo_inurba_marseille","lat":43.286663,"lon":5.363462,"is_reserved":false,"is_disabled":false,"rental_uris":{"android":"levelo://app?vid=54c7e8bc-34b9-4735-9532-d5fc6184a089","ios":"levelo://app?vid=54c7e8bc-34b9-4735-9532-d5fc6184a089"},"vehicle_type_id":"4","last_reported":1706551718,"current_range_meters":16000,"station_id":"","pricing_plan_id":"free"},{"bike_id":"310612b9-a072-4bd4-a20c-a0fe97fb6d64","system_id":"levelo_inurba_marseille","lat":43.30243,"lon":5.40004,"is_reserved":false,"is_disabled":false,"rental_uris":{"android":"levelo://app?vid=310612b9-a072-4bd4-a20c-a0fe97fb6d64","ios":"levelo://app?vid=310612b9-a072-4bd4-a20c-a0fe97fb6d64"},"vehicle_type_id":"4","last_reported":1706551718,"current_range_meters":15600,"station_id":"","pricing_plan_id":"free"},{"bike_id":"9dc00ff7-ba5d-4354-9486-56278cd0763b","system_id":"levelo_inurba_marseille","lat":43.29858,"lon":5.3973,"is_reserved":false,"is_disabled":false,"rental_uris":{"android":"levelo://app?vid=9dc00ff7-ba5d-4354-9486-56278cd0763b","ios":"levelo://app?vid=9dc00ff7-ba5d-4354-9486-56278cd0763b"},"vehicle_type_id":"4","last_reported":1706551718,"current_range_meters":0,"station_id":"ce4bh0h2rcd13ifvqd50","pricing_plan_id":"free"},{"bike_id":"dd1fa56d-1b1d-4b85-89c4-7e0a354977bf","system_id":"levelo_inurba_marseille","lat":43.295196,"lon":5.39397,"is_reserved":false,"is_disabled":false,"rental_uris":{"android":"levelo://app?vid=dd1fa56d-1b1d-4b85-89c4-7e0a354977bf","ios":"levelo://app?vid=dd1fa56d-1b1d-4b85-89c4-7e0a354977bf"},"vehicle_type_id":"4","last_reported":1706551718,"current_range_meters":13200,"station_id":"ce4bh292rcd13ifvqdf0","pricing_plan_id":"free"},{"bike_id":"92b268ec-4103-40dd-b1d3-b52a03a8e2dc","system_id":"levelo_inurba_marseille","lat":43.286961,"lon":5.373785,"is_reserved":false,"is_disabled":false,"rental_uris":{"android":"levelo://app?vid=92b268ec-4103-40dd-b1d3-b52a03a8e2dc","ios":"levelo://app?vid=92b268ec-4103-40dd-b1d3-b52a03a8e2dc"},"vehicle_type_id":"4","last_reported":1706551718,"current_range_meters":5600,"station_id":"ce4bh3p2rcd13ifvqdq0","pricing_plan_id":"free"},{"bike_id":"646a717c-f34c-497a-b893-118280475801","system_id":"levelo_inurba_marseille","lat":43.295196,"lon":5.39397,"is_reserved":false,"is_disabled":false,"rental_uris":{"android":"levelo://app?vid=646a717c-f34c-497a-b893-118280475801","ios":"levelo://app?vid=646a717c-f34c-497a-b893-118280475801"},"vehicle_type_id":"4","last_reported":1706551718,"current_range_meters":400,"station_id":"ce4bh292rcd13ifvqdf0","pricing_plan_id":"free"},{"bike_id":"24abb9b3-76ae-40f1-a84a-4281315fbeb1","system_id":"levelo_inurba_marseille","lat":43.304126,"lon":5.401086,"is_reserved":false,"is_disabled":false,"rental_uris":{"android":"levelo://app?vid=24abb9b3-76ae-40f1-a84a-4281315fbeb1","ios":"levelo://app?vid=24abb9b3-76ae-40f1-a84a-4281315fbeb1"},"vehicle_type_id":"4","last_reported":1706551718,"current_range_meters":0,"station_id":"","pricing_plan_id":"free"},{"bike_id":"11bd48a6-3200-4f17-a489-279628d202d6","system_id":"levelo_inurba_marseille","lat":43.312609,"lon":5.401662,"is_reserved":false,"is_disabled":false,"rental_uris":{"android":"levelo://app?vid=11bd48a6-3200-4f17-a489-279628d202d6","ios":"levelo://app?vid=11bd48a6-3200-4f17-a489-279628d202d6"},"vehicle_type_id":"4","last_reported":1706551718,"current_range_meters":5600,"station_id":"ce4bh092rcd13ifvqd30","pricing_plan_id":"free"},{"bike_id":"60a72362-4a12-415a-a23a-41d0bf422d66","system_id":"levelo_inurba_marseille","lat":43.290345,"lon":5.38646,"is_reserved":false,"is_disabled":false,"rental_uris":{"android":"levelo://app?vid=60a72362-4a12-415a-a23a-41d0bf422d66","ios":"levelo://app?vid=60a72362-4a12-415a-a23a-41d0bf422d66"},"vehicle_type_id":"4","last_reported":1706551718,"current_range_meters":14000,"station_id":"ce4bh4p2rcd13ifvqe0g","pricing_plan_id":"free"},{"bike_id":"807665df-a4a0-4d1f-93e9-1a9c1f652134","system_id":"levelo_inurba_marseille","lat":43.286068,"lon":5.370689,"is_reserved":false,"is_disabled":false,"rental_uris":{"android":"levelo://app?vid=807665df-a4a0-4d1f-93e9-1a9c1f652134","ios":"levelo://app?vid=807665df-a4a0-4d1f-93e9-1a9c1f652134"},"vehicle_type_id":"4","last_reported":1706551718,"current_range_meters":3200,"station_id":"ce4bht12rcd13ifvqi60","pricing_plan_id":"free"},{"bike_id":"90582d8a-a12f-4b8c-9c20-3133f75db733","system_id":"levelo_inurba_marseille","lat":43.28604,"lon":5.37062,"is_reserved":false,"is_disabled":false,"rental_uris":{"android":"levelo://app?vid=90582d8a-a12f-4b8c-9c20-3133f75db733","ios":"levelo://app?vid=90582d8a-a12f-4b8c-9c20-3133f75db733"},"vehicle_type_id":"4","last_reported":1706551718,"current_range_meters":14400,"station_id":"ce4bht12rcd13ifvqi60","pricing_plan_id":"free"},{"bike_id":"b0a81108-6938-414d-abd4-0220f16756ca","system_id":"levelo_inurba_marseille","lat":43.28604,"lon":5.37069,"is_reserved":false,"is_disabled":false,"rental_uris":{"android":"levelo://app?vid=b0a81108-6938-414d-abd4-0220f16756ca","ios":"levelo://app?vid=b0a81108-6938-414d-abd4-0220f16756ca"},"vehicle_type_id":"4","last_reported":1706551718,"current_range_meters":5600,"station_id":"ce4bht12rcd13ifvqi60","pricing_plan_id":"free"},{"bike_id":"25de4f05-d353-48ae-8364-0f623db640c3","system_id":"levelo_inurba_marseille","lat":43.28603,"lon":5.37059,"is_reserved":false,"is_disabled":false,"rental_uris":{"android":"levelo://app?vid=25de4f05-d353-48ae-8364-0f623db640c3","ios":"levelo://app?vid=25de4f05-d353-48ae-8364-0f623db640c3"},"vehicle_type_id":"4","last_reported":1706551718,"current_range_meters":20400,"station_id":"ce4bht12rcd13ifvqi60","pricing_plan_id":"free"},{"bike_id":"97b0bde0-bd3d-4e18-b61d-44a138bde320","system_id":"levelo_inurba_marseille","lat":43.29995,"lon":5.40057,"is_reserved":false,"is_disabled":false,"rental_uris":{"android":"levelo://app?vid=97b0bde0-bd3d-4e18-b61d-44a138bde320","ios":"levelo://app?vid=97b0bde0-bd3d-4e18-b61d-44a138bde320"},"vehicle_type_id":"4","last_reported":1706551718,"current_range_meters":28000,"station_id":"","pricing_plan_id":"free"},{"bike_id":"430e86f5-59ba-4328-84b9-61641dc3e501","system_id":"levelo_inurba_marseille","lat":43.291994,"lon":5.392907,"is_reserved":false,"is_disabled":false,"rental_uris":{"android":"levelo://app?vid=430e86f5-59ba-4328-84b9-61641dc3e501","ios":"levelo://app?vid=430e86f5-59ba-4328-84b9-61641dc3e501"},"vehicle_type_id":"4","last_reported":1706551718,"current_range_meters":1600,"station_id":"ce4bh192rcd13ifvqdd0","pricing_plan_id":"free"},{"bike_id":"6756e5b8-3bb3-4289-ac16-530fe67ea5a6","system_id":"levelo_inurba_marseille","lat":43.284538,"lon":5.358657,"is_reserved":false,"is_disabled":false,"rental_uris":{"android":"levelo://app?vid=6756e5b8-3bb3-4289-ac16-530fe67ea5a6","ios":"levelo://app?vid=6756e5b8-3bb3-4289-ac16-530fe67ea5a6"},"vehicle_type_id":"4","last_reported":1706551718,"current_range_meters":11200,"station_id":"ce4bhah2rcd13ifvqei0","pricing_plan_id":"free"},{"bike_id":"cb47209c-4116-4eb8-93a6-6672cad10eca","system_id":"levelo_inurba_marseille","lat":43.284538,"lon":5.358657,"is_reserved":false,"is_disabled":false,"rental_uris":{"android":"levelo://app?vid=cb47209c-4116-4eb8-93a6-6672cad10eca","ios":"levelo://app?vid=cb47209c-4116-4eb8-93a6-6672cad10eca"},"vehicle_type_id":"4","last_reported":1706551718,"current_range_meters":6400,"station_id":"ce4bhah2rcd13ifvqei0","pricing_plan_id":"free"},{"bike_id":"0bb4043e-9b60-41dd-88c7-d8845e3892e1","system_id":"levelo_inurba_marseille","lat":43.284538,"lon":5.358657,"is_reserved":false,"is_disabled":false,"rental_uris":{"android":"levelo://app?vid=0bb4043e-9b60-41dd-88c7-d8845e3892e1","ios":"levelo://app?vid=0bb4043e-9b60-41dd-88c7-d8845e3892e1"},"vehicle_type_id":"4","last_reported":1706551718,"current_range_meters":800,"station_id":"ce4bhah2rcd13ifvqei0","pricing_plan_id":"free"},{"bike_id":"bf735476-40d2-4d25-8280-99a7182b6a14","system_id":"levelo_inurba_marseille","lat":43.284534,"lon":5.358662,"is_reserved":false,"is_disabled":false,"rental_uris":{"android":"levelo://app?vid=bf735476-40d2-4d25-8280-99a7182b6a14","ios":"levelo://app?vid=bf735476-40d2-4d25-8280-99a7182b6a14"},"vehicle_type_id":"4","last_reported":1706551718,"current_range_meters":1200,"station_id":"ce4bhah2rcd13ifvqei0","pricing_plan_id":"free"},{"bike_id":"a4f06d5a-2463-41f7-a104-3fa3cddef5aa","system_id":"levelo_inurba_marseille","lat":43.284534,"lon":5.358662,"is_reserved":false,"is_disabled":false,"rental_uris":{"android":"levelo://app?vid=a4f06d5a-2463-41f7-a104-3fa3cddef5aa","ios":"levelo://app?vid=a4f06d5a-2463-41f7-a104-3fa3cddef5aa"},"vehicle_type_id":"4","last_reported":1706551718,"current_range_meters":8400,"station_id":"ce4bhah2rcd13ifvqei0","pricing_plan_id":"free"},{"bike_id":"d57626f9-e2f1-4198-8243-a990e10537f7","system_id":"levelo_inurba_marseille","lat":43.284538,"lon":5.358657,"is_reserved":false,"is_disabled":false,"rental_uris":{"android":"levelo://app?vid=d57626f9-e2f1-4198-8243-a990e10537f7","ios":"levelo://app?vid=d57626f9-e2f1-4198-8243-a990e10537f7"},"vehicle_type_id":"4","last_reported":1706551718,"current_range_meters":2400,"station_id":"ce4bhah2rcd13ifvqei0","pricing_plan_id":"free"},{"bike_id":"b8932ca6-f00a-4242-aeef-f7d378e4ebd0","system_id":"levelo_inurba_marseille","lat":43.284534,"lon":5.358662,"is_reserved":false,"is_disabled":false,"rental_uris":{"android":"levelo://app?vid=b8932ca6-f00a-4242-aeef-f7d378e4ebd0","ios":"levelo://app?vid=b8932ca6-f00a-4242-aeef-f7d378e4ebd0"},"vehicle_type_id":"4","last_reported":1706551718,"current_range_meters":7200,"station_id":"ce4bhah2rcd13ifvqei0","pricing_plan_id":"free"},{"bike_id":"8b8ab857-52f5-4b24-b31f-dc9d94a2ebf4","system_id":"levelo_inurba_marseille","lat":43.284534,"lon":5.358662,"is_reserved":false,"is_disabled":false,"rental_uris":{"android":"levelo://app?vid=8b8ab857-52f5-4b24-b31f-dc9d94a2ebf4","ios":"levelo://app?vid=8b8ab857-52f5-4b24-b31f-dc9d94a2ebf4"},"vehicle_type_id":"4","last_reported":1706551718,"current_range_meters":7600,"station_id":"ce4bhah2rcd13ifvqei0","pricing_plan_id":"free"},{"bike_id":"6c27bc08-7e45-4ec7-aa5f-f144547defe0","system_id":"levelo_inurba_marseille","lat":43.284538,"lon":5.358657,"is_reserved":false,"is_disabled":false,"rental_uris":{"android":"levelo://app?vid=6c27bc08-7e45-4ec7-aa5f-f144547defe0","ios":"levelo://app?vid=6c27bc08-7e45-4ec7-aa5f-f144547defe0"},"vehicle_type_id":"4","last_reported":1706551718,"current_range_meters":18400,"station_id":"ce4bhah2rcd13ifvqei0","pricing_plan_id":"free"},{"bike_id":"6266e86d-e3bd-4414-ba3a-f1abb7f78c9e","system_id":"levelo_inurba_marseille","lat":43.284538,"lon":5.358657,"is_reserved":false,"is_disabled":false,"rental_uris":{"android":"levelo://app?vid=6266e86d-e3bd-4414-ba3a-f1abb7f78c9e","ios":"levelo://app?vid=6266e86d-e3bd-4414-ba3a-f1abb7f78c9e"},"vehicle_type_id":"4","last_reported":1706551718,"current_range_meters":4400,"station_id":"ce4bhah2rcd13ifvqei0","pricing_plan_id":"free"},{"bike_id":"bfe7fd3b-c01e-469e-9aa9-b37d9da87f97","system_id":"levelo_inurba_marseille","lat":43.284538,"lon":5.358657,"is_reserved":false,"is_disabled":false,"rental_uris":{"android":"levelo://app?vid=bfe7fd3b-c01e-469e-9aa9-b37d9da87f97","ios":"levelo://app?vid=bfe7fd3b-c01e-469e-9aa9-b37d9da87f97"},"vehicle_type_id":"4","last_reported":1706551718,"current_range_meters":6400,"station_id":"ce4bhah2rcd13ifvqei0","pricing_plan_id":"free"},{"bike_id":"c465d2b2-2efb-456e-bf3e-0b62c79969ab","system_id":"levelo_inurba_marseille","lat":43.284538,"lon":5.358657,"is_reserved":false,"is_disabled":false,"rental_uris":{"android":"levelo://app?vid=c465d2b2-2efb-456e-bf3e-0b62c79969ab","ios":"levelo://app?vid=c465d2b2-2efb-456e-bf3e-0b62c79969ab"},"vehicle_type_id":"4","last_reported":1706551718,"current_range_meters":28000,"station_id":"ce4bhah2rcd13ifvqei0","pricing_plan_id":"free"},{"bike_id":"a766216c-72bb-4c75-b7e7-f5b251fd7168","system_id":"levelo_inurba_marseille","lat":43.284534,"lon":5.358662,"is_reserved":false,"is_disabled":false,"rental_uris":{"android":"levelo://app?vid=a766216c-72bb-4c75-b7e7-f5b251fd7168","ios":"levelo://app?vid=a766216c-72bb-4c75-b7e7-f5b251fd7168"},"vehicle_type_id":"4","last_reported":1706551718,"current_range_meters":19600,"station_id":"ce4bhah2rcd13ifvqei0","pricing_plan_id":"free"},{"bike_id":"a6e7fb7c-2297-4afc-9c11-abf4ad745873","system_id":"levelo_inurba_marseille","lat":43.284534,"lon":5.358662,"is_reserved":false,"is_disabled":false,"rental_uris":{"android":"levelo://app?vid=a6e7fb7c-2297-4afc-9c11-abf4ad745873","ios":"levelo://app?vid=a6e7fb7c-2297-4afc-9c11-abf4ad745873"},"vehicle_type_id":"4","last_reported":1706551718,"current_range_meters":0,"station_id":"ce4bhah2rcd13ifvqei0","pricing_plan_id":"free"},{"bike_id":"99e64759-abb1-4619-97c5-c802adaa66a1","system_id":"levelo_inurba_marseille","lat":43.284538,"lon":5.358657,"is_reserved":false,"is_disabled":false,"rental_uris":{"android":"levelo://app?vid=99e64759-abb1-4619-97c5-c802adaa66a1","ios":"levelo://app?vid=99e64759-abb1-4619-97c5-c802adaa66a1"},"vehicle_type_id":"4","last_reported":1706551718,"current_range_meters":22000,"station_id":"ce4bhah2rcd13ifvqei0","pricing_plan_id":"free"},{"bike_id":"46829637-2870-448c-bd15-9e6f70822902","system_id":"levelo_inurba_marseille","lat":43.284534,"lon":5.358662,"is_reserved":false,"is_disabled":false,"rental_uris":{"android":"levelo://app?vid=46829637-2870-448c-bd15-9e6f70822902","ios":"levelo://app?vid=46829637-2870-448c-bd15-9e6f70822902"},"vehicle_type_id":"4","last_reported":1706551718,"current_range_meters":2000,"station_id":"ce4bhah2rcd13ifvqei0","pricing_plan_id":"free"},{"bike_id":"068c09fc-db42-4730-889d-bacbf9cfb85b","system_id":"levelo_inurba_marseille","lat":43.294314,"lon":5.397498,"is_reserved":false,"is_disabled":false,"rental_uris":{"android":"levelo://app?vid=068c09fc-db42-4730-889d-bacbf9cfb85b","ios":"levelo://app?vid=068c09fc-db42-4730-889d-bacbf9cfb85b"},"vehicle_type_id":"4","last_reported":1706551718,"current_range_meters":13600,"station_id":"ce4bh3h2rcd13ifvqdo0","pricing_plan_id":"free"},{"bike_id":"93dc679c-a127-4736-9d9d-67984fb09590","system_id":"levelo_inurba_marseille","lat":43.28613,"lon":5.35103,"is_reserved":false,"is_disabled":false,"rental_uris":{"android":"levelo://app?vid=93dc679c-a127-4736-9d9d-67984fb09590","ios":"levelo://app?vid=93dc679c-a127-4736-9d9d-67984fb09590"},"vehicle_type_id":"4","last_reported":1706551718,"current_range_meters":30400,"station_id":"ce4bhch2rcd13ifvqeug","pricing_plan_id":"free"},{"bike_id":"59bdcc17-5b1a-4e6c-9281-91710c2bf48f","system_id":"levelo_inurba_marseille","lat":43.283998,"lon":5.375062,"is_reserved":false,"is_disabled":false,"rental_uris":{"android":"levelo://app?vid=59bdcc17-5b1a-4e6c-9281-91710c2bf48f","ios":"levelo://app?vid=59bdcc17-5b1a-4e6c-9281-91710c2bf48f"},"vehicle_type_id":"4","last_reported":1706551718,"current_range_meters":0,"station_id":"ce4bh412rcd13ifvqds0","pricing_plan_id":"free"},{"bike_id":"fadd1b6a-e610-4584-87d5-d991cb37dd4e","system_id":"levelo_inurba_marseille","lat":43.295733,"lon":5.399667,"is_reserved":false,"is_disabled":false,"rental_uris":{"android":"levelo://app?vid=fadd1b6a-e610-4584-87d5-d991cb37dd4e","ios":"levelo://app?vid=fadd1b6a-e610-4584-87d5-d991cb37dd4e"},"vehicle_type_id":"4","last_reported":1706551718,"current_range_meters":0,"station_id":"ce4bh312rcd13ifvqdj0","pricing_plan_id":"free"},{"bike_id":"b25621fc-88a5-497c-9ac7-ff06cef36de2","system_id":"levelo_inurba_marseille","lat":43.284,"lon":5.37517,"is_reserved":false,"is_disabled":false,"rental_uris":{"android":"levelo://app?vid=b25621fc-88a5-497c-9ac7-ff06cef36de2","ios":"levelo://app?vid=b25621fc-88a5-497c-9ac7-ff06cef36de2"},"vehicle_type_id":"4","last_reported":1706551718,"current_range_meters":4400,"station_id":"ce4bh412rcd13ifvqds0","pricing_plan_id":"free"},{"bike_id":"5f698802-e918-48df-8853-f36debb7d4b0","system_id":"levelo_inurba_marseille","lat":43.295713,"lon":5.399639,"is_reserved":false,"is_disabled":false,"rental_uris":{"android":"levelo://app?vid=5f698802-e918-48df-8853-f36debb7d4b0","ios":"levelo://app?vid=5f698802-e918-48df-8853-f36debb7d4b0"},"vehicle_type_id":"4","last_reported":1706551718,"current_range_meters":12800,"station_id":"ce4bh312rcd13ifvqdj0","pricing_plan_id":"free"},