{"last_updated":1726229767,"ttl":30,"version":"2.2","data":{"bikes":[{"bike_id":"bc35aeaa-3e4d-43e6-9935-c8f1110a4b4c","system_id":"levelo_inurba_marseille","lat":43.30509,"lon":5.36702,"is_reserved":false,"is_disabled":false,"rental_uris":{"android":"levelo://app?vid=bc35aeaa-3e4d-43e6-9935-c8f1110a4b4c","ios":"levelo://app?vid=bc35aeaa-3e4d-43e6-9935-c8f1110a4b4c"},"vehicle_type_id":"4","last_reported":1726229767,"current_range_meters":37600,"station_id":"ce4bgrp2rcd13ifvqc9g","pricing_plan_id":"cebpf4jnsgd1na2vs0mg"},{"bike_id":"2ca2fd52-6283-4397-ac7e-8db28b0c8f78","system_id":"levelo_inurba_marseille","lat":43.23196,"lon":5.35555,"is_reserved":false,"is_disabled":false,"rental_uris":{"android":"levelo://app?vid=2ca2fd52-6283-4397-ac7e-8db28b0c8f78","ios":"levelo://app?vid=2ca2fd52-6283-4397-ac7e-8db28b0c8f78"},"vehicle_type_id":"4","last_reported":1726229767,"current_range_meters":11600,"station_id":"ce4bhu92rcd13ifvqi70","pricing_plan_id":"cebpf4jnsgd1na2vs0mg"},{"bike_id":"4b6575b2-03d3-481e-bfc2-0179f4ad785d","system_id":"levelo_inurba_marseille","lat":43.31689,"lon":5.40455,"is_reserved":false,"is_disabled":false,"rental_uris":{"android":"levelo://app?vid=4b6575b2-03d3-481e-bfc2-0179f4ad785d","ios":"levelo://app?vid=4b6575b2-03d3-481e-bfc2-0179f4ad785d"},"vehicle_type_id":"4","last_reported":1726229767,"current_range_meters":22400,"station_id":"ce4bh012rcd13ifvqd00","pricing_plan_id":"cebpf4jnsgd1na2vs0mg"},{"bike_id":"78daf548-540b-4a2e-b49b-346b3b3d76ec","system_id":"levelo_inurba_marseille","lat":43.23148,"lon":5.43712,"is_reserved":false,"is_disabled":false,"rental_uris":{"android":"levelo://app?vid=78daf548-540b-4a2e-b49b-346b3b3d76ec","ios":"levelo://app?vid=78daf548-540b-4a2e-b49b-346b3b3d76ec"},"vehicle_type_id":"4","last_reported":1726229767,"current_range_meters":17600,"station_id":"ce4bhmp2rcd13ifvqgog","pricing_plan_id":"cebpf4jnsgd1na2vs0mg"},{"bike_id":"0878cc7f-520e-432e-ae2e-91eb1cf5564d","system_id":"levelo_inurba_marseille","lat":43.30139,"lon":5.39853,"is_reserved":false,"is_disabled":false,"rental_uris":{"android":"levelo://app?vid=0878cc7f-520e-432e-ae2e-91eb1cf5564d","ios":"levelo://app?vid=0878cc7f-520e-432e-ae2e-91eb1cf5564d"},"vehicle_type_id":"4","last_reported":1726229767,"current_range_meters":38800,"station_id":"ce4bh0h2rcd13ifvqd40","pricing_plan_id":"cebpf4jnsgd1na2vs0mg"},{"bike_id":"1433cc86-19c5-4d38-a0b5-c5c087739e0a","system_id":"levelo_inurba_marseille","lat":43.22932,"lon":5.35374,"is_reserved":false,"is_disabled":false,"rental_uris":{"android":"levelo://app?vid=1433cc86-19c5-4d38-a0b5-c5c087739e0a","ios":"levelo://app?vid=1433cc86-19c5-4d38-a0b5-c5c087739e0a"},"vehicle_type_id":"4","last_reported":1726229767,"current_range_meters":30400,"station_id":"cpo3532slgdg3j2ikp40","pricing_plan_id":"cebpf4jnsgd1na2vs0mg"},{"bike_id":"f2e30ebb-6c37-49ca-9831-29f4d146f032","system_id":"levelo_inurba_marseille","lat":43.26685,"lon":5.38263,"is_reserved":false,"is_disabled":false,"rental_uris":{"android":"levelo://app?vid=f2e30ebb-6c37-49ca-9831-29f4d146f032","ios":"levelo://app?vid=f2e30ebb-6c37-49ca-9831-29f4d146f032"},"vehicle_type_id":"4","last_reported":1726229767,"current_range_meters":8800,"station_id":"ce4bhg92rcd13ifvqf90","pricing_plan_id":"cebpf4jnsgd1na2vs0mg"},{"bike_id":"b2a12926-7574-44ec-89ab-5248c306d28f","system_id":"levelo_inurba_marseille","lat":43.31732,"lon":5.39034,"is_reserved":false,"is_disabled":false,"rental_uris":{"android":"levelo://app?vid=b2a12926-7574-44ec-89ab-5248c306d28f","ios":"levelo://app?vid=b2a12926-7574-44ec-89ab-5248c306d28f"},"vehicle_type_id":"4","last_reported":1726229767,"current_range_meters":36400,"station_id":"ce4bhqp2rcd13ifvqhng","pricing_plan_id":"cebpf4jnsgd1na2vs0mg"},{"bike_id":"ae8c7bd4-e320-4650-aaec-5acdea38c512","system_id":"levelo_inurba_marseille","lat":43.28043,"lon":5.38662,"is_reserved":false,"is_disabled":false,"rental_uris":{"android":"levelo://app?vid=ae8c7bd4-e320-4650-aaec-5acdea38c512","ios":"levelo://app?vid=ae8c7bd4-e320-4650-aaec-5acdea38c512"},"vehicle_type_id":"4","last_reported":1726229767,"current_range_meters":22400,"station_id":"","pricing_plan_id":"cebpf4jnsgd1na2vs0mg"},{"bike_id":"98f29766-e561-41e4-8fcb-12e5daf32825","system_id":"levelo_inurba_marseille","lat":43.30541,"lon":5.36535,"is_reserved":false,"is_disabled":false,"rental_uris":{"android":"levelo://app?vid=98f29766-e561-41e4-8fcb-12e5daf32825","ios":"levelo://app?vid=98f29766-e561-41e4-8fcb-12e5daf32825"},"vehicle_type_id":"4","last_reported":1726229767,"current_range_meters":35600,"station_id":"ce4bgs12rcd13ifvqcag","pricing_plan_id":"cebpf4jnsgd1na2vs0mg"},{"bike_id":"6b263ee6-4b1d-4108-9d9a-d7552740c75e","system_id":"levelo_inurba_marseille","lat":43.28481,"lon":5.38545,"is_reserved":false,"is_disabled":false,"rental_uris":{"android":"levelo://app?vid=6b263ee6-4b1d-4108-9d9a-d7552740c75e","ios":"levelo://app?vid=6b263ee6-4b1d-4108-9d9a-d7552740c75e"},"vehicle_type_id":"4","last_reported":1726229767,"current_range_meters":4400,"station_id":"ce4bh8p2rcd13ifvqeb0","pricing_plan_id":"cebpf4jnsgd1na2vs0mg"},{"bike_id":"4bd21558-8a51-4850-b164-c6e4f08f2b8d","system_id":"levelo_inurba_marseille","lat":43.29714,"lon":5.36612,"is_reserved":false,"is_disabled":false,"rental_uris":{"android":"levelo://app?vid=4bd21558-8a51-4850-b164-c6e4f08f2b8d","ios":"levelo://app?vid=4bd21558-8a51-4850-b164-c6e4f08f2b8d"},"vehicle_type_id":"4","last_reported":1726229767,"current_range_meters":1600,"station_id":"ce4bgn12rcd13ifvqbt0","pricing_plan_id":"cebpf4jnsgd1na2vs0mg"},{"bike_id":"e0b9cb6c-4996-4b35-baa2-36f702866204","system_id":"levelo_inurba_marseille","lat":43.26031,"lon":5.37543,"is_reserved":false,"is_disabled":false,"rental_uris":{"android":"levelo://app?vid=e0b9cb6c-4996-4b35-baa2-36f702866204","ios":"levelo://app?vid=e0b9cb6c-4996-4b35-baa2-36f702866204"},"vehicle_type_id":"4","last_reported":1726229767,"current_range_meters":28400,"station_id":"ce4bhgh2rcd13ifvqfa0","pricing_plan_id":"cebpf4jnsgd1na2vs0mg"},{"bike_id":"fcc3c6dd-67f7-4690-a54a-5d6970eeb442","system_id":"levelo_inurba_marseille","lat":43.30318,"lon":5.36898,"is_reserved":false,"is_disabled":false,"rental_uris":{"android":"levelo://app?vid=fcc3c6dd-67f7-4690-a54a-5d6970eeb442","ios":"levelo://app?vid=fcc3c6dd-67f7-4690-a54a-5d6970eeb442"},"vehicle_type_id":"4","last_reported":1726229767,"current_range_meters":23200,"station_id":"ce4bgqh2rcd13ifvqc5g","pricing_plan_id":"cebpf4jnsgd1na2vs0mg"},{"bike_id":"20a93905-b3a1-4ead-a861-f6bd36aa5b5e","system_id":"levelo_inurba_marseille","lat":43.23155,"lon":5.4371,"is_reserved":false,"is_disabled":false,"rental_uris":{"android":"levelo://app?vid=20a93905-b3a1-4ead-a861-f6bd36aa5b5e","ios":"levelo://app?vid=20a93905-b3a1-4ead-a861-f6bd36aa5b5e"},"vehicle_type_id":"4","last_reported":1726229767,"current_range_meters":20000,"station_id":"ce4bhmp2rcd13ifvqgog","pricing_plan_id":"cebpf4jnsgd1na2vs0mg"},{"bike_id":"118d8d6e-e982-4920-9eff-10d0a637c53e","system_id":"levelo_inurba_marseille","lat":43.24082,"lon":5.37757,"is_reserved":false,"is_disabled":false,"rental_uris":{"android":"levelo://app?vid=118d8d6e-e982-4920-9eff-10d0a637c53e","ios":"levelo://app?vid=118d8d6e-e982-4920-9eff-10d0a637c53e"},"vehicle_type_id":"4","last_reported":1726229767,"current_range_meters":8400,"station_id":"ce4bhnp2rcd13ifvqgvg","pricing_plan_id":"cebpf4jnsgd1na2vs0mg"},{"bike_id":"29f30701-11ae-4a1b-8e85-a7687dc90e52","system_id":"levelo_inurba_marseille","lat":43.31703,"lon":5.37749,"is_reserved":false,"is_disabled":false,"rental_uris":{"android":"levelo://app?vid=29f30701-11ae-4a1b-8e85-a7687dc90e52","ios":"levelo://app?vid=29f30701-11ae-4a1b-8e85-a7687dc90e52"},"vehicle_type_id":"4","last_reported":1726229767,"current_range_meters":16800,"station_id":"ce4bgth2rcd13ifvqch0","pricing_plan_id":"cebpf4jnsgd1na2vs0mg"},{"bike_id":"f45d9413-9a73-47f2-a10e-0dc762623601","system_id":"levelo_inurba_marseille","lat":43.23152,"lon":5.43703,"is_reserved":false,"is_disabled":false,"rental_uris":{"android":"levelo://app?vid=f45d9413-9a73-47f2-a10e-0dc762623601","ios":"levelo://app?vid=f45d9413-9a73-47f2-a10e-0dc762623601"},"vehicle_type_id":"4","last_reported":1726229767,"current_range_meters":39200,"station_id":"ce4bhmp2rcd13ifvqgog","pricing_plan_id":"cebpf4jnsgd1na2vs0mg"},{"bike_id":"b034a862-6b83-49a5-82ea-39d786c095c0","system_id":"levelo_inurba_marseille","lat":43.33763,"lon":5.3744,"is_reserved":false,"is_disabled":false,"rental_uris":{"android":"levelo://app?vid=b034a862-6b83-49a5-82ea-39d786c095c0","ios":"levelo://app?vid=b034a862-6b83-49a5-82ea-39d786c095c0"},"vehicle_type_id":"4","last_reported":1726229767,"current_range_meters":14400,"station_id":"","pricing_plan_id":"cebpf4jnsgd1na2vs0mg"},{"bike_id":"b10a81a9-2b1e-4b2a-9085-0364ebcf583d","system_id":"levelo_inurba_marseille","lat":43.29786,"lon":5.37103,"is_reserved":false,"is_disabled":false,"rental_uris":{"android":"levelo://app?vid=b10a81a9-2b1e-4b2a-9085-0364ebcf583d","ios":"levelo://app?vid=b10a81a9-2b1e-4b2a-9085-0364ebcf583d"},"vehicle_type_id":"4","last_reported":1726229767,"current_range_meters":28400,"station_id":"ce4bgop2rcd13ifvqc1g","pricing_plan_id":"cebpf4jnsgd1na2vs0mg"},{"bike_id":"13ec4916-f0ea-4897-8afc-596425b42c42","system_id":"levelo_inurba_marseille","lat":43.23194,"lon":5.35553,"is_reserved":false,"is_disabled":false,"rental_uris":{"android":"levelo://app?vid=13ec4916-f0ea-4897-8afc-596425b42c42","ios":"levelo://app?vid=13ec4916-f0ea-4897-8afc-596425b42c42"},"vehicle_type_id":"4","last_reported":1726229767,"current_range_meters":32000,"station_id":"ce4bhu92rcd13ifvqi70","pricing_plan_id":"cebpf4jnsgd1na2vs0mg"},{"bike_id":"fbb69908-0749-45d1-8a5b-8e8131c59359","system_id":"levelo_inurba_marseille","lat":43.24661,"lon":5.38162,"is_reserved":false,"is_disabled":false,"rental_uris":{"android":"levelo://app?vid=fbb69908-0749-45d1-8a5b-8e8131c59359","ios":"levelo://app?vid=fbb69908-0749-45d1-8a5b-8e8131c59359"},"vehicle_type_id":"4","last_reported":1726229767,"current_range_meters":19200,"station_id":"ce4bhih2rcd13ifvqfr0","pricing_plan_id":"cebpf4jnsgd1na2vs0mg"},{"bike_id":"171e7c83-45c5-4f40-968b-a2410f7f37a5","system_id":"levelo_inurba_marseille","lat":43.23182,"lon":5.39994,"is_reserved":false,"is_disabled":false,"rental_uris":{"android":"levelo://app?vid=171e7c83-45c5-4f40-968b-a2410f7f37a5","ios":"levelo://app?vid=171e7c83-45c5-4f40-968b-a2410f7f37a5"},"vehicle_type_id":"4","last_reported":1726229767,"current_range_meters":34000,"station_id":"ce4bhn12rcd13ifvqgqg","pricing_plan_id":"cebpf4jnsgd1na2vs0mg"},{"bike_id":"a59d64a6-0c90-478e-8726-6eda2f84c2f7","system_id":"levelo_inurba_marseille","lat":43.26035,"lon":5.37546,"is_reserved":false,"is_disabled":false,"rental_uris":{"android":"levelo://app?vid=a59d64a6-0c90-478e-8726-6eda2f84c2f7","ios":"levelo://app?vid=a59d64a6-0c90-478e-8726-6eda2f84c2f7"},"vehicle_type_id":"4","last_reported":1726229767,"current_range_meters":4800,"station_id":"ce4bhgh2rcd13ifvqfa0","pricing_plan_id":"cebpf4jnsgd1na2vs0mg"},{"bike_id":"d035d579-2e69-4a79-8e97-e3875f643f43","system_id":"levelo_inurba_marseille","lat":43.25826,"lon":5.3943,"is_reserved":false,"is_disabled":false,"rental_uris":{"android":"levelo://app?vid=d035d579-2e69-4a79-8e97-e3875f643f43","ios":"levelo://app?vid=d035d579-2e69-4a79-8e97-e3875f643f43"},"vehicle_type_id":"4","last_reported":1726229767,"current_range_meters":38800,"station_id":"ce4bhip2rcd13ifvqft0","pricing_plan_id":"cebpf4jnsgd1na2vs0mg"},{"bike_id":"b2dedeec-4186-4167-8ae3-8fff374927bb","system_id":"levelo_inurba_marseille","lat":43.24385,"lon":5.37057,"is_reserved":false,"is_disabled":false,"rental_uris":{"android":"levelo://app?vid=b2dedeec-4186-4167-8ae3-8fff374927bb","ios":"levelo://app?vid=b2dedeec-4186-4167-8ae3-8fff374927bb"},"vehicle_type_id":"4","last_reported":1726229767,"current_range_meters":17200,"station_id":"ce4bhhp2rcd13ifvqfm0","pricing_plan_id":"cebpf4jnsgd1na2vs0mg"},{"bike_id":"ee5bd0a5-1257-48de-9343-ea8521c36cdd","system_id":"levelo_inurba_marseille","lat":43.23195,"lon":5.35551,"is_reserved":false,"is_disabled":false,"rental_uris":{"android":"levelo://app?vid=ee5bd0a5-1257-48de-9343-ea8521c36cdd","ios":"levelo://app?vid=ee5bd0a5-1257-48de-9343-ea8521c36cdd"},"vehicle_type_id":"4","last_reported":1726229767,"current_range_meters":3200,"station_id":"ce4bhu92rcd13ifvqi70","pricing_plan_id":"cebpf4jnsgd1na2vs0mg"},{"bike_id":"995d3a7e-289e-4ebd-b785-9d2da426ad57","system_id":"levelo_inurba_marseille","lat":43.23198,"lon":5.35548,"is_reserved":false,"is_disabled":false,"rental_uris":{"android":"levelo://app?vid=995d3a7e-289e-4ebd-b785-9d2da426ad57","ios":"levelo://app?vid=995d3a7e-289e-4ebd-b785-9d2da426ad57"},"vehicle_type_id":"4","last_reported":1726229767,"current_range_meters":26000,"station_id":"ce4bhu92rcd13ifvqi70","pricing_plan_id":"cebpf4jnsgd1na2vs0mg"},{"bike_id":"74c67d55-8a5f-40c9-8066-d68354718f8c","system_id":"levelo_inurba_marseille","lat":43.23192,"lon":5.35549,"is_reserved":false,"is_disabled":false,"rental_uris":{"android":"levelo://app?vid=74c67d55-8a5f-40c9-8066-d68354718f8c","ios":"levelo://app?vid=74c67d55-8a5f-40c9-8066-d68354718f8c"},"vehicle_type_id":"4","last_reported":1726229767,"current_range_meters":30000,"station_id":"ce4bhu92rcd13ifvqi70","pricing_plan_id":"cebpf4jnsgd1na2vs0mg"},{"bike_id":"ef9b8197-8ba8-4b2c-bc61-ab6b6e2d0fec","system_id":"levelo_inurba_marseille","lat":43.27427,"lon":5.39416,"is_reserved":false,"is_disabled":false,"rental_uris":{"android":"levelo://app?vid=ef9b8197-8ba8-4b2c-bc61-ab6b6e2d0fec","ios":"levelo://app?vid=ef9b8197-8ba8-4b2c-bc61-ab6b6e2d0fec"},"vehicle_type_id":"4","last_reported":1726229767,"current_range_meters":22800,"station_id":"ce4bhdp2rcd13ifvqf20","pricing_plan_id":"cebpf4jnsgd1na2vs0mg"},{"bike_id":"147df59c-efa8-4b87-91d4-929512e0dfb1","system_id":"levelo_inurba_marseille","lat":43.2808,"lon":5.39666,"is_reserved":false,"is_disabled":false,"rental_uris":{"android":"levelo://app?vid=147df59c-efa8-4b87-91d4-929512e0dfb1","ios":"levelo://app?vid=147df59c-efa8-4b87-91d4-929512e0dfb1"},"vehicle_type_id":"4","last_reported":1726229767,"current_range_meters":6800,"station_id":"ce4bho12rcd13ifvqh2g","pricing_plan_id":"cebpf4jnsgd1na2vs0mg"},{"bike_id":"e2be0aea-67dc-4dc6-b46f-e2412631f2dd","system_id":"levelo_inurba_marseille","lat":43.25,"lon":5.38922,"is_reserved":false,"is_disabled":false,"rental_uris":{"android":"levelo://app?vid=e2be0aea-67dc-4dc6-b46f-e2412631f2dd","ios":"levelo://app?vid=e2be0aea-67dc-4dc6-b46f-e2412631f2dd"},"vehicle_type_id":"4","last_reported":1726229767,"current_range_meters":8400,"station_id":"ce4bhgp2rcd13ifvqfd0","pricing_plan_id":"cebpf4jnsgd1na2vs0mg"},{"bike_id":"18363dd6-7c9b-4898-acf1-e538c99e26ab","system_id":"levelo_inurba_marseille","lat":43.30556,"lon":5.36543,"is_reserved":false,"is_disabled":false,"rental_uris":{"android":"levelo://app?vid=18363dd6-7c9b-4898-acf1-e538c99e26ab","ios":"levelo://app?vid=18363dd6-7c9b-4898-acf1-e538c99e26ab"},"vehicle_type_id":"4","last_reported":1726229767,"current_range_meters":38800,"station_id":"ce4bgs12rcd13ifvqcag","pricing_plan_id":"cebpf4jnsgd1na2vs0mg"},{"bike_id":"2d5cc70c-d448-46c2-a6a9-d1789725d8cc","system_id":"levelo_inurba_marseille","lat":43.31222,"lon":5.36869,"is_reserved":false,"is_disabled":false,"rental_uris":{"android":"levelo://app?vid=2d5cc70c-d448-46c2-a6a9-d1789725d8cc","ios":"levelo://app?vid=2d5cc70c-d448-46c2-a6a9-d1789725d8cc"},"vehicle_type_id":"4","last_reported":1726229767,"current_range_meters":37600,"station_id":"ce4bgl92rcd13ifvqbq0","pricing_plan_id":"cebpf4jnsgd1na2vs0mg"},{"bike_id":"ddcd6a1d-6048-412e-a374-9c40896ddcb7","system_id":"levelo_inurba_marseille","lat":43.23142,"lon":5.43712,"is_reserved":false,"is_disabled":false,"rental_uris":{"android":"levelo://app?vid=ddcd6a1d-6048-412e-a374-9c40896ddcb7","ios":"levelo://app?vid=ddcd6a1d-6048-412e-a374-9c40896ddcb7"},"vehicle_type_id":"4","last_reported":1726229767,"current_range_meters":14000,"station_id":"ce4bhmp2rcd13ifvqgog","pricing_plan_id":"cebpf4jnsgd1na2vs0mg"},{"bike_id":"22325569-1163-4cae-a276-3f26716b17bf","system_id":"levelo_inurba_marseille","lat":43.25113,"lon":5.40318,"is_reserved":false,"is_disabled":false,"rental_uris":{"android":"levelo://app?vid=22325569-1163-4cae-a276-3f26716b17bf","ios":"levelo://app?vid=22325569-1163-4cae-a276-3f26716b17bf"},"vehicle_type_id":"4","last_reported":1726229767,"current_range_meters":5600,"station_id":"ce4bhlh2rcd13ifvqgig","pricing_plan_id":"cebpf4jnsgd1na2vs0mg"},{"bike_id":"01502cef-92e8-4da6-abb4-483662668b59","system_id":"levelo_inurba_marseille","lat":43.28838,"lon":5.39331,"is_reserved":false,"is_disabled":false,"rental_uris":{"android":"levelo://app?vid=01502cef-92e8-4da6-abb4-483662668b59","ios":"levelo://app?vid=01502cef-92e8-4da6-abb4-483662668b59"},"vehicle_type_id":"4","last_reported":1726229767,"current_range_meters":15200,"station_id":"ce4bh192rcd13ifvqdc0","pricing_plan_id":"cebpf4jnsgd1na2vs0mg"},{"bike_id":"55859ddd-82f5-4e35-9e82-c15799d03268","system_id":"levelo_inurba_marseille","lat":43.26954,"lon":5.38638,"is_reserved":false,"is_disabled":false,"rental_uris":{"android":"levelo://app?vid=55859ddd-82f5-4e35-9e82-c15799d03268","ios":"levelo://app?vid=55859ddd-82f5-4e35-9e82-c15799d03268"},"vehicle_type_id":"4","last_reported":1726229767,"current_range_meters":33600,"station_id":"ce4bhh92rcd13ifvqfh0","pricing_plan_id":"cebpf4jnsgd1na2vs0mg"},{"bike_id":"42170579-230a-4e79-a594-36469829ede6","system_id":"levelo_inurba_marseille","lat":43.3055,"lon":5.36558,"is_reserved":false,"is_disabled":false,"rental_uris":{"android":"levelo://app?vid=42170579-230a-4e79-a594-36469829ede6","ios":"levelo://app?vid=42170579-230a-4e79-a594-36469829ede6"},"vehicle_type_id":"4","last_reported":1726229767,"current_range_meters":33200,"station_id":"ce4bgs12rcd13ifvqcag","pricing_plan_id":"cebpf4jnsgd1na2vs0mg"},{"bike_id":"aeed0aee-477a-4f13-afc8-1af74a9a60b2","system_id":"levelo_inurba_marseille","lat":43.2894,"lon":5.36638,"is_reserved":false,"is_disabled":false,"rental_uris":{"android":"levelo://app?vid=aeed0aee-477a-4f13-afc8-1af74a9a60b2","ios":"levelo://app?vid=aeed0aee-477a-4f13-afc8-1af74a9a60b2"},"vehicle_type_id":"4","last_reported":1726229767,"current_range_meters":16000,"station_id":"ce4bhap2rcd13ifvqek0","pricing_plan_id":"cebpf4jnsgd1na2vs0mg"},{"bike_id":"f76337f9-ea69-40db-998f-4f3eaecc4e50","system_id":"levelo_inurba_marseille","lat":43.28349,"lon":5.38102,"is_reserved":false,"is_disabled":false,"rental_uris":{"android":"levelo://app?vid=f76337f9-ea69-40db-998f-4f3eaecc4e50","ios":"levelo://app?vid=f76337f9-ea69-40db-998f-4f3eaecc4e50"},"vehicle_type_id":"4","last_reported":1726229767,"current_range_meters":20400,"station_id":"ce4bh412rcd13ifvqdr0","pricing_plan_id":"cebpf4jnsgd1na2vs0mg"},{"bike_id":"d84214b9-11c2-4a5e-8f9e-9bd274cfac2e","system_id":"levelo_inurba_marseille","lat":43.2668,"lon":5.38266,"is_reserved":false,"is_disabled":false,"rental_uris":{"android":"levelo://app?vid=d84214b9-11c2-4a5e-8f9e-9bd274cfac2e","ios":"levelo://app?vid=d84214b9-11c2-4a5e-8f9e-9bd274cfac2e"},"vehicle_type_id":"4","last_reported":1726229767,"current_range_meters":38800,"station_id":"ce4bhg92rcd13ifvqf90","pricing_plan_id":"cebpf4jnsgd1na2vs0mg"},{"bike_id":"445c1462-9e37-40c2-92bd-b577e6c50a54","system_id":"levelo_inurba_marseille","lat":43.26951,"lon":5.38636,"is_reserved":false,"is_disabled":false,"rental_uris":{"android":"levelo://app?vid=445c1462-9e37-40c2-92bd-b577e6c50a54","ios":"levelo://app?vid=445c1462-9e37-40c2-92bd-b577e6c50a54"},"vehicle_type_id":"4","last_reported":1726229767,"current_range_meters":37600,"station_id":"ce4bhh92rcd13ifvqfh0","pricing_plan_id":"cebpf4jnsgd1na2vs0mg"},{"bike_id":"1a16481d-3f7e-485b-9333-22b39a53bcd2","system_id":"levelo_inurba_marseille","lat":43.2872,"lon":5.36079,"is_reserved":false,"is_disabled":false,"rental_uris":{"android":"levelo://app?vid=1a16481d-3f7e-485b-9333-22b39a53bcd2","ios":"levelo://app?vid=1a16481d-3f7e-485b-9333-22b39a53bcd2"},"vehicle_type_id":"4","last_reported":1726229767,"current_range_meters":38800,"station_id":"cki0cbj6b192h4jlfktg","pricing_plan_id":"cebpf4jnsgd1na2vs0mg"},{"bike_id":"0fd29e9b-5864-49ce-87d5-6c94f67fd247","system_id":"levelo_inurba_marseille","lat":43.27502,"lon":5.42434,"is_reserved":false,"is_disabled":false,"rental_uris":{"android":"levelo://app?vid=0fd29e9b-5864-49ce-87d5-6c94f67fd247","ios":"levelo://app?vid=0fd29e9b-5864-49ce-87d5-6c94f67fd247"},"vehicle_type_id":"4","last_reported":1726229767,"current_range_meters":10000,"station_id":"ce4bhn92rcd13ifvqgrg","pricing_plan_id":"cebpf4jnsgd1na2vs0mg"},{"bike_id":"bf99dca1-fb5c-408d-8934-0318c6a8682c","system_id":"levelo_inurba_marseille","lat":43.27426,"lon":5.39413,"is_reserved":false,"is_disabled":false,"rental_uris":{"android":"levelo://app?vid=bf99dca1-fb5c-408d-8934-0318c6a8682c","ios":"levelo://app?vid=bf99dca1-fb5c-408d-8934-0318c6a8682c"},"vehicle_type_id":"4","last_reported":1726229767,"current_range_meters":8000,"station_id":"ce4bhdp2rcd13ifvqf20","pricing_plan_id":"cebpf4jnsgd1na2vs0mg"},{"bike_id":"6df965e0-9534-47ea-b248-ceda89c3b8a8","system_id":"levelo_inurba_marseille","lat":43.23152,"lon":5.43708,"is_reserved":false,"is_disabled":false,"rental_uris":{"android":"levelo://app?vid=6df965e0-9534-47ea-b248-ceda89c3b8a8","ios":"levelo://app?vid=6df965e0-9534-47ea-b248-ceda89c3b8a8"},"vehicle_type_id":"4","last_reported":1726229767,"current_range_meters":18800,"station_id":"ce4bhmp2rcd13ifvqgog","pricing_plan_id":"cebpf4jnsgd1na2vs0mg"},{"bike_id":"2a089944-b1a6-45af-99d1-9b70add064d3","system_id":"levelo_inurba_marseille","lat":43.248111,"lon":5.374612,"is_reserved":false,"is_disabled":false,"rental_uris":{"android":"levelo://app?vid=2a089944-b1a6-45af-99d1-9b70add064d3","ios":"levelo://app?vid=2a089944-b1a6-45af-99d1-9b70add064d3"},"vehicle_type_id":"4","last_reported":1726229767,"current_range_meters":20000,"station_id":"ce4bhgh2rcd13ifvqfb0","pricing_plan_id":"cebpf4jnsgd1na2vs0mg"},{"bike_id":"34721204-9cc8-4128-8304-5b698c26b1e6","system_id":"levelo_inurba_marseille","lat":43.23185,"lon":5.39977,"is_reserved":false,"is_disabled":false,"rental_uris":{"android":"levelo://app?vid=34721204-9cc8-4128-8304-5b698c26b1e6","ios":"levelo://app?vid=34721204-9cc8-4128-8304-5b698c26b1e6"},"vehicle_type_id":"4","last_reported":1726229767,"current_range_meters":3600,"station_id":"ce4bhn12rcd13ifvqgqg","pricing_plan_id":"cebpf4jnsgd1na2vs0mg"},{"bike_id":"3e7284f6-6b22-423f-83c6-066d093107cb","system_id":"levelo_inurba_marseille","lat":43.27607,"lon":5.36109,"is_reserved":false,"is_disabled":false,"rental_uris":{"android":"levelo://app?vid=3e7284f6-6b22-423f-83c6-066d093107cb","ios":"levelo://app?vid=3e7284f6-6b22-423f-83c6-066d093107cb"},"vehicle_type_id":"4","last_reported":1726229767,"current_range_meters":27600,"station_id":"ce4bgj92rcd13ifvqbe0","pricing_plan_id":"cebpf4jnsgd1na2vs0mg"},{"bike_id":"4673fb8f-6f28-4685-aff4-19da9077599e","system_id":"levelo_inurba_marseille","lat":43.33612,"lon":5.41029,"is_reserved":false,"is_disabled":false,"rental_uris":{"android":"levelo://app?vid=4673fb8f-6f28-4685-aff4-19da9077599e","ios":"levelo://app?vid=4673fb8f-6f28-4685-aff4-19da9077599e"},"vehicle_type_id":"4","last_reported":1726229767,"current_range_meters":27600,"station_id":"ce4bhqh2rcd13ifvqhmg","pricing_plan_id":"cebpf4jnsgd1na2vs0mg"},{"bike_id":"39b86749-80ef-4310-953b-c60370086942","system_id":"levelo_inurba_marseille","lat":43.24539,"lon":5.39525,"is_reserved":false,"is_disabled":false,"rental_uris":{"android":"levelo://app?vid=39b86749-80ef-4310-953b-c60370086942","ios":"levelo://app?vid=39b86749-80ef-4310-953b-c60370086942"},"vehicle_type_id":"4","last_reported":1726229767,"current_range_meters":30400,"station_id":"ce4bhlp2rcd13ifvqgjg","pricing_plan_id":"cebpf4jnsgd1na2vs0mg"},{"bike_id":"6a8f2f10-9a94-4930-acf4-9d3abaa17531","system_id":"levelo_inurba_marseille","lat":43.25502,"lon":5.37653,"is_reserved":false,"is_disabled":false,"rental_uris":{"android":"levelo://app?vid=6a8f2f10-9a94-4930-acf4-9d3abaa17531","ios":"levelo://app?vid=6a8f2f10-9a94-4930-acf4-9d3abaa17531"},"vehicle_type_id":"4","last_reported":1726229767,"current_range_meters":36400,"station_id":"ce4bhh12rcd13ifvqff0","pricing_plan_id":"cebpf4jnsgd1na2vs0mg"},{"bike_id":"6e702bc1-92e5-4f81-974a-281cae37a1db","system_id":"levelo_inurba_marseille","lat":43.2558,"lon":5.38238,"is_reserved":false,"is_disabled":false,"rental_uris":{"android":"levelo://app?vid=6e702bc1-92e5-4f81-974a-281cae37a1db","ios":"levelo://app?vid=6e702bc1-92e5-4f81-974a-281cae37a1db"},"vehicle_type_id":"4","last_reported":1726229767,"current_range_meters":32800,"station_id":"ce4bhih2rcd13ifvqfs0","pricing_plan_id":"cebpf4jnsgd1na2vs0mg"},{"bike_id":"463a29c6-de5f-452d-8ad2-3526bf777173","system_id":"levelo_inurba_marseille","lat":43.30536,"lon":5.3654,"is_reserved":false,"is_disabled":false,"rental_uris":{"android":"levelo://app?vid=463a29c6-de5f-452d-8ad2-3526bf777173","ios":"levelo://app?vid=463a29c6-de5f-452d-8ad2-3526bf777173"},"vehicle_type_id":"4","last_reported":1726229767,"current_range_meters":40000,"station_id":"ce4bgs12rcd13ifvqcag","pricing_plan_id":"cebpf4jnsgd1na2vs0mg"},{"bike_id":"985afd86-b9ed-4df5-9551-4cf59de354c3","system_id":"levelo_inurba_marseille","lat":43.29292,"lon":5.40097,"is_reserved":false,"is_disabled":false,"rental_uris":{"android":"levelo://app?vid=985afd86-b9ed-4df5-9551-4cf59de354c3","ios":"levelo://app?vid=985afd86-b9ed-4df5-9551-4cf59de354c3"},"vehicle_type_id":"4","last_reported":1726229767,"current_range_meters":36400,"station_id":"ce4bh312rcd13ifvqdk0","pricing_plan_id":"cebpf4jnsgd1na2vs0mg"},{"bike_id":"acb4473c-f793-440a-9c76-0eca7b03c7c3","system_id":"levelo_inurba_marseille","lat":43.27667,"lon":5.3806,"is_reserved":false,"is_disabled":false,"rental_uris":{"android":"levelo://app?vid=acb4473c-f793-440a-9c76-0eca7b03c7c3","ios":"levelo://app?vid=acb4473c-f793-440a-9c76-0eca7b03c7c3"},"vehicle_type_id":"4","last_reported":1726229767,"current_range_meters":8000,"station_id":"","pricing_plan_id":"cebpf4jnsgd1na2vs0mg"},{"bike_id":"6dd56887-d476-45ba-8c76-5d6a0932fcb2","system_id":"levelo_inurba_marseille","lat":43.33764,"lon":5.3744,"is_reserved":false,"is_disabled":false,"rental_uris":{"android":"levelo://app?vid=6dd56887-d476-45ba-8c76-5d6a0932fcb2","ios":"levelo://app?vid=6dd56887-d476-45ba-8c76-5d6a0932fcb2"},"vehicle_type_id":"4","last_reported":1726229767,"current_range_meters":7200,"station_id":"","pricing_plan_id":"cebpf4jnsgd1na2vs0mg"},{"bike_id":"fae06e4c-7797-4c13-9a58-48e6bd948b24","system_id":"levelo_inurba_marseille","lat":43.24648,"lon":5.38892,"is_reserved":false,"is_disabled":false,"rental_uris":{"android":"levelo://app?vid=fae06e4c-7797-4c13-9a58-48e6bd948b24","ios":"levelo://app?vid=fae06e4c-7797-4c13-9a58-48e6bd948b24"},"vehicle_type_id":"4","last_reported":1726229767,"current_range_meters":38400,"station_id":"ce4bhg12rcd13ifvqf60","pricing_plan_id":"cebpf4jnsgd1na2vs0mg"},{"bike_id":"6f4c8bc8-485c-4808-8c13-7505fcc52c74","system_id":"levelo_inurba_marseille","lat":43.2315,"lon":5.43719,"is_reserved":false,"is_disabled":false,"rental_uris":{"android":"levelo://app?vid=6f4c8bc8-485c-4808-8c13-7505fcc52c74","ios":"levelo://app?vid=6f4c8bc8-485c-4808-8c13-7505fcc52c74"},"vehicle_type_id":"4","last_reported":1726229767,"current_range_meters":20400,"station_id":"ce4bhmp2rcd13ifvqgog","pricing_plan_id":"cebpf4jnsgd1na2vs0mg"},{"bike_id":"12119259-a9f9-4663-8fa2-427413b7f831","system_id":"levelo_inurba_marseille","lat":43.29204,"lon":5.39328,"is_reserved":false,"is_disabled":false,"rental_uris":{"android":"levelo://app?vid=12119259-a9f9-4663-8fa2-427413b7f831","ios":"levelo://app?vid=12119259-a9f9-4663-8fa2-427413b7f831"},"vehicle_type_id":"4","last_reported":1726229767,"current_range_meters":33200,"station_id":"ce4bh192rcd13ifvqdd0","pricing_plan_id":"cebpf4jnsgd1na2vs0mg"},{"bike_id":"627a3527-b30a-4328-9527-a928d188268b","system_id":"levelo_inurba_marseille","lat":43.29807,"lon":5.38093,"is_reserved":false,"is_disabled":false,"rental_uris":{"android":"levelo://app?vid=627a3527-b30a-4328-9527-a928d188268b","ios":"levelo://app?vid=627a3527-b30a-4328-9527-a928d188268b"},"vehicle_type_id":"4","last_reported":1726229767,"current_range_meters":2000,"station_id":"ce4bgip2rcd13ifvqbb0","pricing_plan_id":"cebpf4jnsgd1na2vs0mg"},{"bike_id":"4067cf6c-6e3d-4ac9-99bf-c1b92b69f736","system_id":"levelo_inurba_marseille","lat":43.32476,"lon":5.36561,"is_reserved":false,"is_disabled":false,"rental_uris":{"android":"levelo://app?vid=4067cf6c-6e3d-4ac9-99bf-c1b92b69f736","ios":"levelo://app?vid=4067cf6c-6e3d-4ac9-99bf-c1b92b69f736"},"vehicle_type_id":"4","last_reported":1726229767,"current_range_meters":24400,"station_id":"ce4bhs12rcd13ifvqhvg","pricing_plan_id":"cebpf4jnsgd1na2vs0mg"},{"bike_id":"9a294201-177a-42e2-b4e6-ec74738f7951","system_id":"levelo_inurba_marseille","lat":43.26947,"lon":5.38642,"is_reserved":false,"is_disabled":false,"rental_uris":{"android":"levelo://app?vid=9a294201-177a-42e2-b4e6-ec74738f7951","ios":"levelo://app?vid=9a294201-177a-42e2-b4e6-ec74738f7951"},"vehicle_type_id":"4","last_reported":1726229767,"current_range_meters":39200,"station_id":"ce4bhh92rcd13ifvqfh0","pricing_plan_id":"cebpf4jnsgd1na2vs0mg"},{"bike_id":"de0c03fd-df53-4c90-bdc6-56641ff0a144","system_id":"levelo_inurba_marseille","lat":43.28425,"lon":5.34989,"is_reserved":false,"is_disabled":false,"rental_uris":{"android":"levelo://app?vid=de0c03fd-df53-4c90-bdc6-56641ff0a144","ios":"levelo://app?vid=de0c03fd-df53-4c90-bdc6-56641ff0a144"},"vehicle_type_id":"4","last_reported":1726229767,"current_range_meters":16400,"station_id":"ce4bhbh2rcd13ifvqepg","pricing_plan_id":"cebpf4jnsgd1na2vs0mg"},{"bike_id":"8d3ad6d8-c649-4e88-8811-e3ed7f9bf76e","system_id":"levelo_inurba_marseille","lat":43.30808,"lon":5.38144,"is_reserved":false,"is_disabled":false,"rental_uris":{"android":"levelo://app?vid=8d3ad6d8-c649-4e88-8811-e3ed7f9bf76e","ios":"levelo://app?vid=8d3ad6d8-c649-4e88-8811-e3ed7f9bf76e"},"vehicle_type_id":"4","last_reported":1726229767,"current_range_meters":38800,"station_id":"ce4bgt12rcd13ifvqce0","pricing_plan_id":"cebpf4jnsgd1na2vs0mg"},{"bike_id":"eaf3218e-3b2a-4dde-9c15-99a6c4254e56","system_id":"levelo_inurba_marseille","lat":43.29901,"lon":5.43671,"is_reserved":false,"is_disabled":false,"rental_uris":{"android":"levelo://app?vid=eaf3218e-3b2a-4dde-9c15-99a6c4254e56","ios":"levelo://app?vid=eaf3218e-3b2a-4dde-9c15-99a6c4254e56"},"vehicle_type_id":"4","last_reported":1726229767,"current_range_meters":38800,"station_id":"ce4bhpp2rcd13ifvqhfg","pricing_plan_id":"cebpf4jnsgd1na2vs0mg"},{"bike_id":"88db3a1b-7722-48a5-a994-64dc5a73a8d6","system_id":"levelo_inurba_marseille","lat":43.31317,"lon":5.36731,"is_reserved":false,"is_disabled":false,"rental_uris":{"android":"levelo://app?vid=88db3a1b-7722-48a5-a994-64dc5a73a8d6","ios":"levelo://app?vid=88db3a1b-7722-48a5-a994-64dc5a73a8d6"},"vehicle_type_id":"4","last_reported":1726229767,"current_range_meters":33600,"station_id":"ce4bgr92rcd13ifvqc6g","pricing_plan_id":"cebpf4jnsgd1na2vs0mg"},{"bike_id":"6dfe49f4-83e2-40d0-8865-0920a4415a17","system_id":"levelo_inurba_marseille","lat":43.29698,"lon":5.37718,"is_reserved":false,"is_disabled":false,"rental_uris":{"android":"levelo://app?vid=6dfe49f4-83e2-40d0-8865-0920a4415a17","ios":"levelo://app?vid=6dfe49f4-83e2-40d0-8865-0920a4415a17"},"vehicle_type_id":"4","last_reported":1726229767,"current_range_meters":38800,"station_id":"ce4bgkh2rcd13ifvqbl0","pricing_plan_id":"cebpf4jnsgd1na2vs0mg"},{"bike_id":"0ea99d89-f29c-4e54-9766-bdcd2d65271c","system_id":"levelo_inurba_marseille","lat":43.22936,"lon":5.35375,"is_reserved":false,"is_disabled":false,"rental_uris":{"android":"levelo://app?vid=0ea99d89-f29c-4e54-9766-bdcd2d65271c","ios":"levelo://app?vid=0ea99d89-f29c-4e54-9766-bdcd2d65271c"},"vehicle_type_id":"4","last_reported":1726229767,"current_range_meters":27600,"station_id":"cpo3532slgdg3j2ikp40","pricing_plan_id":"cebpf4jnsgd1na2vs0mg"},{"bike_id":"ba81e19a-02db-4df6-ba4c-045bfb8f6f7d","system_id":"levelo_inurba_marseille","lat":43.30535,"lon":5.3654,"is_reserved":false,"is_disabled":false,"rental_uris":{"android":"levelo://app?vid=ba81e19a-02db-4df6-ba4c-045bfb8f6f7d","ios":"levelo://app?vid=ba81e19a-02db-4df6-ba4c-045bfb8f6f7d"},"vehicle_type_id":"4","last_reported":1726229767,"current_range_meters":39200,"station_id":"ce4bgs12rcd13ifvqcag","pricing_plan_id":"cebpf4jnsgd1na2vs0mg"},{"bike_id":"95e6e7fc-4282-4f7f-ab7e-41a709004a06","system_id":"levelo_inurba_marseille","lat":43.290145,"lon":5.376,"is_reserved":false,"is_disabled":false,"rental_uris":{"android":"levelo://app?vid=95e6e7fc-4282-4f7f-ab7e-41a709004a06","ios":"levelo://app?vid=95e6e7fc-4282-4f7f-ab7e-41a709004a06"},"vehicle_type_id":"4","last_reported":1726229767,"current_range_meters":16000,"station_id":"ce4bh692rcd13ifvqe90","pricing_plan_id":"cebpf4jnsgd1na2vs0mg"},{"bike_id":"da752d37-08d6-4594-a91f-f2daa05620f5","system_id":"levelo_inurba_marseille","lat":43.24653,"lon":5.38892,"is_reserved":false,"is_disabled":false,"rental_uris":{"android":"levelo://app?vid=da752d37-08d6-4594-a91f-f2daa05620f5","ios":"levelo://app?vid=da752d37-08d6-4594-a91f-f2daa05620f5"},"vehicle_type_id":"4","last_reported":1726229767,"current_range_meters":16400,"station_id":"ce4bhg12rcd13ifvqf60","pricing_plan_id":"cebpf4jnsgd1na2vs0mg"},{"bike_id":"9af21871-9438-4cdf-9787-d7c2fb2c2d7f","system_id":"levelo_inurba_marseille","lat":43.28616,"lon":5.35107,"is_reserved":false,"is_disabled":false,"rental_uris":{"android":"levelo://app?vid=9af21871-9438-4cdf-9787-d7c2fb2c2d7f","ios":"levelo://app?vid=9af21871-9438-4cdf-9787-d7c2fb2c2d7f"},"vehicle_type_id":"4","last_reported":1726229767,"current_range_meters":14800,"station_id":"ce4bhch2rcd13ifvqeug","pricing_plan_id":"cebpf4jnsgd1na2vs0mg"},{"bike_id":"e49093f7-6383-4e7f-9f16-cb91fa6cb74b","system_id":"levelo_inurba_marseille","lat":43.24994,"lon":5.3893,"is_reserved":false,"is_disabled":false,"rental_uris":{"android":"levelo://app?vid=e49093f7-6383-4e7f-9f16-cb91fa6cb74b","ios":"levelo://app?vid=e49093f7-6383-4e7f-9f16-cb91fa6cb74b"},"vehicle_type_id":"4","last_reported":1726229767,"current_range_meters":26800,"station_id":"ce4bhgp2rcd13ifvqfd0","pricing_plan_id":"cebpf4jnsgd1na2vs0mg"},{"bike_id":"f5d80230-6671-4c19-998a-9bc8d3d47824","system_id":"levelo_inurba_marseille","lat":43.29001,"lon":5.35612,"is_reserved":false,"is_disabled":false,"rental_uris":{"android":"levelo://app?vid=f5d80230-6671-4c19-998a-9bc8d3d47824","ios":"levelo://app?vid=f5d80230-6671-4c19-998a-9bc8d3d47824"},"vehicle_type_id":"4","last_reported":1726229767,"current_range_meters":38800,"station_id":"ce4bhb92rcd13ifvqen0","pricing_plan_id":"cebpf4jnsgd1na2vs0mg"},{"bike_id":"088f292c-aa53-4034-aaf8-d9607bfb2c08","system_id":"levelo_inurba_marseille","lat":43.33752,"lon":5.37443,"is_reserved":false,"is_disabled":false,"rental_uris":{"android":"levelo://app?vid=088f292c-aa53-4034-aaf8-d9607bfb2c08","ios":"levelo://app?vid=088f292c-aa53-4034-aaf8-d9607bfb2c08"},"vehicle_type_id":"4","last_reported":1726229767,"current_range_meters":14400,"station_id":"","pricing_plan_id":"cebpf4jnsgd1na2vs0mg"},{"bike_id":"8764129a-9b8d-4490-a1c9-f9fa60b4a560","system_id":"levelo_inurba_marseille","lat":43.33609,"lon":5.41028,"is_reserved":false,"is_disabled":false,"rental_uris":{"android":"levelo://app?vid=8764129a-9b8d-4490-a1c9-f9fa60b4a560","ios":"levelo://app?vid=8764129a-9b8d-4490-a1c9-f9fa60b4a560"},"vehicle_type_id":"4","last_reported":1726229767,"current_range_meters":38800,"station_id":"ce4bhqh2rcd13ifvqhmg","pricing_plan_id":"cebpf4jnsgd1na2vs0mg"},{"bike_id":"47be5376-1de4-48e3-818b-a080f6ed9b17","system_id":"levelo_inurba_marseille","lat":43.34151,"lon":5.40898,"is_reserved":false,"is_disabled":false,"rental_uris":{"android":"levelo://app?vid=47be5376-1de4-48e3-818b-a080f6ed9b17","ios":"levelo://app?vid=47be5376-1de4-48e3-818b-a080f6ed9b17"},"vehicle_type_id":"4","last_reported":1726229767,"current_range_meters":38800,"station_id":"ce4bhqh2rcd13ifvqhlg","pricing_plan_id":"cebpf4jnsgd1na2vs0mg"},{"bike_id":"96cb29cb-8da1-4dd6-bd35-ee190827a973","system_id":"levelo_inurba_marseille","lat":43.26556,"lon":5.37285,"is_reserved":false,"is_disabled":false,"rental_uris":{"android":"levelo://app?vid=96cb29cb-8da1-4dd6-bd35-ee190827a973","ios":"levelo://app?vid=96cb29cb-8da1-4dd6-bd35-ee190827a973"},"vehicle_type_id":"4","last_reported":1726229767,"current_range_meters":6800,"station_id":"ce4bhg12rcd13ifvqf70","pricing_plan_id":"cebpf4jnsgd1na2vs0mg"},{"bike_id":"3d0be373-de2e-4082-893a-54f0b6f55849","system_id":"levelo_inurba_marseille","lat":43.25935,"lon":5.40916,"is_reserved":false,"is_disabled":false,"rental_uris":{"android":"levelo://app?vid=3d0be373-de2e-4082-893a-54f0b6f55849","ios":"levelo://app?vid=3d0be373-de2e-4082-893a-54f0b6f55849"},"vehicle_type_id":"4","last_reported":1726229767,"current_range_meters":32000,"station_id":"ce4bhm92rcd13ifvqglg","pricing_plan_id":"cebpf4jnsgd1na2vs0mg"},{"bike_id":"9b49fc06-69dc-4375-9bc8-2ab31283d424","system_id":"levelo_inurba_marseille","lat":43.29904,"lon":5.43665,"is_reserved":false,"is_disabled":false,"rental_uris":{"android":"levelo://app?vid=9b49fc06-69dc-4375-9bc8-2ab31283d424","ios":"levelo://app?vid=9b49fc06-69dc-4375-9bc8-2ab31283d424"},"vehicle_type_id":"4","last_reported":1726229767,"current_range_meters":38000,"station_id":"ce4bhpp2rcd13ifvqhfg","pricing_plan_id":"cebpf4jnsgd1na2vs0mg"},{"bike_id":"8da5dc15-6ffd-459e-9829-1862808d45c3","system_id":"levelo_inurba_marseille","lat":43.27908,"lon":5.38002,"is_reserved":false,"is_disabled":false,"rental_uris":{"android":"levelo://app?vid=8da5dc15-6ffd-459e-9829-1862808d45c3","ios":"levelo://app?vid=8da5dc15-6ffd-459e-9829-1862808d45c3"},"vehicle_type_id":"4","last_reported":1726229767,"current_range_meters":22000,"station_id":"ce4bhf92rcd13ifvqf50","pricing_plan_id":"cebpf4jnsgd1na2vs0mg"},{"bike_id":"0181e8f7-fc31-4906-8c5f-245353cebd37","system_id":"levelo_inurba_marseille","lat":43.23179,"lon":5.39983,"is_reserved":false,"is_disabled":false,"rental_uris":{"android":"levelo://app?vid=0181e8f7-fc31-4906-8c5f-245353cebd37","ios":"levelo://app?vid=0181e8f7-fc31-4906-8c5f-245353cebd37"},"vehicle_type_id":"4","last_reported":1726229767,"current_range_meters":14800,"station_id":"ce4bhn12rcd13ifvqgqg","pricing_plan_id":"cebpf4jnsgd1na2vs0mg"},{"bike_id":"ddccb5e1-f797-4c86-928a-820872f0e7ad","system_id":"levelo_inurba_marseille","lat":43.23155,"lon":5.43703,"is_reserved":false,"is_disabled":false,"rental_uris":{"android":"levelo://app?vid=ddccb5e1-f797-4c86-928a-820872f0e7ad","ios":"levelo://app?vid=ddccb5e1-f797-4c86-928a-820872f0e7ad"},"vehicle_type_id":"4","last_reported":1726229767,"current_range_meters":6000,"station_id":"ce4bhmp2rcd13ifvqgog","pricing_plan_id":"cebpf4jnsgd1na2vs0mg"},{"bike_id":"7f9d7324-7a9b-4351-875a-368c43396e7e","system_id":"levelo_inurba_marseille","lat":43.29366,"lon":5.3784,"is_reserved":false,"is_disabled":false,"rental_uris":{"android":"levelo://app?vid=7f9d7324-7a9b-4351-875a-368c43396e7e","ios":"levelo://app?vid=7f9d7324-7a9b-4351-875a-368c43396e7e"},"vehicle_type_id":"4","last_reported":1726229767,"current_range_meters":12400,"station_id":"ce4bgjh2rcd13ifvqbf0","pricing_plan_id":"cebpf4jnsgd1na2vs0mg"},{"bike_id":"becf8cdd-7049-41cc-8a05-6a37cdf30939","system_id":"levelo_inurba_marseille","lat":43.27692,"lon":5.38378,"is_reserved":false,"is_disabled":false,"rental_uris":{"android":"levelo://app?vid=becf8cdd-7049-41cc-8a05-6a37cdf30939","ios":"levelo://app?vid=becf8cdd-7049-41cc-8a05-6a37cdf30939"},"vehicle_type_id":"4","last_reported":1726229767,"current_range_meters":16400,"station_id":"ce4bhh92rcd13ifvqfi0","pricing_plan_id":"cebpf4jnsgd1na2vs0mg"},{"bike_id":"69a8bafd-9f00-4df8-bb17-fba606e96b3a","system_id":"levelo_inurba_marseille","lat":43.30545,"lon":5.36532,"is_reserved":false,"is_disabled":false,"rental_uris":{"android":"levelo://app?vid=69a8bafd-9f00-4df8-bb17-fba606e96b3a","ios":"levelo://app?vid=69a8bafd-9f00-4df8-bb17-fba606e96b3a"},"vehicle_type_id":"4","last_reported":1726229767,"current_range_meters":40000,"station_id":"ce4bgs12rcd13ifvqcag","pricing_plan_id":"cebpf4jnsgd1na2vs0mg"},{"bike_id":"8cd504bb-7ccc-41c6-a736-850a175d54b9","system_id":"levelo_inurba_marseille","lat":43.28424,"lon":5.34993,"is_reserved":false,"is_disabled":false,"rental_uris":{"android":"levelo://app?vid=8cd504bb-7ccc-41c6-a736-850a175d54b9","ios":"levelo://app?vid=8cd504bb-7ccc-41c6-a736-850a175d54b9"},"vehicle_type_id":"4","last_reported":1726229767,"current_range_meters":30000,"station_id":"ce4bhbh2rcd13ifvqepg","pricing_plan_id":"cebpf4jnsgd1na2vs0mg"},{"bike_id":"1b01ab5d-5379-4ac8-8e00-e0e84ff0547c","system_id":"levelo_inurba_marseille","lat":43.30276,"lon":5.377,"is_reserved":false,"is_disabled":false,"rental_uris":{"android":"levelo://app?vid=1b01ab5d-5379-4ac8-8e00-e0e84ff0547c","ios":"levelo://app?vid=1b01ab5d-5379-4ac8-8e00-e0e84ff0547c"},"vehicle_type_id":"4","last_reported":1726229767,"current_range_meters":30400,"station_id":"ce4bguh2rcd13ifvqcj0","pricing_plan_id":"cebpf4jnsgd1na2vs0mg"},{"bike_id":"3002adf2-72df-4f89-8a9c-1d73f264e39c","system_id":"levelo_inurba_marseille","lat":43.28704,"lon":5.39987,"is_reserved":false,"is_disabled":false,"rental_uris":{"android":"levelo://app?vid=3002adf2-72df-4f89-8a9c-1d73f264e39c","ios":"levelo://app?vid=3002adf2-72df-4f89-8a9c-1d73f264e39c"},"vehicle_type_id":"4","last_reported":1726229767,"current_range_meters":25200,"station_id":"ce4bho92rcd13ifvqh3g","pricing_plan_id":"cebpf4jnsgd1na2vs0mg"},{"bike_id":"46d70e9c-49ee-440a-a92c-d8b60775e17c","system_id":"levelo_inurba_marseille","lat":43.27425,"lon":5.39418,"is_reserved":false,"is_disabled":false,"rental_uris":{"android":"levelo://app?vid=46d70e9c-49ee-440a-a92c-d8b60775e17c","ios":"levelo://app?vid=46d70e9c-49ee-440a-a92c-d8b60775e17c"},"vehicle_type_id":"4","last_reported":1726229767,"current_range_meters":8800,"station_id":"ce4bhdp2rcd13ifvqf20","pricing_plan_id":"cebpf4jnsgd1na2vs0mg"},{"bike_id":"2fbe59be-967c-4f3f-b5eb-2a3f8b0b8fb5","system_id":"levelo_inurba_marseille","lat":43.27491,"lon":5.42458,"is_reserved":false,"is_disabled":false,"rental_uris":{"android":"levelo://app?vid=2fbe59be-967c-4f3f-b5eb-2a3f8b0b8fb5","ios":"levelo://app?vid=2fbe59be-967c-4f3f-b5eb-2a3f8b0b8fb5"},"vehicle_type_id":"4","last_reported":1726229767,"current_range_meters":35600,"station_id":"ce4bhn92rcd13ifvqgrg","pricing_plan_id":"cebpf4jnsgd1na2vs0mg"},{"bike_id":"a2065f96-47d3-4a85-be06-4c0f1ffbde51","system_id":"levelo_inurba_marseille","lat":43.2606,"lon":5.39392,"is_reserved":false,"is_disabled":false,"rental_uris":{"android":"levelo://app?vid=a2065f96-47d3-4a85-be06-4c0f1ffbde51","ios":"levelo://app?vid=a2065f96-47d3-4a85-be06-4c0f1ffbde51"},"vehicle_type_id":"4","last_reported":1726229767,"current_range_meters":9200,"station_id":"ce4bhh92rcd13ifvqfj0","pricing_plan_id":"cebpf4jnsgd1na2vs0mg"},{"bike_id":"79b7950d-90c8-4e3c-a243-1a31b18cd68e","system_id":"levelo_inurba_marseille","lat":43.23969,"lon":5.36636,"is_reserved":false,"is_disabled":false,"rental_uris":{"android":"levelo://app?vid=79b7950d-90c8-4e3c-a243-1a31b18cd68e","ios":"levelo://app?vid=79b7950d-90c8-4e3c-a243-1a31b18cd68e"},"vehicle_type_id":"4","last_reported":1726229767,"current_range_meters":11200,"station_id":"ce4bhi12rcd13ifvqfp0","pricing_plan_id":"cebpf4jnsgd1na2vs0mg"},{"bike_id":"72b517d2-6987-46d8-857e-779bc7604f01","system_id":"levelo_inurba_marseille","lat":43.26028,"lon":5.37551,"is_reserved":false,"is_disabled":false,"rental_uris":{"android":"levelo://app?vid=72b517d2-6987-46d8-857e-779bc7604f01","ios":"levelo://app?vid=72b517d2-6987-46d8-857e-779bc7604f01"},"vehicle_type_id":"4","last_reported":1726229767,"current_range_meters":19600,"station_id":"ce4bhgh2rcd13ifvqfa0","pricing_plan_id":"cebpf4jnsgd1na2vs0mg"},{"bike_id":"2c4577b3-3689-495e-a3c3-a78eafd4dc43","system_id":"levelo_inurba_marseille","lat":43.26553,"lon":5.37285,"is_reserved":false,"is_disabled":false,"rental_uris":{"android":"levelo://app?vid=2c4577b3-3689-495e-a3c3-a78eafd4dc43","ios":"levelo://app?vid=2c4577b3-3689-495e-a3c3-a78eafd4dc43"},"vehicle_type_id":"4","last_reported":1726229767,"current_range_meters":27600,"station_id":"ce4bhg12rcd13ifvqf70","pricing_plan_id":"cebpf4jnsgd1na2vs0mg"},{"bike_id":"5808faf6-9bd9-4730-8859-0718e969bfc3","system_id":"levelo_inurba_marseille","lat":43.30545,"lon":5.36534,"is_reserved":false,"is_disabled":false,"rental_uris":{"android":"levelo://app?vid=5808faf6-9bd9-4730-8859-0718e969bfc3","ios":"levelo://app?vid=5808faf6-9bd9-4730-8859-0718e969bfc3"},"vehicle_type_id":"4","last_reported":1726229767,"current_range_meters":38800,"station_id":"ce4bgs12rcd13ifvqcag","pricing_plan_id":"cebpf4jnsgd1na2vs0mg"},{"bike_id":"67a287be-50cc-46dc-ac8b-4e874da66d33","system_id":"levelo_inurba_marseille","lat":43.298797,"lon":5.389059,"is_reserved":false,"is_disabled":false,"rental_uris":{"android":"levelo://app?vid=67a287be-50cc-46dc-ac8b-4e874da66d33","ios":"levelo://app?vid=67a287be-50cc-46dc-ac8b-4e874da66d33"},"vehicle_type_id":"4","last_reported":1726229767,"current_range_meters":32800,"station_id":"ce4bgip2rcd13ifvqbb0","pricing_plan_id":"cebpf4jnsgd1na2vs0mg"},{"bike_id":"60d5bda9-f640-405a-935d-62d1314e50fa","system_id":"levelo_inurba_marseille","lat":43.23967,"lon":5.36637,"is_reserved":false,"is_disabled":false,"rental_uris":{"android":"levelo://app?vid=60d5bda9-f640-405a-935d-62d1314e50fa","ios":"levelo://app?vid=60d5bda9-f640-405a-935d-62d1314e50fa"},"vehicle_type_id":"4","last_reported":1726229767,"current_range_meters":27600,"station_id":"ce4bhi12rcd13ifvqfp0","pricing_plan_id":"cebpf4jnsgd1na2vs0mg"},{"bike_id":"0a5a33e8-c334-4e80-ae99-542cfa8ba3c7","system_id":"levelo_inurba_marseille","lat":43.24661,"lon":5.38163,"is_reserved":false,"is_disabled":false,"rental_uris":{"android":"levelo://app?vid=0a5a33e8-c334-4e80-ae99-542cfa8ba3c7","ios":"levelo://app?vid=0a5a33e8-c334-4e80-ae99-542cfa8ba3c7"},"vehicle_type_id":"4","last_reported":1726229767,"current_range_meters":24800,"station_id":"ce4bhih2rcd13ifvqfr0","pricing_plan_id":"cebpf4jnsgd1na2vs0mg"},{"bike_id":"bd2ce2e0-f8d9-4e30-a205-2f074a8614dd","system_id":"levelo_inurba_marseille","lat":43.26949,"lon":5.38633,"is_reserved":false,"is_disabled":false,"rental_uris":{"android":"levelo://app?vid=bd2ce2e0-f8d9-4e30-a205-2f074a8614dd","ios":"levelo://app?vid=bd2ce2e0-f8d9-4e30-a205-2f074a8614dd"},"vehicle_type_id":"4","last_reported":1726229767,"current_range_meters":22800,"station_id":"ce4bhh92rcd13ifvqfh0","pricing_plan_id":"cebpf4jnsgd1na2vs0mg"},{"bike_id":"d28ffe4e-0ebc-42cf-b134-2f654bad2f26","system_id":"levelo_inurba_marseille","lat":43.29531,"lon":5.38552,"is_reserved":false,"is_disabled":false,"rental_uris":{"android":"levelo://app?vid=d28ffe4e-0ebc-42cf-b134-2f654bad2f26","ios":"levelo://app?vid=d28ffe4e-0ebc-42cf-b134-2f654bad2f26"},"vehicle_type_id":"4","last_reported":1726229767,"current_range_meters":14800,"station_id":"ce4bgih2rcd13ifvqba0","pricing_plan_id":"cebpf4jnsgd1na2vs0mg"},{"bike_id":"b27ccadd-fb46-42c9-bf72-8014a1042a8f","system_id":"levelo_inurba_marseille","lat":43.23149,"lon":5.43719,"is_reserved":false,"is_disabled":false,"rental_uris":{"android":"levelo://app?vid=b27ccadd-fb46-42c9-bf72-8014a1042a8f","ios":"levelo://app?vid=b27ccadd-fb46-42c9-bf72-8014a1042a8f"},"vehicle_type_id":"4","last_reported":1726229767,"current_range_meters":4800,"station_id":"ce4bhmp2rcd13ifvqgog","pricing_plan_id":"cebpf4jnsgd1na2vs0mg"},{"bike_id":"4f0ea37a-15ba-4240-b0fa-68e3874bc062","system_id":"levelo_inurba_marseille","lat":43.24996,"lon":5.38934,"is_reserved":false,"is_disabled":false,"rental_uris":{"android":"levelo://app?vid=4f0ea37a-15ba-4240-b0fa-68e3874bc062","ios":"levelo://app?vid=4f0ea37a-15ba-4240-b0fa-68e3874bc062"},"vehicle_type_id":"4","last_reported":1726229767,"current_range_meters":6400,"station_id":"ce4bhgp2rcd13ifvqfd0","pricing_plan_id":"cebpf4jnsgd1na2vs0mg"},{"bike_id":"1d2f2668-4ed5-469e-8e3b-9e55e4ab33e4","system_id":"levelo_inurba_marseille","lat":43.30883,"lon":5.39656,"is_reserved":false,"is_disabled":false,"rental_uris":{"android":"levelo://app?vid=1d2f2668-4ed5-469e-8e3b-9e55e4ab33e4","ios":"levelo://app?vid=1d2f2668-4ed5-469e-8e3b-9e55e4ab33e4"},"vehicle_type_id":"4","last_reported":1726229767,"current_range_meters":30000,"station_id":"ce4bh012rcd13ifvqcv0","pricing_plan_id":"cebpf4jnsgd1na2vs0mg"},{"bike_id":"02da8137-c82f-48b5-a8b1-a754d8795f59","system_id":"levelo_inurba_marseille","lat":43.26938,"lon":5.40248,"is_reserved":false,"is_disabled":false,"rental_uris":{"android":"levelo://app?vid=02da8137-c82f-48b5-a8b1-a754d8795f59","ios":"levelo://app?vid=02da8137-c82f-48b5-a8b1-a754d8795f59"},"vehicle_type_id":"4","last_reported":1726229767,"current_range_meters":38000,"station_id":"cjm6bp8fraef2m0cb0m0","pricing_plan_id":"cebpf4jnsgd1na2vs0mg"},{"bike_id":"c61b49d7-8c8f-4d56-9187-d7249896e6d8","system_id":"levelo_inurba_marseille","lat":43.23154,"lon":5.43699,"is_reserved":false,"is_disabled":false,"rental_uris":{"android":"levelo://app?vid=c61b49d7-8c8f-4d56-9187-d7249896e6d8","ios":"levelo://app?vid=c61b49d7-8c8f-4d56-9187-d7249896e6d8"},"vehicle_type_id":"4","last_reported":1726229767,"current_range_meters":38800,"station_id":"ce4bhmp2rcd13ifvqgog","pricing_plan_id":"cebpf4jnsgd1na2vs0mg"},{"bike_id":"b09c33f1-211c-4401-9c5f-be63fa7524f7","system_id":"levelo_inurba_marseille","lat":43.23152,"lon":5.43704,"is_reserved":false,"is_disabled":false,"rental_uris":{"android":"levelo://app?vid=b09c33f1-211c-4401-9c5f-be63fa7524f7","ios":"levelo://app?vid=b09c33f1-211c-4401-9c5f-be63fa7524f7"},"vehicle_type_id":"4","last_reported":1726229767,"current_range_meters":26800,"station_id":"ce4bhmp2rcd13ifvqgog","pricing_plan_id":"cebpf4jnsgd1na2vs0mg"},{"bike_id":"cf925960-2b60-4ed3-ae2c-ac49f1c1ca0e","system_id":"levelo_inurba_marseille","lat":43.27317,"lon":5.39077,"is_reserved":false,"is_disabled":false,"rental_uris":{"android":"levelo://app?vid=cf925960-2b60-4ed3-ae2c-ac49f1c1ca0e","ios":"levelo://app?vid=cf925960-2b60-4ed3-ae2c-ac49f1c1ca0e"},"vehicle_type_id":"4","last_reported":1726229767,"current_range_meters":12000,"station_id":"ce4bhgp2rcd13ifvqfe0","pricing_plan_id":"cebpf4jnsgd1na2vs0mg"},{"bike_id":"aa4e8f1d-9407-485a-87ff-f80b98af6f87","system_id":"levelo_inurba_marseille","lat":43.32488,"lon":5.36563,"is_reserved":false,"is_disabled":false,"rental_uris":{"android":"levelo://app?vid=aa4e8f1d-9407-485a-87ff-f80b98af6f87","ios":"levelo://app?vid=aa4e8f1d-9407-485a-87ff-f80b98af6f87"},"vehicle_type_id":"4","last_reported":1726229767,"current_range_meters":12000,"station_id":"ce4bhs12rcd13ifvqhvg","pricing_plan_id":"cebpf4jnsgd1na2vs0mg"},{"bike_id":"288cef71-b93b-4cf0-921e-39ef252d67a1","system_id":"levelo_inurba_marseille","lat":43.33767,"lon":5.37439,"is_reserved":false,"is_disabled":false,"rental_uris":{"android":"levelo://app?vid=288cef71-b93b-4cf0-921e-39ef252d67a1","ios":"levelo://app?vid=288cef71-b93b-4cf0-921e-39ef252d67a1"},"vehicle_type_id":"4","last_reported":1726229767,"current_range_meters":30400,"station_id":"","pricing_plan_id":"cebpf4jnsgd1na2vs0mg"},{"bike_id":"2d9f6a36-1e8d-46ce-8819-b2bb04006d43","system_id":"levelo_inurba_marseille","lat":43.25582,"lon":5.38225,"is_reserved":false,"is_disabled":false,"rental_uris":{"android":"levelo://app?vid=2d9f6a36-1e8d-46ce-8819-b2bb04006d43","ios":"levelo://app?vid=2d9f6a36-1e8d-46ce-8819-b2bb04006d43"},"vehicle_type_id":"4","last_reported":1726229767,"current_range_meters":30400,"station_id":"ce4bhih2rcd13ifvqfs0","pricing_plan_id":"cebpf4jnsgd1na2vs0mg"},{"bike_id":"d62e1434-dfc4-4934-810c-ea7e62e20781","system_id":"levelo_inurba_marseille","lat":43.2894,"lon":5.36629,"is_reserved":false,"is_disabled":false,"rental_uris":{"android":"levelo://app?vid=d62e1434-dfc4-4934-810c-ea7e62e20781","ios":"levelo://app?vid=d62e1434-dfc4-4934-810c-ea7e62e20781"},"vehicle_type_id":"4","last_reported":1726229767,"current_range_meters":31200,"station_id":"ce4bhap2rcd13ifvqek0","pricing_plan_id":"cebpf4jnsgd1na2vs0mg"},{"bike_id":"667709e0-c243-46d2-a50e-b542ee534ec4","system_id":"levelo_inurba_marseille","lat":43.28668,"lon":5.38663,"is_reserved":false,"is_disabled":false,"rental_uris":{"android":"levelo://app?vid=667709e0-c243-46d2-a50e-b542ee534ec4","ios":"levelo://app?vid=667709e0-c243-46d2-a50e-b542ee534ec4"},"vehicle_type_id":"4","last_reported":1726229767,"current_range_meters":22000,"station_id":"ce4bh492rcd13ifvqdug","pricing_plan_id":"cebpf4jnsgd1na2vs0mg"},{"bike_id":"dec5e32e-7051-4cbc-bd0a-76072a86a28d","system_id":"levelo_inurba_marseille","lat":43.29095,"lon":5.384081,"is_reserved":false,"is_disabled":false,"rental_uris":{"android":"levelo://app?vid=dec5e32e-7051-4cbc-bd0a-76072a86a28d","ios":"levelo://app?vid=dec5e32e-7051-4cbc-bd0a-76072a86a28d"},"vehicle_type_id":"4","last_reported":1726229767,"current_range_meters":28000,"station_id":"ce4bh4p2rcd13ifvqe1g","pricing_plan_id":"cebpf4jnsgd1na2vs0mg"},{"bike_id":"e62c8c71-b14f-4c94-8aa4-e0afcaaf93b6","system_id":"levelo_inurba_marseille","lat":43.24816,"lon":5.37461,"is_reserved":false,"is_disabled":false,"rental_uris":{"android":"levelo://app?vid=e62c8c71-b14f-4c94-8aa4-e0afcaaf93b6","ios":"levelo://app?vid=e62c8c71-b14f-4c94-8aa4-e0afcaaf93b6"},"vehicle_type_id":"4","last_reported":1726229767,"current_range_meters":32400,"station_id":"ce4bhgh2rcd13ifvqfb0","pricing_plan_id":"cebpf4jnsgd1na2vs0mg"},{"bike_id":"9e955087-931f-42c6-a5de-4480d9f0a58c","system_id":"levelo_inurba_marseille","lat":43.32482,"lon":5.36567,"is_reserved":false,"is_disabled":false,"rental_uris":{"android":"levelo://app?vid=9e955087-931f-42c6-a5de-4480d9f0a58c","ios":"levelo://app?vid=9e955087-931f-42c6-a5de-4480d9f0a58c"},"vehicle_type_id":"4","last_reported":1726229767,"current_range_meters":27600,"station_id":"ce4bhs12rcd13ifvqhvg","pricing_plan_id":"cebpf4jnsgd1na2vs0mg"},{"bike_id":"19aa7d2a-0e5a-4b19-b63f-3963e00f60f0","system_id":"levelo_inurba_marseille","lat":43.26575,"lon":5.39002,"is_reserved":false,"is_disabled":false,"rental_uris":{"android":"levelo://app?vid=19aa7d2a-0e5a-4b19-b63f-3963e00f60f0","ios":"levelo://app?vid=19aa7d2a-0e5a-4b19-b63f-3963e00f60f0"},"vehicle_type_id":"4","last_reported":1726229767,"current_range_meters":38800,"station_id":"ce4bhe12rcd13ifvqf30","pricing_plan_id":"cebpf4jnsgd1na2vs0mg"},{"bike_id":"69b26a0b-db83-4395-8ee1-1e784091ffad","system_id":"levelo_inurba_marseille","lat":43.23145,"lon":5.43715,"is_reserved":false,"is_disabled":false,"rental_uris":{"android":"levelo://app?vid=69b26a0b-db83-4395-8ee1-1e784091ffad","ios":"levelo://app?vid=69b26a0b-db83-4395-8ee1-1e784091ffad"},"vehicle_type_id":"4","last_reported":1726229767,"current_range_meters":38800,"station_id":"ce4bhmp2rcd13ifvqgog","pricing_plan_id":"cebpf4jnsgd1na2vs0mg"},{"bike_id":"893aa360-c841-40e1-bdb8-2f59f2d295c9","system_id":"levelo_inurba_marseille","lat":43.30146,"lon":5.3742,"is_reserved":false,"is_disabled":false,"rental_uris":{"android":"levelo://app?vid=893aa360-c841-40e1-bdb8-2f59f2d295c9","ios":"levelo://app?vid=893aa360-c841-40e1-bdb8-2f59f2d295c9"},"vehicle_type_id":"4","last_reported":1726229767,"current_range_meters":28000,"station_id":"ce4bgs92rcd13ifvqcc0","pricing_plan_id":"cebpf4jnsgd1na2vs0mg"},{"bike_id":"655b4797-dc8d-49a1-8610-fcd415671ad9","system_id":"levelo_inurba_marseille","lat":43.33602,"lon":5.41034,"is_reserved":false,"is_disabled":false,"rental_uris":{"android":"levelo://app?vid=655b4797-dc8d-49a1-8610-fcd415671ad9","ios":"levelo://app?vid=655b4797-dc8d-49a1-8610-fcd415671ad9"},"vehicle_type_id":"4","last_reported":1726229767,"current_range_meters":38400,"station_id":"ce4bhqh2rcd13ifvqhmg","pricing_plan_id":"cebpf4jnsgd1na2vs0mg"},{"bike_id":"89f52e50-6b50-4586-86fd-31a3522a1f60","system_id":"levelo_inurba_marseille","lat":43.29254,"lon":5.36867,"is_reserved":false,"is_disabled":false,"rental_uris":{"android":"levelo://app?vid=89f52e50-6b50-4586-86fd-31a3522a1f60","ios":"levelo://app?vid=89f52e50-6b50-4586-86fd-31a3522a1f60"},"vehicle_type_id":"4","last_reported":1726229767,"current_range_meters":20400,"station_id":"ce4bhbp2rcd13ifvqesg","pricing_plan_id":"cebpf4jnsgd1na2vs0mg"},{"bike_id":"848e4701-faff-4bd9-9f92-ca534abc7b7f","system_id":"levelo_inurba_marseille","lat":43.28938,"lon":5.36629,"is_reserved":false,"is_disabled":false,"rental_uris":{"android":"levelo://app?vid=848e4701-faff-4bd9-9f92-ca534abc7b7f","ios":"levelo://app?vid=848e4701-faff-4bd9-9f92-ca534abc7b7f"},"vehicle_type_id":"4","last_reported":1726229767,"current_range_meters":36000,"station_id":"ce4bhap2rcd13ifvqek0","pricing_plan_id":"cebpf4jnsgd1na2vs0mg"},{"bike_id":"91ce77ce-18ef-47d8-9533-f401393ecd0b","system_id":"levelo_inurba_marseille","lat":43.28621,"lon":5.35098,"is_reserved":false,"is_disabled":false,"rental_uris":{"android":"levelo://app?vid=91ce77ce-18ef-47d8-9533-f401393ecd0b","ios":"levelo://app?vid=91ce77ce-18ef-47d8-9533-f401393ecd0b"},"vehicle_type_id":"4","last_reported":1726229767,"current_range_meters":17200,"station_id":"ce4bhch2rcd13ifvqeug","pricing_plan_id":"cebpf4jnsgd1na2vs0mg"},{"bike_id":"5987713b-d8c0-4903-81ac-fe80cbeac0b3","system_id":"levelo_inurba_marseille","lat":43.27073,"lon":5.42276,"is_reserved":false,"is_disabled":false,"rental_uris":{"android":"levelo://app?vid=5987713b-d8c0-4903-81ac-fe80cbeac0b3","ios":"levelo://app?vid=5987713b-d8c0-4903-81ac-fe80cbeac0b3"},"vehicle_type_id":"4","last_reported":1726229767,"current_range_meters":38400,"station_id":"ce4bhk92rcd13ifvqgb0","pricing_plan_id":"cebpf4jnsgd1na2vs0mg"},{"bike_id":"f7a53b7e-f107-4093-ae3c-11e7b53133d4","system_id":"levelo_inurba_marseille","lat":43.27422,"lon":5.39411,"is_reserved":false,"is_disabled":false,"rental_uris":{"android":"levelo://app?vid=f7a53b7e-f107-4093-ae3c-11e7b53133d4","ios":"levelo://app?vid=f7a53b7e-f107-4093-ae3c-11e7b53133d4"},"vehicle_type_id":"4","last_reported":1726229767,"current_range_meters":18800,"station_id":"ce4bhdp2rcd13ifvqf20","pricing_plan_id":"cebpf4jnsgd1na2vs0mg"},{"bike_id":"83f1f987-6df3-4e29-a389-aec0ccf709cd","system_id":"levelo_inurba_marseille","lat":43.29791,"lon":5.381,"is_reserved":false,"is_disabled":false,"rental_uris":{"android":"levelo://app?vid=83f1f987-6df3-4e29-a389-aec0ccf709cd","ios":"levelo://app?vid=83f1f987-6df3-4e29-a389-aec0ccf709cd"},"vehicle_type_id":"4","last_reported":1726229767,"current_range_meters":8000,"station_id":"ce4bgip2rcd13ifvqbb0","pricing_plan_id":"cebpf4jnsgd1na2vs0mg"},{"bike_id":"d608f0a9-6c51-4c68-be81-d6c79550be85","system_id":"levelo_inurba_marseille","lat":43.31714,"lon":5.43706,"is_reserved":false,"is_disabled":false,"rental_uris":{"android":"levelo://app?vid=d608f0a9-6c51-4c68-be81-d6c79550be85","ios":"levelo://app?vid=d608f0a9-6c51-4c68-be81-d6c79550be85"},"vehicle_type_id":"4","last_reported":1726229767,"current_range_meters":39200,"station_id":"ce4bhp92rcd13ifvqhcg","pricing_plan_id":"cebpf4jnsgd1na2vs0mg"},{"bike_id":"a8408bc0-1ad0-4261-92e7-4324637d7c82","system_id":"levelo_inurba_marseille","lat":43.28994,"lon":5.35612,"is_reserved":false,"is_disabled":false,"rental_uris":{"android":"levelo://app?vid=a8408bc0-1ad0-4261-92e7-4324637d7c82","ios":"levelo://app?vid=a8408bc0-1ad0-4261-92e7-4324637d7c82"},"vehicle_type_id":"4","last_reported":1726229767,"current_range_meters":38800,"station_id":"ce4bhb92rcd13ifvqen0","pricing_plan_id":"cebpf4jnsgd1na2vs0mg"},{"bike_id":"f3626372-42a0-4b04-8352-1cce262c63e4","system_id":"levelo_inurba_marseille","lat":43.33608,"lon":5.4103,"is_reserved":false,"is_disabled":false,"rental_uris":{"android":"levelo://app?vid=f3626372-42a0-4b04-8352-1cce262c63e4","ios":"levelo://app?vid=f3626372-42a0-4b04-8352-1cce262c63e4"},"vehicle_type_id":"4","last_reported":1726229767,"current_range_meters":21600,"station_id":"ce4bhqh2rcd13ifvqhmg","pricing_plan_id":"cebpf4jnsgd1na2vs0mg"},{"bike_id":"deaeb920-23ab-4b51-a90a-3a4d369b9959","system_id":"levelo_inurba_marseille","lat":43.26552,"lon":5.37285,"is_reserved":false,"is_disabled":false,"rental_uris":{"android":"levelo://app?vid=deaeb920-23ab-4b51-a90a-3a4d369b9959","ios":"levelo://app?vid=deaeb920-23ab-4b51-a90a-3a4d369b9959"},"vehicle_type_id":"4","last_reported":1726229767,"current_range_meters":8400,"station_id":"ce4bhg12rcd13ifvqf70","pricing_plan_id":"cebpf4jnsgd1na2vs0mg"},{"bike_id":"2b3b149a-a97d-4ec6-8215-8db469b4ca12","system_id":"levelo_inurba_marseille","lat":43.29712,"lon":5.37698,"is_reserved":false,"is_disabled":false,"rental_uris":{"android":"levelo://app?vid=2b3b149a-a97d-4ec6-8215-8db469b4ca12","ios":"levelo://app?vid=2b3b149a-a97d-4ec6-8215-8db469b4ca12"},"vehicle_type_id":"4","last_reported":1726229767,"current_range_meters":33600,"station_id":"ce4bgkh2rcd13ifvqbl0","pricing_plan_id":"cebpf4jnsgd1na2vs0mg"},{"bike_id":"b1ef9f5c-48fe-4b6e-b5cb-3758aac5ecd5","system_id":"levelo_inurba_marseille","lat":43.23147,"lon":5.43715,"is_reserved":false,"is_disabled":false,"rental_uris":{"android":"levelo://app?vid=b1ef9f5c-48fe-4b6e-b5cb-3758aac5ecd5","ios":"levelo://app?vid=b1ef9f5c-48fe-4b6e-b5cb-3758aac5ecd5"},"vehicle_type_id":"4","last_reported":1726229767,"current_range_meters":38800,"station_id":"ce4bhmp2rcd13ifvqgog","pricing_plan_id":"cebpf4jnsgd1na2vs0mg"},{"bike_id":"2cfa046b-6b6c-4a3f-98b9-131f3ed8b6a3","system_id":"levelo_inurba_marseille","lat":43.27421,"lon":5.39418,"is_reserved":false,"is_disabled":false,"rental_uris":{"android":"levelo://app?vid=2cfa046b-6b6c-4a3f-98b9-131f3ed8b6a3","ios":"levelo://app?vid=2cfa046b-6b6c-4a3f-98b9-131f3ed8b6a3"},"vehicle_type_id":"4","last_reported":1726229767,"current_range_meters":38800,"station_id":"ce4bhdp2rcd13ifvqf20","pricing_plan_id":"cebpf4jnsgd1na2vs0mg"},{"bike_id":"3622b2e2-b415-4605-b192-83420befa424","system_id":"levelo_inurba_marseille","lat":43.30274,"lon":5.37696,"is_reserved":false,"is_disabled":false,"rental_uris":{"android":"levelo://app?vid=3622b2e2-b415-4605-b192-83420befa424","ios":"levelo://app?vid=3622b2e2-b415-4605-b192-83420befa424"},"vehicle_type_id":"4","last_reported":1726229767,"current_range_meters":26800,"station_id":"ce4bguh2rcd13ifvqcj0","pricing_plan_id":"cebpf4jnsgd1na2vs0mg"},{"bike_id":"4f6ba2b4-7946-42cf-ad2a-95f068c566bd","system_id":"levelo_inurba_marseille","lat":43.29887,"lon":5.38141,"is_reserved":false,"is_disabled":false,"rental_uris":{"android":"levelo://app?vid=4f6ba2b4-7946-42cf-ad2a-95f068c566bd","ios":"levelo://app?vid=4f6ba2b4-7946-42cf-ad2a-95f068c566bd"},"vehicle_type_id":"4","last_reported":1726229767,"current_range_meters":11600,"station_id":"ce4bgj12rcd13ifvqbc0","pricing_plan_id":"cebpf4jnsgd1na2vs0mg"},{"bike_id":"e9de33df-3ec5-4423-8930-1db61f2f343d","system_id":"levelo_inurba_marseille","lat":43.26556,"lon":5.37289,"is_reserved":false,"is_disabled":false,"rental_uris":{"android":"levelo://app?vid=e9de33df-3ec5-4423-8930-1db61f2f343d","ios":"levelo://app?vid=e9de33df-3ec5-4423-8930-1db61f2f343d"},"vehicle_type_id":"4","last_reported":1726229767,"current_range_meters":30800,"station_id":"ce4bhg12rcd13ifvqf70","pricing_plan_id":"cebpf4jnsgd1na2vs0mg"},{"bike_id":"d765a641-e055-4e3b-87e7-fd69ea5db099","system_id":"levelo_inurba_marseille","lat":43.3377,"lon":5.37438,"is_reserved":false,"is_disabled":false,"rental_uris":{"android":"levelo://app?vid=d765a641-e055-4e3b-87e7-fd69ea5db099","ios":"levelo://app?vid=d765a641-e055-4e3b-87e7-fd69ea5db099"},"vehicle_type_id":"4","last_reported":1726229767,"current_range_meters":35600,"station_id":"","pricing_plan_id":"cebpf4jnsgd1na2vs0mg"},{"bike_id":"ab396781-1ecd-45f9-895a-e961581984c2","system_id":"levelo_inurba_marseille","lat":43.26564,"lon":5.39022,"is_reserved":false,"is_disabled":false,"rental_uris":{"android":"levelo://app?vid=ab396781-1ecd-45f9-895a-e961581984c2","ios":"levelo://app?vid=ab396781-1ecd-45f9-895a-e961581984c2"},"vehicle_type_id":"4","last_reported":1726229767,"current_range_meters":23200,"station_id":"ce4bhe12rcd13ifvqf30","pricing_plan_id":"cebpf4jnsgd1na2vs0mg"},{"bike_id":"7d8e7dc4-af9e-438a-9875-6bd0c829477b","system_id":"levelo_inurba_marseille","lat":43.34143,"lon":5.40896,"is_reserved":false,"is_disabled":false,"rental_uris":{"android":"levelo://app?vid=7d8e7dc4-af9e-438a-9875-6bd0c829477b","ios":"levelo://app?vid=7d8e7dc4-af9e-438a-9875-6bd0c829477b"},"vehicle_type_id":"4","last_reported":1726229767,"current_range_meters":19600,"station_id":"ce4bhqh2rcd13ifvqhlg","pricing_plan_id":"cebpf4jnsgd1na2vs0mg"},{"bike_id":"5d4268d2-3049-496f-beee-92a357b5c673","system_id":"levelo_inurba_marseille","lat":43.29802,"lon":5.38097,"is_reserved":false,"is_disabled":false,"rental_uris":{"android":"levelo://app?vid=5d4268d2-3049-496f-beee-92a357b5c673","ios":"levelo://app?vid=5d4268d2-3049-496f-beee-92a357b5c673"},"vehicle_type_id":"4","last_reported":1726229767,"current_range_meters":7200,"station_id":"ce4bgip2rcd13ifvqbb0","pricing_plan_id":"cebpf4jnsgd1na2vs0mg"},{"bike_id":"ba184a97-d492-4528-bd0c-1e78ac8439ed","system_id":"levelo_inurba_marseille","lat":43.28938,"lon":5.36403,"is_reserved":false,"is_disabled":false,"rental_uris":{"android":"levelo://app?vid=ba184a97-d492-4528-bd0c-1e78ac8439ed","ios":"levelo://app?vid=ba184a97-d492-4528-bd0c-1e78ac8439ed"},"vehicle_type_id":"4","last_reported":1726229767,"current_range_meters":30800,"station_id":"ce4bhc92rcd13ifvqetg","pricing_plan_id":"cebpf4jnsgd1na2vs0mg"},{"bike_id":"bc3b545b-f628-4ca1-975b-55ef5ad0c05c","system_id":"levelo_inurba_marseille","lat":43.291138,"lon":5.372432,"is_reserved":false,"is_disabled":false,"rental_uris":{"android":"levelo://app?vid=bc3b545b-f628-4ca1-975b-55ef5ad0c05c","ios":"levelo://app?vid=bc3b545b-f628-4ca1-975b-55ef5ad0c05c"},"vehicle_type_id":"4","last_reported":1726229767,"current_range_meters":35600,"station_id":"ce4bgip2rcd13ifvqbb0","pricing_plan_id":"cebpf4jnsgd1na2vs0mg"},{"bike_id":"f79e54b6-caf9-400f-946e-e056b3f67dd3","system_id":"levelo_inurba_marseille","lat":43.30463,"lon":5.37898,"is_reserved":false,"is_disabled":false,"rental_uris":{"android":"levelo://app?vid=f79e54b6-caf9-400f-946e-e056b3f67dd3","ios":"levelo://app?vid=f79e54b6-caf9-400f-946e-e056b3f67dd3"},"vehicle_type_id":"4","last_reported":1726229767,"current_range_meters":6400,"station_id":"ce4bgup2rcd13ifvqcn0","pricing_plan_id":"cebpf4jnsgd1na2vs0mg"},{"bike_id":"1b21f49c-7d35-4fac-89f2-963094add212","system_id":"levelo_inurba_marseille","lat":43.24804,"lon":5.37453,"is_reserved":false,"is_disabled":false,"rental_uris":{"android":"levelo://app?vid=1b21f49c-7d35-4fac-89f2-963094add212","ios":"levelo://app?vid=1b21f49c-7d35-4fac-89f2-963094add212"},"vehicle_type_id":"4","last_reported":1726229767,"current_range_meters":18800,"station_id":"ce4bhgh2rcd13ifvqfb0","pricing_plan_id":"cebpf4jnsgd1na2vs0mg"},{"bike_id":"47322fce-12c8-4264-9c39-05c71061b21e","system_id":"levelo_inurba_marseille","lat":43.30332,"lon":5.40435,"is_reserved":false,"is_disabled":false,"rental_uris":{"android":"levelo://app?vid=47322fce-12c8-4264-9c39-05c71061b21e","ios":"levelo://app?vid=47322fce-12c8-4264-9c39-05c71061b21e"},"vehicle_type_id":"4","last_reported":1726229767,"current_range_meters":30000,"station_id":"ce4bh012rcd13ifvqd10","pricing_plan_id":"cebpf4jnsgd1na2vs0mg"},{"bike_id":"4d128f7a-76a1-4f42-91a7-d4166719f193","system_id":"levelo_inurba_marseille","lat":43.30537,"lon":5.36699,"is_reserved":false,"is_disabled":false,"rental_uris":{"android":"levelo://app?vid=4d128f7a-76a1-4f42-91a7-d4166719f193","ios":"levelo://app?vid=4d128f7a-76a1-4f42-91a7-d4166719f193"},"vehicle_type_id":"4","last_reported":1726229767,"current_range_meters":28000,"station_id":"ce4bgrp2rcd13ifvqc9g","pricing_plan_id":"cebpf4jnsgd1na2vs0mg"},{"bike_id":"736971cf-08f0-4178-a255-b11a41f95677","system_id":"levelo_inurba_marseille","lat":43.29024,"lon":5.38637,"is_reserved":false,"is_disabled":false,"rental_uris":{"android":"levelo://app?vid=736971cf-08f0-4178-a255-b11a41f95677","ios":"levelo://app?vid=736971cf-08f0-4178-a255-b11a41f95677"},"vehicle_type_id":"4","last_reported":1726229767,"current_range_meters":16800,"station_id":"ce4bh4p2rcd13ifvqe0g","pricing_plan_id":"cebpf4jnsgd1na2vs0mg"},{"bike_id":"8261ace5-2139-442c-b15a-c46a7ca49df2","system_id":"levelo_inurba_marseille","lat":43.299,"lon":5.43668,"is_reserved":false,"is_disabled":false,"rental_uris":{"android":"levelo://app?vid=8261ace5-2139-442c-b15a-c46a7ca49df2","ios":"levelo://app?vid=8261ace5-2139-442c-b15a-c46a7ca49df2"},"vehicle_type_id":"4","last_reported":1726229767,"current_range_meters":31200,"station_id":"ce4bhpp2rcd13ifvqhfg","pricing_plan_id":"cebpf4jnsgd1na2vs0mg"},{"bike_id":"4afb8b00-be3a-4d15-9b8b-47916e625762","system_id":"levelo_inurba_marseille","lat":43.28539,"lon":5.4423,"is_reserved":false,"is_disabled":false,"rental_uris":{"android":"levelo://app?vid=4afb8b00-be3a-4d15-9b8b-47916e625762","ios":"levelo://app?vid=4afb8b00-be3a-4d15-9b8b-47916e625762"},"vehicle_type_id":"4","last_reported":1726229767,"current_range_meters":27600,"station_id":"","pricing_plan_id":"cebpf4jnsgd1na2vs0mg"},{"bike_id":"6160092f-4981-4a7f-8ab0-7f6f0d746aa2","system_id":"levelo_inurba_marseille","lat":43.25003,"lon":5.38936,"is_reserved":false,"is_disabled":false,"rental_uris":{"android":"levelo://app?vid=6160092f-4981-4a7f-8ab0-7f6f0d746aa2","ios":"levelo://app?vid=6160092f-4981-4a7f-8ab0-7f6f0d746aa2"},"vehicle_type_id":"4","last_reported":1726229767,"current_range_meters":4000,"station_id":"ce4bhgp2rcd13ifvqfd0","pricing_plan_id":"cebpf4jnsgd1na2vs0mg"},{"bike_id":"bb7acf50-b6bc-4b2d-adf4-833abc23b24c","system_id":"levelo_inurba_marseille","lat":43.23192,"lon":5.35544,"is_reserved":false,"is_disabled":false,"rental_uris":{"android":"levelo://app?vid=bb7acf50-b6bc-4b2d-adf4-833abc23b24c","ios":"levelo://app?vid=bb7acf50-b6bc-4b2d-adf4-833abc23b24c"},"vehicle_type_id":"4","last_reported":1726229767,"current_range_meters":38800,"station_id":"ce4bhu92rcd13ifvqi70","pricing_plan_id":"cebpf4jnsgd1na2vs0mg"},{"bike_id":"ce1e02bb-ece6-48a6-a230-49ea402ccd57","system_id":"levelo_inurba_marseille","lat":43.31711,"lon":5.43707,"is_reserved":false,"is_disabled":false,"rental_uris":{"android":"levelo://app?vid=ce1e02bb-ece6-48a6-a230-49ea402ccd57","ios":"levelo://app?vid=ce1e02bb-ece6-48a6-a230-49ea402ccd57"},"vehicle_type_id":"4","last_reported":1726229767,"current_range_meters":11200,"station_id":"ce4bhp92rcd13ifvqhcg","pricing_plan_id":"cebpf4jnsgd1na2vs0mg"},{"bike_id":"d37c6fd3-b8c5-448e-80c8-c023f36ac3ed","system_id":"levelo_inurba_marseille","lat":43.26679,"lon":5.3827,"is_reserved":false,"is_disabled":false,"rental_uris":{"android":"levelo://app?vid=d37c6fd3-b8c5-448e-80c8-c023f36ac3ed","ios":"levelo://app?vid=d37c6fd3-b8c5-448e-80c8-c023f36ac3ed"},"vehicle_type_id":"4","last_reported":1726229767,"current_range_meters":8800,"station_id":"ce4bhg92rcd13ifvqf90","pricing_plan_id":"cebpf4jnsgd1na2vs0mg"},{"bike_id":"2f855f06-9250-4286-ae1e-a95c53bd0f86","system_id":"levelo_inurba_marseille","lat":43.27066,"lon":5.42271,"is_reserved":false,"is_disabled":false,"rental_uris":{"android":"levelo://app?vid=2f855f06-9250-4286-ae1e-a95c53bd0f86","ios":"levelo://app?vid=2f855f06-9250-4286-ae1e-a95c53bd0f86"},"vehicle_type_id":"4","last_reported":1726229767,"current_range_meters":30400,"station_id":"ce4bhk92rcd13ifvqgb0","pricing_plan_id":"cebpf4jnsgd1na2vs0mg"},{"bike_id":"b744e099-f161-4d4f-87d2-6b799c4e5a9e","system_id":"levelo_inurba_marseille","lat":43.33606,"lon":5.41032,"is_reserved":false,"is_disabled":false,"rental_uris":{"android":"levelo://app?vid=b744e099-f161-4d4f-87d2-6b799c4e5a9e","ios":"levelo://app?vid=b744e099-f161-4d4f-87d2-6b799c4e5a9e"},"vehicle_type_id":"4","last_reported":1726229767,"current_range_meters":27200,"station_id":"ce4bhqh2rcd13ifvqhmg","pricing_plan_id":"cebpf4jnsgd1na2vs0mg"},{"bike_id":"fdbafa38-50a6-4c06-990b-5b9471c13f38","system_id":"levelo_inurba_marseille","lat":43.30555,"lon":5.36538,"is_reserved":false,"is_disabled":false,"rental_uris":{"android":"levelo://app?vid=fdbafa38-50a6-4c06-990b-5b9471c13f38","ios":"levelo://app?vid=fdbafa38-50a6-4c06-990b-5b9471c13f38"},"vehicle_type_id":"4","last_reported":1726229767,"current_range_meters":38000,"station_id":"ce4bgs12rcd13ifvqcag","pricing_plan_id":"cebpf4jnsgd1na2vs0mg"},{"bike_id":"a93f4ebc-aa57-456a-b8ef-403a856d2a8e","system_id":"levelo_inurba_marseille","lat":43.29224,"lon":5.36066,"is_reserved":false,"is_disabled":false,"rental_uris":{"android":"levelo://app?vid=a93f4ebc-aa57-456a-b8ef-403a856d2a8e","ios":"levelo://app?vid=a93f4ebc-aa57-456a-b8ef-403a856d2a8e"},"vehicle_type_id":"4","last_reported":1726229767,"current_range_meters":16800,"station_id":"ce4bhbh2rcd13ifvqeqg","pricing_plan_id":"cebpf4jnsgd1na2vs0mg"},{"bike_id":"19ee60a0-9d35-441a-a18c-36120380aaf6","system_id":"levelo_inurba_marseille","lat":43.23965,"lon":5.36628,"is_reserved":false,"is_disabled":false,"rental_uris":{"android":"levelo://app?vid=19ee60a0-9d35-441a-a18c-36120380aaf6","ios":"levelo://app?vid=19ee60a0-9d35-441a-a18c-36120380aaf6"},"vehicle_type_id":"4","last_reported":1726229767,"current_range_meters":22000,"station_id":"ce4bhi12rcd13ifvqfp0","pricing_plan_id":"cebpf4jnsgd1na2vs0mg"},{"bike_id":"d8dca9fe-b9af-4568-87bb-8c5d09248c53","system_id":"levelo_inurba_marseille","lat":43.28944,"lon":5.36397,"is_reserved":false,"is_disabled":false,"rental_uris":{"android":"levelo://app?vid=d8dca9fe-b9af-4568-87bb-8c5d09248c53","ios":"levelo://app?vid=d8dca9fe-b9af-4568-87bb-8c5d09248c53"},"vehicle_type_id":"4","last_reported":1726229767,"current_range_meters":38800,"station_id":"ce4bhc92rcd13ifvqetg","pricing_plan_id":"cebpf4jnsgd1na2vs0mg"},{"bike_id":"7a416e95-bc47-4596-937a-bb0a25b7a176","system_id":"levelo_inurba_marseille","lat":43.31532,"lon":5.38027,"is_reserved":false,"is_disabled":false,"rental_uris":{"android":"levelo://app?vid=7a416e95-bc47-4596-937a-bb0a25b7a176","ios":"levelo://app?vid=7a416e95-bc47-4596-937a-bb0a25b7a176"},"vehicle_type_id":"4","last_reported":1726229767,"current_range_meters":36800,"station_id":"ce4bhsp2rcd13ifvqi50","pricing_plan_id":"cebpf4jnsgd1na2vs0mg"},{"bike_id":"2cdc504d-2565-4bae-ba11-73f50a1d8f08","system_id":"levelo_inurba_marseille","lat":43.33023,"lon":5.39039,"is_reserved":false,"is_disabled":false,"rental_uris":{"android":"levelo://app?vid=2cdc504d-2565-4bae-ba11-73f50a1d8f08","ios":"levelo://app?vid=2cdc504d-2565-4bae-ba11-73f50a1d8f08"},"vehicle_type_id":"4","last_reported":1726229767,"current_range_meters":39200,"station_id":"ce4bhr92rcd13ifvqhrg","pricing_plan_id":"cebpf4jnsgd1na2vs0mg"},{"bike_id":"731ad2a1-9721-44ce-91f8-2e3c57f6297a","system_id":"levelo_inurba_marseille","lat":43.29559,"lon":5.42287,"is_reserved":false,"is_disabled":false,"rental_uris":{"android":"levelo://app?vid=731ad2a1-9721-44ce-91f8-2e3c57f6297a","ios":"levelo://app?vid=731ad2a1-9721-44ce-91f8-2e3c57f6297a"},"vehicle_type_id":"4","last_reported":1726229767,"current_range_meters":10000,"station_id":"ce4bhph2rcd13ifvqhdg","pricing_plan_id":"cebpf4jnsgd1na2vs0mg"},{"bike_id":"65c1412b-046f-4164-bac6-8d82df38fef4","system_id":"levelo_inurba_marseille","lat":43.30554,"lon":5.36542,"is_reserved":false,"is_disabled":false,"rental_uris":{"android":"levelo://app?vid=65c1412b-046f-4164-bac6-8d82df38fef4","ios":"levelo://app?vid=65c1412b-046f-4164-bac6-8d82df38fef4"},"vehicle_type_id":"4","last_reported":1726229767,"current_range_meters":32400,"station_id":"ce4bgs12rcd13ifvqcag","pricing_plan_id":"cebpf4jnsgd1na2vs0mg"},{"bike_id":"b43fdadb-ddfe-4117-b957-6dd62e79976e","system_id":"levelo_inurba_marseille","lat":43.32044,"lon":5.41568,"is_reserved":false,"is_disabled":false,"rental_uris":{"android":"levelo://app?vid=b43fdadb-ddfe-4117-b957-6dd62e79976e","ios":"levelo://app?vid=b43fdadb-ddfe-4117-b957-6dd62e79976e"},"vehicle_type_id":"4","last_reported":1726229767,"current_range_meters":6400,"station_id":"ce4bhq92rcd13ifvqhkg","pricing_plan_id":"cebpf4jnsgd1na2vs0mg"},{"bike_id":"480df1ac-b2fa-4a78-a4e3-16c51606dc00","system_id":"levelo_inurba_marseille","lat":43.30543,"lon":5.36532,"is_reserved":false,"is_disabled":false,"rental_uris":{"android":"levelo://app?vid=480df1ac-b2fa-4a78-a4e3-16c51606dc00","ios":"levelo://app?vid=480df1ac-b2fa-4a78-a4e3-16c51606dc00"},"vehicle_type_id":"4","last_reported":1726229767,"current_range_meters":24400,"station_id":"ce4bgs12rcd13ifvqcag","pricing_plan_id":"cebpf4jnsgd1na2vs0mg"},{"bike_id":"c28ff0f1-1713-431a-bccf-4e7a21e8e39b","system_id":"levelo_inurba_marseille","lat":43.255,"lon":5.37648,"is_reserved":false,"is_disabled":false,"rental_uris":{"android":"levelo://app?vid=c28ff0f1-1713-431a-bccf-4e7a21e8e39b","ios":"levelo://app?vid=c28ff0f1-1713-431a-bccf-4e7a21e8e39b"},"vehicle_type_id":"4","last_reported":1726229767,"current_range_meters":38800,"station_id":"ce4bhh12rcd13ifvqff0","pricing_plan_id":"cebpf4jnsgd1na2vs0mg"},{"bike_id":"74e00c13-6fb0-422e-926a-f87daa4c02fb","system_id":"levelo_inurba_marseille","lat":43.28103,"lon":5.3783,"is_reserved":false,"is_disabled":false,"rental_uris":{"android":"levelo://app?vid=74e00c13-6fb0-422e-926a-f87daa4c02fb","ios":"levelo://app?vid=74e00c13-6fb0-422e-926a-f87daa4c02fb"},"vehicle_type_id":"4","last_reported":1726229767,"current_range_meters":12800,"station_id":"ce4bha12rcd13ifvqee0","pricing_plan_id":"cebpf4jnsgd1na2vs0mg"},{"bike_id":"8d83daa5-49dc-49f1-9199-ea971a9a3bbf","system_id":"levelo_inurba_marseille","lat":43.295837,"lon":5.367426,"is_reserved":false,"is_disabled":false,"rental_uris":{"android":"levelo://app?vid=8d83daa5-49dc-49f1-9199-ea971a9a3bbf","ios":"levelo://app?vid=8d83daa5-49dc-49f1-9199-ea971a9a3bbf"},"vehicle_type_id":"4","last_reported":1726229767,"current_range_meters":7200,"station_id":"ce4bgph2rcd13ifvqc2g","pricing_plan_id":"cebpf4jnsgd1na2vs0mg"},{"bike_id":"40621052-79f4-4e06-9c8a-91a45f3392d2","system_id":"levelo_inurba_marseille","lat":43.28487,"lon":5.38589,"is_reserved":false,"is_disabled":false,"rental_uris":{"android":"levelo://app?vid=40621052-79f4-4e06-9c8a-91a45f3392d2","ios":"levelo://app?vid=40621052-79f4-4e06-9c8a-91a45f3392d2"},"vehicle_type_id":"4","last_reported":1726229767,"current_range_meters":7200,"station_id":"ce4bh8p2rcd13ifvqeb0","pricing_plan_id":"cebpf4jnsgd1na2vs0mg"},{"bike_id":"d63b08fd-7716-422a-94e4-8f1dfff5bb11","system_id":"levelo_inurba_marseille","lat":43.28615,"lon":5.35097,"is_reserved":false,"is_disabled":false,"rental_uris":{"android":"levelo://app?vid=d63b08fd-7716-422a-94e4-8f1dfff5bb11","ios":"levelo://app?vid=d63b08fd-7716-422a-94e4-8f1dfff5bb11"},"vehicle_type_id":"4","last_reported":1726229767,"current_range_meters":38800,"station_id":"ce4bhch2rcd13ifvqeug","pricing_plan_id":"cebpf4jnsgd1na2vs0mg"},{"bike_id":"1763571a-9954-433e-872e-ef6d6319dff6","system_id":"levelo_inurba_marseille","lat":43.31352,"lon":5.36719,"is_reserved":false,"is_disabled":false,"rental_uris":{"android":"levelo://app?vid=1763571a-9954-433e-872e-ef6d6319dff6","ios":"levelo://app?vid=1763571a-9954-433e-872e-ef6d6319dff6"},"vehicle_type_id":"4","last_reported":1726229767,"current_range_meters":26000,"station_id":"ce4bgr92rcd13ifvqc6g","pricing_plan_id":"cebpf4jnsgd1na2vs0mg"},{"bike_id":"d23ba85e-2d06-4115-8335-c2ac32e57dd7","system_id":"levelo_inurba_marseille","lat":43.23198,"lon":5.35548,"is_reserved":false,"is_disabled":false,"rental_uris":{"android":"levelo://app?vid=d23ba85e-2d06-4115-8335-c2ac32e57dd7","ios":"levelo://app?vid=d23ba85e-2d06-4115-8335-c2ac32e57dd7"},"vehicle_type_id":"4","last_reported":1726229767,"current_range_meters":3200,"station_id":"ce4bhu92rcd13ifvqi70","pricing_plan_id":"cebpf4jnsgd1na2vs0mg"},{"bike_id":"415d3c4f-5242-4572-8d05-9e1bd45eae7f","system_id":"levelo_inurba_marseille","lat":43.25569,"lon":5.38237,"is_reserved":false,"is_disabled":false,"rental_uris":{"android":"levelo://app?vid=415d3c4f-5242-4572-8d05-9e1bd45eae7f","ios":"levelo://app?vid=415d3c4f-5242-4572-8d05-9e1bd45eae7f"},"vehicle_type_id":"4","last_reported":1726229767,"current_range_meters":33600,"station_id":"ce4bhih2rcd13ifvqfs0","pricing_plan_id":"cebpf4jnsgd1na2vs0mg"},{"bike_id":"8a88f642-8182-4433-942e-9c9b19984aea","system_id":"levelo_inurba_marseille","lat":43.31884,"lon":5.40729,"is_reserved":false,"is_disabled":false,"rental_uris":{"android":"levelo://app?vid=8a88f642-8182-4433-942e-9c9b19984aea","ios":"levelo://app?vid=8a88f642-8182-4433-942e-9c9b19984aea"},"vehicle_type_id":"4","last_reported":1726229767,"current_range_meters":38800,"station_id":"ce4bhq12rcd13ifvqhig","pricing_plan_id":"cebpf4jnsgd1na2vs0mg"},{"bike_id":"321776d9-93da-4f1b-96be-0c30e8fca15a","system_id":"levelo_inurba_marseille","lat":43.25724,"lon":5.41106,"is_reserved":false,"is_disabled":false,"rental_uris":{"android":"levelo://app?vid=321776d9-93da-4f1b-96be-0c30e8fca15a","ios":"levelo://app?vid=321776d9-93da-4f1b-96be-0c30e8fca15a"},"vehicle_type_id":"4","last_reported":1726229767,"current_range_meters":27200,"station_id":"ce4bhkp2rcd13ifvqgd0","pricing_plan_id":"cebpf4jnsgd1na2vs0mg"},{"bike_id":"bf3198fc-335d-4a14-981c-72ec7be718d5","system_id":"levelo_inurba_marseille","lat":43.30806,"lon":5.38142,"is_reserved":false,"is_disabled":false,"rental_uris":{"android":"levelo://app?vid=bf3198fc-335d-4a14-981c-72ec7be718d5","ios":"levelo://app?vid=bf3198fc-335d-4a14-981c-72ec7be718d5"},"vehicle_type_id":"4","last_reported":1726229767,"current_range_meters":6800,"station_id":"ce4bgt12rcd13ifvqce0","pricing_plan_id":"cebpf4jnsgd1na2vs0mg"},{"bike_id":"0ede9162-5086-41c2-a21f-a81b6f3ce6a3","system_id":"levelo_inurba_marseille","lat":43.28936,"lon":5.36635,"is_reserved":false,"is_disabled":false,"rental_uris":{"android":"levelo://app?vid=0ede9162-5086-41c2-a21f-a81b6f3ce6a3","ios":"levelo://app?vid=0ede9162-5086-41c2-a21f-a81b6f3ce6a3"},"vehicle_type_id":"4","last_reported":1726229767,"current_range_meters":24800,"station_id":"ce4bhap2rcd13ifvqek0","pricing_plan_id":"cebpf4jnsgd1na2vs0mg"},{"bike_id":"54a12671-a11a-43e7-b223-e3549f5e76b3","system_id":"levelo_inurba_marseille","lat":43.290962,"lon":5.381214,"is_reserved":false,"is_disabled":false,"rental_uris":{"android":"levelo://app?vid=54a12671-a11a-43e7-b223-e3549f5e76b3","ios":"levelo://app?vid=54a12671-a11a-43e7-b223-e3549f5e76b3"},"vehicle_type_id":"4","last_reported":1726229767,"current_range_meters":38000,"station_id":"ce4bh512rcd13ifvqe2g","pricing_plan_id":"cebpf4jnsgd1na2vs0mg"},{"bike_id":"71e5bd5f-9941-45ed-83eb-1729c01b5303","system_id":"levelo_inurba_marseille","lat":43.22933,"lon":5.35373,"is_reserved":false,"is_disabled":false,"rental_uris":{"android":"levelo://app?vid=71e5bd5f-9941-45ed-83eb-1729c01b5303","ios":"levelo://app?vid=71e5bd5f-9941-45ed-83eb-1729c01b5303"},"vehicle_type_id":"4","last_reported":1726229767,"current_range_meters":35200,"station_id":"cpo3532slgdg3j2ikp40","pricing_plan_id":"cebpf4jnsgd1na2vs0mg"},{"bike_id":"91d16c8d-24ec-427f-9b84-fb589de1b76f","system_id":"levelo_inurba_marseille","lat":43.337444,"lon":5.374475,"is_reserved":false,"is_disabled":false,"rental_uris":{"android":"levelo://app?vid=91d16c8d-24ec-427f-9b84-fb589de1b76f","ios":"levelo://app?vid=91d16c8d-24ec-427f-9b84-fb589de1b76f"},"vehicle_type_id":"4","last_reported":1726229767,"current_range_meters":36400,"station_id":"ce4bh092rcd13ifvqd20","pricing_plan_id":"cebpf4jnsgd1na2vs0mg"},{"bike_id":"5370546a-7244-45da-af29-6ba1e105add1","system_id":"levelo_inurba_marseille","lat":43.27376,"lon":5.36256,"is_reserved":false,"is_disabled":false,"rental_uris":{"android":"levelo://app?vid=5370546a-7244-45da-af29-6ba1e105add1","ios":"levelo://app?vid=5370546a-7244-45da-af29-6ba1e105add1"},"vehicle_type_id":"4","last_reported":1726229767,"current_range_meters":24400,"station_id":"ce4bhbh2rcd13ifvqeo0","pricing_plan_id":"cebpf4jnsgd1na2vs0mg"},{"bike_id":"04b0a4ee-45ca-426f-af20-845cafaf21e3","system_id":"levelo_inurba_marseille","lat":43.30255,"lon":5.40077,"is_reserved":false,"is_disabled":false,"rental_uris":{"android":"levelo://app?vid=04b0a4ee-45ca-426f-af20-845cafaf21e3","ios":"levelo://app?vid=04b0a4ee-45ca-426f-af20-845cafaf21e3"},"vehicle_type_id":"4","last_reported":1726229767,"current_range_meters":38800,"station_id":"ce4bgvh2rcd13ifvqcs0","pricing_plan_id":"cebpf4jnsgd1na2vs0mg"},{"bike_id":"ffd70a77-c284-4424-967a-f18b173c279c","system_id":"levelo_inurba_marseille","lat":43.23153,"lon":5.43702,"is_reserved":false,"is_disabled":false,"rental_uris":{"android":"levelo://app?vid=ffd70a77-c284-4424-967a-f18b173c279c","ios":"levelo://app?vid=ffd70a77-c284-4424-967a-f18b173c279c"},"vehicle_type_id":"4","last_reported":1726229767,"current_range_meters":12400,"station_id":"ce4bhmp2rcd13ifvqgog","pricing_plan_id":"cebpf4jnsgd1na2vs0mg"},{"bike_id":"ad1b5322-55e4-479e-8885-f21d19d9074d","system_id":"levelo_inurba_marseille","lat":43.29786,"lon":5.37104,"is_reserved":false,"is_disabled":false,"rental_uris":{"android":"levelo://app?vid=ad1b5322-55e4-479e-8885-f21d19d9074d","ios":"levelo://app?vid=ad1b5322-55e4-479e-8885-f21d19d9074d"},"vehicle_type_id":"4","last_reported":1726229767,"current_range_meters":36400,"station_id":"ce4bgop2rcd13ifvqc1g","pricing_plan_id":"cebpf4jnsgd1na2vs0mg"},{"bike_id":"f07a092c-3bb2-40e0-943b-7b71245c2871","system_id":"levelo_inurba_marseille","lat":43.29792,"lon":5.39342,"is_reserved":false,"is_disabled":false,"rental_uris":{"android":"levelo://app?vid=f07a092c-3bb2-40e0-943b-7b71245c2871","ios":"levelo://app?vid=f07a092c-3bb2-40e0-943b-7b71245c2871"},"vehicle_type_id":"4","last_reported":1726229767,"current_range_meters":37600,"station_id":"chh1huq6cuj3fo74tm60","pricing_plan_id":"cebpf4jnsgd1na2vs0mg"},{"bike_id":"91b36c15-8bb8-4d60-8c33-cdd8e0d267ed","system_id":"levelo_inurba_marseille","lat":43.23147,"lon":5.43713,"is_reserved":false,"is_disabled":false,"rental_uris":{"android":"levelo://app?vid=91b36c15-8bb8-4d60-8c33-cdd8e0d267ed","ios":"levelo://app?vid=91b36c15-8bb8-4d60-8c33-cdd8e0d267ed"},"vehicle_type_id":"4","last_reported":1726229767,"current_range_meters":11600,"station_id":"ce4bhmp2rcd13ifvqgog","pricing_plan_id":"cebpf4jnsgd1na2vs0mg"},{"bike_id":"6244c29e-44ad-408c-9d0b-2982fd9b191e","system_id":"levelo_inurba_marseille","lat":43.297054,"lon":5.366079,"is_reserved":false,"is_disabled":false,"rental_uris":{"android":"levelo://app?vid=6244c29e-44ad-408c-9d0b-2982fd9b191e","ios":"levelo://app?vid=6244c29e-44ad-408c-9d0b-2982fd9b191e"},"vehicle_type_id":"4","last_reported":1726229767,"current_range_meters":34800,"station_id":"ce4bgn12rcd13ifvqbt0","pricing_plan_id":"cebpf4jnsgd1na2vs0mg"},{"bike_id":"55d94928-1c2c-4dfc-95d4-0ae00480b0b3","system_id":"levelo_inurba_marseille","lat":43.27431,"lon":5.39413,"is_reserved":false,"is_disabled":false,"rental_uris":{"android":"levelo://app?vid=55d94928-1c2c-4dfc-95d4-0ae00480b0b3","ios":"levelo://app?vid=55d94928-1c2c-4dfc-95d4-0ae00480b0b3"},"vehicle_type_id":"4","last_reported":1726229767,"current_range_meters":16000,"station_id":"ce4bhdp2rcd13ifvqf20","pricing_plan_id":"cebpf4jnsgd1na2vs0mg"},{"bike_id":"30077115-95ef-4cb8-9ab9-0cf9475088c9","system_id":"levelo_inurba_marseille","lat":43.29037,"lon":5.3997,"is_reserved":false,"is_disabled":false,"rental_uris":{"android":"levelo://app?vid=30077115-95ef-4cb8-9ab9-0cf9475088c9","ios":"levelo://app?vid=30077115-95ef-4cb8-9ab9-0cf9475088c9"},"vehicle_type_id":"4","last_reported":1726229767,"current_range_meters":34000,"station_id":"ce4bh392rcd13ifvqdm0","pricing_plan_id":"cebpf4jnsgd1na2vs0mg"},{"bike_id":"954d2b54-362e-442e-bcaa-d17939d90e2d","system_id":"levelo_inurba_marseille","lat":43.25495,"lon":5.37653,"is_reserved":false,"is_disabled":false,"rental_uris":{"android":"levelo://app?vid=954d2b54-362e-442e-bcaa-d17939d90e2d","ios":"levelo://app?vid=954d2b54-362e-442e-bcaa-d17939d90e2d"},"vehicle_type_id":"4","last_reported":1726229767,"current_range_meters":38800,"station_id":"ce4bhh12rcd13ifvqff0","pricing_plan_id":"cebpf4jnsgd1na2vs0mg"},{"bike_id":"82dec1e1-c024-4a59-b080-1ca526441f94","system_id":"levelo_inurba_marseille","lat":43.337612,"lon":5.374504,"is_reserved":false,"is_disabled":false,"rental_uris":{"android":"levelo://app?vid=82dec1e1-c024-4a59-b080-1ca526441f94","ios":"levelo://app?vid=82dec1e1-c024-4a59-b080-1ca526441f94"},"vehicle_type_id":"4","last_reported":1726229767,"current_range_meters":14800,"station_id":"","pricing_plan_id":"cebpf4jnsgd1na2vs0mg"},{"bike_id":"c388f329-6f3c-470d-96b0-fb1532620c7b","system_id":"levelo_inurba_marseille","lat":43.23147,"lon":5.43717,"is_reserved":false,"is_disabled":false,"rental_uris":{"android":"levelo://app?vid=c388f329-6f3c-470d-96b0-fb1532620c7b","ios":"levelo://app?vid=c388f329-6f3c-470d-96b0-fb1532620c7b"},"vehicle_type_id":"4","last_reported":1726229767,"current_range_meters":21600,"station_id":"ce4bhmp2rcd13ifvqgog","pricing_plan_id":"cebpf4jnsgd1na2vs0mg"},{"bike_id":"482796c1-2dd4-4ac0-869c-7c6b5e1669a8","system_id":"levelo_inurba_marseille","lat":43.26964,"lon":5.38632,"is_reserved":false,"is_disabled":false,"rental_uris":{"android":"levelo://app?vid=482796c1-2dd4-4ac0-869c-7c6b5e1669a8","ios":"levelo://app?vid=482796c1-2dd4-4ac0-869c-7c6b5e1669a8"},"vehicle_type_id":"4","last_reported":1726229767,"current_range_meters":36400,"station_id":"ce4bhh92rcd13ifvqfh0","pricing_plan_id":"cebpf4jnsgd1na2vs0mg"},{"bike_id":"b5375767-651b-4591-8aec-cc20396e9766","system_id":"levelo_inurba_marseille","lat":43.29779,"lon":5.37117,"is_reserved":false,"is_disabled":false,"rental_uris":{"android":"levelo://app?vid=b5375767-651b-4591-8aec-cc20396e9766","ios":"levelo://app?vid=b5375767-651b-4591-8aec-cc20396e9766"},"vehicle_type_id":"4","last_reported":1726229767,"current_range_meters":23200,"station_id":"ce4bgop2rcd13ifvqc1g","pricing_plan_id":"cebpf4jnsgd1na2vs0mg"},{"bike_id":"e3b90e0b-4923-474e-90ac-7372ad6957cb","system_id":"levelo_inurba_marseille","lat":43.28341,"lon":5.38107,"is_reserved":false,"is_disabled":false,"rental_uris":{"android":"levelo://app?vid=e3b90e0b-4923-474e-90ac-7372ad6957cb","ios":"levelo://app?vid=e3b90e0b-4923-474e-90ac-7372ad6957cb"},"vehicle_type_id":"4","last_reported":1726229767,"current_range_meters":30800,"station_id":"ce4bh412rcd13ifvqdr0","pricing_plan_id":"cebpf4jnsgd1na2vs0mg"},{"bike_id":"2deeed66-456e-4f3b-be82-f36b0e3c9d4c","system_id":"levelo_inurba_marseille","lat":43.23152,"lon":5.43709,"is_reserved":false,"is_disabled":false,"rental_uris":{"android":"levelo://app?vid=2deeed66-456e-4f3b-be82-f36b0e3c9d4c","ios":"levelo://app?vid=2deeed66-456e-4f3b-be82-f36b0e3c9d4c"},"vehicle_type_id":"4","last_reported":1726229767,"current_range_meters":18000,"station_id":"ce4bhmp2rcd13ifvqgog","pricing_plan_id":"cebpf4jnsgd1na2vs0mg"},{"bike_id":"fad4ce5f-29e2-4402-92b3-eafa4b8fc708","system_id":"levelo_inurba_marseille","lat":43.26029,"lon":5.37551,"is_reserved":false,"is_disabled":false,"rental_uris":{"android":"levelo://app?vid=fad4ce5f-29e2-4402-92b3-eafa4b8fc708","ios":"levelo://app?vid=fad4ce5f-29e2-4402-92b3-eafa4b8fc708"},"vehicle_type_id":"4","last_reported":1726229767,"current_range_meters":31200,"station_id":"ce4bhgh2rcd13ifvqfa0","pricing_plan_id":"cebpf4jnsgd1na2vs0mg"},{"bike_id":"68ff4151-97ec-460a-970f-20908099f2f1","system_id":"levelo_inurba_marseille","lat":43.30566,"lon":5.36536,"is_reserved":false,"is_disabled":false,"rental_uris":{"android":"levelo://app?vid=68ff4151-97ec-460a-970f-20908099f2f1","ios":"levelo://app?vid=68ff4151-97ec-460a-970f-20908099f2f1"},"vehicle_type_id":"4","last_reported":1726229767,"current_range_meters":38800,"station_id":"ce4bgs12rcd13ifvqcag","pricing_plan_id":"cebpf4jnsgd1na2vs0mg"},{"bike_id":"70b10b6a-34cc-460c-a115-d1c61697fe50","system_id":"levelo_inurba_marseille","lat":43.29913,"lon":5.37476,"is_reserved":false,"is_disabled":false,"rental_uris":{"android":"levelo://app?vid=70b10b6a-34cc-460c-a115-d1c61697fe50","ios":"levelo://app?vid=70b10b6a-34cc-460c-a115-d1c61697fe50"},"vehicle_type_id":"4","last_reported":1726229767,"current_range_meters":32400,"station_id":"ce4bgjh2rcd13ifvqbg0","pricing_plan_id":"cebpf4jnsgd1na2vs0mg"},{"bike_id":"d6766db9-65af-4436-94ce-bd1adef694c7","system_id":"levelo_inurba_marseille","lat":43.26684,"lon":5.38263,"is_reserved":false,"is_disabled":false,"rental_uris":{"android":"levelo://app?vid=d6766db9-65af-4436-94ce-bd1adef694c7","ios":"levelo://app?vid=d6766db9-65af-4436-94ce-bd1adef694c7"},"vehicle_type_id":"4","last_reported":1726229767,"current_range_meters":38800,"station_id":"ce4bhg92rcd13ifvqf90","pricing_plan_id":"cebpf4jnsgd1na2vs0mg"},{"bike_id":"8a579113-d6f9-47de-b6c7-9adb8e6da626","system_id":"levelo_inurba_marseille","lat":43.257019,"lon":5.400085,"is_reserved":false,"is_disabled":false,"rental_uris":{"android":"levelo://app?vid=8a579113-d6f9-47de-b6c7-9adb8e6da626","ios":"levelo://app?vid=8a579113-d6f9-47de-b6c7-9adb8e6da626"},"vehicle_type_id":"4","last_reported":1726229767,"current_range_meters":14400,"station_id":"","pricing_plan_id":"cebpf4jnsgd1na2vs0mg"},{"bike_id":"f5532006-91c6-4c55-8ed6-9fb9f0ed48ad","system_id":"levelo_inurba_marseille","lat":43.29511,"lon":5.3751,"is_reserved":false,"is_disabled":false,"rental_uris":{"android":"levelo://app?vid=f5532006-91c6-4c55-8ed6-9fb9f0ed48ad","ios":"levelo://app?vid=f5532006-91c6-4c55-8ed6-9fb9f0ed48ad"},"vehicle_type_id":"4","last_reported":1726229767,"current_range_meters":38800,"station_id":"ce4bgkp2rcd13ifvqbmg","pricing_plan_id":"cebpf4jnsgd1na2vs0mg"},{"bike_id":"5ddbd8ac-4c32-41a0-bd5d-0b5ab8b06354","system_id":"levelo_inurba_marseille","lat":43.29684,"lon":5.37282,"is_reserved":false,"is_disabled":false,"rental_uris":{"android":"levelo://app?vid=5ddbd8ac-4c32-41a0-bd5d-0b5ab8b06354","ios":"levelo://app?vid=5ddbd8ac-4c32-41a0-bd5d-0b5ab8b06354"},"vehicle_type_id":"4","last_reported":1726229767,"current_range_meters":32000,"station_id":"ce4bgk12rcd13ifvqbj0","pricing_plan_id":"cebpf4jnsgd1na2vs0mg"},{"bike_id":"beed390f-5590-4e36-a920-552bcc39f2d8","system_id":"levelo_inurba_marseille","lat":43.30547,"lon":5.36541,"is_reserved":false,"is_disabled":false,"rental_uris":{"android":"levelo://app?vid=beed390f-5590-4e36-a920-552bcc39f2d8","ios":"levelo://app?vid=beed390f-5590-4e36-a920-552bcc39f2d8"},"vehicle_type_id":"4","last_reported":1726229767,"current_range_meters":40000,"station_id":"ce4bgs12rcd13ifvqcag","pricing_plan_id":"cebpf4jnsgd1na2vs0mg"},{"bike_id":"61e00977-be43-400f-99ea-3c33330f7657","system_id":"levelo_inurba_marseille","lat":43.25006,"lon":5.38905,"is_reserved":false,"is_disabled":false,"rental_uris":{"android":"levelo://app?vid=61e00977-be43-400f-99ea-3c33330f7657","ios":"levelo://app?vid=61e00977-be43-400f-99ea-3c33330f7657"},"vehicle_type_id":"4","last_reported":1726229767,"current_range_meters":25600,"station_id":"ce4bhgp2rcd13ifvqfd0","pricing_plan_id":"cebpf4jnsgd1na2vs0mg"},{"bike_id":"0032f5f1-e541-4093-a68c-d29e851a1466","system_id":"levelo_inurba_marseille","lat":43.25007,"lon":5.38931,"is_reserved":false,"is_disabled":false,"rental_uris":{"android":"levelo://app?vid=0032f5f1-e541-4093-a68c-d29e851a1466","ios":"levelo://app?vid=0032f5f1-e541-4093-a68c-d29e851a1466"},"vehicle_type_id":"4","last_reported":1726229767,"current_range_meters":17600,"station_id":"ce4bhgp2rcd13ifvqfd0","pricing_plan_id":"cebpf4jnsgd1na2vs0mg"},{"bike_id":"844b04c0-0ca3-4ca7-b4c9-bec3bc83c6b4","system_id":"levelo_inurba_marseille","lat":43.29536,"lon":5.38542,"is_reserved":false,"is_disabled":false,"rental_uris":{"android":"levelo://app?vid=844b04c0-0ca3-4ca7-b4c9-bec3bc83c6b4","ios":"levelo://app?vid=844b04c0-0ca3-4ca7-b4c9-bec3bc83c6b4"},"vehicle_type_id":"4","last_reported":1726229767,"current_range_meters":25600,"station_id":"ce4bgih2rcd13ifvqba0","pricing_plan_id":"cebpf4jnsgd1na2vs0mg"},{"bike_id":"6f460960-ce1e-4b86-8066-4975ee77fdb2","system_id":"levelo_inurba_marseille","lat":43.32482,"lon":5.36556,"is_reserved":false,"is_disabled":false,"rental_uris":{"android":"levelo://app?vid=6f460960-ce1e-4b86-8066-4975ee77fdb2","ios":"levelo://app?vid=6f460960-ce1e-4b86-8066-4975ee77fdb2"},"vehicle_type_id":"4","last_reported":1726229767,"current_range_meters":6400,"station_id":"ce4bhs12rcd13ifvqhvg","pricing_plan_id":"cebpf4jnsgd1na2vs0mg"},{"bike_id":"72dd6a67-214b-43ea-aa3b-7d9d8650531f","system_id":"levelo_inurba_marseille","lat":43.30252,"lon":5.40077,"is_reserved":false,"is_disabled":false,"rental_uris":{"android":"levelo://app?vid=72dd6a67-214b-43ea-aa3b-7d9d8650531f","ios":"levelo://app?vid=72dd6a67-214b-43ea-aa3b-7d9d8650531f"},"vehicle_type_id":"4","last_reported":1726229767,"current_range_meters":38800,"station_id":"ce4bgvh2rcd13ifvqcs0","pricing_plan_id":"cebpf4jnsgd1na2vs0mg"},{"bike_id":"2794102f-40ca-4bab-8475-933aea7c0df6","system_id":"levelo_inurba_marseille","lat":43.25583,"lon":5.38235,"is_reserved":false,"is_disabled":false,"rental_uris":{"android":"levelo://app?vid=2794102f-40ca-4bab-8475-933aea7c0df6","ios":"levelo://app?vid=2794102f-40ca-4bab-8475-933aea7c0df6"},"vehicle_type_id":"4","last_reported":1726229767,"current_range_meters":3600,"station_id":"ce4bhih2rcd13ifvqfs0","pricing_plan_id":"cebpf4jnsgd1na2vs0mg"},{"bike_id":"889dc11c-17f0-43d2-8c84-bdbd42139152","system_id":"levelo_inurba_marseille","lat":43.29027,"lon":5.38144,"is_reserved":false,"is_disabled":false,"rental_uris":{"android":"levelo://app?vid=889dc11c-17f0-43d2-8c84-bdbd42139152","ios":"levelo://app?vid=889dc11c-17f0-43d2-8c84-bdbd42139152"},"vehicle_type_id":"4","last_reported":1726229767,"current_range_meters":28400,"station_id":"ce4bh4p2rcd13ifvqe1g","pricing_plan_id":"cebpf4jnsgd1na2vs0mg"},{"bike_id":"cd36c563-2066-400a-aeb7-7d2e69a58965","system_id":"levelo_inurba_marseille","lat":43.26681,"lon":5.38264,"is_reserved":false,"is_disabled":false,"rental_uris":{"android":"levelo://app?vid=cd36c563-2066-400a-aeb7-7d2e69a58965","ios":"levelo://app?vid=cd36c563-2066-400a-aeb7-7d2e69a58965"},"vehicle_type_id":"4","last_reported":1726229767,"current_range_meters":38800,"station_id":"ce4bhg92rcd13ifvqf90","pricing_plan_id":"cebpf4jnsgd1na2vs0mg"},{"bike_id":"a9425480-7866-4718-85c3-0cda757ece08","system_id":"levelo_inurba_marseille","lat":43.2837,"lon":5.38638,"is_reserved":false,"is_disabled":false,"rental_uris":{"android":"levelo://app?vid=a9425480-7866-4718-85c3-0cda757ece08","ios":"levelo://app?vid=a9425480-7866-4718-85c3-0cda757ece08"},"vehicle_type_id":"4","last_reported":1726229767,"current_range_meters":30800,"station_id":"ce4bh492rcd13ifvqdvg","pricing_plan_id":"cebpf4jnsgd1na2vs0mg"},{"bike_id":"439d853b-d03a-4144-9c99-6e21d6446801","system_id":"levelo_inurba_marseille","lat":43.23151,"lon":5.4372,"is_reserved":false,"is_disabled":false,"rental_uris":{"android":"levelo://app?vid=439d853b-d03a-4144-9c99-6e21d6446801","ios":"levelo://app?vid=439d853b-d03a-4144-9c99-6e21d6446801"},"vehicle_type_id":"4","last_reported":1726229767,"current_range_meters":17600,"station_id":"ce4bhmp2rcd13ifvqgog","pricing_plan_id":"cebpf4jnsgd1na2vs0mg"},{"bike_id":"54ffde92-ea71-43e3-8086-85c7b9d440e7","system_id":"levelo_inurba_marseille","lat":43.295942,"lon":5.385612,"is_reserved":false,"is_disabled":false,"rental_uris":{"android":"levelo://app?vid=54ffde92-ea71-43e3-8086-85c7b9d440e7","ios":"levelo://app?vid=54ffde92-ea71-43e3-8086-85c7b9d440e7"},"vehicle_type_id":"4","last_reported":1726229767,"current_range_meters":30800,"station_id":"ce4bgih2rcd13ifvqba0","pricing_plan_id":"cebpf4jnsgd1na2vs0mg"},{"bike_id":"e8d4d0de-48b8-491c-9633-131cc5ec5eaa","system_id":"levelo_inurba_marseille","lat":43.296,"lon":5.38104,"is_reserved":false,"is_disabled":false,"rental_uris":{"android":"levelo://app?vid=e8d4d0de-48b8-491c-9633-131cc5ec5eaa","ios":"levelo://app?vid=e8d4d0de-48b8-491c-9633-131cc5ec5eaa"},"vehicle_type_id":"4","last_reported":1726229767,"current_range_meters":38800,"station_id":"ce4bgl12rcd13ifvqbo0","pricing_plan_id":"cebpf4jnsgd1na2vs0mg"},{"bike_id":"56830307-4a49-40f0-86d8-1373f06855be","system_id":"levelo_inurba_marseille","lat":43.29912,"lon":5.3814,"is_reserved":false,"is_disabled":false,"rental_uris":{"android":"levelo://app?vid=56830307-4a49-40f0-86d8-1373f06855be","ios":"levelo://app?vid=56830307-4a49-40f0-86d8-1373f06855be"},"vehicle_type_id":"4","last_reported":1726229767,"current_range_meters":20000,"station_id":"ce4bgj12rcd13ifvqbc0","pricing_plan_id":"cebpf4jnsgd1na2vs0mg"},