{"last_updated":1759043309,"ttl":60,"version":"2.2","data":{"bikes":[{"bike_id":"9b2a4166-4bf6-4740-b018-82f7f5312a3d","system_id":"levelo_inurba_marseille","lat":43.26951,"lon":5.40265,"is_reserved":false,"is_disabled":true,"rental_uris":{"android":"levelo://app?vid=9b2a4166-4bf6-4740-b018-82f7f5312a3d","ios":"levelo://app?vid=9b2a4166-4bf6-4740-b018-82f7f5312a3d"},"vehicle_type_id":"4","last_reported":1759043309,"current_range_meters":2800,"station_id":"cjm6bp8fraef2m0cb0m0","pricing_plan_id":"cebpf4jnsgd1na2vs0mg"},{"bike_id":"3ff019b4-f200-434f-bdbd-2de527b20d7e","system_id":"levelo_inurba_marseille","lat":43.21189,"lon":5.35079,"is_reserved":false,"is_disabled":false,"rental_uris":{"android":"levelo://app?vid=3ff019b4-f200-434f-bdbd-2de527b20d7e","ios":"levelo://app?vid=3ff019b4-f200-434f-bdbd-2de527b20d7e"},"vehicle_type_id":"4","last_reported":1759043309,"current_range_meters":2800,"station_id":"st_cvj6sg6p6f1abm77japg","pricing_plan_id":"cebpf4jnsgd1na2vs0mg"},{"bike_id":"c9765cf6-5bb3-4ea7-81d0-a18dfe83df51","system_id":"levelo_inurba_marseille","lat":43.24636,"lon":5.389,"is_reserved":false,"is_disabled":false,"rental_uris":{"android":"levelo://app?vid=c9765cf6-5bb3-4ea7-81d0-a18dfe83df51","ios":"levelo://app?vid=c9765cf6-5bb3-4ea7-81d0-a18dfe83df51"},"vehicle_type_id":"4","last_reported":1759043309,"current_range_meters":3200,"station_id":"ce4bhg12rcd13ifvqf60","pricing_plan_id":"cebpf4jnsgd1na2vs0mg"},{"bike_id":"91260e7e-2641-4d00-a638-25427e420d1c","system_id":"levelo_inurba_marseille","lat":43.28461,"lon":5.35891,"is_reserved":false,"is_disabled":false,"rental_uris":{"android":"levelo://app?vid=91260e7e-2641-4d00-a638-25427e420d1c","ios":"levelo://app?vid=91260e7e-2641-4d00-a638-25427e420d1c"},"vehicle_type_id":"4","last_reported":1759043309,"current_range_meters":3200,"station_id":"ce4bhah2rcd13ifvqei0","pricing_plan_id":"cebpf4jnsgd1na2vs0mg"},{"bike_id":"041cd397-24ab-4e04-af23-07b961e161f4","system_id":"levelo_inurba_marseille","lat":43.337444,"lon":5.374475,"is_reserved":false,"is_disabled":false,"rental_uris":{"android":"levelo://app?vid=041cd397-24ab-4e04-af23-07b961e161f4","ios":"levelo://app?vid=041cd397-24ab-4e04-af23-07b961e161f4"},"vehicle_type_id":"4","last_reported":1759043309,"current_range_meters":3200,"station_id":"","pricing_plan_id":"cebpf4jnsgd1na2vs0mg"},{"bike_id":"4ea066be-d5c0-4685-b39a-612a810bdfbb","system_id":"levelo_inurba_marseille","lat":43.337737,"lon":5.37472,"is_reserved":false,"is_disabled":true,"rental_uris":{"android":"levelo://app?vid=4ea066be-d5c0-4685-b39a-612a810bdfbb","ios":"levelo://app?vid=4ea066be-d5c0-4685-b39a-612a810bdfbb"},"vehicle_type_id":"4","last_reported":1759043309,"current_range_meters":3600,"station_id":"","pricing_plan_id":"cebpf4jnsgd1na2vs0mg"},{"bike_id":"588bb5c6-d90f-4edd-b1de-2d2164a39c00","system_id":"levelo_inurba_marseille","lat":43.3285,"lon":5.39109,"is_reserved":false,"is_disabled":false,"rental_uris":{"android":"levelo://app?vid=588bb5c6-d90f-4edd-b1de-2d2164a39c00","ios":"levelo://app?vid=588bb5c6-d90f-4edd-b1de-2d2164a39c00"},"vehicle_type_id":"4","last_reported":1759043309,"current_range_meters":4000,"station_id":"","pricing_plan_id":"cebpf4jnsgd1na2vs0mg"},{"bike_id":"b71c3d75-93b9-4f4a-98af-d8c26d73e9da","system_id":"levelo_inurba_marseille","lat":43.30137,"lon":5.38771,"is_reserved":false,"is_disabled":false,"rental_uris":{"android":"levelo://app?vid=b71c3d75-93b9-4f4a-98af-d8c26d73e9da","ios":"levelo://app?vid=b71c3d75-93b9-4f4a-98af-d8c26d73e9da"},"vehicle_type_id":"4","last_reported":1759043309,"current_range_meters":4000,"station_id":"ce4bghh2rcd13ifvqb60","pricing_plan_id":"cebpf4jnsgd1na2vs0mg"},{"bike_id":"9a819dc8-447d-4df7-8b5f-0b18332a26a7","system_id":"levelo_inurba_marseille","lat":43.3292,"lon":5.37546,"is_reserved":false,"is_disabled":false,"rental_uris":{"android":"levelo://app?vid=9a819dc8-447d-4df7-8b5f-0b18332a26a7","ios":"levelo://app?vid=9a819dc8-447d-4df7-8b5f-0b18332a26a7"},"vehicle_type_id":"4","last_reported":1759043309,"current_range_meters":4000,"station_id":"","pricing_plan_id":"cebpf4jnsgd1na2vs0mg"},{"bike_id":"af5b7fdf-6b71-4411-b11f-406ea44ecb80","system_id":"levelo_inurba_marseille","lat":43.21755,"lon":5.34635,"is_reserved":false,"is_disabled":true,"rental_uris":{"android":"levelo://app?vid=af5b7fdf-6b71-4411-b11f-406ea44ecb80","ios":"levelo://app?vid=af5b7fdf-6b71-4411-b11f-406ea44ecb80"},"vehicle_type_id":"4","last_reported":1759043309,"current_range_meters":4400,"station_id":"st_cvj6r9ubvosntc0bgbag","pricing_plan_id":"cebpf4jnsgd1na2vs0mg"},{"bike_id":"907ed216-30a4-406f-ae2e-0197aba3ed23","system_id":"levelo_inurba_marseille","lat":43.212032,"lon":5.350697,"is_reserved":false,"is_disabled":false,"rental_uris":{"android":"levelo://app?vid=907ed216-30a4-406f-ae2e-0197aba3ed23","ios":"levelo://app?vid=907ed216-30a4-406f-ae2e-0197aba3ed23"},"vehicle_type_id":"4","last_reported":1759043309,"current_range_meters":4800,"station_id":"st_cvj6sg6p6f1abm77japg","pricing_plan_id":"cebpf4jnsgd1na2vs0mg"},{"bike_id":"a639c491-c436-478a-8d5d-bd2c30b918ff","system_id":"levelo_inurba_marseille","lat":43.29752,"lon":5.37202,"is_reserved":false,"is_disabled":false,"rental_uris":{"android":"levelo://app?vid=a639c491-c436-478a-8d5d-bd2c30b918ff","ios":"levelo://app?vid=a639c491-c436-478a-8d5d-bd2c30b918ff"},"vehicle_type_id":"4","last_reported":1759043309,"current_range_meters":5600,"station_id":"","pricing_plan_id":"cebpf4jnsgd1na2vs0mg"},{"bike_id":"2336a081-3301-4818-b498-4e2b16a6631f","system_id":"levelo_inurba_marseille","lat":43.323432,"lon":5.440184,"is_reserved":false,"is_disabled":false,"rental_uris":{"android":"levelo://app?vid=2336a081-3301-4818-b498-4e2b16a6631f","ios":"levelo://app?vid=2336a081-3301-4818-b498-4e2b16a6631f"},"vehicle_type_id":"4","last_reported":1759043309,"current_range_meters":6000,"station_id":"","pricing_plan_id":"cebpf4jnsgd1na2vs0mg"},{"bike_id":"b91d6727-30f5-4b33-801e-8bc58a3c142b","system_id":"levelo_inurba_marseille","lat":43.307978,"lon":5.381596,"is_reserved":false,"is_disabled":false,"rental_uris":{"android":"levelo://app?vid=b91d6727-30f5-4b33-801e-8bc58a3c142b","ios":"levelo://app?vid=b91d6727-30f5-4b33-801e-8bc58a3c142b"},"vehicle_type_id":"4","last_reported":1759043309,"current_range_meters":6000,"station_id":"ce4bgt12rcd13ifvqce0","pricing_plan_id":"cebpf4jnsgd1na2vs0mg"},{"bike_id":"08fe2b08-b3fa-43f8-ae73-04061f76318d","system_id":"levelo_inurba_marseille","lat":43.305552,"lon":5.365395,"is_reserved":false,"is_disabled":false,"rental_uris":{"android":"levelo://app?vid=08fe2b08-b3fa-43f8-ae73-04061f76318d","ios":"levelo://app?vid=08fe2b08-b3fa-43f8-ae73-04061f76318d"},"vehicle_type_id":"4","last_reported":1759043309,"current_range_meters":6000,"station_id":"","pricing_plan_id":"cebpf4jnsgd1na2vs0mg"},{"bike_id":"5248f7c1-1de5-4a6a-a145-d51fe4b84c87","system_id":"levelo_inurba_marseille","lat":43.26208,"lon":5.37444,"is_reserved":false,"is_disabled":false,"rental_uris":{"android":"levelo://app?vid=5248f7c1-1de5-4a6a-a145-d51fe4b84c87","ios":"levelo://app?vid=5248f7c1-1de5-4a6a-a145-d51fe4b84c87"},"vehicle_type_id":"4","last_reported":1759043309,"current_range_meters":6400,"station_id":"ce4bhgp2rcd13ifvqfc0","pricing_plan_id":"cebpf4jnsgd1na2vs0mg"},{"bike_id":"56725ff4-ae20-4c41-b4d5-1380eebd022c","system_id":"levelo_inurba_marseille","lat":43.30884,"lon":5.39652,"is_reserved":false,"is_disabled":false,"rental_uris":{"android":"levelo://app?vid=56725ff4-ae20-4c41-b4d5-1380eebd022c","ios":"levelo://app?vid=56725ff4-ae20-4c41-b4d5-1380eebd022c"},"vehicle_type_id":"4","last_reported":1759043309,"current_range_meters":6400,"station_id":"ce4bh012rcd13ifvqcv0","pricing_plan_id":"cebpf4jnsgd1na2vs0mg"},{"bike_id":"8e385f69-4a89-4bf0-86a4-c68fbcf7e1cb","system_id":"levelo_inurba_marseille","lat":43.225324,"lon":5.348325,"is_reserved":false,"is_disabled":false,"rental_uris":{"android":"levelo://app?vid=8e385f69-4a89-4bf0-86a4-c68fbcf7e1cb","ios":"levelo://app?vid=8e385f69-4a89-4bf0-86a4-c68fbcf7e1cb"},"vehicle_type_id":"4","last_reported":1759043309,"current_range_meters":6400,"station_id":"","pricing_plan_id":"cebpf4jnsgd1na2vs0mg"},{"bike_id":"87c1192c-31a2-481f-8690-3203fb882113","system_id":"levelo_inurba_marseille","lat":43.286657,"lon":5.363533,"is_reserved":false,"is_disabled":false,"rental_uris":{"android":"levelo://app?vid=87c1192c-31a2-481f-8690-3203fb882113","ios":"levelo://app?vid=87c1192c-31a2-481f-8690-3203fb882113"},"vehicle_type_id":"4","last_reported":1759043309,"current_range_meters":6400,"station_id":"ce4bhah2rcd13ifvqej0","pricing_plan_id":"cebpf4jnsgd1na2vs0mg"},{"bike_id":"80c49d73-686f-414e-89de-d7aa90751cc3","system_id":"levelo_inurba_marseille","lat":43.29614,"lon":5.377269,"is_reserved":false,"is_disabled":false,"rental_uris":{"android":"levelo://app?vid=80c49d73-686f-414e-89de-d7aa90751cc3","ios":"levelo://app?vid=80c49d73-686f-414e-89de-d7aa90751cc3"},"vehicle_type_id":"4","last_reported":1759043309,"current_range_meters":6400,"station_id":"ce4bgi92rcd13ifvqb90","pricing_plan_id":"cebpf4jnsgd1na2vs0mg"},{"bike_id":"efb70af7-3910-489d-83f9-425320e24d88","system_id":"levelo_inurba_marseille","lat":43.28201,"lon":5.39057,"is_reserved":false,"is_disabled":false,"rental_uris":{"android":"levelo://app?vid=efb70af7-3910-489d-83f9-425320e24d88","ios":"levelo://app?vid=efb70af7-3910-489d-83f9-425320e24d88"},"vehicle_type_id":"4","last_reported":1759043309,"current_range_meters":6800,"station_id":"ce4bhn92rcd13ifvqgsg","pricing_plan_id":"cebpf4jnsgd1na2vs0mg"},{"bike_id":"fee74e98-eb52-4f66-a612-109c75f34aa6","system_id":"levelo_inurba_marseille","lat":43.29606,"lon":5.37989,"is_reserved":false,"is_disabled":false,"rental_uris":{"android":"levelo://app?vid=fee74e98-eb52-4f66-a612-109c75f34aa6","ios":"levelo://app?vid=fee74e98-eb52-4f66-a612-109c75f34aa6"},"vehicle_type_id":"4","last_reported":1759043309,"current_range_meters":6800,"station_id":"","pricing_plan_id":"cebpf4jnsgd1na2vs0mg"},{"bike_id":"cc10a393-c8ce-43fb-8334-7d6d68691d22","system_id":"levelo_inurba_marseille","lat":43.26932,"lon":5.36687,"is_reserved":false,"is_disabled":false,"rental_uris":{"android":"levelo://app?vid=cc10a393-c8ce-43fb-8334-7d6d68691d22","ios":"levelo://app?vid=cc10a393-c8ce-43fb-8334-7d6d68691d22"},"vehicle_type_id":"4","last_reported":1759043309,"current_range_meters":7200,"station_id":"","pricing_plan_id":"cebpf4jnsgd1na2vs0mg"},{"bike_id":"ee4cf6e8-5930-4a93-ad17-27b9c85362af","system_id":"levelo_inurba_marseille","lat":43.30918,"lon":5.40127,"is_reserved":false,"is_disabled":false,"rental_uris":{"android":"levelo://app?vid=ee4cf6e8-5930-4a93-ad17-27b9c85362af","ios":"levelo://app?vid=ee4cf6e8-5930-4a93-ad17-27b9c85362af"},"vehicle_type_id":"4","last_reported":1759043309,"current_range_meters":7200,"station_id":"ce4bgvp2rcd13ifvqct0","pricing_plan_id":"cebpf4jnsgd1na2vs0mg"},{"bike_id":"6210ac13-52c2-4c7e-93c1-3204730181be","system_id":"levelo_inurba_marseille","lat":43.29518,"lon":5.375,"is_reserved":false,"is_disabled":false,"rental_uris":{"android":"levelo://app?vid=6210ac13-52c2-4c7e-93c1-3204730181be","ios":"levelo://app?vid=6210ac13-52c2-4c7e-93c1-3204730181be"},"vehicle_type_id":"4","last_reported":1759043309,"current_range_meters":7200,"station_id":"ce4bgkp2rcd13ifvqbmg","pricing_plan_id":"cebpf4jnsgd1na2vs0mg"},{"bike_id":"227656de-4cf6-4581-9079-9a01d32929b4","system_id":"levelo_inurba_marseille","lat":43.2974,"lon":5.37679,"is_reserved":false,"is_disabled":false,"rental_uris":{"android":"levelo://app?vid=227656de-4cf6-4581-9079-9a01d32929b4","ios":"levelo://app?vid=227656de-4cf6-4581-9079-9a01d32929b4"},"vehicle_type_id":"4","last_reported":1759043309,"current_range_meters":7200,"station_id":"ce4bgkh2rcd13ifvqbl0","pricing_plan_id":"cebpf4jnsgd1na2vs0mg"},{"bike_id":"020aa52e-bf8d-4b62-a19b-38ca9bd91c45","system_id":"levelo_inurba_marseille","lat":43.30422,"lon":5.41303,"is_reserved":false,"is_disabled":false,"rental_uris":{"android":"levelo://app?vid=020aa52e-bf8d-4b62-a19b-38ca9bd91c45","ios":"levelo://app?vid=020aa52e-bf8d-4b62-a19b-38ca9bd91c45"},"vehicle_type_id":"4","last_reported":1759043309,"current_range_meters":7200,"station_id":"ce4bhop2rcd13ifvqh8g","pricing_plan_id":"cebpf4jnsgd1na2vs0mg"},{"bike_id":"77209d44-259d-4ab1-9842-1e147047aab2","system_id":"levelo_inurba_marseille","lat":43.284328,"lon":5.392018,"is_reserved":false,"is_disabled":false,"rental_uris":{"android":"levelo://app?vid=77209d44-259d-4ab1-9842-1e147047aab2","ios":"levelo://app?vid=77209d44-259d-4ab1-9842-1e147047aab2"},"vehicle_type_id":"4","last_reported":1759043309,"current_range_meters":7200,"station_id":"ce4bhoh2rcd13ifvqh5g","pricing_plan_id":"cebpf4jnsgd1na2vs0mg"},{"bike_id":"9de1ee1c-6b3e-40c8-b6c2-73130c5ae845","system_id":"levelo_inurba_marseille","lat":43.26973,"lon":5.36613,"is_reserved":false,"is_disabled":false,"rental_uris":{"android":"levelo://app?vid=9de1ee1c-6b3e-40c8-b6c2-73130c5ae845","ios":"levelo://app?vid=9de1ee1c-6b3e-40c8-b6c2-73130c5ae845"},"vehicle_type_id":"4","last_reported":1759043309,"current_range_meters":7200,"station_id":"","pricing_plan_id":"cebpf4jnsgd1na2vs0mg"},{"bike_id":"712dddc4-ae95-4aaf-b4c6-16c01a2ce26f","system_id":"levelo_inurba_marseille","lat":43.30035,"lon":5.38071,"is_reserved":false,"is_disabled":false,"rental_uris":{"android":"levelo://app?vid=712dddc4-ae95-4aaf-b4c6-16c01a2ce26f","ios":"levelo://app?vid=712dddc4-ae95-4aaf-b4c6-16c01a2ce26f"},"vehicle_type_id":"4","last_reported":1759043309,"current_range_meters":7200,"station_id":"","pricing_plan_id":"cebpf4jnsgd1na2vs0mg"},{"bike_id":"5db4a3ee-f4b2-471b-83ae-1c199e17a79a","system_id":"levelo_inurba_marseille","lat":43.29225,"lon":5.36065,"is_reserved":false,"is_disabled":false,"rental_uris":{"android":"levelo://app?vid=5db4a3ee-f4b2-471b-83ae-1c199e17a79a","ios":"levelo://app?vid=5db4a3ee-f4b2-471b-83ae-1c199e17a79a"},"vehicle_type_id":"4","last_reported":1759043309,"current_range_meters":7200,"station_id":"ce4bhbh2rcd13ifvqeqg","pricing_plan_id":"cebpf4jnsgd1na2vs0mg"},{"bike_id":"5365e873-98ea-45e2-9689-7e119051f22e","system_id":"levelo_inurba_marseille","lat":43.33021,"lon":5.39051,"is_reserved":false,"is_disabled":true,"rental_uris":{"android":"levelo://app?vid=5365e873-98ea-45e2-9689-7e119051f22e","ios":"levelo://app?vid=5365e873-98ea-45e2-9689-7e119051f22e"},"vehicle_type_id":"4","last_reported":1759043309,"current_range_meters":8000,"station_id":"ce4bhr92rcd13ifvqhrg","pricing_plan_id":"cebpf4jnsgd1na2vs0mg"},{"bike_id":"b5e3d95c-d6ab-47a1-a565-d021b45ce728","system_id":"levelo_inurba_marseille","lat":43.21739,"lon":5.34609,"is_reserved":false,"is_disabled":true,"rental_uris":{"android":"levelo://app?vid=b5e3d95c-d6ab-47a1-a565-d021b45ce728","ios":"levelo://app?vid=b5e3d95c-d6ab-47a1-a565-d021b45ce728"},"vehicle_type_id":"4","last_reported":1759043309,"current_range_meters":8000,"station_id":"st_cvj6r9ubvosntc0bgbag","pricing_plan_id":"cebpf4jnsgd1na2vs0mg"},{"bike_id":"fbef676b-8f42-450e-b448-da45ad596c28","system_id":"levelo_inurba_marseille","lat":43.283793,"lon":5.363166,"is_reserved":false,"is_disabled":false,"rental_uris":{"android":"levelo://app?vid=fbef676b-8f42-450e-b448-da45ad596c28","ios":"levelo://app?vid=fbef676b-8f42-450e-b448-da45ad596c28"},"vehicle_type_id":"4","last_reported":1759043309,"current_range_meters":8000,"station_id":"","pricing_plan_id":"cebpf4jnsgd1na2vs0mg"},{"bike_id":"9bb4db31-0bf9-4171-bca1-76cb045f53a3","system_id":"levelo_inurba_marseille","lat":43.26924,"lon":5.389081,"is_reserved":false,"is_disabled":true,"rental_uris":{"android":"levelo://app?vid=9bb4db31-0bf9-4171-bca1-76cb045f53a3","ios":"levelo://app?vid=9bb4db31-0bf9-4171-bca1-76cb045f53a3"},"vehicle_type_id":"4","last_reported":1759043309,"current_range_meters":8000,"station_id":"ce4bhhh2rcd13ifvqfl0","pricing_plan_id":"cebpf4jnsgd1na2vs0mg"},{"bike_id":"afedc330-47ee-4de9-aee6-581dfeedf7aa","system_id":"levelo_inurba_marseille","lat":43.28999,"lon":5.35605,"is_reserved":false,"is_disabled":false,"rental_uris":{"android":"levelo://app?vid=afedc330-47ee-4de9-aee6-581dfeedf7aa","ios":"levelo://app?vid=afedc330-47ee-4de9-aee6-581dfeedf7aa"},"vehicle_type_id":"4","last_reported":1759043309,"current_range_meters":8000,"station_id":"ce4bhb92rcd13ifvqen0","pricing_plan_id":"cebpf4jnsgd1na2vs0mg"},{"bike_id":"d25f504b-3cee-4760-a323-980804ef7df3","system_id":"levelo_inurba_marseille","lat":43.29273,"lon":5.36856,"is_reserved":false,"is_disabled":false,"rental_uris":{"android":"levelo://app?vid=d25f504b-3cee-4760-a323-980804ef7df3","ios":"levelo://app?vid=d25f504b-3cee-4760-a323-980804ef7df3"},"vehicle_type_id":"4","last_reported":1759043309,"current_range_meters":8000,"station_id":"ce4bhbp2rcd13ifvqesg","pricing_plan_id":"cebpf4jnsgd1na2vs0mg"},{"bike_id":"a78302dc-aa43-437f-9030-51e4e7e137f4","system_id":"levelo_inurba_marseille","lat":43.21199,"lon":5.35089,"is_reserved":false,"is_disabled":false,"rental_uris":{"android":"levelo://app?vid=a78302dc-aa43-437f-9030-51e4e7e137f4","ios":"levelo://app?vid=a78302dc-aa43-437f-9030-51e4e7e137f4"},"vehicle_type_id":"4","last_reported":1759043309,"current_range_meters":8400,"station_id":"st_cvj6sg6p6f1abm77japg","pricing_plan_id":"cebpf4jnsgd1na2vs0mg"},{"bike_id":"3d689bbb-3aad-403d-80a5-3a184aff6886","system_id":"levelo_inurba_marseille","lat":43.30572,"lon":5.36519,"is_reserved":false,"is_disabled":true,"rental_uris":{"android":"levelo://app?vid=3d689bbb-3aad-403d-80a5-3a184aff6886","ios":"levelo://app?vid=3d689bbb-3aad-403d-80a5-3a184aff6886"},"vehicle_type_id":"4","last_reported":1759043309,"current_range_meters":8400,"station_id":"ce4bgs12rcd13ifvqcag","pricing_plan_id":"cebpf4jnsgd1na2vs0mg"},{"bike_id":"174dfb4f-f618-4c2f-be1c-ae0d6b405e94","system_id":"levelo_inurba_marseille","lat":43.29701,"lon":5.38274,"is_reserved":false,"is_disabled":false,"rental_uris":{"android":"levelo://app?vid=174dfb4f-f618-4c2f-be1c-ae0d6b405e94","ios":"levelo://app?vid=174dfb4f-f618-4c2f-be1c-ae0d6b405e94"},"vehicle_type_id":"4","last_reported":1759043309,"current_range_meters":8400,"station_id":"","pricing_plan_id":"cebpf4jnsgd1na2vs0mg"},{"bike_id":"0e41b157-e0f1-4a24-9297-0722a1189de7","system_id":"levelo_inurba_marseille","lat":43.28839,"lon":5.35855,"is_reserved":false,"is_disabled":false,"rental_uris":{"android":"levelo://app?vid=0e41b157-e0f1-4a24-9297-0722a1189de7","ios":"levelo://app?vid=0e41b157-e0f1-4a24-9297-0722a1189de7"},"vehicle_type_id":"4","last_reported":1759043309,"current_range_meters":8400,"station_id":"ce4bhb12rcd13ifvqem0","pricing_plan_id":"cebpf4jnsgd1na2vs0mg"},{"bike_id":"51a8d02d-d318-4fd0-8d35-a5ac7718bde5","system_id":"levelo_inurba_marseille","lat":43.29249,"lon":5.36851,"is_reserved":false,"is_disabled":false,"rental_uris":{"android":"levelo://app?vid=51a8d02d-d318-4fd0-8d35-a5ac7718bde5","ios":"levelo://app?vid=51a8d02d-d318-4fd0-8d35-a5ac7718bde5"},"vehicle_type_id":"4","last_reported":1759043309,"current_range_meters":8400,"station_id":"ce4bhbp2rcd13ifvqesg","pricing_plan_id":"cebpf4jnsgd1na2vs0mg"},{"bike_id":"3f51e03c-3abb-4dde-8cdd-da596aa3252f","system_id":"levelo_inurba_marseille","lat":43.27721,"lon":5.38823,"is_reserved":false,"is_disabled":true,"rental_uris":{"android":"levelo://app?vid=3f51e03c-3abb-4dde-8cdd-da596aa3252f","ios":"levelo://app?vid=3f51e03c-3abb-4dde-8cdd-da596aa3252f"},"vehicle_type_id":"4","last_reported":1759043309,"current_range_meters":8400,"station_id":"","pricing_plan_id":"cebpf4jnsgd1na2vs0mg"},{"bike_id":"65676040-7c3f-42c3-a788-cd4baa321567","system_id":"levelo_inurba_marseille","lat":43.30272,"lon":5.40048,"is_reserved":false,"is_disabled":false,"rental_uris":{"android":"levelo://app?vid=65676040-7c3f-42c3-a788-cd4baa321567","ios":"levelo://app?vid=65676040-7c3f-42c3-a788-cd4baa321567"},"vehicle_type_id":"4","last_reported":1759043309,"current_range_meters":8400,"station_id":"ce4bgvh2rcd13ifvqcs0","pricing_plan_id":"cebpf4jnsgd1na2vs0mg"},{"bike_id":"1d239608-6e5c-4c0b-a060-01728fbfd3da","system_id":"levelo_inurba_marseille","lat":43.28405,"lon":5.37509,"is_reserved":false,"is_disabled":false,"rental_uris":{"android":"levelo://app?vid=1d239608-6e5c-4c0b-a060-01728fbfd3da","ios":"levelo://app?vid=1d239608-6e5c-4c0b-a060-01728fbfd3da"},"vehicle_type_id":"4","last_reported":1759043309,"current_range_meters":8400,"station_id":"ce4bh412rcd13ifvqds0","pricing_plan_id":"cebpf4jnsgd1na2vs0mg"},{"bike_id":"01bf55f2-4ac6-46f6-8504-3267bf31e1a6","system_id":"levelo_inurba_marseille","lat":43.2973,"lon":5.381787,"is_reserved":false,"is_disabled":false,"rental_uris":{"android":"levelo://app?vid=01bf55f2-4ac6-46f6-8504-3267bf31e1a6","ios":"levelo://app?vid=01bf55f2-4ac6-46f6-8504-3267bf31e1a6"},"vehicle_type_id":"4","last_reported":1759043309,"current_range_meters":8400,"station_id":"","pricing_plan_id":"cebpf4jnsgd1na2vs0mg"},{"bike_id":"ee96a502-9b76-492e-840a-498b02aefe72","system_id":"levelo_inurba_marseille","lat":43.32349,"lon":5.39191,"is_reserved":false,"is_disabled":false,"rental_uris":{"android":"levelo://app?vid=ee96a502-9b76-492e-840a-498b02aefe72","ios":"levelo://app?vid=ee96a502-9b76-492e-840a-498b02aefe72"},"vehicle_type_id":"4","last_reported":1759043309,"current_range_meters":8400,"station_id":"","pricing_plan_id":"cebpf4jnsgd1na2vs0mg"},{"bike_id":"2c8f6ab4-9224-4f66-9f01-af807b378d64","system_id":"levelo_inurba_marseille","lat":43.28074,"lon":5.39648,"is_reserved":false,"is_disabled":false,"rental_uris":{"android":"levelo://app?vid=2c8f6ab4-9224-4f66-9f01-af807b378d64","ios":"levelo://app?vid=2c8f6ab4-9224-4f66-9f01-af807b378d64"},"vehicle_type_id":"4","last_reported":1759043309,"current_range_meters":8400,"station_id":"ce4bho12rcd13ifvqh2g","pricing_plan_id":"cebpf4jnsgd1na2vs0mg"},{"bike_id":"f0a74697-385d-4b23-a4c7-5dcf634ec32b","system_id":"levelo_inurba_marseille","lat":43.29491,"lon":5.39015,"is_reserved":false,"is_disabled":false,"rental_uris":{"android":"levelo://app?vid=f0a74697-385d-4b23-a4c7-5dcf634ec32b","ios":"levelo://app?vid=f0a74697-385d-4b23-a4c7-5dcf634ec32b"},"vehicle_type_id":"4","last_reported":1759043309,"current_range_meters":8400,"station_id":"ce4bh3p2rcd13ifvqdp0","pricing_plan_id":"cebpf4jnsgd1na2vs0mg"},{"bike_id":"f122ca82-b6cb-4c94-b172-38c3b17e2f3c","system_id":"levelo_inurba_marseille","lat":43.28432,"lon":5.37524,"is_reserved":false,"is_disabled":false,"rental_uris":{"android":"levelo://app?vid=f122ca82-b6cb-4c94-b172-38c3b17e2f3c","ios":"levelo://app?vid=f122ca82-b6cb-4c94-b172-38c3b17e2f3c"},"vehicle_type_id":"4","last_reported":1759043309,"current_range_meters":8400,"station_id":"ce4bh412rcd13ifvqds0","pricing_plan_id":"cebpf4jnsgd1na2vs0mg"},{"bike_id":"1a954d7d-26cb-4471-bcbc-77ccd9daa7e1","system_id":"levelo_inurba_marseille","lat":43.30538,"lon":5.36544,"is_reserved":false,"is_disabled":false,"rental_uris":{"android":"levelo://app?vid=1a954d7d-26cb-4471-bcbc-77ccd9daa7e1","ios":"levelo://app?vid=1a954d7d-26cb-4471-bcbc-77ccd9daa7e1"},"vehicle_type_id":"4","last_reported":1759043309,"current_range_meters":8800,"station_id":"ce4bgs12rcd13ifvqcag","pricing_plan_id":"cebpf4jnsgd1na2vs0mg"},{"bike_id":"e114a3ae-0a89-4dac-83a7-a52236826763","system_id":"levelo_inurba_marseille","lat":43.211971,"lon":5.350736,"is_reserved":false,"is_disabled":false,"rental_uris":{"android":"levelo://app?vid=e114a3ae-0a89-4dac-83a7-a52236826763","ios":"levelo://app?vid=e114a3ae-0a89-4dac-83a7-a52236826763"},"vehicle_type_id":"4","last_reported":1759043309,"current_range_meters":8800,"station_id":"st_cvj6sg6p6f1abm77japg","pricing_plan_id":"cebpf4jnsgd1na2vs0mg"},{"bike_id":"459d4de6-fcbb-4902-a764-c3d9c3034b96","system_id":"levelo_inurba_marseille","lat":43.31705,"lon":5.40464,"is_reserved":false,"is_disabled":false,"rental_uris":{"android":"levelo://app?vid=459d4de6-fcbb-4902-a764-c3d9c3034b96","ios":"levelo://app?vid=459d4de6-fcbb-4902-a764-c3d9c3034b96"},"vehicle_type_id":"4","last_reported":1759043309,"current_range_meters":8800,"station_id":"ce4bh012rcd13ifvqd00","pricing_plan_id":"cebpf4jnsgd1na2vs0mg"},{"bike_id":"6a2892c8-d28e-4970-bd99-4745d48a3a74","system_id":"levelo_inurba_marseille","lat":43.32392,"lon":5.36742,"is_reserved":false,"is_disabled":false,"rental_uris":{"android":"levelo://app?vid=6a2892c8-d28e-4970-bd99-4745d48a3a74","ios":"levelo://app?vid=6a2892c8-d28e-4970-bd99-4745d48a3a74"},"vehicle_type_id":"4","last_reported":1759043309,"current_range_meters":8800,"station_id":"ce4bhsh2rcd13ifvqi2g","pricing_plan_id":"cebpf4jnsgd1na2vs0mg"},{"bike_id":"b52bcd71-801b-49e3-a785-1e16b967088c","system_id":"levelo_inurba_marseille","lat":43.31128,"lon":5.37775,"is_reserved":false,"is_disabled":false,"rental_uris":{"android":"levelo://app?vid=b52bcd71-801b-49e3-a785-1e16b967088c","ios":"levelo://app?vid=b52bcd71-801b-49e3-a785-1e16b967088c"},"vehicle_type_id":"4","last_reported":1759043309,"current_range_meters":9200,"station_id":"ce4bgt92rcd13ifvqcg0","pricing_plan_id":"cebpf4jnsgd1na2vs0mg"},{"bike_id":"934ea1ec-b7f6-49a1-9efa-287317d4eb22","system_id":"levelo_inurba_marseille","lat":43.29048,"lon":5.35914,"is_reserved":false,"is_disabled":false,"rental_uris":{"android":"levelo://app?vid=934ea1ec-b7f6-49a1-9efa-287317d4eb22","ios":"levelo://app?vid=934ea1ec-b7f6-49a1-9efa-287317d4eb22"},"vehicle_type_id":"4","last_reported":1759043309,"current_range_meters":9200,"station_id":"","pricing_plan_id":"cebpf4jnsgd1na2vs0mg"},{"bike_id":"8360fe96-8a6b-4a67-9ba4-0ef948b002e1","system_id":"levelo_inurba_marseille","lat":43.24994,"lon":5.38899,"is_reserved":false,"is_disabled":true,"rental_uris":{"android":"levelo://app?vid=8360fe96-8a6b-4a67-9ba4-0ef948b002e1","ios":"levelo://app?vid=8360fe96-8a6b-4a67-9ba4-0ef948b002e1"},"vehicle_type_id":"4","last_reported":1759043309,"current_range_meters":9200,"station_id":"ce4bhgp2rcd13ifvqfd0","pricing_plan_id":"cebpf4jnsgd1na2vs0mg"},{"bike_id":"dada151f-48a2-41df-a6a4-a6f6a9806708","system_id":"levelo_inurba_marseille","lat":43.30124,"lon":5.39872,"is_reserved":false,"is_disabled":false,"rental_uris":{"android":"levelo://app?vid=dada151f-48a2-41df-a6a4-a6f6a9806708","ios":"levelo://app?vid=dada151f-48a2-41df-a6a4-a6f6a9806708"},"vehicle_type_id":"4","last_reported":1759043309,"current_range_meters":9200,"station_id":"ce4bh0h2rcd13ifvqd40","pricing_plan_id":"cebpf4jnsgd1na2vs0mg"},{"bike_id":"f2fd2284-837d-45c8-8a92-163c2aa30979","system_id":"levelo_inurba_marseille","lat":43.269321,"lon":5.389212,"is_reserved":false,"is_disabled":true,"rental_uris":{"android":"levelo://app?vid=f2fd2284-837d-45c8-8a92-163c2aa30979","ios":"levelo://app?vid=f2fd2284-837d-45c8-8a92-163c2aa30979"},"vehicle_type_id":"4","last_reported":1759043309,"current_range_meters":9200,"station_id":"ce4bhhh2rcd13ifvqfl0","pricing_plan_id":"cebpf4jnsgd1na2vs0mg"},{"bike_id":"80bdba63-46f3-4274-b0d9-d9711409b6a8","system_id":"levelo_inurba_marseille","lat":43.270752,"lon":5.402497,"is_reserved":false,"is_disabled":false,"rental_uris":{"android":"levelo://app?vid=80bdba63-46f3-4274-b0d9-d9711409b6a8","ios":"levelo://app?vid=80bdba63-46f3-4274-b0d9-d9711409b6a8"},"vehicle_type_id":"4","last_reported":1759043309,"current_range_meters":9200,"station_id":"","pricing_plan_id":"cebpf4jnsgd1na2vs0mg"},{"bike_id":"46ac5fb6-ac2e-43e8-84c9-c4e46889ea29","system_id":"levelo_inurba_marseille","lat":43.2118,"lon":5.35055,"is_reserved":false,"is_disabled":false,"rental_uris":{"android":"levelo://app?vid=46ac5fb6-ac2e-43e8-84c9-c4e46889ea29","ios":"levelo://app?vid=46ac5fb6-ac2e-43e8-84c9-c4e46889ea29"},"vehicle_type_id":"4","last_reported":1759043309,"current_range_meters":9200,"station_id":"st_cvj6sg6p6f1abm77japg","pricing_plan_id":"cebpf4jnsgd1na2vs0mg"},{"bike_id":"f857e7b1-c1cd-4d20-a3dc-6cf9fc459ebd","system_id":"levelo_inurba_marseille","lat":43.25336,"lon":5.42172,"is_reserved":false,"is_disabled":false,"rental_uris":{"android":"levelo://app?vid=f857e7b1-c1cd-4d20-a3dc-6cf9fc459ebd","ios":"levelo://app?vid=f857e7b1-c1cd-4d20-a3dc-6cf9fc459ebd"},"vehicle_type_id":"4","last_reported":1759043309,"current_range_meters":9200,"station_id":"st_d2m65c5bi1j21697t3ng","pricing_plan_id":"cebpf4jnsgd1na2vs0mg"},{"bike_id":"3fd7c937-a838-4d6f-932e-9e3bccbc6d3b","system_id":"levelo_inurba_marseille","lat":43.29932,"lon":5.382,"is_reserved":false,"is_disabled":false,"rental_uris":{"android":"levelo://app?vid=3fd7c937-a838-4d6f-932e-9e3bccbc6d3b","ios":"levelo://app?vid=3fd7c937-a838-4d6f-932e-9e3bccbc6d3b"},"vehicle_type_id":"4","last_reported":1759043309,"current_range_meters":9200,"station_id":"","pricing_plan_id":"cebpf4jnsgd1na2vs0mg"},{"bike_id":"ce425234-24db-462e-8ed1-bc669cb56e89","system_id":"levelo_inurba_marseille","lat":43.27506,"lon":5.42464,"is_reserved":false,"is_disabled":false,"rental_uris":{"android":"levelo://app?vid=ce425234-24db-462e-8ed1-bc669cb56e89","ios":"levelo://app?vid=ce425234-24db-462e-8ed1-bc669cb56e89"},"vehicle_type_id":"4","last_reported":1759043309,"current_range_meters":9200,"station_id":"ce4bhn92rcd13ifvqgrg","pricing_plan_id":"cebpf4jnsgd1na2vs0mg"},{"bike_id":"72f29b73-bc46-48ab-bb44-875a253fa97b","system_id":"levelo_inurba_marseille","lat":43.29734,"lon":5.38039,"is_reserved":false,"is_disabled":false,"rental_uris":{"android":"levelo://app?vid=72f29b73-bc46-48ab-bb44-875a253fa97b","ios":"levelo://app?vid=72f29b73-bc46-48ab-bb44-875a253fa97b"},"vehicle_type_id":"4","last_reported":1759043309,"current_range_meters":9600,"station_id":"","pricing_plan_id":"cebpf4jnsgd1na2vs0mg"},{"bike_id":"ee77b9fe-2021-46b3-83ec-a762b6a3ebbc","system_id":"levelo_inurba_marseille","lat":43.30319,"lon":5.40445,"is_reserved":false,"is_disabled":false,"rental_uris":{"android":"levelo://app?vid=ee77b9fe-2021-46b3-83ec-a762b6a3ebbc","ios":"levelo://app?vid=ee77b9fe-2021-46b3-83ec-a762b6a3ebbc"},"vehicle_type_id":"4","last_reported":1759043309,"current_range_meters":9600,"station_id":"ce4bh012rcd13ifvqd10","pricing_plan_id":"cebpf4jnsgd1na2vs0mg"},{"bike_id":"49d38a2c-fb89-42a8-a163-b3a1a998db9a","system_id":"levelo_inurba_marseille","lat":43.32357,"lon":5.3672,"is_reserved":false,"is_disabled":false,"rental_uris":{"android":"levelo://app?vid=49d38a2c-fb89-42a8-a163-b3a1a998db9a","ios":"levelo://app?vid=49d38a2c-fb89-42a8-a163-b3a1a998db9a"},"vehicle_type_id":"4","last_reported":1759043309,"current_range_meters":9600,"station_id":"ce4bhsh2rcd13ifvqi2g","pricing_plan_id":"cebpf4jnsgd1na2vs0mg"},{"bike_id":"e35a0bdf-bd77-424b-84d2-f0ff692f3f86","system_id":"levelo_inurba_marseille","lat":43.28838,"lon":5.35831,"is_reserved":false,"is_disabled":true,"rental_uris":{"android":"levelo://app?vid=e35a0bdf-bd77-424b-84d2-f0ff692f3f86","ios":"levelo://app?vid=e35a0bdf-bd77-424b-84d2-f0ff692f3f86"},"vehicle_type_id":"4","last_reported":1759043309,"current_range_meters":9600,"station_id":"ce4bhb12rcd13ifvqem0","pricing_plan_id":"cebpf4jnsgd1na2vs0mg"},{"bike_id":"720623f7-9148-4a0e-ade4-a205c6fa44f0","system_id":"levelo_inurba_marseille","lat":43.28934,"lon":5.42888,"is_reserved":false,"is_disabled":false,"rental_uris":{"android":"levelo://app?vid=720623f7-9148-4a0e-ade4-a205c6fa44f0","ios":"levelo://app?vid=720623f7-9148-4a0e-ade4-a205c6fa44f0"},"vehicle_type_id":"4","last_reported":1759043309,"current_range_meters":9600,"station_id":"","pricing_plan_id":"cebpf4jnsgd1na2vs0mg"},{"bike_id":"3fa5fafa-f8e8-4995-aa96-d8ca94ae3fae","system_id":"levelo_inurba_marseille","lat":43.29824,"lon":5.38267,"is_reserved":false,"is_disabled":false,"rental_uris":{"android":"levelo://app?vid=3fa5fafa-f8e8-4995-aa96-d8ca94ae3fae","ios":"levelo://app?vid=3fa5fafa-f8e8-4995-aa96-d8ca94ae3fae"},"vehicle_type_id":"4","last_reported":1759043309,"current_range_meters":9600,"station_id":"","pricing_plan_id":"cebpf4jnsgd1na2vs0mg"},{"bike_id":"789a907a-6638-4395-a780-dbb1d202360e","system_id":"levelo_inurba_marseille","lat":43.23965,"lon":5.36636,"is_reserved":false,"is_disabled":false,"rental_uris":{"android":"levelo://app?vid=789a907a-6638-4395-a780-dbb1d202360e","ios":"levelo://app?vid=789a907a-6638-4395-a780-dbb1d202360e"},"vehicle_type_id":"4","last_reported":1759043309,"current_range_meters":9600,"station_id":"ce4bhi12rcd13ifvqfp0","pricing_plan_id":"cebpf4jnsgd1na2vs0mg"},{"bike_id":"695662ab-65fe-4c59-81b6-3dceb9f5066d","system_id":"levelo_inurba_marseille","lat":43.25577,"lon":5.38246,"is_reserved":false,"is_disabled":true,"rental_uris":{"android":"levelo://app?vid=695662ab-65fe-4c59-81b6-3dceb9f5066d","ios":"levelo://app?vid=695662ab-65fe-4c59-81b6-3dceb9f5066d"},"vehicle_type_id":"4","last_reported":1759043309,"current_range_meters":9600,"station_id":"ce4bhih2rcd13ifvqfs0","pricing_plan_id":"cebpf4jnsgd1na2vs0mg"},{"bike_id":"03350417-1098-4d6c-b8fe-9e64358744bf","system_id":"levelo_inurba_marseille","lat":43.3105,"lon":5.3762,"is_reserved":false,"is_disabled":false,"rental_uris":{"android":"levelo://app?vid=03350417-1098-4d6c-b8fe-9e64358744bf","ios":"levelo://app?vid=03350417-1098-4d6c-b8fe-9e64358744bf"},"vehicle_type_id":"4","last_reported":1759043309,"current_range_meters":9600,"station_id":"","pricing_plan_id":"cebpf4jnsgd1na2vs0mg"},{"bike_id":"7ee12965-0fed-415c-8f08-8f986985cec6","system_id":"levelo_inurba_marseille","lat":43.217545,"lon":5.346024,"is_reserved":false,"is_disabled":true,"rental_uris":{"android":"levelo://app?vid=7ee12965-0fed-415c-8f08-8f986985cec6","ios":"levelo://app?vid=7ee12965-0fed-415c-8f08-8f986985cec6"},"vehicle_type_id":"4","last_reported":1759043309,"current_range_meters":9600,"station_id":"st_cvj6r9ubvosntc0bgbag","pricing_plan_id":"cebpf4jnsgd1na2vs0mg"},{"bike_id":"71649b2c-48f8-4b8a-b9c0-477bd83fa14b","system_id":"levelo_inurba_marseille","lat":43.28412,"lon":5.3501,"is_reserved":false,"is_disabled":false,"rental_uris":{"android":"levelo://app?vid=71649b2c-48f8-4b8a-b9c0-477bd83fa14b","ios":"levelo://app?vid=71649b2c-48f8-4b8a-b9c0-477bd83fa14b"},"vehicle_type_id":"4","last_reported":1759043309,"current_range_meters":10000,"station_id":"ce4bhbh2rcd13ifvqepg","pricing_plan_id":"cebpf4jnsgd1na2vs0mg"},{"bike_id":"9feae468-b8bd-422a-8fcb-2d68fc5ee82c","system_id":"levelo_inurba_marseille","lat":43.33387,"lon":5.42014,"is_reserved":false,"is_disabled":false,"rental_uris":{"android":"levelo://app?vid=9feae468-b8bd-422a-8fcb-2d68fc5ee82c","ios":"levelo://app?vid=9feae468-b8bd-422a-8fcb-2d68fc5ee82c"},"vehicle_type_id":"4","last_reported":1759043309,"current_range_meters":10000,"station_id":"","pricing_plan_id":"cebpf4jnsgd1na2vs0mg"},{"bike_id":"ef6dd282-4b64-4ba0-8c0d-ba4e99f12764","system_id":"levelo_inurba_marseille","lat":43.24383,"lon":5.37059,"is_reserved":false,"is_disabled":false,"rental_uris":{"android":"levelo://app?vid=ef6dd282-4b64-4ba0-8c0d-ba4e99f12764","ios":"levelo://app?vid=ef6dd282-4b64-4ba0-8c0d-ba4e99f12764"},"vehicle_type_id":"4","last_reported":1759043309,"current_range_meters":10000,"station_id":"ce4bhhh2rcd13ifvqfk0","pricing_plan_id":"cebpf4jnsgd1na2vs0mg"},{"bike_id":"f03b792f-d9b3-4dee-ac63-50c5f35e3187","system_id":"levelo_inurba_marseille","lat":43.28399,"lon":5.34984,"is_reserved":false,"is_disabled":false,"rental_uris":{"android":"levelo://app?vid=f03b792f-d9b3-4dee-ac63-50c5f35e3187","ios":"levelo://app?vid=f03b792f-d9b3-4dee-ac63-50c5f35e3187"},"vehicle_type_id":"4","last_reported":1759043309,"current_range_meters":10000,"station_id":"ce4bhbh2rcd13ifvqepg","pricing_plan_id":"cebpf4jnsgd1na2vs0mg"},{"bike_id":"be39eda7-111b-439f-b050-ebecf096c064","system_id":"levelo_inurba_marseille","lat":43.246361,"lon":5.431465,"is_reserved":false,"is_disabled":false,"rental_uris":{"android":"levelo://app?vid=be39eda7-111b-439f-b050-ebecf096c064","ios":"levelo://app?vid=be39eda7-111b-439f-b050-ebecf096c064"},"vehicle_type_id":"4","last_reported":1759043309,"current_range_meters":10000,"station_id":"st_d2m6c4gdas8pm72e190g","pricing_plan_id":"cebpf4jnsgd1na2vs0mg"},{"bike_id":"664fab07-32ea-4b20-a204-05ff91be7a8a","system_id":"levelo_inurba_marseille","lat":43.26204,"lon":5.37449,"is_reserved":false,"is_disabled":false,"rental_uris":{"android":"levelo://app?vid=664fab07-32ea-4b20-a204-05ff91be7a8a","ios":"levelo://app?vid=664fab07-32ea-4b20-a204-05ff91be7a8a"},"vehicle_type_id":"4","last_reported":1759043309,"current_range_meters":10000,"station_id":"ce4bhgp2rcd13ifvqfc0","pricing_plan_id":"cebpf4jnsgd1na2vs0mg"},{"bike_id":"31ad08df-2e9b-49d8-ae7e-84ffa71954ee","system_id":"levelo_inurba_marseille","lat":43.286232,"lon":5.351104,"is_reserved":false,"is_disabled":false,"rental_uris":{"android":"levelo://app?vid=31ad08df-2e9b-49d8-ae7e-84ffa71954ee","ios":"levelo://app?vid=31ad08df-2e9b-49d8-ae7e-84ffa71954ee"},"vehicle_type_id":"4","last_reported":1759043309,"current_range_meters":10000,"station_id":"ce4bhch2rcd13ifvqeug","pricing_plan_id":"cebpf4jnsgd1na2vs0mg"},{"bike_id":"78600b27-aa8a-4460-a4f3-16f7f8d0b522","system_id":"levelo_inurba_marseille","lat":43.31764,"lon":5.39872,"is_reserved":false,"is_disabled":false,"rental_uris":{"android":"levelo://app?vid=78600b27-aa8a-4460-a4f3-16f7f8d0b522","ios":"levelo://app?vid=78600b27-aa8a-4460-a4f3-16f7f8d0b522"},"vehicle_type_id":"4","last_reported":1759043309,"current_range_meters":10000,"station_id":"","pricing_plan_id":"cebpf4jnsgd1na2vs0mg"},{"bike_id":"db256f78-e25c-4b53-a598-0ac7b589dbeb","system_id":"levelo_inurba_marseille","lat":43.24189,"lon":5.39746,"is_reserved":false,"is_disabled":false,"rental_uris":{"android":"levelo://app?vid=db256f78-e25c-4b53-a598-0ac7b589dbeb","ios":"levelo://app?vid=db256f78-e25c-4b53-a598-0ac7b589dbeb"},"vehicle_type_id":"4","last_reported":1759043309,"current_range_meters":10000,"station_id":"ce4bhn12rcd13ifvqgpg","pricing_plan_id":"cebpf4jnsgd1na2vs0mg"},{"bike_id":"e67d30c9-865a-4ee7-893d-2aad1e475f2b","system_id":"levelo_inurba_marseille","lat":43.26221,"lon":5.41545,"is_reserved":false,"is_disabled":false,"rental_uris":{"android":"levelo://app?vid=e67d30c9-865a-4ee7-893d-2aad1e475f2b","ios":"levelo://app?vid=e67d30c9-865a-4ee7-893d-2aad1e475f2b"},"vehicle_type_id":"4","last_reported":1759043309,"current_range_meters":10000,"station_id":"","pricing_plan_id":"cebpf4jnsgd1na2vs0mg"},{"bike_id":"976fd36e-2f5c-424c-baa8-068b37f1eb42","system_id":"levelo_inurba_marseille","lat":43.2758,"lon":5.38454,"is_reserved":false,"is_disabled":false,"rental_uris":{"android":"levelo://app?vid=976fd36e-2f5c-424c-baa8-068b37f1eb42","ios":"levelo://app?vid=976fd36e-2f5c-424c-baa8-068b37f1eb42"},"vehicle_type_id":"4","last_reported":1759043309,"current_range_meters":10800,"station_id":"ce4bhh92rcd13ifvqfi0","pricing_plan_id":"cebpf4jnsgd1na2vs0mg"},{"bike_id":"0b10856b-3dad-4052-bc3a-2c17e6f16e23","system_id":"levelo_inurba_marseille","lat":43.27564,"lon":5.38405,"is_reserved":false,"is_disabled":true,"rental_uris":{"android":"levelo://app?vid=0b10856b-3dad-4052-bc3a-2c17e6f16e23","ios":"levelo://app?vid=0b10856b-3dad-4052-bc3a-2c17e6f16e23"},"vehicle_type_id":"4","last_reported":1759043309,"current_range_meters":10800,"station_id":"ce4bhh92rcd13ifvqfi0","pricing_plan_id":"cebpf4jnsgd1na2vs0mg"},{"bike_id":"349977c5-2efd-48ed-8dd8-9cfd0d464679","system_id":"levelo_inurba_marseille","lat":43.21193,"lon":5.35084,"is_reserved":false,"is_disabled":false,"rental_uris":{"android":"levelo://app?vid=349977c5-2efd-48ed-8dd8-9cfd0d464679","ios":"levelo://app?vid=349977c5-2efd-48ed-8dd8-9cfd0d464679"},"vehicle_type_id":"4","last_reported":1759043309,"current_range_meters":10800,"station_id":"st_cvj6sg6p6f1abm77japg","pricing_plan_id":"cebpf4jnsgd1na2vs0mg"},{"bike_id":"dc4883ea-8f06-44d1-8b3d-6660e39a87ec","system_id":"levelo_inurba_marseille","lat":43.229356,"lon":5.353779,"is_reserved":false,"is_disabled":true,"rental_uris":{"android":"levelo://app?vid=dc4883ea-8f06-44d1-8b3d-6660e39a87ec","ios":"levelo://app?vid=dc4883ea-8f06-44d1-8b3d-6660e39a87ec"},"vehicle_type_id":"4","last_reported":1759043309,"current_range_meters":10800,"station_id":"cpo3532slgdg3j2ikp40","pricing_plan_id":"cebpf4jnsgd1na2vs0mg"},{"bike_id":"e863eb13-a40f-409e-ae03-80c63350785a","system_id":"levelo_inurba_marseille","lat":43.265078,"lon":5.395523,"is_reserved":false,"is_disabled":false,"rental_uris":{"android":"levelo://app?vid=e863eb13-a40f-409e-ae03-80c63350785a","ios":"levelo://app?vid=e863eb13-a40f-409e-ae03-80c63350785a"},"vehicle_type_id":"4","last_reported":1759043309,"current_range_meters":10800,"station_id":"ce4bhi12rcd13ifvqfq0","pricing_plan_id":"cebpf4jnsgd1na2vs0mg"},{"bike_id":"e8a00adf-cc3c-4eaa-bc99-7c5f03f75fb1","system_id":"levelo_inurba_marseille","lat":43.25839,"lon":5.39909,"is_reserved":false,"is_disabled":false,"rental_uris":{"android":"levelo://app?vid=e8a00adf-cc3c-4eaa-bc99-7c5f03f75fb1","ios":"levelo://app?vid=e8a00adf-cc3c-4eaa-bc99-7c5f03f75fb1"},"vehicle_type_id":"4","last_reported":1759043309,"current_range_meters":10800,"station_id":"ce4bhl92rcd13ifvqghg","pricing_plan_id":"cebpf4jnsgd1na2vs0mg"},{"bike_id":"ad23d5b7-e539-4881-b1fb-ca8ea65fe9c3","system_id":"levelo_inurba_marseille","lat":43.29626,"lon":5.40591,"is_reserved":false,"is_disabled":false,"rental_uris":{"android":"levelo://app?vid=ad23d5b7-e539-4881-b1fb-ca8ea65fe9c3","ios":"levelo://app?vid=ad23d5b7-e539-4881-b1fb-ca8ea65fe9c3"},"vehicle_type_id":"4","last_reported":1759043309,"current_range_meters":10800,"station_id":"ce4bh0h2rcd13ifvqd60","pricing_plan_id":"cebpf4jnsgd1na2vs0mg"},{"bike_id":"a141ba13-19f1-4f9e-9fa5-b678aae29a88","system_id":"levelo_inurba_marseille","lat":43.31115,"lon":5.37788,"is_reserved":false,"is_disabled":false,"rental_uris":{"android":"levelo://app?vid=a141ba13-19f1-4f9e-9fa5-b678aae29a88","ios":"levelo://app?vid=a141ba13-19f1-4f9e-9fa5-b678aae29a88"},"vehicle_type_id":"4","last_reported":1759043309,"current_range_meters":11200,"station_id":"ce4bgt92rcd13ifvqcg0","pricing_plan_id":"cebpf4jnsgd1na2vs0mg"},{"bike_id":"5592ad4b-4e81-403a-bf4b-4f2a06afbc12","system_id":"levelo_inurba_marseille","lat":43.26556,"lon":5.37273,"is_reserved":false,"is_disabled":false,"rental_uris":{"android":"levelo://app?vid=5592ad4b-4e81-403a-bf4b-4f2a06afbc12","ios":"levelo://app?vid=5592ad4b-4e81-403a-bf4b-4f2a06afbc12"},"vehicle_type_id":"4","last_reported":1759043309,"current_range_meters":11200,"station_id":"ce4bhg12rcd13ifvqf70","pricing_plan_id":"cebpf4jnsgd1na2vs0mg"},{"bike_id":"096c311a-e31f-4e60-ab8c-de0b76354103","system_id":"levelo_inurba_marseille","lat":43.27205,"lon":5.40984,"is_reserved":false,"is_disabled":true,"rental_uris":{"android":"levelo://app?vid=096c311a-e31f-4e60-ab8c-de0b76354103","ios":"levelo://app?vid=096c311a-e31f-4e60-ab8c-de0b76354103"},"vehicle_type_id":"4","last_reported":1759043309,"current_range_meters":11200,"station_id":"ce4bhl12rcd13ifvqgf0","pricing_plan_id":"cebpf4jnsgd1na2vs0mg"},{"bike_id":"d613f736-8c07-455c-9124-13cb9d2c81c6","system_id":"levelo_inurba_marseille","lat":43.307995,"lon":5.381733,"is_reserved":false,"is_disabled":true,"rental_uris":{"android":"levelo://app?vid=d613f736-8c07-455c-9124-13cb9d2c81c6","ios":"levelo://app?vid=d613f736-8c07-455c-9124-13cb9d2c81c6"},"vehicle_type_id":"4","last_reported":1759043309,"current_range_meters":11200,"station_id":"ce4bgt12rcd13ifvqce0","pricing_plan_id":"cebpf4jnsgd1na2vs0mg"},{"bike_id":"eedfbf61-711e-444c-88e3-b720ea74f76a","system_id":"levelo_inurba_marseille","lat":43.211936,"lon":5.350762,"is_reserved":false,"is_disabled":false,"rental_uris":{"android":"levelo://app?vid=eedfbf61-711e-444c-88e3-b720ea74f76a","ios":"levelo://app?vid=eedfbf61-711e-444c-88e3-b720ea74f76a"},"vehicle_type_id":"4","last_reported":1759043309,"current_range_meters":11200,"station_id":"st_cvj6sg6p6f1abm77japg","pricing_plan_id":"cebpf4jnsgd1na2vs0mg"},{"bike_id":"b12490fe-0dcd-47f9-b077-882bf0ed49d7","system_id":"levelo_inurba_marseille","lat":43.31275,"lon":5.38648,"is_reserved":false,"is_disabled":false,"rental_uris":{"android":"levelo://app?vid=b12490fe-0dcd-47f9-b077-882bf0ed49d7","ios":"levelo://app?vid=b12490fe-0dcd-47f9-b077-882bf0ed49d7"},"vehicle_type_id":"4","last_reported":1759043309,"current_range_meters":11200,"station_id":"","pricing_plan_id":"cebpf4jnsgd1na2vs0mg"},{"bike_id":"282c6232-132b-445b-b331-17f257d40650","system_id":"levelo_inurba_marseille","lat":43.290321,"lon":5.376542,"is_reserved":false,"is_disabled":false,"rental_uris":{"android":"levelo://app?vid=282c6232-132b-445b-b331-17f257d40650","ios":"levelo://app?vid=282c6232-132b-445b-b331-17f257d40650"},"vehicle_type_id":"4","last_reported":1759043309,"current_range_meters":11200,"station_id":"","pricing_plan_id":"cebpf4jnsgd1na2vs0mg"},{"bike_id":"a1fdae52-bc83-45d4-802b-52c902766dfa","system_id":"levelo_inurba_marseille","lat":43.28473,"lon":5.35906,"is_reserved":false,"is_disabled":false,"rental_uris":{"android":"levelo://app?vid=a1fdae52-bc83-45d4-802b-52c902766dfa","ios":"levelo://app?vid=a1fdae52-bc83-45d4-802b-52c902766dfa"},"vehicle_type_id":"4","last_reported":1759043309,"current_range_meters":11600,"station_id":"ce4bhah2rcd13ifvqei0","pricing_plan_id":"cebpf4jnsgd1na2vs0mg"},{"bike_id":"12d96d7b-c2d2-494e-bcee-3c1f61859032","system_id":"levelo_inurba_marseille","lat":43.29273,"lon":5.36844,"is_reserved":false,"is_disabled":false,"rental_uris":{"android":"levelo://app?vid=12d96d7b-c2d2-494e-bcee-3c1f61859032","ios":"levelo://app?vid=12d96d7b-c2d2-494e-bcee-3c1f61859032"},"vehicle_type_id":"4","last_reported":1759043309,"current_range_meters":11600,"station_id":"ce4bhbp2rcd13ifvqesg","pricing_plan_id":"cebpf4jnsgd1na2vs0mg"},{"bike_id":"7dcb99ac-80be-4d50-bab1-d1beb171784b","system_id":"levelo_inurba_marseille","lat":43.28475,"lon":5.35898,"is_reserved":false,"is_disabled":false,"rental_uris":{"android":"levelo://app?vid=7dcb99ac-80be-4d50-bab1-d1beb171784b","ios":"levelo://app?vid=7dcb99ac-80be-4d50-bab1-d1beb171784b"},"vehicle_type_id":"4","last_reported":1759043309,"current_range_meters":11600,"station_id":"ce4bhah2rcd13ifvqei0","pricing_plan_id":"cebpf4jnsgd1na2vs0mg"},{"bike_id":"69df1e22-4228-401a-97e2-f749c317939a","system_id":"levelo_inurba_marseille","lat":43.33632,"lon":5.41039,"is_reserved":false,"is_disabled":false,"rental_uris":{"android":"levelo://app?vid=69df1e22-4228-401a-97e2-f749c317939a","ios":"levelo://app?vid=69df1e22-4228-401a-97e2-f749c317939a"},"vehicle_type_id":"4","last_reported":1759043309,"current_range_meters":11600,"station_id":"ce4bhqh2rcd13ifvqhmg","pricing_plan_id":"cebpf4jnsgd1na2vs0mg"},{"bike_id":"4e820ae6-42a7-463b-9a1c-0425f9da5a60","system_id":"levelo_inurba_marseille","lat":43.26216,"lon":5.37416,"is_reserved":false,"is_disabled":false,"rental_uris":{"android":"levelo://app?vid=4e820ae6-42a7-463b-9a1c-0425f9da5a60","ios":"levelo://app?vid=4e820ae6-42a7-463b-9a1c-0425f9da5a60"},"vehicle_type_id":"4","last_reported":1759043309,"current_range_meters":12000,"station_id":"ce4bhgp2rcd13ifvqfc0","pricing_plan_id":"cebpf4jnsgd1na2vs0mg"},{"bike_id":"ae17ab70-4248-4bb7-8c1b-d78473914a68","system_id":"levelo_inurba_marseille","lat":43.24973,"lon":5.38928,"is_reserved":false,"is_disabled":false,"rental_uris":{"android":"levelo://app?vid=ae17ab70-4248-4bb7-8c1b-d78473914a68","ios":"levelo://app?vid=ae17ab70-4248-4bb7-8c1b-d78473914a68"},"vehicle_type_id":"4","last_reported":1759043309,"current_range_meters":12000,"station_id":"ce4bhgp2rcd13ifvqfd0","pricing_plan_id":"cebpf4jnsgd1na2vs0mg"},{"bike_id":"360c0746-c854-4629-884f-7c911de53d9d","system_id":"levelo_inurba_marseille","lat":43.317567,"lon":5.390122,"is_reserved":false,"is_disabled":false,"rental_uris":{"android":"levelo://app?vid=360c0746-c854-4629-884f-7c911de53d9d","ios":"levelo://app?vid=360c0746-c854-4629-884f-7c911de53d9d"},"vehicle_type_id":"4","last_reported":1759043309,"current_range_meters":12000,"station_id":"ce4bhqp2rcd13ifvqhng","pricing_plan_id":"cebpf4jnsgd1na2vs0mg"},{"bike_id":"6d98ab21-1faa-4b15-97b2-a1dd6f53a5a7","system_id":"levelo_inurba_marseille","lat":43.274376,"lon":5.39408,"is_reserved":false,"is_disabled":true,"rental_uris":{"android":"levelo://app?vid=6d98ab21-1faa-4b15-97b2-a1dd6f53a5a7","ios":"levelo://app?vid=6d98ab21-1faa-4b15-97b2-a1dd6f53a5a7"},"vehicle_type_id":"4","last_reported":1759043309,"current_range_meters":12000,"station_id":"ce4bhdp2rcd13ifvqf20","pricing_plan_id":"cebpf4jnsgd1na2vs0mg"},{"bike_id":"d66cd03b-dbeb-4aa4-961e-bd97aeefe4a4","system_id":"levelo_inurba_marseille","lat":43.25964,"lon":5.41381,"is_reserved":false,"is_disabled":false,"rental_uris":{"android":"levelo://app?vid=d66cd03b-dbeb-4aa4-961e-bd97aeefe4a4","ios":"levelo://app?vid=d66cd03b-dbeb-4aa4-961e-bd97aeefe4a4"},"vehicle_type_id":"4","last_reported":1759043309,"current_range_meters":12000,"station_id":"","pricing_plan_id":"cebpf4jnsgd1na2vs0mg"},{"bike_id":"e54b8c9f-4f66-4c52-b603-24745fa68456","system_id":"levelo_inurba_marseille","lat":43.25722,"lon":5.411,"is_reserved":false,"is_disabled":false,"rental_uris":{"android":"levelo://app?vid=e54b8c9f-4f66-4c52-b603-24745fa68456","ios":"levelo://app?vid=e54b8c9f-4f66-4c52-b603-24745fa68456"},"vehicle_type_id":"4","last_reported":1759043309,"current_range_meters":12400,"station_id":"ce4bhkp2rcd13ifvqgd0","pricing_plan_id":"cebpf4jnsgd1na2vs0mg"},{"bike_id":"85c7ac65-0172-4766-8977-f4ba34ed9c93","system_id":"levelo_inurba_marseille","lat":43.253306,"lon":5.421716,"is_reserved":false,"is_disabled":false,"rental_uris":{"android":"levelo://app?vid=85c7ac65-0172-4766-8977-f4ba34ed9c93","ios":"levelo://app?vid=85c7ac65-0172-4766-8977-f4ba34ed9c93"},"vehicle_type_id":"4","last_reported":1759043309,"current_range_meters":12400,"station_id":"st_d2m65c5bi1j21697t3ng","pricing_plan_id":"cebpf4jnsgd1na2vs0mg"},{"bike_id":"33ac03ed-dfbb-4aa1-aee0-f01e22e067d9","system_id":"levelo_inurba_marseille","lat":43.24631,"lon":5.43149,"is_reserved":false,"is_disabled":false,"rental_uris":{"android":"levelo://app?vid=33ac03ed-dfbb-4aa1-aee0-f01e22e067d9","ios":"levelo://app?vid=33ac03ed-dfbb-4aa1-aee0-f01e22e067d9"},"vehicle_type_id":"4","last_reported":1759043309,"current_range_meters":12400,"station_id":"st_d2m6c4gdas8pm72e190g","pricing_plan_id":"cebpf4jnsgd1na2vs0mg"},{"bike_id":"4c02c545-ad59-45b1-9b9c-d3678a5922c7","system_id":"levelo_inurba_marseille","lat":43.337444,"lon":5.374475,"is_reserved":false,"is_disabled":false,"rental_uris":{"android":"levelo://app?vid=4c02c545-ad59-45b1-9b9c-d3678a5922c7","ios":"levelo://app?vid=4c02c545-ad59-45b1-9b9c-d3678a5922c7"},"vehicle_type_id":"4","last_reported":1759043309,"current_range_meters":12400,"station_id":"","pricing_plan_id":"cebpf4jnsgd1na2vs0mg"},{"bike_id":"c097f066-7651-435e-913f-a8a7838aba88","system_id":"levelo_inurba_marseille","lat":43.33722,"lon":5.37459,"is_reserved":false,"is_disabled":false,"rental_uris":{"android":"levelo://app?vid=c097f066-7651-435e-913f-a8a7838aba88","ios":"levelo://app?vid=c097f066-7651-435e-913f-a8a7838aba88"},"vehicle_type_id":"4","last_reported":1759043309,"current_range_meters":12400,"station_id":"","pricing_plan_id":"cebpf4jnsgd1na2vs0mg"},{"bike_id":"bed09a6e-cd3c-4a53-9fa3-f71618a22422","system_id":"levelo_inurba_marseille","lat":43.27979,"lon":5.41662,"is_reserved":false,"is_disabled":false,"rental_uris":{"android":"levelo://app?vid=bed09a6e-cd3c-4a53-9fa3-f71618a22422","ios":"levelo://app?vid=bed09a6e-cd3c-4a53-9fa3-f71618a22422"},"vehicle_type_id":"4","last_reported":1759043309,"current_range_meters":12400,"station_id":"ce4bho12rcd13ifvqh1g","pricing_plan_id":"cebpf4jnsgd1na2vs0mg"},{"bike_id":"b43d98a0-7418-482d-9f41-418ac515f13f","system_id":"levelo_inurba_marseille","lat":43.251014,"lon":5.403698,"is_reserved":false,"is_disabled":false,"rental_uris":{"android":"levelo://app?vid=b43d98a0-7418-482d-9f41-418ac515f13f","ios":"levelo://app?vid=b43d98a0-7418-482d-9f41-418ac515f13f"},"vehicle_type_id":"4","last_reported":1759043309,"current_range_meters":12400,"station_id":"ce4bhlh2rcd13ifvqgig","pricing_plan_id":"cebpf4jnsgd1na2vs0mg"},{"bike_id":"2ec3a6d6-ee34-4467-9229-490d40bcd0cf","system_id":"levelo_inurba_marseille","lat":43.2799,"lon":5.41677,"is_reserved":false,"is_disabled":false,"rental_uris":{"android":"levelo://app?vid=2ec3a6d6-ee34-4467-9229-490d40bcd0cf","ios":"levelo://app?vid=2ec3a6d6-ee34-4467-9229-490d40bcd0cf"},"vehicle_type_id":"4","last_reported":1759043309,"current_range_meters":12800,"station_id":"ce4bho12rcd13ifvqh1g","pricing_plan_id":"cebpf4jnsgd1na2vs0mg"},{"bike_id":"2243febf-ebaf-474b-8e3e-799410e4c867","system_id":"levelo_inurba_marseille","lat":43.32566,"lon":5.36355,"is_reserved":false,"is_disabled":false,"rental_uris":{"android":"levelo://app?vid=2243febf-ebaf-474b-8e3e-799410e4c867","ios":"levelo://app?vid=2243febf-ebaf-474b-8e3e-799410e4c867"},"vehicle_type_id":"4","last_reported":1759043309,"current_range_meters":12800,"station_id":"","pricing_plan_id":"cebpf4jnsgd1na2vs0mg"},{"bike_id":"1466822f-1fc3-4e0d-b3b6-915dad2d241c","system_id":"levelo_inurba_marseille","lat":43.29896,"lon":5.43653,"is_reserved":false,"is_disabled":false,"rental_uris":{"android":"levelo://app?vid=1466822f-1fc3-4e0d-b3b6-915dad2d241c","ios":"levelo://app?vid=1466822f-1fc3-4e0d-b3b6-915dad2d241c"},"vehicle_type_id":"4","last_reported":1759043309,"current_range_meters":12800,"station_id":"ce4bhpp2rcd13ifvqhfg","pricing_plan_id":"cebpf4jnsgd1na2vs0mg"},{"bike_id":"f62fe733-90ac-444a-a20a-73d227678ff7","system_id":"levelo_inurba_marseille","lat":43.29671,"lon":5.3771,"is_reserved":false,"is_disabled":true,"rental_uris":{"android":"levelo://app?vid=f62fe733-90ac-444a-a20a-73d227678ff7","ios":"levelo://app?vid=f62fe733-90ac-444a-a20a-73d227678ff7"},"vehicle_type_id":"4","last_reported":1759043309,"current_range_meters":13600,"station_id":"ce4bgkh2rcd13ifvqbl0","pricing_plan_id":"cebpf4jnsgd1na2vs0mg"},{"bike_id":"cde7ace7-4dd7-4835-992d-e43ccee00cde","system_id":"levelo_inurba_marseille","lat":43.30922,"lon":5.4014,"is_reserved":false,"is_disabled":false,"rental_uris":{"android":"levelo://app?vid=cde7ace7-4dd7-4835-992d-e43ccee00cde","ios":"levelo://app?vid=cde7ace7-4dd7-4835-992d-e43ccee00cde"},"vehicle_type_id":"4","last_reported":1759043309,"current_range_meters":13600,"station_id":"ce4bgvp2rcd13ifvqct0","pricing_plan_id":"cebpf4jnsgd1na2vs0mg"},{"bike_id":"95bafeb0-6c7b-407a-a73b-a6569ff5cb66","system_id":"levelo_inurba_marseille","lat":43.3378,"lon":5.3747,"is_reserved":false,"is_disabled":false,"rental_uris":{"android":"levelo://app?vid=95bafeb0-6c7b-407a-a73b-a6569ff5cb66","ios":"levelo://app?vid=95bafeb0-6c7b-407a-a73b-a6569ff5cb66"},"vehicle_type_id":"4","last_reported":1759043309,"current_range_meters":13600,"station_id":"","pricing_plan_id":"cebpf4jnsgd1na2vs0mg"},{"bike_id":"e8d7a538-138e-45dc-91f9-0f4717e317ea","system_id":"levelo_inurba_marseille","lat":43.25825,"lon":5.39408,"is_reserved":false,"is_disabled":false,"rental_uris":{"android":"levelo://app?vid=e8d7a538-138e-45dc-91f9-0f4717e317ea","ios":"levelo://app?vid=e8d7a538-138e-45dc-91f9-0f4717e317ea"},"vehicle_type_id":"4","last_reported":1759043309,"current_range_meters":13600,"station_id":"ce4bhip2rcd13ifvqft0","pricing_plan_id":"cebpf4jnsgd1na2vs0mg"},{"bike_id":"72c47d07-f4a8-4f58-b6bc-b8c6013ac540","system_id":"levelo_inurba_marseille","lat":43.31396,"lon":5.39115,"is_reserved":false,"is_disabled":false,"rental_uris":{"android":"levelo://app?vid=72c47d07-f4a8-4f58-b6bc-b8c6013ac540","ios":"levelo://app?vid=72c47d07-f4a8-4f58-b6bc-b8c6013ac540"},"vehicle_type_id":"4","last_reported":1759043309,"current_range_meters":13600,"station_id":"","pricing_plan_id":"cebpf4jnsgd1na2vs0mg"},{"bike_id":"8ba5e33b-48f1-42b5-a531-76085f7229c8","system_id":"levelo_inurba_marseille","lat":43.24632,"lon":5.43168,"is_reserved":false,"is_disabled":false,"rental_uris":{"android":"levelo://app?vid=8ba5e33b-48f1-42b5-a531-76085f7229c8","ios":"levelo://app?vid=8ba5e33b-48f1-42b5-a531-76085f7229c8"},"vehicle_type_id":"4","last_reported":1759043309,"current_range_meters":13600,"station_id":"st_d2m6c4gdas8pm72e190g","pricing_plan_id":"cebpf4jnsgd1na2vs0mg"},{"bike_id":"258ab053-1083-4ca9-a32a-1e85f085fc22","system_id":"levelo_inurba_marseille","lat":43.337444,"lon":5.374475,"is_reserved":false,"is_disabled":false,"rental_uris":{"android":"levelo://app?vid=258ab053-1083-4ca9-a32a-1e85f085fc22","ios":"levelo://app?vid=258ab053-1083-4ca9-a32a-1e85f085fc22"},"vehicle_type_id":"4","last_reported":1759043309,"current_range_meters":13600,"station_id":"","pricing_plan_id":"cebpf4jnsgd1na2vs0mg"},{"bike_id":"f4c53ff4-73a4-4134-bb3f-bbf464878afb","system_id":"levelo_inurba_marseille","lat":43.21767,"lon":5.34607,"is_reserved":false,"is_disabled":true,"rental_uris":{"android":"levelo://app?vid=f4c53ff4-73a4-4134-bb3f-bbf464878afb","ios":"levelo://app?vid=f4c53ff4-73a4-4134-bb3f-bbf464878afb"},"vehicle_type_id":"4","last_reported":1759043309,"current_range_meters":14000,"station_id":"st_cvj6r9ubvosntc0bgbag","pricing_plan_id":"cebpf4jnsgd1na2vs0mg"},{"bike_id":"99f8e706-cfb0-4eb6-929e-527298f2a0db","system_id":"levelo_inurba_marseille","lat":43.28344,"lon":5.37665,"is_reserved":false,"is_disabled":false,"rental_uris":{"android":"levelo://app?vid=99f8e706-cfb0-4eb6-929e-527298f2a0db","ios":"levelo://app?vid=99f8e706-cfb0-4eb6-929e-527298f2a0db"},"vehicle_type_id":"4","last_reported":1759043309,"current_range_meters":14000,"station_id":"","pricing_plan_id":"cebpf4jnsgd1na2vs0mg"},{"bike_id":"6c3c1d7f-1f19-40b3-9c55-c47e689537fd","system_id":"levelo_inurba_marseille","lat":43.28874,"lon":5.37858,"is_reserved":false,"is_disabled":false,"rental_uris":{"android":"levelo://app?vid=6c3c1d7f-1f19-40b3-9c55-c47e689537fd","ios":"levelo://app?vid=6c3c1d7f-1f19-40b3-9c55-c47e689537fd"},"vehicle_type_id":"4","last_reported":1759043309,"current_range_meters":14000,"station_id":"","pricing_plan_id":"cebpf4jnsgd1na2vs0mg"},{"bike_id":"ca0805b3-bc0d-4ce5-b699-44d84a23687a","system_id":"levelo_inurba_marseille","lat":43.284098,"lon":5.375028,"is_reserved":false,"is_disabled":false,"rental_uris":{"android":"levelo://app?vid=ca0805b3-bc0d-4ce5-b699-44d84a23687a","ios":"levelo://app?vid=ca0805b3-bc0d-4ce5-b699-44d84a23687a"},"vehicle_type_id":"4","last_reported":1759043309,"current_range_meters":14000,"station_id":"ce4bh412rcd13ifvqds0","pricing_plan_id":"cebpf4jnsgd1na2vs0mg"},{"bike_id":"a5411636-713e-4195-a6c9-4f7d84e639d4","system_id":"levelo_inurba_marseille","lat":43.30611,"lon":5.40151,"is_reserved":false,"is_disabled":false,"rental_uris":{"android":"levelo://app?vid=a5411636-713e-4195-a6c9-4f7d84e639d4","ios":"levelo://app?vid=a5411636-713e-4195-a6c9-4f7d84e639d4"},"vehicle_type_id":"4","last_reported":1759043309,"current_range_meters":14400,"station_id":"","pricing_plan_id":"cebpf4jnsgd1na2vs0mg"},{"bike_id":"c9916796-5f07-4d22-aceb-87882fb08ac5","system_id":"levelo_inurba_marseille","lat":43.30586,"lon":5.36541,"is_reserved":false,"is_disabled":false,"rental_uris":{"android":"levelo://app?vid=c9916796-5f07-4d22-aceb-87882fb08ac5","ios":"levelo://app?vid=c9916796-5f07-4d22-aceb-87882fb08ac5"},"vehicle_type_id":"4","last_reported":1759043309,"current_range_meters":14400,"station_id":"ce4bgs12rcd13ifvqcag","pricing_plan_id":"cebpf4jnsgd1na2vs0mg"},{"bike_id":"7ac81eae-aed2-4f3f-a100-b35f399befc9","system_id":"levelo_inurba_marseille","lat":43.25117,"lon":5.40324,"is_reserved":false,"is_disabled":false,"rental_uris":{"android":"levelo://app?vid=7ac81eae-aed2-4f3f-a100-b35f399befc9","ios":"levelo://app?vid=7ac81eae-aed2-4f3f-a100-b35f399befc9"},"vehicle_type_id":"4","last_reported":1759043309,"current_range_meters":14400,"station_id":"ce4bhlh2rcd13ifvqgig","pricing_plan_id":"cebpf4jnsgd1na2vs0mg"},{"bike_id":"c2745636-3c26-49e5-822b-2e6c56c6a0bc","system_id":"levelo_inurba_marseille","lat":43.25345,"lon":5.4218,"is_reserved":false,"is_disabled":false,"rental_uris":{"android":"levelo://app?vid=c2745636-3c26-49e5-822b-2e6c56c6a0bc","ios":"levelo://app?vid=c2745636-3c26-49e5-822b-2e6c56c6a0bc"},"vehicle_type_id":"4","last_reported":1759043309,"current_range_meters":14400,"station_id":"st_d2m65c5bi1j21697t3ng","pricing_plan_id":"cebpf4jnsgd1na2vs0mg"},{"bike_id":"ad08563b-9fa2-4201-ac5b-831247ae1890","system_id":"levelo_inurba_marseille","lat":43.211928,"lon":5.350721,"is_reserved":false,"is_disabled":false,"rental_uris":{"android":"levelo://app?vid=ad08563b-9fa2-4201-ac5b-831247ae1890","ios":"levelo://app?vid=ad08563b-9fa2-4201-ac5b-831247ae1890"},"vehicle_type_id":"4","last_reported":1759043309,"current_range_meters":14400,"station_id":"st_cvj6sg6p6f1abm77japg","pricing_plan_id":"cebpf4jnsgd1na2vs0mg"},{"bike_id":"afb3a0b1-c807-4eff-8fb4-4964910f49c8","system_id":"levelo_inurba_marseille","lat":43.21743,"lon":5.34596,"is_reserved":false,"is_disabled":true,"rental_uris":{"android":"levelo://app?vid=afb3a0b1-c807-4eff-8fb4-4964910f49c8","ios":"levelo://app?vid=afb3a0b1-c807-4eff-8fb4-4964910f49c8"},"vehicle_type_id":"4","last_reported":1759043309,"current_range_meters":14400,"station_id":"","pricing_plan_id":"cebpf4jnsgd1na2vs0mg"},{"bike_id":"1dad2113-89e2-44fc-a0b6-ddd6a09baff1","system_id":"levelo_inurba_marseille","lat":43.337444,"lon":5.374475,"is_reserved":false,"is_disabled":false,"rental_uris":{"android":"levelo://app?vid=1dad2113-89e2-44fc-a0b6-ddd6a09baff1","ios":"levelo://app?vid=1dad2113-89e2-44fc-a0b6-ddd6a09baff1"},"vehicle_type_id":"4","last_reported":1759043309,"current_range_meters":14800,"station_id":"","pricing_plan_id":"cebpf4jnsgd1na2vs0mg"},{"bike_id":"39dcfbd2-c068-4806-a491-ff990f7f3fcf","system_id":"levelo_inurba_marseille","lat":43.32359,"lon":5.38891,"is_reserved":false,"is_disabled":false,"rental_uris":{"android":"levelo://app?vid=39dcfbd2-c068-4806-a491-ff990f7f3fcf","ios":"levelo://app?vid=39dcfbd2-c068-4806-a491-ff990f7f3fcf"},"vehicle_type_id":"4","last_reported":1759043309,"current_range_meters":14800,"station_id":"ce4bhqp2rcd13ifvqhog","pricing_plan_id":"cebpf4jnsgd1na2vs0mg"},{"bike_id":"2c6518be-b3f0-42d2-93c9-c1de9e54885f","system_id":"levelo_inurba_marseille","lat":43.29227,"lon":5.38219,"is_reserved":false,"is_disabled":false,"rental_uris":{"android":"levelo://app?vid=2c6518be-b3f0-42d2-93c9-c1de9e54885f","ios":"levelo://app?vid=2c6518be-b3f0-42d2-93c9-c1de9e54885f"},"vehicle_type_id":"4","last_reported":1759043309,"current_range_meters":14800,"station_id":"","pricing_plan_id":"cebpf4jnsgd1na2vs0mg"},{"bike_id":"3cb1dae7-6bcd-41e5-b1b7-c1d25c751a99","system_id":"levelo_inurba_marseille","lat":43.337635,"lon":5.374385,"is_reserved":false,"is_disabled":false,"rental_uris":{"android":"levelo://app?vid=3cb1dae7-6bcd-41e5-b1b7-c1d25c751a99","ios":"levelo://app?vid=3cb1dae7-6bcd-41e5-b1b7-c1d25c751a99"},"vehicle_type_id":"4","last_reported":1759043309,"current_range_meters":14800,"station_id":"","pricing_plan_id":"cebpf4jnsgd1na2vs0mg"},{"bike_id":"5fe7f407-3191-4d84-bcf8-5bce6d58e56d","system_id":"levelo_inurba_marseille","lat":43.2292,"lon":5.35379,"is_reserved":false,"is_disabled":false,"rental_uris":{"android":"levelo://app?vid=5fe7f407-3191-4d84-bcf8-5bce6d58e56d","ios":"levelo://app?vid=5fe7f407-3191-4d84-bcf8-5bce6d58e56d"},"vehicle_type_id":"4","last_reported":1759043309,"current_range_meters":14800,"station_id":"cpo3532slgdg3j2ikp40","pricing_plan_id":"cebpf4jnsgd1na2vs0mg"},{"bike_id":"a2a842f6-fc46-40d7-b7a6-d9d5a8c99dfa","system_id":"levelo_inurba_marseille","lat":43.31986,"lon":5.3815,"is_reserved":false,"is_disabled":true,"rental_uris":{"android":"levelo://app?vid=a2a842f6-fc46-40d7-b7a6-d9d5a8c99dfa","ios":"levelo://app?vid=a2a842f6-fc46-40d7-b7a6-d9d5a8c99dfa"},"vehicle_type_id":"4","last_reported":1759043309,"current_range_meters":14800,"station_id":"ce4bhr12rcd13ifvqhpg","pricing_plan_id":"cebpf4jnsgd1na2vs0mg"},{"bike_id":"a8a4b18c-65e0-4caa-9785-d868ac23fb7d","system_id":"levelo_inurba_marseille","lat":43.25011,"lon":5.38925,"is_reserved":false,"is_disabled":false,"rental_uris":{"android":"levelo://app?vid=a8a4b18c-65e0-4caa-9785-d868ac23fb7d","ios":"levelo://app?vid=a8a4b18c-65e0-4caa-9785-d868ac23fb7d"},"vehicle_type_id":"4","last_reported":1759043309,"current_range_meters":14400,"station_id":"ce4bhgp2rcd13ifvqfd0","pricing_plan_id":"cebpf4jnsgd1na2vs0mg"},{"bike_id":"cffb76d0-d641-47dd-912d-8b7246cf4e57","system_id":"levelo_inurba_marseille","lat":43.30927,"lon":5.40158,"is_reserved":false,"is_disabled":false,"rental_uris":{"android":"levelo://app?vid=cffb76d0-d641-47dd-912d-8b7246cf4e57","ios":"levelo://app?vid=cffb76d0-d641-47dd-912d-8b7246cf4e57"},"vehicle_type_id":"4","last_reported":1759043309,"current_range_meters":14800,"station_id":"ce4bgvp2rcd13ifvqct0","pricing_plan_id":"cebpf4jnsgd1na2vs0mg"},{"bike_id":"a1e2b7f3-f53e-4b6a-b8f1-27b0fbf9634d","system_id":"levelo_inurba_marseille","lat":43.315898,"lon":5.375817,"is_reserved":false,"is_disabled":false,"rental_uris":{"android":"levelo://app?vid=a1e2b7f3-f53e-4b6a-b8f1-27b0fbf9634d","ios":"levelo://app?vid=a1e2b7f3-f53e-4b6a-b8f1-27b0fbf9634d"},"vehicle_type_id":"4","last_reported":1759043309,"current_range_meters":15200,"station_id":"","pricing_plan_id":"cebpf4jnsgd1na2vs0mg"},{"bike_id":"151d75a0-434c-41d6-a3a8-42bc6a9a604c","system_id":"levelo_inurba_marseille","lat":43.31757,"lon":5.39017,"is_reserved":false,"is_disabled":false,"rental_uris":{"android":"levelo://app?vid=151d75a0-434c-41d6-a3a8-42bc6a9a604c","ios":"levelo://app?vid=151d75a0-434c-41d6-a3a8-42bc6a9a604c"},"vehicle_type_id":"4","last_reported":1759043309,"current_range_meters":15200,"station_id":"ce4bgt92rcd13ifvqcf0","pricing_plan_id":"cebpf4jnsgd1na2vs0mg"},{"bike_id":"1abf816d-8b66-4e4e-a448-26494f025a51","system_id":"levelo_inurba_marseille","lat":43.31992,"lon":5.38153,"is_reserved":false,"is_disabled":false,"rental_uris":{"android":"levelo://app?vid=1abf816d-8b66-4e4e-a448-26494f025a51","ios":"levelo://app?vid=1abf816d-8b66-4e4e-a448-26494f025a51"},"vehicle_type_id":"4","last_reported":1759043309,"current_range_meters":15200,"station_id":"ce4bhr12rcd13ifvqhpg","pricing_plan_id":"cebpf4jnsgd1na2vs0mg"},{"bike_id":"d58ddcbe-70d7-4259-abad-73cc43b8b8b9","system_id":"levelo_inurba_marseille","lat":43.230599,"lon":5.354878,"is_reserved":false,"is_disabled":true,"rental_uris":{"android":"levelo://app?vid=d58ddcbe-70d7-4259-abad-73cc43b8b8b9","ios":"levelo://app?vid=d58ddcbe-70d7-4259-abad-73cc43b8b8b9"},"vehicle_type_id":"4","last_reported":1759043309,"current_range_meters":15200,"station_id":"cpo3342slgdg3j2ifvpg","pricing_plan_id":"cebpf4jnsgd1na2vs0mg"},{"bike_id":"0a48ac41-6103-4312-a8f4-1d943a708b69","system_id":"levelo_inurba_marseille","lat":43.28846,"lon":5.35887,"is_reserved":false,"is_disabled":false,"rental_uris":{"android":"levelo://app?vid=0a48ac41-6103-4312-a8f4-1d943a708b69","ios":"levelo://app?vid=0a48ac41-6103-4312-a8f4-1d943a708b69"},"vehicle_type_id":"4","last_reported":1759043309,"current_range_meters":15200,"station_id":"ce4bhb12rcd13ifvqem0","pricing_plan_id":"cebpf4jnsgd1na2vs0mg"},{"bike_id":"e3fe1c25-77d6-4c99-a172-35c670f24da9","system_id":"levelo_inurba_marseille","lat":43.29001,"lon":5.35595,"is_reserved":false,"is_disabled":true,"rental_uris":{"android":"levelo://app?vid=e3fe1c25-77d6-4c99-a172-35c670f24da9","ios":"levelo://app?vid=e3fe1c25-77d6-4c99-a172-35c670f24da9"},"vehicle_type_id":"4","last_reported":1759043309,"current_range_meters":15200,"station_id":"ce4bhb92rcd13ifvqen0","pricing_plan_id":"cebpf4jnsgd1na2vs0mg"},{"bike_id":"36d2e1c1-cc4f-43a2-8c5d-1a0bebcdcdbf","system_id":"levelo_inurba_marseille","lat":43.30225,"lon":5.40047,"is_reserved":false,"is_disabled":false,"rental_uris":{"android":"levelo://app?vid=36d2e1c1-cc4f-43a2-8c5d-1a0bebcdcdbf","ios":"levelo://app?vid=36d2e1c1-cc4f-43a2-8c5d-1a0bebcdcdbf"},"vehicle_type_id":"4","last_reported":1759043309,"current_range_meters":15200,"station_id":"ce4bgvh2rcd13ifvqcs0","pricing_plan_id":"cebpf4jnsgd1na2vs0mg"},{"bike_id":"6f0c1749-517c-4897-91c9-50c589e202de","system_id":"levelo_inurba_marseille","lat":43.34139,"lon":5.40914,"is_reserved":false,"is_disabled":true,"rental_uris":{"android":"levelo://app?vid=6f0c1749-517c-4897-91c9-50c589e202de","ios":"levelo://app?vid=6f0c1749-517c-4897-91c9-50c589e202de"},"vehicle_type_id":"4","last_reported":1759043309,"current_range_meters":16000,"station_id":"ce4bhqh2rcd13ifvqhlg","pricing_plan_id":"cebpf4jnsgd1na2vs0mg"},{"bike_id":"258b2e09-7c4c-42f6-94e1-22674b9d8e2f","system_id":"levelo_inurba_marseille","lat":43.31996,"lon":5.38148,"is_reserved":false,"is_disabled":false,"rental_uris":{"android":"levelo://app?vid=258b2e09-7c4c-42f6-94e1-22674b9d8e2f","ios":"levelo://app?vid=258b2e09-7c4c-42f6-94e1-22674b9d8e2f"},"vehicle_type_id":"4","last_reported":1759043309,"current_range_meters":16000,"station_id":"ce4bhr12rcd13ifvqhpg","pricing_plan_id":"cebpf4jnsgd1na2vs0mg"},{"bike_id":"43f34d49-0950-4d38-9eef-f180241b02f9","system_id":"levelo_inurba_marseille","lat":43.30931,"lon":5.40143,"is_reserved":false,"is_disabled":false,"rental_uris":{"android":"levelo://app?vid=43f34d49-0950-4d38-9eef-f180241b02f9","ios":"levelo://app?vid=43f34d49-0950-4d38-9eef-f180241b02f9"},"vehicle_type_id":"4","last_reported":1759043309,"current_range_meters":16000,"station_id":"ce4bgvp2rcd13ifvqct0","pricing_plan_id":"cebpf4jnsgd1na2vs0mg"},{"bike_id":"e8243b31-1674-490a-9991-da44218e629b","system_id":"levelo_inurba_marseille","lat":43.33615,"lon":5.40991,"is_reserved":false,"is_disabled":false,"rental_uris":{"android":"levelo://app?vid=e8243b31-1674-490a-9991-da44218e629b","ios":"levelo://app?vid=e8243b31-1674-490a-9991-da44218e629b"},"vehicle_type_id":"4","last_reported":1759043309,"current_range_meters":16000,"station_id":"ce4bhqh2rcd13ifvqhmg","pricing_plan_id":"cebpf4jnsgd1na2vs0mg"},{"bike_id":"d7d09523-34bb-44d2-9695-02f0abea9b47","system_id":"levelo_inurba_marseille","lat":43.29734,"lon":5.37918,"is_reserved":false,"is_disabled":false,"rental_uris":{"android":"levelo://app?vid=d7d09523-34bb-44d2-9695-02f0abea9b47","ios":"levelo://app?vid=d7d09523-34bb-44d2-9695-02f0abea9b47"},"vehicle_type_id":"4","last_reported":1759043309,"current_range_meters":16000,"station_id":"","pricing_plan_id":"cebpf4jnsgd1na2vs0mg"},{"bike_id":"35e8f722-b82a-4247-beb8-7e2827829ce6","system_id":"levelo_inurba_marseille","lat":43.32405,"lon":5.3911,"is_reserved":false,"is_disabled":false,"rental_uris":{"android":"levelo://app?vid=35e8f722-b82a-4247-beb8-7e2827829ce6","ios":"levelo://app?vid=35e8f722-b82a-4247-beb8-7e2827829ce6"},"vehicle_type_id":"4","last_reported":1759043309,"current_range_meters":16000,"station_id":"","pricing_plan_id":"cebpf4jnsgd1na2vs0mg"},{"bike_id":"342aa4a8-2613-4079-ad39-b792bb12bc57","system_id":"levelo_inurba_marseille","lat":43.32113,"lon":5.36813,"is_reserved":false,"is_disabled":false,"rental_uris":{"android":"levelo://app?vid=342aa4a8-2613-4079-ad39-b792bb12bc57","ios":"levelo://app?vid=342aa4a8-2613-4079-ad39-b792bb12bc57"},"vehicle_type_id":"4","last_reported":1759043309,"current_range_meters":16000,"station_id":"ce4bhrh2rcd13ifvqhug","pricing_plan_id":"cebpf4jnsgd1na2vs0mg"},{"bike_id":"e5378695-fba9-432a-9cfb-3b5b05e40fec","system_id":"levelo_inurba_marseille","lat":43.337986,"lon":5.374304,"is_reserved":false,"is_disabled":false,"rental_uris":{"android":"levelo://app?vid=e5378695-fba9-432a-9cfb-3b5b05e40fec","ios":"levelo://app?vid=e5378695-fba9-432a-9cfb-3b5b05e40fec"},"vehicle_type_id":"4","last_reported":1759043309,"current_range_meters":16000,"station_id":"","pricing_plan_id":"cebpf4jnsgd1na2vs0mg"},{"bike_id":"473be798-955e-44ad-a92b-7b9cc5bbebba","system_id":"levelo_inurba_marseille","lat":43.23956,"lon":5.36643,"is_reserved":false,"is_disabled":false,"rental_uris":{"android":"levelo://app?vid=473be798-955e-44ad-a92b-7b9cc5bbebba","ios":"levelo://app?vid=473be798-955e-44ad-a92b-7b9cc5bbebba"},"vehicle_type_id":"4","last_reported":1759043309,"current_range_meters":16400,"station_id":"ce4bhi12rcd13ifvqfp0","pricing_plan_id":"cebpf4jnsgd1na2vs0mg"},{"bike_id":"8a725275-65d6-4f8c-a1e1-17559f853dd5","system_id":"levelo_inurba_marseille","lat":43.25575,"lon":5.38237,"is_reserved":false,"is_disabled":false,"rental_uris":{"android":"levelo://app?vid=8a725275-65d6-4f8c-a1e1-17559f853dd5","ios":"levelo://app?vid=8a725275-65d6-4f8c-a1e1-17559f853dd5"},"vehicle_type_id":"4","last_reported":1759043309,"current_range_meters":16400,"station_id":"ce4bhih2rcd13ifvqfs0","pricing_plan_id":"cebpf4jnsgd1na2vs0mg"},{"bike_id":"cd599950-469a-4b80-a3b5-e3a82490c357","system_id":"levelo_inurba_marseille","lat":43.28341,"lon":5.38099,"is_reserved":false,"is_disabled":false,"rental_uris":{"android":"levelo://app?vid=cd599950-469a-4b80-a3b5-e3a82490c357","ios":"levelo://app?vid=cd599950-469a-4b80-a3b5-e3a82490c357"},"vehicle_type_id":"4","last_reported":1759043309,"current_range_meters":16400,"station_id":"ce4bh412rcd13ifvqdr0","pricing_plan_id":"cebpf4jnsgd1na2vs0mg"},{"bike_id":"01e260f5-828c-4df2-9bc4-ca80e799f979","system_id":"levelo_inurba_marseille","lat":43.21767,"lon":5.34607,"is_reserved":false,"is_disabled":true,"rental_uris":{"android":"levelo://app?vid=01e260f5-828c-4df2-9bc4-ca80e799f979","ios":"levelo://app?vid=01e260f5-828c-4df2-9bc4-ca80e799f979"},"vehicle_type_id":"4","last_reported":1759043309,"current_range_meters":16400,"station_id":"st_cvj6r9ubvosntc0bgbag","pricing_plan_id":"cebpf4jnsgd1na2vs0mg"},{"bike_id":"d8202551-11d6-47e5-83fc-d7c15a5fcc5b","system_id":"levelo_inurba_marseille","lat":43.32489,"lon":5.36579,"is_reserved":false,"is_disabled":false,"rental_uris":{"android":"levelo://app?vid=d8202551-11d6-47e5-83fc-d7c15a5fcc5b","ios":"levelo://app?vid=d8202551-11d6-47e5-83fc-d7c15a5fcc5b"},"vehicle_type_id":"4","last_reported":1759043309,"current_range_meters":16400,"station_id":"ce4bhs12rcd13ifvqhvg","pricing_plan_id":"cebpf4jnsgd1na2vs0mg"},{"bike_id":"4fb58689-967e-4abe-a0e6-912a768ddaef","system_id":"levelo_inurba_marseille","lat":43.298959,"lon":5.43695,"is_reserved":false,"is_disabled":false,"rental_uris":{"android":"levelo://app?vid=4fb58689-967e-4abe-a0e6-912a768ddaef","ios":"levelo://app?vid=4fb58689-967e-4abe-a0e6-912a768ddaef"},"vehicle_type_id":"4","last_reported":1759043309,"current_range_meters":16400,"station_id":"ce4bhpp2rcd13ifvqhfg","pricing_plan_id":"cebpf4jnsgd1na2vs0mg"},{"bike_id":"de3d4008-5530-4c78-9c65-70f56897143e","system_id":"levelo_inurba_marseille","lat":43.28744,"lon":5.38656,"is_reserved":false,"is_disabled":false,"rental_uris":{"android":"levelo://app?vid=de3d4008-5530-4c78-9c65-70f56897143e","ios":"levelo://app?vid=de3d4008-5530-4c78-9c65-70f56897143e"},"vehicle_type_id":"4","last_reported":1759043309,"current_range_meters":16400,"station_id":"","pricing_plan_id":"cebpf4jnsgd1na2vs0mg"},{"bike_id":"80dbbbc6-bfcd-4ab8-8fa5-5b1a07db2980","system_id":"levelo_inurba_marseille","lat":43.321105,"lon":5.367817,"is_reserved":false,"is_disabled":false,"rental_uris":{"android":"levelo://app?vid=80dbbbc6-bfcd-4ab8-8fa5-5b1a07db2980","ios":"levelo://app?vid=80dbbbc6-bfcd-4ab8-8fa5-5b1a07db2980"},"vehicle_type_id":"4","last_reported":1759043309,"current_range_meters":16400,"station_id":"ce4bhrh2rcd13ifvqhug","pricing_plan_id":"cebpf4jnsgd1na2vs0mg"},{"bike_id":"0656741e-4baa-4804-921b-3ed5233045aa","system_id":"levelo_inurba_marseille","lat":43.24621,"lon":5.43155,"is_reserved":false,"is_disabled":false,"rental_uris":{"android":"levelo://app?vid=0656741e-4baa-4804-921b-3ed5233045aa","ios":"levelo://app?vid=0656741e-4baa-4804-921b-3ed5233045aa"},"vehicle_type_id":"4","last_reported":1759043309,"current_range_meters":16400,"station_id":"st_d2m6c4gdas8pm72e190g","pricing_plan_id":"cebpf4jnsgd1na2vs0mg"},{"bike_id":"11bade50-a090-4a17-8e1f-6f869c7737e6","system_id":"levelo_inurba_marseille","lat":43.28461,"lon":5.3591,"is_reserved":false,"is_disabled":false,"rental_uris":{"android":"levelo://app?vid=11bade50-a090-4a17-8e1f-6f869c7737e6","ios":"levelo://app?vid=11bade50-a090-4a17-8e1f-6f869c7737e6"},"vehicle_type_id":"4","last_reported":1759043309,"current_range_meters":16400,"station_id":"ce4bhah2rcd13ifvqei0","pricing_plan_id":"cebpf4jnsgd1na2vs0mg"},{"bike_id":"8c00709b-b289-4b64-ac6e-63742739e9f9","system_id":"levelo_inurba_marseille","lat":43.313239,"lon":5.396986,"is_reserved":false,"is_disabled":false,"rental_uris":{"android":"levelo://app?vid=8c00709b-b289-4b64-ac6e-63742739e9f9","ios":"levelo://app?vid=8c00709b-b289-4b64-ac6e-63742739e9f9"},"vehicle_type_id":"4","last_reported":1759043309,"current_range_meters":16800,"station_id":"ce4bgvp2rcd13ifvqcu0","pricing_plan_id":"cebpf4jnsgd1na2vs0mg"},{"bike_id":"327c041e-5c9e-4b0d-a97c-a2dbaab036ae","system_id":"levelo_inurba_marseille","lat":43.32813,"lon":5.4113,"is_reserved":false,"is_disabled":false,"rental_uris":{"android":"levelo://app?vid=327c041e-5c9e-4b0d-a97c-a2dbaab036ae","ios":"levelo://app?vid=327c041e-5c9e-4b0d-a97c-a2dbaab036ae"},"vehicle_type_id":"4","last_reported":1759043309,"current_range_meters":16800,"station_id":"","pricing_plan_id":"cebpf4jnsgd1na2vs0mg"},{"bike_id":"b2600a7a-197d-4bf1-989e-840665935040","system_id":"levelo_inurba_marseille","lat":43.2694,"lon":5.38657,"is_reserved":false,"is_disabled":false,"rental_uris":{"android":"levelo://app?vid=b2600a7a-197d-4bf1-989e-840665935040","ios":"levelo://app?vid=b2600a7a-197d-4bf1-989e-840665935040"},"vehicle_type_id":"4","last_reported":1759043309,"current_range_meters":16400,"station_id":"ce4bhh92rcd13ifvqfh0","pricing_plan_id":"cebpf4jnsgd1na2vs0mg"},{"bike_id":"d34300a7-1a7e-4fac-95c3-3b68a5ea0128","system_id":"levelo_inurba_marseille","lat":43.30932,"lon":5.40179,"is_reserved":false,"is_disabled":false,"rental_uris":{"android":"levelo://app?vid=d34300a7-1a7e-4fac-95c3-3b68a5ea0128","ios":"levelo://app?vid=d34300a7-1a7e-4fac-95c3-3b68a5ea0128"},"vehicle_type_id":"4","last_reported":1759043309,"current_range_meters":16800,"station_id":"ce4bgvp2rcd13ifvqct0","pricing_plan_id":"cebpf4jnsgd1na2vs0mg"},{"bike_id":"9d01f5c6-cb4c-4e1f-839e-272afd4084ac","system_id":"levelo_inurba_marseille","lat":43.26191,"lon":5.37455,"is_reserved":false,"is_disabled":false,"rental_uris":{"android":"levelo://app?vid=9d01f5c6-cb4c-4e1f-839e-272afd4084ac","ios":"levelo://app?vid=9d01f5c6-cb4c-4e1f-839e-272afd4084ac"},"vehicle_type_id":"4","last_reported":1759043309,"current_range_meters":17200,"station_id":"ce4bhgp2rcd13ifvqfc0","pricing_plan_id":"cebpf4jnsgd1na2vs0mg"},{"bike_id":"7ed03729-1b9b-4a6a-9529-68e4006c8cf5","system_id":"levelo_inurba_marseille","lat":43.22948,"lon":5.35373,"is_reserved":false,"is_disabled":false,"rental_uris":{"android":"levelo://app?vid=7ed03729-1b9b-4a6a-9529-68e4006c8cf5","ios":"levelo://app?vid=7ed03729-1b9b-4a6a-9529-68e4006c8cf5"},"vehicle_type_id":"4","last_reported":1759043309,"current_range_meters":16800,"station_id":"cpo3532slgdg3j2ikp40","pricing_plan_id":"cebpf4jnsgd1na2vs0mg"},{"bike_id":"9353e269-fbc0-4680-ac92-7179d3cf36ce","system_id":"levelo_inurba_marseille","lat":43.31321,"lon":5.39709,"is_reserved":false,"is_disabled":false,"rental_uris":{"android":"levelo://app?vid=9353e269-fbc0-4680-ac92-7179d3cf36ce","ios":"levelo://app?vid=9353e269-fbc0-4680-ac92-7179d3cf36ce"},"vehicle_type_id":"4","last_reported":1759043309,"current_range_meters":16800,"station_id":"ce4bgvp2rcd13ifvqcu0","pricing_plan_id":"cebpf4jnsgd1na2vs0mg"},{"bike_id":"0e0a5268-5d89-4206-9c03-a8adf24a2274","system_id":"levelo_inurba_marseille","lat":43.25355,"lon":5.42172,"is_reserved":false,"is_disabled":false,"rental_uris":{"android":"levelo://app?vid=0e0a5268-5d89-4206-9c03-a8adf24a2274","ios":"levelo://app?vid=0e0a5268-5d89-4206-9c03-a8adf24a2274"},"vehicle_type_id":"4","last_reported":1759043309,"current_range_meters":16800,"station_id":"st_d2m65c5bi1j21697t3ng","pricing_plan_id":"cebpf4jnsgd1na2vs0mg"},{"bike_id":"623e0f99-4c1b-4139-b14c-f8d85b86ddeb","system_id":"levelo_inurba_marseille","lat":43.28453,"lon":5.35922,"is_reserved":false,"is_disabled":false,"rental_uris":{"android":"levelo://app?vid=623e0f99-4c1b-4139-b14c-f8d85b86ddeb","ios":"levelo://app?vid=623e0f99-4c1b-4139-b14c-f8d85b86ddeb"},"vehicle_type_id":"4","last_reported":1759043309,"current_range_meters":16800,"station_id":"ce4bhah2rcd13ifvqei0","pricing_plan_id":"cebpf4jnsgd1na2vs0mg"},{"bike_id":"4822dd99-56ec-44f6-a9b9-ee0ae5dcc1bf","system_id":"levelo_inurba_marseille","lat":43.30009,"lon":5.39994,"is_reserved":false,"is_disabled":false,"rental_uris":{"android":"levelo://app?vid=4822dd99-56ec-44f6-a9b9-ee0ae5dcc1bf","ios":"levelo://app?vid=4822dd99-56ec-44f6-a9b9-ee0ae5dcc1bf"},"vehicle_type_id":"4","last_reported":1759043309,"current_range_meters":16800,"station_id":"ce4bh0h2rcd13ifvqd40","pricing_plan_id":"cebpf4jnsgd1na2vs0mg"},{"bike_id":"86df1d0e-8d01-4163-8b03-248398a72975","system_id":"levelo_inurba_marseille","lat":43.31502,"lon":5.37296,"is_reserved":false,"is_disabled":false,"rental_uris":{"android":"levelo://app?vid=86df1d0e-8d01-4163-8b03-248398a72975","ios":"levelo://app?vid=86df1d0e-8d01-4163-8b03-248398a72975"},"vehicle_type_id":"4","last_reported":1759043309,"current_range_meters":16800,"station_id":"ce4bgt12rcd13ifvqcd0","pricing_plan_id":"cebpf4jnsgd1na2vs0mg"},{"bike_id":"3ecab9fb-ebd1-48b2-bfce-30928b04fa5e","system_id":"levelo_inurba_marseille","lat":43.26286,"lon":5.39912,"is_reserved":false,"is_disabled":false,"rental_uris":{"android":"levelo://app?vid=3ecab9fb-ebd1-48b2-bfce-30928b04fa5e","ios":"levelo://app?vid=3ecab9fb-ebd1-48b2-bfce-30928b04fa5e"},"vehicle_type_id":"4","last_reported":1759043309,"current_range_meters":16800,"station_id":"","pricing_plan_id":"cebpf4jnsgd1na2vs0mg"},{"bike_id":"9fa6b289-f6ce-4c79-a064-742389e1d55d","system_id":"levelo_inurba_marseille","lat":43.32456,"lon":5.36555,"is_reserved":false,"is_disabled":false,"rental_uris":{"android":"levelo://app?vid=9fa6b289-f6ce-4c79-a064-742389e1d55d","ios":"levelo://app?vid=9fa6b289-f6ce-4c79-a064-742389e1d55d"},"vehicle_type_id":"4","last_reported":1759043309,"current_range_meters":16800,"station_id":"ce4bhs12rcd13ifvqhvg","pricing_plan_id":"cebpf4jnsgd1na2vs0mg"},{"bike_id":"4645660a-d95f-4228-a6ce-beb703247887","system_id":"levelo_inurba_marseille","lat":43.24175,"lon":5.39731,"is_reserved":false,"is_disabled":false,"rental_uris":{"android":"levelo://app?vid=4645660a-d95f-4228-a6ce-beb703247887","ios":"levelo://app?vid=4645660a-d95f-4228-a6ce-beb703247887"},"vehicle_type_id":"4","last_reported":1759043309,"current_range_meters":17200,"station_id":"ce4bhn12rcd13ifvqgpg","pricing_plan_id":"cebpf4jnsgd1na2vs0mg"},{"bike_id":"28926cb8-b4a6-4cfc-8124-d42e89e267cb","system_id":"levelo_inurba_marseille","lat":43.31984,"lon":5.38142,"is_reserved":false,"is_disabled":false,"rental_uris":{"android":"levelo://app?vid=28926cb8-b4a6-4cfc-8124-d42e89e267cb","ios":"levelo://app?vid=28926cb8-b4a6-4cfc-8124-d42e89e267cb"},"vehicle_type_id":"4","last_reported":1759043309,"current_range_meters":17200,"station_id":"ce4bhr12rcd13ifvqhpg","pricing_plan_id":"cebpf4jnsgd1na2vs0mg"},{"bike_id":"e0e9194b-710d-4981-ad65-ba5929d7512b","system_id":"levelo_inurba_marseille","lat":43.306022,"lon":5.384559,"is_reserved":false,"is_disabled":false,"rental_uris":{"android":"levelo://app?vid=e0e9194b-710d-4981-ad65-ba5929d7512b","ios":"levelo://app?vid=e0e9194b-710d-4981-ad65-ba5929d7512b"},"vehicle_type_id":"4","last_reported":1759043309,"current_range_meters":17200,"station_id":"","pricing_plan_id":"cebpf4jnsgd1na2vs0mg"},{"bike_id":"c8eb7660-6046-4e9c-8c85-8306cbdbfdf8","system_id":"levelo_inurba_marseille","lat":43.24624,"lon":5.43163,"is_reserved":false,"is_disabled":false,"rental_uris":{"android":"levelo://app?vid=c8eb7660-6046-4e9c-8c85-8306cbdbfdf8","ios":"levelo://app?vid=c8eb7660-6046-4e9c-8c85-8306cbdbfdf8"},"vehicle_type_id":"4","last_reported":1759043309,"current_range_meters":17200,"station_id":"st_d2m6c4gdas8pm72e190g","pricing_plan_id":"cebpf4jnsgd1na2vs0mg"},{"bike_id":"74dab905-f0a5-4a35-8e06-8ce13422dbf0","system_id":"levelo_inurba_marseille","lat":43.29544,"lon":5.38705,"is_reserved":false,"is_disabled":false,"rental_uris":{"android":"levelo://app?vid=74dab905-f0a5-4a35-8e06-8ce13422dbf0","ios":"levelo://app?vid=74dab905-f0a5-4a35-8e06-8ce13422dbf0"},"vehicle_type_id":"4","last_reported":1759043309,"current_range_meters":17200,"station_id":"","pricing_plan_id":"cebpf4jnsgd1na2vs0mg"},{"bike_id":"80b98ce0-3233-47ce-84db-722943723d1e","system_id":"levelo_inurba_marseille","lat":43.269329,"lon":5.38928,"is_reserved":false,"is_disabled":false,"rental_uris":{"android":"levelo://app?vid=80b98ce0-3233-47ce-84db-722943723d1e","ios":"levelo://app?vid=80b98ce0-3233-47ce-84db-722943723d1e"},"vehicle_type_id":"4","last_reported":1759043309,"current_range_meters":17200,"station_id":"","pricing_plan_id":"cebpf4jnsgd1na2vs0mg"},{"bike_id":"3a5c1078-80f0-49df-aceb-f802aa344ba6","system_id":"levelo_inurba_marseille","lat":43.22934,"lon":5.35402,"is_reserved":false,"is_disabled":false,"rental_uris":{"android":"levelo://app?vid=3a5c1078-80f0-49df-aceb-f802aa344ba6","ios":"levelo://app?vid=3a5c1078-80f0-49df-aceb-f802aa344ba6"},"vehicle_type_id":"4","last_reported":1759043309,"current_range_meters":17200,"station_id":"cpo3532slgdg3j2ikp40","pricing_plan_id":"cebpf4jnsgd1na2vs0mg"},{"bike_id":"f060d515-f268-4371-95a2-f04eea0ad05f","system_id":"levelo_inurba_marseille","lat":43.24639,"lon":5.43157,"is_reserved":false,"is_disabled":false,"rental_uris":{"android":"levelo://app?vid=f060d515-f268-4371-95a2-f04eea0ad05f","ios":"levelo://app?vid=f060d515-f268-4371-95a2-f04eea0ad05f"},"vehicle_type_id":"4","last_reported":1759043309,"current_range_meters":17200,"station_id":"st_d2m6c4gdas8pm72e190g","pricing_plan_id":"cebpf4jnsgd1na2vs0mg"},{"bike_id":"ef25de08-3bc6-4d01-94dc-a03a11f02dd1","system_id":"levelo_inurba_marseille","lat":43.23965,"lon":5.36643,"is_reserved":false,"is_disabled":false,"rental_uris":{"android":"levelo://app?vid=ef25de08-3bc6-4d01-94dc-a03a11f02dd1","ios":"levelo://app?vid=ef25de08-3bc6-4d01-94dc-a03a11f02dd1"},"vehicle_type_id":"4","last_reported":1759043309,"current_range_meters":17200,"station_id":"ce4bhi12rcd13ifvqfp0","pricing_plan_id":"cebpf4jnsgd1na2vs0mg"},{"bike_id":"b89952eb-87d1-4527-9bcf-2fa66e83c482","system_id":"levelo_inurba_marseille","lat":43.28461,"lon":5.35892,"is_reserved":false,"is_disabled":false,"rental_uris":{"android":"levelo://app?vid=b89952eb-87d1-4527-9bcf-2fa66e83c482","ios":"levelo://app?vid=b89952eb-87d1-4527-9bcf-2fa66e83c482"},"vehicle_type_id":"4","last_reported":1759043309,"current_range_meters":17600,"station_id":"ce4bhah2rcd13ifvqei0","pricing_plan_id":"cebpf4jnsgd1na2vs0mg"},{"bike_id":"73f59619-10c4-43fa-b657-42c0b48c4f0b","system_id":"levelo_inurba_marseille","lat":43.30939,"lon":5.4016,"is_reserved":false,"is_disabled":false,"rental_uris":{"android":"levelo://app?vid=73f59619-10c4-43fa-b657-42c0b48c4f0b","ios":"levelo://app?vid=73f59619-10c4-43fa-b657-42c0b48c4f0b"},"vehicle_type_id":"4","last_reported":1759043309,"current_range_meters":17600,"station_id":"ce4bgvp2rcd13ifvqct0","pricing_plan_id":"cebpf4jnsgd1na2vs0mg"},{"bike_id":"2ff40e24-054f-41fb-a0cf-accb347b019d","system_id":"levelo_inurba_marseille","lat":43.31685,"lon":5.40478,"is_reserved":false,"is_disabled":false,"rental_uris":{"android":"levelo://app?vid=2ff40e24-054f-41fb-a0cf-accb347b019d","ios":"levelo://app?vid=2ff40e24-054f-41fb-a0cf-accb347b019d"},"vehicle_type_id":"4","last_reported":1759043309,"current_range_meters":17200,"station_id":"ce4bh012rcd13ifvqd00","pricing_plan_id":"cebpf4jnsgd1na2vs0mg"},{"bike_id":"c1110898-f7c8-41f3-8e30-4c9bd982df1c","system_id":"levelo_inurba_marseille","lat":43.30808,"lon":5.38159,"is_reserved":false,"is_disabled":false,"rental_uris":{"android":"levelo://app?vid=c1110898-f7c8-41f3-8e30-4c9bd982df1c","ios":"levelo://app?vid=c1110898-f7c8-41f3-8e30-4c9bd982df1c"},"vehicle_type_id":"4","last_reported":1759043309,"current_range_meters":17600,"station_id":"ce4bgt12rcd13ifvqce0","pricing_plan_id":"cebpf4jnsgd1na2vs0mg"},{"bike_id":"0683580a-c4b8-4b6b-a1d7-d8659bb87ed8","system_id":"levelo_inurba_marseille","lat":43.29616,"lon":5.371616,"is_reserved":false,"is_disabled":false,"rental_uris":{"android":"levelo://app?vid=0683580a-c4b8-4b6b-a1d7-d8659bb87ed8","ios":"levelo://app?vid=0683580a-c4b8-4b6b-a1d7-d8659bb87ed8"},"vehicle_type_id":"4","last_reported":1759043309,"current_range_meters":17600,"station_id":"ce4bgnh2rcd13ifvqc0g","pricing_plan_id":"cebpf4jnsgd1na2vs0mg"},{"bike_id":"7c538d3b-bea2-499d-a4d4-ae6f986192eb","system_id":"levelo_inurba_marseille","lat":43.25004,"lon":5.38932,"is_reserved":false,"is_disabled":false,"rental_uris":{"android":"levelo://app?vid=7c538d3b-bea2-499d-a4d4-ae6f986192eb","ios":"levelo://app?vid=7c538d3b-bea2-499d-a4d4-ae6f986192eb"},"vehicle_type_id":"4","last_reported":1759043309,"current_range_meters":17600,"station_id":"ce4bhgp2rcd13ifvqfd0","pricing_plan_id":"cebpf4jnsgd1na2vs0mg"},{"bike_id":"89fe513c-a434-4cf8-a56c-ee0844b2f3be","system_id":"levelo_inurba_marseille","lat":43.299708,"lon":5.384918,"is_reserved":false,"is_disabled":true,"rental_uris":{"android":"levelo://app?vid=89fe513c-a434-4cf8-a56c-ee0844b2f3be","ios":"levelo://app?vid=89fe513c-a434-4cf8-a56c-ee0844b2f3be"},"vehicle_type_id":"4","last_reported":1759043309,"current_range_meters":17600,"station_id":"ce4bgj92rcd13ifvqbd0","pricing_plan_id":"cebpf4jnsgd1na2vs0mg"},{"bike_id":"3d40f7de-0417-4713-b9b1-cd54819704d5","system_id":"levelo_inurba_marseille","lat":43.24823,"lon":5.37468,"is_reserved":false,"is_disabled":false,"rental_uris":{"android":"levelo://app?vid=3d40f7de-0417-4713-b9b1-cd54819704d5","ios":"levelo://app?vid=3d40f7de-0417-4713-b9b1-cd54819704d5"},"vehicle_type_id":"4","last_reported":1759043309,"current_range_meters":17600,"station_id":"ce4bhgh2rcd13ifvqfb0","pricing_plan_id":"cebpf4jnsgd1na2vs0mg"},{"bike_id":"8ffac578-131d-4171-941b-d073a175c44c","system_id":"levelo_inurba_marseille","lat":43.26209,"lon":5.37442,"is_reserved":false,"is_disabled":true,"rental_uris":{"android":"levelo://app?vid=8ffac578-131d-4171-941b-d073a175c44c","ios":"levelo://app?vid=8ffac578-131d-4171-941b-d073a175c44c"},"vehicle_type_id":"4","last_reported":1759043309,"current_range_meters":17600,"station_id":"ce4bhgp2rcd13ifvqfc0","pricing_plan_id":"cebpf4jnsgd1na2vs0mg"},{"bike_id":"9c4235da-d3d0-4056-aa6b-c6aa6e8e7367","system_id":"levelo_inurba_marseille","lat":43.306774,"lon":5.375236,"is_reserved":false,"is_disabled":false,"rental_uris":{"android":"levelo://app?vid=9c4235da-d3d0-4056-aa6b-c6aa6e8e7367","ios":"levelo://app?vid=9c4235da-d3d0-4056-aa6b-c6aa6e8e7367"},"vehicle_type_id":"4","last_reported":1759043309,"current_range_meters":17600,"station_id":"","pricing_plan_id":"cebpf4jnsgd1na2vs0mg"},{"bike_id":"31b129bc-fda0-4e29-817e-a219e2fdc059","system_id":"levelo_inurba_marseille","lat":43.25878,"lon":5.39911,"is_reserved":false,"is_disabled":false,"rental_uris":{"android":"levelo://app?vid=31b129bc-fda0-4e29-817e-a219e2fdc059","ios":"levelo://app?vid=31b129bc-fda0-4e29-817e-a219e2fdc059"},"vehicle_type_id":"4","last_reported":1759043309,"current_range_meters":18000,"station_id":"ce4bhl92rcd13ifvqghg","pricing_plan_id":"cebpf4jnsgd1na2vs0mg"},{"bike_id":"db54ae1e-766a-4881-94b4-a4cf26d411ba","system_id":"levelo_inurba_marseille","lat":43.2926,"lon":5.38445,"is_reserved":false,"is_disabled":true,"rental_uris":{"android":"levelo://app?vid=db54ae1e-766a-4881-94b4-a4cf26d411ba","ios":"levelo://app?vid=db54ae1e-766a-4881-94b4-a4cf26d411ba"},"vehicle_type_id":"4","last_reported":1759043309,"current_range_meters":18000,"station_id":"ce4bh692rcd13ifvqea0","pricing_plan_id":"cebpf4jnsgd1na2vs0mg"},{"bike_id":"0ce1cdb8-4678-4b4c-98e2-72d5ab7708c5","system_id":"levelo_inurba_marseille","lat":43.29225,"lon":5.3607,"is_reserved":false,"is_disabled":false,"rental_uris":{"android":"levelo://app?vid=0ce1cdb8-4678-4b4c-98e2-72d5ab7708c5","ios":"levelo://app?vid=0ce1cdb8-4678-4b4c-98e2-72d5ab7708c5"},"vehicle_type_id":"4","last_reported":1759043309,"current_range_meters":18000,"station_id":"ce4bhbh2rcd13ifvqeqg","pricing_plan_id":"cebpf4jnsgd1na2vs0mg"},{"bike_id":"0805ba8d-a766-4d19-b2dd-9b865e0a8ab6","system_id":"levelo_inurba_marseille","lat":43.25332,"lon":5.42157,"is_reserved":false,"is_disabled":false,"rental_uris":{"android":"levelo://app?vid=0805ba8d-a766-4d19-b2dd-9b865e0a8ab6","ios":"levelo://app?vid=0805ba8d-a766-4d19-b2dd-9b865e0a8ab6"},"vehicle_type_id":"4","last_reported":1759043309,"current_range_meters":18000,"station_id":"st_d2m65c5bi1j21697t3ng","pricing_plan_id":"cebpf4jnsgd1na2vs0mg"},{"bike_id":"e7f30816-4be3-4a4d-8c88-9aa039c43386","system_id":"levelo_inurba_marseille","lat":43.30524,"lon":5.36635,"is_reserved":false,"is_disabled":false,"rental_uris":{"android":"levelo://app?vid=e7f30816-4be3-4a4d-8c88-9aa039c43386","ios":"levelo://app?vid=e7f30816-4be3-4a4d-8c88-9aa039c43386"},"vehicle_type_id":"4","last_reported":1759043309,"current_range_meters":18000,"station_id":"","pricing_plan_id":"cebpf4jnsgd1na2vs0mg"},{"bike_id":"ccf1a960-00f8-44d3-b3a7-c32ae6637e38","system_id":"levelo_inurba_marseille","lat":43.253361,"lon":5.421696,"is_reserved":false,"is_disabled":false,"rental_uris":{"android":"levelo://app?vid=ccf1a960-00f8-44d3-b3a7-c32ae6637e38","ios":"levelo://app?vid=ccf1a960-00f8-44d3-b3a7-c32ae6637e38"},"vehicle_type_id":"4","last_reported":1759043309,"current_range_meters":18000,"station_id":"st_d2m65c5bi1j21697t3ng","pricing_plan_id":"cebpf4jnsgd1na2vs0mg"},{"bike_id":"d48d6bb8-5882-403b-b04e-22ad907d7ccd","system_id":"levelo_inurba_marseille","lat":43.27674,"lon":5.38871,"is_reserved":false,"is_disabled":false,"rental_uris":{"android":"levelo://app?vid=d48d6bb8-5882-403b-b04e-22ad907d7ccd","ios":"levelo://app?vid=d48d6bb8-5882-403b-b04e-22ad907d7ccd"},"vehicle_type_id":"4","last_reported":1759043309,"current_range_meters":18000,"station_id":"ce4bhi12rcd13ifvqfo0","pricing_plan_id":"cebpf4jnsgd1na2vs0mg"},{"bike_id":"dc2285be-120f-46c5-b070-4a5720e7303e","system_id":"levelo_inurba_marseille","lat":43.29792,"lon":5.39399,"is_reserved":false,"is_disabled":false,"rental_uris":{"android":"levelo://app?vid=dc2285be-120f-46c5-b070-4a5720e7303e","ios":"levelo://app?vid=dc2285be-120f-46c5-b070-4a5720e7303e"},"vehicle_type_id":"4","last_reported":1759043309,"current_range_meters":18000,"station_id":"chh1huq6cuj3fo74tm60","pricing_plan_id":"cebpf4jnsgd1na2vs0mg"},{"bike_id":"52c84e1b-4d26-4791-bbdd-dcd38cf1f46e","system_id":"levelo_inurba_marseille","lat":43.24168,"lon":5.36406,"is_reserved":false,"is_disabled":false,"rental_uris":{"android":"levelo://app?vid=52c84e1b-4d26-4791-bbdd-dcd38cf1f46e","ios":"levelo://app?vid=52c84e1b-4d26-4791-bbdd-dcd38cf1f46e"},"vehicle_type_id":"4","last_reported":1759043309,"current_range_meters":18000,"station_id":"cpo36qri1sfpv3e86is0","pricing_plan_id":"cebpf4jnsgd1na2vs0mg"},{"bike_id":"2c04c161-571d-4284-8076-4429e8d13901","system_id":"levelo_inurba_marseille","lat":43.27994,"lon":5.40024,"is_reserved":false,"is_disabled":false,"rental_uris":{"android":"levelo://app?vid=2c04c161-571d-4284-8076-4429e8d13901","ios":"levelo://app?vid=2c04c161-571d-4284-8076-4429e8d13901"},"vehicle_type_id":"4","last_reported":1759043309,"current_range_meters":18800,"station_id":"ce4bho92rcd13ifvqh4g","pricing_plan_id":"cebpf4jnsgd1na2vs0mg"},{"bike_id":"819ab089-c440-4acd-af4b-b46fc971afd7","system_id":"levelo_inurba_marseille","lat":43.25089,"lon":5.40313,"is_reserved":false,"is_disabled":false,"rental_uris":{"android":"levelo://app?vid=819ab089-c440-4acd-af4b-b46fc971afd7","ios":"levelo://app?vid=819ab089-c440-4acd-af4b-b46fc971afd7"},"vehicle_type_id":"4","last_reported":1759043309,"current_range_meters":18800,"station_id":"ce4bhlh2rcd13ifvqgig","pricing_plan_id":"cebpf4jnsgd1na2vs0mg"},{"bike_id":"5184bf5b-3cc8-4111-8b99-b9c4fcc9d2b3","system_id":"levelo_inurba_marseille","lat":43.24181,"lon":5.39737,"is_reserved":false,"is_disabled":false,"rental_uris":{"android":"levelo://app?vid=5184bf5b-3cc8-4111-8b99-b9c4fcc9d2b3","ios":"levelo://app?vid=5184bf5b-3cc8-4111-8b99-b9c4fcc9d2b3"},"vehicle_type_id":"4","last_reported":1759043309,"current_range_meters":18800,"station_id":"ce4bhn12rcd13ifvqgpg","pricing_plan_id":"cebpf4jnsgd1na2vs0mg"},{"bike_id":"d5ba3e7c-01e7-402a-ad6e-688d209ded1f","system_id":"levelo_inurba_marseille","lat":43.276608,"lon":5.38904,"is_reserved":false,"is_disabled":false,"rental_uris":{"android":"levelo://app?vid=d5ba3e7c-01e7-402a-ad6e-688d209ded1f","ios":"levelo://app?vid=d5ba3e7c-01e7-402a-ad6e-688d209ded1f"},"vehicle_type_id":"4","last_reported":1759043309,"current_range_meters":18800,"station_id":"ce4bhi12rcd13ifvqfo0","pricing_plan_id":"cebpf4jnsgd1na2vs0mg"},{"bike_id":"6c6c382c-263f-4c94-a210-0d1da15ee6d0","system_id":"levelo_inurba_marseille","lat":43.28659,"lon":5.36349,"is_reserved":false,"is_disabled":false,"rental_uris":{"android":"levelo://app?vid=6c6c382c-263f-4c94-a210-0d1da15ee6d0","ios":"levelo://app?vid=6c6c382c-263f-4c94-a210-0d1da15ee6d0"},"vehicle_type_id":"4","last_reported":1759043309,"current_range_meters":18800,"station_id":"ce4bhah2rcd13ifvqej0","pricing_plan_id":"cebpf4jnsgd1na2vs0mg"},{"bike_id":"84204511-6c5c-4e7d-8efd-8f4703d54e48","system_id":"levelo_inurba_marseille","lat":43.3236,"lon":5.38897,"is_reserved":false,"is_disabled":false,"rental_uris":{"android":"levelo://app?vid=84204511-6c5c-4e7d-8efd-8f4703d54e48","ios":"levelo://app?vid=84204511-6c5c-4e7d-8efd-8f4703d54e48"},"vehicle_type_id":"4","last_reported":1759043309,"current_range_meters":18800,"station_id":"ce4bhqp2rcd13ifvqhog","pricing_plan_id":"cebpf4jnsgd1na2vs0mg"},{"bike_id":"8ba87fe1-64db-40fc-9432-e8fd5dd88fd2","system_id":"levelo_inurba_marseille","lat":43.30244,"lon":5.40037,"is_reserved":false,"is_disabled":false,"rental_uris":{"android":"levelo://app?vid=8ba87fe1-64db-40fc-9432-e8fd5dd88fd2","ios":"levelo://app?vid=8ba87fe1-64db-40fc-9432-e8fd5dd88fd2"},"vehicle_type_id":"4","last_reported":1759043309,"current_range_meters":18800,"station_id":"ce4bgvh2rcd13ifvqcs0","pricing_plan_id":"cebpf4jnsgd1na2vs0mg"},{"bike_id":"da16c4e5-3c8e-46f9-b4bf-ce2d003b3250","system_id":"levelo_inurba_marseille","lat":43.26956,"lon":5.38674,"is_reserved":false,"is_disabled":false,"rental_uris":{"android":"levelo://app?vid=da16c4e5-3c8e-46f9-b4bf-ce2d003b3250","ios":"levelo://app?vid=da16c4e5-3c8e-46f9-b4bf-ce2d003b3250"},"vehicle_type_id":"4","last_reported":1759043309,"current_range_meters":18000,"station_id":"ce4bhh92rcd13ifvqfh0","pricing_plan_id":"cebpf4jnsgd1na2vs0mg"},{"bike_id":"88bab79e-f428-48c7-9fe8-35fa768316c1","system_id":"levelo_inurba_marseille","lat":43.32384,"lon":5.38231,"is_reserved":false,"is_disabled":false,"rental_uris":{"android":"levelo://app?vid=88bab79e-f428-48c7-9fe8-35fa768316c1","ios":"levelo://app?vid=88bab79e-f428-48c7-9fe8-35fa768316c1"},"vehicle_type_id":"4","last_reported":1759043309,"current_range_meters":18800,"station_id":"","pricing_plan_id":"cebpf4jnsgd1na2vs0mg"},{"bike_id":"d0dbffd0-6720-4e9a-8344-a7ad2dccbe88","system_id":"levelo_inurba_marseille","lat":43.26565,"lon":5.40314,"is_reserved":false,"is_disabled":false,"rental_uris":{"android":"levelo://app?vid=d0dbffd0-6720-4e9a-8344-a7ad2dccbe88","ios":"levelo://app?vid=d0dbffd0-6720-4e9a-8344-a7ad2dccbe88"},"vehicle_type_id":"4","last_reported":1759043309,"current_range_meters":18800,"station_id":"ce4bhmp2rcd13ifvqgng","pricing_plan_id":"cebpf4jnsgd1na2vs0mg"},{"bike_id":"1e031a7a-ec2a-41b7-87c9-de2857ab7620","system_id":"levelo_inurba_marseille","lat":43.21188,"lon":5.35074,"is_reserved":false,"is_disabled":false,"rental_uris":{"android":"levelo://app?vid=1e031a7a-ec2a-41b7-87c9-de2857ab7620","ios":"levelo://app?vid=1e031a7a-ec2a-41b7-87c9-de2857ab7620"},"vehicle_type_id":"4","last_reported":1759043309,"current_range_meters":18800,"station_id":"st_cvj6sg6p6f1abm77japg","pricing_plan_id":"cebpf4jnsgd1na2vs0mg"},{"bike_id":"681968c5-7705-44e8-b3e1-9dd752d91a86","system_id":"levelo_inurba_marseille","lat":43.33189,"lon":5.40643,"is_reserved":false,"is_disabled":false,"rental_uris":{"android":"levelo://app?vid=681968c5-7705-44e8-b3e1-9dd752d91a86","ios":"levelo://app?vid=681968c5-7705-44e8-b3e1-9dd752d91a86"},"vehicle_type_id":"4","last_reported":1759043309,"current_range_meters":18800,"station_id":"","pricing_plan_id":"cebpf4jnsgd1na2vs0mg"},{"bike_id":"a63906d9-70e3-4694-a19f-f783d775e9bb","system_id":"levelo_inurba_marseille","lat":43.31273,"lon":5.37411,"is_reserved":false,"is_disabled":false,"rental_uris":{"android":"levelo://app?vid=a63906d9-70e3-4694-a19f-f783d775e9bb","ios":"levelo://app?vid=a63906d9-70e3-4694-a19f-f783d775e9bb"},"vehicle_type_id":"4","last_reported":1759043309,"current_range_meters":18800,"station_id":"","pricing_plan_id":"cebpf4jnsgd1na2vs0mg"},