{"last_updated":1698343746,"ttl":30,"version":"2.2","data":{"bikes":[{"bike_id":"cb7576bb-0362-4fbf-baa4-dcb32e287db2","system_id":"levelo_inurba_marseille","lat":43.313231,"lon":5.36681,"is_reserved":false,"is_disabled":false,"rental_uris":{"android":"levelo://app?vid=cb7576bb-0362-4fbf-baa4-dcb32e287db2","ios":"levelo://app?vid=cb7576bb-0362-4fbf-baa4-dcb32e287db2"},"vehicle_type_id":"4","last_reported":1698343746,"current_range_meters":28800,"station_id":"","pricing_plan_id":"free"},{"bike_id":"bad6fb66-4d2a-4206-8f07-1d73ae8b6c1a","system_id":"levelo_inurba_marseille","lat":43.31348,"lon":5.36696,"is_reserved":false,"is_disabled":false,"rental_uris":{"android":"levelo://app?vid=bad6fb66-4d2a-4206-8f07-1d73ae8b6c1a","ios":"levelo://app?vid=bad6fb66-4d2a-4206-8f07-1d73ae8b6c1a"},"vehicle_type_id":"4","last_reported":1698343746,"current_range_meters":0,"station_id":"ce4bgr92rcd13ifvqc6g","pricing_plan_id":"free"},{"bike_id":"18762eca-e97b-4c4f-8c71-e65f13550f5a","system_id":"levelo_inurba_marseille","lat":43.312239,"lon":5.368562,"is_reserved":false,"is_disabled":false,"rental_uris":{"android":"levelo://app?vid=18762eca-e97b-4c4f-8c71-e65f13550f5a","ios":"levelo://app?vid=18762eca-e97b-4c4f-8c71-e65f13550f5a"},"vehicle_type_id":"4","last_reported":1698343746,"current_range_meters":0,"station_id":"ce4bgl92rcd13ifvqbq0","pricing_plan_id":"free"},{"bike_id":"f5c58904-aeb7-4548-b4b5-9f5e83f269ce","system_id":"levelo_inurba_marseille","lat":43.309797,"lon":5.368093,"is_reserved":false,"is_disabled":false,"rental_uris":{"android":"levelo://app?vid=f5c58904-aeb7-4548-b4b5-9f5e83f269ce","ios":"levelo://app?vid=f5c58904-aeb7-4548-b4b5-9f5e83f269ce"},"vehicle_type_id":"4","last_reported":1698343746,"current_range_meters":0,"station_id":"ce4bgn92rcd13ifvqbvg","pricing_plan_id":"free"},{"bike_id":"cf04d626-4cf4-4f35-a4f3-10bebc31c564","system_id":"levelo_inurba_marseille","lat":43.315408,"lon":5.372792,"is_reserved":false,"is_disabled":false,"rental_uris":{"android":"levelo://app?vid=cf04d626-4cf4-4f35-a4f3-10bebc31c564","ios":"levelo://app?vid=cf04d626-4cf4-4f35-a4f3-10bebc31c564"},"vehicle_type_id":"4","last_reported":1698343746,"current_range_meters":3600,"station_id":"","pricing_plan_id":"free"},{"bike_id":"dbbdea51-7e3d-4271-bd96-c3aabecbd7e2","system_id":"levelo_inurba_marseille","lat":43.315783,"lon":5.372523,"is_reserved":false,"is_disabled":false,"rental_uris":{"android":"levelo://app?vid=dbbdea51-7e3d-4271-bd96-c3aabecbd7e2","ios":"levelo://app?vid=dbbdea51-7e3d-4271-bd96-c3aabecbd7e2"},"vehicle_type_id":"4","last_reported":1698343746,"current_range_meters":15200,"station_id":"","pricing_plan_id":"free"},{"bike_id":"ea962940-4117-4ead-90d7-cc8336652c43","system_id":"levelo_inurba_marseille","lat":43.309039,"lon":5.371797,"is_reserved":false,"is_disabled":false,"rental_uris":{"android":"levelo://app?vid=ea962940-4117-4ead-90d7-cc8336652c43","ios":"levelo://app?vid=ea962940-4117-4ead-90d7-cc8336652c43"},"vehicle_type_id":"4","last_reported":1698343746,"current_range_meters":2800,"station_id":"ce4bguh2rcd13ifvqckg","pricing_plan_id":"free"},{"bike_id":"4bd6cc87-4ead-494d-b963-1c4bc55c1520","system_id":"levelo_inurba_marseille","lat":43.309034,"lon":5.371783,"is_reserved":false,"is_disabled":false,"rental_uris":{"android":"levelo://app?vid=4bd6cc87-4ead-494d-b963-1c4bc55c1520","ios":"levelo://app?vid=4bd6cc87-4ead-494d-b963-1c4bc55c1520"},"vehicle_type_id":"4","last_reported":1698343746,"current_range_meters":10800,"station_id":"ce4bguh2rcd13ifvqckg","pricing_plan_id":"free"},{"bike_id":"7e13e357-c346-47f9-af33-e316ad69f527","system_id":"levelo_inurba_marseille","lat":43.309039,"lon":5.371797,"is_reserved":false,"is_disabled":false,"rental_uris":{"android":"levelo://app?vid=7e13e357-c346-47f9-af33-e316ad69f527","ios":"levelo://app?vid=7e13e357-c346-47f9-af33-e316ad69f527"},"vehicle_type_id":"4","last_reported":1698343746,"current_range_meters":26800,"station_id":"ce4bguh2rcd13ifvqckg","pricing_plan_id":"free"},{"bike_id":"9bbfb085-f645-4eab-8099-7bd49994103d","system_id":"levelo_inurba_marseille","lat":43.309034,"lon":5.371783,"is_reserved":false,"is_disabled":false,"rental_uris":{"android":"levelo://app?vid=9bbfb085-f645-4eab-8099-7bd49994103d","ios":"levelo://app?vid=9bbfb085-f645-4eab-8099-7bd49994103d"},"vehicle_type_id":"4","last_reported":1698343746,"current_range_meters":4000,"station_id":"ce4bguh2rcd13ifvqckg","pricing_plan_id":"free"},{"bike_id":"95059b9e-e397-490c-b461-0ad75a0bb4f6","system_id":"levelo_inurba_marseille","lat":43.305706,"lon":5.365654,"is_reserved":false,"is_disabled":false,"rental_uris":{"android":"levelo://app?vid=95059b9e-e397-490c-b461-0ad75a0bb4f6","ios":"levelo://app?vid=95059b9e-e397-490c-b461-0ad75a0bb4f6"},"vehicle_type_id":"4","last_reported":1698343746,"current_range_meters":0,"station_id":"ce4bgs12rcd13ifvqcag","pricing_plan_id":"free"},{"bike_id":"f252b071-dddd-4e5f-ad07-506846af6d1a","system_id":"levelo_inurba_marseille","lat":43.30533,"lon":5.36549,"is_reserved":false,"is_disabled":false,"rental_uris":{"android":"levelo://app?vid=f252b071-dddd-4e5f-ad07-506846af6d1a","ios":"levelo://app?vid=f252b071-dddd-4e5f-ad07-506846af6d1a"},"vehicle_type_id":"4","last_reported":1698343746,"current_range_meters":28400,"station_id":"ce4bgs12rcd13ifvqcag","pricing_plan_id":"free"},{"bike_id":"90ebc8ee-23e7-4943-adec-e5023a20c533","system_id":"levelo_inurba_marseille","lat":43.30527,"lon":5.3655,"is_reserved":false,"is_disabled":false,"rental_uris":{"android":"levelo://app?vid=90ebc8ee-23e7-4943-adec-e5023a20c533","ios":"levelo://app?vid=90ebc8ee-23e7-4943-adec-e5023a20c533"},"vehicle_type_id":"4","last_reported":1698343746,"current_range_meters":0,"station_id":"ce4bgs12rcd13ifvqcag","pricing_plan_id":"free"},{"bike_id":"6fc66460-055a-49f5-afd4-aee935983ee3","system_id":"levelo_inurba_marseille","lat":43.305989,"lon":5.37225,"is_reserved":false,"is_disabled":false,"rental_uris":{"android":"levelo://app?vid=6fc66460-055a-49f5-afd4-aee935983ee3","ios":"levelo://app?vid=6fc66460-055a-49f5-afd4-aee935983ee3"},"vehicle_type_id":"4","last_reported":1698343746,"current_range_meters":6800,"station_id":"ce4bgqh2rcd13ifvqc4g","pricing_plan_id":"free"},{"bike_id":"ed3dc405-6650-431e-b18f-0707a670ee66","system_id":"levelo_inurba_marseille","lat":43.311125,"lon":5.377624,"is_reserved":false,"is_disabled":false,"rental_uris":{"android":"levelo://app?vid=ed3dc405-6650-431e-b18f-0707a670ee66","ios":"levelo://app?vid=ed3dc405-6650-431e-b18f-0707a670ee66"},"vehicle_type_id":"4","last_reported":1698343746,"current_range_meters":7200,"station_id":"ce4bgt92rcd13ifvqcg0","pricing_plan_id":"free"},{"bike_id":"3d4b4af0-4a0b-44f4-8506-d6fdf2a9fa28","system_id":"levelo_inurba_marseille","lat":43.311125,"lon":5.377624,"is_reserved":false,"is_disabled":false,"rental_uris":{"android":"levelo://app?vid=3d4b4af0-4a0b-44f4-8506-d6fdf2a9fa28","ios":"levelo://app?vid=3d4b4af0-4a0b-44f4-8506-d6fdf2a9fa28"},"vehicle_type_id":"4","last_reported":1698343746,"current_range_meters":12000,"station_id":"ce4bgt92rcd13ifvqcg0","pricing_plan_id":"free"},{"bike_id":"2fe6addf-3f28-4e18-9be7-8e324eee151f","system_id":"levelo_inurba_marseille","lat":43.30501,"lon":5.37088,"is_reserved":false,"is_disabled":false,"rental_uris":{"android":"levelo://app?vid=2fe6addf-3f28-4e18-9be7-8e324eee151f","ios":"levelo://app?vid=2fe6addf-3f28-4e18-9be7-8e324eee151f"},"vehicle_type_id":"4","last_reported":1698343746,"current_range_meters":9600,"station_id":"","pricing_plan_id":"free"},{"bike_id":"dfefc6d5-20be-4b5f-9811-59cb860b524a","system_id":"levelo_inurba_marseille","lat":43.30786,"lon":5.37638,"is_reserved":false,"is_disabled":false,"rental_uris":{"android":"levelo://app?vid=dfefc6d5-20be-4b5f-9811-59cb860b524a","ios":"levelo://app?vid=dfefc6d5-20be-4b5f-9811-59cb860b524a"},"vehicle_type_id":"4","last_reported":1698343746,"current_range_meters":21600,"station_id":"ce4bgv92rcd13ifvqcq0","pricing_plan_id":"free"},{"bike_id":"23591e2d-b50b-427e-addb-0af526401ea3","system_id":"levelo_inurba_marseille","lat":43.30782,"lon":5.37639,"is_reserved":false,"is_disabled":false,"rental_uris":{"android":"levelo://app?vid=23591e2d-b50b-427e-addb-0af526401ea3","ios":"levelo://app?vid=23591e2d-b50b-427e-addb-0af526401ea3"},"vehicle_type_id":"4","last_reported":1698343746,"current_range_meters":0,"station_id":"ce4bgv92rcd13ifvqcq0","pricing_plan_id":"free"},{"bike_id":"280a07fe-cc54-40ab-8e96-674873d456b5","system_id":"levelo_inurba_marseille","lat":43.30784,"lon":5.3765,"is_reserved":false,"is_disabled":false,"rental_uris":{"android":"levelo://app?vid=280a07fe-cc54-40ab-8e96-674873d456b5","ios":"levelo://app?vid=280a07fe-cc54-40ab-8e96-674873d456b5"},"vehicle_type_id":"4","last_reported":1698343746,"current_range_meters":17200,"station_id":"ce4bgv92rcd13ifvqcq0","pricing_plan_id":"free"},{"bike_id":"0c6c8f27-60e7-4fd1-a2fc-0041cde815e9","system_id":"levelo_inurba_marseille","lat":43.30388,"lon":5.36822,"is_reserved":false,"is_disabled":false,"rental_uris":{"android":"levelo://app?vid=0c6c8f27-60e7-4fd1-a2fc-0041cde815e9","ios":"levelo://app?vid=0c6c8f27-60e7-4fd1-a2fc-0041cde815e9"},"vehicle_type_id":"4","last_reported":1698343746,"current_range_meters":0,"station_id":"","pricing_plan_id":"free"},{"bike_id":"49be05fc-d426-4bcc-9c7a-9d6bfc674fdf","system_id":"levelo_inurba_marseille","lat":43.31537,"lon":5.380347,"is_reserved":false,"is_disabled":false,"rental_uris":{"android":"levelo://app?vid=49be05fc-d426-4bcc-9c7a-9d6bfc674fdf","ios":"levelo://app?vid=49be05fc-d426-4bcc-9c7a-9d6bfc674fdf"},"vehicle_type_id":"4","last_reported":1698343746,"current_range_meters":13200,"station_id":"ce4bhsp2rcd13ifvqi50","pricing_plan_id":"free"},{"bike_id":"ae24c224-526e-4555-8f66-2eea2e77e7ea","system_id":"levelo_inurba_marseille","lat":43.301946,"lon":5.366222,"is_reserved":false,"is_disabled":false,"rental_uris":{"android":"levelo://app?vid=ae24c224-526e-4555-8f66-2eea2e77e7ea","ios":"levelo://app?vid=ae24c224-526e-4555-8f66-2eea2e77e7ea"},"vehicle_type_id":"4","last_reported":1698343746,"current_range_meters":0,"station_id":"ce4bgrh2rcd13ifvqc8g","pricing_plan_id":"free"},{"bike_id":"eded577a-b5d1-45a8-90b9-8460391e638d","system_id":"levelo_inurba_marseille","lat":43.301939,"lon":5.366286,"is_reserved":false,"is_disabled":false,"rental_uris":{"android":"levelo://app?vid=eded577a-b5d1-45a8-90b9-8460391e638d","ios":"levelo://app?vid=eded577a-b5d1-45a8-90b9-8460391e638d"},"vehicle_type_id":"4","last_reported":1698343746,"current_range_meters":0,"station_id":"ce4bgrh2rcd13ifvqc8g","pricing_plan_id":"free"},{"bike_id":"5c9a9837-6dab-4032-a654-adb5dcd02a23","system_id":"levelo_inurba_marseille","lat":43.304606,"lon":5.379026,"is_reserved":false,"is_disabled":false,"rental_uris":{"android":"levelo://app?vid=5c9a9837-6dab-4032-a654-adb5dcd02a23","ios":"levelo://app?vid=5c9a9837-6dab-4032-a654-adb5dcd02a23"},"vehicle_type_id":"4","last_reported":1698343746,"current_range_meters":10800,"station_id":"ce4bgup2rcd13ifvqcn0","pricing_plan_id":"free"},{"bike_id":"1047bcc5-10ff-460b-bd6f-eac1d4a67db4","system_id":"levelo_inurba_marseille","lat":43.31745,"lon":5.382537,"is_reserved":false,"is_disabled":false,"rental_uris":{"android":"levelo://app?vid=1047bcc5-10ff-460b-bd6f-eac1d4a67db4","ios":"levelo://app?vid=1047bcc5-10ff-460b-bd6f-eac1d4a67db4"},"vehicle_type_id":"4","last_reported":1698343746,"current_range_meters":0,"station_id":"","pricing_plan_id":"free"},{"bike_id":"46e59620-997e-486c-a36f-24a6f0541ad5","system_id":"levelo_inurba_marseille","lat":43.319937,"lon":5.381563,"is_reserved":false,"is_disabled":false,"rental_uris":{"android":"levelo://app?vid=46e59620-997e-486c-a36f-24a6f0541ad5","ios":"levelo://app?vid=46e59620-997e-486c-a36f-24a6f0541ad5"},"vehicle_type_id":"4","last_reported":1698343746,"current_range_meters":9600,"station_id":"","pricing_plan_id":"free"},{"bike_id":"c4ef3df3-3ce9-4fe4-8cfb-4d9261c0f793","system_id":"levelo_inurba_marseille","lat":43.313571,"lon":5.384829,"is_reserved":false,"is_disabled":false,"rental_uris":{"android":"levelo://app?vid=c4ef3df3-3ce9-4fe4-8cfb-4d9261c0f793","ios":"levelo://app?vid=c4ef3df3-3ce9-4fe4-8cfb-4d9261c0f793"},"vehicle_type_id":"4","last_reported":1698343746,"current_range_meters":1200,"station_id":"ce4bgt92rcd13ifvqcf0","pricing_plan_id":"free"},{"bike_id":"e1e7e662-b541-4e80-bcf1-c2660fbd5290","system_id":"levelo_inurba_marseille","lat":43.313571,"lon":5.384829,"is_reserved":false,"is_disabled":false,"rental_uris":{"android":"levelo://app?vid=e1e7e662-b541-4e80-bcf1-c2660fbd5290","ios":"levelo://app?vid=e1e7e662-b541-4e80-bcf1-c2660fbd5290"},"vehicle_type_id":"4","last_reported":1698343746,"current_range_meters":12800,"station_id":"ce4bgt92rcd13ifvqcf0","pricing_plan_id":"free"},{"bike_id":"99d98c6e-45b2-4333-817f-3e47e4570f92","system_id":"levelo_inurba_marseille","lat":43.313571,"lon":5.384829,"is_reserved":false,"is_disabled":false,"rental_uris":{"android":"levelo://app?vid=99d98c6e-45b2-4333-817f-3e47e4570f92","ios":"levelo://app?vid=99d98c6e-45b2-4333-817f-3e47e4570f92"},"vehicle_type_id":"4","last_reported":1698343746,"current_range_meters":12400,"station_id":"ce4bgt92rcd13ifvqcf0","pricing_plan_id":"free"},{"bike_id":"97997ef7-b347-4148-ba57-9a15ecc4912d","system_id":"levelo_inurba_marseille","lat":43.320945,"lon":5.38306,"is_reserved":false,"is_disabled":false,"rental_uris":{"android":"levelo://app?vid=97997ef7-b347-4148-ba57-9a15ecc4912d","ios":"levelo://app?vid=97997ef7-b347-4148-ba57-9a15ecc4912d"},"vehicle_type_id":"4","last_reported":1698343746,"current_range_meters":0,"station_id":"","pricing_plan_id":"free"},{"bike_id":"833a0712-69e0-45b5-8917-189d768118d7","system_id":"levelo_inurba_marseille","lat":43.29844,"lon":5.36271,"is_reserved":false,"is_disabled":false,"rental_uris":{"android":"levelo://app?vid=833a0712-69e0-45b5-8917-189d768118d7","ios":"levelo://app?vid=833a0712-69e0-45b5-8917-189d768118d7"},"vehicle_type_id":"4","last_reported":1698343746,"current_range_meters":0,"station_id":"ce4bgpp2rcd13ifvqc3g","pricing_plan_id":"free"},{"bike_id":"7610dc2b-9ede-45dc-a071-f4211bdb9539","system_id":"levelo_inurba_marseille","lat":43.311722,"lon":5.387247,"is_reserved":false,"is_disabled":false,"rental_uris":{"android":"levelo://app?vid=7610dc2b-9ede-45dc-a071-f4211bdb9539","ios":"levelo://app?vid=7610dc2b-9ede-45dc-a071-f4211bdb9539"},"vehicle_type_id":"4","last_reported":1698343746,"current_range_meters":23600,"station_id":"ce4bgv12rcd13ifvqcp0","pricing_plan_id":"free"},{"bike_id":"89911fd2-19f1-4cee-a5b8-15f6e659b57f","system_id":"levelo_inurba_marseille","lat":43.31165,"lon":5.38725,"is_reserved":false,"is_disabled":false,"rental_uris":{"android":"levelo://app?vid=89911fd2-19f1-4cee-a5b8-15f6e659b57f","ios":"levelo://app?vid=89911fd2-19f1-4cee-a5b8-15f6e659b57f"},"vehicle_type_id":"4","last_reported":1698343746,"current_range_meters":1600,"station_id":"ce4bgv12rcd13ifvqcp0","pricing_plan_id":"free"},{"bike_id":"6d07e92f-86a3-47ed-ba80-0b190cefb948","system_id":"levelo_inurba_marseille","lat":43.322896,"lon":5.382708,"is_reserved":false,"is_disabled":false,"rental_uris":{"android":"levelo://app?vid=6d07e92f-86a3-47ed-ba80-0b190cefb948","ios":"levelo://app?vid=6d07e92f-86a3-47ed-ba80-0b190cefb948"},"vehicle_type_id":"4","last_reported":1698343746,"current_range_meters":28400,"station_id":"ce4bhr12rcd13ifvqhqg","pricing_plan_id":"free"},{"bike_id":"250a360f-2e18-4987-ae1d-ddd1293a2b45","system_id":"levelo_inurba_marseille","lat":43.32288,"lon":5.38276,"is_reserved":false,"is_disabled":false,"rental_uris":{"android":"levelo://app?vid=250a360f-2e18-4987-ae1d-ddd1293a2b45","ios":"levelo://app?vid=250a360f-2e18-4987-ae1d-ddd1293a2b45"},"vehicle_type_id":"4","last_reported":1698343746,"current_range_meters":10000,"station_id":"ce4bhr12rcd13ifvqhqg","pricing_plan_id":"free"},{"bike_id":"5b59682e-3f29-4a89-90fc-2781721d815e","system_id":"levelo_inurba_marseille","lat":43.32829,"lon":5.36684,"is_reserved":false,"is_disabled":false,"rental_uris":{"android":"levelo://app?vid=5b59682e-3f29-4a89-90fc-2781721d815e","ios":"levelo://app?vid=5b59682e-3f29-4a89-90fc-2781721d815e"},"vehicle_type_id":"4","last_reported":1698343746,"current_range_meters":0,"station_id":"ce4bhs92rcd13ifvqi0g","pricing_plan_id":"free"},{"bike_id":"2bf09692-7151-4aba-9fa7-8ce1d6106004","system_id":"levelo_inurba_marseille","lat":43.328303,"lon":5.366873,"is_reserved":false,"is_disabled":false,"rental_uris":{"android":"levelo://app?vid=2bf09692-7151-4aba-9fa7-8ce1d6106004","ios":"levelo://app?vid=2bf09692-7151-4aba-9fa7-8ce1d6106004"},"vehicle_type_id":"4","last_reported":1698343746,"current_range_meters":20000,"station_id":"","pricing_plan_id":"free"},{"bike_id":"b3e63496-ef57-4fe7-9649-3ee98b2a4e91","system_id":"levelo_inurba_marseille","lat":43.32831,"lon":5.36697,"is_reserved":false,"is_disabled":false,"rental_uris":{"android":"levelo://app?vid=b3e63496-ef57-4fe7-9649-3ee98b2a4e91","ios":"levelo://app?vid=b3e63496-ef57-4fe7-9649-3ee98b2a4e91"},"vehicle_type_id":"4","last_reported":1698343746,"current_range_meters":16400,"station_id":"ce4bhs92rcd13ifvqi0g","pricing_plan_id":"free"},{"bike_id":"dfb3028e-cefb-4ed1-852e-2f01c14e37b6","system_id":"levelo_inurba_marseille","lat":43.297794,"lon":5.370888,"is_reserved":false,"is_disabled":false,"rental_uris":{"android":"levelo://app?vid=dfb3028e-cefb-4ed1-852e-2f01c14e37b6","ios":"levelo://app?vid=dfb3028e-cefb-4ed1-852e-2f01c14e37b6"},"vehicle_type_id":"4","last_reported":1698343746,"current_range_meters":0,"station_id":"ce4bgop2rcd13ifvqc1g","pricing_plan_id":"free"},{"bike_id":"948a39b5-8524-410f-a83f-3dcb1085c511","system_id":"levelo_inurba_marseille","lat":43.297163,"lon":5.365866,"is_reserved":false,"is_disabled":false,"rental_uris":{"android":"levelo://app?vid=948a39b5-8524-410f-a83f-3dcb1085c511","ios":"levelo://app?vid=948a39b5-8524-410f-a83f-3dcb1085c511"},"vehicle_type_id":"4","last_reported":1698343746,"current_range_meters":5200,"station_id":"ce4bgn12rcd13ifvqbt0","pricing_plan_id":"free"},{"bike_id":"58ea78a3-d62d-480c-b7bc-cf227875ae61","system_id":"levelo_inurba_marseille","lat":43.296131,"lon":5.370791,"is_reserved":false,"is_disabled":false,"rental_uris":{"android":"levelo://app?vid=58ea78a3-d62d-480c-b7bc-cf227875ae61","ios":"levelo://app?vid=58ea78a3-d62d-480c-b7bc-cf227875ae61"},"vehicle_type_id":"4","last_reported":1698343746,"current_range_meters":0,"station_id":"ce4bgnh2rcd13ifvqc0g","pricing_plan_id":"free"},{"bike_id":"f3d0381f-7a2d-409e-a12f-bd3d9095653d","system_id":"levelo_inurba_marseille","lat":43.329673,"lon":5.365468,"is_reserved":false,"is_disabled":false,"rental_uris":{"android":"levelo://app?vid=f3d0381f-7a2d-409e-a12f-bd3d9095653d","ios":"levelo://app?vid=f3d0381f-7a2d-409e-a12f-bd3d9095653d"},"vehicle_type_id":"4","last_reported":1698343746,"current_range_meters":12000,"station_id":"","pricing_plan_id":"free"},{"bike_id":"08ac59e9-4042-4574-af4e-726872e06c4e","system_id":"levelo_inurba_marseille","lat":43.309589,"lon":5.390258,"is_reserved":false,"is_disabled":false,"rental_uris":{"android":"levelo://app?vid=08ac59e9-4042-4574-af4e-726872e06c4e","ios":"levelo://app?vid=08ac59e9-4042-4574-af4e-726872e06c4e"},"vehicle_type_id":"4","last_reported":1698343746,"current_range_meters":26400,"station_id":"ce4bgup2rcd13ifvqco0","pricing_plan_id":"free"},{"bike_id":"4550d374-5ff0-43a9-8026-fc2c545380a8","system_id":"levelo_inurba_marseille","lat":43.309589,"lon":5.390258,"is_reserved":false,"is_disabled":false,"rental_uris":{"android":"levelo://app?vid=4550d374-5ff0-43a9-8026-fc2c545380a8","ios":"levelo://app?vid=4550d374-5ff0-43a9-8026-fc2c545380a8"},"vehicle_type_id":"4","last_reported":1698343746,"current_range_meters":3200,"station_id":"ce4bgup2rcd13ifvqco0","pricing_plan_id":"free"},{"bike_id":"302b2963-b9e2-4704-9e25-4a30432b1449","system_id":"levelo_inurba_marseille","lat":43.267959,"lon":5.402685,"is_reserved":false,"is_disabled":false,"rental_uris":{"android":"levelo://app?vid=302b2963-b9e2-4704-9e25-4a30432b1449","ios":"levelo://app?vid=302b2963-b9e2-4704-9e25-4a30432b1449"},"vehicle_type_id":"4","last_reported":1698343746,"current_range_meters":25600,"station_id":"ce501612rcd8frsf0b60","pricing_plan_id":"free"},{"bike_id":"00ea7c14-f05a-4779-8726-c3a8b60ca4ca","system_id":"levelo_inurba_marseille","lat":43.298037,"lon":5.381066,"is_reserved":false,"is_disabled":false,"rental_uris":{"android":"levelo://app?vid=00ea7c14-f05a-4779-8726-c3a8b60ca4ca","ios":"levelo://app?vid=00ea7c14-f05a-4779-8726-c3a8b60ca4ca"},"vehicle_type_id":"4","last_reported":1698343746,"current_range_meters":28400,"station_id":"ce4bgip2rcd13ifvqbb0","pricing_plan_id":"free"},{"bike_id":"97aaf3e5-94bd-41eb-b395-08585d6a30eb","system_id":"levelo_inurba_marseille","lat":43.304278,"lon":5.388868,"is_reserved":false,"is_disabled":false,"rental_uris":{"android":"levelo://app?vid=97aaf3e5-94bd-41eb-b395-08585d6a30eb","ios":"levelo://app?vid=97aaf3e5-94bd-41eb-b395-08585d6a30eb"},"vehicle_type_id":"4","last_reported":1698343746,"current_range_meters":28800,"station_id":"ce4bgk12rcd13ifvqbi0","pricing_plan_id":"free"},{"bike_id":"59ac135a-62d2-42c3-8989-9ccf33093842","system_id":"levelo_inurba_marseille","lat":43.295748,"lon":5.37522,"is_reserved":false,"is_disabled":false,"rental_uris":{"android":"levelo://app?vid=59ac135a-62d2-42c3-8989-9ccf33093842","ios":"levelo://app?vid=59ac135a-62d2-42c3-8989-9ccf33093842"},"vehicle_type_id":"4","last_reported":1698343746,"current_range_meters":0,"station_id":"ce4bgh92rcd13ifvqb50","pricing_plan_id":"free"},{"bike_id":"55448c3b-dafa-4a9e-b108-ac69332c3397","system_id":"levelo_inurba_marseille","lat":43.296281,"lon":5.377037,"is_reserved":false,"is_disabled":false,"rental_uris":{"android":"levelo://app?vid=55448c3b-dafa-4a9e-b108-ac69332c3397","ios":"levelo://app?vid=55448c3b-dafa-4a9e-b108-ac69332c3397"},"vehicle_type_id":"4","last_reported":1698343746,"current_range_meters":16400,"station_id":"ce4bgi92rcd13ifvqb90","pricing_plan_id":"free"},{"bike_id":"f41b9166-86fb-4427-bf7a-a7535ff4bd61","system_id":"levelo_inurba_marseille","lat":43.304274,"lon":5.388873,"is_reserved":false,"is_disabled":false,"rental_uris":{"android":"levelo://app?vid=f41b9166-86fb-4427-bf7a-a7535ff4bd61","ios":"levelo://app?vid=f41b9166-86fb-4427-bf7a-a7535ff4bd61"},"vehicle_type_id":"4","last_reported":1698343746,"current_range_meters":31200,"station_id":"ce4bgk12rcd13ifvqbi0","pricing_plan_id":"free"},{"bike_id":"de5a82ae-46ff-4444-a689-7b9ba7c5d676","system_id":"levelo_inurba_marseille","lat":43.304274,"lon":5.388873,"is_reserved":false,"is_disabled":false,"rental_uris":{"android":"levelo://app?vid=de5a82ae-46ff-4444-a689-7b9ba7c5d676","ios":"levelo://app?vid=de5a82ae-46ff-4444-a689-7b9ba7c5d676"},"vehicle_type_id":"4","last_reported":1698343746,"current_range_meters":30000,"station_id":"ce4bgk12rcd13ifvqbi0","pricing_plan_id":"free"},{"bike_id":"e9804a6c-ad81-4cbd-90fb-22eb4a828a86","system_id":"levelo_inurba_marseille","lat":43.298037,"lon":5.381066,"is_reserved":false,"is_disabled":false,"rental_uris":{"android":"levelo://app?vid=e9804a6c-ad81-4cbd-90fb-22eb4a828a86","ios":"levelo://app?vid=e9804a6c-ad81-4cbd-90fb-22eb4a828a86"},"vehicle_type_id":"4","last_reported":1698343746,"current_range_meters":18400,"station_id":"ce4bgip2rcd13ifvqbb0","pricing_plan_id":"free"},{"bike_id":"719f1456-0a9c-40de-88cc-b3747806a530","system_id":"levelo_inurba_marseille","lat":43.298037,"lon":5.381066,"is_reserved":false,"is_disabled":false,"rental_uris":{"android":"levelo://app?vid=719f1456-0a9c-40de-88cc-b3747806a530","ios":"levelo://app?vid=719f1456-0a9c-40de-88cc-b3747806a530"},"vehicle_type_id":"4","last_reported":1698343746,"current_range_meters":11200,"station_id":"ce4bgip2rcd13ifvqbb0","pricing_plan_id":"free"},{"bike_id":"856d3bf0-a109-43da-ad1b-747d9fd1669d","system_id":"levelo_inurba_marseille","lat":43.299707,"lon":5.384859,"is_reserved":false,"is_disabled":false,"rental_uris":{"android":"levelo://app?vid=856d3bf0-a109-43da-ad1b-747d9fd1669d","ios":"levelo://app?vid=856d3bf0-a109-43da-ad1b-747d9fd1669d"},"vehicle_type_id":"4","last_reported":1698343746,"current_range_meters":0,"station_id":"ce4bgj92rcd13ifvqbd0","pricing_plan_id":"free"},{"bike_id":"650eb9c4-476e-4ca6-b396-e763a66cb79a","system_id":"levelo_inurba_marseille","lat":43.299707,"lon":5.384859,"is_reserved":false,"is_disabled":false,"rental_uris":{"android":"levelo://app?vid=650eb9c4-476e-4ca6-b396-e763a66cb79a","ios":"levelo://app?vid=650eb9c4-476e-4ca6-b396-e763a66cb79a"},"vehicle_type_id":"4","last_reported":1698343746,"current_range_meters":19200,"station_id":"ce4bgj92rcd13ifvqbd0","pricing_plan_id":"free"},{"bike_id":"50ba0a4e-dc52-4b36-bbea-ef74378b458b","system_id":"levelo_inurba_marseille","lat":43.29698,"lon":5.3812,"is_reserved":false,"is_disabled":false,"rental_uris":{"android":"levelo://app?vid=50ba0a4e-dc52-4b36-bbea-ef74378b458b","ios":"levelo://app?vid=50ba0a4e-dc52-4b36-bbea-ef74378b458b"},"vehicle_type_id":"4","last_reported":1698343746,"current_range_meters":1200,"station_id":"","pricing_plan_id":"free"},{"bike_id":"cef65dd8-e2a9-4bc6-9bda-0dd66b80ef3f","system_id":"levelo_inurba_marseille","lat":43.323675,"lon":5.388852,"is_reserved":false,"is_disabled":false,"rental_uris":{"android":"levelo://app?vid=cef65dd8-e2a9-4bc6-9bda-0dd66b80ef3f","ios":"levelo://app?vid=cef65dd8-e2a9-4bc6-9bda-0dd66b80ef3f"},"vehicle_type_id":"4","last_reported":1698343746,"current_range_meters":20800,"station_id":"","pricing_plan_id":"free"},{"bike_id":"e154969b-9b87-45ae-bb64-9e6f2eac935b","system_id":"levelo_inurba_marseille","lat":43.29602,"lon":5.381084,"is_reserved":false,"is_disabled":false,"rental_uris":{"android":"levelo://app?vid=e154969b-9b87-45ae-bb64-9e6f2eac935b","ios":"levelo://app?vid=e154969b-9b87-45ae-bb64-9e6f2eac935b"},"vehicle_type_id":"4","last_reported":1698343746,"current_range_meters":4000,"station_id":"ce4bgl12rcd13ifvqbo0","pricing_plan_id":"free"},{"bike_id":"eb5bc363-d62b-4f46-aa7f-e66fa55022c2","system_id":"levelo_inurba_marseille","lat":43.32411,"lon":5.38893,"is_reserved":false,"is_disabled":false,"rental_uris":{"android":"levelo://app?vid=eb5bc363-d62b-4f46-aa7f-e66fa55022c2","ios":"levelo://app?vid=eb5bc363-d62b-4f46-aa7f-e66fa55022c2"},"vehicle_type_id":"4","last_reported":1698343746,"current_range_meters":22000,"station_id":"ce4bhqp2rcd13ifvqhog","pricing_plan_id":"free"},{"bike_id":"b11a2e6f-fd0a-4d15-9bb6-ea9d35d4b32f","system_id":"levelo_inurba_marseille","lat":43.324032,"lon":5.389286,"is_reserved":false,"is_disabled":false,"rental_uris":{"android":"levelo://app?vid=b11a2e6f-fd0a-4d15-9bb6-ea9d35d4b32f","ios":"levelo://app?vid=b11a2e6f-fd0a-4d15-9bb6-ea9d35d4b32f"},"vehicle_type_id":"4","last_reported":1698343746,"current_range_meters":27200,"station_id":"ce4bhqp2rcd13ifvqhog","pricing_plan_id":"free"},{"bike_id":"bbab7e28-ee01-4080-b12e-dd8baccd43d0","system_id":"levelo_inurba_marseille","lat":43.32394,"lon":5.389747,"is_reserved":false,"is_disabled":false,"rental_uris":{"android":"levelo://app?vid=bbab7e28-ee01-4080-b12e-dd8baccd43d0","ios":"levelo://app?vid=bbab7e28-ee01-4080-b12e-dd8baccd43d0"},"vehicle_type_id":"4","last_reported":1698343746,"current_range_meters":16000,"station_id":"","pricing_plan_id":"free"},{"bike_id":"432d0acf-0cc7-4ff5-9a0f-0d2ff900f711","system_id":"levelo_inurba_marseille","lat":43.29302,"lon":5.37463,"is_reserved":false,"is_disabled":false,"rental_uris":{"android":"levelo://app?vid=432d0acf-0cc7-4ff5-9a0f-0d2ff900f711","ios":"levelo://app?vid=432d0acf-0cc7-4ff5-9a0f-0d2ff900f711"},"vehicle_type_id":"4","last_reported":1698343746,"current_range_meters":0,"station_id":"ce4bgi12rcd13ifvqb70","pricing_plan_id":"free"},{"bike_id":"5d96723b-de33-402f-9b3f-e90d7737cd91","system_id":"levelo_inurba_marseille","lat":43.293009,"lon":5.374584,"is_reserved":false,"is_disabled":false,"rental_uris":{"android":"levelo://app?vid=5d96723b-de33-402f-9b3f-e90d7737cd91","ios":"levelo://app?vid=5d96723b-de33-402f-9b3f-e90d7737cd91"},"vehicle_type_id":"4","last_reported":1698343746,"current_range_meters":0,"station_id":"ce4bgi12rcd13ifvqb70","pricing_plan_id":"free"},{"bike_id":"13286ecf-744e-4f61-8404-252a9710a3f1","system_id":"levelo_inurba_marseille","lat":43.29292,"lon":5.37461,"is_reserved":false,"is_disabled":false,"rental_uris":{"android":"levelo://app?vid=13286ecf-744e-4f61-8404-252a9710a3f1","ios":"levelo://app?vid=13286ecf-744e-4f61-8404-252a9710a3f1"},"vehicle_type_id":"4","last_reported":1698343746,"current_range_meters":0,"station_id":"ce4bgi12rcd13ifvqb70","pricing_plan_id":"free"},{"bike_id":"2bf328e4-1ab6-4ff3-8437-06984bfc1587","system_id":"levelo_inurba_marseille","lat":43.292311,"lon":5.360731,"is_reserved":false,"is_disabled":false,"rental_uris":{"android":"levelo://app?vid=2bf328e4-1ab6-4ff3-8437-06984bfc1587","ios":"levelo://app?vid=2bf328e4-1ab6-4ff3-8437-06984bfc1587"},"vehicle_type_id":"4","last_reported":1698343746,"current_range_meters":12400,"station_id":"ce4bhbh2rcd13ifvqeqg","pricing_plan_id":"free"},{"bike_id":"1b6167c3-e7ea-4ac7-ac7a-7d26571e6cd1","system_id":"levelo_inurba_marseille","lat":43.300847,"lon":5.390829,"is_reserved":false,"is_disabled":false,"rental_uris":{"android":"levelo://app?vid=1b6167c3-e7ea-4ac7-ac7a-7d26571e6cd1","ios":"levelo://app?vid=1b6167c3-e7ea-4ac7-ac7a-7d26571e6cd1"},"vehicle_type_id":"4","last_reported":1698343746,"current_range_meters":8000,"station_id":"","pricing_plan_id":"free"},{"bike_id":"b33f8b31-82d1-4024-951b-5b4583a8e0c2","system_id":"levelo_inurba_marseille","lat":43.291671,"lon":5.371575,"is_reserved":false,"is_disabled":false,"rental_uris":{"android":"levelo://app?vid=b33f8b31-82d1-4024-951b-5b4583a8e0c2","ios":"levelo://app?vid=b33f8b31-82d1-4024-951b-5b4583a8e0c2"},"vehicle_type_id":"4","last_reported":1698343746,"current_range_meters":26000,"station_id":"ce4bha92rcd13ifvqeh0","pricing_plan_id":"free"},{"bike_id":"f56bc868-410b-4916-98e9-5eb0843b3395","system_id":"levelo_inurba_marseille","lat":43.298764,"lon":5.388973,"is_reserved":false,"is_disabled":false,"rental_uris":{"android":"levelo://app?vid=f56bc868-410b-4916-98e9-5eb0843b3395","ios":"levelo://app?vid=f56bc868-410b-4916-98e9-5eb0843b3395"},"vehicle_type_id":"4","last_reported":1698343746,"current_range_meters":0,"station_id":"ce4bh392rcd13ifvqdl0","pricing_plan_id":"free"},{"bike_id":"1ea9ae23-769e-457f-9bf1-b109fdeb39f9","system_id":"levelo_inurba_marseille","lat":43.292311,"lon":5.360731,"is_reserved":false,"is_disabled":false,"rental_uris":{"android":"levelo://app?vid=1ea9ae23-769e-457f-9bf1-b109fdeb39f9","ios":"levelo://app?vid=1ea9ae23-769e-457f-9bf1-b109fdeb39f9"},"vehicle_type_id":"4","last_reported":1698343746,"current_range_meters":0,"station_id":"ce4bhbh2rcd13ifvqeqg","pricing_plan_id":"free"},{"bike_id":"ce0223d4-edf2-40a7-9656-7af83d88f270","system_id":"levelo_inurba_marseille","lat":43.309038,"lon":5.396546,"is_reserved":false,"is_disabled":false,"rental_uris":{"android":"levelo://app?vid=ce0223d4-edf2-40a7-9656-7af83d88f270","ios":"levelo://app?vid=ce0223d4-edf2-40a7-9656-7af83d88f270"},"vehicle_type_id":"4","last_reported":1698343746,"current_range_meters":24000,"station_id":"ce4bh012rcd13ifvqcv0","pricing_plan_id":"free"},{"bike_id":"8996ab5f-8df5-439c-ba0f-2e86b1cec79b","system_id":"levelo_inurba_marseille","lat":43.29529,"lon":5.385581,"is_reserved":false,"is_disabled":false,"rental_uris":{"android":"levelo://app?vid=8996ab5f-8df5-439c-ba0f-2e86b1cec79b","ios":"levelo://app?vid=8996ab5f-8df5-439c-ba0f-2e86b1cec79b"},"vehicle_type_id":"4","last_reported":1698343746,"current_range_meters":12400,"station_id":"ce4bgih2rcd13ifvqba0","pricing_plan_id":"free"},{"bike_id":"dc9a6050-f12f-4dcc-9b13-2818f10cf062","system_id":"levelo_inurba_marseille","lat":43.29529,"lon":5.385581,"is_reserved":false,"is_disabled":false,"rental_uris":{"android":"levelo://app?vid=dc9a6050-f12f-4dcc-9b13-2818f10cf062","ios":"levelo://app?vid=dc9a6050-f12f-4dcc-9b13-2818f10cf062"},"vehicle_type_id":"4","last_reported":1698343746,"current_range_meters":18000,"station_id":"ce4bgih2rcd13ifvqba0","pricing_plan_id":"free"},{"bike_id":"b8ea6050-7493-406b-8684-e055bf4327e5","system_id":"levelo_inurba_marseille","lat":43.29529,"lon":5.385581,"is_reserved":false,"is_disabled":false,"rental_uris":{"android":"levelo://app?vid=b8ea6050-7493-406b-8684-e055bf4327e5","ios":"levelo://app?vid=b8ea6050-7493-406b-8684-e055bf4327e5"},"vehicle_type_id":"4","last_reported":1698343746,"current_range_meters":7600,"station_id":"ce4bgih2rcd13ifvqba0","pricing_plan_id":"free"},{"bike_id":"126d4670-e812-40c6-9f2a-535ee2ec9a6b","system_id":"levelo_inurba_marseille","lat":43.33219,"lon":5.38149,"is_reserved":false,"is_disabled":false,"rental_uris":{"android":"levelo://app?vid=126d4670-e812-40c6-9f2a-535ee2ec9a6b","ios":"levelo://app?vid=126d4670-e812-40c6-9f2a-535ee2ec9a6b"},"vehicle_type_id":"4","last_reported":1698343746,"current_range_meters":2800,"station_id":"","pricing_plan_id":"free"},{"bike_id":"4ba3d4c7-c5b4-439a-ae83-a972ba7060f4","system_id":"levelo_inurba_marseille","lat":43.309038,"lon":5.396546,"is_reserved":false,"is_disabled":false,"rental_uris":{"android":"levelo://app?vid=4ba3d4c7-c5b4-439a-ae83-a972ba7060f4","ios":"levelo://app?vid=4ba3d4c7-c5b4-439a-ae83-a972ba7060f4"},"vehicle_type_id":"4","last_reported":1698343746,"current_range_meters":19600,"station_id":"ce4bh012rcd13ifvqcv0","pricing_plan_id":"free"},{"bike_id":"a7f17507-076c-41e0-9e76-fecbcf8fefb3","system_id":"levelo_inurba_marseille","lat":43.307995,"lon":5.397323,"is_reserved":false,"is_disabled":false,"rental_uris":{"android":"levelo://app?vid=a7f17507-076c-41e0-9e76-fecbcf8fefb3","ios":"levelo://app?vid=a7f17507-076c-41e0-9e76-fecbcf8fefb3"},"vehicle_type_id":"4","last_reported":1698343746,"current_range_meters":29600,"station_id":"ce4bh0p2rcd13ifvqd70","pricing_plan_id":"free"},{"bike_id":"c2e54598-0852-4425-93a3-11bc4240f48e","system_id":"levelo_inurba_marseille","lat":43.302008,"lon":5.394694,"is_reserved":false,"is_disabled":false,"rental_uris":{"android":"levelo://app?vid=c2e54598-0852-4425-93a3-11bc4240f48e","ios":"levelo://app?vid=c2e54598-0852-4425-93a3-11bc4240f48e"},"vehicle_type_id":"4","last_reported":1698343746,"current_range_meters":0,"station_id":"ce4bh0p2rcd13ifvqd70","pricing_plan_id":"free"},{"bike_id":"6a3ae142-0a9b-4b4b-8276-8ec5a63cf98f","system_id":"levelo_inurba_marseille","lat":43.29891,"lon":5.39179,"is_reserved":false,"is_disabled":false,"rental_uris":{"android":"levelo://app?vid=6a3ae142-0a9b-4b4b-8276-8ec5a63cf98f","ios":"levelo://app?vid=6a3ae142-0a9b-4b4b-8276-8ec5a63cf98f"},"vehicle_type_id":"4","last_reported":1698343746,"current_range_meters":0,"station_id":"","pricing_plan_id":"free"},{"bike_id":"49c9121e-34e7-438e-8d68-54d4ccbc6594","system_id":"levelo_inurba_marseille","lat":43.302008,"lon":5.394694,"is_reserved":false,"is_disabled":false,"rental_uris":{"android":"levelo://app?vid=49c9121e-34e7-438e-8d68-54d4ccbc6594","ios":"levelo://app?vid=49c9121e-34e7-438e-8d68-54d4ccbc6594"},"vehicle_type_id":"4","last_reported":1698343746,"current_range_meters":0,"station_id":"ce4bh0p2rcd13ifvqd70","pricing_plan_id":"free"},{"bike_id":"6f0cd629-8a47-4738-a2af-522c0600372e","system_id":"levelo_inurba_marseille","lat":43.302008,"lon":5.394694,"is_reserved":false,"is_disabled":false,"rental_uris":{"android":"levelo://app?vid=6f0cd629-8a47-4738-a2af-522c0600372e","ios":"levelo://app?vid=6f0cd629-8a47-4738-a2af-522c0600372e"},"vehicle_type_id":"4","last_reported":1698343746,"current_range_meters":0,"station_id":"ce4bh0p2rcd13ifvqd70","pricing_plan_id":"free"},{"bike_id":"d445e7dc-8f39-4198-8d15-1838ad42556e","system_id":"levelo_inurba_marseille","lat":43.302136,"lon":5.394687,"is_reserved":false,"is_disabled":false,"rental_uris":{"android":"levelo://app?vid=d445e7dc-8f39-4198-8d15-1838ad42556e","ios":"levelo://app?vid=d445e7dc-8f39-4198-8d15-1838ad42556e"},"vehicle_type_id":"4","last_reported":1698343746,"current_range_meters":11600,"station_id":"ce4bh0p2rcd13ifvqd70","pricing_plan_id":"free"},{"bike_id":"3ba9337c-3a4c-4b79-bb22-9c08f678ee27","system_id":"levelo_inurba_marseille","lat":43.3339,"lon":5.37907,"is_reserved":false,"is_disabled":false,"rental_uris":{"android":"levelo://app?vid=3ba9337c-3a4c-4b79-bb22-9c08f678ee27","ios":"levelo://app?vid=3ba9337c-3a4c-4b79-bb22-9c08f678ee27"},"vehicle_type_id":"4","last_reported":1698343746,"current_range_meters":21600,"station_id":"","pricing_plan_id":"free"},{"bike_id":"36202136-7f16-4690-81da-1cdbd56c5dff","system_id":"levelo_inurba_marseille","lat":43.292644,"lon":5.384257,"is_reserved":false,"is_disabled":false,"rental_uris":{"android":"levelo://app?vid=36202136-7f16-4690-81da-1cdbd56c5dff","ios":"levelo://app?vid=36202136-7f16-4690-81da-1cdbd56c5dff"},"vehicle_type_id":"4","last_reported":1698343746,"current_range_meters":22800,"station_id":"ce4bh692rcd13ifvqea0","pricing_plan_id":"free"},{"bike_id":"8cc93af1-0a7f-440f-b441-1a9080610ad6","system_id":"levelo_inurba_marseille","lat":43.294162,"lon":5.386292,"is_reserved":false,"is_disabled":false,"rental_uris":{"android":"levelo://app?vid=8cc93af1-0a7f-440f-b441-1a9080610ad6","ios":"levelo://app?vid=8cc93af1-0a7f-440f-b441-1a9080610ad6"},"vehicle_type_id":"4","last_reported":1698343746,"current_range_meters":16800,"station_id":"ce4bh2h2rcd13ifvqdh0","pricing_plan_id":"free"},{"bike_id":"c5547861-46de-4a15-bd82-db51964b036b","system_id":"levelo_inurba_marseille","lat":43.294162,"lon":5.386292,"is_reserved":false,"is_disabled":false,"rental_uris":{"android":"levelo://app?vid=c5547861-46de-4a15-bd82-db51964b036b","ios":"levelo://app?vid=c5547861-46de-4a15-bd82-db51964b036b"},"vehicle_type_id":"4","last_reported":1698343746,"current_range_meters":19200,"station_id":"ce4bh2h2rcd13ifvqdh0","pricing_plan_id":"free"},{"bike_id":"6adc2d71-7e88-48d7-8375-4dffddbaa16a","system_id":"levelo_inurba_marseille","lat":43.29036,"lon":5.37567,"is_reserved":false,"is_disabled":false,"rental_uris":{"android":"levelo://app?vid=6adc2d71-7e88-48d7-8375-4dffddbaa16a","ios":"levelo://app?vid=6adc2d71-7e88-48d7-8375-4dffddbaa16a"},"vehicle_type_id":"4","last_reported":1698343746,"current_range_meters":0,"station_id":"ce4bh692rcd13ifvqe90","pricing_plan_id":"free"},{"bike_id":"8998bc9f-0c02-4548-a605-398bd119a4f8","system_id":"levelo_inurba_marseille","lat":43.290327,"lon":5.375711,"is_reserved":false,"is_disabled":false,"rental_uris":{"android":"levelo://app?vid=8998bc9f-0c02-4548-a605-398bd119a4f8","ios":"levelo://app?vid=8998bc9f-0c02-4548-a605-398bd119a4f8"},"vehicle_type_id":"4","last_reported":1698343746,"current_range_meters":14000,"station_id":"ce4bh692rcd13ifvqe90","pricing_plan_id":"free"},{"bike_id":"99b41531-d8a6-41f8-afd4-fa8d20e620ee","system_id":"levelo_inurba_marseille","lat":43.29417,"lon":5.38633,"is_reserved":false,"is_disabled":false,"rental_uris":{"android":"levelo://app?vid=99b41531-d8a6-41f8-afd4-fa8d20e620ee","ios":"levelo://app?vid=99b41531-d8a6-41f8-afd4-fa8d20e620ee"},"vehicle_type_id":"4","last_reported":1698343746,"current_range_meters":0,"station_id":"ce4bh2h2rcd13ifvqdh0","pricing_plan_id":"free"},{"bike_id":"441a59d6-e594-435d-be25-597e396ccaf1","system_id":"levelo_inurba_marseille","lat":43.289184,"lon":5.366408,"is_reserved":false,"is_disabled":false,"rental_uris":{"android":"levelo://app?vid=441a59d6-e594-435d-be25-597e396ccaf1","ios":"levelo://app?vid=441a59d6-e594-435d-be25-597e396ccaf1"},"vehicle_type_id":"4","last_reported":1698343746,"current_range_meters":9600,"station_id":"ce4bhap2rcd13ifvqek0","pricing_plan_id":"free"},{"bike_id":"3035d6f8-004d-4e6e-90f2-0a2f9ce70f2c","system_id":"levelo_inurba_marseille","lat":43.289184,"lon":5.366408,"is_reserved":false,"is_disabled":false,"rental_uris":{"android":"levelo://app?vid=3035d6f8-004d-4e6e-90f2-0a2f9ce70f2c","ios":"levelo://app?vid=3035d6f8-004d-4e6e-90f2-0a2f9ce70f2c"},"vehicle_type_id":"4","last_reported":1698343746,"current_range_meters":7600,"station_id":"ce4bhap2rcd13ifvqek0","pricing_plan_id":"free"},{"bike_id":"7a453a7b-4fa3-4fdd-b46a-7d8764ae7026","system_id":"levelo_inurba_marseille","lat":43.289184,"lon":5.366408,"is_reserved":false,"is_disabled":false,"rental_uris":{"android":"levelo://app?vid=7a453a7b-4fa3-4fdd-b46a-7d8764ae7026","ios":"levelo://app?vid=7a453a7b-4fa3-4fdd-b46a-7d8764ae7026"},"vehicle_type_id":"4","last_reported":1698343746,"current_range_meters":400,"station_id":"ce4bhap2rcd13ifvqek0","pricing_plan_id":"free"},{"bike_id":"a5a15a6d-c417-4801-81e3-2af16cbd8622","system_id":"levelo_inurba_marseille","lat":43.289468,"lon":5.363719,"is_reserved":false,"is_disabled":false,"rental_uris":{"android":"levelo://app?vid=a5a15a6d-c417-4801-81e3-2af16cbd8622","ios":"levelo://app?vid=a5a15a6d-c417-4801-81e3-2af16cbd8622"},"vehicle_type_id":"4","last_reported":1698343746,"current_range_meters":17600,"station_id":"ce4bhc92rcd13ifvqetg","pricing_plan_id":"free"},{"bike_id":"37bbdc79-6685-454e-b64d-64524f815fdc","system_id":"levelo_inurba_marseille","lat":43.289468,"lon":5.363719,"is_reserved":false,"is_disabled":false,"rental_uris":{"android":"levelo://app?vid=37bbdc79-6685-454e-b64d-64524f815fdc","ios":"levelo://app?vid=37bbdc79-6685-454e-b64d-64524f815fdc"},"vehicle_type_id":"4","last_reported":1698343746,"current_range_meters":16400,"station_id":"ce4bhc92rcd13ifvqetg","pricing_plan_id":"free"},{"bike_id":"a0a40180-dd47-46c3-aa41-d47e9cc66ebc","system_id":"levelo_inurba_marseille","lat":43.289184,"lon":5.366408,"is_reserved":false,"is_disabled":false,"rental_uris":{"android":"levelo://app?vid=a0a40180-dd47-46c3-aa41-d47e9cc66ebc","ios":"levelo://app?vid=a0a40180-dd47-46c3-aa41-d47e9cc66ebc"},"vehicle_type_id":"4","last_reported":1698343746,"current_range_meters":14000,"station_id":"ce4bhap2rcd13ifvqek0","pricing_plan_id":"free"},{"bike_id":"ed532d07-35b6-40d2-83dd-c36cf688784e","system_id":"levelo_inurba_marseille","lat":43.292644,"lon":5.384257,"is_reserved":false,"is_disabled":false,"rental_uris":{"android":"levelo://app?vid=ed532d07-35b6-40d2-83dd-c36cf688784e","ios":"levelo://app?vid=ed532d07-35b6-40d2-83dd-c36cf688784e"},"vehicle_type_id":"4","last_reported":1698343746,"current_range_meters":16400,"station_id":"ce4bh692rcd13ifvqea0","pricing_plan_id":"free"},{"bike_id":"124d011a-4f81-4975-8987-732334e29bb8","system_id":"levelo_inurba_marseille","lat":43.292642,"lon":5.384254,"is_reserved":false,"is_disabled":false,"rental_uris":{"android":"levelo://app?vid=124d011a-4f81-4975-8987-732334e29bb8","ios":"levelo://app?vid=124d011a-4f81-4975-8987-732334e29bb8"},"vehicle_type_id":"4","last_reported":1698343746,"current_range_meters":4000,"station_id":"ce4bh692rcd13ifvqea0","pricing_plan_id":"free"},{"bike_id":"a660ed62-49ba-4d1f-a12b-9cb5014e13b5","system_id":"levelo_inurba_marseille","lat":43.292646,"lon":5.384342,"is_reserved":false,"is_disabled":false,"rental_uris":{"android":"levelo://app?vid=a660ed62-49ba-4d1f-a12b-9cb5014e13b5","ios":"levelo://app?vid=a660ed62-49ba-4d1f-a12b-9cb5014e13b5"},"vehicle_type_id":"4","last_reported":1698343746,"current_range_meters":0,"station_id":"ce4bh692rcd13ifvqea0","pricing_plan_id":"free"},{"bike_id":"cd8f996c-bca4-4936-846a-2157e64e8e4f","system_id":"levelo_inurba_marseille","lat":43.292644,"lon":5.384257,"is_reserved":false,"is_disabled":false,"rental_uris":{"android":"levelo://app?vid=cd8f996c-bca4-4936-846a-2157e64e8e4f","ios":"levelo://app?vid=cd8f996c-bca4-4936-846a-2157e64e8e4f"},"vehicle_type_id":"4","last_reported":1698343746,"current_range_meters":400,"station_id":"ce4bh692rcd13ifvqea0","pricing_plan_id":"free"},{"bike_id":"7dce86d6-79b9-47be-8499-77b7f6f4b96e","system_id":"levelo_inurba_marseille","lat":43.292642,"lon":5.384254,"is_reserved":false,"is_disabled":false,"rental_uris":{"android":"levelo://app?vid=7dce86d6-79b9-47be-8499-77b7f6f4b96e","ios":"levelo://app?vid=7dce86d6-79b9-47be-8499-77b7f6f4b96e"},"vehicle_type_id":"4","last_reported":1698343746,"current_range_meters":3600,"station_id":"ce4bh692rcd13ifvqea0","pricing_plan_id":"free"},{"bike_id":"53b12d0d-01a9-494b-87be-091528ad1f5f","system_id":"levelo_inurba_marseille","lat":43.292644,"lon":5.384257,"is_reserved":false,"is_disabled":false,"rental_uris":{"android":"levelo://app?vid=53b12d0d-01a9-494b-87be-091528ad1f5f","ios":"levelo://app?vid=53b12d0d-01a9-494b-87be-091528ad1f5f"},"vehicle_type_id":"4","last_reported":1698343746,"current_range_meters":7200,"station_id":"ce4bh692rcd13ifvqea0","pricing_plan_id":"free"},{"bike_id":"e45c51ee-6a90-457e-85a2-29a9e1515064","system_id":"levelo_inurba_marseille","lat":43.292644,"lon":5.384257,"is_reserved":false,"is_disabled":false,"rental_uris":{"android":"levelo://app?vid=e45c51ee-6a90-457e-85a2-29a9e1515064","ios":"levelo://app?vid=e45c51ee-6a90-457e-85a2-29a9e1515064"},"vehicle_type_id":"4","last_reported":1698343746,"current_range_meters":0,"station_id":"ce4bh692rcd13ifvqea0","pricing_plan_id":"free"},{"bike_id":"ad90d429-24e7-4741-993d-dcd8ee553284","system_id":"levelo_inurba_marseille","lat":43.292644,"lon":5.384257,"is_reserved":false,"is_disabled":false,"rental_uris":{"android":"levelo://app?vid=ad90d429-24e7-4741-993d-dcd8ee553284","ios":"levelo://app?vid=ad90d429-24e7-4741-993d-dcd8ee553284"},"vehicle_type_id":"4","last_reported":1698343746,"current_range_meters":8000,"station_id":"ce4bh692rcd13ifvqea0","pricing_plan_id":"free"},{"bike_id":"6f282ea3-333e-425b-84ef-b4f1ae8ac960","system_id":"levelo_inurba_marseille","lat":43.29257,"lon":5.3845,"is_reserved":false,"is_disabled":false,"rental_uris":{"android":"levelo://app?vid=6f282ea3-333e-425b-84ef-b4f1ae8ac960","ios":"levelo://app?vid=6f282ea3-333e-425b-84ef-b4f1ae8ac960"},"vehicle_type_id":"4","last_reported":1698343746,"current_range_meters":5200,"station_id":"ce4bh692rcd13ifvqea0","pricing_plan_id":"free"},{"bike_id":"ba373360-0dcb-4923-a3b9-9dff6b0f9ac2","system_id":"levelo_inurba_marseille","lat":43.292644,"lon":5.384257,"is_reserved":false,"is_disabled":false,"rental_uris":{"android":"levelo://app?vid=ba373360-0dcb-4923-a3b9-9dff6b0f9ac2","ios":"levelo://app?vid=ba373360-0dcb-4923-a3b9-9dff6b0f9ac2"},"vehicle_type_id":"4","last_reported":1698343746,"current_range_meters":4400,"station_id":"ce4bh692rcd13ifvqea0","pricing_plan_id":"free"},{"bike_id":"adf1562a-2d3a-4539-a404-828cf8a369cc","system_id":"levelo_inurba_marseille","lat":43.29254,"lon":5.38445,"is_reserved":false,"is_disabled":false,"rental_uris":{"android":"levelo://app?vid=adf1562a-2d3a-4539-a404-828cf8a369cc","ios":"levelo://app?vid=adf1562a-2d3a-4539-a404-828cf8a369cc"},"vehicle_type_id":"4","last_reported":1698343746,"current_range_meters":9200,"station_id":"ce4bh692rcd13ifvqea0","pricing_plan_id":"free"},{"bike_id":"fe3dce40-83ff-46bd-81fd-90906dc054bc","system_id":"levelo_inurba_marseille","lat":43.292567,"lon":5.38454,"is_reserved":false,"is_disabled":false,"rental_uris":{"android":"levelo://app?vid=fe3dce40-83ff-46bd-81fd-90906dc054bc","ios":"levelo://app?vid=fe3dce40-83ff-46bd-81fd-90906dc054bc"},"vehicle_type_id":"4","last_reported":1698343746,"current_range_meters":18800,"station_id":"ce4bh692rcd13ifvqea0","pricing_plan_id":"free"},{"bike_id":"10c9a5ea-3b5b-4d27-8191-60400c8f7d13","system_id":"levelo_inurba_marseille","lat":43.292644,"lon":5.384257,"is_reserved":false,"is_disabled":false,"rental_uris":{"android":"levelo://app?vid=10c9a5ea-3b5b-4d27-8191-60400c8f7d13","ios":"levelo://app?vid=10c9a5ea-3b5b-4d27-8191-60400c8f7d13"},"vehicle_type_id":"4","last_reported":1698343746,"current_range_meters":7600,"station_id":"ce4bh692rcd13ifvqea0","pricing_plan_id":"free"},{"bike_id":"dc3d48c3-8c64-4e0c-b429-7c8ff09c0463","system_id":"levelo_inurba_marseille","lat":43.290104,"lon":5.356111,"is_reserved":false,"is_disabled":false,"rental_uris":{"android":"levelo://app?vid=dc3d48c3-8c64-4e0c-b429-7c8ff09c0463","ios":"levelo://app?vid=dc3d48c3-8c64-4e0c-b429-7c8ff09c0463"},"vehicle_type_id":"4","last_reported":1698343746,"current_range_meters":13200,"station_id":"ce4bhb92rcd13ifvqen0","pricing_plan_id":"free"},{"bike_id":"546d7384-64a0-467b-9169-2e42922ac4c5","system_id":"levelo_inurba_marseille","lat":43.29006,"lon":5.3561,"is_reserved":false,"is_disabled":false,"rental_uris":{"android":"levelo://app?vid=546d7384-64a0-467b-9169-2e42922ac4c5","ios":"levelo://app?vid=546d7384-64a0-467b-9169-2e42922ac4c5"},"vehicle_type_id":"4","last_reported":1698343746,"current_range_meters":10800,"station_id":"","pricing_plan_id":"free"},{"bike_id":"2f8c84c5-f810-4a0b-83e1-5a341fd8b72c","system_id":"levelo_inurba_marseille","lat":43.330442,"lon":5.389148,"is_reserved":false,"is_disabled":false,"rental_uris":{"android":"levelo://app?vid=2f8c84c5-f810-4a0b-83e1-5a341fd8b72c","ios":"levelo://app?vid=2f8c84c5-f810-4a0b-83e1-5a341fd8b72c"},"vehicle_type_id":"4","last_reported":1698343746,"current_range_meters":15600,"station_id":"ce4bhr92rcd13ifvqhrg","pricing_plan_id":"free"},{"bike_id":"5dd66c13-c3d4-4627-8e48-c5640c9eee08","system_id":"levelo_inurba_marseille","lat":43.290995,"lon":5.381361,"is_reserved":false,"is_disabled":false,"rental_uris":{"android":"levelo://app?vid=5dd66c13-c3d4-4627-8e48-c5640c9eee08","ios":"levelo://app?vid=5dd66c13-c3d4-4627-8e48-c5640c9eee08"},"vehicle_type_id":"4","last_reported":1698343746,"current_range_meters":14000,"station_id":"ce4bh512rcd13ifvqe2g","pricing_plan_id":"free"},{"bike_id":"e9ee5218-aea9-41bd-978f-abc2103cd65d","system_id":"levelo_inurba_marseille","lat":43.290995,"lon":5.381361,"is_reserved":false,"is_disabled":false,"rental_uris":{"android":"levelo://app?vid=e9ee5218-aea9-41bd-978f-abc2103cd65d","ios":"levelo://app?vid=e9ee5218-aea9-41bd-978f-abc2103cd65d"},"vehicle_type_id":"4","last_reported":1698343746,"current_range_meters":19200,"station_id":"ce4bh512rcd13ifvqe2g","pricing_plan_id":"free"},{"bike_id":"72dff36f-5514-440c-b8c4-9b56b69066cd","system_id":"levelo_inurba_marseille","lat":43.295169,"lon":5.390426,"is_reserved":false,"is_disabled":false,"rental_uris":{"android":"levelo://app?vid=72dff36f-5514-440c-b8c4-9b56b69066cd","ios":"levelo://app?vid=72dff36f-5514-440c-b8c4-9b56b69066cd"},"vehicle_type_id":"4","last_reported":1698343746,"current_range_meters":18800,"station_id":"ce4bh3p2rcd13ifvqdp0","pricing_plan_id":"free"},{"bike_id":"c75d1acd-29ab-491b-bc5e-b95dbda606c6","system_id":"levelo_inurba_marseille","lat":43.295169,"lon":5.390426,"is_reserved":false,"is_disabled":false,"rental_uris":{"android":"levelo://app?vid=c75d1acd-29ab-491b-bc5e-b95dbda606c6","ios":"levelo://app?vid=c75d1acd-29ab-491b-bc5e-b95dbda606c6"},"vehicle_type_id":"4","last_reported":1698343746,"current_range_meters":8800,"station_id":"ce4bh3p2rcd13ifvqdp0","pricing_plan_id":"free"},{"bike_id":"9466c333-fdc0-41d0-816e-e467d1ddc525","system_id":"levelo_inurba_marseille","lat":43.295169,"lon":5.390426,"is_reserved":false,"is_disabled":false,"rental_uris":{"android":"levelo://app?vid=9466c333-fdc0-41d0-816e-e467d1ddc525","ios":"levelo://app?vid=9466c333-fdc0-41d0-816e-e467d1ddc525"},"vehicle_type_id":"4","last_reported":1698343746,"current_range_meters":7200,"station_id":"ce4bh3p2rcd13ifvqdp0","pricing_plan_id":"free"},{"bike_id":"4d2d97a1-7793-49ed-96de-dad1a36018a8","system_id":"levelo_inurba_marseille","lat":43.289741,"lon":5.378306,"is_reserved":false,"is_disabled":false,"rental_uris":{"android":"levelo://app?vid=4d2d97a1-7793-49ed-96de-dad1a36018a8","ios":"levelo://app?vid=4d2d97a1-7793-49ed-96de-dad1a36018a8"},"vehicle_type_id":"4","last_reported":1698343746,"current_range_meters":12800,"station_id":"ce4bh9p2rcd13ifvqed0","pricing_plan_id":"free"},{"bike_id":"ae9fe179-7300-4b2a-829a-45acdd82b830","system_id":"levelo_inurba_marseille","lat":43.297815,"lon":5.393548,"is_reserved":false,"is_disabled":false,"rental_uris":{"android":"levelo://app?vid=ae9fe179-7300-4b2a-829a-45acdd82b830","ios":"levelo://app?vid=ae9fe179-7300-4b2a-829a-45acdd82b830"},"vehicle_type_id":"4","last_reported":1698343746,"current_range_meters":0,"station_id":"chh1huq6cuj3fo74tm60","pricing_plan_id":"free"},{"bike_id":"af6aa95e-6680-459c-8a85-8ea9994ce898","system_id":"levelo_inurba_marseille","lat":43.2903,"lon":5.38126,"is_reserved":false,"is_disabled":false,"rental_uris":{"android":"levelo://app?vid=af6aa95e-6680-459c-8a85-8ea9994ce898","ios":"levelo://app?vid=af6aa95e-6680-459c-8a85-8ea9994ce898"},"vehicle_type_id":"4","last_reported":1698343746,"current_range_meters":12000,"station_id":"ce4bh4p2rcd13ifvqe1g","pricing_plan_id":"free"},{"bike_id":"438c72b3-818a-4e43-8a27-ab0087452984","system_id":"levelo_inurba_marseille","lat":43.29026,"lon":5.38133,"is_reserved":false,"is_disabled":false,"rental_uris":{"android":"levelo://app?vid=438c72b3-818a-4e43-8a27-ab0087452984","ios":"levelo://app?vid=438c72b3-818a-4e43-8a27-ab0087452984"},"vehicle_type_id":"4","last_reported":1698343746,"current_range_meters":8400,"station_id":"ce4bh4p2rcd13ifvqe1g","pricing_plan_id":"free"},{"bike_id":"738c0538-be1d-45ef-be5b-b26cfb1c2a0f","system_id":"levelo_inurba_marseille","lat":43.290094,"lon":5.381264,"is_reserved":false,"is_disabled":false,"rental_uris":{"android":"levelo://app?vid=738c0538-be1d-45ef-be5b-b26cfb1c2a0f","ios":"levelo://app?vid=738c0538-be1d-45ef-be5b-b26cfb1c2a0f"},"vehicle_type_id":"4","last_reported":1698343746,"current_range_meters":2000,"station_id":"ce4bh4p2rcd13ifvqe1g","pricing_plan_id":"free"},{"bike_id":"4c38a190-ba7a-4bfd-8724-0b8b4f0ea423","system_id":"levelo_inurba_marseille","lat":43.301117,"lon":5.398795,"is_reserved":false,"is_disabled":false,"rental_uris":{"android":"levelo://app?vid=4c38a190-ba7a-4bfd-8724-0b8b4f0ea423","ios":"levelo://app?vid=4c38a190-ba7a-4bfd-8724-0b8b4f0ea423"},"vehicle_type_id":"4","last_reported":1698343746,"current_range_meters":8800,"station_id":"ce4bh0h2rcd13ifvqd40","pricing_plan_id":"free"},{"bike_id":"61d29c47-9dfe-41de-9d29-f871637d85ae","system_id":"levelo_inurba_marseille","lat":43.301117,"lon":5.398795,"is_reserved":false,"is_disabled":false,"rental_uris":{"android":"levelo://app?vid=61d29c47-9dfe-41de-9d29-f871637d85ae","ios":"levelo://app?vid=61d29c47-9dfe-41de-9d29-f871637d85ae"},"vehicle_type_id":"4","last_reported":1698343746,"current_range_meters":14800,"station_id":"ce4bh0h2rcd13ifvqd40","pricing_plan_id":"free"},{"bike_id":"3456111c-6b93-42ad-8551-ddcaa79b42bf","system_id":"levelo_inurba_marseille","lat":43.301117,"lon":5.398795,"is_reserved":false,"is_disabled":false,"rental_uris":{"android":"levelo://app?vid=3456111c-6b93-42ad-8551-ddcaa79b42bf","ios":"levelo://app?vid=3456111c-6b93-42ad-8551-ddcaa79b42bf"},"vehicle_type_id":"4","last_reported":1698343746,"current_range_meters":2000,"station_id":"ce4bh0h2rcd13ifvqd40","pricing_plan_id":"free"},{"bike_id":"a36312ba-3492-402c-81ec-e8be61ac4ad1","system_id":"levelo_inurba_marseille","lat":43.298681,"lon":5.397225,"is_reserved":false,"is_disabled":false,"rental_uris":{"android":"levelo://app?vid=a36312ba-3492-402c-81ec-e8be61ac4ad1","ios":"levelo://app?vid=a36312ba-3492-402c-81ec-e8be61ac4ad1"},"vehicle_type_id":"4","last_reported":1698343746,"current_range_meters":8000,"station_id":"ce4bh0h2rcd13ifvqd50","pricing_plan_id":"free"},{"bike_id":"96ea9aef-e3b6-49e8-a5e2-8f03467cfbf4","system_id":"levelo_inurba_marseille","lat":43.286593,"lon":5.363346,"is_reserved":false,"is_disabled":false,"rental_uris":{"android":"levelo://app?vid=96ea9aef-e3b6-49e8-a5e2-8f03467cfbf4","ios":"levelo://app?vid=96ea9aef-e3b6-49e8-a5e2-8f03467cfbf4"},"vehicle_type_id":"4","last_reported":1698343746,"current_range_meters":1200,"station_id":"ce4bhah2rcd13ifvqej0","pricing_plan_id":"free"},{"bike_id":"eb0b779f-c211-429f-804e-2e8a9e821e75","system_id":"levelo_inurba_marseille","lat":43.286961,"lon":5.373785,"is_reserved":false,"is_disabled":false,"rental_uris":{"android":"levelo://app?vid=eb0b779f-c211-429f-804e-2e8a9e821e75","ios":"levelo://app?vid=eb0b779f-c211-429f-804e-2e8a9e821e75"},"vehicle_type_id":"4","last_reported":1698343746,"current_range_meters":400,"station_id":"ce4bh3p2rcd13ifvqdq0","pricing_plan_id":"free"},{"bike_id":"73303371-e097-48d4-976d-f9aa147b933d","system_id":"levelo_inurba_marseille","lat":43.29868,"lon":5.39742,"is_reserved":false,"is_disabled":false,"rental_uris":{"android":"levelo://app?vid=73303371-e097-48d4-976d-f9aa147b933d","ios":"levelo://app?vid=73303371-e097-48d4-976d-f9aa147b933d"},"vehicle_type_id":"4","last_reported":1698343746,"current_range_meters":0,"station_id":"ce4bh0h2rcd13ifvqd50","pricing_plan_id":"free"},{"bike_id":"0955718b-0a1c-4e4c-9825-3ab2c157d076","system_id":"levelo_inurba_marseille","lat":43.295196,"lon":5.39397,"is_reserved":false,"is_disabled":false,"rental_uris":{"android":"levelo://app?vid=0955718b-0a1c-4e4c-9825-3ab2c157d076","ios":"levelo://app?vid=0955718b-0a1c-4e4c-9825-3ab2c157d076"},"vehicle_type_id":"4","last_reported":1698343746,"current_range_meters":23200,"station_id":"ce4bh292rcd13ifvqdf0","pricing_plan_id":"free"},{"bike_id":"a8a50a7e-ee33-4c37-b44a-6748c17d7d72","system_id":"levelo_inurba_marseille","lat":43.295194,"lon":5.39397,"is_reserved":false,"is_disabled":false,"rental_uris":{"android":"levelo://app?vid=a8a50a7e-ee33-4c37-b44a-6748c17d7d72","ios":"levelo://app?vid=a8a50a7e-ee33-4c37-b44a-6748c17d7d72"},"vehicle_type_id":"4","last_reported":1698343746,"current_range_meters":2000,"station_id":"ce4bh292rcd13ifvqdf0","pricing_plan_id":"free"},{"bike_id":"66307d7f-0930-4db5-8fc4-3b95ae331f95","system_id":"levelo_inurba_marseille","lat":43.295194,"lon":5.39397,"is_reserved":false,"is_disabled":false,"rental_uris":{"android":"levelo://app?vid=66307d7f-0930-4db5-8fc4-3b95ae331f95","ios":"levelo://app?vid=66307d7f-0930-4db5-8fc4-3b95ae331f95"},"vehicle_type_id":"4","last_reported":1698343746,"current_range_meters":15600,"station_id":"ce4bh292rcd13ifvqdf0","pricing_plan_id":"free"},{"bike_id":"7d4d1d8f-112e-441e-a309-71f225179ff4","system_id":"levelo_inurba_marseille","lat":43.286961,"lon":5.373785,"is_reserved":false,"is_disabled":false,"rental_uris":{"android":"levelo://app?vid=7d4d1d8f-112e-441e-a309-71f225179ff4","ios":"levelo://app?vid=7d4d1d8f-112e-441e-a309-71f225179ff4"},"vehicle_type_id":"4","last_reported":1698343746,"current_range_meters":0,"station_id":"ce4bh3p2rcd13ifvqdq0","pricing_plan_id":"free"},{"bike_id":"2f2bdaf7-e47c-4837-a647-05740e8e64f9","system_id":"levelo_inurba_marseille","lat":43.298681,"lon":5.397225,"is_reserved":false,"is_disabled":false,"rental_uris":{"android":"levelo://app?vid=2f2bdaf7-e47c-4837-a647-05740e8e64f9","ios":"levelo://app?vid=2f2bdaf7-e47c-4837-a647-05740e8e64f9"},"vehicle_type_id":"4","last_reported":1698343746,"current_range_meters":18000,"station_id":"ce4bh0h2rcd13ifvqd50","pricing_plan_id":"free"},{"bike_id":"5c61f7f8-009b-4f2a-9378-7f1c51e438fc","system_id":"levelo_inurba_marseille","lat":43.2904,"lon":5.38633,"is_reserved":false,"is_disabled":false,"rental_uris":{"android":"levelo://app?vid=5c61f7f8-009b-4f2a-9378-7f1c51e438fc","ios":"levelo://app?vid=5c61f7f8-009b-4f2a-9378-7f1c51e438fc"},"vehicle_type_id":"4","last_reported":1698343746,"current_range_meters":16800,"station_id":"ce4bh4p2rcd13ifvqe0g","pricing_plan_id":"free"},{"bike_id":"b9ad45c5-350d-4590-9e2c-e5a1d423e13e","system_id":"levelo_inurba_marseille","lat":43.2893,"lon":5.38384,"is_reserved":false,"is_disabled":false,"rental_uris":{"android":"levelo://app?vid=b9ad45c5-350d-4590-9e2c-e5a1d423e13e","ios":"levelo://app?vid=b9ad45c5-350d-4590-9e2c-e5a1d423e13e"},"vehicle_type_id":"4","last_reported":1698343746,"current_range_meters":0,"station_id":"ce4bh612rcd13ifvqe6g","pricing_plan_id":"free"},{"bike_id":"0432643a-1a0f-4c2f-b9b6-112515d0da5d","system_id":"levelo_inurba_marseille","lat":43.302759,"lon":5.400793,"is_reserved":false,"is_disabled":false,"rental_uris":{"android":"levelo://app?vid=0432643a-1a0f-4c2f-b9b6-112515d0da5d","ios":"levelo://app?vid=0432643a-1a0f-4c2f-b9b6-112515d0da5d"},"vehicle_type_id":"4","last_reported":1698343746,"current_range_meters":0,"station_id":"ce4bgvh2rcd13ifvqcs0","pricing_plan_id":"free"},{"bike_id":"9ba63e6f-c447-4c4a-88d9-de03b9ab06b8","system_id":"levelo_inurba_marseille","lat":43.290275,"lon":5.386378,"is_reserved":false,"is_disabled":false,"rental_uris":{"android":"levelo://app?vid=9ba63e6f-c447-4c4a-88d9-de03b9ab06b8","ios":"levelo://app?vid=9ba63e6f-c447-4c4a-88d9-de03b9ab06b8"},"vehicle_type_id":"4","last_reported":1698343746,"current_range_meters":4000,"station_id":"ce4bh4p2rcd13ifvqe0g","pricing_plan_id":"free"},{"bike_id":"f5dcde7e-f17c-4997-8b8e-8d9c83d9a4a7","system_id":"levelo_inurba_marseille","lat":43.302759,"lon":5.400793,"is_reserved":false,"is_disabled":false,"rental_uris":{"android":"levelo://app?vid=f5dcde7e-f17c-4997-8b8e-8d9c83d9a4a7","ios":"levelo://app?vid=f5dcde7e-f17c-4997-8b8e-8d9c83d9a4a7"},"vehicle_type_id":"4","last_reported":1698343746,"current_range_meters":20000,"station_id":"ce4bgvh2rcd13ifvqcs0","pricing_plan_id":"free"},{"bike_id":"e4ceca53-818c-415b-845b-5462375ee3b1","system_id":"levelo_inurba_marseille","lat":43.302518,"lon":5.40074,"is_reserved":false,"is_disabled":false,"rental_uris":{"android":"levelo://app?vid=e4ceca53-818c-415b-845b-5462375ee3b1","ios":"levelo://app?vid=e4ceca53-818c-415b-845b-5462375ee3b1"},"vehicle_type_id":"4","last_reported":1698343746,"current_range_meters":0,"station_id":"ce4bgvh2rcd13ifvqcs0","pricing_plan_id":"free"},{"bike_id":"5218370a-02c3-4a26-ba81-865c26af58b2","system_id":"levelo_inurba_marseille","lat":43.302759,"lon":5.400793,"is_reserved":false,"is_disabled":false,"rental_uris":{"android":"levelo://app?vid=5218370a-02c3-4a26-ba81-865c26af58b2","ios":"levelo://app?vid=5218370a-02c3-4a26-ba81-865c26af58b2"},"vehicle_type_id":"4","last_reported":1698343746,"current_range_meters":15600,"station_id":"ce4bgvh2rcd13ifvqcs0","pricing_plan_id":"free"},{"bike_id":"102acd1d-801b-4046-9d1d-3bfb703fade1","system_id":"levelo_inurba_marseille","lat":43.302759,"lon":5.400793,"is_reserved":false,"is_disabled":false,"rental_uris":{"android":"levelo://app?vid=102acd1d-801b-4046-9d1d-3bfb703fade1","ios":"levelo://app?vid=102acd1d-801b-4046-9d1d-3bfb703fade1"},"vehicle_type_id":"4","last_reported":1698343746,"current_range_meters":6800,"station_id":"ce4bgvh2rcd13ifvqcs0","pricing_plan_id":"free"},{"bike_id":"237c2e2c-6cb2-4fb4-8f9a-8967233c2b49","system_id":"levelo_inurba_marseille","lat":43.286039,"lon":5.370681,"is_reserved":false,"is_disabled":false,"rental_uris":{"android":"levelo://app?vid=237c2e2c-6cb2-4fb4-8f9a-8967233c2b49","ios":"levelo://app?vid=237c2e2c-6cb2-4fb4-8f9a-8967233c2b49"},"vehicle_type_id":"4","last_reported":1698343746,"current_range_meters":15200,"station_id":"ce4bht12rcd13ifvqi60","pricing_plan_id":"free"},{"bike_id":"98d3f8ec-e725-48a4-9287-e67623a952d2","system_id":"levelo_inurba_marseille","lat":43.28704,"lon":5.3795,"is_reserved":false,"is_disabled":false,"rental_uris":{"android":"levelo://app?vid=98d3f8ec-e725-48a4-9287-e67623a952d2","ios":"levelo://app?vid=98d3f8ec-e725-48a4-9287-e67623a952d2"},"vehicle_type_id":"4","last_reported":1698343746,"current_range_meters":10800,"station_id":"ce4bh9p2rcd13ifvqec0","pricing_plan_id":"free"},{"bike_id":"bc368e20-93c0-495a-bb4f-cd8ed7ee7f0d","system_id":"levelo_inurba_marseille","lat":43.335307,"lon":5.388143,"is_reserved":false,"is_disabled":false,"rental_uris":{"android":"levelo://app?vid=bc368e20-93c0-495a-bb4f-cd8ed7ee7f0d","ios":"levelo://app?vid=bc368e20-93c0-495a-bb4f-cd8ed7ee7f0d"},"vehicle_type_id":"4","last_reported":1698343746,"current_range_meters":0,"station_id":"","pricing_plan_id":"free"},{"bike_id":"a7cc9038-dd98-47ea-b885-5f4d185adf8a","system_id":"levelo_inurba_marseille","lat":43.31646,"lon":5.4044,"is_reserved":false,"is_disabled":false,"rental_uris":{"android":"levelo://app?vid=a7cc9038-dd98-47ea-b885-5f4d185adf8a","ios":"levelo://app?vid=a7cc9038-dd98-47ea-b885-5f4d185adf8a"},"vehicle_type_id":"4","last_reported":1698343746,"current_range_meters":0,"station_id":"ce4bgvp2rcd13ifvqct0","pricing_plan_id":"free"},{"bike_id":"6623f636-31a5-4246-a903-7f12b2fa54f5","system_id":"levelo_inurba_marseille","lat":43.304278,"lon":5.388868,"is_reserved":false,"is_disabled":false,"rental_uris":{"android":"levelo://app?vid=6623f636-31a5-4246-a903-7f12b2fa54f5","ios":"levelo://app?vid=6623f636-31a5-4246-a903-7f12b2fa54f5"},"vehicle_type_id":"4","last_reported":1698343746,"current_range_meters":24400,"station_id":"ce4bgk12rcd13ifvqbi0","pricing_plan_id":"free"},{"bike_id":"bc92ce7d-de75-43a0-a5ae-4235f784f2f1","system_id":"levelo_inurba_marseille","lat":43.291994,"lon":5.392907,"is_reserved":false,"is_disabled":false,"rental_uris":{"android":"levelo://app?vid=bc92ce7d-de75-43a0-a5ae-4235f784f2f1","ios":"levelo://app?vid=bc92ce7d-de75-43a0-a5ae-4235f784f2f1"},"vehicle_type_id":"4","last_reported":1698343746,"current_range_meters":9200,"station_id":"ce4bh192rcd13ifvqdd0","pricing_plan_id":"free"},{"bike_id":"b0557b0b-034d-4384-ba9f-fd2a11520549","system_id":"levelo_inurba_marseille","lat":43.284534,"lon":5.358662,"is_reserved":false,"is_disabled":false,"rental_uris":{"android":"levelo://app?vid=b0557b0b-034d-4384-ba9f-fd2a11520549","ios":"levelo://app?vid=b0557b0b-034d-4384-ba9f-fd2a11520549"},"vehicle_type_id":"4","last_reported":1698343746,"current_range_meters":6400,"station_id":"ce4bhah2rcd13ifvqei0","pricing_plan_id":"free"},{"bike_id":"d5c723da-2e09-4c65-aa8a-412b48c6f934","system_id":"levelo_inurba_marseille","lat":43.28459,"lon":5.35885,"is_reserved":false,"is_disabled":false,"rental_uris":{"android":"levelo://app?vid=d5c723da-2e09-4c65-aa8a-412b48c6f934","ios":"levelo://app?vid=d5c723da-2e09-4c65-aa8a-412b48c6f934"},"vehicle_type_id":"4","last_reported":1698343746,"current_range_meters":7200,"station_id":"ce4bhah2rcd13ifvqei0","pricing_plan_id":"free"},{"bike_id":"74e2f8d4-363e-4fa6-be7d-885c1eccbe35","system_id":"levelo_inurba_marseille","lat":43.284534,"lon":5.358662,"is_reserved":false,"is_disabled":false,"rental_uris":{"android":"levelo://app?vid=74e2f8d4-363e-4fa6-be7d-885c1eccbe35","ios":"levelo://app?vid=74e2f8d4-363e-4fa6-be7d-885c1eccbe35"},"vehicle_type_id":"4","last_reported":1698343746,"current_range_meters":1200,"station_id":"ce4bhah2rcd13ifvqei0","pricing_plan_id":"free"},{"bike_id":"81cffc68-0d8e-46ab-b134-f8ede418c11e","system_id":"levelo_inurba_marseille","lat":43.284534,"lon":5.358662,"is_reserved":false,"is_disabled":false,"rental_uris":{"android":"levelo://app?vid=81cffc68-0d8e-46ab-b134-f8ede418c11e","ios":"levelo://app?vid=81cffc68-0d8e-46ab-b134-f8ede418c11e"},"vehicle_type_id":"4","last_reported":1698343746,"current_range_meters":4000,"station_id":"ce4bhah2rcd13ifvqei0","pricing_plan_id":"free"},{"bike_id":"d1d559c6-f9ea-4155-83ec-6fd8a9e761c5","system_id":"levelo_inurba_marseille","lat":43.294314,"lon":5.397498,"is_reserved":false,"is_disabled":false,"rental_uris":{"android":"levelo://app?vid=d1d559c6-f9ea-4155-83ec-6fd8a9e761c5","ios":"levelo://app?vid=d1d559c6-f9ea-4155-83ec-6fd8a9e761c5"},"vehicle_type_id":"4","last_reported":1698343746,"current_range_meters":0,"station_id":"ce4bh3h2rcd13ifvqdo0","pricing_plan_id":"free"},{"bike_id":"2a174eeb-d10e-49b0-bcf1-f23ea9cb7f65","system_id":"levelo_inurba_marseille","lat":43.289363,"lon":5.396322,"is_reserved":false,"is_disabled":false,"rental_uris":{"android":"levelo://app?vid=2a174eeb-d10e-49b0-bcf1-f23ea9cb7f65","ios":"levelo://app?vid=2a174eeb-d10e-49b0-bcf1-f23ea9cb7f65"},"vehicle_type_id":"4","last_reported":1698343746,"current_range_meters":0,"station_id":"ce4bh3h2rcd13ifvqdn0","pricing_plan_id":"free"},{"bike_id":"17e09dc2-e7d7-4127-a676-b71580216472","system_id":"levelo_inurba_marseille","lat":43.2862,"lon":5.35104,"is_reserved":false,"is_disabled":false,"rental_uris":{"android":"levelo://app?vid=17e09dc2-e7d7-4127-a676-b71580216472","ios":"levelo://app?vid=17e09dc2-e7d7-4127-a676-b71580216472"},"vehicle_type_id":"4","last_reported":1698343746,"current_range_meters":9600,"station_id":"ce4bhch2rcd13ifvqeug","pricing_plan_id":"free"},{"bike_id":"16d7fe17-6626-4bed-98bd-e197d2830461","system_id":"levelo_inurba_marseille","lat":43.28617,"lon":5.35107,"is_reserved":false,"is_disabled":false,"rental_uris":{"android":"levelo://app?vid=16d7fe17-6626-4bed-98bd-e197d2830461","ios":"levelo://app?vid=16d7fe17-6626-4bed-98bd-e197d2830461"},"vehicle_type_id":"4","last_reported":1698343746,"current_range_meters":0,"station_id":"ce4bhch2rcd13ifvqeug","pricing_plan_id":"free"},{"bike_id":"8367264f-2d29-4db9-9cdf-8c1c57427d39","system_id":"levelo_inurba_marseille","lat":43.283998,"lon":5.375062,"is_reserved":false,"is_disabled":false,"rental_uris":{"android":"levelo://app?vid=8367264f-2d29-4db9-9cdf-8c1c57427d39","ios":"levelo://app?vid=8367264f-2d29-4db9-9cdf-8c1c57427d39"},"vehicle_type_id":"4","last_reported":1698343746,"current_range_meters":5200,"station_id":"ce4bh412rcd13ifvqds0","pricing_plan_id":"free"},{"bike_id":"6b573773-679f-4810-8b41-d3bbe22cd3ae","system_id":"levelo_inurba_marseille","lat":43.283998,"lon":5.375062,"is_reserved":false,"is_disabled":false,"rental_uris":{"android":"levelo://app?vid=6b573773-679f-4810-8b41-d3bbe22cd3ae","ios":"levelo://app?vid=6b573773-679f-4810-8b41-d3bbe22cd3ae"},"vehicle_type_id":"4","last_reported":1698343746,"current_range_meters":0,"station_id":"ce4bh412rcd13ifvqds0","pricing_plan_id":"free"},{"bike_id":"3552aa5e-5428-4b95-9735-7c8285a65b72","system_id":"levelo_inurba_marseille","lat":43.283998,"lon":5.375062,"is_reserved":false,"is_disabled":false,"rental_uris":{"android":"levelo://app?vid=3552aa5e-5428-4b95-9735-7c8285a65b72","ios":"levelo://app?vid=3552aa5e-5428-4b95-9735-7c8285a65b72"},"vehicle_type_id":"4","last_reported":1698343746,"current_range_meters":14800,"station_id":"ce4bh412rcd13ifvqds0","pricing_plan_id":"free"},{"bike_id":"7d5b1d8b-7f35-40b1-871e-270e4a7c9ab6","system_id":"levelo_inurba_marseille","lat":43.283998,"lon":5.375062,"is_reserved":false,"is_disabled":false,"rental_uris":{"android":"levelo://app?vid=7d5b1d8b-7f35-40b1-871e-270e4a7c9ab6","ios":"levelo://app?vid=7d5b1d8b-7f35-40b1-871e-270e4a7c9ab6"},"vehicle_type_id":"4","last_reported":1698343746,"current_range_meters":14000,"station_id":"ce4bh412rcd13ifvqds0","pricing_plan_id":"free"},{"bike_id":"cda10dc1-6277-4404-9d23-f28599115567","system_id":"levelo_inurba_marseille","lat":43.283998,"lon":5.375062,"is_reserved":false,"is_disabled":false,"rental_uris":{"android":"levelo://app?vid=cda10dc1-6277-4404-9d23-f28599115567","ios":"levelo://app?vid=cda10dc1-6277-4404-9d23-f28599115567"},"vehicle_type_id":"4","last_reported":1698343746,"current_range_meters":13600,"station_id":"ce4bh412rcd13ifvqds0","pricing_plan_id":"free"},{"bike_id":"c82344be-f34e-4ef8-8b13-0b8fa3c42176","system_id":"levelo_inurba_marseille","lat":43.295713,"lon":5.399639,"is_reserved":false,"is_disabled":false,"rental_uris":{"android":"levelo://app?vid=c82344be-f34e-4ef8-8b13-0b8fa3c42176","ios":"levelo://app?vid=c82344be-f34e-4ef8-8b13-0b8fa3c42176"},"vehicle_type_id":"4","last_reported":1698343746,"current_range_meters":0,"station_id":"ce4bh312rcd13ifvqdj0","pricing_plan_id":"free"},{"bike_id":"e457e6f2-3c94-4ef3-a1f4-d33ab9321690","system_id":"levelo_inurba_marseille","lat":43.283998,"lon":5.375062,"is_reserved":false,"is_disabled":false,"rental_uris":{"android":"levelo://app?vid=e457e6f2-3c94-4ef3-a1f4-d33ab9321690","ios":"levelo://app?vid=e457e6f2-3c94-4ef3-a1f4-d33ab9321690"},"vehicle_type_id":"4","last_reported":1698343746,"current_range_meters":26800,"station_id":"ce4bh412rcd13ifvqds0","pricing_plan_id":"free"},{"bike_id":"86e08904-4d6c-498e-a645-eb4c667921b1","system_id":"levelo_inurba_marseille","lat":43.284047,"lon":5.375155,"is_reserved":false,"is_disabled":false,"rental_uris":{"android":"levelo://app?vid=86e08904-4d6c-498e-a645-eb4c667921b1","ios":"levelo://app?vid=86e08904-4d6c-498e-a645-eb4c667921b1"},"vehicle_type_id":"4","last_reported":1698343746,"current_range_meters":0,"station_id":"ce4bh412rcd13ifvqds0","pricing_plan_id":"free"},{"bike_id":"aad148fd-d296-4e5b-a3ac-43476e125bd6","system_id":"levelo_inurba_marseille","lat":43.295716,"lon":5.399749,"is_reserved":false,"is_disabled":false,"rental_uris":{"android":"levelo://app?vid=aad148fd-d296-4e5b-a3ac-43476e125bd6","ios":"levelo://app?vid=aad148fd-d296-4e5b-a3ac-43476e125bd6"},"vehicle_type_id":"4","last_reported":1698343746,"current_range_meters":12800,"station_id":"","pricing_plan_id":"free"},{"bike_id":"ccbcd672-1503-46cb-871f-6be9ef4245b1","system_id":"levelo_inurba_marseille","lat":43.283998,"lon":5.375062,"is_reserved":false,"is_disabled":false,"rental_uris":{"android":"levelo://app?vid=ccbcd672-1503-46cb-871f-6be9ef4245b1","ios":"levelo://app?vid=ccbcd672-1503-46cb-871f-6be9ef4245b1"},"vehicle_type_id":"4","last_reported":1698343746,"current_range_meters":1200,"station_id":"ce4bh412rcd13ifvqds0","pricing_plan_id":"free"},{"bike_id":"927e5953-2971-4e5b-a422-3128d5ce598c","system_id":"levelo_inurba_marseille","lat":43.319179,"lon":5.407725,"is_reserved":false,"is_disabled":false,"rental_uris":{"android":"levelo://app?vid=927e5953-2971-4e5b-a422-3128d5ce598c","ios":"levelo://app?vid=927e5953-2971-4e5b-a422-3128d5ce598c"},"vehicle_type_id":"4","last_reported":1698343746,"current_range_meters":24000,"station_id":"ce4bhq12rcd13ifvqhig","pricing_plan_id":"free"},{"bike_id":"a04dca67-8317-445e-90d6-5788929468fd","system_id":"levelo_inurba_marseille","lat":43.33674,"lon":5.39198,"is_reserved":false,"is_disabled":false,"rental_uris":{"android":"levelo://app?vid=a04dca67-8317-445e-90d6-5788929468fd","ios":"levelo://app?vid=a04dca67-8317-445e-90d6-5788929468fd"},"vehicle_type_id":"4","last_reported":1698343746,"current_range_meters":12800,"station_id":"","pricing_plan_id":"free"},{"bike_id":"eab6e280-5dc0-4d84-9f82-328db666c11f","system_id":"levelo_inurba_marseille","lat":43.28491,"lon":5.38428,"is_reserved":false,"is_disabled":false,"rental_uris":{"android":"levelo://app?vid=eab6e280-5dc0-4d84-9f82-328db666c11f","ios":"levelo://app?vid=eab6e280-5dc0-4d84-9f82-328db666c11f"},"vehicle_type_id":"4","last_reported":1698343746,"current_range_meters":0,"station_id":"ce4bh512rcd13ifvqe3g","pricing_plan_id":"free"},{"bike_id":"d6e0f25c-aaad-4436-9a20-7d785d7e759e","system_id":"levelo_inurba_marseille","lat":43.32521,"lon":5.40572,"is_reserved":false,"is_disabled":false,"rental_uris":{"android":"levelo://app?vid=d6e0f25c-aaad-4436-9a20-7d785d7e759e","ios":"levelo://app?vid=d6e0f25c-aaad-4436-9a20-7d785d7e759e"},"vehicle_type_id":"4","last_reported":1698343746,"current_range_meters":0,"station_id":"","pricing_plan_id":"free"},{"bike_id":"2f666bbb-190f-4291-ade2-95e2c0cfd815","system_id":"levelo_inurba_marseille","lat":43.325281,"lon":5.405683,"is_reserved":false,"is_disabled":false,"rental_uris":{"android":"levelo://app?vid=2f666bbb-190f-4291-ade2-95e2c0cfd815","ios":"levelo://app?vid=2f666bbb-190f-4291-ade2-95e2c0cfd815"},"vehicle_type_id":"4","last_reported":1698343746,"current_range_meters":24800,"station_id":"","pricing_plan_id":"free"},{"bike_id":"6f9e0fe2-b20e-4a38-b5b4-0a71eacf7957","system_id":"levelo_inurba_marseille","lat":43.283502,"lon":5.386471,"is_reserved":false,"is_disabled":false,"rental_uris":{"android":"levelo://app?vid=6f9e0fe2-b20e-4a38-b5b4-0a71eacf7957","ios":"levelo://app?vid=6f9e0fe2-b20e-4a38-b5b4-0a71eacf7957"},"vehicle_type_id":"4","last_reported":1698343746,"current_range_meters":20800,"station_id":"ce4bh492rcd13ifvqdvg","pricing_plan_id":"free"},{"bike_id":"c7291be7-fd2e-44d3-a482-b3f30aabba3a","system_id":"levelo_inurba_marseille","lat":43.283502,"lon":5.386471,"is_reserved":false,"is_disabled":false,"rental_uris":{"android":"levelo://app?vid=c7291be7-fd2e-44d3-a482-b3f30aabba3a","ios":"levelo://app?vid=c7291be7-fd2e-44d3-a482-b3f30aabba3a"},"vehicle_type_id":"4","last_reported":1698343746,"current_range_meters":24800,"station_id":"ce4bh492rcd13ifvqdvg","pricing_plan_id":"free"},{"bike_id":"8293c112-ed0f-4768-9bda-a67983c1b9a2","system_id":"levelo_inurba_marseille","lat":43.28265,"lon":5.35065,"is_reserved":false,"is_disabled":false,"rental_uris":{"android":"levelo://app?vid=8293c112-ed0f-4768-9bda-a67983c1b9a2","ios":"levelo://app?vid=8293c112-ed0f-4768-9bda-a67983c1b9a2"},"vehicle_type_id":"4","last_reported":1698343746,"current_range_meters":0,"station_id":"ce4bhbp2rcd13ifvqerg","pricing_plan_id":"free"},{"bike_id":"3893999a-d9e6-459a-ac5c-dc96c8c855aa","system_id":"levelo_inurba_marseille","lat":43.28039,"lon":5.369297,"is_reserved":false,"is_disabled":false,"rental_uris":{"android":"levelo://app?vid=3893999a-d9e6-459a-ac5c-dc96c8c855aa","ios":"levelo://app?vid=3893999a-d9e6-459a-ac5c-dc96c8c855aa"},"vehicle_type_id":"4","last_reported":1698343746,"current_range_meters":17600,"station_id":"ce4bha12rcd13ifvqef0","pricing_plan_id":"free"},{"bike_id":"16e49b95-787b-4792-ab87-d3916ea8e7e6","system_id":"levelo_inurba_marseille","lat":43.28039,"lon":5.369297,"is_reserved":false,"is_disabled":false,"rental_uris":{"android":"levelo://app?vid=16e49b95-787b-4792-ab87-d3916ea8e7e6","ios":"levelo://app?vid=16e49b95-787b-4792-ab87-d3916ea8e7e6"},"vehicle_type_id":"4","last_reported":1698343746,"current_range_meters":22400,"station_id":"ce4bha12rcd13ifvqef0","pricing_plan_id":"free"},{"bike_id":"485e3335-04b6-4f24-b67b-defeb8a94489","system_id":"levelo_inurba_marseille","lat":43.28039,"lon":5.369297,"is_reserved":false,"is_disabled":false,"rental_uris":{"android":"levelo://app?vid=485e3335-04b6-4f24-b67b-defeb8a94489","ios":"levelo://app?vid=485e3335-04b6-4f24-b67b-defeb8a94489"},"vehicle_type_id":"4","last_reported":1698343746,"current_range_meters":12400,"station_id":"ce4bha12rcd13ifvqef0","pricing_plan_id":"free"},{"bike_id":"c0449154-414a-4a97-8c66-4ecd834e8e24","system_id":"levelo_inurba_marseille","lat":43.280382,"lon":5.369291,"is_reserved":false,"is_disabled":false,"rental_uris":{"android":"levelo://app?vid=c0449154-414a-4a97-8c66-4ecd834e8e24","ios":"levelo://app?vid=c0449154-414a-4a97-8c66-4ecd834e8e24"},"vehicle_type_id":"4","last_reported":1698343746,"current_range_meters":30800,"station_id":"ce4bha12rcd13ifvqef0","pricing_plan_id":"free"},{"bike_id":"17da7bdd-1b8a-427f-9c91-7d1db1328f4c","system_id":"levelo_inurba_marseille","lat":43.280382,"lon":5.369291,"is_reserved":false,"is_disabled":false,"rental_uris":{"android":"levelo://app?vid=17da7bdd-1b8a-427f-9c91-7d1db1328f4c","ios":"levelo://app?vid=17da7bdd-1b8a-427f-9c91-7d1db1328f4c"},"vehicle_type_id":"4","last_reported":1698343746,"current_range_meters":20400,"station_id":"ce4bha12rcd13ifvqef0","pricing_plan_id":"free"},{"bike_id":"77a36b93-e47c-4023-9d12-bb4f9db102c7","system_id":"levelo_inurba_marseille","lat":43.280382,"lon":5.369291,"is_reserved":false,"is_disabled":false,"rental_uris":{"android":"levelo://app?vid=77a36b93-e47c-4023-9d12-bb4f9db102c7","ios":"levelo://app?vid=77a36b93-e47c-4023-9d12-bb4f9db102c7"},"vehicle_type_id":"4","last_reported":1698343746,"current_range_meters":8000,"station_id":"ce4bha12rcd13ifvqef0","pricing_plan_id":"free"},{"bike_id":"eae608c4-d84e-4731-b7f0-fdf7ef265fdf","system_id":"levelo_inurba_marseille","lat":43.28039,"lon":5.369297,"is_reserved":false,"is_disabled":false,"rental_uris":{"android":"levelo://app?vid=eae608c4-d84e-4731-b7f0-fdf7ef265fdf","ios":"levelo://app?vid=eae608c4-d84e-4731-b7f0-fdf7ef265fdf"},"vehicle_type_id":"4","last_reported":1698343746,"current_range_meters":14000,"station_id":"ce4bha12rcd13ifvqef0","pricing_plan_id":"free"},{"bike_id":"bd29e73a-fd6e-45d1-8248-2e716306868d","system_id":"levelo_inurba_marseille","lat":43.28039,"lon":5.369297,"is_reserved":false,"is_disabled":false,"rental_uris":{"android":"levelo://app?vid=bd29e73a-fd6e-45d1-8248-2e716306868d","ios":"levelo://app?vid=bd29e73a-fd6e-45d1-8248-2e716306868d"},"vehicle_type_id":"4","last_reported":1698343746,"current_range_meters":31200,"station_id":"ce4bha12rcd13ifvqef0","pricing_plan_id":"free"},{"bike_id":"aabdb0cb-060e-4f31-bd0c-bec645c99911","system_id":"levelo_inurba_marseille","lat":43.290477,"lon":5.39966,"is_reserved":false,"is_disabled":false,"rental_uris":{"android":"levelo://app?vid=aabdb0cb-060e-4f31-bd0c-bec645c99911","ios":"levelo://app?vid=aabdb0cb-060e-4f31-bd0c-bec645c99911"},"vehicle_type_id":"4","last_reported":1698343746,"current_range_meters":0,"station_id":"","pricing_plan_id":"free"},{"bike_id":"fdcf3760-7cc8-47fb-970e-761890579f86","system_id":"levelo_inurba_marseille","lat":43.290266,"lon":5.399516,"is_reserved":false,"is_disabled":false,"rental_uris":{"android":"levelo://app?vid=fdcf3760-7cc8-47fb-970e-761890579f86","ios":"levelo://app?vid=fdcf3760-7cc8-47fb-970e-761890579f86"},"vehicle_type_id":"4","last_reported":1698343746,"current_range_meters":0,"station_id":"","pricing_plan_id":"free"},{"bike_id":"1ca242fe-6084-4f9b-8b54-35d465872844","system_id":"levelo_inurba_marseille","lat":43.29041,"lon":5.399634,"is_reserved":false,"is_disabled":false,"rental_uris":{"android":"levelo://app?vid=1ca242fe-6084-4f9b-8b54-35d465872844","ios":"levelo://app?vid=1ca242fe-6084-4f9b-8b54-35d465872844"},"vehicle_type_id":"4","last_reported":1698343746,"current_range_meters":22400,"station_id":"ce4bh392rcd13ifvqdm0","pricing_plan_id":"free"},{"bike_id":"de98d4d2-dcc0-44d2-b364-7de965c55a23","system_id":"levelo_inurba_marseille","lat":43.281044,"lon":5.378308,"is_reserved":false,"is_disabled":false,"rental_uris":{"android":"levelo://app?vid=de98d4d2-dcc0-44d2-b364-7de965c55a23","ios":"levelo://app?vid=de98d4d2-dcc0-44d2-b364-7de965c55a23"},"vehicle_type_id":"4","last_reported":1698343746,"current_range_meters":20800,"station_id":"ce4bha12rcd13ifvqee0","pricing_plan_id":"free"},{"bike_id":"bae84ad9-b95b-4d26-9b6e-7b8943df4490","system_id":"levelo_inurba_marseille","lat":43.281044,"lon":5.378308,"is_reserved":false,"is_disabled":false,"rental_uris":{"android":"levelo://app?vid=bae84ad9-b95b-4d26-9b6e-7b8943df4490","ios":"levelo://app?vid=bae84ad9-b95b-4d26-9b6e-7b8943df4490"},"vehicle_type_id":"4","last_reported":1698343746,"current_range_meters":8400,"station_id":"ce4bha12rcd13ifvqee0","pricing_plan_id":"free"},{"bike_id":"6b6e2d98-1850-481c-929d-0fe53c05959b","system_id":"levelo_inurba_marseille","lat":43.281044,"lon":5.378308,"is_reserved":false,"is_disabled":false,"rental_uris":{"android":"levelo://app?vid=6b6e2d98-1850-481c-929d-0fe53c05959b","ios":"levelo://app?vid=6b6e2d98-1850-481c-929d-0fe53c05959b"},"vehicle_type_id":"4","last_reported":1698343746,"current_range_meters":28000,"station_id":"ce4bha12rcd13ifvqee0","pricing_plan_id":"free"},{"bike_id":"057369a2-3622-4c70-941e-9b6c0c81a4b0","system_id":"levelo_inurba_marseille","lat":43.281044,"lon":5.378308,"is_reserved":false,"is_disabled":false,"rental_uris":{"android":"levelo://app?vid=057369a2-3622-4c70-941e-9b6c0c81a4b0","ios":"levelo://app?vid=057369a2-3622-4c70-941e-9b6c0c81a4b0"},"vehicle_type_id":"4","last_reported":1698343746,"current_range_meters":15200,"station_id":"ce4bha12rcd13ifvqee0","pricing_plan_id":"free"},{"bike_id":"a57d0fdb-b213-4e44-87aa-9e931832f41a","system_id":"levelo_inurba_marseille","lat":43.336569,"lon":5.398701,"is_reserved":false,"is_disabled":false,"rental_uris":{"android":"levelo://app?vid=a57d0fdb-b213-4e44-87aa-9e931832f41a","ios":"levelo://app?vid=a57d0fdb-b213-4e44-87aa-9e931832f41a"},"vehicle_type_id":"4","last_reported":1698343746,"current_range_meters":0,"station_id":"","pricing_plan_id":"free"},{"bike_id":"2e54ac32-6169-46aa-ac37-1215d17d9720","system_id":"levelo_inurba_marseille","lat":43.284462,"lon":5.392121,"is_reserved":false,"is_disabled":false,"rental_uris":{"android":"levelo://app?vid=2e54ac32-6169-46aa-ac37-1215d17d9720","ios":"levelo://app?vid=2e54ac32-6169-46aa-ac37-1215d17d9720"},"vehicle_type_id":"4","last_reported":1698343746,"current_range_meters":0,"station_id":"ce4bhoh2rcd13ifvqh5g","pricing_plan_id":"free"},{"bike_id":"4e9d800b-51d0-4031-9b81-15661c733994","system_id":"levelo_inurba_marseille","lat":43.279087,"lon":5.380114,"is_reserved":false,"is_disabled":false,"rental_uris":{"android":"levelo://app?vid=4e9d800b-51d0-4031-9b81-15661c733994","ios":"levelo://app?vid=4e9d800b-51d0-4031-9b81-15661c733994"},"vehicle_type_id":"4","last_reported":1698343746,"current_range_meters":28400,"station_id":"ce4bhf92rcd13ifvqf50","pricing_plan_id":"free"},{"bike_id":"b49c5994-50b6-439c-be75-0bb63b6d50c6","system_id":"levelo_inurba_marseille","lat":43.279742,"lon":5.38744,"is_reserved":false,"is_disabled":false,"rental_uris":{"android":"levelo://app?vid=b49c5994-50b6-439c-be75-0bb63b6d50c6","ios":"levelo://app?vid=b49c5994-50b6-439c-be75-0bb63b6d50c6"},"vehicle_type_id":"4","last_reported":1698343746,"current_range_meters":10000,"station_id":"ce4bhg12rcd13ifvqf80","pricing_plan_id":"free"},{"bike_id":"b33d71a1-177d-445e-a25f-f1c535586912","system_id":"levelo_inurba_marseille","lat":43.279742,"lon":5.38744,"is_reserved":false,"is_disabled":false,"rental_uris":{"android":"levelo://app?vid=b33d71a1-177d-445e-a25f-f1c535586912","ios":"levelo://app?vid=b33d71a1-177d-445e-a25f-f1c535586912"},"vehicle_type_id":"4","last_reported":1698343746,"current_range_meters":24800,"station_id":"ce4bhg12rcd13ifvqf80","pricing_plan_id":"free"},{"bike_id":"4bf7168d-90a9-4f30-9eb7-8bb199bd9beb","system_id":"levelo_inurba_marseille","lat":43.299577,"lon":5.413277,"is_reserved":false,"is_disabled":false,"rental_uris":{"android":"levelo://app?vid=4bf7168d-90a9-4f30-9eb7-8bb199bd9beb","ios":"levelo://app?vid=4bf7168d-90a9-4f30-9eb7-8bb199bd9beb"},"vehicle_type_id":"4","last_reported":1698343746,"current_range_meters":24000,"station_id":"ce4bhp12rcd13ifvqh9g","pricing_plan_id":"free"},{"bike_id":"3135f09a-7fe6-4654-9aed-555b6efceedf","system_id":"levelo_inurba_marseille","lat":43.2796,"lon":5.3871,"is_reserved":false,"is_disabled":false,"rental_uris":{"android":"levelo://app?vid=3135f09a-7fe6-4654-9aed-555b6efceedf","ios":"levelo://app?vid=3135f09a-7fe6-4654-9aed-555b6efceedf"},"vehicle_type_id":"4","last_reported":1698343746,"current_range_meters":0,"station_id":"ce4bhg12rcd13ifvqf80","pricing_plan_id":"free"},{"bike_id":"1df208ec-53d4-45e0-8080-58bcac9de815","system_id":"levelo_inurba_marseille","lat":43.278399,"lon":5.392139,"is_reserved":false,"is_disabled":false,"rental_uris":{"android":"levelo://app?vid=1df208ec-53d4-45e0-8080-58bcac9de815","ios":"levelo://app?vid=1df208ec-53d4-45e0-8080-58bcac9de815"},"vehicle_type_id":"4","last_reported":1698343746,"current_range_meters":10400,"station_id":"ce4bhjp2rcd13ifvqga0","pricing_plan_id":"free"},{"bike_id":"a2027346-b519-4327-82ca-910bbd21e69d","system_id":"levelo_inurba_marseille","lat":43.30357,"lon":5.41887,"is_reserved":false,"is_disabled":false,"rental_uris":{"android":"levelo://app?vid=a2027346-b519-4327-82ca-910bbd21e69d","ios":"levelo://app?vid=a2027346-b519-4327-82ca-910bbd21e69d"},"vehicle_type_id":"4","last_reported":1698343746,"current_range_meters":0,"station_id":"ce4bhop2rcd13ifvqh7g","pricing_plan_id":"free"},{"bike_id":"004fcc61-69c9-475d-8297-7a980473e760","system_id":"levelo_inurba_marseille","lat":43.278399,"lon":5.392139,"is_reserved":false,"is_disabled":false,"rental_uris":{"android":"levelo://app?vid=004fcc61-69c9-475d-8297-7a980473e760","ios":"levelo://app?vid=004fcc61-69c9-475d-8297-7a980473e760"},"vehicle_type_id":"4","last_reported":1698343746,"current_range_meters":17200,"station_id":"ce4bhjp2rcd13ifvqga0","pricing_plan_id":"free"},{"bike_id":"e44b19d0-eaa5-4a76-a406-7c77754b8365","system_id":"levelo_inurba_marseille","lat":43.27838,"lon":5.39214,"is_reserved":false,"is_disabled":false,"rental_uris":{"android":"levelo://app?vid=e44b19d0-eaa5-4a76-a406-7c77754b8365","ios":"levelo://app?vid=e44b19d0-eaa5-4a76-a406-7c77754b8365"},"vehicle_type_id":"4","last_reported":1698343746,"current_range_meters":22800,"station_id":"ce4bhjp2rcd13ifvqga0","pricing_plan_id":"free"},{"bike_id":"12fc007f-c07d-4695-b847-4a06b5874fe8","system_id":"levelo_inurba_marseille","lat":43.27836,"lon":5.39211,"is_reserved":false,"is_disabled":false,"rental_uris":{"android":"levelo://app?vid=12fc007f-c07d-4695-b847-4a06b5874fe8","ios":"levelo://app?vid=12fc007f-c07d-4695-b847-4a06b5874fe8"},"vehicle_type_id":"4","last_reported":1698343746,"current_range_meters":28400,"station_id":"ce4bhjp2rcd13ifvqga0","pricing_plan_id":"free"},{"bike_id":"d9a9fcf9-7efc-4ea6-9ab3-1db024b211cc","system_id":"levelo_inurba_marseille","lat":43.275625,"lon":5.384392,"is_reserved":false,"is_disabled":false,"rental_uris":{"android":"levelo://app?vid=d9a9fcf9-7efc-4ea6-9ab3-1db024b211cc","ios":"levelo://app?vid=d9a9fcf9-7efc-4ea6-9ab3-1db024b211cc"},"vehicle_type_id":"4","last_reported":1698343746,"current_range_meters":16400,"station_id":"ce4bhh92rcd13ifvqfi0","pricing_plan_id":"free"},{"bike_id":"c156c777-018f-4afd-ad77-d5350a5d71fb","system_id":"levelo_inurba_marseille","lat":43.27682,"lon":5.38875,"is_reserved":false,"is_disabled":false,"rental_uris":{"android":"levelo://app?vid=c156c777-018f-4afd-ad77-d5350a5d71fb","ios":"levelo://app?vid=c156c777-018f-4afd-ad77-d5350a5d71fb"},"vehicle_type_id":"4","last_reported":1698343746,"current_range_meters":0,"station_id":"ce4bhi12rcd13ifvqfo0","pricing_plan_id":"free"},{"bike_id":"444d51e5-c0af-4b5e-802c-c1ec3762b314","system_id":"levelo_inurba_marseille","lat":43.27682,"lon":5.38877,"is_reserved":false,"is_disabled":false,"rental_uris":{"android":"levelo://app?vid=444d51e5-c0af-4b5e-802c-c1ec3762b314","ios":"levelo://app?vid=444d51e5-c0af-4b5e-802c-c1ec3762b314"},"vehicle_type_id":"4","last_reported":1698343746,"current_range_meters":0,"station_id":"ce4bhi12rcd13ifvqfo0","pricing_plan_id":"free"},{"bike_id":"4794a5f5-578d-441a-9fa6-794168bc2f51","system_id":"levelo_inurba_marseille","lat":43.276771,"lon":5.388799,"is_reserved":false,"is_disabled":false,"rental_uris":{"android":"levelo://app?vid=4794a5f5-578d-441a-9fa6-794168bc2f51","ios":"levelo://app?vid=4794a5f5-578d-441a-9fa6-794168bc2f51"},"vehicle_type_id":"4","last_reported":1698343746,"current_range_meters":22000,"station_id":"ce4bhi12rcd13ifvqfo0","pricing_plan_id":"free"},{"bike_id":"9d947250-39d1-4b7b-a238-c0ace313163d","system_id":"levelo_inurba_marseille","lat":43.276771,"lon":5.388799,"is_reserved":false,"is_disabled":false,"rental_uris":{"android":"levelo://app?vid=9d947250-39d1-4b7b-a238-c0ace313163d","ios":"levelo://app?vid=9d947250-39d1-4b7b-a238-c0ace313163d"},"vehicle_type_id":"4","last_reported":1698343746,"current_range_meters":0,"station_id":"ce4bhi12rcd13ifvqfo0","pricing_plan_id":"free"},{"bike_id":"5848ee55-c6d2-45b6-9554-5f8069ad8ac3","system_id":"levelo_inurba_marseille","lat":43.276554,"lon":5.389048,"is_reserved":false,"is_disabled":false,"rental_uris":{"android":"levelo://app?vid=5848ee55-c6d2-45b6-9554-5f8069ad8ac3","ios":"levelo://app?vid=5848ee55-c6d2-45b6-9554-5f8069ad8ac3"},"vehicle_type_id":"4","last_reported":1698343746,"current_range_meters":0,"station_id":"ce4bhi12rcd13ifvqfo0","pricing_plan_id":"free"},{"bike_id":"25cfaac1-e172-4c21-9981-1f0dd6c5c7da","system_id":"levelo_inurba_marseille","lat":43.27997,"lon":5.40019,"is_reserved":false,"is_disabled":false,"rental_uris":{"android":"levelo://app?vid=25cfaac1-e172-4c21-9981-1f0dd6c5c7da","ios":"levelo://app?vid=25cfaac1-e172-4c21-9981-1f0dd6c5c7da"},"vehicle_type_id":"4","last_reported":1698343746,"current_range_meters":0,"station_id":"ce4bho92rcd13ifvqh4g","pricing_plan_id":"free"},{"bike_id":"5676ffe3-ee0e-4083-bd00-de55caefacbf","system_id":"levelo_inurba_marseille","lat":43.279414,"lon":5.399572,"is_reserved":false,"is_disabled":false,"rental_uris":{"android":"levelo://app?vid=5676ffe3-ee0e-4083-bd00-de55caefacbf","ios":"levelo://app?vid=5676ffe3-ee0e-4083-bd00-de55caefacbf"},"vehicle_type_id":"4","last_reported":1698343746,"current_range_meters":0,"station_id":"ce4bho92rcd13ifvqh4g","pricing_plan_id":"free"},{"bike_id":"08142ef6-e381-4788-b104-c0a1335b54e5","system_id":"levelo_inurba_marseille","lat":43.31713,"lon":5.42407,"is_reserved":false,"is_disabled":false,"rental_uris":{"android":"levelo://app?vid=08142ef6-e381-4788-b104-c0a1335b54e5","ios":"levelo://app?vid=08142ef6-e381-4788-b104-c0a1335b54e5"},"vehicle_type_id":"4","last_reported":1698343746,"current_range_meters":18400,"station_id":"ce4bhp92rcd13ifvqhbg","pricing_plan_id":"free"},{"bike_id":"a3d355e4-6c62-45ba-bcd8-6af7446e687a","system_id":"levelo_inurba_marseille","lat":43.340804,"lon":5.410219,"is_reserved":false,"is_disabled":false,"rental_uris":{"android":"levelo://app?vid=a3d355e4-6c62-45ba-bcd8-6af7446e687a","ios":"levelo://app?vid=a3d355e4-6c62-45ba-bcd8-6af7446e687a"},"vehicle_type_id":"4","last_reported":1698343746,"current_range_meters":7600,"station_id":"ce4bhqh2rcd13ifvqhlg","pricing_plan_id":"free"},{"bike_id":"10771e27-9dfa-483f-a879-18ff14f74247","system_id":"levelo_inurba_marseille","lat":43.310021,"lon":5.425067,"is_reserved":false,"is_disabled":false,"rental_uris":{"android":"levelo://app?vid=10771e27-9dfa-483f-a879-18ff14f74247","ios":"levelo://app?vid=10771e27-9dfa-483f-a879-18ff14f74247"},"vehicle_type_id":"4","last_reported":1698343746,"current_range_meters":4000,"station_id":"","pricing_plan_id":"free"},{"bike_id":"6a00d3fd-8327-4241-a60a-3b3cfa594a9d","system_id":"levelo_inurba_marseille","lat":43.274099,"lon":5.394019,"is_reserved":false,"is_disabled":false,"rental_uris":{"android":"levelo://app?vid=6a00d3fd-8327-4241-a60a-3b3cfa594a9d","ios":"levelo://app?vid=6a00d3fd-8327-4241-a60a-3b3cfa594a9d"},"vehicle_type_id":"4","last_reported":1698343746,"current_range_meters":16000,"station_id":"ce4bhdp2rcd13ifvqf20","pricing_plan_id":"free"},{"bike_id":"9646a2ee-6867-4298-b619-9b7e4f8d73dc","system_id":"levelo_inurba_marseille","lat":43.274099,"lon":5.394019,"is_reserved":false,"is_disabled":false,"rental_uris":{"android":"levelo://app?vid=9646a2ee-6867-4298-b619-9b7e4f8d73dc","ios":"levelo://app?vid=9646a2ee-6867-4298-b619-9b7e4f8d73dc"},"vehicle_type_id":"4","last_reported":1698343746,"current_range_meters":14800,"station_id":"ce4bhdp2rcd13ifvqf20","pricing_plan_id":"free"},{"bike_id":"d03397ce-e559-4d2a-8bff-7468a530ee1c","system_id":"levelo_inurba_marseille","lat":43.27419,"lon":5.39419,"is_reserved":false,"is_disabled":false,"rental_uris":{"android":"levelo://app?vid=d03397ce-e559-4d2a-8bff-7468a530ee1c","ios":"levelo://app?vid=d03397ce-e559-4d2a-8bff-7468a530ee1c"},"vehicle_type_id":"4","last_reported":1698343746,"current_range_meters":0,"station_id":"ce4bhdp2rcd13ifvqf20","pricing_plan_id":"free"},{"bike_id":"c7f50d06-a36b-4f5b-a203-588117bb3d4d","system_id":"levelo_inurba_marseille","lat":43.30414,"lon":5.42541,"is_reserved":false,"is_disabled":false,"rental_uris":{"android":"levelo://app?vid=c7f50d06-a36b-4f5b-a203-588117bb3d4d","ios":"levelo://app?vid=c7f50d06-a36b-4f5b-a203-588117bb3d4d"},"vehicle_type_id":"4","last_reported":1698343746,"current_range_meters":7200,"station_id":"ce4bhoh2rcd13ifvqh6g","pricing_plan_id":"free"},{"bike_id":"b513ca5d-9858-4999-832c-9395765a9b3c","system_id":"levelo_inurba_marseille","lat":43.304096,"lon":5.425385,"is_reserved":false,"is_disabled":false,"rental_uris":{"android":"levelo://app?vid=b513ca5d-9858-4999-832c-9395765a9b3c","ios":"levelo://app?vid=b513ca5d-9858-4999-832c-9395765a9b3c"},"vehicle_type_id":"4","last_reported":1698343746,"current_range_meters":18000,"station_id":"ce4bhoh2rcd13ifvqh6g","pricing_plan_id":"free"},{"bike_id":"69008444-ab5b-44f5-902c-25c48e6f0be1","system_id":"levelo_inurba_marseille","lat":43.295511,"lon":5.422926,"is_reserved":false,"is_disabled":false,"rental_uris":{"android":"levelo://app?vid=69008444-ab5b-44f5-902c-25c48e6f0be1","ios":"levelo://app?vid=69008444-ab5b-44f5-902c-25c48e6f0be1"},"vehicle_type_id":"4","last_reported":1698343746,"current_range_meters":20000,"station_id":"ce4bhph2rcd13ifvqhdg","pricing_plan_id":"free"},{"bike_id":"48b1c85d-4258-4ca8-9cba-545fb5b198e8","system_id":"levelo_inurba_marseille","lat":43.295496,"lon":5.422762,"is_reserved":false,"is_disabled":false,"rental_uris":{"android":"levelo://app?vid=48b1c85d-4258-4ca8-9cba-545fb5b198e8","ios":"levelo://app?vid=48b1c85d-4258-4ca8-9cba-545fb5b198e8"},"vehicle_type_id":"4","last_reported":1698343746,"current_range_meters":14000,"station_id":"ce4bhph2rcd13ifvqhdg","pricing_plan_id":"free"},{"bike_id":"cff879bb-7386-423d-b496-7e98836143ab","system_id":"levelo_inurba_marseille","lat":43.295523,"lon":5.422926,"is_reserved":false,"is_disabled":false,"rental_uris":{"android":"levelo://app?vid=cff879bb-7386-423d-b496-7e98836143ab","ios":"levelo://app?vid=cff879bb-7386-423d-b496-7e98836143ab"},"vehicle_type_id":"4","last_reported":1698343746,"current_range_meters":25600,"station_id":"ce4bhph2rcd13ifvqhdg","pricing_plan_id":"free"},{"bike_id":"fd8691d5-e03c-4690-9c78-c6449d200687","system_id":"levelo_inurba_marseille","lat":43.27815,"lon":5.40709,"is_reserved":false,"is_disabled":false,"rental_uris":{"android":"levelo://app?vid=fd8691d5-e03c-4690-9c78-c6449d200687","ios":"levelo://app?vid=fd8691d5-e03c-4690-9c78-c6449d200687"},"vehicle_type_id":"4","last_reported":1698343746,"current_range_meters":4800,"station_id":"ce4bhnh2rcd13ifvqgtg","pricing_plan_id":"free"},{"bike_id":"4076eda0-4955-48c2-9588-42e460b3b19b","system_id":"levelo_inurba_marseille","lat":43.278128,"lon":5.407195,"is_reserved":false,"is_disabled":false,"rental_uris":{"android":"levelo://app?vid=4076eda0-4955-48c2-9588-42e460b3b19b","ios":"levelo://app?vid=4076eda0-4955-48c2-9588-42e460b3b19b"},"vehicle_type_id":"4","last_reported":1698343746,"current_range_meters":11200,"station_id":"ce4bhnh2rcd13ifvqgtg","pricing_plan_id":"free"},{"bike_id":"ad5d9763-da45-4d5a-88f0-26ead3d072d4","system_id":"levelo_inurba_marseille","lat":43.278077,"lon":5.407189,"is_reserved":false,"is_disabled":false,"rental_uris":{"android":"levelo://app?vid=ad5d9763-da45-4d5a-88f0-26ead3d072d4","ios":"levelo://app?vid=ad5d9763-da45-4d5a-88f0-26ead3d072d4"},"vehicle_type_id":"4","last_reported":1698343746,"current_range_meters":24800,"station_id":"ce4bhnh2rcd13ifvqgtg","pricing_plan_id":"free"},{"bike_id":"26e3f933-2a8e-4df1-b73c-69afc6c1a14e","system_id":"levelo_inurba_marseille","lat":43.278128,"lon":5.407195,"is_reserved":false,"is_disabled":false,"rental_uris":{"android":"levelo://app?vid=26e3f933-2a8e-4df1-b73c-69afc6c1a14e","ios":"levelo://app?vid=26e3f933-2a8e-4df1-b73c-69afc6c1a14e"},"vehicle_type_id":"4","last_reported":1698343746,"current_range_meters":13600,"station_id":"ce4bhnh2rcd13ifvqgtg","pricing_plan_id":"free"},{"bike_id":"482354aa-71b1-4646-abe5-563e836202a0","system_id":"levelo_inurba_marseille","lat":43.269467,"lon":5.386439,"is_reserved":false,"is_disabled":false,"rental_uris":{"android":"levelo://app?vid=482354aa-71b1-4646-abe5-563e836202a0","ios":"levelo://app?vid=482354aa-71b1-4646-abe5-563e836202a0"},"vehicle_type_id":"4","last_reported":1698343746,"current_range_meters":14800,"station_id":"ce4bhh92rcd13ifvqfh0","pricing_plan_id":"free"},{"bike_id":"eae2816a-638f-4189-b251-93c38b445211","system_id":"levelo_inurba_marseille","lat":43.26949,"lon":5.38639,"is_reserved":false,"is_disabled":false,"rental_uris":{"android":"levelo://app?vid=eae2816a-638f-4189-b251-93c38b445211","ios":"levelo://app?vid=eae2816a-638f-4189-b251-93c38b445211"},"vehicle_type_id":"4","last_reported":1698343746,"current_range_meters":0,"station_id":"ce4bhh92rcd13ifvqfh0","pricing_plan_id":"free"},{"bike_id":"891e1734-0f2b-4304-8bd4-989a6a3bbdb4","system_id":"levelo_inurba_marseille","lat":43.279465,"lon":5.410561,"is_reserved":false,"is_disabled":false,"rental_uris":{"android":"levelo://app?vid=891e1734-0f2b-4304-8bd4-989a6a3bbdb4","ios":"levelo://app?vid=891e1734-0f2b-4304-8bd4-989a6a3bbdb4"},"vehicle_type_id":"4","last_reported":1698343746,"current_range_meters":8400,"station_id":"ce4bhnp2rcd13ifvqh0g","pricing_plan_id":"free"},{"bike_id":"66a46cce-2509-423f-8e36-ccbf8c1330ab","system_id":"levelo_inurba_marseille","lat":43.269319,"lon":5.389397,"is_reserved":false,"is_disabled":false,"rental_uris":{"android":"levelo://app?vid=66a46cce-2509-423f-8e36-ccbf8c1330ab","ios":"levelo://app?vid=66a46cce-2509-423f-8e36-ccbf8c1330ab"},"vehicle_type_id":"4","last_reported":1698343746,"current_range_meters":18400,"station_id":"ce4bhhh2rcd13ifvqfl0","pricing_plan_id":"free"},{"bike_id":"116a014a-36a6-4c1e-b761-b0a06b125cbb","system_id":"levelo_inurba_marseille","lat":43.26681,"lon":5.382694,"is_reserved":false,"is_disabled":false,"rental_uris":{"android":"levelo://app?vid=116a014a-36a6-4c1e-b761-b0a06b125cbb","ios":"levelo://app?vid=116a014a-36a6-4c1e-b761-b0a06b125cbb"},