{"last_updated":1707077225,"ttl":30,"version":"2.2","data":{"bikes":[{"bike_id":"9bc4c218-3b42-4255-89f4-7740be8a3655","system_id":"levelo_inurba_marseille","lat":43.312239,"lon":5.368562,"is_reserved":false,"is_disabled":false,"rental_uris":{"android":"levelo://app?vid=9bc4c218-3b42-4255-89f4-7740be8a3655","ios":"levelo://app?vid=9bc4c218-3b42-4255-89f4-7740be8a3655"},"vehicle_type_id":"4","last_reported":1707077226,"current_range_meters":2000,"station_id":"ce4bgl92rcd13ifvqbq0","pricing_plan_id":"free"},{"bike_id":"26607346-b866-4746-8b45-7f6e4ce3ae56","system_id":"levelo_inurba_marseille","lat":43.312239,"lon":5.368562,"is_reserved":false,"is_disabled":false,"rental_uris":{"android":"levelo://app?vid=26607346-b866-4746-8b45-7f6e4ce3ae56","ios":"levelo://app?vid=26607346-b866-4746-8b45-7f6e4ce3ae56"},"vehicle_type_id":"4","last_reported":1707077226,"current_range_meters":6400,"station_id":"ce4bgl92rcd13ifvqbq0","pricing_plan_id":"free"},{"bike_id":"f4989a08-12e9-4815-ad8f-c2fc6d1e567e","system_id":"levelo_inurba_marseille","lat":43.309076,"lon":5.368465,"is_reserved":false,"is_disabled":false,"rental_uris":{"android":"levelo://app?vid=f4989a08-12e9-4815-ad8f-c2fc6d1e567e","ios":"levelo://app?vid=f4989a08-12e9-4815-ad8f-c2fc6d1e567e"},"vehicle_type_id":"4","last_reported":1707077226,"current_range_meters":10800,"station_id":"ce4bgn92rcd13ifvqbvg","pricing_plan_id":"free"},{"bike_id":"d2993481-43f5-4465-8f8e-2996061a8e13","system_id":"levelo_inurba_marseille","lat":43.309076,"lon":5.368465,"is_reserved":false,"is_disabled":false,"rental_uris":{"android":"levelo://app?vid=d2993481-43f5-4465-8f8e-2996061a8e13","ios":"levelo://app?vid=d2993481-43f5-4465-8f8e-2996061a8e13"},"vehicle_type_id":"4","last_reported":1707077226,"current_range_meters":3200,"station_id":"ce4bgn92rcd13ifvqbvg","pricing_plan_id":"free"},{"bike_id":"20c51132-7ead-4088-9f0e-af0214de56be","system_id":"levelo_inurba_marseille","lat":43.314811,"lon":5.373103,"is_reserved":false,"is_disabled":false,"rental_uris":{"android":"levelo://app?vid=20c51132-7ead-4088-9f0e-af0214de56be","ios":"levelo://app?vid=20c51132-7ead-4088-9f0e-af0214de56be"},"vehicle_type_id":"4","last_reported":1707077226,"current_range_meters":19200,"station_id":"ce4bgt12rcd13ifvqcd0","pricing_plan_id":"free"},{"bike_id":"4c25caa4-573d-4b12-9066-5142f803813d","system_id":"levelo_inurba_marseille","lat":43.3089,"lon":5.37184,"is_reserved":false,"is_disabled":false,"rental_uris":{"android":"levelo://app?vid=4c25caa4-573d-4b12-9066-5142f803813d","ios":"levelo://app?vid=4c25caa4-573d-4b12-9066-5142f803813d"},"vehicle_type_id":"4","last_reported":1707077226,"current_range_meters":22000,"station_id":"ce4bguh2rcd13ifvqckg","pricing_plan_id":"free"},{"bike_id":"ef755315-c283-4045-851b-bbf39cf7b7e8","system_id":"levelo_inurba_marseille","lat":43.309039,"lon":5.371797,"is_reserved":false,"is_disabled":false,"rental_uris":{"android":"levelo://app?vid=ef755315-c283-4045-851b-bbf39cf7b7e8","ios":"levelo://app?vid=ef755315-c283-4045-851b-bbf39cf7b7e8"},"vehicle_type_id":"4","last_reported":1707077226,"current_range_meters":27200,"station_id":"ce4bguh2rcd13ifvqckg","pricing_plan_id":"free"},{"bike_id":"3a2412bb-739b-4f4a-9e45-d3e584381306","system_id":"levelo_inurba_marseille","lat":43.306978,"lon":5.373008,"is_reserved":false,"is_disabled":false,"rental_uris":{"android":"levelo://app?vid=3a2412bb-739b-4f4a-9e45-d3e584381306","ios":"levelo://app?vid=3a2412bb-739b-4f4a-9e45-d3e584381306"},"vehicle_type_id":"4","last_reported":1707077226,"current_range_meters":0,"station_id":"","pricing_plan_id":"free"},{"bike_id":"e833d3fc-460a-44d2-be2c-f1dc26f43199","system_id":"levelo_inurba_marseille","lat":43.305368,"lon":5.367343,"is_reserved":false,"is_disabled":false,"rental_uris":{"android":"levelo://app?vid=e833d3fc-460a-44d2-be2c-f1dc26f43199","ios":"levelo://app?vid=e833d3fc-460a-44d2-be2c-f1dc26f43199"},"vehicle_type_id":"4","last_reported":1707077226,"current_range_meters":8400,"station_id":"ce4bgrp2rcd13ifvqc9g","pricing_plan_id":"free"},{"bike_id":"aaca4358-da97-4e97-b6fa-2e35b5bfecac","system_id":"levelo_inurba_marseille","lat":43.305368,"lon":5.367343,"is_reserved":false,"is_disabled":false,"rental_uris":{"android":"levelo://app?vid=aaca4358-da97-4e97-b6fa-2e35b5bfecac","ios":"levelo://app?vid=aaca4358-da97-4e97-b6fa-2e35b5bfecac"},"vehicle_type_id":"4","last_reported":1707077226,"current_range_meters":21200,"station_id":"ce4bgrp2rcd13ifvqc9g","pricing_plan_id":"free"},{"bike_id":"83fe865e-065d-4d49-a3c1-4ea3d58a0a9e","system_id":"levelo_inurba_marseille","lat":43.311131,"lon":5.377651,"is_reserved":false,"is_disabled":false,"rental_uris":{"android":"levelo://app?vid=83fe865e-065d-4d49-a3c1-4ea3d58a0a9e","ios":"levelo://app?vid=83fe865e-065d-4d49-a3c1-4ea3d58a0a9e"},"vehicle_type_id":"4","last_reported":1707077226,"current_range_meters":26400,"station_id":"ce4bgt92rcd13ifvqcg0","pricing_plan_id":"free"},{"bike_id":"79fea6c1-9fdd-4910-b43e-a1e017de0635","system_id":"levelo_inurba_marseille","lat":43.311131,"lon":5.377651,"is_reserved":false,"is_disabled":false,"rental_uris":{"android":"levelo://app?vid=79fea6c1-9fdd-4910-b43e-a1e017de0635","ios":"levelo://app?vid=79fea6c1-9fdd-4910-b43e-a1e017de0635"},"vehicle_type_id":"4","last_reported":1707077226,"current_range_meters":25600,"station_id":"ce4bgt92rcd13ifvqcg0","pricing_plan_id":"free"},{"bike_id":"c60e7252-bcc2-4201-a624-aec62d3d6b5d","system_id":"levelo_inurba_marseille","lat":43.316473,"lon":5.376847,"is_reserved":false,"is_disabled":false,"rental_uris":{"android":"levelo://app?vid=c60e7252-bcc2-4201-a624-aec62d3d6b5d","ios":"levelo://app?vid=c60e7252-bcc2-4201-a624-aec62d3d6b5d"},"vehicle_type_id":"4","last_reported":1707077226,"current_range_meters":800,"station_id":"","pricing_plan_id":"free"},{"bike_id":"2800570c-d820-4437-b3b6-6ab1549f6fb6","system_id":"levelo_inurba_marseille","lat":43.307945,"lon":5.376487,"is_reserved":false,"is_disabled":false,"rental_uris":{"android":"levelo://app?vid=2800570c-d820-4437-b3b6-6ab1549f6fb6","ios":"levelo://app?vid=2800570c-d820-4437-b3b6-6ab1549f6fb6"},"vehicle_type_id":"4","last_reported":1707077226,"current_range_meters":6800,"station_id":"ce4bgv92rcd13ifvqcq0","pricing_plan_id":"free"},{"bike_id":"0ef47422-aed9-4612-bf70-7d4b2c3bc7f0","system_id":"levelo_inurba_marseille","lat":43.317075,"lon":5.377367,"is_reserved":false,"is_disabled":false,"rental_uris":{"android":"levelo://app?vid=0ef47422-aed9-4612-bf70-7d4b2c3bc7f0","ios":"levelo://app?vid=0ef47422-aed9-4612-bf70-7d4b2c3bc7f0"},"vehicle_type_id":"4","last_reported":1707077226,"current_range_meters":30000,"station_id":"ce4bgth2rcd13ifvqch0","pricing_plan_id":"free"},{"bike_id":"481e547a-96e3-403a-a376-e43994032a97","system_id":"levelo_inurba_marseille","lat":43.317075,"lon":5.377367,"is_reserved":false,"is_disabled":false,"rental_uris":{"android":"levelo://app?vid=481e547a-96e3-403a-a376-e43994032a97","ios":"levelo://app?vid=481e547a-96e3-403a-a376-e43994032a97"},"vehicle_type_id":"4","last_reported":1707077226,"current_range_meters":31200,"station_id":"ce4bgth2rcd13ifvqch0","pricing_plan_id":"free"},{"bike_id":"826edee1-75c7-49c7-9655-88d2de7300c0","system_id":"levelo_inurba_marseille","lat":43.303046,"lon":5.368981,"is_reserved":false,"is_disabled":false,"rental_uris":{"android":"levelo://app?vid=826edee1-75c7-49c7-9655-88d2de7300c0","ios":"levelo://app?vid=826edee1-75c7-49c7-9655-88d2de7300c0"},"vehicle_type_id":"4","last_reported":1707077226,"current_range_meters":23200,"station_id":"ce4bgqh2rcd13ifvqc5g","pricing_plan_id":"free"},{"bike_id":"7a76e878-277a-4c66-96f1-2783c3273012","system_id":"levelo_inurba_marseille","lat":43.301939,"lon":5.366286,"is_reserved":false,"is_disabled":false,"rental_uris":{"android":"levelo://app?vid=7a76e878-277a-4c66-96f1-2783c3273012","ios":"levelo://app?vid=7a76e878-277a-4c66-96f1-2783c3273012"},"vehicle_type_id":"4","last_reported":1707077226,"current_range_meters":27200,"station_id":"ce4bgrh2rcd13ifvqc8g","pricing_plan_id":"free"},{"bike_id":"8df72105-e62a-4f52-bae3-fae23bad52f9","system_id":"levelo_inurba_marseille","lat":43.308012,"lon":5.381511,"is_reserved":false,"is_disabled":false,"rental_uris":{"android":"levelo://app?vid=8df72105-e62a-4f52-bae3-fae23bad52f9","ios":"levelo://app?vid=8df72105-e62a-4f52-bae3-fae23bad52f9"},"vehicle_type_id":"4","last_reported":1707077226,"current_range_meters":0,"station_id":"ce4bgt12rcd13ifvqce0","pricing_plan_id":"free"},{"bike_id":"d9f4a6e3-f8ac-4d38-b4ba-32f923ed8656","system_id":"levelo_inurba_marseille","lat":43.30456,"lon":5.37898,"is_reserved":false,"is_disabled":false,"rental_uris":{"android":"levelo://app?vid=d9f4a6e3-f8ac-4d38-b4ba-32f923ed8656","ios":"levelo://app?vid=d9f4a6e3-f8ac-4d38-b4ba-32f923ed8656"},"vehicle_type_id":"4","last_reported":1707077226,"current_range_meters":7600,"station_id":"ce4bgup2rcd13ifvqcn0","pricing_plan_id":"free"},{"bike_id":"d857196a-a759-4aba-9437-ba57d1dceab9","system_id":"levelo_inurba_marseille","lat":43.324771,"lon":5.36557,"is_reserved":false,"is_disabled":false,"rental_uris":{"android":"levelo://app?vid=d857196a-a759-4aba-9437-ba57d1dceab9","ios":"levelo://app?vid=d857196a-a759-4aba-9437-ba57d1dceab9"},"vehicle_type_id":"4","last_reported":1707077226,"current_range_meters":0,"station_id":"ce4bhs12rcd13ifvqhvg","pricing_plan_id":"free"},{"bike_id":"a211890a-8784-45e7-a2a7-0247d172eb29","system_id":"levelo_inurba_marseille","lat":43.324771,"lon":5.36557,"is_reserved":false,"is_disabled":false,"rental_uris":{"android":"levelo://app?vid=a211890a-8784-45e7-a2a7-0247d172eb29","ios":"levelo://app?vid=a211890a-8784-45e7-a2a7-0247d172eb29"},"vehicle_type_id":"4","last_reported":1707077226,"current_range_meters":13200,"station_id":"ce4bhs12rcd13ifvqhvg","pricing_plan_id":"free"},{"bike_id":"bc974708-dcbd-4a8a-ac0d-164e8d7c65dc","system_id":"levelo_inurba_marseille","lat":43.32481,"lon":5.36554,"is_reserved":false,"is_disabled":false,"rental_uris":{"android":"levelo://app?vid=bc974708-dcbd-4a8a-ac0d-164e8d7c65dc","ios":"levelo://app?vid=bc974708-dcbd-4a8a-ac0d-164e8d7c65dc"},"vehicle_type_id":"4","last_reported":1707077226,"current_range_meters":20800,"station_id":"ce4bhs12rcd13ifvqhvg","pricing_plan_id":"free"},{"bike_id":"ed525504-c6e4-4dcb-afab-b1d02cda983b","system_id":"levelo_inurba_marseille","lat":43.31067,"lon":5.38343,"is_reserved":false,"is_disabled":false,"rental_uris":{"android":"levelo://app?vid=ed525504-c6e4-4dcb-afab-b1d02cda983b","ios":"levelo://app?vid=ed525504-c6e4-4dcb-afab-b1d02cda983b"},"vehicle_type_id":"4","last_reported":1707077226,"current_range_meters":0,"station_id":"ce4bgv92rcd13ifvqcr0","pricing_plan_id":"free"},{"bike_id":"e5b1e6f4-6e5c-4e56-a9b6-0cb3295df5d3","system_id":"levelo_inurba_marseille","lat":43.31078,"lon":5.383457,"is_reserved":false,"is_disabled":false,"rental_uris":{"android":"levelo://app?vid=e5b1e6f4-6e5c-4e56-a9b6-0cb3295df5d3","ios":"levelo://app?vid=e5b1e6f4-6e5c-4e56-a9b6-0cb3295df5d3"},"vehicle_type_id":"4","last_reported":1707077226,"current_range_meters":4000,"station_id":"ce4bgv92rcd13ifvqcr0","pricing_plan_id":"free"},{"bike_id":"5f4c3d0a-4450-449f-8cc9-752e1c69fa77","system_id":"levelo_inurba_marseille","lat":43.310757,"lon":5.383463,"is_reserved":false,"is_disabled":false,"rental_uris":{"android":"levelo://app?vid=5f4c3d0a-4450-449f-8cc9-752e1c69fa77","ios":"levelo://app?vid=5f4c3d0a-4450-449f-8cc9-752e1c69fa77"},"vehicle_type_id":"4","last_reported":1707077226,"current_range_meters":6000,"station_id":"ce4bgv92rcd13ifvqcr0","pricing_plan_id":"free"},{"bike_id":"cc1f1f55-cfe9-4d66-88ed-570dd139ade7","system_id":"levelo_inurba_marseille","lat":43.324907,"lon":5.365734,"is_reserved":false,"is_disabled":false,"rental_uris":{"android":"levelo://app?vid=cc1f1f55-cfe9-4d66-88ed-570dd139ade7","ios":"levelo://app?vid=cc1f1f55-cfe9-4d66-88ed-570dd139ade7"},"vehicle_type_id":"4","last_reported":1707077226,"current_range_meters":3600,"station_id":"ce4bhs12rcd13ifvqhvg","pricing_plan_id":"free"},{"bike_id":"e24f2181-fda1-4bc6-9c11-f93b67281b8f","system_id":"levelo_inurba_marseille","lat":43.31071,"lon":5.38346,"is_reserved":false,"is_disabled":false,"rental_uris":{"android":"levelo://app?vid=e24f2181-fda1-4bc6-9c11-f93b67281b8f","ios":"levelo://app?vid=e24f2181-fda1-4bc6-9c11-f93b67281b8f"},"vehicle_type_id":"4","last_reported":1707077226,"current_range_meters":8800,"station_id":"ce4bgv92rcd13ifvqcr0","pricing_plan_id":"free"},{"bike_id":"7ab3f1c0-5e1f-4d1c-9104-38b168e3a08c","system_id":"levelo_inurba_marseille","lat":43.31073,"lon":5.38348,"is_reserved":false,"is_disabled":false,"rental_uris":{"android":"levelo://app?vid=7ab3f1c0-5e1f-4d1c-9104-38b168e3a08c","ios":"levelo://app?vid=7ab3f1c0-5e1f-4d1c-9104-38b168e3a08c"},"vehicle_type_id":"4","last_reported":1707077226,"current_range_meters":2800,"station_id":"ce4bgv92rcd13ifvqcr0","pricing_plan_id":"free"},{"bike_id":"41f36db4-ce90-4ac0-910f-db7d977875b4","system_id":"levelo_inurba_marseille","lat":43.31067,"lon":5.38349,"is_reserved":false,"is_disabled":false,"rental_uris":{"android":"levelo://app?vid=41f36db4-ce90-4ac0-910f-db7d977875b4","ios":"levelo://app?vid=41f36db4-ce90-4ac0-910f-db7d977875b4"},"vehicle_type_id":"4","last_reported":1707077226,"current_range_meters":0,"station_id":"ce4bgv92rcd13ifvqcr0","pricing_plan_id":"free"},{"bike_id":"0ca91c92-c7c2-4055-bf1b-07d2914cf37b","system_id":"levelo_inurba_marseille","lat":43.31077,"lon":5.38353,"is_reserved":false,"is_disabled":false,"rental_uris":{"android":"levelo://app?vid=0ca91c92-c7c2-4055-bf1b-07d2914cf37b","ios":"levelo://app?vid=0ca91c92-c7c2-4055-bf1b-07d2914cf37b"},"vehicle_type_id":"4","last_reported":1707077226,"current_range_meters":28000,"station_id":"ce4bgv92rcd13ifvqcr0","pricing_plan_id":"free"},{"bike_id":"5de8a454-050f-49f2-ac40-81f654e7671e","system_id":"levelo_inurba_marseille","lat":43.31073,"lon":5.38356,"is_reserved":false,"is_disabled":false,"rental_uris":{"android":"levelo://app?vid=5de8a454-050f-49f2-ac40-81f654e7671e","ios":"levelo://app?vid=5de8a454-050f-49f2-ac40-81f654e7671e"},"vehicle_type_id":"4","last_reported":1707077226,"current_range_meters":9600,"station_id":"ce4bgv92rcd13ifvqcr0","pricing_plan_id":"free"},{"bike_id":"f3cf5a27-dedf-4953-9170-31e366c331b1","system_id":"levelo_inurba_marseille","lat":43.31073,"lon":5.38358,"is_reserved":false,"is_disabled":false,"rental_uris":{"android":"levelo://app?vid=f3cf5a27-dedf-4953-9170-31e366c331b1","ios":"levelo://app?vid=f3cf5a27-dedf-4953-9170-31e366c331b1"},"vehicle_type_id":"4","last_reported":1707077226,"current_range_meters":16400,"station_id":"ce4bgv92rcd13ifvqcr0","pricing_plan_id":"free"},{"bike_id":"6cd5e01f-64b2-499f-b7b3-fe09456ae19d","system_id":"levelo_inurba_marseille","lat":43.3107,"lon":5.38362,"is_reserved":false,"is_disabled":false,"rental_uris":{"android":"levelo://app?vid=6cd5e01f-64b2-499f-b7b3-fe09456ae19d","ios":"levelo://app?vid=6cd5e01f-64b2-499f-b7b3-fe09456ae19d"},"vehicle_type_id":"4","last_reported":1707077226,"current_range_meters":10400,"station_id":"ce4bgv92rcd13ifvqcr0","pricing_plan_id":"free"},{"bike_id":"6f8ec78c-9bd1-4f3b-89a5-c44bb1635d4c","system_id":"levelo_inurba_marseille","lat":43.30135,"lon":5.37423,"is_reserved":false,"is_disabled":false,"rental_uris":{"android":"levelo://app?vid=6f8ec78c-9bd1-4f3b-89a5-c44bb1635d4c","ios":"levelo://app?vid=6f8ec78c-9bd1-4f3b-89a5-c44bb1635d4c"},"vehicle_type_id":"4","last_reported":1707077226,"current_range_meters":19200,"station_id":"ce4bgs92rcd13ifvqcc0","pricing_plan_id":"free"},{"bike_id":"f4722360-683c-4330-a41f-ae15de548a95","system_id":"levelo_inurba_marseille","lat":43.319935,"lon":5.381699,"is_reserved":false,"is_disabled":false,"rental_uris":{"android":"levelo://app?vid=f4722360-683c-4330-a41f-ae15de548a95","ios":"levelo://app?vid=f4722360-683c-4330-a41f-ae15de548a95"},"vehicle_type_id":"4","last_reported":1707077226,"current_range_meters":28800,"station_id":"ce4bhr12rcd13ifvqhpg","pricing_plan_id":"free"},{"bike_id":"8b9b37e5-bd91-4441-a7a4-b3f06bf9b063","system_id":"levelo_inurba_marseille","lat":43.299724,"lon":5.371829,"is_reserved":false,"is_disabled":false,"rental_uris":{"android":"levelo://app?vid=8b9b37e5-bd91-4441-a7a4-b3f06bf9b063","ios":"levelo://app?vid=8b9b37e5-bd91-4441-a7a4-b3f06bf9b063"},"vehicle_type_id":"4","last_reported":1707077226,"current_range_meters":0,"station_id":"ce4bgr92rcd13ifvqc7g","pricing_plan_id":"free"},{"bike_id":"ccd1e297-d857-45d3-a6b4-39d676e94440","system_id":"levelo_inurba_marseille","lat":43.299724,"lon":5.371829,"is_reserved":false,"is_disabled":false,"rental_uris":{"android":"levelo://app?vid=ccd1e297-d857-45d3-a6b4-39d676e94440","ios":"levelo://app?vid=ccd1e297-d857-45d3-a6b4-39d676e94440"},"vehicle_type_id":"4","last_reported":1707077226,"current_range_meters":31200,"station_id":"ce4bgr92rcd13ifvqc7g","pricing_plan_id":"free"},{"bike_id":"d73908e2-2bfd-489b-804e-d4e95fac72d2","system_id":"levelo_inurba_marseille","lat":43.326525,"lon":5.36078,"is_reserved":false,"is_disabled":false,"rental_uris":{"android":"levelo://app?vid=d73908e2-2bfd-489b-804e-d4e95fac72d2","ios":"levelo://app?vid=d73908e2-2bfd-489b-804e-d4e95fac72d2"},"vehicle_type_id":"4","last_reported":1707077226,"current_range_meters":21200,"station_id":"","pricing_plan_id":"free"},{"bike_id":"2185039a-2e44-4ea4-a511-68f38d8b40c6","system_id":"levelo_inurba_marseille","lat":43.298433,"lon":5.362774,"is_reserved":false,"is_disabled":false,"rental_uris":{"android":"levelo://app?vid=2185039a-2e44-4ea4-a511-68f38d8b40c6","ios":"levelo://app?vid=2185039a-2e44-4ea4-a511-68f38d8b40c6"},"vehicle_type_id":"4","last_reported":1707077226,"current_range_meters":12800,"station_id":"ce4bgpp2rcd13ifvqc3g","pricing_plan_id":"free"},{"bike_id":"16fbaaea-ed09-493b-9f14-4042a5c4e78c","system_id":"levelo_inurba_marseille","lat":43.305364,"lon":5.384119,"is_reserved":false,"is_disabled":false,"rental_uris":{"android":"levelo://app?vid=16fbaaea-ed09-493b-9f14-4042a5c4e78c","ios":"levelo://app?vid=16fbaaea-ed09-493b-9f14-4042a5c4e78c"},"vehicle_type_id":"4","last_reported":1707077226,"current_range_meters":0,"station_id":"ce4bgg92rcd13ifvqb30","pricing_plan_id":"free"},{"bike_id":"d209d8da-d06b-4393-8567-886a91da488b","system_id":"levelo_inurba_marseille","lat":43.299243,"lon":5.37481,"is_reserved":false,"is_disabled":false,"rental_uris":{"android":"levelo://app?vid=d209d8da-d06b-4393-8567-886a91da488b","ios":"levelo://app?vid=d209d8da-d06b-4393-8567-886a91da488b"},"vehicle_type_id":"4","last_reported":1707077226,"current_range_meters":13200,"station_id":"ce4bgjh2rcd13ifvqbg0","pricing_plan_id":"free"},{"bike_id":"d253abdd-3c81-4bb3-8bf8-ba89284f8d72","system_id":"levelo_inurba_marseille","lat":43.31166,"lon":5.38715,"is_reserved":false,"is_disabled":false,"rental_uris":{"android":"levelo://app?vid=d253abdd-3c81-4bb3-8bf8-ba89284f8d72","ios":"levelo://app?vid=d253abdd-3c81-4bb3-8bf8-ba89284f8d72"},"vehicle_type_id":"4","last_reported":1707077226,"current_range_meters":28000,"station_id":"ce4bgv12rcd13ifvqcp0","pricing_plan_id":"free"},{"bike_id":"dda919da-b4cd-4a9f-a180-9e8be61d124e","system_id":"levelo_inurba_marseille","lat":43.322872,"lon":5.382756,"is_reserved":false,"is_disabled":false,"rental_uris":{"android":"levelo://app?vid=dda919da-b4cd-4a9f-a180-9e8be61d124e","ios":"levelo://app?vid=dda919da-b4cd-4a9f-a180-9e8be61d124e"},"vehicle_type_id":"4","last_reported":1707077226,"current_range_meters":20000,"station_id":"ce4bhr12rcd13ifvqhqg","pricing_plan_id":"free"},{"bike_id":"8b023912-5267-4e1c-a403-4d70b425cebe","system_id":"levelo_inurba_marseille","lat":43.322872,"lon":5.382756,"is_reserved":false,"is_disabled":false,"rental_uris":{"android":"levelo://app?vid=8b023912-5267-4e1c-a403-4d70b425cebe","ios":"levelo://app?vid=8b023912-5267-4e1c-a403-4d70b425cebe"},"vehicle_type_id":"4","last_reported":1707077226,"current_range_meters":30400,"station_id":"ce4bhr12rcd13ifvqhqg","pricing_plan_id":"free"},{"bike_id":"5c6c02f4-664b-4898-bf3f-0e1b2ccd9983","system_id":"levelo_inurba_marseille","lat":43.32823,"lon":5.3667,"is_reserved":false,"is_disabled":false,"rental_uris":{"android":"levelo://app?vid=5c6c02f4-664b-4898-bf3f-0e1b2ccd9983","ios":"levelo://app?vid=5c6c02f4-664b-4898-bf3f-0e1b2ccd9983"},"vehicle_type_id":"4","last_reported":1707077226,"current_range_meters":31200,"station_id":"ce4bhs92rcd13ifvqi0g","pricing_plan_id":"free"},{"bike_id":"1900e2ea-9239-49b1-933e-57903fa99707","system_id":"levelo_inurba_marseille","lat":43.32826,"lon":5.36695,"is_reserved":false,"is_disabled":false,"rental_uris":{"android":"levelo://app?vid=1900e2ea-9239-49b1-933e-57903fa99707","ios":"levelo://app?vid=1900e2ea-9239-49b1-933e-57903fa99707"},"vehicle_type_id":"4","last_reported":1707077226,"current_range_meters":10000,"station_id":"ce4bhs92rcd13ifvqi0g","pricing_plan_id":"free"},{"bike_id":"536f5307-f798-4ec9-86a8-2c183333a95a","system_id":"levelo_inurba_marseille","lat":43.328371,"lon":5.366909,"is_reserved":false,"is_disabled":false,"rental_uris":{"android":"levelo://app?vid=536f5307-f798-4ec9-86a8-2c183333a95a","ios":"levelo://app?vid=536f5307-f798-4ec9-86a8-2c183333a95a"},"vehicle_type_id":"4","last_reported":1707077226,"current_range_meters":12400,"station_id":"ce4bhs92rcd13ifvqi0g","pricing_plan_id":"free"},{"bike_id":"1ec757fb-b9a7-4bdb-a196-50c144d1eb23","system_id":"levelo_inurba_marseille","lat":43.32829,"lon":5.36682,"is_reserved":false,"is_disabled":false,"rental_uris":{"android":"levelo://app?vid=1ec757fb-b9a7-4bdb-a196-50c144d1eb23","ios":"levelo://app?vid=1ec757fb-b9a7-4bdb-a196-50c144d1eb23"},"vehicle_type_id":"4","last_reported":1707077226,"current_range_meters":31200,"station_id":"ce4bhs92rcd13ifvqi0g","pricing_plan_id":"free"},{"bike_id":"0c67a4c0-65a3-4545-98f1-5ee9ddb7f5c7","system_id":"levelo_inurba_marseille","lat":43.328371,"lon":5.366909,"is_reserved":false,"is_disabled":false,"rental_uris":{"android":"levelo://app?vid=0c67a4c0-65a3-4545-98f1-5ee9ddb7f5c7","ios":"levelo://app?vid=0c67a4c0-65a3-4545-98f1-5ee9ddb7f5c7"},"vehicle_type_id":"4","last_reported":1707077226,"current_range_meters":30000,"station_id":"ce4bhs92rcd13ifvqi0g","pricing_plan_id":"free"},{"bike_id":"9b381c3f-d7f9-4eca-96d9-86d5e08fed3a","system_id":"levelo_inurba_marseille","lat":43.297163,"lon":5.365866,"is_reserved":false,"is_disabled":false,"rental_uris":{"android":"levelo://app?vid=9b381c3f-d7f9-4eca-96d9-86d5e08fed3a","ios":"levelo://app?vid=9b381c3f-d7f9-4eca-96d9-86d5e08fed3a"},"vehicle_type_id":"4","last_reported":1707077226,"current_range_meters":26000,"station_id":"ce4bgn12rcd13ifvqbt0","pricing_plan_id":"free"},{"bike_id":"8bea6ee2-bb12-4611-84ff-9527b54da0c8","system_id":"levelo_inurba_marseille","lat":43.29666,"lon":5.36796,"is_reserved":false,"is_disabled":false,"rental_uris":{"android":"levelo://app?vid=8bea6ee2-bb12-4611-84ff-9527b54da0c8","ios":"levelo://app?vid=8bea6ee2-bb12-4611-84ff-9527b54da0c8"},"vehicle_type_id":"4","last_reported":1707077226,"current_range_meters":27600,"station_id":"","pricing_plan_id":"free"},{"bike_id":"27587aa3-88c3-4080-a123-81e53f7ba500","system_id":"levelo_inurba_marseille","lat":43.29573,"lon":5.367355,"is_reserved":false,"is_disabled":false,"rental_uris":{"android":"levelo://app?vid=27587aa3-88c3-4080-a123-81e53f7ba500","ios":"levelo://app?vid=27587aa3-88c3-4080-a123-81e53f7ba500"},"vehicle_type_id":"4","last_reported":1707077226,"current_range_meters":31200,"station_id":"ce4bgph2rcd13ifvqc2g","pricing_plan_id":"free"},{"bike_id":"62d378d5-0f8f-451a-83e1-03606cdd4bf8","system_id":"levelo_inurba_marseille","lat":43.29573,"lon":5.367355,"is_reserved":false,"is_disabled":false,"rental_uris":{"android":"levelo://app?vid=62d378d5-0f8f-451a-83e1-03606cdd4bf8","ios":"levelo://app?vid=62d378d5-0f8f-451a-83e1-03606cdd4bf8"},"vehicle_type_id":"4","last_reported":1707077226,"current_range_meters":7200,"station_id":"ce4bgph2rcd13ifvqc2g","pricing_plan_id":"free"},{"bike_id":"11797203-6594-4d90-a7e8-818eb25439db","system_id":"levelo_inurba_marseille","lat":43.296921,"lon":5.376579,"is_reserved":false,"is_disabled":false,"rental_uris":{"android":"levelo://app?vid=11797203-6594-4d90-a7e8-818eb25439db","ios":"levelo://app?vid=11797203-6594-4d90-a7e8-818eb25439db"},"vehicle_type_id":"4","last_reported":1707077226,"current_range_meters":0,"station_id":"ce4bgkh2rcd13ifvqbl0","pricing_plan_id":"free"},{"bike_id":"5667a9b8-2b04-44cd-a729-68a187e8e579","system_id":"levelo_inurba_marseille","lat":43.317557,"lon":5.390173,"is_reserved":false,"is_disabled":false,"rental_uris":{"android":"levelo://app?vid=5667a9b8-2b04-44cd-a729-68a187e8e579","ios":"levelo://app?vid=5667a9b8-2b04-44cd-a729-68a187e8e579"},"vehicle_type_id":"4","last_reported":1707077226,"current_range_meters":19200,"station_id":"ce4bhqp2rcd13ifvqhng","pricing_plan_id":"free"},{"bike_id":"2a286b63-3c4a-4893-8f11-dd6a58a41ee4","system_id":"levelo_inurba_marseille","lat":43.31758,"lon":5.3902,"is_reserved":false,"is_disabled":false,"rental_uris":{"android":"levelo://app?vid=2a286b63-3c4a-4893-8f11-dd6a58a41ee4","ios":"levelo://app?vid=2a286b63-3c4a-4893-8f11-dd6a58a41ee4"},"vehicle_type_id":"4","last_reported":1707077226,"current_range_meters":9600,"station_id":"ce4bhqp2rcd13ifvqhng","pricing_plan_id":"free"},{"bike_id":"1033b78d-f901-4cfa-8cae-54cb1e173be4","system_id":"levelo_inurba_marseille","lat":43.317557,"lon":5.390173,"is_reserved":false,"is_disabled":false,"rental_uris":{"android":"levelo://app?vid=1033b78d-f901-4cfa-8cae-54cb1e173be4","ios":"levelo://app?vid=1033b78d-f901-4cfa-8cae-54cb1e173be4"},"vehicle_type_id":"4","last_reported":1707077226,"current_range_meters":29600,"station_id":"ce4bhqp2rcd13ifvqhng","pricing_plan_id":"free"},{"bike_id":"40a85205-af79-43c2-bdc9-257280312aae","system_id":"levelo_inurba_marseille","lat":43.317548,"lon":5.39026,"is_reserved":false,"is_disabled":false,"rental_uris":{"android":"levelo://app?vid=40a85205-af79-43c2-bdc9-257280312aae","ios":"levelo://app?vid=40a85205-af79-43c2-bdc9-257280312aae"},"vehicle_type_id":"4","last_reported":1707077226,"current_range_meters":28000,"station_id":"ce4bhqp2rcd13ifvqhng","pricing_plan_id":"free"},{"bike_id":"86eba5ee-3f3e-465e-879d-a26eca611b6f","system_id":"levelo_inurba_marseille","lat":43.318284,"lon":5.390264,"is_reserved":false,"is_disabled":false,"rental_uris":{"android":"levelo://app?vid=86eba5ee-3f3e-465e-879d-a26eca611b6f","ios":"levelo://app?vid=86eba5ee-3f3e-465e-879d-a26eca611b6f"},"vehicle_type_id":"4","last_reported":1707077226,"current_range_meters":16000,"station_id":"","pricing_plan_id":"free"},{"bike_id":"6a8705b9-de70-4086-9427-baa4b2653c8a","system_id":"levelo_inurba_marseille","lat":43.295748,"lon":5.37522,"is_reserved":false,"is_disabled":false,"rental_uris":{"android":"levelo://app?vid=6a8705b9-de70-4086-9427-baa4b2653c8a","ios":"levelo://app?vid=6a8705b9-de70-4086-9427-baa4b2653c8a"},"vehicle_type_id":"4","last_reported":1707077226,"current_range_meters":4800,"station_id":"ce4bgh92rcd13ifvqb50","pricing_plan_id":"free"},{"bike_id":"af366f25-0836-404f-8c03-9e5a3178766f","system_id":"levelo_inurba_marseille","lat":43.304274,"lon":5.388873,"is_reserved":false,"is_disabled":false,"rental_uris":{"android":"levelo://app?vid=af366f25-0836-404f-8c03-9e5a3178766f","ios":"levelo://app?vid=af366f25-0836-404f-8c03-9e5a3178766f"},"vehicle_type_id":"4","last_reported":1707077226,"current_range_meters":20800,"station_id":"ce4bgk12rcd13ifvqbi0","pricing_plan_id":"free"},{"bike_id":"9d47b537-4cf1-47fa-8e9a-f463c359dd0b","system_id":"levelo_inurba_marseille","lat":43.29791,"lon":5.38111,"is_reserved":false,"is_disabled":false,"rental_uris":{"android":"levelo://app?vid=9d47b537-4cf1-47fa-8e9a-f463c359dd0b","ios":"levelo://app?vid=9d47b537-4cf1-47fa-8e9a-f463c359dd0b"},"vehicle_type_id":"4","last_reported":1707077226,"current_range_meters":30000,"station_id":"ce4bgip2rcd13ifvqbb0","pricing_plan_id":"free"},{"bike_id":"6d3e9278-ea73-472b-b29d-c818dc12ed71","system_id":"levelo_inurba_marseille","lat":43.296263,"lon":5.377094,"is_reserved":false,"is_disabled":false,"rental_uris":{"android":"levelo://app?vid=6d3e9278-ea73-472b-b29d-c818dc12ed71","ios":"levelo://app?vid=6d3e9278-ea73-472b-b29d-c818dc12ed71"},"vehicle_type_id":"4","last_reported":1707077226,"current_range_meters":5600,"station_id":"ce4bgi92rcd13ifvqb90","pricing_plan_id":"free"},{"bike_id":"e519857c-b3ea-4d5e-aedf-b5b76a42a572","system_id":"levelo_inurba_marseille","lat":43.296277,"lon":5.377108,"is_reserved":false,"is_disabled":false,"rental_uris":{"android":"levelo://app?vid=e519857c-b3ea-4d5e-aedf-b5b76a42a572","ios":"levelo://app?vid=e519857c-b3ea-4d5e-aedf-b5b76a42a572"},"vehicle_type_id":"4","last_reported":1707077226,"current_range_meters":2000,"station_id":"ce4bgi92rcd13ifvqb90","pricing_plan_id":"free"},{"bike_id":"88302a84-cb5a-4bb2-96a4-6833aecefc2e","system_id":"levelo_inurba_marseille","lat":43.296263,"lon":5.377094,"is_reserved":false,"is_disabled":false,"rental_uris":{"android":"levelo://app?vid=88302a84-cb5a-4bb2-96a4-6833aecefc2e","ios":"levelo://app?vid=88302a84-cb5a-4bb2-96a4-6833aecefc2e"},"vehicle_type_id":"4","last_reported":1707077226,"current_range_meters":1200,"station_id":"ce4bgi92rcd13ifvqb90","pricing_plan_id":"free"},{"bike_id":"01d9b8ac-62f5-4750-b888-51e27ff4eaa5","system_id":"levelo_inurba_marseille","lat":43.296277,"lon":5.377108,"is_reserved":false,"is_disabled":false,"rental_uris":{"android":"levelo://app?vid=01d9b8ac-62f5-4750-b888-51e27ff4eaa5","ios":"levelo://app?vid=01d9b8ac-62f5-4750-b888-51e27ff4eaa5"},"vehicle_type_id":"4","last_reported":1707077226,"current_range_meters":1200,"station_id":"ce4bgi92rcd13ifvqb90","pricing_plan_id":"free"},{"bike_id":"c8b53b2b-5969-4fa1-ba16-53fa60584a80","system_id":"levelo_inurba_marseille","lat":43.295279,"lon":5.375048,"is_reserved":false,"is_disabled":false,"rental_uris":{"android":"levelo://app?vid=c8b53b2b-5969-4fa1-ba16-53fa60584a80","ios":"levelo://app?vid=c8b53b2b-5969-4fa1-ba16-53fa60584a80"},"vehicle_type_id":"4","last_reported":1707077226,"current_range_meters":0,"station_id":"ce4bgkp2rcd13ifvqbmg","pricing_plan_id":"free"},{"bike_id":"d415a066-0394-4652-b874-f876e1b5bae1","system_id":"levelo_inurba_marseille","lat":43.29573,"lon":5.367355,"is_reserved":false,"is_disabled":false,"rental_uris":{"android":"levelo://app?vid=d415a066-0394-4652-b874-f876e1b5bae1","ios":"levelo://app?vid=d415a066-0394-4652-b874-f876e1b5bae1"},"vehicle_type_id":"4","last_reported":1707077226,"current_range_meters":2800,"station_id":"ce4bgph2rcd13ifvqc2g","pricing_plan_id":"free"},{"bike_id":"f459bcc8-96d9-431d-bb45-ce1f50e6d398","system_id":"levelo_inurba_marseille","lat":43.32359,"lon":5.388825,"is_reserved":false,"is_disabled":false,"rental_uris":{"android":"levelo://app?vid=f459bcc8-96d9-431d-bb45-ce1f50e6d398","ios":"levelo://app?vid=f459bcc8-96d9-431d-bb45-ce1f50e6d398"},"vehicle_type_id":"4","last_reported":1707077226,"current_range_meters":1200,"station_id":"ce4bhqp2rcd13ifvqhog","pricing_plan_id":"free"},{"bike_id":"e7a95a5a-7d13-48ff-a856-827ce0771044","system_id":"levelo_inurba_marseille","lat":43.32362,"lon":5.3888,"is_reserved":false,"is_disabled":false,"rental_uris":{"android":"levelo://app?vid=e7a95a5a-7d13-48ff-a856-827ce0771044","ios":"levelo://app?vid=e7a95a5a-7d13-48ff-a856-827ce0771044"},"vehicle_type_id":"4","last_reported":1707077226,"current_range_meters":25200,"station_id":"ce4bhqp2rcd13ifvqhog","pricing_plan_id":"free"},{"bike_id":"999af2fa-7743-40b1-ad5a-09d74cc1efed","system_id":"levelo_inurba_marseille","lat":43.32364,"lon":5.38881,"is_reserved":false,"is_disabled":false,"rental_uris":{"android":"levelo://app?vid=999af2fa-7743-40b1-ad5a-09d74cc1efed","ios":"levelo://app?vid=999af2fa-7743-40b1-ad5a-09d74cc1efed"},"vehicle_type_id":"4","last_reported":1707077226,"current_range_meters":21600,"station_id":"ce4bhqp2rcd13ifvqhog","pricing_plan_id":"free"},{"bike_id":"ee0b2543-3432-41f6-af25-63fb60196ed6","system_id":"levelo_inurba_marseille","lat":43.32367,"lon":5.388836,"is_reserved":false,"is_disabled":false,"rental_uris":{"android":"levelo://app?vid=ee0b2543-3432-41f6-af25-63fb60196ed6","ios":"levelo://app?vid=ee0b2543-3432-41f6-af25-63fb60196ed6"},"vehicle_type_id":"4","last_reported":1707077226,"current_range_meters":4800,"station_id":"ce4bhqp2rcd13ifvqhog","pricing_plan_id":"free"},{"bike_id":"8de15d3c-03c3-4ab0-8d3d-1e33fd14e876","system_id":"levelo_inurba_marseille","lat":43.32367,"lon":5.388836,"is_reserved":false,"is_disabled":false,"rental_uris":{"android":"levelo://app?vid=8de15d3c-03c3-4ab0-8d3d-1e33fd14e876","ios":"levelo://app?vid=8de15d3c-03c3-4ab0-8d3d-1e33fd14e876"},"vehicle_type_id":"4","last_reported":1707077226,"current_range_meters":15200,"station_id":"ce4bhqp2rcd13ifvqhog","pricing_plan_id":"free"},{"bike_id":"1d897582-7d08-407d-99e5-e23e86b81d98","system_id":"levelo_inurba_marseille","lat":43.29602,"lon":5.381084,"is_reserved":false,"is_disabled":false,"rental_uris":{"android":"levelo://app?vid=1d897582-7d08-407d-99e5-e23e86b81d98","ios":"levelo://app?vid=1d897582-7d08-407d-99e5-e23e86b81d98"},"vehicle_type_id":"4","last_reported":1707077226,"current_range_meters":7600,"station_id":"ce4bgl12rcd13ifvqbo0","pricing_plan_id":"free"},{"bike_id":"11b2ff84-0922-45f3-a024-496c98d9bbfe","system_id":"levelo_inurba_marseille","lat":43.29592,"lon":5.38099,"is_reserved":false,"is_disabled":false,"rental_uris":{"android":"levelo://app?vid=11b2ff84-0922-45f3-a024-496c98d9bbfe","ios":"levelo://app?vid=11b2ff84-0922-45f3-a024-496c98d9bbfe"},"vehicle_type_id":"4","last_reported":1707077226,"current_range_meters":0,"station_id":"ce4bgl12rcd13ifvqbo0","pricing_plan_id":"free"},{"bike_id":"81548712-9e13-4824-b6c8-8dfe8dcee892","system_id":"levelo_inurba_marseille","lat":43.29306,"lon":5.37175,"is_reserved":false,"is_disabled":false,"rental_uris":{"android":"levelo://app?vid=81548712-9e13-4824-b6c8-8dfe8dcee892","ios":"levelo://app?vid=81548712-9e13-4824-b6c8-8dfe8dcee892"},"vehicle_type_id":"4","last_reported":1707077226,"current_range_meters":16400,"station_id":"ce4bgh92rcd13ifvqb40","pricing_plan_id":"free"},{"bike_id":"c9a72e1d-b041-456e-8c9e-114260879762","system_id":"levelo_inurba_marseille","lat":43.29274,"lon":5.36838,"is_reserved":false,"is_disabled":false,"rental_uris":{"android":"levelo://app?vid=c9a72e1d-b041-456e-8c9e-114260879762","ios":"levelo://app?vid=c9a72e1d-b041-456e-8c9e-114260879762"},"vehicle_type_id":"4","last_reported":1707077226,"current_range_meters":29200,"station_id":"ce4bhbp2rcd13ifvqesg","pricing_plan_id":"free"},{"bike_id":"0f90d953-2b5d-4548-9aee-1fb6d84320c1","system_id":"levelo_inurba_marseille","lat":43.29272,"lon":5.3684,"is_reserved":false,"is_disabled":false,"rental_uris":{"android":"levelo://app?vid=0f90d953-2b5d-4548-9aee-1fb6d84320c1","ios":"levelo://app?vid=0f90d953-2b5d-4548-9aee-1fb6d84320c1"},"vehicle_type_id":"4","last_reported":1707077226,"current_range_meters":0,"station_id":"ce4bhbp2rcd13ifvqesg","pricing_plan_id":"free"},{"bike_id":"bb166067-b61f-4edd-9cdf-1b234d38abb7","system_id":"levelo_inurba_marseille","lat":43.292749,"lon":5.368402,"is_reserved":false,"is_disabled":false,"rental_uris":{"android":"levelo://app?vid=bb166067-b61f-4edd-9cdf-1b234d38abb7","ios":"levelo://app?vid=bb166067-b61f-4edd-9cdf-1b234d38abb7"},"vehicle_type_id":"4","last_reported":1707077226,"current_range_meters":31200,"station_id":"ce4bhbp2rcd13ifvqesg","pricing_plan_id":"free"},{"bike_id":"ffdec2d1-0e1f-48e9-b987-8f0a6cba168f","system_id":"levelo_inurba_marseille","lat":43.293009,"lon":5.374584,"is_reserved":false,"is_disabled":false,"rental_uris":{"android":"levelo://app?vid=ffdec2d1-0e1f-48e9-b987-8f0a6cba168f","ios":"levelo://app?vid=ffdec2d1-0e1f-48e9-b987-8f0a6cba168f"},"vehicle_type_id":"4","last_reported":1707077226,"current_range_meters":0,"station_id":"ce4bgi12rcd13ifvqb70","pricing_plan_id":"free"},{"bike_id":"cba8841d-e019-442d-9bf9-356de9639300","system_id":"levelo_inurba_marseille","lat":43.293069,"lon":5.374502,"is_reserved":false,"is_disabled":false,"rental_uris":{"android":"levelo://app?vid=cba8841d-e019-442d-9bf9-356de9639300","ios":"levelo://app?vid=cba8841d-e019-442d-9bf9-356de9639300"},"vehicle_type_id":"4","last_reported":1707077226,"current_range_meters":20000,"station_id":"ce4bgi12rcd13ifvqb70","pricing_plan_id":"free"},{"bike_id":"cbe71edd-3f53-4515-abba-5f061462d524","system_id":"levelo_inurba_marseille","lat":43.30608,"lon":5.393554,"is_reserved":false,"is_disabled":false,"rental_uris":{"android":"levelo://app?vid=cbe71edd-3f53-4515-abba-5f061462d524","ios":"levelo://app?vid=cbe71edd-3f53-4515-abba-5f061462d524"},"vehicle_type_id":"4","last_reported":1707077226,"current_range_meters":28000,"station_id":"ce4bh0p2rcd13ifvqd80","pricing_plan_id":"free"},{"bike_id":"9cbe8268-c74a-47e4-91b5-3a67cc01dfce","system_id":"levelo_inurba_marseille","lat":43.305985,"lon":5.39352,"is_reserved":false,"is_disabled":false,"rental_uris":{"android":"levelo://app?vid=9cbe8268-c74a-47e4-91b5-3a67cc01dfce","ios":"levelo://app?vid=9cbe8268-c74a-47e4-91b5-3a67cc01dfce"},"vehicle_type_id":"4","last_reported":1707077226,"current_range_meters":21600,"station_id":"ce4bh0p2rcd13ifvqd80","pricing_plan_id":"free"},{"bike_id":"23d7ba28-37cd-45b7-8fc1-1d4764243323","system_id":"levelo_inurba_marseille","lat":43.305994,"lon":5.393687,"is_reserved":false,"is_disabled":false,"rental_uris":{"android":"levelo://app?vid=23d7ba28-37cd-45b7-8fc1-1d4764243323","ios":"levelo://app?vid=23d7ba28-37cd-45b7-8fc1-1d4764243323"},"vehicle_type_id":"4","last_reported":1707077226,"current_range_meters":400,"station_id":"ce4bh0p2rcd13ifvqd80","pricing_plan_id":"free"},{"bike_id":"7473e499-ea70-46aa-9e18-f327688d74ef","system_id":"levelo_inurba_marseille","lat":43.30591,"lon":5.39356,"is_reserved":false,"is_disabled":false,"rental_uris":{"android":"levelo://app?vid=7473e499-ea70-46aa-9e18-f327688d74ef","ios":"levelo://app?vid=7473e499-ea70-46aa-9e18-f327688d74ef"},"vehicle_type_id":"4","last_reported":1707077226,"current_range_meters":25200,"station_id":"ce4bh0p2rcd13ifvqd80","pricing_plan_id":"free"},{"bike_id":"d3df372e-6b0e-482c-b10e-487dab3ab99e","system_id":"levelo_inurba_marseille","lat":43.30601,"lon":5.39364,"is_reserved":false,"is_disabled":false,"rental_uris":{"android":"levelo://app?vid=d3df372e-6b0e-482c-b10e-487dab3ab99e","ios":"levelo://app?vid=d3df372e-6b0e-482c-b10e-487dab3ab99e"},"vehicle_type_id":"4","last_reported":1707077226,"current_range_meters":800,"station_id":"ce4bh0p2rcd13ifvqd80","pricing_plan_id":"free"},{"bike_id":"ff3af581-8829-44ad-937c-92cb9f0e0da4","system_id":"levelo_inurba_marseille","lat":43.302992,"lon":5.392136,"is_reserved":false,"is_disabled":false,"rental_uris":{"android":"levelo://app?vid=ff3af581-8829-44ad-937c-92cb9f0e0da4","ios":"levelo://app?vid=ff3af581-8829-44ad-937c-92cb9f0e0da4"},"vehicle_type_id":"4","last_reported":1707077226,"current_range_meters":8800,"station_id":"ce4bgkh2rcd13ifvqbk0","pricing_plan_id":"free"},{"bike_id":"2c174866-960d-4bca-9772-10dd37273ca7","system_id":"levelo_inurba_marseille","lat":43.302992,"lon":5.392136,"is_reserved":false,"is_disabled":false,"rental_uris":{"android":"levelo://app?vid=2c174866-960d-4bca-9772-10dd37273ca7","ios":"levelo://app?vid=2c174866-960d-4bca-9772-10dd37273ca7"},"vehicle_type_id":"4","last_reported":1707077226,"current_range_meters":6000,"station_id":"ce4bgkh2rcd13ifvqbk0","pricing_plan_id":"free"},{"bike_id":"1a930b74-5fba-4cf2-8256-9246de47efbf","system_id":"levelo_inurba_marseille","lat":43.302992,"lon":5.392136,"is_reserved":false,"is_disabled":false,"rental_uris":{"android":"levelo://app?vid=1a930b74-5fba-4cf2-8256-9246de47efbf","ios":"levelo://app?vid=1a930b74-5fba-4cf2-8256-9246de47efbf"},"vehicle_type_id":"4","last_reported":1707077226,"current_range_meters":28800,"station_id":"ce4bgkh2rcd13ifvqbk0","pricing_plan_id":"free"},{"bike_id":"91903973-c2f7-40fe-8410-eb6682056b4e","system_id":"levelo_inurba_marseille","lat":43.30085,"lon":5.390856,"is_reserved":false,"is_disabled":false,"rental_uris":{"android":"levelo://app?vid=91903973-c2f7-40fe-8410-eb6682056b4e","ios":"levelo://app?vid=91903973-c2f7-40fe-8410-eb6682056b4e"},"vehicle_type_id":"4","last_reported":1707077226,"current_range_meters":5600,"station_id":"ce4bh192rcd13ifvqdb0","pricing_plan_id":"free"},{"bike_id":"86ea99ba-b6ba-47a0-be70-c008c46718a4","system_id":"levelo_inurba_marseille","lat":43.30085,"lon":5.390856,"is_reserved":false,"is_disabled":false,"rental_uris":{"android":"levelo://app?vid=86ea99ba-b6ba-47a0-be70-c008c46718a4","ios":"levelo://app?vid=86ea99ba-b6ba-47a0-be70-c008c46718a4"},"vehicle_type_id":"4","last_reported":1707077226,"current_range_meters":17200,"station_id":"ce4bh192rcd13ifvqdb0","pricing_plan_id":"free"},{"bike_id":"10765507-56bf-4013-8a80-290ec7525965","system_id":"levelo_inurba_marseille","lat":43.30085,"lon":5.390856,"is_reserved":false,"is_disabled":false,"rental_uris":{"android":"levelo://app?vid=10765507-56bf-4013-8a80-290ec7525965","ios":"levelo://app?vid=10765507-56bf-4013-8a80-290ec7525965"},"vehicle_type_id":"4","last_reported":1707077226,"current_range_meters":1600,"station_id":"ce4bh192rcd13ifvqdb0","pricing_plan_id":"free"},{"bike_id":"802b4e59-1789-4868-b885-07ccd26dd922","system_id":"levelo_inurba_marseille","lat":43.30085,"lon":5.390856,"is_reserved":false,"is_disabled":false,"rental_uris":{"android":"levelo://app?vid=802b4e59-1789-4868-b885-07ccd26dd922","ios":"levelo://app?vid=802b4e59-1789-4868-b885-07ccd26dd922"},"vehicle_type_id":"4","last_reported":1707077226,"current_range_meters":28400,"station_id":"ce4bh192rcd13ifvqdb0","pricing_plan_id":"free"},{"bike_id":"87e2a6bb-97b3-4a92-ab3e-c2e25c0844f0","system_id":"levelo_inurba_marseille","lat":43.292535,"lon":5.37522,"is_reserved":false,"is_disabled":false,"rental_uris":{"android":"levelo://app?vid=87e2a6bb-97b3-4a92-ab3e-c2e25c0844f0","ios":"levelo://app?vid=87e2a6bb-97b3-4a92-ab3e-c2e25c0844f0"},"vehicle_type_id":"4","last_reported":1707077226,"current_range_meters":6400,"station_id":"","pricing_plan_id":"free"},{"bike_id":"b46e9818-e930-4133-adf9-66257c3f17cc","system_id":"levelo_inurba_marseille","lat":43.303002,"lon":5.392142,"is_reserved":false,"is_disabled":false,"rental_uris":{"android":"levelo://app?vid=b46e9818-e930-4133-adf9-66257c3f17cc","ios":"levelo://app?vid=b46e9818-e930-4133-adf9-66257c3f17cc"},"vehicle_type_id":"4","last_reported":1707077226,"current_range_meters":25200,"station_id":"ce4bgkh2rcd13ifvqbk0","pricing_plan_id":"free"},{"bike_id":"644c46c7-90e1-4280-ab6d-68e38567eeb4","system_id":"levelo_inurba_marseille","lat":43.293009,"lon":5.374584,"is_reserved":false,"is_disabled":false,"rental_uris":{"android":"levelo://app?vid=644c46c7-90e1-4280-ab6d-68e38567eeb4","ios":"levelo://app?vid=644c46c7-90e1-4280-ab6d-68e38567eeb4"},"vehicle_type_id":"4","last_reported":1707077226,"current_range_meters":26400,"station_id":"ce4bgi12rcd13ifvqb70","pricing_plan_id":"free"},{"bike_id":"6ef51a8f-1eea-46d3-b835-ac52293b7b21","system_id":"levelo_inurba_marseille","lat":43.298764,"lon":5.388973,"is_reserved":false,"is_disabled":false,"rental_uris":{"android":"levelo://app?vid=6ef51a8f-1eea-46d3-b835-ac52293b7b21","ios":"levelo://app?vid=6ef51a8f-1eea-46d3-b835-ac52293b7b21"},"vehicle_type_id":"4","last_reported":1707077226,"current_range_meters":22800,"station_id":"ce4bh392rcd13ifvqdl0","pricing_plan_id":"free"},{"bike_id":"2d45e3cd-6f45-4c74-b04f-0769da455530","system_id":"levelo_inurba_marseille","lat":43.298764,"lon":5.388973,"is_reserved":false,"is_disabled":false,"rental_uris":{"android":"levelo://app?vid=2d45e3cd-6f45-4c74-b04f-0769da455530","ios":"levelo://app?vid=2d45e3cd-6f45-4c74-b04f-0769da455530"},"vehicle_type_id":"4","last_reported":1707077226,"current_range_meters":0,"station_id":"ce4bh392rcd13ifvqdl0","pricing_plan_id":"free"},{"bike_id":"50de95a1-553b-4956-9d1b-46a74624600d","system_id":"levelo_inurba_marseille","lat":43.291994,"lon":5.357886,"is_reserved":false,"is_disabled":false,"rental_uris":{"android":"levelo://app?vid=50de95a1-553b-4956-9d1b-46a74624600d","ios":"levelo://app?vid=50de95a1-553b-4956-9d1b-46a74624600d"},"vehicle_type_id":"4","last_reported":1707077226,"current_range_meters":22800,"station_id":"ce4bhb12rcd13ifvqel0","pricing_plan_id":"free"},{"bike_id":"399d86b7-e68d-449a-b212-10271aecf020","system_id":"levelo_inurba_marseille","lat":43.291994,"lon":5.357886,"is_reserved":false,"is_disabled":false,"rental_uris":{"android":"levelo://app?vid=399d86b7-e68d-449a-b212-10271aecf020","ios":"levelo://app?vid=399d86b7-e68d-449a-b212-10271aecf020"},"vehicle_type_id":"4","last_reported":1707077226,"current_range_meters":29200,"station_id":"ce4bhb12rcd13ifvqel0","pricing_plan_id":"free"},{"bike_id":"8c605089-0b47-4239-9a3f-eb622dc559d0","system_id":"levelo_inurba_marseille","lat":43.313291,"lon":5.396838,"is_reserved":false,"is_disabled":false,"rental_uris":{"android":"levelo://app?vid=8c605089-0b47-4239-9a3f-eb622dc559d0","ios":"levelo://app?vid=8c605089-0b47-4239-9a3f-eb622dc559d0"},"vehicle_type_id":"4","last_reported":1707077226,"current_range_meters":15200,"station_id":"ce4bgvp2rcd13ifvqcu0","pricing_plan_id":"free"},{"bike_id":"6c874cfe-4464-4696-afa3-480e01c3a358","system_id":"levelo_inurba_marseille","lat":43.29194,"lon":5.35799,"is_reserved":false,"is_disabled":false,"rental_uris":{"android":"levelo://app?vid=6c874cfe-4464-4696-afa3-480e01c3a358","ios":"levelo://app?vid=6c874cfe-4464-4696-afa3-480e01c3a358"},"vehicle_type_id":"4","last_reported":1707077226,"current_range_meters":23200,"station_id":"ce4bhb12rcd13ifvqel0","pricing_plan_id":"free"},{"bike_id":"76debd98-f9f4-4ead-b7ea-f1cd59031c65","system_id":"levelo_inurba_marseille","lat":43.309038,"lon":5.396546,"is_reserved":false,"is_disabled":false,"rental_uris":{"android":"levelo://app?vid=76debd98-f9f4-4ead-b7ea-f1cd59031c65","ios":"levelo://app?vid=76debd98-f9f4-4ead-b7ea-f1cd59031c65"},"vehicle_type_id":"4","last_reported":1707077226,"current_range_meters":9200,"station_id":"ce4bh012rcd13ifvqcv0","pricing_plan_id":"free"},{"bike_id":"f79b3125-7a67-4727-af67-06b004a67391","system_id":"levelo_inurba_marseille","lat":43.29196,"lon":5.35787,"is_reserved":false,"is_disabled":false,"rental_uris":{"android":"levelo://app?vid=f79b3125-7a67-4727-af67-06b004a67391","ios":"levelo://app?vid=f79b3125-7a67-4727-af67-06b004a67391"},"vehicle_type_id":"4","last_reported":1707077226,"current_range_meters":10800,"station_id":"ce4bhb12rcd13ifvqel0","pricing_plan_id":"free"},{"bike_id":"f3a2864a-68bf-45cb-a563-c2398c508bec","system_id":"levelo_inurba_marseille","lat":43.313291,"lon":5.396838,"is_reserved":false,"is_disabled":false,"rental_uris":{"android":"levelo://app?vid=f3a2864a-68bf-45cb-a563-c2398c508bec","ios":"levelo://app?vid=f3a2864a-68bf-45cb-a563-c2398c508bec"},"vehicle_type_id":"4","last_reported":1707077226,"current_range_meters":24400,"station_id":"ce4bgvp2rcd13ifvqcu0","pricing_plan_id":"free"},{"bike_id":"f01de221-560a-4283-a985-c193c29d281e","system_id":"levelo_inurba_marseille","lat":43.309038,"lon":5.396546,"is_reserved":false,"is_disabled":false,"rental_uris":{"android":"levelo://app?vid=f01de221-560a-4283-a985-c193c29d281e","ios":"levelo://app?vid=f01de221-560a-4283-a985-c193c29d281e"},"vehicle_type_id":"4","last_reported":1707077226,"current_range_meters":30000,"station_id":"ce4bh012rcd13ifvqcv0","pricing_plan_id":"free"},{"bike_id":"9d9534b4-a890-4d08-9bc6-c010182cbdf9","system_id":"levelo_inurba_marseille","lat":43.291994,"lon":5.357886,"is_reserved":false,"is_disabled":false,"rental_uris":{"android":"levelo://app?vid=9d9534b4-a890-4d08-9bc6-c010182cbdf9","ios":"levelo://app?vid=9d9534b4-a890-4d08-9bc6-c010182cbdf9"},"vehicle_type_id":"4","last_reported":1707077226,"current_range_meters":20000,"station_id":"ce4bhb12rcd13ifvqel0","pricing_plan_id":"free"},{"bike_id":"cb0adc17-b24c-4353-9bb7-6064290cd099","system_id":"levelo_inurba_marseille","lat":43.309047,"lon":5.396551,"is_reserved":false,"is_disabled":false,"rental_uris":{"android":"levelo://app?vid=cb0adc17-b24c-4353-9bb7-6064290cd099","ios":"levelo://app?vid=cb0adc17-b24c-4353-9bb7-6064290cd099"},"vehicle_type_id":"4","last_reported":1707077226,"current_range_meters":31200,"station_id":"ce4bh012rcd13ifvqcv0","pricing_plan_id":"free"},{"bike_id":"98fb478c-2c90-4367-b2fe-e3ba20dfacae","system_id":"levelo_inurba_marseille","lat":43.313291,"lon":5.396838,"is_reserved":false,"is_disabled":false,"rental_uris":{"android":"levelo://app?vid=98fb478c-2c90-4367-b2fe-e3ba20dfacae","ios":"levelo://app?vid=98fb478c-2c90-4367-b2fe-e3ba20dfacae"},"vehicle_type_id":"4","last_reported":1707077226,"current_range_meters":25200,"station_id":"ce4bgvp2rcd13ifvqcu0","pricing_plan_id":"free"},{"bike_id":"c898ef4a-617f-46e2-8929-feaad6092a07","system_id":"levelo_inurba_marseille","lat":43.309038,"lon":5.396546,"is_reserved":false,"is_disabled":false,"rental_uris":{"android":"levelo://app?vid=c898ef4a-617f-46e2-8929-feaad6092a07","ios":"levelo://app?vid=c898ef4a-617f-46e2-8929-feaad6092a07"},"vehicle_type_id":"4","last_reported":1707077226,"current_range_meters":22400,"station_id":"ce4bh012rcd13ifvqcv0","pricing_plan_id":"free"},{"bike_id":"b2752ac1-7429-477c-b528-685b5bbce9ac","system_id":"levelo_inurba_marseille","lat":43.309047,"lon":5.396551,"is_reserved":false,"is_disabled":false,"rental_uris":{"android":"levelo://app?vid=b2752ac1-7429-477c-b528-685b5bbce9ac","ios":"levelo://app?vid=b2752ac1-7429-477c-b528-685b5bbce9ac"},"vehicle_type_id":"4","last_reported":1707077226,"current_range_meters":14000,"station_id":"ce4bh012rcd13ifvqcv0","pricing_plan_id":"free"},{"bike_id":"d1e8a7cd-20a2-4bb7-8268-0ed4acb27f0d","system_id":"levelo_inurba_marseille","lat":43.309047,"lon":5.396551,"is_reserved":false,"is_disabled":false,"rental_uris":{"android":"levelo://app?vid=d1e8a7cd-20a2-4bb7-8268-0ed4acb27f0d","ios":"levelo://app?vid=d1e8a7cd-20a2-4bb7-8268-0ed4acb27f0d"},"vehicle_type_id":"4","last_reported":1707077226,"current_range_meters":16400,"station_id":"ce4bh012rcd13ifvqcv0","pricing_plan_id":"free"},{"bike_id":"579fc067-862b-4dd0-a941-fc509ea115a5","system_id":"levelo_inurba_marseille","lat":43.309047,"lon":5.396551,"is_reserved":false,"is_disabled":false,"rental_uris":{"android":"levelo://app?vid=579fc067-862b-4dd0-a941-fc509ea115a5","ios":"levelo://app?vid=579fc067-862b-4dd0-a941-fc509ea115a5"},"vehicle_type_id":"4","last_reported":1707077226,"current_range_meters":28800,"station_id":"ce4bh012rcd13ifvqcv0","pricing_plan_id":"free"},{"bike_id":"66edd7ba-de69-441c-9323-0a4b6c020232","system_id":"levelo_inurba_marseille","lat":43.313291,"lon":5.396838,"is_reserved":false,"is_disabled":false,"rental_uris":{"android":"levelo://app?vid=66edd7ba-de69-441c-9323-0a4b6c020232","ios":"levelo://app?vid=66edd7ba-de69-441c-9323-0a4b6c020232"},"vehicle_type_id":"4","last_reported":1707077226,"current_range_meters":17600,"station_id":"ce4bgvp2rcd13ifvqcu0","pricing_plan_id":"free"},{"bike_id":"6b9e30aa-bb59-400a-bb19-9a7017d73ce6","system_id":"levelo_inurba_marseille","lat":43.309038,"lon":5.396546,"is_reserved":false,"is_disabled":false,"rental_uris":{"android":"levelo://app?vid=6b9e30aa-bb59-400a-bb19-9a7017d73ce6","ios":"levelo://app?vid=6b9e30aa-bb59-400a-bb19-9a7017d73ce6"},"vehicle_type_id":"4","last_reported":1707077226,"current_range_meters":31200,"station_id":"ce4bh012rcd13ifvqcv0","pricing_plan_id":"free"},{"bike_id":"32dabd55-cee9-47b2-aa62-238ab74b6c41","system_id":"levelo_inurba_marseille","lat":43.29529,"lon":5.385581,"is_reserved":false,"is_disabled":false,"rental_uris":{"android":"levelo://app?vid=32dabd55-cee9-47b2-aa62-238ab74b6c41","ios":"levelo://app?vid=32dabd55-cee9-47b2-aa62-238ab74b6c41"},"vehicle_type_id":"4","last_reported":1707077226,"current_range_meters":25600,"station_id":"ce4bgih2rcd13ifvqba0","pricing_plan_id":"free"},{"bike_id":"e7189582-81a4-4866-90b6-f1957663c419","system_id":"levelo_inurba_marseille","lat":43.30885,"lon":5.3966,"is_reserved":false,"is_disabled":false,"rental_uris":{"android":"levelo://app?vid=e7189582-81a4-4866-90b6-f1957663c419","ios":"levelo://app?vid=e7189582-81a4-4866-90b6-f1957663c419"},"vehicle_type_id":"4","last_reported":1707077226,"current_range_meters":0,"station_id":"ce4bh012rcd13ifvqcv0","pricing_plan_id":"free"},{"bike_id":"6b0bdce9-30ad-4b2f-a3ff-7b983749ed4e","system_id":"levelo_inurba_marseille","lat":43.29529,"lon":5.385581,"is_reserved":false,"is_disabled":false,"rental_uris":{"android":"levelo://app?vid=6b0bdce9-30ad-4b2f-a3ff-7b983749ed4e","ios":"levelo://app?vid=6b0bdce9-30ad-4b2f-a3ff-7b983749ed4e"},"vehicle_type_id":"4","last_reported":1707077226,"current_range_meters":2400,"station_id":"ce4bgih2rcd13ifvqba0","pricing_plan_id":"free"},{"bike_id":"4419a724-5255-4916-9ab6-08c2c5ae2fc3","system_id":"levelo_inurba_marseille","lat":43.31638,"lon":5.39678,"is_reserved":false,"is_disabled":false,"rental_uris":{"android":"levelo://app?vid=4419a724-5255-4916-9ab6-08c2c5ae2fc3","ios":"levelo://app?vid=4419a724-5255-4916-9ab6-08c2c5ae2fc3"},"vehicle_type_id":"4","last_reported":1707077226,"current_range_meters":27200,"station_id":"","pricing_plan_id":"free"},{"bike_id":"44f4cdd2-bf2d-4be9-881f-34e4b95ae472","system_id":"levelo_inurba_marseille","lat":43.29535,"lon":5.38553,"is_reserved":false,"is_disabled":false,"rental_uris":{"android":"levelo://app?vid=44f4cdd2-bf2d-4be9-881f-34e4b95ae472","ios":"levelo://app?vid=44f4cdd2-bf2d-4be9-881f-34e4b95ae472"},"vehicle_type_id":"4","last_reported":1707077226,"current_range_meters":800,"station_id":"ce4bgih2rcd13ifvqba0","pricing_plan_id":"free"},{"bike_id":"523ef0a8-e4a9-4f83-b840-7f8944980afe","system_id":"levelo_inurba_marseille","lat":43.290779,"lon":5.371482,"is_reserved":false,"is_disabled":false,"rental_uris":{"android":"levelo://app?vid=523ef0a8-e4a9-4f83-b840-7f8944980afe","ios":"levelo://app?vid=523ef0a8-e4a9-4f83-b840-7f8944980afe"},"vehicle_type_id":"4","last_reported":1707077226,"current_range_meters":24400,"station_id":"ce4bh5p2rcd13ifvqe4g","pricing_plan_id":"free"},{"bike_id":"4a848189-bd42-4e10-8699-d4f4e027ca65","system_id":"levelo_inurba_marseille","lat":43.290631,"lon":5.359244,"is_reserved":false,"is_disabled":false,"rental_uris":{"android":"levelo://app?vid=4a848189-bd42-4e10-8699-d4f4e027ca65","ios":"levelo://app?vid=4a848189-bd42-4e10-8699-d4f4e027ca65"},"vehicle_type_id":"4","last_reported":1707077226,"current_range_meters":26400,"station_id":"ce4bha92rcd13ifvqeg0","pricing_plan_id":"free"},{"bike_id":"3fbf1e07-bed2-4ceb-94b0-b99cc7e05d64","system_id":"levelo_inurba_marseille","lat":43.290631,"lon":5.359244,"is_reserved":false,"is_disabled":false,"rental_uris":{"android":"levelo://app?vid=3fbf1e07-bed2-4ceb-94b0-b99cc7e05d64","ios":"levelo://app?vid=3fbf1e07-bed2-4ceb-94b0-b99cc7e05d64"},"vehicle_type_id":"4","last_reported":1707077226,"current_range_meters":24800,"station_id":"ce4bha92rcd13ifvqeg0","pricing_plan_id":"free"},{"bike_id":"a8bfe123-0561-4946-bf33-19b296c1d265","system_id":"levelo_inurba_marseille","lat":43.294153,"lon":5.386305,"is_reserved":false,"is_disabled":false,"rental_uris":{"android":"levelo://app?vid=a8bfe123-0561-4946-bf33-19b296c1d265","ios":"levelo://app?vid=a8bfe123-0561-4946-bf33-19b296c1d265"},"vehicle_type_id":"4","last_reported":1707077226,"current_range_meters":23200,"station_id":"ce4bh2h2rcd13ifvqdh0","pricing_plan_id":"free"},{"bike_id":"10a15801-8ce1-4e9c-bb53-eca988e528fc","system_id":"levelo_inurba_marseille","lat":43.294153,"lon":5.386305,"is_reserved":false,"is_disabled":false,"rental_uris":{"android":"levelo://app?vid=10a15801-8ce1-4e9c-bb53-eca988e528fc","ios":"levelo://app?vid=10a15801-8ce1-4e9c-bb53-eca988e528fc"},"vehicle_type_id":"4","last_reported":1707077226,"current_range_meters":21600,"station_id":"ce4bh2h2rcd13ifvqdh0","pricing_plan_id":"free"},{"bike_id":"cc983153-bd7b-4eae-a406-498366ee1b4a","system_id":"levelo_inurba_marseille","lat":43.294162,"lon":5.386292,"is_reserved":false,"is_disabled":false,"rental_uris":{"android":"levelo://app?vid=cc983153-bd7b-4eae-a406-498366ee1b4a","ios":"levelo://app?vid=cc983153-bd7b-4eae-a406-498366ee1b4a"},"vehicle_type_id":"4","last_reported":1707077226,"current_range_meters":29200,"station_id":"ce4bh2h2rcd13ifvqdh0","pricing_plan_id":"free"},{"bike_id":"fc2a0728-719b-461a-8a6a-92ec177f2d2b","system_id":"levelo_inurba_marseille","lat":43.294153,"lon":5.386305,"is_reserved":false,"is_disabled":false,"rental_uris":{"android":"levelo://app?vid=fc2a0728-719b-461a-8a6a-92ec177f2d2b","ios":"levelo://app?vid=fc2a0728-719b-461a-8a6a-92ec177f2d2b"},"vehicle_type_id":"4","last_reported":1707077226,"current_range_meters":19600,"station_id":"ce4bh2h2rcd13ifvqdh0","pricing_plan_id":"free"},{"bike_id":"f26f3ae0-2546-4125-9ff4-f67bf0bdd465","system_id":"levelo_inurba_marseille","lat":43.294162,"lon":5.386292,"is_reserved":false,"is_disabled":false,"rental_uris":{"android":"levelo://app?vid=f26f3ae0-2546-4125-9ff4-f67bf0bdd465","ios":"levelo://app?vid=f26f3ae0-2546-4125-9ff4-f67bf0bdd465"},"vehicle_type_id":"4","last_reported":1707077226,"current_range_meters":28800,"station_id":"ce4bh2h2rcd13ifvqdh0","pricing_plan_id":"free"},{"bike_id":"78acf450-6ba9-419c-8496-e719e414f7d8","system_id":"levelo_inurba_marseille","lat":43.294162,"lon":5.386292,"is_reserved":false,"is_disabled":false,"rental_uris":{"android":"levelo://app?vid=78acf450-6ba9-419c-8496-e719e414f7d8","ios":"levelo://app?vid=78acf450-6ba9-419c-8496-e719e414f7d8"},"vehicle_type_id":"4","last_reported":1707077226,"current_range_meters":23600,"station_id":"ce4bh2h2rcd13ifvqdh0","pricing_plan_id":"free"},{"bike_id":"f5ea1359-636d-4541-a2fa-f6c93c404c88","system_id":"levelo_inurba_marseille","lat":43.294162,"lon":5.386292,"is_reserved":false,"is_disabled":false,"rental_uris":{"android":"levelo://app?vid=f5ea1359-636d-4541-a2fa-f6c93c404c88","ios":"levelo://app?vid=f5ea1359-636d-4541-a2fa-f6c93c404c88"},"vehicle_type_id":"4","last_reported":1707077226,"current_range_meters":6400,"station_id":"ce4bh2h2rcd13ifvqdh0","pricing_plan_id":"free"},{"bike_id":"a82eb0d1-d158-4e76-9f96-b9506917ec84","system_id":"levelo_inurba_marseille","lat":43.294162,"lon":5.386292,"is_reserved":false,"is_disabled":false,"rental_uris":{"android":"levelo://app?vid=a82eb0d1-d158-4e76-9f96-b9506917ec84","ios":"levelo://app?vid=a82eb0d1-d158-4e76-9f96-b9506917ec84"},"vehicle_type_id":"4","last_reported":1707077226,"current_range_meters":31200,"station_id":"ce4bh2h2rcd13ifvqdh0","pricing_plan_id":"free"},{"bike_id":"de95af1e-cd11-4ba3-baa5-3d2b0753cee5","system_id":"levelo_inurba_marseille","lat":43.289184,"lon":5.366408,"is_reserved":false,"is_disabled":false,"rental_uris":{"android":"levelo://app?vid=de95af1e-cd11-4ba3-baa5-3d2b0753cee5","ios":"levelo://app?vid=de95af1e-cd11-4ba3-baa5-3d2b0753cee5"},"vehicle_type_id":"4","last_reported":1707077226,"current_range_meters":22800,"station_id":"ce4bhap2rcd13ifvqek0","pricing_plan_id":"free"},{"bike_id":"800df3b4-0056-4430-9dce-21c6c32d97ab","system_id":"levelo_inurba_marseille","lat":43.294153,"lon":5.386305,"is_reserved":false,"is_disabled":false,"rental_uris":{"android":"levelo://app?vid=800df3b4-0056-4430-9dce-21c6c32d97ab","ios":"levelo://app?vid=800df3b4-0056-4430-9dce-21c6c32d97ab"},"vehicle_type_id":"4","last_reported":1707077226,"current_range_meters":26800,"station_id":"ce4bh2h2rcd13ifvqdh0","pricing_plan_id":"free"},{"bike_id":"3586158b-ae47-466d-adaf-c9b367c3de2d","system_id":"levelo_inurba_marseille","lat":43.289468,"lon":5.363719,"is_reserved":false,"is_disabled":false,"rental_uris":{"android":"levelo://app?vid=3586158b-ae47-466d-adaf-c9b367c3de2d","ios":"levelo://app?vid=3586158b-ae47-466d-adaf-c9b367c3de2d"},"vehicle_type_id":"4","last_reported":1707077226,"current_range_meters":14000,"station_id":"ce4bhc92rcd13ifvqetg","pricing_plan_id":"free"},{"bike_id":"59c89e8d-d072-4bb4-8df0-5827fe535173","system_id":"levelo_inurba_marseille","lat":43.294162,"lon":5.386292,"is_reserved":false,"is_disabled":false,"rental_uris":{"android":"levelo://app?vid=59c89e8d-d072-4bb4-8df0-5827fe535173","ios":"levelo://app?vid=59c89e8d-d072-4bb4-8df0-5827fe535173"},"vehicle_type_id":"4","last_reported":1707077226,"current_range_meters":16400,"station_id":"ce4bh2h2rcd13ifvqdh0","pricing_plan_id":"free"},{"bike_id":"60dd482e-15ce-42cc-aaf1-3f32112ec1a9","system_id":"levelo_inurba_marseille","lat":43.294162,"lon":5.386292,"is_reserved":false,"is_disabled":false,"rental_uris":{"android":"levelo://app?vid=60dd482e-15ce-42cc-aaf1-3f32112ec1a9","ios":"levelo://app?vid=60dd482e-15ce-42cc-aaf1-3f32112ec1a9"},"vehicle_type_id":"4","last_reported":1707077226,"current_range_meters":16400,"station_id":"ce4bh2h2rcd13ifvqdh0","pricing_plan_id":"free"},{"bike_id":"94068124-8585-405d-b77d-29577c565c58","system_id":"levelo_inurba_marseille","lat":43.28939,"lon":5.36628,"is_reserved":false,"is_disabled":false,"rental_uris":{"android":"levelo://app?vid=94068124-8585-405d-b77d-29577c565c58","ios":"levelo://app?vid=94068124-8585-405d-b77d-29577c565c58"},"vehicle_type_id":"4","last_reported":1707077226,"current_range_meters":18800,"station_id":"ce4bhap2rcd13ifvqek0","pricing_plan_id":"free"},{"bike_id":"75c26767-4d83-4196-9184-16e3b3999c1a","system_id":"levelo_inurba_marseille","lat":43.292644,"lon":5.384257,"is_reserved":false,"is_disabled":false,"rental_uris":{"android":"levelo://app?vid=75c26767-4d83-4196-9184-16e3b3999c1a","ios":"levelo://app?vid=75c26767-4d83-4196-9184-16e3b3999c1a"},"vehicle_type_id":"4","last_reported":1707077226,"current_range_meters":26800,"station_id":"ce4bh692rcd13ifvqea0","pricing_plan_id":"free"},{"bike_id":"08dd0f49-c5d4-4cf0-9996-9227e29b539d","system_id":"levelo_inurba_marseille","lat":43.29276,"lon":5.38437,"is_reserved":false,"is_disabled":false,"rental_uris":{"android":"levelo://app?vid=08dd0f49-c5d4-4cf0-9996-9227e29b539d","ios":"levelo://app?vid=08dd0f49-c5d4-4cf0-9996-9227e29b539d"},"vehicle_type_id":"4","last_reported":1707077226,"current_range_meters":29200,"station_id":"ce4bh692rcd13ifvqea0","pricing_plan_id":"free"},{"bike_id":"7555fb5e-9f62-448a-9ce0-44a6cd417f82","system_id":"levelo_inurba_marseille","lat":43.292642,"lon":5.384254,"is_reserved":false,"is_disabled":false,"rental_uris":{"android":"levelo://app?vid=7555fb5e-9f62-448a-9ce0-44a6cd417f82","ios":"levelo://app?vid=7555fb5e-9f62-448a-9ce0-44a6cd417f82"},"vehicle_type_id":"4","last_reported":1707077226,"current_range_meters":28000,"station_id":"ce4bh692rcd13ifvqea0","pricing_plan_id":"free"},{"bike_id":"0f5d4be8-49fe-4f59-bca9-8426df566225","system_id":"levelo_inurba_marseille","lat":43.29269,"lon":5.38438,"is_reserved":false,"is_disabled":false,"rental_uris":{"android":"levelo://app?vid=0f5d4be8-49fe-4f59-bca9-8426df566225","ios":"levelo://app?vid=0f5d4be8-49fe-4f59-bca9-8426df566225"},"vehicle_type_id":"4","last_reported":1707077226,"current_range_meters":11200,"station_id":"ce4bh692rcd13ifvqea0","pricing_plan_id":"free"},{"bike_id":"e280a1b8-8d79-4333-a025-5c081f374c60","system_id":"levelo_inurba_marseille","lat":43.292642,"lon":5.384254,"is_reserved":false,"is_disabled":false,"rental_uris":{"android":"levelo://app?vid=e280a1b8-8d79-4333-a025-5c081f374c60","ios":"levelo://app?vid=e280a1b8-8d79-4333-a025-5c081f374c60"},"vehicle_type_id":"4","last_reported":1707077226,"current_range_meters":31200,"station_id":"ce4bh692rcd13ifvqea0","pricing_plan_id":"free"},{"bike_id":"d2ade661-e9b4-4888-901b-665905bc8e89","system_id":"levelo_inurba_marseille","lat":43.304274,"lon":5.397513,"is_reserved":false,"is_disabled":false,"rental_uris":{"android":"levelo://app?vid=d2ade661-e9b4-4888-901b-665905bc8e89","ios":"levelo://app?vid=d2ade661-e9b4-4888-901b-665905bc8e89"},"vehicle_type_id":"4","last_reported":1707077226,"current_range_meters":14400,"station_id":"ce4bh092rcd13ifvqd20","pricing_plan_id":"free"},{"bike_id":"d0f6d2d1-c57b-49ff-ad34-8bae9c3dd0f2","system_id":"levelo_inurba_marseille","lat":43.30427,"lon":5.39744,"is_reserved":false,"is_disabled":false,"rental_uris":{"android":"levelo://app?vid=d0f6d2d1-c57b-49ff-ad34-8bae9c3dd0f2","ios":"levelo://app?vid=d0f6d2d1-c57b-49ff-ad34-8bae9c3dd0f2"},"vehicle_type_id":"4","last_reported":1707077226,"current_range_meters":20800,"station_id":"ce4bh092rcd13ifvqd20","pricing_plan_id":"free"},{"bike_id":"3ade90f4-7acb-42fc-91bc-fbd5699c6095","system_id":"levelo_inurba_marseille","lat":43.29313,"lon":5.38538,"is_reserved":false,"is_disabled":false,"rental_uris":{"android":"levelo://app?vid=3ade90f4-7acb-42fc-91bc-fbd5699c6095","ios":"levelo://app?vid=3ade90f4-7acb-42fc-91bc-fbd5699c6095"},"vehicle_type_id":"4","last_reported":1707077226,"current_range_meters":11200,"station_id":"ce4bh692rcd13ifvqea0","pricing_plan_id":"free"},{"bike_id":"7a07006a-6ba3-48b2-8396-1dd58b0ebcab","system_id":"levelo_inurba_marseille","lat":43.304296,"lon":5.397513,"is_reserved":false,"is_disabled":false,"rental_uris":{"android":"levelo://app?vid=7a07006a-6ba3-48b2-8396-1dd58b0ebcab","ios":"levelo://app?vid=7a07006a-6ba3-48b2-8396-1dd58b0ebcab"},"vehicle_type_id":"4","last_reported":1707077226,"current_range_meters":5600,"station_id":"ce4bh092rcd13ifvqd20","pricing_plan_id":"free"},{"bike_id":"7c206cca-a361-4f40-b7e4-4ca501cd770a","system_id":"levelo_inurba_marseille","lat":43.29267,"lon":5.38444,"is_reserved":false,"is_disabled":false,"rental_uris":{"android":"levelo://app?vid=7c206cca-a361-4f40-b7e4-4ca501cd770a","ios":"levelo://app?vid=7c206cca-a361-4f40-b7e4-4ca501cd770a"},"vehicle_type_id":"4","last_reported":1707077226,"current_range_meters":31600,"station_id":"ce4bh692rcd13ifvqea0","pricing_plan_id":"free"},{"bike_id":"8b2adb42-9bf4-425b-bd61-f1819b22f8fb","system_id":"levelo_inurba_marseille","lat":43.29262,"lon":5.3844,"is_reserved":false,"is_disabled":false,"rental_uris":{"android":"levelo://app?vid=8b2adb42-9bf4-425b-bd61-f1819b22f8fb","ios":"levelo://app?vid=8b2adb42-9bf4-425b-bd61-f1819b22f8fb"},"vehicle_type_id":"4","last_reported":1707077226,"current_range_meters":21600,"station_id":"ce4bh692rcd13ifvqea0","pricing_plan_id":"free"},{"bike_id":"5b093fd5-19c1-401e-a72e-22f4625ab5b6","system_id":"levelo_inurba_marseille","lat":43.304274,"lon":5.397513,"is_reserved":false,"is_disabled":false,"rental_uris":{"android":"levelo://app?vid=5b093fd5-19c1-401e-a72e-22f4625ab5b6","ios":"levelo://app?vid=5b093fd5-19c1-401e-a72e-22f4625ab5b6"},"vehicle_type_id":"4","last_reported":1707077226,"current_range_meters":13600,"station_id":"ce4bh092rcd13ifvqd20","pricing_plan_id":"free"},{"bike_id":"47977dcd-35d9-4902-97d7-cb119ec4da5b","system_id":"levelo_inurba_marseille","lat":43.29265,"lon":5.38452,"is_reserved":false,"is_disabled":false,"rental_uris":{"android":"levelo://app?vid=47977dcd-35d9-4902-97d7-cb119ec4da5b","ios":"levelo://app?vid=47977dcd-35d9-4902-97d7-cb119ec4da5b"},"vehicle_type_id":"4","last_reported":1707077226,"current_range_meters":31200,"station_id":"ce4bh692rcd13ifvqea0","pricing_plan_id":"free"},{"bike_id":"08128a37-407c-493f-a86f-67a034111734","system_id":"levelo_inurba_marseille","lat":43.292593,"lon":5.384414,"is_reserved":false,"is_disabled":false,"rental_uris":{"android":"levelo://app?vid=08128a37-407c-493f-a86f-67a034111734","ios":"levelo://app?vid=08128a37-407c-493f-a86f-67a034111734"},"vehicle_type_id":"4","last_reported":1707077226,"current_range_meters":31200,"station_id":"ce4bh692rcd13ifvqea0","pricing_plan_id":"free"},{"bike_id":"8a666497-95df-4faa-b0c9-9a1079ccf6b2","system_id":"levelo_inurba_marseille","lat":43.30415,"lon":5.39749,"is_reserved":false,"is_disabled":false,"rental_uris":{"android":"levelo://app?vid=8a666497-95df-4faa-b0c9-9a1079ccf6b2","ios":"levelo://app?vid=8a666497-95df-4faa-b0c9-9a1079ccf6b2"},"vehicle_type_id":"4","last_reported":1707077226,"current_range_meters":11200,"station_id":"ce4bh092rcd13ifvqd20","pricing_plan_id":"free"},{"bike_id":"dbb7148c-b5c9-4561-b322-f316c5fc5ed0","system_id":"levelo_inurba_marseille","lat":43.30422,"lon":5.39755,"is_reserved":false,"is_disabled":false,"rental_uris":{"android":"levelo://app?vid=dbb7148c-b5c9-4561-b322-f316c5fc5ed0","ios":"levelo://app?vid=dbb7148c-b5c9-4561-b322-f316c5fc5ed0"},"vehicle_type_id":"4","last_reported":1707077226,"current_range_meters":31200,"station_id":"ce4bh092rcd13ifvqd20","pricing_plan_id":"free"},{"bike_id":"a7782ce4-54cf-4e98-a7cc-89a906c824c5","system_id":"levelo_inurba_marseille","lat":43.29016,"lon":5.35604,"is_reserved":false,"is_disabled":false,"rental_uris":{"android":"levelo://app?vid=a7782ce4-54cf-4e98-a7cc-89a906c824c5","ios":"levelo://app?vid=a7782ce4-54cf-4e98-a7cc-89a906c824c5"},"vehicle_type_id":"4","last_reported":1707077226,"current_range_meters":14000,"station_id":"ce4bhb92rcd13ifvqen0","pricing_plan_id":"free"},{"bike_id":"f42bcb40-10eb-42fc-8b01-d7947d6ff22f","system_id":"levelo_inurba_marseille","lat":43.29245,"lon":5.38442,"is_reserved":false,"is_disabled":false,"rental_uris":{"android":"levelo://app?vid=f42bcb40-10eb-42fc-8b01-d7947d6ff22f","ios":"levelo://app?vid=f42bcb40-10eb-42fc-8b01-d7947d6ff22f"},"vehicle_type_id":"4","last_reported":1707077226,"current_range_meters":26800,"station_id":"ce4bh692rcd13ifvqea0","pricing_plan_id":"free"},{"bike_id":"99dff64f-55fe-46b5-95a8-3465aede9920","system_id":"levelo_inurba_marseille","lat":43.29004,"lon":5.35612,"is_reserved":false,"is_disabled":false,"rental_uris":{"android":"levelo://app?vid=99dff64f-55fe-46b5-95a8-3465aede9920","ios":"levelo://app?vid=99dff64f-55fe-46b5-95a8-3465aede9920"},"vehicle_type_id":"4","last_reported":1707077226,"current_range_meters":28400,"station_id":"ce4bhb92rcd13ifvqen0","pricing_plan_id":"free"},{"bike_id":"c28b3ee4-d249-450d-b65d-7961a76e6b8f","system_id":"levelo_inurba_marseille","lat":43.290995,"lon":5.381361,"is_reserved":false,"is_disabled":false,"rental_uris":{"android":"levelo://app?vid=c28b3ee4-d249-450d-b65d-7961a76e6b8f","ios":"levelo://app?vid=c28b3ee4-d249-450d-b65d-7961a76e6b8f"},"vehicle_type_id":"4","last_reported":1707077226,"current_range_meters":13600,"station_id":"ce4bh512rcd13ifvqe2g","pricing_plan_id":"free"},{"bike_id":"a414ea05-2955-4f5c-ad76-d9d4a581a15a","system_id":"levelo_inurba_marseille","lat":43.290995,"lon":5.381361,"is_reserved":false,"is_disabled":false,"rental_uris":{"android":"levelo://app?vid=a414ea05-2955-4f5c-ad76-d9d4a581a15a","ios":"levelo://app?vid=a414ea05-2955-4f5c-ad76-d9d4a581a15a"},"vehicle_type_id":"4","last_reported":1707077226,"current_range_meters":28800,"station_id":"ce4bh512rcd13ifvqe2g","pricing_plan_id":"free"},{"bike_id":"f3d5e867-631e-4800-b8bb-6d9ef48d2a65","system_id":"levelo_inurba_marseille","lat":43.290995,"lon":5.381361,"is_reserved":false,"is_disabled":false,"rental_uris":{"android":"levelo://app?vid=f3d5e867-631e-4800-b8bb-6d9ef48d2a65","ios":"levelo://app?vid=f3d5e867-631e-4800-b8bb-6d9ef48d2a65"},"vehicle_type_id":"4","last_reported":1707077226,"current_range_meters":26400,"station_id":"ce4bh512rcd13ifvqe2g","pricing_plan_id":"free"},{"bike_id":"ae7e07b7-9681-4939-b20f-1de0a767a00f","system_id":"levelo_inurba_marseille","lat":43.290995,"lon":5.381361,"is_reserved":false,"is_disabled":false,"rental_uris":{"android":"levelo://app?vid=ae7e07b7-9681-4939-b20f-1de0a767a00f","ios":"levelo://app?vid=ae7e07b7-9681-4939-b20f-1de0a767a00f"},"vehicle_type_id":"4","last_reported":1707077226,"current_range_meters":21200,"station_id":"ce4bh512rcd13ifvqe2g","pricing_plan_id":"free"},{"bike_id":"36e59899-6392-44b3-b0eb-b94f6ed5199a","system_id":"levelo_inurba_marseille","lat":43.297815,"lon":5.393548,"is_reserved":false,"is_disabled":false,"rental_uris":{"android":"levelo://app?vid=36e59899-6392-44b3-b0eb-b94f6ed5199a","ios":"levelo://app?vid=36e59899-6392-44b3-b0eb-b94f6ed5199a"},"vehicle_type_id":"4","last_reported":1707077226,"current_range_meters":23200,"station_id":"chh1huq6cuj3fo74tm60","pricing_plan_id":"free"},{"bike_id":"48bdcb4f-8d71-452e-99ff-6171ea5b9651","system_id":"levelo_inurba_marseille","lat":43.297815,"lon":5.393548,"is_reserved":false,"is_disabled":false,"rental_uris":{"android":"levelo://app?vid=48bdcb4f-8d71-452e-99ff-6171ea5b9651","ios":"levelo://app?vid=48bdcb4f-8d71-452e-99ff-6171ea5b9651"},"vehicle_type_id":"4","last_reported":1707077226,"current_range_meters":14000,"station_id":"chh1huq6cuj3fo74tm60","pricing_plan_id":"free"},{"bike_id":"9fd860ae-1365-408f-b143-b5e6a0e95d7e","system_id":"levelo_inurba_marseille","lat":43.29784,"lon":5.39337,"is_reserved":false,"is_disabled":false,"rental_uris":{"android":"levelo://app?vid=9fd860ae-1365-408f-b143-b5e6a0e95d7e","ios":"levelo://app?vid=9fd860ae-1365-408f-b143-b5e6a0e95d7e"},"vehicle_type_id":"4","last_reported":1707077226,"current_range_meters":18000,"station_id":"chh1huq6cuj3fo74tm60","pricing_plan_id":"free"},{"bike_id":"c8110a85-2b90-4121-9adc-19018cc13fe5","system_id":"levelo_inurba_marseille","lat":43.297815,"lon":5.393548,"is_reserved":false,"is_disabled":false,"rental_uris":{"android":"levelo://app?vid=c8110a85-2b90-4121-9adc-19018cc13fe5","ios":"levelo://app?vid=c8110a85-2b90-4121-9adc-19018cc13fe5"},"vehicle_type_id":"4","last_reported":1707077226,"current_range_meters":13600,"station_id":"chh1huq6cuj3fo74tm60","pricing_plan_id":"free"},{"bike_id":"b2d64768-2663-4e45-af21-b425e1e93f02","system_id":"levelo_inurba_marseille","lat":43.2979,"lon":5.39344,"is_reserved":false,"is_disabled":false,"rental_uris":{"android":"levelo://app?vid=b2d64768-2663-4e45-af21-b425e1e93f02","ios":"levelo://app?vid=b2d64768-2663-4e45-af21-b425e1e93f02"},"vehicle_type_id":"4","last_reported":1707077226,"current_range_meters":13600,"station_id":"chh1huq6cuj3fo74tm60","pricing_plan_id":"free"},{"bike_id":"383724b6-bd12-4a20-b684-4d58d786ee6a","system_id":"levelo_inurba_marseille","lat":43.297815,"lon":5.393548,"is_reserved":false,"is_disabled":false,"rental_uris":{"android":"levelo://app?vid=383724b6-bd12-4a20-b684-4d58d786ee6a","ios":"levelo://app?vid=383724b6-bd12-4a20-b684-4d58d786ee6a"},"vehicle_type_id":"4","last_reported":1707077226,"current_range_meters":14000,"station_id":"chh1huq6cuj3fo74tm60","pricing_plan_id":"free"},{"bike_id":"70264658-2e92-4dd1-81e1-255da50e5aa3","system_id":"levelo_inurba_marseille","lat":43.297815,"lon":5.393548,"is_reserved":false,"is_disabled":false,"rental_uris":{"android":"levelo://app?vid=70264658-2e92-4dd1-81e1-255da50e5aa3","ios":"levelo://app?vid=70264658-2e92-4dd1-81e1-255da50e5aa3"},"vehicle_type_id":"4","last_reported":1707077226,"current_range_meters":14400,"station_id":"chh1huq6cuj3fo74tm60","pricing_plan_id":"free"},{"bike_id":"fcfc6361-5024-4e2a-ae18-9e03ec4a09d2","system_id":"levelo_inurba_marseille","lat":43.297815,"lon":5.393548,"is_reserved":false,"is_disabled":false,"rental_uris":{"android":"levelo://app?vid=fcfc6361-5024-4e2a-ae18-9e03ec4a09d2","ios":"levelo://app?vid=fcfc6361-5024-4e2a-ae18-9e03ec4a09d2"},"vehicle_type_id":"4","last_reported":1707077226,"current_range_meters":9200,"station_id":"chh1huq6cuj3fo74tm60","pricing_plan_id":"free"},{"bike_id":"36dcf795-21eb-42cc-a480-af859cb90eab","system_id":"levelo_inurba_marseille","lat":43.330442,"lon":5.389148,"is_reserved":false,"is_disabled":false,"rental_uris":{"android":"levelo://app?vid=36dcf795-21eb-42cc-a480-af859cb90eab","ios":"levelo://app?vid=36dcf795-21eb-42cc-a480-af859cb90eab"},"vehicle_type_id":"4","last_reported":1707077226,"current_range_meters":31200,"station_id":"ce4bhr92rcd13ifvqhrg","pricing_plan_id":"free"},{"bike_id":"0c96d0b5-97db-4cc9-8a5a-d96ca1072be4","system_id":"levelo_inurba_marseille","lat":43.33022,"lon":5.39036,"is_reserved":false,"is_disabled":false,"rental_uris":{"android":"levelo://app?vid=0c96d0b5-97db-4cc9-8a5a-d96ca1072be4","ios":"levelo://app?vid=0c96d0b5-97db-4cc9-8a5a-d96ca1072be4"},"vehicle_type_id":"4","last_reported":1707077226,"current_range_meters":22800,"station_id":"ce4bhr92rcd13ifvqhrg","pricing_plan_id":"free"},{"bike_id":"afbd84a6-16b4-457e-a524-5916acf0d4ff","system_id":"levelo_inurba_marseille","lat":43.33025,"lon":5.39033,"is_reserved":false,"is_disabled":false,"rental_uris":{"android":"levelo://app?vid=afbd84a6-16b4-457e-a524-5916acf0d4ff","ios":"levelo://app?vid=afbd84a6-16b4-457e-a524-5916acf0d4ff"},"vehicle_type_id":"4","last_reported":1707077226,"current_range_meters":15200,"station_id":"ce4bhr92rcd13ifvqhrg","pricing_plan_id":"free"},{"bike_id":"6163fba7-5c85-46c2-bf77-c83c10302f9c","system_id":"levelo_inurba_marseille","lat":43.29765,"lon":5.39335,"is_reserved":false,"is_disabled":false,"rental_uris":{"android":"levelo://app?vid=6163fba7-5c85-46c2-bf77-c83c10302f9c","ios":"levelo://app?vid=6163fba7-5c85-46c2-bf77-c83c10302f9c"},"vehicle_type_id":"4","last_reported":1707077226,"current_range_meters":0,"station_id":"chh1huq6cuj3fo74tm60","pricing_plan_id":"free"},{"bike_id":"3f9872e9-f028-4264-aef5-adff0a350603","system_id":"levelo_inurba_marseille","lat":43.330442,"lon":5.389148,"is_reserved":false,"is_disabled":false,"rental_uris":{"android":"levelo://app?vid=3f9872e9-f028-4264-aef5-adff0a350603","ios":"levelo://app?vid=3f9872e9-f028-4264-aef5-adff0a350603"},"vehicle_type_id":"4","last_reported":1707077226,"current_range_meters":12000,"station_id":"ce4bhr92rcd13ifvqhrg","pricing_plan_id":"free"},{"bike_id":"4270893e-7646-43e8-9278-a14d6af412e0","system_id":"levelo_inurba_marseille","lat":43.330442,"lon":5.389148,"is_reserved":false,"is_disabled":false,"rental_uris":{"android":"levelo://app?vid=4270893e-7646-43e8-9278-a14d6af412e0","ios":"levelo://app?vid=4270893e-7646-43e8-9278-a14d6af412e0"},"vehicle_type_id":"4","last_reported":1707077226,"current_range_meters":27600,"station_id":"ce4bhr92rcd13ifvqhrg","pricing_plan_id":"free"},{"bike_id":"291aaf63-a488-43b5-8680-f0c35b710160","system_id":"levelo_inurba_marseille","lat":43.33025,"lon":5.39045,"is_reserved":false,"is_disabled":false,"rental_uris":{"android":"levelo://app?vid=291aaf63-a488-43b5-8680-f0c35b710160","ios":"levelo://app?vid=291aaf63-a488-43b5-8680-f0c35b710160"},"vehicle_type_id":"4","last_reported":1707077226,"current_range_meters":22800,"station_id":"ce4bhr92rcd13ifvqhrg","pricing_plan_id":"free"},{"bike_id":"ebc0af46-e3c0-494a-986f-a2f706fa443c","system_id":"levelo_inurba_marseille","lat":43.295169,"lon":5.390426,"is_reserved":false,"is_disabled":false,"rental_uris":{"android":"levelo://app?vid=ebc0af46-e3c0-494a-986f-a2f706fa443c","ios":"levelo://app?vid=ebc0af46-e3c0-494a-986f-a2f706fa443c"},"vehicle_type_id":"4","last_reported":1707077226,"current_range_meters":28400,"station_id":"ce4bh3p2rcd13ifvqdp0","pricing_plan_id":"free"},{"bike_id":"143a47ae-2367-489b-8703-5f5dcb49fbfc","system_id":"levelo_inurba_marseille","lat":43.2901,"lon":5.381269,"is_reserved":false,"is_disabled":false,"rental_uris":{"android":"levelo://app?vid=143a47ae-2367-489b-8703-5f5dcb49fbfc","ios":"levelo://app?vid=143a47ae-2367-489b-8703-5f5dcb49fbfc"},"vehicle_type_id":"4","last_reported":1707077226,"current_range_meters":21600,"station_id":"ce4bh4p2rcd13ifvqe1g","pricing_plan_id":"free"},{"bike_id":"7907524f-a11a-4b50-b5da-d783ca85d18e","system_id":"levelo_inurba_marseille","lat":43.28856,"lon":5.358371,"is_reserved":false,"is_disabled":false,"rental_uris":{"android":"levelo://app?vid=7907524f-a11a-4b50-b5da-d783ca85d18e","ios":"levelo://app?vid=7907524f-a11a-4b50-b5da-d783ca85d18e"},"vehicle_type_id":"4","last_reported":1707077226,"current_range_meters":0,"station_id":"ce4bhb12rcd13ifvqem0","pricing_plan_id":"free"},{"bike_id":"68e46974-ff8f-4811-a9bd-4444090eb35c","system_id":"levelo_inurba_marseille","lat":43.290094,"lon":5.381264,"is_reserved":false,"is_disabled":false,"rental_uris":{"android":"levelo://app?vid=68e46974-ff8f-4811-a9bd-4444090eb35c","ios":"levelo://app?vid=68e46974-ff8f-4811-a9bd-4444090eb35c"},"vehicle_type_id":"4","last_reported":1707077226,"current_range_meters":6800,"station_id":"ce4bh4p2rcd13ifvqe1g","pricing_plan_id":"free"},{"bike_id":"2e4b6690-9593-4c7e-8432-1392ed63863f","system_id":"levelo_inurba_marseille","lat":43.28856,"lon":5.358371,"is_reserved":false,"is_disabled":false,"rental_uris":{"android":"levelo://app?vid=2e4b6690-9593-4c7e-8432-1392ed63863f","ios":"levelo://app?vid=2e4b6690-9593-4c7e-8432-1392ed63863f"},"vehicle_type_id":"4","last_reported":1707077226,"current_range_meters":2400,"station_id":"ce4bhb12rcd13ifvqem0","pricing_plan_id":"free"},{"bike_id":"8a7c51c6-76bd-4081-b087-925e7f9ff946","system_id":"levelo_inurba_marseille","lat":43.28856,"lon":5.358371,"is_reserved":false,"is_disabled":false,"rental_uris":{"android":"levelo://app?vid=8a7c51c6-76bd-4081-b087-925e7f9ff946","ios":"levelo://app?vid=8a7c51c6-76bd-4081-b087-925e7f9ff946"},"vehicle_type_id":"4","last_reported":1707077226,"current_range_meters":3600,"station_id":"ce4bhb12rcd13ifvqem0","pricing_plan_id":"free"},{"bike_id":"777418ef-da6d-4b2f-ace9-42046b9d65e1","system_id":"levelo_inurba_marseille","lat":43.28847,"lon":5.35884,"is_reserved":false,"is_disabled":false,"rental_uris":{"android":"levelo://app?vid=777418ef-da6d-4b2f-ace9-42046b9d65e1","ios":"levelo://app?vid=777418ef-da6d-4b2f-ace9-42046b9d65e1"},"vehicle_type_id":"4","last_reported":1707077226,"current_range_meters":400,"station_id":"ce4bhb12rcd13ifvqem0","pricing_plan_id":"free"},{"bike_id":"c71e2a63-7aa3-41e2-b967-ad4b7bae3467","system_id":"levelo_inurba_marseille","lat":43.28856,"lon":5.358371,"is_reserved":false,"is_disabled":false,"rental_uris":{"android":"levelo://app?vid=c71e2a63-7aa3-41e2-b967-ad4b7bae3467","ios":"levelo://app?vid=c71e2a63-7aa3-41e2-b967-ad4b7bae3467"},"vehicle_type_id":"4","last_reported":1707077226,"current_range_meters":3200,"station_id":"ce4bhb12rcd13ifvqem0","pricing_plan_id":"free"},{"bike_id":"eb6c9c7c-a7a4-491d-a668-be71616a9703","system_id":"levelo_inurba_marseille","lat":43.28845,"lon":5.35836,"is_reserved":false,"is_disabled":false,"rental_uris":{"android":"levelo://app?vid=eb6c9c7c-a7a4-491d-a668-be71616a9703","ios":"levelo://app?vid=eb6c9c7c-a7a4-491d-a668-be71616a9703"},"vehicle_type_id":"4","last_reported":1707077226,"current_range_meters":26400,"station_id":"ce4bhb12rcd13ifvqem0","pricing_plan_id":"free"},{"bike_id":"a5669c53-0a26-4ba6-b086-36278082f5ba","system_id":"levelo_inurba_marseille","lat":43.28843,"lon":5.35832,"is_reserved":false,"is_disabled":false,"rental_uris":{"android":"levelo://app?vid=a5669c53-0a26-4ba6-b086-36278082f5ba","ios":"levelo://app?vid=a5669c53-0a26-4ba6-b086-36278082f5ba"},"vehicle_type_id":"4","last_reported":1707077226,"current_range_meters":23600,"station_id":"ce4bhb12rcd13ifvqem0","pricing_plan_id":"free"},{"bike_id":"8440e124-6ba5-462e-ac35-1ecd2f79562a","system_id":"levelo_inurba_marseille","lat":43.312609,"lon":5.401662,"is_reserved":false,"is_disabled":false,"rental_uris":{"android":"levelo://app?vid=8440e124-6ba5-462e-ac35-1ecd2f79562a","ios":"levelo://app?vid=8440e124-6ba5-462e-ac35-1ecd2f79562a"},"vehicle_type_id":"4","last_reported":1707077226,"current_range_meters":23200,"station_id":"ce4bh092rcd13ifvqd30","pricing_plan_id":"free"},{"bike_id":"83ba999c-e089-415f-b2d3-3e81da60599f","system_id":"levelo_inurba_marseille","lat":43.312609,"lon":5.401662,"is_reserved":false,"is_disabled":false,"rental_uris":{"android":"levelo://app?vid=83ba999c-e089-415f-b2d3-3e81da60599f","ios":"levelo://app?vid=83ba999c-e089-415f-b2d3-3e81da60599f"},"vehicle_type_id":"4","last_reported":1707077226,"current_range_meters":28400,"station_id":"ce4bh092rcd13ifvqd30","pricing_plan_id":"free"},{"bike_id":"d417c8e2-0918-4527-adbe-ffc6355f5f58","system_id":"levelo_inurba_marseille","lat":43.312609,"lon":5.401662,"is_reserved":false,"is_disabled":false,"rental_uris":{"android":"levelo://app?vid=d417c8e2-0918-4527-adbe-ffc6355f5f58","ios":"levelo://app?vid=d417c8e2-0918-4527-adbe-ffc6355f5f58"},"vehicle_type_id":"4","last_reported":1707077226,"current_range_meters":10000,"station_id":"ce4bh092rcd13ifvqd30","pricing_plan_id":"free"},{"bike_id":"e8286b09-2b87-4c56-9291-16e467004c88","system_id":"levelo_inurba_marseille","lat":43.312609,"lon":5.401662,"is_reserved":false,"is_disabled":false,"rental_uris":{"android":"levelo://app?vid=e8286b09-2b87-4c56-9291-16e467004c88","ios":"levelo://app?vid=e8286b09-2b87-4c56-9291-16e467004c88"},"vehicle_type_id":"4","last_reported":1707077226,"current_range_meters":0,"station_id":"ce4bh092rcd13ifvqd30","pricing_plan_id":"free"},{"bike_id":"0af38d84-b449-4fe9-8d3a-bb549e971224","system_id":"levelo_inurba_marseille","lat":43.309371,"lon":5.401449,"is_reserved":false,"is_disabled":false,"rental_uris":{"android":"levelo://app?vid=0af38d84-b449-4fe9-8d3a-bb549e971224","ios":"levelo://app?vid=0af38d84-b449-4fe9-8d3a-bb549e971224"},"vehicle_type_id":"4","last_reported":1707077226,"current_range_meters":5600,"station_id":"ce4bgvp2rcd13ifvqct0","pricing_plan_id":"free"},{"bike_id":"749abfdf-7606-42aa-87a4-69f5859403ee","system_id":"levelo_inurba_marseille","lat":43.309371,"lon":5.401449,"is_reserved":false,"is_disabled":false,"rental_uris":{"android":"levelo://app?vid=749abfdf-7606-42aa-87a4-69f5859403ee","ios":"levelo://app?vid=749abfdf-7606-42aa-87a4-69f5859403ee"},"vehicle_type_id":"4","last_reported":1707077226,"current_range_meters":13600,"station_id":"ce4bgvp2rcd13ifvqct0","pricing_plan_id":"free"},{"bike_id":"77808c9a-b998-4658-aedb-b25e3472d80a","system_id":"levelo_inurba_marseille","lat":43.309371,"lon":5.401449,"is_reserved":false,"is_disabled":false,"rental_uris":{"android":"levelo://app?vid=77808c9a-b998-4658-aedb-b25e3472d80a","ios":"levelo://app?vid=77808c9a-b998-4658-aedb-b25e3472d80a"},"vehicle_type_id":"4","last_reported":1707077226,"current_range_meters":28800,"station_id":"ce4bgvp2rcd13ifvqct0","pricing_plan_id":"free"},{"bike_id":"c88b544a-7d5f-44cd-9e90-26ffcf31651a","system_id":"levelo_inurba_marseille","lat":43.32686,"lon":5.39586,"is_reserved":false,"is_disabled":false,"rental_uris":{"android":"levelo://app?vid=c88b544a-7d5f-44cd-9e90-26ffcf31651a","ios":"levelo://app?vid=c88b544a-7d5f-44cd-9e90-26ffcf31651a"},"vehicle_type_id":"4","last_reported":1707077226,"current_range_meters":12400,"station_id":"","pricing_plan_id":"free"},{"bike_id":"f2e81707-ac8c-4a5b-99db-026cb037029a","system_id":"levelo_inurba_marseille","lat":43.309371,"lon":5.401449,"is_reserved":false,"is_disabled":false,"rental_uris":{"android":"levelo://app?vid=f2e81707-ac8c-4a5b-99db-026cb037029a","ios":"levelo://app?vid=f2e81707-ac8c-4a5b-99db-026cb037029a"},"vehicle_type_id":"4","last_reported":1707077226,"current_range_meters":23600,"station_id":"ce4bgvp2rcd13ifvqct0","pricing_plan_id":"free"},{"bike_id":"32258fa7-13e8-4e66-875e-93e46fd28aed","system_id":"levelo_inurba_marseille","lat":43.30928,"lon":5.40145,"is_reserved":false,"is_disabled":false,"rental_uris":{"android":"levelo://app?vid=32258fa7-13e8-4e66-875e-93e46fd28aed","ios":"levelo://app?vid=32258fa7-13e8-4e66-875e-93e46fd28aed"},"vehicle_type_id":"4","last_reported":1707077226,"current_range_meters":30000,"station_id":"ce4bgvp2rcd13ifvqct0","pricing_plan_id":"free"},{"bike_id":"8b30fa3c-5a27-4c53-9779-dbab1f913024","system_id":"levelo_inurba_marseille","lat":43.306412,"lon":5.401035,"is_reserved":false,"is_disabled":false,"rental_uris":{"android":"levelo://app?vid=8b30fa3c-5a27-4c53-9779-dbab1f913024","ios":"levelo://app?vid=8b30fa3c-5a27-4c53-9779-dbab1f913024"},"vehicle_type_id":"4","last_reported":1707077226,"current_range_meters":25200,"station_id":"ce4bh112rcd13ifvqda0","pricing_plan_id":"free"},{"bike_id":"d5dcde49-b4e7-46c7-a9fc-d5e75d6f184a","system_id":"levelo_inurba_marseille","lat":43.309371,"lon":5.401449,"is_reserved":false,"is_disabled":false,"rental_uris":{"android":"levelo://app?vid=d5dcde49-b4e7-46c7-a9fc-d5e75d6f184a","ios":"levelo://app?vid=d5dcde49-b4e7-46c7-a9fc-d5e75d6f184a"},"vehicle_type_id":"4","last_reported":1707077226,"current_range_meters":400,"station_id":"ce4bgvp2rcd13ifvqct0","pricing_plan_id":"free"},{"bike_id":"63fb55b5-1897-41e1-b3c4-3273acbbb106","system_id":"levelo_inurba_marseille","lat":43.306554,"lon":5.400964,"is_reserved":false,"is_disabled":false,"rental_uris":{"android":"levelo://app?vid=63fb55b5-1897-41e1-b3c4-3273acbbb106","ios":"levelo://app?vid=63fb55b5-1897-41e1-b3c4-3273acbbb106"},"vehicle_type_id":"4","last_reported":1707077226,"current_range_meters":31200,"station_id":"ce4bh112rcd13ifvqda0","pricing_plan_id":"free"},{"bike_id":"1b9cf5b6-c08c-4112-8225-f01d16098a9b","system_id":"levelo_inurba_marseille","lat":43.306412,"lon":5.401035,"is_reserved":false,"is_disabled":false,"rental_uris":{"android":"levelo://app?vid=1b9cf5b6-c08c-4112-8225-f01d16098a9b","ios":"levelo://app?vid=1b9cf5b6-c08c-4112-8225-f01d16098a9b"},"vehicle_type_id":"4","last_reported":1707077226,"current_range_meters":30000,"station_id":"ce4bh112rcd13ifvqda0","pricing_plan_id":"free"},{"bike_id":"b5c8cd35-34dd-45ee-b3e7-3050ef3cbe6a","system_id":"levelo_inurba_marseille","lat":43.337673,"lon":5.374918,"is_reserved":false,"is_disabled":false,"rental_uris":{"android":"levelo://app?vid=b5c8cd35-34dd-45ee-b3e7-3050ef3cbe6a","ios":"levelo://app?vid=b5c8cd35-34dd-45ee-b3e7-3050ef3cbe6a"},"vehicle_type_id":"4","last_reported":1707077226,"current_range_meters":11200,"station_id":"","pricing_plan_id":"free"},{"bike_id":"b3213e45-c6ef-422e-8594-ae77ef1e392f","system_id":"levelo_inurba_marseille","lat":43.301117,"lon":5.398795,"is_reserved":false,"is_disabled":false,"rental_uris":{"android":"levelo://app?vid=b3213e45-c6ef-422e-8594-ae77ef1e392f","ios":"levelo://app?vid=b3213e45-c6ef-422e-8594-ae77ef1e392f"},"vehicle_type_id":"4","last_reported":1707077226,"current_range_meters":2800,"station_id":"ce4bh0h2rcd13ifvqd40","pricing_plan_id":"free"},{"bike_id":"ba013d58-63ad-42ac-8c3c-12593fe58795","system_id":"levelo_inurba_marseille","lat":43.301117,"lon":5.398795,"is_reserved":false,"is_disabled":false,"rental_uris":{"android":"levelo://app?vid=ba013d58-63ad-42ac-8c3c-12593fe58795","ios":"levelo://app?vid=ba013d58-63ad-42ac-8c3c-12593fe58795"},"vehicle_type_id":"4","last_reported":1707077226,"current_range_meters":28400,"station_id":"ce4bh0h2rcd13ifvqd40","pricing_plan_id":"free"},{"bike_id":"6721da53-8925-4b6a-8983-862c4221afa2","system_id":"levelo_inurba_marseille","lat":43.298681,"lon":5.397225,"is_reserved":false,"is_disabled":false,"rental_uris":{"android":"levelo://app?vid=6721da53-8925-4b6a-8983-862c4221afa2","ios":"levelo://app?vid=6721da53-8925-4b6a-8983-862c4221afa2"},"vehicle_type_id":"4","last_reported":1707077226,"current_range_meters":8400,"station_id":"ce4bh0h2rcd13ifvqd50","pricing_plan_id":"free"},{"bike_id":"362c7919-6546-4715-a462-4ebbb454c1d1","system_id":"levelo_inurba_marseille","lat":43.298681,"lon":5.397225,"is_reserved":false,"is_disabled":false,"rental_uris":{"android":"levelo://app?vid=362c7919-6546-4715-a462-4ebbb454c1d1","ios":"levelo://app?vid=362c7919-6546-4715-a462-4ebbb454c1d1"},"vehicle_type_id":"4","last_reported":1707077226,"current_range_meters":18800,"station_id":"ce4bh0h2rcd13ifvqd50","pricing_plan_id":"free"},{"bike_id":"d305468d-3382-4123-b4a1-2a15b35d942c","system_id":"levelo_inurba_marseille","lat":43.28667,"lon":5.36351,"is_reserved":false,"is_disabled":false,"rental_uris":{"android":"levelo://app?vid=d305468d-3382-4123-b4a1-2a15b35d942c","ios":"levelo://app?vid=d305468d-3382-4123-b4a1-2a15b35d942c"},"vehicle_type_id":"4","last_reported":1707077226,"current_range_meters":8400,"station_id":"ce4bhah2rcd13ifvqej0","pricing_plan_id":"free"},{"bike_id":"f9ee7bb1-3915-4a9d-b9f6-5d2efe95427c","system_id":"levelo_inurba_marseille","lat":43.286961,"lon":5.373785,"is_reserved":false,"is_disabled":false,"rental_uris":{"android":"levelo://app?vid=f9ee7bb1-3915-4a9d-b9f6-5d2efe95427c","ios":"levelo://app?vid=f9ee7bb1-3915-4a9d-b9f6-5d2efe95427c"},"vehicle_type_id":"4","last_reported":1707077226,"current_range_meters":8800,"station_id":"ce4bh3p2rcd13ifvqdq0","pricing_plan_id":"free"},{"bike_id":"d3c77141-db99-4e33-9afb-da595021ea08","system_id":"levelo_inurba_marseille","lat":43.286961,"lon":5.373785,"is_reserved":false,"is_disabled":false,"rental_uris":{"android":"levelo://app?vid=d3c77141-db99-4e33-9afb-da595021ea08","ios":"levelo://app?vid=d3c77141-db99-4e33-9afb-da595021ea08"},"vehicle_type_id":"4","last_reported":1707077226,"current_range_meters":9200,"station_id":"ce4bh3p2rcd13ifvqdq0","pricing_plan_id":"free"},{"bike_id":"c7be1fb7-fb9d-45ae-a6c2-8f802b19461d","system_id":"levelo_inurba_marseille","lat":43.298681,"lon":5.397225,"is_reserved":false,"is_disabled":false,"rental_uris":{"android":"levelo://app?vid=c7be1fb7-fb9d-45ae-a6c2-8f802b19461d","ios":"levelo://app?vid=c7be1fb7-fb9d-45ae-a6c2-8f802b19461d"},"vehicle_type_id":"4","last_reported":1707077226,"current_range_meters":18800,"station_id":"ce4bh0h2rcd13ifvqd50","pricing_plan_id":"free"},{"bike_id":"d809d0e6-ab58-405c-9e3f-5833899b5a8b","system_id":"levelo_inurba_marseille","lat":43.295196,"lon":5.39397,"is_reserved":false,"is_disabled":false,"rental_uris":{"android":"levelo://app?vid=d809d0e6-ab58-405c-9e3f-5833899b5a8b","ios":"levelo://app?vid=d809d0e6-ab58-405c-9e3f-5833899b5a8b"},"vehicle_type_id":"4","last_reported":1707077226,"current_range_meters":26400,"station_id":"ce4bh292rcd13ifvqdf0","pricing_plan_id":"free"},{"bike_id":"a409a350-c4c6-49d8-af92-98f847538709","system_id":"levelo_inurba_marseille","lat":43.286961,"lon":5.373785,"is_reserved":false,"is_disabled":false,"rental_uris":{"android":"levelo://app?vid=a409a350-c4c6-49d8-af92-98f847538709","ios":"levelo://app?vid=a409a350-c4c6-49d8-af92-98f847538709"},"vehicle_type_id":"4","last_reported":1707077226,"current_range_meters":14400,"station_id":"ce4bh3p2rcd13ifvqdq0","pricing_plan_id":"free"},{"bike_id":"d31b4f00-b310-4a2a-ac4c-ec3f7ea37043","system_id":"levelo_inurba_marseille","lat":43.286961,"lon":5.373785,"is_reserved":false,"is_disabled":false,"rental_uris":{"android":"levelo://app?vid=d31b4f00-b310-4a2a-ac4c-ec3f7ea37043","ios":"levelo://app?vid=d31b4f00-b310-4a2a-ac4c-ec3f7ea37043"},"vehicle_type_id":"4","last_reported":1707077226,"current_range_meters":31200,"station_id":"ce4bh3p2rcd13ifvqdq0","pricing_plan_id":"free"},{"bike_id":"f1ad9eb9-b72a-4c3e-ada6-a185e3c30c7c","system_id":"levelo_inurba_marseille","lat":43.286591,"lon":5.363346,"is_reserved":false,"is_disabled":false,"rental_uris":{"android":"levelo://app?vid=f1ad9eb9-b72a-4c3e-ada6-a185e3c30c7c","ios":"levelo://app?vid=f1ad9eb9-b72a-4c3e-ada6-a185e3c30c7c"},"vehicle_type_id":"4","last_reported":1707077226,"current_range_meters":29600,"station_id":"ce4bhah2rcd13ifvqej0","pricing_plan_id":"free"},{"bike_id":"9e1c3f8e-1e1f-433f-90a3-9ce9bd38a5a7","system_id":"levelo_inurba_marseille","lat":43.295194,"lon":5.39397,"is_reserved":false,"is_disabled":false,"rental_uris":{"android":"levelo://app?vid=9e1c3f8e-1e1f-433f-90a3-9ce9bd38a5a7","ios":"levelo://app?vid=9e1c3f8e-1e1f-433f-90a3-9ce9bd38a5a7"},"vehicle_type_id":"4","last_reported":1707077226,"current_range_meters":26400,"station_id":"ce4bh292rcd13ifvqdf0","pricing_plan_id":"free"},{"bike_id":"3468834e-403e-476a-96cc-b80fd9b608d9","system_id":"levelo_inurba_marseille","lat":43.295194,"lon":5.39397,"is_reserved":false,"is_disabled":false,"rental_uris":{"android":"levelo://app?vid=3468834e-403e-476a-96cc-b80fd9b608d9","ios":"levelo://app?vid=3468834e-403e-476a-96cc-b80fd9b608d9"},"vehicle_type_id":"4","last_reported":1707077226,"current_range_meters":15200,"station_id":"ce4bh292rcd13ifvqdf0","pricing_plan_id":"free"},{"bike_id":"e893ba87-ddae-4369-89e3-84ef6788b51e","system_id":"levelo_inurba_marseille","lat":43.295196,"lon":5.39397,"is_reserved":false,"is_disabled":false,"rental_uris":{"android":"levelo://app?vid=e893ba87-ddae-4369-89e3-84ef6788b51e","ios":"levelo://app?vid=e893ba87-ddae-4369-89e3-84ef6788b51e"},"vehicle_type_id":"4","last_reported":1707077226,"current_range_meters":27200,"station_id":"ce4bh292rcd13ifvqdf0","pricing_plan_id":"free"},{"bike_id":"76838ced-6c08-4a78-b6e6-dbb603fbe4b5","system_id":"levelo_inurba_marseille","lat":43.295196,"lon":5.39397,"is_reserved":false,"is_disabled":false,"rental_uris":{"android":"levelo://app?vid=76838ced-6c08-4a78-b6e6-dbb603fbe4b5","ios":"levelo://app?vid=76838ced-6c08-4a78-b6e6-dbb603fbe4b5"},"vehicle_type_id":"4","last_reported":1707077226,"current_range_meters":18800,"station_id":"ce4bh292rcd13ifvqdf0","pricing_plan_id":"free"},{"bike_id":"95f5c88c-9f50-4422-bab2-72de30726459","system_id":"levelo_inurba_marseille","lat":43.290345,"lon":5.38646,"is_reserved":false,"is_disabled":false,"rental_uris":{"android":"levelo://app?vid=95f5c88c-9f50-4422-bab2-72de30726459","ios":"levelo://app?vid=95f5c88c-9f50-4422-bab2-72de30726459"},"vehicle_type_id":"4","last_reported":1707077226,"current_range_meters":21200,"station_id":"ce4bh4p2rcd13ifvqe0g","pricing_plan_id":"free"},{"bike_id":"3719b771-444d-455e-9c33-0b9b6e0646c8","system_id":"levelo_inurba_marseille","lat":43.289283,"lon":5.38399,"is_reserved":false,"is_disabled":false,"rental_uris":{"android":"levelo://app?vid=3719b771-444d-455e-9c33-0b9b6e0646c8","ios":"levelo://app?vid=3719b771-444d-455e-9c33-0b9b6e0646c8"},"vehicle_type_id":"4","last_reported":1707077226,"current_range_meters":10800,"station_id":"ce4bh612rcd13ifvqe6g","pricing_plan_id":"free"},{"bike_id":"333226f8-aaeb-48dd-b6bc-ee0a4d5be7b5","system_id":"levelo_inurba_marseille","lat":43.287421,"lon":5.35219,"is_reserved":false,"is_disabled":false,"rental_uris":{"android":"levelo://app?vid=333226f8-aaeb-48dd-b6bc-ee0a4d5be7b5","ios":"levelo://app?vid=333226f8-aaeb-48dd-b6bc-ee0a4d5be7b5"},"vehicle_type_id":"4","last_reported":1707077226,"current_range_meters":0,"station_id":"","pricing_plan_id":"free"},{"bike_id":"0c2164e6-9270-4137-ab4d-a8f9ca4c5514","system_id":"levelo_inurba_marseille","lat":43.316828,"lon":5.404723,"is_reserved":false,"is_disabled":false,"rental_uris":{"android":"levelo://app?vid=0c2164e6-9270-4137-ab4d-a8f9ca4c5514","ios":"levelo://app?vid=0c2164e6-9270-4137-ab4d-a8f9ca4c5514"},"vehicle_type_id":"4","last_reported":1707077226,"current_range_meters":20800,"station_id":"ce4bh012rcd13ifvqd00","pricing_plan_id":"free"},{"bike_id":"a185d0ae-bd02-4ae3-b524-d01d2c25aed7","system_id":"levelo_inurba_marseille","lat":43.316828,"lon":5.404723,"is_reserved":false,"is_disabled":false,"rental_uris":{"android":"levelo://app?vid=a185d0ae-bd02-4ae3-b524-d01d2c25aed7","ios":"levelo://app?vid=a185d0ae-bd02-4ae3-b524-d01d2c25aed7"},"vehicle_type_id":"4","last_reported":1707077226,"current_range_meters":0,"station_id":"ce4bh012rcd13ifvqd00","pricing_plan_id":"free"},{"bike_id":"a7cd7ba1-03f2-4e0f-8a65-6363fa717d53","system_id":"levelo_inurba_marseille","lat":43.316821,"lon":5.404737,"is_reserved":false,"is_disabled":false,"rental_uris":{"android":"levelo://app?vid=a7cd7ba1-03f2-4e0f-8a65-6363fa717d53","ios":"levelo://app?vid=a7cd7ba1-03f2-4e0f-8a65-6363fa717d53"},"vehicle_type_id":"4","last_reported":1707077226,"current_range_meters":13600,"station_id":"ce4bh012rcd13ifvqd00","pricing_plan_id":"free"},{"bike_id":"b4bd041e-12d0-4b2a-9246-5ab3ae89acc1","system_id":"levelo_inurba_marseille","lat":43.31698,"lon":5.4047,"is_reserved":false,"is_disabled":false,"rental_uris":{"android":"levelo://app?vid=b4bd041e-12d0-4b2a-9246-5ab3ae89acc1","ios":"levelo://app?vid=b4bd041e-12d0-4b2a-9246-5ab3ae89acc1"},"vehicle_type_id":"4","last_reported":1707077226,"current_range_meters":4800,"station_id":"ce4bh012rcd13ifvqd00","pricing_plan_id":"free"},{"bike_id":"b1252978-b2d4-410e-815f-b83cd02c402b","system_id":"levelo_inurba_marseille","lat":43.31709,"lon":5.40471,"is_reserved":false,"is_disabled":false,"rental_uris":{"android":"levelo://app?vid=b1252978-b2d4-410e-815f-b83cd02c402b","ios":"levelo://app?vid=b1252978-b2d4-410e-815f-b83cd02c402b"},"vehicle_type_id":"4","last_reported":1707077226,"current_range_meters":31200,"station_id":"ce4bh012rcd13ifvqd00","pricing_plan_id":"free"},{"bike_id":"d6941380-c7e7-4f5e-bb2f-f52b0b0176e0","system_id":"levelo_inurba_marseille","lat":43.291994,"lon":5.392907,"is_reserved":false,"is_disabled":false,"rental_uris":{"android":"levelo://app?vid=d6941380-c7e7-4f5e-bb2f-f52b0b0176e0","ios":"levelo://app?vid=d6941380-c7e7-4f5e-bb2f-f52b0b0176e0"},"vehicle_type_id":"4","last_reported":1707077226,"current_range_meters":19200,"station_id":"ce4bh192rcd13ifvqdd0","pricing_plan_id":"free"},{"bike_id":"3736f762-3495-441a-ae3b-406a2a664208","system_id":"levelo_inurba_marseille","lat":43.291994,"lon":5.392907,"is_reserved":false,"is_disabled":false,"rental_uris":{"android":"levelo://app?vid=3736f762-3495-441a-ae3b-406a2a664208","ios":"levelo://app?vid=3736f762-3495-441a-ae3b-406a2a664208"},