{"last_updated":1770273820,"ttl":60,"version":"2.2","data":{"bikes":[{"bike_id":"fab9524a-1b84-4a33-95e7-36a9211b5894","system_id":"levelo_inurba_marseille","lat":43.22557,"lon":5.41633,"is_reserved":false,"is_disabled":false,"rental_uris":{"android":"levelo://app?vid=fab9524a-1b84-4a33-95e7-36a9211b5894","ios":"levelo://app?vid=fab9524a-1b84-4a33-95e7-36a9211b5894"},"vehicle_type_id":"4","last_reported":1770273821,"current_range_meters":1600,"station_id":"st_d2o4gvlbi1j2169b742g","pricing_plan_id":"cebpf4jnsgd1na2vs0mg"},{"bike_id":"4df9164b-69f3-4aee-8864-605fcc120300","system_id":"levelo_inurba_marseille","lat":43.31144,"lon":5.38717,"is_reserved":false,"is_disabled":false,"rental_uris":{"android":"levelo://app?vid=4df9164b-69f3-4aee-8864-605fcc120300","ios":"levelo://app?vid=4df9164b-69f3-4aee-8864-605fcc120300"},"vehicle_type_id":"4","last_reported":1770273821,"current_range_meters":2800,"station_id":"ce4bgv12rcd13ifvqcp0","pricing_plan_id":"cebpf4jnsgd1na2vs0mg"},{"bike_id":"261d39cf-836d-4e3b-8140-d504536ebe1c","system_id":"levelo_inurba_marseille","lat":43.24683,"lon":5.39355,"is_reserved":false,"is_disabled":false,"rental_uris":{"android":"levelo://app?vid=261d39cf-836d-4e3b-8140-d504536ebe1c","ios":"levelo://app?vid=261d39cf-836d-4e3b-8140-d504536ebe1c"},"vehicle_type_id":"4","last_reported":1770273821,"current_range_meters":2800,"station_id":"","pricing_plan_id":"cebpf4jnsgd1na2vs0mg"},{"bike_id":"efea85db-b1c8-46f7-b3e0-9fa246910aa6","system_id":"levelo_inurba_marseille","lat":43.23192,"lon":5.39977,"is_reserved":false,"is_disabled":false,"rental_uris":{"android":"levelo://app?vid=efea85db-b1c8-46f7-b3e0-9fa246910aa6","ios":"levelo://app?vid=efea85db-b1c8-46f7-b3e0-9fa246910aa6"},"vehicle_type_id":"4","last_reported":1770273821,"current_range_meters":2800,"station_id":"ce4bhn12rcd13ifvqgqg","pricing_plan_id":"cebpf4jnsgd1na2vs0mg"},{"bike_id":"046e7757-7125-4638-959f-a98bf271f615","system_id":"levelo_inurba_marseille","lat":43.26205,"lon":5.37464,"is_reserved":false,"is_disabled":false,"rental_uris":{"android":"levelo://app?vid=046e7757-7125-4638-959f-a98bf271f615","ios":"levelo://app?vid=046e7757-7125-4638-959f-a98bf271f615"},"vehicle_type_id":"4","last_reported":1770273821,"current_range_meters":2800,"station_id":"ce4bhgp2rcd13ifvqfc0","pricing_plan_id":"cebpf4jnsgd1na2vs0mg"},{"bike_id":"fc6793a0-e26a-44a3-8ff3-8ae73515e916","system_id":"levelo_inurba_marseille","lat":43.27312,"lon":5.39073,"is_reserved":false,"is_disabled":false,"rental_uris":{"android":"levelo://app?vid=fc6793a0-e26a-44a3-8ff3-8ae73515e916","ios":"levelo://app?vid=fc6793a0-e26a-44a3-8ff3-8ae73515e916"},"vehicle_type_id":"4","last_reported":1770273821,"current_range_meters":2800,"station_id":"ce4bhgp2rcd13ifvqfe0","pricing_plan_id":"cebpf4jnsgd1na2vs0mg"},{"bike_id":"13792967-e84d-49d8-a084-62f8e2603bbd","system_id":"levelo_inurba_marseille","lat":43.24651,"lon":5.38893,"is_reserved":false,"is_disabled":false,"rental_uris":{"android":"levelo://app?vid=13792967-e84d-49d8-a084-62f8e2603bbd","ios":"levelo://app?vid=13792967-e84d-49d8-a084-62f8e2603bbd"},"vehicle_type_id":"4","last_reported":1770273821,"current_range_meters":2800,"station_id":"ce4bhg12rcd13ifvqf60","pricing_plan_id":"cebpf4jnsgd1na2vs0mg"},{"bike_id":"f3318fc5-517b-4379-ab99-0b3b1be2500a","system_id":"levelo_inurba_marseille","lat":43.233798,"lon":5.412421,"is_reserved":false,"is_disabled":false,"rental_uris":{"android":"levelo://app?vid=f3318fc5-517b-4379-ab99-0b3b1be2500a","ios":"levelo://app?vid=f3318fc5-517b-4379-ab99-0b3b1be2500a"},"vehicle_type_id":"4","last_reported":1770273821,"current_range_meters":2800,"station_id":"","pricing_plan_id":"cebpf4jnsgd1na2vs0mg"},{"bike_id":"458b1d5f-d114-467e-9088-6f35cf923bb2","system_id":"levelo_inurba_marseille","lat":43.2978,"lon":5.38106,"is_reserved":false,"is_disabled":true,"rental_uris":{"android":"levelo://app?vid=458b1d5f-d114-467e-9088-6f35cf923bb2","ios":"levelo://app?vid=458b1d5f-d114-467e-9088-6f35cf923bb2"},"vehicle_type_id":"4","last_reported":1770273821,"current_range_meters":2800,"station_id":"ce4bgip2rcd13ifvqbb0","pricing_plan_id":"cebpf4jnsgd1na2vs0mg"},{"bike_id":"c143c7c9-0924-48dc-a1e7-7eac6ac1a2c4","system_id":"levelo_inurba_marseille","lat":43.32662,"lon":5.41006,"is_reserved":false,"is_disabled":false,"rental_uris":{"android":"levelo://app?vid=c143c7c9-0924-48dc-a1e7-7eac6ac1a2c4","ios":"levelo://app?vid=c143c7c9-0924-48dc-a1e7-7eac6ac1a2c4"},"vehicle_type_id":"4","last_reported":1770273821,"current_range_meters":3200,"station_id":"ce4bhpp2rcd13ifvqhgg","pricing_plan_id":"cebpf4jnsgd1na2vs0mg"},{"bike_id":"13f8e3a0-90f3-4a4e-884a-8ae4c46014a4","system_id":"levelo_inurba_marseille","lat":43.22563,"lon":5.41617,"is_reserved":false,"is_disabled":false,"rental_uris":{"android":"levelo://app?vid=13f8e3a0-90f3-4a4e-884a-8ae4c46014a4","ios":"levelo://app?vid=13f8e3a0-90f3-4a4e-884a-8ae4c46014a4"},"vehicle_type_id":"4","last_reported":1770273821,"current_range_meters":3200,"station_id":"st_d2o4gvlbi1j2169b742g","pricing_plan_id":"cebpf4jnsgd1na2vs0mg"},{"bike_id":"8fb4838b-c5bd-4cb2-8c92-fceeea48a889","system_id":"levelo_inurba_marseille","lat":43.29558,"lon":5.42283,"is_reserved":false,"is_disabled":false,"rental_uris":{"android":"levelo://app?vid=8fb4838b-c5bd-4cb2-8c92-fceeea48a889","ios":"levelo://app?vid=8fb4838b-c5bd-4cb2-8c92-fceeea48a889"},"vehicle_type_id":"4","last_reported":1770273821,"current_range_meters":3200,"station_id":"ce4bhph2rcd13ifvqhdg","pricing_plan_id":"cebpf4jnsgd1na2vs0mg"},{"bike_id":"ef68b6ab-11e1-4875-bcbe-37369f60c1ba","system_id":"levelo_inurba_marseille","lat":43.25313,"lon":5.42177,"is_reserved":false,"is_disabled":false,"rental_uris":{"android":"levelo://app?vid=ef68b6ab-11e1-4875-bcbe-37369f60c1ba","ios":"levelo://app?vid=ef68b6ab-11e1-4875-bcbe-37369f60c1ba"},"vehicle_type_id":"4","last_reported":1770273821,"current_range_meters":3200,"station_id":"st_d2m65c5bi1j21697t3ng","pricing_plan_id":"cebpf4jnsgd1na2vs0mg"},{"bike_id":"a335e491-c933-4fc6-b3af-3e15603baffd","system_id":"levelo_inurba_marseille","lat":43.31607,"lon":5.38318,"is_reserved":false,"is_disabled":false,"rental_uris":{"android":"levelo://app?vid=a335e491-c933-4fc6-b3af-3e15603baffd","ios":"levelo://app?vid=a335e491-c933-4fc6-b3af-3e15603baffd"},"vehicle_type_id":"4","last_reported":1770273821,"current_range_meters":3600,"station_id":"","pricing_plan_id":"cebpf4jnsgd1na2vs0mg"},{"bike_id":"6af9c093-c8f8-4e82-9b76-84ead01f4f13","system_id":"levelo_inurba_marseille","lat":43.26545,"lon":5.4032,"is_reserved":false,"is_disabled":false,"rental_uris":{"android":"levelo://app?vid=6af9c093-c8f8-4e82-9b76-84ead01f4f13","ios":"levelo://app?vid=6af9c093-c8f8-4e82-9b76-84ead01f4f13"},"vehicle_type_id":"4","last_reported":1770273821,"current_range_meters":3600,"station_id":"ce4bhmp2rcd13ifvqgng","pricing_plan_id":"cebpf4jnsgd1na2vs0mg"},{"bike_id":"c3e77f90-af9b-4ac4-9b36-0c3e90510873","system_id":"levelo_inurba_marseille","lat":43.2573,"lon":5.41121,"is_reserved":false,"is_disabled":false,"rental_uris":{"android":"levelo://app?vid=c3e77f90-af9b-4ac4-9b36-0c3e90510873","ios":"levelo://app?vid=c3e77f90-af9b-4ac4-9b36-0c3e90510873"},"vehicle_type_id":"4","last_reported":1770273821,"current_range_meters":3600,"station_id":"ce4bhkp2rcd13ifvqgd0","pricing_plan_id":"cebpf4jnsgd1na2vs0mg"},{"bike_id":"ad450168-32bc-48e5-981d-10198d96911f","system_id":"levelo_inurba_marseille","lat":43.24162,"lon":5.36393,"is_reserved":false,"is_disabled":false,"rental_uris":{"android":"levelo://app?vid=ad450168-32bc-48e5-981d-10198d96911f","ios":"levelo://app?vid=ad450168-32bc-48e5-981d-10198d96911f"},"vehicle_type_id":"4","last_reported":1770273821,"current_range_meters":3600,"station_id":"cpo36qri1sfpv3e86is0","pricing_plan_id":"cebpf4jnsgd1na2vs0mg"},{"bike_id":"888f6c66-c6a0-46fb-938d-66e6faedbc0b","system_id":"levelo_inurba_marseille","lat":43.290039,"lon":5.356219,"is_reserved":false,"is_disabled":false,"rental_uris":{"android":"levelo://app?vid=888f6c66-c6a0-46fb-938d-66e6faedbc0b","ios":"levelo://app?vid=888f6c66-c6a0-46fb-938d-66e6faedbc0b"},"vehicle_type_id":"4","last_reported":1770273821,"current_range_meters":4000,"station_id":"ce4bhb92rcd13ifvqen0","pricing_plan_id":"cebpf4jnsgd1na2vs0mg"},{"bike_id":"83031ca8-9a01-425b-992d-e4dc7237fe73","system_id":"levelo_inurba_marseille","lat":43.22917,"lon":5.35391,"is_reserved":false,"is_disabled":false,"rental_uris":{"android":"levelo://app?vid=83031ca8-9a01-425b-992d-e4dc7237fe73","ios":"levelo://app?vid=83031ca8-9a01-425b-992d-e4dc7237fe73"},"vehicle_type_id":"4","last_reported":1770273821,"current_range_meters":4000,"station_id":"cpo3532slgdg3j2ikp40","pricing_plan_id":"cebpf4jnsgd1na2vs0mg"},{"bike_id":"41ca42ba-dc95-43b8-bdd4-37f439e3c100","system_id":"levelo_inurba_marseille","lat":43.29067,"lon":5.37552,"is_reserved":false,"is_disabled":false,"rental_uris":{"android":"levelo://app?vid=41ca42ba-dc95-43b8-bdd4-37f439e3c100","ios":"levelo://app?vid=41ca42ba-dc95-43b8-bdd4-37f439e3c100"},"vehicle_type_id":"4","last_reported":1770273821,"current_range_meters":4000,"station_id":"ce4bh692rcd13ifvqe90","pricing_plan_id":"cebpf4jnsgd1na2vs0mg"},{"bike_id":"7ab80b7e-a203-442c-b352-62055b06df4d","system_id":"levelo_inurba_marseille","lat":43.31032,"lon":5.37182,"is_reserved":false,"is_disabled":false,"rental_uris":{"android":"levelo://app?vid=7ab80b7e-a203-442c-b352-62055b06df4d","ios":"levelo://app?vid=7ab80b7e-a203-442c-b352-62055b06df4d"},"vehicle_type_id":"4","last_reported":1770273821,"current_range_meters":4000,"station_id":"st_d4kl2rp97mjs73e7tdfg","pricing_plan_id":"cebpf4jnsgd1na2vs0mg"},{"bike_id":"941d0b03-9ae1-4106-9296-775ca1406222","system_id":"levelo_inurba_marseille","lat":43.282979,"lon":5.423904,"is_reserved":false,"is_disabled":false,"rental_uris":{"android":"levelo://app?vid=941d0b03-9ae1-4106-9296-775ca1406222","ios":"levelo://app?vid=941d0b03-9ae1-4106-9296-775ca1406222"},"vehicle_type_id":"4","last_reported":1770273821,"current_range_meters":4000,"station_id":"","pricing_plan_id":"cebpf4jnsgd1na2vs0mg"},{"bike_id":"df818b63-7648-41d3-aafa-acbf575354e7","system_id":"levelo_inurba_marseille","lat":43.28963,"lon":5.37839,"is_reserved":false,"is_disabled":false,"rental_uris":{"android":"levelo://app?vid=df818b63-7648-41d3-aafa-acbf575354e7","ios":"levelo://app?vid=df818b63-7648-41d3-aafa-acbf575354e7"},"vehicle_type_id":"4","last_reported":1770273821,"current_range_meters":4000,"station_id":"ce4bh9p2rcd13ifvqed0","pricing_plan_id":"cebpf4jnsgd1na2vs0mg"},{"bike_id":"6c0809a9-584d-43e0-91a7-40baf97ad0a5","system_id":"levelo_inurba_marseille","lat":43.27166,"lon":5.41002,"is_reserved":false,"is_disabled":false,"rental_uris":{"android":"levelo://app?vid=6c0809a9-584d-43e0-91a7-40baf97ad0a5","ios":"levelo://app?vid=6c0809a9-584d-43e0-91a7-40baf97ad0a5"},"vehicle_type_id":"4","last_reported":1770273821,"current_range_meters":4000,"station_id":"ce4bhl12rcd13ifvqgf0","pricing_plan_id":"cebpf4jnsgd1na2vs0mg"},{"bike_id":"f345fe6b-cad0-409f-b72f-99413160af20","system_id":"levelo_inurba_marseille","lat":43.26556,"lon":5.37289,"is_reserved":false,"is_disabled":false,"rental_uris":{"android":"levelo://app?vid=f345fe6b-cad0-409f-b72f-99413160af20","ios":"levelo://app?vid=f345fe6b-cad0-409f-b72f-99413160af20"},"vehicle_type_id":"4","last_reported":1770273821,"current_range_meters":4000,"station_id":"ce4bhg12rcd13ifvqf70","pricing_plan_id":"cebpf4jnsgd1na2vs0mg"},{"bike_id":"5ffc162c-3876-4a49-af02-3661f44effbb","system_id":"levelo_inurba_marseille","lat":43.28482,"lon":5.48405,"is_reserved":false,"is_disabled":false,"rental_uris":{"android":"levelo://app?vid=5ffc162c-3876-4a49-af02-3661f44effbb","ios":"levelo://app?vid=5ffc162c-3876-4a49-af02-3661f44effbb"},"vehicle_type_id":"4","last_reported":1770273821,"current_range_meters":4000,"station_id":"st_d3svhcjqgbts73a3dn0g","pricing_plan_id":"cebpf4jnsgd1na2vs0mg"},{"bike_id":"8d3e7d7f-fadb-4171-a139-ea9d29aba2b7","system_id":"levelo_inurba_marseille","lat":43.28413,"lon":5.43506,"is_reserved":false,"is_disabled":false,"rental_uris":{"android":"levelo://app?vid=8d3e7d7f-fadb-4171-a139-ea9d29aba2b7","ios":"levelo://app?vid=8d3e7d7f-fadb-4171-a139-ea9d29aba2b7"},"vehicle_type_id":"4","last_reported":1770273821,"current_range_meters":4400,"station_id":"","pricing_plan_id":"cebpf4jnsgd1na2vs0mg"},{"bike_id":"8e443969-89bd-46f6-a10f-2e1233840320","system_id":"levelo_inurba_marseille","lat":43.24657,"lon":5.38156,"is_reserved":false,"is_disabled":false,"rental_uris":{"android":"levelo://app?vid=8e443969-89bd-46f6-a10f-2e1233840320","ios":"levelo://app?vid=8e443969-89bd-46f6-a10f-2e1233840320"},"vehicle_type_id":"4","last_reported":1770273821,"current_range_meters":4400,"station_id":"ce4bhih2rcd13ifvqfr0","pricing_plan_id":"cebpf4jnsgd1na2vs0mg"},{"bike_id":"bc11b645-4a28-43a9-a15e-e34b2b942d16","system_id":"levelo_inurba_marseille","lat":43.29622,"lon":5.37984,"is_reserved":false,"is_disabled":false,"rental_uris":{"android":"levelo://app?vid=bc11b645-4a28-43a9-a15e-e34b2b942d16","ios":"levelo://app?vid=bc11b645-4a28-43a9-a15e-e34b2b942d16"},"vehicle_type_id":"4","last_reported":1770273821,"current_range_meters":4400,"station_id":"ce4bgl12rcd13ifvqbo0","pricing_plan_id":"cebpf4jnsgd1na2vs0mg"},{"bike_id":"605a645e-761d-4a85-acd6-fe955761eefa","system_id":"levelo_inurba_marseille","lat":43.29604,"lon":5.38357,"is_reserved":false,"is_disabled":false,"rental_uris":{"android":"levelo://app?vid=605a645e-761d-4a85-acd6-fe955761eefa","ios":"levelo://app?vid=605a645e-761d-4a85-acd6-fe955761eefa"},"vehicle_type_id":"4","last_reported":1770273821,"current_range_meters":4400,"station_id":"","pricing_plan_id":"cebpf4jnsgd1na2vs0mg"},{"bike_id":"2d334d5c-0886-4db9-83b0-7ae06d91ac1c","system_id":"levelo_inurba_marseille","lat":43.211932,"lon":5.350728,"is_reserved":false,"is_disabled":false,"rental_uris":{"android":"levelo://app?vid=2d334d5c-0886-4db9-83b0-7ae06d91ac1c","ios":"levelo://app?vid=2d334d5c-0886-4db9-83b0-7ae06d91ac1c"},"vehicle_type_id":"4","last_reported":1770273821,"current_range_meters":4400,"station_id":"st_cvj6sg6p6f1abm77japg","pricing_plan_id":"cebpf4jnsgd1na2vs0mg"},{"bike_id":"16c34f42-9a66-4fd5-8689-2fc8478b1531","system_id":"levelo_inurba_marseille","lat":43.22905,"lon":5.35387,"is_reserved":false,"is_disabled":false,"rental_uris":{"android":"levelo://app?vid=16c34f42-9a66-4fd5-8689-2fc8478b1531","ios":"levelo://app?vid=16c34f42-9a66-4fd5-8689-2fc8478b1531"},"vehicle_type_id":"4","last_reported":1770273821,"current_range_meters":4400,"station_id":"cpo3532slgdg3j2ikp40","pricing_plan_id":"cebpf4jnsgd1na2vs0mg"},{"bike_id":"ef64cb18-c8a8-4251-87f8-703e259c4330","system_id":"levelo_inurba_marseille","lat":43.47654,"lon":5.48969,"is_reserved":false,"is_disabled":false,"rental_uris":{"android":"levelo://app?vid=ef64cb18-c8a8-4251-87f8-703e259c4330","ios":"levelo://app?vid=ef64cb18-c8a8-4251-87f8-703e259c4330"},"vehicle_type_id":"4","last_reported":1770273821,"current_range_meters":4400,"station_id":"","pricing_plan_id":"cebpf4jnsgd1na2vs0mg"},{"bike_id":"626974d3-ace9-41dd-9dbe-f4621ca953aa","system_id":"levelo_inurba_marseille","lat":43.29445,"lon":5.40984,"is_reserved":false,"is_disabled":false,"rental_uris":{"android":"levelo://app?vid=626974d3-ace9-41dd-9dbe-f4621ca953aa","ios":"levelo://app?vid=626974d3-ace9-41dd-9dbe-f4621ca953aa"},"vehicle_type_id":"4","last_reported":1770273821,"current_range_meters":4800,"station_id":"","pricing_plan_id":"cebpf4jnsgd1na2vs0mg"},{"bike_id":"91c21601-5efe-4644-9a24-675b91c6816e","system_id":"levelo_inurba_marseille","lat":43.246549,"lon":5.388826,"is_reserved":false,"is_disabled":false,"rental_uris":{"android":"levelo://app?vid=91c21601-5efe-4644-9a24-675b91c6816e","ios":"levelo://app?vid=91c21601-5efe-4644-9a24-675b91c6816e"},"vehicle_type_id":"4","last_reported":1770273821,"current_range_meters":4800,"station_id":"ce4bhg12rcd13ifvqf60","pricing_plan_id":"cebpf4jnsgd1na2vs0mg"},{"bike_id":"aa652dc7-21cd-4625-9b3a-7dd1e13e5acc","system_id":"levelo_inurba_marseille","lat":43.245488,"lon":5.395269,"is_reserved":false,"is_disabled":false,"rental_uris":{"android":"levelo://app?vid=aa652dc7-21cd-4625-9b3a-7dd1e13e5acc","ios":"levelo://app?vid=aa652dc7-21cd-4625-9b3a-7dd1e13e5acc"},"vehicle_type_id":"4","last_reported":1770273821,"current_range_meters":4800,"station_id":"ce4bhlp2rcd13ifvqgjg","pricing_plan_id":"cebpf4jnsgd1na2vs0mg"},{"bike_id":"522d748c-7700-4a9e-9665-197613ae3ea1","system_id":"levelo_inurba_marseille","lat":43.2257,"lon":5.41635,"is_reserved":false,"is_disabled":false,"rental_uris":{"android":"levelo://app?vid=522d748c-7700-4a9e-9665-197613ae3ea1","ios":"levelo://app?vid=522d748c-7700-4a9e-9665-197613ae3ea1"},"vehicle_type_id":"4","last_reported":1770273821,"current_range_meters":4800,"station_id":"st_d2o4gvlbi1j2169b742g","pricing_plan_id":"cebpf4jnsgd1na2vs0mg"},{"bike_id":"63bed449-f327-47c0-971d-3d6b04a3d904","system_id":"levelo_inurba_marseille","lat":43.27986,"lon":5.41663,"is_reserved":false,"is_disabled":false,"rental_uris":{"android":"levelo://app?vid=63bed449-f327-47c0-971d-3d6b04a3d904","ios":"levelo://app?vid=63bed449-f327-47c0-971d-3d6b04a3d904"},"vehicle_type_id":"4","last_reported":1770273821,"current_range_meters":4800,"station_id":"ce4bho12rcd13ifvqh1g","pricing_plan_id":"cebpf4jnsgd1na2vs0mg"},{"bike_id":"c6e323e3-4052-4940-8ba6-87e1847b0dcf","system_id":"levelo_inurba_marseille","lat":43.259412,"lon":5.409092,"is_reserved":false,"is_disabled":false,"rental_uris":{"android":"levelo://app?vid=c6e323e3-4052-4940-8ba6-87e1847b0dcf","ios":"levelo://app?vid=c6e323e3-4052-4940-8ba6-87e1847b0dcf"},"vehicle_type_id":"4","last_reported":1770273821,"current_range_meters":4800,"station_id":"ce4bhm92rcd13ifvqglg","pricing_plan_id":"cebpf4jnsgd1na2vs0mg"},{"bike_id":"2f061e30-6ea2-4b9c-8b74-131fe6b03ed8","system_id":"levelo_inurba_marseille","lat":43.29958,"lon":5.41326,"is_reserved":false,"is_disabled":false,"rental_uris":{"android":"levelo://app?vid=2f061e30-6ea2-4b9c-8b74-131fe6b03ed8","ios":"levelo://app?vid=2f061e30-6ea2-4b9c-8b74-131fe6b03ed8"},"vehicle_type_id":"4","last_reported":1770273821,"current_range_meters":4800,"station_id":"ce4bhp12rcd13ifvqh9g","pricing_plan_id":"cebpf4jnsgd1na2vs0mg"},{"bike_id":"c7fd0cc4-a197-46ca-aee1-7cb94bc0ffc0","system_id":"levelo_inurba_marseille","lat":43.23371,"lon":5.41233,"is_reserved":false,"is_disabled":false,"rental_uris":{"android":"levelo://app?vid=c7fd0cc4-a197-46ca-aee1-7cb94bc0ffc0","ios":"levelo://app?vid=c7fd0cc4-a197-46ca-aee1-7cb94bc0ffc0"},"vehicle_type_id":"4","last_reported":1770273821,"current_range_meters":4800,"station_id":"","pricing_plan_id":"cebpf4jnsgd1na2vs0mg"},{"bike_id":"a5c1703c-0b2d-4e6b-b820-25e716f1e211","system_id":"levelo_inurba_marseille","lat":43.28511,"lon":5.48357,"is_reserved":false,"is_disabled":false,"rental_uris":{"android":"levelo://app?vid=a5c1703c-0b2d-4e6b-b820-25e716f1e211","ios":"levelo://app?vid=a5c1703c-0b2d-4e6b-b820-25e716f1e211"},"vehicle_type_id":"4","last_reported":1770273821,"current_range_meters":4800,"station_id":"st_d3svhcjqgbts73a3dn0g","pricing_plan_id":"cebpf4jnsgd1na2vs0mg"},{"bike_id":"7d98e2af-e184-45f6-93f5-c693cd01569d","system_id":"levelo_inurba_marseille","lat":43.23154,"lon":5.43731,"is_reserved":false,"is_disabled":false,"rental_uris":{"android":"levelo://app?vid=7d98e2af-e184-45f6-93f5-c693cd01569d","ios":"levelo://app?vid=7d98e2af-e184-45f6-93f5-c693cd01569d"},"vehicle_type_id":"4","last_reported":1770273821,"current_range_meters":5600,"station_id":"ce4bhmp2rcd13ifvqgog","pricing_plan_id":"cebpf4jnsgd1na2vs0mg"},{"bike_id":"8e7f7dcc-7fc1-4fa3-8f7a-9b4596de5459","system_id":"levelo_inurba_marseille","lat":43.28474,"lon":5.35928,"is_reserved":false,"is_disabled":true,"rental_uris":{"android":"levelo://app?vid=8e7f7dcc-7fc1-4fa3-8f7a-9b4596de5459","ios":"levelo://app?vid=8e7f7dcc-7fc1-4fa3-8f7a-9b4596de5459"},"vehicle_type_id":"4","last_reported":1770273821,"current_range_meters":5600,"station_id":"ce4bhah2rcd13ifvqei0","pricing_plan_id":"cebpf4jnsgd1na2vs0mg"},{"bike_id":"61c4cbe2-eed4-41e6-a6ff-be907a5d72ed","system_id":"levelo_inurba_marseille","lat":43.25002,"lon":5.38939,"is_reserved":false,"is_disabled":false,"rental_uris":{"android":"levelo://app?vid=61c4cbe2-eed4-41e6-a6ff-be907a5d72ed","ios":"levelo://app?vid=61c4cbe2-eed4-41e6-a6ff-be907a5d72ed"},"vehicle_type_id":"4","last_reported":1770273821,"current_range_meters":5600,"station_id":"ce4bhgp2rcd13ifvqfd0","pricing_plan_id":"cebpf4jnsgd1na2vs0mg"},{"bike_id":"d72c8d0b-6864-4eb2-b074-4484e5b3c2c1","system_id":"levelo_inurba_marseille","lat":43.284824,"lon":5.483994,"is_reserved":false,"is_disabled":false,"rental_uris":{"android":"levelo://app?vid=d72c8d0b-6864-4eb2-b074-4484e5b3c2c1","ios":"levelo://app?vid=d72c8d0b-6864-4eb2-b074-4484e5b3c2c1"},"vehicle_type_id":"4","last_reported":1770273821,"current_range_meters":5600,"station_id":"st_d3svhcjqgbts73a3dn0g","pricing_plan_id":"cebpf4jnsgd1na2vs0mg"},{"bike_id":"708d8107-a502-4715-8ee8-97e259938ef7","system_id":"levelo_inurba_marseille","lat":43.24168,"lon":5.36389,"is_reserved":false,"is_disabled":false,"rental_uris":{"android":"levelo://app?vid=708d8107-a502-4715-8ee8-97e259938ef7","ios":"levelo://app?vid=708d8107-a502-4715-8ee8-97e259938ef7"},"vehicle_type_id":"4","last_reported":1770273821,"current_range_meters":5600,"station_id":"cpo36qri1sfpv3e86is0","pricing_plan_id":"cebpf4jnsgd1na2vs0mg"},{"bike_id":"efea97cf-ff85-47aa-a6fd-26dd39fdf16c","system_id":"levelo_inurba_marseille","lat":43.305618,"lon":5.366629,"is_reserved":false,"is_disabled":false,"rental_uris":{"android":"levelo://app?vid=efea97cf-ff85-47aa-a6fd-26dd39fdf16c","ios":"levelo://app?vid=efea97cf-ff85-47aa-a6fd-26dd39fdf16c"},"vehicle_type_id":"4","last_reported":1770273821,"current_range_meters":5600,"station_id":"ce4bgrp2rcd13ifvqc9g","pricing_plan_id":"cebpf4jnsgd1na2vs0mg"},{"bike_id":"2de0cce0-a4cf-4b2c-870c-3c981e77423e","system_id":"levelo_inurba_marseille","lat":43.29259,"lon":5.38411,"is_reserved":false,"is_disabled":true,"rental_uris":{"android":"levelo://app?vid=2de0cce0-a4cf-4b2c-870c-3c981e77423e","ios":"levelo://app?vid=2de0cce0-a4cf-4b2c-870c-3c981e77423e"},"vehicle_type_id":"4","last_reported":1770273821,"current_range_meters":5600,"station_id":"ce4bh692rcd13ifvqea0","pricing_plan_id":"cebpf4jnsgd1na2vs0mg"},{"bike_id":"f56dea41-99a0-46d5-bc1f-58ac218b3393","system_id":"levelo_inurba_marseille","lat":43.31155,"lon":5.38816,"is_reserved":false,"is_disabled":false,"rental_uris":{"android":"levelo://app?vid=f56dea41-99a0-46d5-bc1f-58ac218b3393","ios":"levelo://app?vid=f56dea41-99a0-46d5-bc1f-58ac218b3393"},"vehicle_type_id":"4","last_reported":1770273821,"current_range_meters":5600,"station_id":"ce4bgv12rcd13ifvqcp0","pricing_plan_id":"cebpf4jnsgd1na2vs0mg"},{"bike_id":"e55375b7-3afd-47f8-a340-f83f485617be","system_id":"levelo_inurba_marseille","lat":43.29927,"lon":5.36527,"is_reserved":false,"is_disabled":false,"rental_uris":{"android":"levelo://app?vid=e55375b7-3afd-47f8-a340-f83f485617be","ios":"levelo://app?vid=e55375b7-3afd-47f8-a340-f83f485617be"},"vehicle_type_id":"4","last_reported":1770273821,"current_range_meters":5600,"station_id":"ce4bgm92rcd13ifvqbr0","pricing_plan_id":"cebpf4jnsgd1na2vs0mg"},{"bike_id":"d2552b84-e732-4f87-a2d3-975686408eda","system_id":"levelo_inurba_marseille","lat":43.310559,"lon":5.371875,"is_reserved":false,"is_disabled":false,"rental_uris":{"android":"levelo://app?vid=d2552b84-e732-4f87-a2d3-975686408eda","ios":"levelo://app?vid=d2552b84-e732-4f87-a2d3-975686408eda"},"vehicle_type_id":"4","last_reported":1770273821,"current_range_meters":6000,"station_id":"st_d4kl2rp97mjs73e7tdfg","pricing_plan_id":"cebpf4jnsgd1na2vs0mg"},{"bike_id":"3376af0a-2c8a-4f7e-ab86-0856914ff72b","system_id":"levelo_inurba_marseille","lat":43.29528,"lon":5.38536,"is_reserved":false,"is_disabled":false,"rental_uris":{"android":"levelo://app?vid=3376af0a-2c8a-4f7e-ab86-0856914ff72b","ios":"levelo://app?vid=3376af0a-2c8a-4f7e-ab86-0856914ff72b"},"vehicle_type_id":"4","last_reported":1770273821,"current_range_meters":6000,"station_id":"ce4bgih2rcd13ifvqba0","pricing_plan_id":"cebpf4jnsgd1na2vs0mg"},{"bike_id":"c5cff992-53ec-4d00-9c16-443240fd0d04","system_id":"levelo_inurba_marseille","lat":43.26956,"lon":5.40227,"is_reserved":false,"is_disabled":false,"rental_uris":{"android":"levelo://app?vid=c5cff992-53ec-4d00-9c16-443240fd0d04","ios":"levelo://app?vid=c5cff992-53ec-4d00-9c16-443240fd0d04"},"vehicle_type_id":"4","last_reported":1770273821,"current_range_meters":6000,"station_id":"cjm6bp8fraef2m0cb0m0","pricing_plan_id":"cebpf4jnsgd1na2vs0mg"},{"bike_id":"ae0672e2-1839-431a-b388-02cf3de3f3a6","system_id":"levelo_inurba_marseille","lat":43.294864,"lon":5.433092,"is_reserved":false,"is_disabled":false,"rental_uris":{"android":"levelo://app?vid=ae0672e2-1839-431a-b388-02cf3de3f3a6","ios":"levelo://app?vid=ae0672e2-1839-431a-b388-02cf3de3f3a6"},"vehicle_type_id":"4","last_reported":1770273821,"current_range_meters":6000,"station_id":"st_d3j5ugp08ojc73fj9d10","pricing_plan_id":"cebpf4jnsgd1na2vs0mg"},{"bike_id":"1192b0e6-7779-4c54-8723-ac272fd56a64","system_id":"levelo_inurba_marseille","lat":43.29566,"lon":5.37525,"is_reserved":false,"is_disabled":false,"rental_uris":{"android":"levelo://app?vid=1192b0e6-7779-4c54-8723-ac272fd56a64","ios":"levelo://app?vid=1192b0e6-7779-4c54-8723-ac272fd56a64"},"vehicle_type_id":"4","last_reported":1770273821,"current_range_meters":6000,"station_id":"ce4bgh92rcd13ifvqb50","pricing_plan_id":"cebpf4jnsgd1na2vs0mg"},{"bike_id":"09a681ca-f587-48c1-ac8f-662ed8c8a8cf","system_id":"levelo_inurba_marseille","lat":43.31074,"lon":5.38356,"is_reserved":false,"is_disabled":true,"rental_uris":{"android":"levelo://app?vid=09a681ca-f587-48c1-ac8f-662ed8c8a8cf","ios":"levelo://app?vid=09a681ca-f587-48c1-ac8f-662ed8c8a8cf"},"vehicle_type_id":"4","last_reported":1770273821,"current_range_meters":6000,"station_id":"ce4bgv92rcd13ifvqcr0","pricing_plan_id":"cebpf4jnsgd1na2vs0mg"},{"bike_id":"70366dc7-45e3-4769-a351-b7652162e279","system_id":"levelo_inurba_marseille","lat":43.30218,"lon":5.39463,"is_reserved":false,"is_disabled":false,"rental_uris":{"android":"levelo://app?vid=70366dc7-45e3-4769-a351-b7652162e279","ios":"levelo://app?vid=70366dc7-45e3-4769-a351-b7652162e279"},"vehicle_type_id":"4","last_reported":1770273821,"current_range_meters":6000,"station_id":"ce4bh0p2rcd13ifvqd70","pricing_plan_id":"cebpf4jnsgd1na2vs0mg"},{"bike_id":"da4d19a5-63fa-471e-bc87-bb23db14643b","system_id":"levelo_inurba_marseille","lat":43.29549,"lon":5.42516,"is_reserved":false,"is_disabled":false,"rental_uris":{"android":"levelo://app?vid=da4d19a5-63fa-471e-bc87-bb23db14643b","ios":"levelo://app?vid=da4d19a5-63fa-471e-bc87-bb23db14643b"},"vehicle_type_id":"4","last_reported":1770273821,"current_range_meters":6000,"station_id":"","pricing_plan_id":"cebpf4jnsgd1na2vs0mg"},{"bike_id":"ae31df1c-c3f6-4879-abd7-99d899c9ca05","system_id":"levelo_inurba_marseille","lat":43.31081,"lon":5.38486,"is_reserved":false,"is_disabled":false,"rental_uris":{"android":"levelo://app?vid=ae31df1c-c3f6-4879-abd7-99d899c9ca05","ios":"levelo://app?vid=ae31df1c-c3f6-4879-abd7-99d899c9ca05"},"vehicle_type_id":"4","last_reported":1770273821,"current_range_meters":6000,"station_id":"","pricing_plan_id":"cebpf4jnsgd1na2vs0mg"},{"bike_id":"809dfd22-afa1-4754-8327-1cac66519aa2","system_id":"levelo_inurba_marseille","lat":43.2828,"lon":5.35058,"is_reserved":false,"is_disabled":false,"rental_uris":{"android":"levelo://app?vid=809dfd22-afa1-4754-8327-1cac66519aa2","ios":"levelo://app?vid=809dfd22-afa1-4754-8327-1cac66519aa2"},"vehicle_type_id":"4","last_reported":1770273821,"current_range_meters":6000,"station_id":"ce4bhbp2rcd13ifvqerg","pricing_plan_id":"cebpf4jnsgd1na2vs0mg"},{"bike_id":"975d126b-89e4-4613-9114-c70ad14b4ed6","system_id":"levelo_inurba_marseille","lat":43.22568,"lon":5.416,"is_reserved":false,"is_disabled":false,"rental_uris":{"android":"levelo://app?vid=975d126b-89e4-4613-9114-c70ad14b4ed6","ios":"levelo://app?vid=975d126b-89e4-4613-9114-c70ad14b4ed6"},"vehicle_type_id":"4","last_reported":1770273821,"current_range_meters":6000,"station_id":"st_d2o4gvlbi1j2169b742g","pricing_plan_id":"cebpf4jnsgd1na2vs0mg"},{"bike_id":"0d59add4-4b56-4ced-b456-94533a67403b","system_id":"levelo_inurba_marseille","lat":43.232023,"lon":5.355431,"is_reserved":false,"is_disabled":false,"rental_uris":{"android":"levelo://app?vid=0d59add4-4b56-4ced-b456-94533a67403b","ios":"levelo://app?vid=0d59add4-4b56-4ced-b456-94533a67403b"},"vehicle_type_id":"4","last_reported":1770273821,"current_range_meters":6400,"station_id":"ce4bhu92rcd13ifvqi70","pricing_plan_id":"cebpf4jnsgd1na2vs0mg"},{"bike_id":"1794fc4b-f1e9-4439-acd6-7a3c137a2b38","system_id":"levelo_inurba_marseille","lat":43.2378,"lon":5.36638,"is_reserved":false,"is_disabled":false,"rental_uris":{"android":"levelo://app?vid=1794fc4b-f1e9-4439-acd6-7a3c137a2b38","ios":"levelo://app?vid=1794fc4b-f1e9-4439-acd6-7a3c137a2b38"},"vehicle_type_id":"4","last_reported":1770273821,"current_range_meters":6400,"station_id":"st_d3nk18o9ro0c73en2l3g","pricing_plan_id":"cebpf4jnsgd1na2vs0mg"},{"bike_id":"27b91125-8725-4db7-bbdb-0b7821e21970","system_id":"levelo_inurba_marseille","lat":43.233792,"lon":5.412448,"is_reserved":false,"is_disabled":false,"rental_uris":{"android":"levelo://app?vid=27b91125-8725-4db7-bbdb-0b7821e21970","ios":"levelo://app?vid=27b91125-8725-4db7-bbdb-0b7821e21970"},"vehicle_type_id":"4","last_reported":1770273821,"current_range_meters":6400,"station_id":"","pricing_plan_id":"cebpf4jnsgd1na2vs0mg"},{"bike_id":"dc557827-aa70-4c26-b155-69a8514c695a","system_id":"levelo_inurba_marseille","lat":43.33543,"lon":5.374627,"is_reserved":false,"is_disabled":false,"rental_uris":{"android":"levelo://app?vid=dc557827-aa70-4c26-b155-69a8514c695a","ios":"levelo://app?vid=dc557827-aa70-4c26-b155-69a8514c695a"},"vehicle_type_id":"4","last_reported":1770273821,"current_range_meters":6400,"station_id":"","pricing_plan_id":"cebpf4jnsgd1na2vs0mg"},{"bike_id":"5861cbe4-2772-497d-b5aa-b2fb74191cac","system_id":"levelo_inurba_marseille","lat":43.31207,"lon":5.38738,"is_reserved":false,"is_disabled":false,"rental_uris":{"android":"levelo://app?vid=5861cbe4-2772-497d-b5aa-b2fb74191cac","ios":"levelo://app?vid=5861cbe4-2772-497d-b5aa-b2fb74191cac"},"vehicle_type_id":"4","last_reported":1770273821,"current_range_meters":6400,"station_id":"ce4bgv12rcd13ifvqcp0","pricing_plan_id":"cebpf4jnsgd1na2vs0mg"},{"bike_id":"6d78624f-5bc6-4b6d-8627-53d9384af98a","system_id":"levelo_inurba_marseille","lat":43.24952,"lon":5.40503,"is_reserved":false,"is_disabled":false,"rental_uris":{"android":"levelo://app?vid=6d78624f-5bc6-4b6d-8627-53d9384af98a","ios":"levelo://app?vid=6d78624f-5bc6-4b6d-8627-53d9384af98a"},"vehicle_type_id":"4","last_reported":1770273821,"current_range_meters":6400,"station_id":"st_d2ngiaodas8pm72gd1h0","pricing_plan_id":"cebpf4jnsgd1na2vs0mg"},{"bike_id":"e44e7816-6809-4e44-b512-aba042c8c26b","system_id":"levelo_inurba_marseille","lat":43.25831,"lon":5.39429,"is_reserved":false,"is_disabled":false,"rental_uris":{"android":"levelo://app?vid=e44e7816-6809-4e44-b512-aba042c8c26b","ios":"levelo://app?vid=e44e7816-6809-4e44-b512-aba042c8c26b"},"vehicle_type_id":"4","last_reported":1770273821,"current_range_meters":6400,"station_id":"ce4bhip2rcd13ifvqft0","pricing_plan_id":"cebpf4jnsgd1na2vs0mg"},{"bike_id":"935e3e21-2f3b-4e8e-a6be-0b2d1af349b7","system_id":"levelo_inurba_marseille","lat":43.31487,"lon":5.37314,"is_reserved":false,"is_disabled":false,"rental_uris":{"android":"levelo://app?vid=935e3e21-2f3b-4e8e-a6be-0b2d1af349b7","ios":"levelo://app?vid=935e3e21-2f3b-4e8e-a6be-0b2d1af349b7"},"vehicle_type_id":"4","last_reported":1770273821,"current_range_meters":6400,"station_id":"ce4bgt12rcd13ifvqcd0","pricing_plan_id":"cebpf4jnsgd1na2vs0mg"},{"bike_id":"c269eff6-7414-4fb8-b35a-8132e5c63b79","system_id":"levelo_inurba_marseille","lat":43.250065,"lon":5.389179,"is_reserved":false,"is_disabled":false,"rental_uris":{"android":"levelo://app?vid=c269eff6-7414-4fb8-b35a-8132e5c63b79","ios":"levelo://app?vid=c269eff6-7414-4fb8-b35a-8132e5c63b79"},"vehicle_type_id":"4","last_reported":1770273821,"current_range_meters":6400,"station_id":"ce4bhgp2rcd13ifvqfd0","pricing_plan_id":"cebpf4jnsgd1na2vs0mg"},{"bike_id":"34cd95e4-717b-4d4d-bec1-dbc79fc8f785","system_id":"levelo_inurba_marseille","lat":43.24647,"lon":5.38895,"is_reserved":false,"is_disabled":false,"rental_uris":{"android":"levelo://app?vid=34cd95e4-717b-4d4d-bec1-dbc79fc8f785","ios":"levelo://app?vid=34cd95e4-717b-4d4d-bec1-dbc79fc8f785"},"vehicle_type_id":"4","last_reported":1770273821,"current_range_meters":6400,"station_id":"ce4bhg12rcd13ifvqf60","pricing_plan_id":"cebpf4jnsgd1na2vs0mg"},{"bike_id":"b55cf58b-0b2d-45d8-b9da-9cab3935aa03","system_id":"levelo_inurba_marseille","lat":43.23048,"lon":5.35503,"is_reserved":false,"is_disabled":false,"rental_uris":{"android":"levelo://app?vid=b55cf58b-0b2d-45d8-b9da-9cab3935aa03","ios":"levelo://app?vid=b55cf58b-0b2d-45d8-b9da-9cab3935aa03"},"vehicle_type_id":"4","last_reported":1770273821,"current_range_meters":6800,"station_id":"cpo3342slgdg3j2ifvpg","pricing_plan_id":"cebpf4jnsgd1na2vs0mg"},{"bike_id":"5ec960db-0089-4742-8816-9e09bade4aa8","system_id":"levelo_inurba_marseille","lat":43.25512,"lon":5.37657,"is_reserved":false,"is_disabled":false,"rental_uris":{"android":"levelo://app?vid=5ec960db-0089-4742-8816-9e09bade4aa8","ios":"levelo://app?vid=5ec960db-0089-4742-8816-9e09bade4aa8"},"vehicle_type_id":"4","last_reported":1770273821,"current_range_meters":6800,"station_id":"ce4bhh12rcd13ifvqff0","pricing_plan_id":"cebpf4jnsgd1na2vs0mg"},{"bike_id":"2bf19671-0061-46e9-83e3-55d71bb70148","system_id":"levelo_inurba_marseille","lat":43.22929,"lon":5.353774,"is_reserved":false,"is_disabled":false,"rental_uris":{"android":"levelo://app?vid=2bf19671-0061-46e9-83e3-55d71bb70148","ios":"levelo://app?vid=2bf19671-0061-46e9-83e3-55d71bb70148"},"vehicle_type_id":"4","last_reported":1770273821,"current_range_meters":6800,"station_id":"cpo3532slgdg3j2ikp40","pricing_plan_id":"cebpf4jnsgd1na2vs0mg"},{"bike_id":"81843b81-dc05-4822-ac46-ea3aebd24a78","system_id":"levelo_inurba_marseille","lat":43.323583,"lon":5.367331,"is_reserved":false,"is_disabled":false,"rental_uris":{"android":"levelo://app?vid=81843b81-dc05-4822-ac46-ea3aebd24a78","ios":"levelo://app?vid=81843b81-dc05-4822-ac46-ea3aebd24a78"},"vehicle_type_id":"4","last_reported":1770273821,"current_range_meters":6800,"station_id":"ce4bhsh2rcd13ifvqi2g","pricing_plan_id":"cebpf4jnsgd1na2vs0mg"},{"bike_id":"40876c26-127d-407e-adb0-83b88074f4ef","system_id":"levelo_inurba_marseille","lat":43.29597,"lon":5.38092,"is_reserved":false,"is_disabled":false,"rental_uris":{"android":"levelo://app?vid=40876c26-127d-407e-adb0-83b88074f4ef","ios":"levelo://app?vid=40876c26-127d-407e-adb0-83b88074f4ef"},"vehicle_type_id":"4","last_reported":1770273821,"current_range_meters":6800,"station_id":"ce4bgl12rcd13ifvqbo0","pricing_plan_id":"cebpf4jnsgd1na2vs0mg"},{"bike_id":"c177e82e-18db-434d-9ffa-1c134945cb17","system_id":"levelo_inurba_marseille","lat":43.30465,"lon":5.37915,"is_reserved":false,"is_disabled":false,"rental_uris":{"android":"levelo://app?vid=c177e82e-18db-434d-9ffa-1c134945cb17","ios":"levelo://app?vid=c177e82e-18db-434d-9ffa-1c134945cb17"},"vehicle_type_id":"4","last_reported":1770273821,"current_range_meters":6800,"station_id":"ce4bgup2rcd13ifvqcn0","pricing_plan_id":"cebpf4jnsgd1na2vs0mg"},{"bike_id":"3a4b7fad-d353-4ccb-8488-6ee8991487ab","system_id":"levelo_inurba_marseille","lat":43.231914,"lon":5.355572,"is_reserved":false,"is_disabled":false,"rental_uris":{"android":"levelo://app?vid=3a4b7fad-d353-4ccb-8488-6ee8991487ab","ios":"levelo://app?vid=3a4b7fad-d353-4ccb-8488-6ee8991487ab"},"vehicle_type_id":"4","last_reported":1770273821,"current_range_meters":6800,"station_id":"ce4bhu92rcd13ifvqi70","pricing_plan_id":"cebpf4jnsgd1na2vs0mg"},{"bike_id":"239edf4b-52a5-42bd-a57d-2d4cbfc6074d","system_id":"levelo_inurba_marseille","lat":43.24944,"lon":5.40509,"is_reserved":false,"is_disabled":false,"rental_uris":{"android":"levelo://app?vid=239edf4b-52a5-42bd-a57d-2d4cbfc6074d","ios":"levelo://app?vid=239edf4b-52a5-42bd-a57d-2d4cbfc6074d"},"vehicle_type_id":"4","last_reported":1770273821,"current_range_meters":6800,"station_id":"st_d2ngiaodas8pm72gd1h0","pricing_plan_id":"cebpf4jnsgd1na2vs0mg"},{"bike_id":"c9cf1bda-a378-4513-8aed-b2dba30c86f7","system_id":"levelo_inurba_marseille","lat":43.29562,"lon":5.42297,"is_reserved":false,"is_disabled":false,"rental_uris":{"android":"levelo://app?vid=c9cf1bda-a378-4513-8aed-b2dba30c86f7","ios":"levelo://app?vid=c9cf1bda-a378-4513-8aed-b2dba30c86f7"},"vehicle_type_id":"4","last_reported":1770273821,"current_range_meters":6800,"station_id":"ce4bhph2rcd13ifvqhdg","pricing_plan_id":"cebpf4jnsgd1na2vs0mg"},{"bike_id":"59ee5f7d-ad97-4c4d-bf47-920683c932a5","system_id":"levelo_inurba_marseille","lat":43.259413,"lon":5.408996,"is_reserved":false,"is_disabled":false,"rental_uris":{"android":"levelo://app?vid=59ee5f7d-ad97-4c4d-bf47-920683c932a5","ios":"levelo://app?vid=59ee5f7d-ad97-4c4d-bf47-920683c932a5"},"vehicle_type_id":"4","last_reported":1770273821,"current_range_meters":6800,"station_id":"","pricing_plan_id":"cebpf4jnsgd1na2vs0mg"},{"bike_id":"a3bfa0eb-eda7-49b7-ab25-b9c4130a73e5","system_id":"levelo_inurba_marseille","lat":43.27824,"lon":5.40735,"is_reserved":false,"is_disabled":true,"rental_uris":{"android":"levelo://app?vid=a3bfa0eb-eda7-49b7-ab25-b9c4130a73e5","ios":"levelo://app?vid=a3bfa0eb-eda7-49b7-ab25-b9c4130a73e5"},"vehicle_type_id":"4","last_reported":1770273821,"current_range_meters":6800,"station_id":"ce4bhnh2rcd13ifvqgtg","pricing_plan_id":"cebpf4jnsgd1na2vs0mg"},{"bike_id":"e89b42f3-9ad9-40cd-a65c-98400cb11139","system_id":"levelo_inurba_marseille","lat":43.23146,"lon":5.43709,"is_reserved":false,"is_disabled":false,"rental_uris":{"android":"levelo://app?vid=e89b42f3-9ad9-40cd-a65c-98400cb11139","ios":"levelo://app?vid=e89b42f3-9ad9-40cd-a65c-98400cb11139"},"vehicle_type_id":"4","last_reported":1770273821,"current_range_meters":6800,"station_id":"ce4bhmp2rcd13ifvqgog","pricing_plan_id":"cebpf4jnsgd1na2vs0mg"},{"bike_id":"9c97ed08-c8de-49a9-b037-9c50c2f5044c","system_id":"levelo_inurba_marseille","lat":43.29422,"lon":5.41321,"is_reserved":false,"is_disabled":false,"rental_uris":{"android":"levelo://app?vid=9c97ed08-c8de-49a9-b037-9c50c2f5044c","ios":"levelo://app?vid=9c97ed08-c8de-49a9-b037-9c50c2f5044c"},"vehicle_type_id":"4","last_reported":1770273821,"current_range_meters":6800,"station_id":"","pricing_plan_id":"cebpf4jnsgd1na2vs0mg"},{"bike_id":"6b2f8803-9c28-4df8-a226-517617e199e5","system_id":"levelo_inurba_marseille","lat":43.2798,"lon":5.41657,"is_reserved":false,"is_disabled":false,"rental_uris":{"android":"levelo://app?vid=6b2f8803-9c28-4df8-a226-517617e199e5","ios":"levelo://app?vid=6b2f8803-9c28-4df8-a226-517617e199e5"},"vehicle_type_id":"4","last_reported":1770273821,"current_range_meters":7200,"station_id":"ce4bho12rcd13ifvqh1g","pricing_plan_id":"cebpf4jnsgd1na2vs0mg"},{"bike_id":"aca17575-adf4-4e24-8c79-a39e65809e00","system_id":"levelo_inurba_marseille","lat":43.26199,"lon":5.37922,"is_reserved":false,"is_disabled":false,"rental_uris":{"android":"levelo://app?vid=aca17575-adf4-4e24-8c79-a39e65809e00","ios":"levelo://app?vid=aca17575-adf4-4e24-8c79-a39e65809e00"},"vehicle_type_id":"4","last_reported":1770273821,"current_range_meters":7200,"station_id":"ce4bhjp2rcd13ifvqg90","pricing_plan_id":"cebpf4jnsgd1na2vs0mg"},{"bike_id":"961e9953-0463-46e8-b679-88ae5f88af0c","system_id":"levelo_inurba_marseille","lat":43.28583,"lon":5.39501,"is_reserved":false,"is_disabled":false,"rental_uris":{"android":"levelo://app?vid=961e9953-0463-46e8-b679-88ae5f88af0c","ios":"levelo://app?vid=961e9953-0463-46e8-b679-88ae5f88af0c"},"vehicle_type_id":"4","last_reported":1770273821,"current_range_meters":7200,"station_id":"ce4bh292rcd13ifvqdg0","pricing_plan_id":"cebpf4jnsgd1na2vs0mg"},{"bike_id":"f73bf0ee-9df1-47ae-be36-5758f33adaf5","system_id":"levelo_inurba_marseille","lat":43.33378,"lon":5.41066,"is_reserved":false,"is_disabled":false,"rental_uris":{"android":"levelo://app?vid=f73bf0ee-9df1-47ae-be36-5758f33adaf5","ios":"levelo://app?vid=f73bf0ee-9df1-47ae-be36-5758f33adaf5"},"vehicle_type_id":"4","last_reported":1770273821,"current_range_meters":7200,"station_id":"","pricing_plan_id":"cebpf4jnsgd1na2vs0mg"},{"bike_id":"30af4932-afd2-4a71-b1f1-12452d4ffee0","system_id":"levelo_inurba_marseille","lat":43.23772,"lon":5.36653,"is_reserved":false,"is_disabled":false,"rental_uris":{"android":"levelo://app?vid=30af4932-afd2-4a71-b1f1-12452d4ffee0","ios":"levelo://app?vid=30af4932-afd2-4a71-b1f1-12452d4ffee0"},"vehicle_type_id":"4","last_reported":1770273821,"current_range_meters":7200,"station_id":"st_d3nk18o9ro0c73en2l3g","pricing_plan_id":"cebpf4jnsgd1na2vs0mg"},{"bike_id":"dec5bd28-8b44-4ada-ae26-5f838fb3f34e","system_id":"levelo_inurba_marseille","lat":43.30146,"lon":5.38082,"is_reserved":false,"is_disabled":false,"rental_uris":{"android":"levelo://app?vid=dec5bd28-8b44-4ada-ae26-5f838fb3f34e","ios":"levelo://app?vid=dec5bd28-8b44-4ada-ae26-5f838fb3f34e"},"vehicle_type_id":"4","last_reported":1770273821,"current_range_meters":7200,"station_id":"ce4bgjp2rcd13ifvqbh0","pricing_plan_id":"cebpf4jnsgd1na2vs0mg"},{"bike_id":"95186a85-ac5d-4bde-b3fb-07b34e4b7077","system_id":"levelo_inurba_marseille","lat":43.25107,"lon":5.40335,"is_reserved":false,"is_disabled":false,"rental_uris":{"android":"levelo://app?vid=95186a85-ac5d-4bde-b3fb-07b34e4b7077","ios":"levelo://app?vid=95186a85-ac5d-4bde-b3fb-07b34e4b7077"},"vehicle_type_id":"4","last_reported":1770273821,"current_range_meters":7200,"station_id":"ce4bhlh2rcd13ifvqgig","pricing_plan_id":"cebpf4jnsgd1na2vs0mg"},{"bike_id":"3c5f466a-30b7-4780-a724-cfc51041d205","system_id":"levelo_inurba_marseille","lat":43.29916,"lon":5.38181,"is_reserved":false,"is_disabled":false,"rental_uris":{"android":"levelo://app?vid=3c5f466a-30b7-4780-a724-cfc51041d205","ios":"levelo://app?vid=3c5f466a-30b7-4780-a724-cfc51041d205"},"vehicle_type_id":"4","last_reported":1770273821,"current_range_meters":7200,"station_id":"ce4bgj12rcd13ifvqbc0","pricing_plan_id":"cebpf4jnsgd1na2vs0mg"},{"bike_id":"22dc092e-167d-4639-90d0-64f5aea2f582","system_id":"levelo_inurba_marseille","lat":43.28424,"lon":5.39222,"is_reserved":false,"is_disabled":false,"rental_uris":{"android":"levelo://app?vid=22dc092e-167d-4639-90d0-64f5aea2f582","ios":"levelo://app?vid=22dc092e-167d-4639-90d0-64f5aea2f582"},"vehicle_type_id":"4","last_reported":1770273821,"current_range_meters":7200,"station_id":"ce4bhoh2rcd13ifvqh5g","pricing_plan_id":"cebpf4jnsgd1na2vs0mg"},{"bike_id":"85ea35d2-3956-47f8-af2a-f5d40ff2980c","system_id":"levelo_inurba_marseille","lat":43.284772,"lon":5.483997,"is_reserved":false,"is_disabled":false,"rental_uris":{"android":"levelo://app?vid=85ea35d2-3956-47f8-af2a-f5d40ff2980c","ios":"levelo://app?vid=85ea35d2-3956-47f8-af2a-f5d40ff2980c"},"vehicle_type_id":"4","last_reported":1770273821,"current_range_meters":7200,"station_id":"st_d3svhcjqgbts73a3dn0g","pricing_plan_id":"cebpf4jnsgd1na2vs0mg"},{"bike_id":"4d350dd5-1d0c-4f30-bcca-d47f25924eb4","system_id":"levelo_inurba_marseille","lat":43.26381,"lon":5.41086,"is_reserved":false,"is_disabled":false,"rental_uris":{"android":"levelo://app?vid=4d350dd5-1d0c-4f30-bcca-d47f25924eb4","ios":"levelo://app?vid=4d350dd5-1d0c-4f30-bcca-d47f25924eb4"},"vehicle_type_id":"4","last_reported":1770273821,"current_range_meters":7200,"station_id":"st_d4e5ca6na9uc73bfl5fg","pricing_plan_id":"cebpf4jnsgd1na2vs0mg"},{"bike_id":"b2e95c65-a1ae-4322-9564-56f6659076f8","system_id":"levelo_inurba_marseille","lat":43.23142,"lon":5.4374,"is_reserved":false,"is_disabled":false,"rental_uris":{"android":"levelo://app?vid=b2e95c65-a1ae-4322-9564-56f6659076f8","ios":"levelo://app?vid=b2e95c65-a1ae-4322-9564-56f6659076f8"},"vehicle_type_id":"4","last_reported":1770273821,"current_range_meters":7200,"station_id":"ce4bhmp2rcd13ifvqgog","pricing_plan_id":"cebpf4jnsgd1na2vs0mg"},{"bike_id":"fee01d67-c7fb-42fb-9808-4298ed7a7849","system_id":"levelo_inurba_marseille","lat":43.244684,"lon":5.425364,"is_reserved":false,"is_disabled":false,"rental_uris":{"android":"levelo://app?vid=fee01d67-c7fb-42fb-9808-4298ed7a7849","ios":"levelo://app?vid=fee01d67-c7fb-42fb-9808-4298ed7a7849"},"vehicle_type_id":"4","last_reported":1770273821,"current_range_meters":7200,"station_id":"st_d4a3vfp97mjs738cd8kg","pricing_plan_id":"cebpf4jnsgd1na2vs0mg"},{"bike_id":"c97cb073-8168-4347-8195-bc8c51c235c6","system_id":"levelo_inurba_marseille","lat":43.2406,"lon":5.37771,"is_reserved":false,"is_disabled":false,"rental_uris":{"android":"levelo://app?vid=c97cb073-8168-4347-8195-bc8c51c235c6","ios":"levelo://app?vid=c97cb073-8168-4347-8195-bc8c51c235c6"},"vehicle_type_id":"4","last_reported":1770273821,"current_range_meters":7200,"station_id":"ce4bhnp2rcd13ifvqgvg","pricing_plan_id":"cebpf4jnsgd1na2vs0mg"},{"bike_id":"4afade3c-74d8-4d8b-96da-c0bd053dccdf","system_id":"levelo_inurba_marseille","lat":43.29047,"lon":5.3719,"is_reserved":false,"is_disabled":true,"rental_uris":{"android":"levelo://app?vid=4afade3c-74d8-4d8b-96da-c0bd053dccdf","ios":"levelo://app?vid=4afade3c-74d8-4d8b-96da-c0bd053dccdf"},"vehicle_type_id":"4","last_reported":1770273821,"current_range_meters":7200,"station_id":"ce4bh5p2rcd13ifvqe4g","pricing_plan_id":"cebpf4jnsgd1na2vs0mg"},{"bike_id":"e6e58918-784d-4937-ad58-d434a1e12b03","system_id":"levelo_inurba_marseille","lat":43.28705,"lon":5.3744,"is_reserved":false,"is_disabled":false,"rental_uris":{"android":"levelo://app?vid=e6e58918-784d-4937-ad58-d434a1e12b03","ios":"levelo://app?vid=e6e58918-784d-4937-ad58-d434a1e12b03"},"vehicle_type_id":"4","last_reported":1770273821,"current_range_meters":7200,"station_id":"","pricing_plan_id":"cebpf4jnsgd1na2vs0mg"},{"bike_id":"1721d4b9-2e9a-47f9-8abe-a6defbfb83a3","system_id":"levelo_inurba_marseille","lat":43.29626,"lon":5.40598,"is_reserved":false,"is_disabled":false,"rental_uris":{"android":"levelo://app?vid=1721d4b9-2e9a-47f9-8abe-a6defbfb83a3","ios":"levelo://app?vid=1721d4b9-2e9a-47f9-8abe-a6defbfb83a3"},"vehicle_type_id":"4","last_reported":1770273821,"current_range_meters":8000,"station_id":"ce4bh0h2rcd13ifvqd60","pricing_plan_id":"cebpf4jnsgd1na2vs0mg"},{"bike_id":"2d36a833-9c1e-4986-b296-52f4e681367f","system_id":"levelo_inurba_marseille","lat":43.23144,"lon":5.43677,"is_reserved":false,"is_disabled":false,"rental_uris":{"android":"levelo://app?vid=2d36a833-9c1e-4986-b296-52f4e681367f","ios":"levelo://app?vid=2d36a833-9c1e-4986-b296-52f4e681367f"},"vehicle_type_id":"4","last_reported":1770273821,"current_range_meters":8000,"station_id":"ce4bhmp2rcd13ifvqgog","pricing_plan_id":"cebpf4jnsgd1na2vs0mg"},{"bike_id":"b3735e88-8cf7-4a8a-8190-24b4e6e943c9","system_id":"levelo_inurba_marseille","lat":43.311166,"lon":5.377689,"is_reserved":false,"is_disabled":false,"rental_uris":{"android":"levelo://app?vid=b3735e88-8cf7-4a8a-8190-24b4e6e943c9","ios":"levelo://app?vid=b3735e88-8cf7-4a8a-8190-24b4e6e943c9"},"vehicle_type_id":"4","last_reported":1770273821,"current_range_meters":8000,"station_id":"ce4bgt92rcd13ifvqcg0","pricing_plan_id":"cebpf4jnsgd1na2vs0mg"},{"bike_id":"c26de9f0-aea6-437d-a752-448502a27f69","system_id":"levelo_inurba_marseille","lat":43.25932,"lon":5.40917,"is_reserved":false,"is_disabled":false,"rental_uris":{"android":"levelo://app?vid=c26de9f0-aea6-437d-a752-448502a27f69","ios":"levelo://app?vid=c26de9f0-aea6-437d-a752-448502a27f69"},"vehicle_type_id":"4","last_reported":1770273821,"current_range_meters":8000,"station_id":"ce4bhm92rcd13ifvqglg","pricing_plan_id":"cebpf4jnsgd1na2vs0mg"},{"bike_id":"b7fceb7d-5c94-4236-913d-205150a917a2","system_id":"levelo_inurba_marseille","lat":43.24458,"lon":5.42534,"is_reserved":false,"is_disabled":false,"rental_uris":{"android":"levelo://app?vid=b7fceb7d-5c94-4236-913d-205150a917a2","ios":"levelo://app?vid=b7fceb7d-5c94-4236-913d-205150a917a2"},"vehicle_type_id":"4","last_reported":1770273821,"current_range_meters":8000,"station_id":"st_d4a3vfp97mjs738cd8kg","pricing_plan_id":"cebpf4jnsgd1na2vs0mg"},{"bike_id":"38712b4b-754b-41b9-9f4d-8f2f4069c5f1","system_id":"levelo_inurba_marseille","lat":43.29892,"lon":5.3747,"is_reserved":false,"is_disabled":false,"rental_uris":{"android":"levelo://app?vid=38712b4b-754b-41b9-9f4d-8f2f4069c5f1","ios":"levelo://app?vid=38712b4b-754b-41b9-9f4d-8f2f4069c5f1"},"vehicle_type_id":"4","last_reported":1770273821,"current_range_meters":8000,"station_id":"ce4bgjh2rcd13ifvqbg0","pricing_plan_id":"cebpf4jnsgd1na2vs0mg"},{"bike_id":"f7d0906b-23c2-4d3f-bf41-7c900c058085","system_id":"levelo_inurba_marseille","lat":43.28032,"lon":5.42205,"is_reserved":false,"is_disabled":false,"rental_uris":{"android":"levelo://app?vid=f7d0906b-23c2-4d3f-bf41-7c900c058085","ios":"levelo://app?vid=f7d0906b-23c2-4d3f-bf41-7c900c058085"},"vehicle_type_id":"4","last_reported":1770273821,"current_range_meters":8000,"station_id":"","pricing_plan_id":"cebpf4jnsgd1na2vs0mg"},{"bike_id":"c51cfaf2-bb8d-4a89-9602-93a884a9000b","system_id":"levelo_inurba_marseille","lat":43.30933,"lon":5.40147,"is_reserved":false,"is_disabled":false,"rental_uris":{"android":"levelo://app?vid=c51cfaf2-bb8d-4a89-9602-93a884a9000b","ios":"levelo://app?vid=c51cfaf2-bb8d-4a89-9602-93a884a9000b"},"vehicle_type_id":"4","last_reported":1770273821,"current_range_meters":8000,"station_id":"ce4bgvp2rcd13ifvqct0","pricing_plan_id":"cebpf4jnsgd1na2vs0mg"},{"bike_id":"7f442fdf-ff46-4239-8e67-e1ed9e9857ff","system_id":"levelo_inurba_marseille","lat":43.29797,"lon":5.381005,"is_reserved":false,"is_disabled":true,"rental_uris":{"android":"levelo://app?vid=7f442fdf-ff46-4239-8e67-e1ed9e9857ff","ios":"levelo://app?vid=7f442fdf-ff46-4239-8e67-e1ed9e9857ff"},"vehicle_type_id":"4","last_reported":1770273821,"current_range_meters":8000,"station_id":"ce4bgip2rcd13ifvqbb0","pricing_plan_id":"cebpf4jnsgd1na2vs0mg"},{"bike_id":"1afee07c-366b-46e2-8984-d19ca032be81","system_id":"levelo_inurba_marseille","lat":43.25091,"lon":5.40353,"is_reserved":false,"is_disabled":false,"rental_uris":{"android":"levelo://app?vid=1afee07c-366b-46e2-8984-d19ca032be81","ios":"levelo://app?vid=1afee07c-366b-46e2-8984-d19ca032be81"},"vehicle_type_id":"4","last_reported":1770273821,"current_range_meters":8000,"station_id":"ce4bhlh2rcd13ifvqgig","pricing_plan_id":"cebpf4jnsgd1na2vs0mg"},{"bike_id":"37867e40-4e69-4e30-9726-c1f71541de4c","system_id":"levelo_inurba_marseille","lat":43.30885,"lon":5.37203,"is_reserved":false,"is_disabled":false,"rental_uris":{"android":"levelo://app?vid=37867e40-4e69-4e30-9726-c1f71541de4c","ios":"levelo://app?vid=37867e40-4e69-4e30-9726-c1f71541de4c"},"vehicle_type_id":"4","last_reported":1770273821,"current_range_meters":8000,"station_id":"ce4bguh2rcd13ifvqckg","pricing_plan_id":"cebpf4jnsgd1na2vs0mg"},{"bike_id":"c3f43aa2-1ae1-41b3-a072-0f15c8d488c0","system_id":"levelo_inurba_marseille","lat":43.2848,"lon":5.43744,"is_reserved":false,"is_disabled":false,"rental_uris":{"android":"levelo://app?vid=c3f43aa2-1ae1-41b3-a072-0f15c8d488c0","ios":"levelo://app?vid=c3f43aa2-1ae1-41b3-a072-0f15c8d488c0"},"vehicle_type_id":"4","last_reported":1770273821,"current_range_meters":8000,"station_id":"","pricing_plan_id":"cebpf4jnsgd1na2vs0mg"},{"bike_id":"6369826d-8a7e-4d86-97e4-de0c88cacc43","system_id":"levelo_inurba_marseille","lat":43.23768,"lon":5.3663,"is_reserved":false,"is_disabled":false,"rental_uris":{"android":"levelo://app?vid=6369826d-8a7e-4d86-97e4-de0c88cacc43","ios":"levelo://app?vid=6369826d-8a7e-4d86-97e4-de0c88cacc43"},"vehicle_type_id":"4","last_reported":1770273821,"current_range_meters":8000,"station_id":"st_d3nk18o9ro0c73en2l3g","pricing_plan_id":"cebpf4jnsgd1na2vs0mg"},{"bike_id":"1be79b39-519d-4004-8fc8-79c55282c459","system_id":"levelo_inurba_marseille","lat":43.24159,"lon":5.36401,"is_reserved":false,"is_disabled":false,"rental_uris":{"android":"levelo://app?vid=1be79b39-519d-4004-8fc8-79c55282c459","ios":"levelo://app?vid=1be79b39-519d-4004-8fc8-79c55282c459"},"vehicle_type_id":"4","last_reported":1770273821,"current_range_meters":8000,"station_id":"cpo36qri1sfpv3e86is0","pricing_plan_id":"cebpf4jnsgd1na2vs0mg"},{"bike_id":"b883f242-7517-4c8d-9c46-a0fc689d5737","system_id":"levelo_inurba_marseille","lat":43.285602,"lon":5.394995,"is_reserved":false,"is_disabled":false,"rental_uris":{"android":"levelo://app?vid=b883f242-7517-4c8d-9c46-a0fc689d5737","ios":"levelo://app?vid=b883f242-7517-4c8d-9c46-a0fc689d5737"},"vehicle_type_id":"4","last_reported":1770273821,"current_range_meters":8000,"station_id":"ce4bh292rcd13ifvqdg0","pricing_plan_id":"cebpf4jnsgd1na2vs0mg"},{"bike_id":"a03a0587-26a0-4743-94df-85cf192becc0","system_id":"levelo_inurba_marseille","lat":43.335378,"lon":5.374674,"is_reserved":false,"is_disabled":false,"rental_uris":{"android":"levelo://app?vid=a03a0587-26a0-4743-94df-85cf192becc0","ios":"levelo://app?vid=a03a0587-26a0-4743-94df-85cf192becc0"},"vehicle_type_id":"4","last_reported":1770273821,"current_range_meters":8000,"station_id":"st_d46tts09ee8s73dlu43g","pricing_plan_id":"cebpf4jnsgd1na2vs0mg"},{"bike_id":"41ee1b12-a1ee-4751-b8bc-42c641c8d973","system_id":"levelo_inurba_marseille","lat":43.28399,"lon":5.37524,"is_reserved":false,"is_disabled":false,"rental_uris":{"android":"levelo://app?vid=41ee1b12-a1ee-4751-b8bc-42c641c8d973","ios":"levelo://app?vid=41ee1b12-a1ee-4751-b8bc-42c641c8d973"},"vehicle_type_id":"4","last_reported":1770273821,"current_range_meters":8000,"station_id":"ce4bh412rcd13ifvqds0","pricing_plan_id":"cebpf4jnsgd1na2vs0mg"},{"bike_id":"d3d63c27-06f0-4b77-9ac5-a9069aedd324","system_id":"levelo_inurba_marseille","lat":43.240825,"lon":5.377313,"is_reserved":false,"is_disabled":false,"rental_uris":{"android":"levelo://app?vid=d3d63c27-06f0-4b77-9ac5-a9069aedd324","ios":"levelo://app?vid=d3d63c27-06f0-4b77-9ac5-a9069aedd324"},"vehicle_type_id":"4","last_reported":1770273821,"current_range_meters":8000,"station_id":"ce4bhnp2rcd13ifvqgvg","pricing_plan_id":"cebpf4jnsgd1na2vs0mg"},{"bike_id":"d2c14433-6ee8-4acf-8c27-13116ae17eed","system_id":"levelo_inurba_marseille","lat":43.22928,"lon":5.35385,"is_reserved":false,"is_disabled":false,"rental_uris":{"android":"levelo://app?vid=d2c14433-6ee8-4acf-8c27-13116ae17eed","ios":"levelo://app?vid=d2c14433-6ee8-4acf-8c27-13116ae17eed"},"vehicle_type_id":"4","last_reported":1770273821,"current_range_meters":8000,"station_id":"cpo3532slgdg3j2ikp40","pricing_plan_id":"cebpf4jnsgd1na2vs0mg"},{"bike_id":"63b0defc-cb5e-4c6d-95eb-4fde2c849f72","system_id":"levelo_inurba_marseille","lat":43.30151,"lon":5.38106,"is_reserved":false,"is_disabled":false,"rental_uris":{"android":"levelo://app?vid=63b0defc-cb5e-4c6d-95eb-4fde2c849f72","ios":"levelo://app?vid=63b0defc-cb5e-4c6d-95eb-4fde2c849f72"},"vehicle_type_id":"4","last_reported":1770273821,"current_range_meters":8000,"station_id":"ce4bgjp2rcd13ifvqbh0","pricing_plan_id":"cebpf4jnsgd1na2vs0mg"},{"bike_id":"49bc0ac4-ec4c-46b4-bcba-c5b87d948aa1","system_id":"levelo_inurba_marseille","lat":43.2396,"lon":5.36615,"is_reserved":false,"is_disabled":false,"rental_uris":{"android":"levelo://app?vid=49bc0ac4-ec4c-46b4-bcba-c5b87d948aa1","ios":"levelo://app?vid=49bc0ac4-ec4c-46b4-bcba-c5b87d948aa1"},"vehicle_type_id":"4","last_reported":1770273821,"current_range_meters":8400,"station_id":"ce4bhi12rcd13ifvqfp0","pricing_plan_id":"cebpf4jnsgd1na2vs0mg"},{"bike_id":"dd80c901-c2fa-47d4-ae61-a97431ae582b","system_id":"levelo_inurba_marseille","lat":43.216357,"lon":5.346536,"is_reserved":false,"is_disabled":false,"rental_uris":{"android":"levelo://app?vid=dd80c901-c2fa-47d4-ae61-a97431ae582b","ios":"levelo://app?vid=dd80c901-c2fa-47d4-ae61-a97431ae582b"},"vehicle_type_id":"4","last_reported":1770273821,"current_range_meters":8400,"station_id":"","pricing_plan_id":"cebpf4jnsgd1na2vs0mg"},{"bike_id":"c54292e3-065f-4936-9d5e-2b6c416dceb3","system_id":"levelo_inurba_marseille","lat":43.2313,"lon":5.43694,"is_reserved":false,"is_disabled":false,"rental_uris":{"android":"levelo://app?vid=c54292e3-065f-4936-9d5e-2b6c416dceb3","ios":"levelo://app?vid=c54292e3-065f-4936-9d5e-2b6c416dceb3"},"vehicle_type_id":"4","last_reported":1770273821,"current_range_meters":8400,"station_id":"ce4bhmp2rcd13ifvqgog","pricing_plan_id":"cebpf4jnsgd1na2vs0mg"},{"bike_id":"6655b68c-34d5-4976-9b6b-2354fa7ac20f","system_id":"levelo_inurba_marseille","lat":43.28859,"lon":5.42528,"is_reserved":false,"is_disabled":false,"rental_uris":{"android":"levelo://app?vid=6655b68c-34d5-4976-9b6b-2354fa7ac20f","ios":"levelo://app?vid=6655b68c-34d5-4976-9b6b-2354fa7ac20f"},"vehicle_type_id":"4","last_reported":1770273821,"current_range_meters":8400,"station_id":"st_d3b462108ojc7389ooeg","pricing_plan_id":"cebpf4jnsgd1na2vs0mg"},{"bike_id":"45c8fb37-967d-434b-ba5b-3d65617e5818","system_id":"levelo_inurba_marseille","lat":43.295226,"lon":5.390416,"is_reserved":false,"is_disabled":false,"rental_uris":{"android":"levelo://app?vid=45c8fb37-967d-434b-ba5b-3d65617e5818","ios":"levelo://app?vid=45c8fb37-967d-434b-ba5b-3d65617e5818"},"vehicle_type_id":"4","last_reported":1770273821,"current_range_meters":8400,"station_id":"ce4bh3p2rcd13ifvqdp0","pricing_plan_id":"cebpf4jnsgd1na2vs0mg"},{"bike_id":"14d29e34-9030-4ebb-b26b-b9968049d1ce","system_id":"levelo_inurba_marseille","lat":43.24167,"lon":5.36376,"is_reserved":false,"is_disabled":false,"rental_uris":{"android":"levelo://app?vid=14d29e34-9030-4ebb-b26b-b9968049d1ce","ios":"levelo://app?vid=14d29e34-9030-4ebb-b26b-b9968049d1ce"},"vehicle_type_id":"4","last_reported":1770273821,"current_range_meters":8400,"station_id":"cpo36qri1sfpv3e86is0","pricing_plan_id":"cebpf4jnsgd1na2vs0mg"},{"bike_id":"d54d1be8-869f-4c63-b314-8eb80f9babad","system_id":"levelo_inurba_marseille","lat":43.22936,"lon":5.35396,"is_reserved":false,"is_disabled":false,"rental_uris":{"android":"levelo://app?vid=d54d1be8-869f-4c63-b314-8eb80f9babad","ios":"levelo://app?vid=d54d1be8-869f-4c63-b314-8eb80f9babad"},"vehicle_type_id":"4","last_reported":1770273821,"current_range_meters":8400,"station_id":"cpo3532slgdg3j2ikp40","pricing_plan_id":"cebpf4jnsgd1na2vs0mg"},{"bike_id":"c1e23706-b5c7-4d8a-8806-4510eaf5a695","system_id":"levelo_inurba_marseille","lat":43.30143,"lon":5.37409,"is_reserved":false,"is_disabled":true,"rental_uris":{"android":"levelo://app?vid=c1e23706-b5c7-4d8a-8806-4510eaf5a695","ios":"levelo://app?vid=c1e23706-b5c7-4d8a-8806-4510eaf5a695"},"vehicle_type_id":"4","last_reported":1770273821,"current_range_meters":8400,"station_id":"ce4bgs92rcd13ifvqcc0","pricing_plan_id":"cebpf4jnsgd1na2vs0mg"},{"bike_id":"6fb99119-655d-47da-8c5f-3d60a34cd591","system_id":"levelo_inurba_marseille","lat":43.24948,"lon":5.40495,"is_reserved":false,"is_disabled":false,"rental_uris":{"android":"levelo://app?vid=6fb99119-655d-47da-8c5f-3d60a34cd591","ios":"levelo://app?vid=6fb99119-655d-47da-8c5f-3d60a34cd591"},"vehicle_type_id":"4","last_reported":1770273821,"current_range_meters":8400,"station_id":"st_d2ngiaodas8pm72gd1h0","pricing_plan_id":"cebpf4jnsgd1na2vs0mg"},{"bike_id":"34876a11-74b9-4acf-98dd-abc289f65181","system_id":"levelo_inurba_marseille","lat":43.29856,"lon":5.39762,"is_reserved":false,"is_disabled":false,"rental_uris":{"android":"levelo://app?vid=34876a11-74b9-4acf-98dd-abc289f65181","ios":"levelo://app?vid=34876a11-74b9-4acf-98dd-abc289f65181"},"vehicle_type_id":"4","last_reported":1770273821,"current_range_meters":8400,"station_id":"ce4bh0h2rcd13ifvqd50","pricing_plan_id":"cebpf4jnsgd1na2vs0mg"},{"bike_id":"c59be42f-0772-451e-a452-b56e08719067","system_id":"levelo_inurba_marseille","lat":43.23954,"lon":5.3663,"is_reserved":false,"is_disabled":false,"rental_uris":{"android":"levelo://app?vid=c59be42f-0772-451e-a452-b56e08719067","ios":"levelo://app?vid=c59be42f-0772-451e-a452-b56e08719067"},"vehicle_type_id":"4","last_reported":1770273821,"current_range_meters":8400,"station_id":"ce4bhi12rcd13ifvqfp0","pricing_plan_id":"cebpf4jnsgd1na2vs0mg"},{"bike_id":"755e59af-683d-4f2b-b573-16e19ef74443","system_id":"levelo_inurba_marseille","lat":43.29736,"lon":5.42772,"is_reserved":false,"is_disabled":false,"rental_uris":{"android":"levelo://app?vid=755e59af-683d-4f2b-b573-16e19ef74443","ios":"levelo://app?vid=755e59af-683d-4f2b-b573-16e19ef74443"},"vehicle_type_id":"4","last_reported":1770273821,"current_range_meters":8400,"station_id":"st_d3md5207bmas73dh9klg","pricing_plan_id":"cebpf4jnsgd1na2vs0mg"},{"bike_id":"b8f84804-3c6a-46e2-933b-865abf78412e","system_id":"levelo_inurba_marseille","lat":43.28481,"lon":5.48388,"is_reserved":false,"is_disabled":false,"rental_uris":{"android":"levelo://app?vid=b8f84804-3c6a-46e2-933b-865abf78412e","ios":"levelo://app?vid=b8f84804-3c6a-46e2-933b-865abf78412e"},"vehicle_type_id":"4","last_reported":1770273821,"current_range_meters":8400,"station_id":"st_d3svhcjqgbts73a3dn0g","pricing_plan_id":"cebpf4jnsgd1na2vs0mg"},{"bike_id":"6b57bf3b-8c0e-4c20-ac17-97c4a9b3eefe","system_id":"levelo_inurba_marseille","lat":43.2315,"lon":5.43739,"is_reserved":false,"is_disabled":false,"rental_uris":{"android":"levelo://app?vid=6b57bf3b-8c0e-4c20-ac17-97c4a9b3eefe","ios":"levelo://app?vid=6b57bf3b-8c0e-4c20-ac17-97c4a9b3eefe"},"vehicle_type_id":"4","last_reported":1770273821,"current_range_meters":8400,"station_id":"ce4bhmp2rcd13ifvqgog","pricing_plan_id":"cebpf4jnsgd1na2vs0mg"},{"bike_id":"59b3cf07-a48a-4e24-9342-16d8dccf8d71","system_id":"levelo_inurba_marseille","lat":43.29901,"lon":5.39764,"is_reserved":false,"is_disabled":false,"rental_uris":{"android":"levelo://app?vid=59b3cf07-a48a-4e24-9342-16d8dccf8d71","ios":"levelo://app?vid=59b3cf07-a48a-4e24-9342-16d8dccf8d71"},"vehicle_type_id":"4","last_reported":1770273821,"current_range_meters":8800,"station_id":"ce4bh0h2rcd13ifvqd50","pricing_plan_id":"cebpf4jnsgd1na2vs0mg"},{"bike_id":"82026f6c-9d07-4663-9912-25f5d62833ed","system_id":"levelo_inurba_marseille","lat":43.26199,"lon":5.37418,"is_reserved":false,"is_disabled":false,"rental_uris":{"android":"levelo://app?vid=82026f6c-9d07-4663-9912-25f5d62833ed","ios":"levelo://app?vid=82026f6c-9d07-4663-9912-25f5d62833ed"},"vehicle_type_id":"4","last_reported":1770273821,"current_range_meters":8800,"station_id":"ce4bhgp2rcd13ifvqfc0","pricing_plan_id":"cebpf4jnsgd1na2vs0mg"},{"bike_id":"6be1bbbb-e6df-449e-bed3-840f85103f7c","system_id":"levelo_inurba_marseille","lat":43.32537,"lon":5.41435,"is_reserved":false,"is_disabled":false,"rental_uris":{"android":"levelo://app?vid=6be1bbbb-e6df-449e-bed3-840f85103f7c","ios":"levelo://app?vid=6be1bbbb-e6df-449e-bed3-840f85103f7c"},"vehicle_type_id":"4","last_reported":1770273821,"current_range_meters":8800,"station_id":"ce4bhq12rcd13ifvqhhg","pricing_plan_id":"cebpf4jnsgd1na2vs0mg"},{"bike_id":"e6960217-3980-48bf-9c37-36816acc575b","system_id":"levelo_inurba_marseille","lat":43.29892,"lon":5.38175,"is_reserved":false,"is_disabled":false,"rental_uris":{"android":"levelo://app?vid=e6960217-3980-48bf-9c37-36816acc575b","ios":"levelo://app?vid=e6960217-3980-48bf-9c37-36816acc575b"},"vehicle_type_id":"4","last_reported":1770273821,"current_range_meters":8800,"station_id":"ce4bgj12rcd13ifvqbc0","pricing_plan_id":"cebpf4jnsgd1na2vs0mg"},{"bike_id":"c1141524-5343-4555-9ca5-2692a3456421","system_id":"levelo_inurba_marseille","lat":43.22925,"lon":5.35366,"is_reserved":false,"is_disabled":false,"rental_uris":{"android":"levelo://app?vid=c1141524-5343-4555-9ca5-2692a3456421","ios":"levelo://app?vid=c1141524-5343-4555-9ca5-2692a3456421"},"vehicle_type_id":"4","last_reported":1770273821,"current_range_meters":8800,"station_id":"cpo3532slgdg3j2ikp40","pricing_plan_id":"cebpf4jnsgd1na2vs0mg"},{"bike_id":"4e050dc2-18d1-48d2-bd3b-afdb4aa018e8","system_id":"levelo_inurba_marseille","lat":43.302837,"lon":5.376929,"is_reserved":false,"is_disabled":false,"rental_uris":{"android":"levelo://app?vid=4e050dc2-18d1-48d2-bd3b-afdb4aa018e8","ios":"levelo://app?vid=4e050dc2-18d1-48d2-bd3b-afdb4aa018e8"},"vehicle_type_id":"4","last_reported":1770273821,"current_range_meters":8800,"station_id":"ce4bguh2rcd13ifvqcj0","pricing_plan_id":"cebpf4jnsgd1na2vs0mg"},{"bike_id":"66843164-e6dd-46fc-8743-26489dd47f53","system_id":"levelo_inurba_marseille","lat":43.31282,"lon":5.36731,"is_reserved":false,"is_disabled":false,"rental_uris":{"android":"levelo://app?vid=66843164-e6dd-46fc-8743-26489dd47f53","ios":"levelo://app?vid=66843164-e6dd-46fc-8743-26489dd47f53"},"vehicle_type_id":"4","last_reported":1770273821,"current_range_meters":8800,"station_id":"ce4bgr92rcd13ifvqc6g","pricing_plan_id":"cebpf4jnsgd1na2vs0mg"},{"bike_id":"f1b2e5b7-5c9b-42f8-845f-ee6f7b95cc90","system_id":"levelo_inurba_marseille","lat":43.24681,"lon":5.38165,"is_reserved":false,"is_disabled":false,"rental_uris":{"android":"levelo://app?vid=f1b2e5b7-5c9b-42f8-845f-ee6f7b95cc90","ios":"levelo://app?vid=f1b2e5b7-5c9b-42f8-845f-ee6f7b95cc90"},"vehicle_type_id":"4","last_reported":1770273821,"current_range_meters":8800,"station_id":"ce4bhih2rcd13ifvqfr0","pricing_plan_id":"cebpf4jnsgd1na2vs0mg"},{"bike_id":"13305f2b-460c-49e5-b9ce-079e8e15a51f","system_id":"levelo_inurba_marseille","lat":43.251082,"lon":5.403278,"is_reserved":false,"is_disabled":false,"rental_uris":{"android":"levelo://app?vid=13305f2b-460c-49e5-b9ce-079e8e15a51f","ios":"levelo://app?vid=13305f2b-460c-49e5-b9ce-079e8e15a51f"},"vehicle_type_id":"4","last_reported":1770273821,"current_range_meters":8800,"station_id":"ce4bhlh2rcd13ifvqgig","pricing_plan_id":"cebpf4jnsgd1na2vs0mg"},{"bike_id":"117def50-876b-4a77-bc7f-3e901c787b6b","system_id":"levelo_inurba_marseille","lat":43.23141,"lon":5.43724,"is_reserved":false,"is_disabled":false,"rental_uris":{"android":"levelo://app?vid=117def50-876b-4a77-bc7f-3e901c787b6b","ios":"levelo://app?vid=117def50-876b-4a77-bc7f-3e901c787b6b"},"vehicle_type_id":"4","last_reported":1770273821,"current_range_meters":8800,"station_id":"ce4bhmp2rcd13ifvqgog","pricing_plan_id":"cebpf4jnsgd1na2vs0mg"},{"bike_id":"f4f2627f-ecfe-4cf2-b41e-79b8d04c8e2e","system_id":"levelo_inurba_marseille","lat":43.29201,"lon":5.35824,"is_reserved":false,"is_disabled":false,"rental_uris":{"android":"levelo://app?vid=f4f2627f-ecfe-4cf2-b41e-79b8d04c8e2e","ios":"levelo://app?vid=f4f2627f-ecfe-4cf2-b41e-79b8d04c8e2e"},"vehicle_type_id":"4","last_reported":1770273821,"current_range_meters":9200,"station_id":"ce4bhb12rcd13ifvqel0","pricing_plan_id":"cebpf4jnsgd1na2vs0mg"},{"bike_id":"16cef1b2-13b0-4d67-bb68-39eced8a049c","system_id":"levelo_inurba_marseille","lat":43.25083,"lon":5.39526,"is_reserved":false,"is_disabled":false,"rental_uris":{"android":"levelo://app?vid=16cef1b2-13b0-4d67-bb68-39eced8a049c","ios":"levelo://app?vid=16cef1b2-13b0-4d67-bb68-39eced8a049c"},"vehicle_type_id":"4","last_reported":1770273821,"current_range_meters":9200,"station_id":"ce4bhm12rcd13ifvqgkg","pricing_plan_id":"cebpf4jnsgd1na2vs0mg"},{"bike_id":"766c71d2-1c69-4282-87b8-db01bd839208","system_id":"levelo_inurba_marseille","lat":43.28257,"lon":5.35066,"is_reserved":false,"is_disabled":false,"rental_uris":{"android":"levelo://app?vid=766c71d2-1c69-4282-87b8-db01bd839208","ios":"levelo://app?vid=766c71d2-1c69-4282-87b8-db01bd839208"},"vehicle_type_id":"4","last_reported":1770273821,"current_range_meters":9200,"station_id":"ce4bhbp2rcd13ifvqerg","pricing_plan_id":"cebpf4jnsgd1na2vs0mg"},{"bike_id":"0ad61100-8c1e-4683-9cc6-748f02a03fec","system_id":"levelo_inurba_marseille","lat":43.298973,"lon":5.436676,"is_reserved":false,"is_disabled":false,"rental_uris":{"android":"levelo://app?vid=0ad61100-8c1e-4683-9cc6-748f02a03fec","ios":"levelo://app?vid=0ad61100-8c1e-4683-9cc6-748f02a03fec"},"vehicle_type_id":"4","last_reported":1770273821,"current_range_meters":9200,"station_id":"ce4bhpp2rcd13ifvqhfg","pricing_plan_id":"cebpf4jnsgd1na2vs0mg"},{"bike_id":"693d0724-33c4-47af-b424-e5bc7c45f372","system_id":"levelo_inurba_marseille","lat":43.29266,"lon":5.38457,"is_reserved":false,"is_disabled":false,"rental_uris":{"android":"levelo://app?vid=693d0724-33c4-47af-b424-e5bc7c45f372","ios":"levelo://app?vid=693d0724-33c4-47af-b424-e5bc7c45f372"},"vehicle_type_id":"4","last_reported":1770273821,"current_range_meters":9200,"station_id":"ce4bh692rcd13ifvqea0","pricing_plan_id":"cebpf4jnsgd1na2vs0mg"},{"bike_id":"ef79007e-ef6d-4e7f-a3ae-3ed5ead69e87","system_id":"levelo_inurba_marseille","lat":43.23202,"lon":5.35555,"is_reserved":false,"is_disabled":false,"rental_uris":{"android":"levelo://app?vid=ef79007e-ef6d-4e7f-a3ae-3ed5ead69e87","ios":"levelo://app?vid=ef79007e-ef6d-4e7f-a3ae-3ed5ead69e87"},"vehicle_type_id":"4","last_reported":1770273821,"current_range_meters":9200,"station_id":"ce4bhu92rcd13ifvqi70","pricing_plan_id":"cebpf4jnsgd1na2vs0mg"},{"bike_id":"89e4ab3d-1408-4d9b-9ebc-e7cb420fad6f","system_id":"levelo_inurba_marseille","lat":43.31063,"lon":5.38346,"is_reserved":false,"is_disabled":false,"rental_uris":{"android":"levelo://app?vid=89e4ab3d-1408-4d9b-9ebc-e7cb420fad6f","ios":"levelo://app?vid=89e4ab3d-1408-4d9b-9ebc-e7cb420fad6f"},"vehicle_type_id":"4","last_reported":1770273821,"current_range_meters":9200,"station_id":"ce4bgv92rcd13ifvqcr0","pricing_plan_id":"cebpf4jnsgd1na2vs0mg"},{"bike_id":"6c706595-1835-4ddf-8d94-5e35d4a0f5cb","system_id":"levelo_inurba_marseille","lat":43.31227,"lon":5.36818,"is_reserved":false,"is_disabled":false,"rental_uris":{"android":"levelo://app?vid=6c706595-1835-4ddf-8d94-5e35d4a0f5cb","ios":"levelo://app?vid=6c706595-1835-4ddf-8d94-5e35d4a0f5cb"},"vehicle_type_id":"4","last_reported":1770273821,"current_range_meters":9200,"station_id":"ce4bgl92rcd13ifvqbq0","pricing_plan_id":"cebpf4jnsgd1na2vs0mg"},{"bike_id":"1389e1cd-66fc-40cd-bd4c-e6ce3ec9990d","system_id":"levelo_inurba_marseille","lat":43.29512,"lon":5.43314,"is_reserved":false,"is_disabled":false,"rental_uris":{"android":"levelo://app?vid=1389e1cd-66fc-40cd-bd4c-e6ce3ec9990d","ios":"levelo://app?vid=1389e1cd-66fc-40cd-bd4c-e6ce3ec9990d"},"vehicle_type_id":"4","last_reported":1770273821,"current_range_meters":9200,"station_id":"st_d3j5ugp08ojc73fj9d10","pricing_plan_id":"cebpf4jnsgd1na2vs0mg"},{"bike_id":"4be77f3a-064c-4b78-bdab-567aa49f7bd8","system_id":"levelo_inurba_marseille","lat":43.28005,"lon":5.40009,"is_reserved":false,"is_disabled":false,"rental_uris":{"android":"levelo://app?vid=4be77f3a-064c-4b78-bdab-567aa49f7bd8","ios":"levelo://app?vid=4be77f3a-064c-4b78-bdab-567aa49f7bd8"},"vehicle_type_id":"4","last_reported":1770273821,"current_range_meters":9200,"station_id":"ce4bho92rcd13ifvqh4g","pricing_plan_id":"cebpf4jnsgd1na2vs0mg"},{"bike_id":"0c0204e9-2e2c-4854-9498-c261c0135345","system_id":"levelo_inurba_marseille","lat":43.23783,"lon":5.36649,"is_reserved":false,"is_disabled":false,"rental_uris":{"android":"levelo://app?vid=0c0204e9-2e2c-4854-9498-c261c0135345","ios":"levelo://app?vid=0c0204e9-2e2c-4854-9498-c261c0135345"},"vehicle_type_id":"4","last_reported":1770273821,"current_range_meters":9200,"station_id":"st_d3nk18o9ro0c73en2l3g","pricing_plan_id":"cebpf4jnsgd1na2vs0mg"},{"bike_id":"ac551100-dc22-4913-9a52-4829a5f95f35","system_id":"levelo_inurba_marseille","lat":43.2861,"lon":5.3989,"is_reserved":false,"is_disabled":true,"rental_uris":{"android":"levelo://app?vid=ac551100-dc22-4913-9a52-4829a5f95f35","ios":"levelo://app?vid=ac551100-dc22-4913-9a52-4829a5f95f35"},"vehicle_type_id":"4","last_reported":1770273821,"current_range_meters":9200,"station_id":"st_d4a7ka997mjs738ck50g","pricing_plan_id":"cebpf4jnsgd1na2vs0mg"},{"bike_id":"bdec47f5-d0e8-4e97-abea-eea78fbafc96","system_id":"levelo_inurba_marseille","lat":43.321138,"lon":5.367676,"is_reserved":false,"is_disabled":false,"rental_uris":{"android":"levelo://app?vid=bdec47f5-d0e8-4e97-abea-eea78fbafc96","ios":"levelo://app?vid=bdec47f5-d0e8-4e97-abea-eea78fbafc96"},"vehicle_type_id":"4","last_reported":1770273821,"current_range_meters":9200,"station_id":"ce4bhrh2rcd13ifvqhug","pricing_plan_id":"cebpf4jnsgd1na2vs0mg"},{"bike_id":"b53c6c98-8c8f-43b4-8753-1f27fa4df19b","system_id":"levelo_inurba_marseille","lat":43.27251,"lon":5.40057,"is_reserved":false,"is_disabled":false,"rental_uris":{"android":"levelo://app?vid=b53c6c98-8c8f-43b4-8753-1f27fa4df19b","ios":"levelo://app?vid=b53c6c98-8c8f-43b4-8753-1f27fa4df19b"},"vehicle_type_id":"4","last_reported":1770273821,"current_range_meters":9200,"station_id":"","pricing_plan_id":"cebpf4jnsgd1na2vs0mg"},{"bike_id":"e6c56c0f-8543-40e3-b0b7-23114589efc2","system_id":"levelo_inurba_marseille","lat":43.27377,"lon":5.36256,"is_reserved":false,"is_disabled":false,"rental_uris":{"android":"levelo://app?vid=e6c56c0f-8543-40e3-b0b7-23114589efc2","ios":"levelo://app?vid=e6c56c0f-8543-40e3-b0b7-23114589efc2"},"vehicle_type_id":"4","last_reported":1770273821,"current_range_meters":9200,"station_id":"ce4bhbh2rcd13ifvqeo0","pricing_plan_id":"cebpf4jnsgd1na2vs0mg"},{"bike_id":"40b0ab97-2458-48cf-8276-ad0b58fc7a32","system_id":"levelo_inurba_marseille","lat":43.31047,"lon":5.37169,"is_reserved":false,"is_disabled":false,"rental_uris":{"android":"levelo://app?vid=40b0ab97-2458-48cf-8276-ad0b58fc7a32","ios":"levelo://app?vid=40b0ab97-2458-48cf-8276-ad0b58fc7a32"},"vehicle_type_id":"4","last_reported":1770273821,"current_range_meters":9200,"station_id":"st_d4kl2rp97mjs73e7tdfg","pricing_plan_id":"cebpf4jnsgd1na2vs0mg"},{"bike_id":"453579d7-6663-41ac-8c92-337a0b82bafa","system_id":"levelo_inurba_marseille","lat":43.24938,"lon":5.38954,"is_reserved":false,"is_disabled":false,"rental_uris":{"android":"levelo://app?vid=453579d7-6663-41ac-8c92-337a0b82bafa","ios":"levelo://app?vid=453579d7-6663-41ac-8c92-337a0b82bafa"},"vehicle_type_id":"4","last_reported":1770273821,"current_range_meters":9200,"station_id":"","pricing_plan_id":"cebpf4jnsgd1na2vs0mg"},{"bike_id":"b5d4a021-0bb0-42cf-bd44-43afe8841e01","system_id":"levelo_inurba_marseille","lat":43.32367,"lon":5.36772,"is_reserved":false,"is_disabled":false,"rental_uris":{"android":"levelo://app?vid=b5d4a021-0bb0-42cf-bd44-43afe8841e01","ios":"levelo://app?vid=b5d4a021-0bb0-42cf-bd44-43afe8841e01"},"vehicle_type_id":"4","last_reported":1770273821,"current_range_meters":9200,"station_id":"ce4bhsh2rcd13ifvqi2g","pricing_plan_id":"cebpf4jnsgd1na2vs0mg"},{"bike_id":"5309610c-bf76-4542-a232-389bbf17cbff","system_id":"levelo_inurba_marseille","lat":43.33543,"lon":5.37444,"is_reserved":false,"is_disabled":false,"rental_uris":{"android":"levelo://app?vid=5309610c-bf76-4542-a232-389bbf17cbff","ios":"levelo://app?vid=5309610c-bf76-4542-a232-389bbf17cbff"},"vehicle_type_id":"4","last_reported":1770273821,"current_range_meters":9600,"station_id":"","pricing_plan_id":"cebpf4jnsgd1na2vs0mg"},{"bike_id":"b53f497c-0cdf-42a8-ab5a-d6dc45b07b09","system_id":"levelo_inurba_marseille","lat":43.241618,"lon":5.363945,"is_reserved":false,"is_disabled":false,"rental_uris":{"android":"levelo://app?vid=b53f497c-0cdf-42a8-ab5a-d6dc45b07b09","ios":"levelo://app?vid=b53f497c-0cdf-42a8-ab5a-d6dc45b07b09"},"vehicle_type_id":"4","last_reported":1770273821,"current_range_meters":9600,"station_id":"cpo36qri1sfpv3e86is0","pricing_plan_id":"cebpf4jnsgd1na2vs0mg"},{"bike_id":"bc722694-86ed-4d48-9c93-949ab7ccf030","system_id":"levelo_inurba_marseille","lat":43.31175,"lon":5.38715,"is_reserved":false,"is_disabled":false,"rental_uris":{"android":"levelo://app?vid=bc722694-86ed-4d48-9c93-949ab7ccf030","ios":"levelo://app?vid=bc722694-86ed-4d48-9c93-949ab7ccf030"},"vehicle_type_id":"4","last_reported":1770273821,"current_range_meters":9600,"station_id":"ce4bgv12rcd13ifvqcp0","pricing_plan_id":"cebpf4jnsgd1na2vs0mg"},{"bike_id":"7a9437dc-9620-4e4d-ac55-f97780f81760","system_id":"levelo_inurba_marseille","lat":43.24801,"lon":5.37488,"is_reserved":false,"is_disabled":false,"rental_uris":{"android":"levelo://app?vid=7a9437dc-9620-4e4d-ac55-f97780f81760","ios":"levelo://app?vid=7a9437dc-9620-4e4d-ac55-f97780f81760"},"vehicle_type_id":"4","last_reported":1770273821,"current_range_meters":9600,"station_id":"ce4bhgh2rcd13ifvqfb0","pricing_plan_id":"cebpf4jnsgd1na2vs0mg"},{"bike_id":"a76c2d90-7855-49de-80b4-3e0b4c33e593","system_id":"levelo_inurba_marseille","lat":43.24933,"lon":5.40494,"is_reserved":false,"is_disabled":false,"rental_uris":{"android":"levelo://app?vid=a76c2d90-7855-49de-80b4-3e0b4c33e593","ios":"levelo://app?vid=a76c2d90-7855-49de-80b4-3e0b4c33e593"},"vehicle_type_id":"4","last_reported":1770273821,"current_range_meters":9600,"station_id":"st_d2ngiaodas8pm72gd1h0","pricing_plan_id":"cebpf4jnsgd1na2vs0mg"},{"bike_id":"46718fbf-dfaf-4a04-a440-ce25e7ca8e80","system_id":"levelo_inurba_marseille","lat":43.30728,"lon":5.42436,"is_reserved":false,"is_disabled":false,"rental_uris":{"android":"levelo://app?vid=46718fbf-dfaf-4a04-a440-ce25e7ca8e80","ios":"levelo://app?vid=46718fbf-dfaf-4a04-a440-ce25e7ca8e80"},"vehicle_type_id":"4","last_reported":1770273821,"current_range_meters":9600,"station_id":"st_cvj6ca6bvosntc0bfgr0","pricing_plan_id":"cebpf4jnsgd1na2vs0mg"},{"bike_id":"d6b26db0-d8ba-44ea-9212-b3440b811a4a","system_id":"levelo_inurba_marseille","lat":43.30482,"lon":5.41069,"is_reserved":false,"is_disabled":false,"rental_uris":{"android":"levelo://app?vid=d6b26db0-d8ba-44ea-9212-b3440b811a4a","ios":"levelo://app?vid=d6b26db0-d8ba-44ea-9212-b3440b811a4a"},"vehicle_type_id":"4","last_reported":1770273821,"current_range_meters":9600,"station_id":"","pricing_plan_id":"cebpf4jnsgd1na2vs0mg"},{"bike_id":"6b078351-0f00-4936-873b-f166caaf8d01","system_id":"levelo_inurba_marseille","lat":43.25136,"lon":5.40338,"is_reserved":false,"is_disabled":false,"rental_uris":{"android":"levelo://app?vid=6b078351-0f00-4936-873b-f166caaf8d01","ios":"levelo://app?vid=6b078351-0f00-4936-873b-f166caaf8d01"},"vehicle_type_id":"4","last_reported":1770273821,"current_range_meters":9600,"station_id":"ce4bhlh2rcd13ifvqgig","pricing_plan_id":"cebpf4jnsgd1na2vs0mg"},{"bike_id":"5c3d031a-a771-44bc-8903-4ef356b4460b","system_id":"levelo_inurba_marseille","lat":43.24808,"lon":5.37459,"is_reserved":false,"is_disabled":false,"rental_uris":{"android":"levelo://app?vid=5c3d031a-a771-44bc-8903-4ef356b4460b","ios":"levelo://app?vid=5c3d031a-a771-44bc-8903-4ef356b4460b"},"vehicle_type_id":"4","last_reported":1770273821,"current_range_meters":9600,"station_id":"ce4bhgh2rcd13ifvqfb0","pricing_plan_id":"cebpf4jnsgd1na2vs0mg"},{"bike_id":"8242b3dd-6d2d-45e8-b221-ea9e1f572586","system_id":"levelo_inurba_marseille","lat":43.30294,"lon":5.36895,"is_reserved":false,"is_disabled":false,"rental_uris":{"android":"levelo://app?vid=8242b3dd-6d2d-45e8-b221-ea9e1f572586","ios":"levelo://app?vid=8242b3dd-6d2d-45e8-b221-ea9e1f572586"},"vehicle_type_id":"4","last_reported":1770273821,"current_range_meters":9600,"station_id":"ce4bgqh2rcd13ifvqc5g","pricing_plan_id":"cebpf4jnsgd1na2vs0mg"},{"bike_id":"ce42e7f7-46f5-4db3-9bac-ce86f1010cc5","system_id":"levelo_inurba_marseille","lat":43.2339,"lon":5.41224,"is_reserved":false,"is_disabled":false,"rental_uris":{"android":"levelo://app?vid=ce42e7f7-46f5-4db3-9bac-ce86f1010cc5","ios":"levelo://app?vid=ce42e7f7-46f5-4db3-9bac-ce86f1010cc5"},"vehicle_type_id":"4","last_reported":1770273821,"current_range_meters":10000,"station_id":"","pricing_plan_id":"cebpf4jnsgd1na2vs0mg"},{"bike_id":"916d25d2-1934-4b0b-a11a-4597463459fa","system_id":"levelo_inurba_marseille","lat":43.30593,"lon":5.39337,"is_reserved":false,"is_disabled":false,"rental_uris":{"android":"levelo://app?vid=916d25d2-1934-4b0b-a11a-4597463459fa","ios":"levelo://app?vid=916d25d2-1934-4b0b-a11a-4597463459fa"},"vehicle_type_id":"4","last_reported":1770273821,"current_range_meters":10000,"station_id":"ce4bh0p2rcd13ifvqd80","pricing_plan_id":"cebpf4jnsgd1na2vs0mg"},{"bike_id":"da76f900-b17d-4248-b9ba-2a8067b473bd","system_id":"levelo_inurba_marseille","lat":43.31703,"lon":5.42417,"is_reserved":false,"is_disabled":false,"rental_uris":{"android":"levelo://app?vid=da76f900-b17d-4248-b9ba-2a8067b473bd","ios":"levelo://app?vid=da76f900-b17d-4248-b9ba-2a8067b473bd"},"vehicle_type_id":"4","last_reported":1770273821,"current_range_meters":10000,"station_id":"ce4bhp92rcd13ifvqhbg","pricing_plan_id":"cebpf4jnsgd1na2vs0mg"},{"bike_id":"b685c879-bceb-49f4-a8d7-e15d803d203b","system_id":"levelo_inurba_marseille","lat":43.29255,"lon":5.40141,"is_reserved":false,"is_disabled":false,"rental_uris":{"android":"levelo://app?vid=b685c879-bceb-49f4-a8d7-e15d803d203b","ios":"levelo://app?vid=b685c879-bceb-49f4-a8d7-e15d803d203b"},"vehicle_type_id":"4","last_reported":1770273821,"current_range_meters":10000,"station_id":"ce4bh312rcd13ifvqdk0","pricing_plan_id":"cebpf4jnsgd1na2vs0mg"},{"bike_id":"8267a59a-96fe-435a-a59a-5974d84dff18","system_id":"levelo_inurba_marseille","lat":43.24998,"lon":5.38931,"is_reserved":false,"is_disabled":false,"rental_uris":{"android":"levelo://app?vid=8267a59a-96fe-435a-a59a-5974d84dff18","ios":"levelo://app?vid=8267a59a-96fe-435a-a59a-5974d84dff18"},"vehicle_type_id":"4","last_reported":1770273821,"current_range_meters":10000,"station_id":"ce4bhgp2rcd13ifvqfd0","pricing_plan_id":"cebpf4jnsgd1na2vs0mg"},{"bike_id":"a29bd862-d4e1-4cab-b88a-2c26a3036667","system_id":"levelo_inurba_marseille","lat":43.31917,"lon":5.36904,"is_reserved":false,"is_disabled":false,"rental_uris":{"android":"levelo://app?vid=a29bd862-d4e1-4cab-b88a-2c26a3036667","ios":"levelo://app?vid=a29bd862-d4e1-4cab-b88a-2c26a3036667"},"vehicle_type_id":"4","last_reported":1770273821,"current_range_meters":10000,"station_id":"","pricing_plan_id":"cebpf4jnsgd1na2vs0mg"},{"bike_id":"7f607748-495f-4344-8312-e45f568419de","system_id":"levelo_inurba_marseille","lat":43.296005,"lon":5.380866,"is_reserved":false,"is_disabled":false,"rental_uris":{"android":"levelo://app?vid=7f607748-495f-4344-8312-e45f568419de","ios":"levelo://app?vid=7f607748-495f-4344-8312-e45f568419de"},"vehicle_type_id":"4","last_reported":1770273821,"current_range_meters":10000,"station_id":"ce4bgl12rcd13ifvqbo0","pricing_plan_id":"cebpf4jnsgd1na2vs0mg"},{"bike_id":"c6782d87-e485-4a2c-b62b-9a52105fb0ef","system_id":"levelo_inurba_marseille","lat":43.25007,"lon":5.38893,"is_reserved":false,"is_disabled":false,"rental_uris":{"android":"levelo://app?vid=c6782d87-e485-4a2c-b62b-9a52105fb0ef","ios":"levelo://app?vid=c6782d87-e485-4a2c-b62b-9a52105fb0ef"},"vehicle_type_id":"4","last_reported":1770273821,"current_range_meters":10000,"station_id":"ce4bhgp2rcd13ifvqfd0","pricing_plan_id":"cebpf4jnsgd1na2vs0mg"},{"bike_id":"672ffb42-9662-4248-bd5b-2109ba57e123","system_id":"levelo_inurba_marseille","lat":43.310825,"lon":5.424335,"is_reserved":false,"is_disabled":false,"rental_uris":{"android":"levelo://app?vid=672ffb42-9662-4248-bd5b-2109ba57e123","ios":"levelo://app?vid=672ffb42-9662-4248-bd5b-2109ba57e123"},"vehicle_type_id":"4","last_reported":1770273821,"current_range_meters":10000,"station_id":"ce4bhp92rcd13ifvqhag","pricing_plan_id":"cebpf4jnsgd1na2vs0mg"},{"bike_id":"e25b8644-0d6c-46dc-94c8-0b50a7bc6d7e","system_id":"levelo_inurba_marseille","lat":43.32113,"lon":5.36771,"is_reserved":false,"is_disabled":false,"rental_uris":{"android":"levelo://app?vid=e25b8644-0d6c-46dc-94c8-0b50a7bc6d7e","ios":"levelo://app?vid=e25b8644-0d6c-46dc-94c8-0b50a7bc6d7e"},"vehicle_type_id":"4","last_reported":1770273821,"current_range_meters":10000,"station_id":"ce4bhrh2rcd13ifvqhug","pricing_plan_id":"cebpf4jnsgd1na2vs0mg"},{"bike_id":"3e5b2b40-2916-471f-a958-23927706770f","system_id":"levelo_inurba_marseille","lat":43.31883,"lon":5.40738,"is_reserved":false,"is_disabled":false,"rental_uris":{"android":"levelo://app?vid=3e5b2b40-2916-471f-a958-23927706770f","ios":"levelo://app?vid=3e5b2b40-2916-471f-a958-23927706770f"},"vehicle_type_id":"4","last_reported":1770273821,"current_range_meters":10000,"station_id":"ce4bhq12rcd13ifvqhig","pricing_plan_id":"cebpf4jnsgd1na2vs0mg"},{"bike_id":"0388f24a-b566-45b1-a38a-12fb5d338f89","system_id":"levelo_inurba_marseille","lat":43.31658,"lon":5.37663,"is_reserved":false,"is_disabled":false,"rental_uris":{"android":"levelo://app?vid=0388f24a-b566-45b1-a38a-12fb5d338f89","ios":"levelo://app?vid=0388f24a-b566-45b1-a38a-12fb5d338f89"},"vehicle_type_id":"4","last_reported":1770273821,"current_range_meters":10000,"station_id":"","pricing_plan_id":"cebpf4jnsgd1na2vs0mg"},{"bike_id":"f032e3f9-5399-4635-8e00-5e4d3179bb75","system_id":"levelo_inurba_marseille","lat":43.24433,"lon":5.42524,"is_reserved":false,"is_disabled":false,"rental_uris":{"android":"levelo://app?vid=f032e3f9-5399-4635-8e00-5e4d3179bb75","ios":"levelo://app?vid=f032e3f9-5399-4635-8e00-5e4d3179bb75"},"vehicle_type_id":"4","last_reported":1770273821,"current_range_meters":10000,"station_id":"st_d4a3vfp97mjs738cd8kg","pricing_plan_id":"cebpf4jnsgd1na2vs0mg"},{"bike_id":"3b986d99-7b42-471f-993a-11fde28f3c51","system_id":"levelo_inurba_marseille","lat":43.22567,"lon":5.41627,"is_reserved":false,"is_disabled":false,"rental_uris":{"android":"levelo://app?vid=3b986d99-7b42-471f-993a-11fde28f3c51","ios":"levelo://app?vid=3b986d99-7b42-471f-993a-11fde28f3c51"},"vehicle_type_id":"4","last_reported":1770273821,"current_range_meters":10000,"station_id":"st_d2o4gvlbi1j2169b742g","pricing_plan_id":"cebpf4jnsgd1na2vs0mg"},{"bike_id":"42ced7c4-0191-4233-b6f6-66e1d9671888","system_id":"levelo_inurba_marseille","lat":43.311176,"lon":5.377557,"is_reserved":false,"is_disabled":false,"rental_uris":{"android":"levelo://app?vid=42ced7c4-0191-4233-b6f6-66e1d9671888","ios":"levelo://app?vid=42ced7c4-0191-4233-b6f6-66e1d9671888"},"vehicle_type_id":"4","last_reported":1770273821,"current_range_meters":10800,"station_id":"ce4bgt92rcd13ifvqcg0","pricing_plan_id":"cebpf4jnsgd1na2vs0mg"},{"bike_id":"ea0a1780-5e61-4501-9de3-20395ebb94ec","system_id":"levelo_inurba_marseille","lat":43.24814,"lon":5.37461,"is_reserved":false,"is_disabled":false,"rental_uris":{"android":"levelo://app?vid=ea0a1780-5e61-4501-9de3-20395ebb94ec","ios":"levelo://app?vid=ea0a1780-5e61-4501-9de3-20395ebb94ec"},"vehicle_type_id":"4","last_reported":1770273821,"current_range_meters":10800,"station_id":"ce4bhgh2rcd13ifvqfb0","pricing_plan_id":"cebpf4jnsgd1na2vs0mg"},{"bike_id":"2019aed1-4c5c-46a1-8cfd-39406ce16be5","system_id":"levelo_inurba_marseille","lat":43.32052,"lon":5.41592,"is_reserved":false,"is_disabled":false,"rental_uris":{"android":"levelo://app?vid=2019aed1-4c5c-46a1-8cfd-39406ce16be5","ios":"levelo://app?vid=2019aed1-4c5c-46a1-8cfd-39406ce16be5"},"vehicle_type_id":"4","last_reported":1770273821,"current_range_meters":10800,"station_id":"ce4bhq92rcd13ifvqhkg","pricing_plan_id":"cebpf4jnsgd1na2vs0mg"},{"bike_id":"38977987-51c2-4d0b-83a6-9522a0190598","system_id":"levelo_inurba_marseille","lat":43.289354,"lon":5.396211,"is_reserved":false,"is_disabled":false,"rental_uris":{"android":"levelo://app?vid=38977987-51c2-4d0b-83a6-9522a0190598","ios":"levelo://app?vid=38977987-51c2-4d0b-83a6-9522a0190598"},"vehicle_type_id":"4","last_reported":1770273821,"current_range_meters":10800,"station_id":"ce4bh3h2rcd13ifvqdn0","pricing_plan_id":"cebpf4jnsgd1na2vs0mg"},{"bike_id":"8f9ff33a-0886-4d60-8fcb-f1b65a883414","system_id":"levelo_inurba_marseille","lat":43.25824,"lon":5.3944,"is_reserved":false,"is_disabled":false,"rental_uris":{"android":"levelo://app?vid=8f9ff33a-0886-4d60-8fcb-f1b65a883414","ios":"levelo://app?vid=8f9ff33a-0886-4d60-8fcb-f1b65a883414"},"vehicle_type_id":"4","last_reported":1770273821,"current_range_meters":10800,"station_id":"ce4bhip2rcd13ifvqft0","pricing_plan_id":"cebpf4jnsgd1na2vs0mg"},{"bike_id":"d9718be6-2a4a-4a39-82b6-2815d7e553aa","system_id":"levelo_inurba_marseille","lat":43.31437,"lon":5.37534,"is_reserved":false,"is_disabled":false,"rental_uris":{"android":"levelo://app?vid=d9718be6-2a4a-4a39-82b6-2815d7e553aa","ios":"levelo://app?vid=d9718be6-2a4a-4a39-82b6-2815d7e553aa"},"vehicle_type_id":"4","last_reported":1770273821,"current_range_meters":10800,"station_id":"","pricing_plan_id":"cebpf4jnsgd1na2vs0mg"},{"bike_id":"97d8a72a-bde2-43ee-ac90-e71a61804cbc","system_id":"levelo_inurba_marseille","lat":43.24946,"lon":5.40498,"is_reserved":false,"is_disabled":false,"rental_uris":{"android":"levelo://app?vid=97d8a72a-bde2-43ee-ac90-e71a61804cbc","ios":"levelo://app?vid=97d8a72a-bde2-43ee-ac90-e71a61804cbc"},"vehicle_type_id":"4","last_reported":1770273821,"current_range_meters":10800,"station_id":"st_d2ngiaodas8pm72gd1h0","pricing_plan_id":"cebpf4jnsgd1na2vs0mg"},{"bike_id":"33e6b01d-cadc-4668-ba29-d6b917e280b4","system_id":"levelo_inurba_marseille","lat":43.24394,"lon":5.37071,"is_reserved":false,"is_disabled":false,"rental_uris":{"android":"levelo://app?vid=33e6b01d-cadc-4668-ba29-d6b917e280b4","ios":"levelo://app?vid=33e6b01d-cadc-4668-ba29-d6b917e280b4"},"vehicle_type_id":"4","last_reported":1770273821,"current_range_meters":10800,"station_id":"ce4bhhh2rcd13ifvqfk0","pricing_plan_id":"cebpf4jnsgd1na2vs0mg"},{"bike_id":"2ec9313e-d454-47f0-9199-9904693659bc","system_id":"levelo_inurba_marseille","lat":43.27383,"lon":5.3626,"is_reserved":false,"is_disabled":false,"rental_uris":{"android":"levelo://app?vid=2ec9313e-d454-47f0-9199-9904693659bc","ios":"levelo://app?vid=2ec9313e-d454-47f0-9199-9904693659bc"},"vehicle_type_id":"4","last_reported":1770273821,"current_range_meters":10800,"station_id":"ce4bhbh2rcd13ifvqeo0","pricing_plan_id":"cebpf4jnsgd1na2vs0mg"},{"bike_id":"b4fef902-e6cd-464a-9f11-d6538c87979b","system_id":"levelo_inurba_marseille","lat":43.27211,"lon":5.39198,"is_reserved":false,"is_disabled":false,"rental_uris":{"android":"levelo://app?vid=b4fef902-e6cd-464a-9f11-d6538c87979b","ios":"levelo://app?vid=b4fef902-e6cd-464a-9f11-d6538c87979b"},"vehicle_type_id":"4","last_reported":1770273821,"current_range_meters":10800,"station_id":"ce4bhhp2rcd13ifvqfm0","pricing_plan_id":"cebpf4jnsgd1na2vs0mg"},{"bike_id":"ddc87509-ae20-4d3a-aba3-5f2d7c91e914","system_id":"levelo_inurba_marseille","lat":43.231571,"lon":5.437281,"is_reserved":false,"is_disabled":false,"rental_uris":{"android":"levelo://app?vid=ddc87509-ae20-4d3a-aba3-5f2d7c91e914","ios":"levelo://app?vid=ddc87509-ae20-4d3a-aba3-5f2d7c91e914"},"vehicle_type_id":"4","last_reported":1770273821,"current_range_meters":10800,"station_id":"ce4bhmp2rcd13ifvqgog","pricing_plan_id":"cebpf4jnsgd1na2vs0mg"},{"bike_id":"29568cb5-48e1-4afd-96a8-69d8393592fe","system_id":"levelo_inurba_marseille","lat":43.28476,"lon":5.48403,"is_reserved":false,"is_disabled":false,"rental_uris":{"android":"levelo://app?vid=29568cb5-48e1-4afd-96a8-69d8393592fe","ios":"levelo://app?vid=29568cb5-48e1-4afd-96a8-69d8393592fe"},"vehicle_type_id":"4","last_reported":1770273821,"current_range_meters":10800,"station_id":"","pricing_plan_id":"cebpf4jnsgd1na2vs0mg"},{"bike_id":"e0c6a05b-eb02-486c-b185-09b703cc70a3","system_id":"levelo_inurba_marseille","lat":43.2826,"lon":5.40607,"is_reserved":false,"is_disabled":false,"rental_uris":{"android":"levelo://app?vid=e0c6a05b-eb02-486c-b185-09b703cc70a3","ios":"levelo://app?vid=e0c6a05b-eb02-486c-b185-09b703cc70a3"},"vehicle_type_id":"4","last_reported":1770273821,"current_range_meters":10800,"station_id":"","pricing_plan_id":"cebpf4jnsgd1na2vs0mg"},{"bike_id":"9870e3e9-ecf3-4de5-b693-42e2d3363625","system_id":"levelo_inurba_marseille","lat":43.30147,"lon":5.38088,"is_reserved":false,"is_disabled":false,"rental_uris":{"android":"levelo://app?vid=9870e3e9-ecf3-4de5-b693-42e2d3363625","ios":"levelo://app?vid=9870e3e9-ecf3-4de5-b693-42e2d3363625"},"vehicle_type_id":"4","last_reported":1770273821,"current_range_meters":11200,"station_id":"ce4bgjp2rcd13ifvqbh0","pricing_plan_id":"cebpf4jnsgd1na2vs0mg"},{"bike_id":"50518e60-d55c-4763-a8b3-4e96d7b90221","system_id":"levelo_inurba_marseille","lat":43.31102,"lon":5.37191,"is_reserved":false,"is_disabled":false,"rental_uris":{"android":"levelo://app?vid=50518e60-d55c-4763-a8b3-4e96d7b90221","ios":"levelo://app?vid=50518e60-d55c-4763-a8b3-4e96d7b90221"},"vehicle_type_id":"4","last_reported":1770273821,"current_range_meters":11200,"station_id":"st_d4kl2rp97mjs73e7tdfg","pricing_plan_id":"cebpf4jnsgd1na2vs0mg"},{"bike_id":"b8930ff7-8ce5-4f8d-9e8d-e85cd2415d7d","system_id":"levelo_inurba_marseille","lat":43.31291,"lon":5.36732,"is_reserved":false,"is_disabled":false,"rental_uris":{"android":"levelo://app?vid=b8930ff7-8ce5-4f8d-9e8d-e85cd2415d7d","ios":"levelo://app?vid=b8930ff7-8ce5-4f8d-9e8d-e85cd2415d7d"},"vehicle_type_id":"4","last_reported":1770273821,"current_range_meters":11200,"station_id":"","pricing_plan_id":"cebpf4jnsgd1na2vs0mg"},{"bike_id":"4d4726cf-0b07-4c10-9c3e-35ee05b69ed7","system_id":"levelo_inurba_marseille","lat":43.3081,"lon":5.37394,"is_reserved":false,"is_disabled":false,"rental_uris":{"android":"levelo://app?vid=4d4726cf-0b07-4c10-9c3e-35ee05b69ed7","ios":"levelo://app?vid=4d4726cf-0b07-4c10-9c3e-35ee05b69ed7"},"vehicle_type_id":"4","last_reported":1770273821,"current_range_meters":11200,"station_id":"","pricing_plan_id":"cebpf4jnsgd1na2vs0mg"},{"bike_id":"07236d39-4234-4a66-b75f-4404b97effcf","system_id":"levelo_inurba_marseille","lat":43.23739,"lon":5.36646,"is_reserved":false,"is_disabled":false,"rental_uris":{"android":"levelo://app?vid=07236d39-4234-4a66-b75f-4404b97effcf","ios":"levelo://app?vid=07236d39-4234-4a66-b75f-4404b97effcf"},"vehicle_type_id":"4","last_reported":1770273821,"current_range_meters":11200,"station_id":"st_d3nk18o9ro0c73en2l3g","pricing_plan_id":"cebpf4jnsgd1na2vs0mg"},{"bike_id":"5cb338b7-5df9-4b46-a927-b35a3c94134d","system_id":"levelo_inurba_marseille","lat":43.295247,"lon":5.393983,"is_reserved":false,"is_disabled":false,"rental_uris":{"android":"levelo://app?vid=5cb338b7-5df9-4b46-a927-b35a3c94134d","ios":"levelo://app?vid=5cb338b7-5df9-4b46-a927-b35a3c94134d"},"vehicle_type_id":"4","last_reported":1770273821,"current_range_meters":11200,"station_id":"ce4bh292rcd13ifvqdf0","pricing_plan_id":"cebpf4jnsgd1na2vs0mg"},{"bike_id":"63b5e7ff-784a-44cb-b53d-dd43a84f5930","system_id":"levelo_inurba_marseille","lat":43.241709,"lon":5.36389,"is_reserved":false,"is_disabled":false,"rental_uris":{"android":"levelo://app?vid=63b5e7ff-784a-44cb-b53d-dd43a84f5930","ios":"levelo://app?vid=63b5e7ff-784a-44cb-b53d-dd43a84f5930"},"vehicle_type_id":"4","last_reported":1770273821,"current_range_meters":11200,"station_id":"cpo36qri1sfpv3e86is0","pricing_plan_id":"cebpf4jnsgd1na2vs0mg"},{"bike_id":"59f832b2-b3bc-4065-8750-a9a072c98d4a","system_id":"levelo_inurba_marseille","lat":43.27913,"lon":5.39592,"is_reserved":false,"is_disabled":false,"rental_uris":{"android":"levelo://app?vid=59f832b2-b3bc-4065-8750-a9a072c98d4a","ios":"levelo://app?vid=59f832b2-b3bc-4065-8750-a9a072c98d4a"},"vehicle_type_id":"4","last_reported":1770273821,"current_range_meters":11200,"station_id":"ce4bhf92rcd13ifvqf40","pricing_plan_id":"cebpf4jnsgd1na2vs0mg"},{"bike_id":"bc9bbd55-10a3-4d94-a253-798fe734b997","system_id":"levelo_inurba_marseille","lat":43.29616,"lon":5.38121,"is_reserved":false,"is_disabled":false,"rental_uris":{"android":"levelo://app?vid=bc9bbd55-10a3-4d94-a253-798fe734b997","ios":"levelo://app?vid=bc9bbd55-10a3-4d94-a253-798fe734b997"},"vehicle_type_id":"4","last_reported":1770273821,"current_range_meters":11200,"station_id":"ce4bgl12rcd13ifvqbo0","pricing_plan_id":"cebpf4jnsgd1na2vs0mg"},{"bike_id":"05d32270-cfc5-4d42-b2ca-ea098e45c224","system_id":"levelo_inurba_marseille","lat":43.28481,"lon":5.3844,"is_reserved":false,"is_disabled":false,"rental_uris":{"android":"levelo://app?vid=05d32270-cfc5-4d42-b2ca-ea098e45c224","ios":"levelo://app?vid=05d32270-cfc5-4d42-b2ca-ea098e45c224"},"vehicle_type_id":"4","last_reported":1770273821,"current_range_meters":11200,"station_id":"ce4bh512rcd13ifvqe3g","pricing_plan_id":"cebpf4jnsgd1na2vs0mg"},{"bike_id":"b3cf203e-dc09-4b95-84d9-89d6f0f042e5","system_id":"levelo_inurba_marseille","lat":43.28403,"lon":5.37518,"is_reserved":false,"is_disabled":false,"rental_uris":{"android":"levelo://app?vid=b3cf203e-dc09-4b95-84d9-89d6f0f042e5","ios":"levelo://app?vid=b3cf203e-dc09-4b95-84d9-89d6f0f042e5"},"vehicle_type_id":"4","last_reported":1770273821,"current_range_meters":11200,"station_id":"ce4bh412rcd13ifvqds0","pricing_plan_id":"cebpf4jnsgd1na2vs0mg"},{"bike_id":"69c3a4fd-6abf-495d-aca1-26b778e6bd90","system_id":"levelo_inurba_marseille","lat":43.301409,"lon":5.37419,"is_reserved":false,"is_disabled":false,"rental_uris":{"android":"levelo://app?vid=69c3a4fd-6abf-495d-aca1-26b778e6bd90","ios":"levelo://app?vid=69c3a4fd-6abf-495d-aca1-26b778e6bd90"},"vehicle_type_id":"4","last_reported":1770273821,"current_range_meters":11600,"station_id":"ce4bgs92rcd13ifvqcc0","pricing_plan_id":"cebpf4jnsgd1na2vs0mg"},{"bike_id":"a01a4f02-b3f6-49bb-bb00-5ccd632178ca","system_id":"levelo_inurba_marseille","lat":43.30311,"lon":5.36897,"is_reserved":false,"is_disabled":false,"rental_uris":{"android":"levelo://app?vid=a01a4f02-b3f6-49bb-bb00-5ccd632178ca","ios":"levelo://app?vid=a01a4f02-b3f6-49bb-bb00-5ccd632178ca"},"vehicle_type_id":"4","last_reported":1770273821,"current_range_meters":11600,"station_id":"ce4bgqh2rcd13ifvqc5g","pricing_plan_id":"cebpf4jnsgd1na2vs0mg"},{"bike_id":"7ce3271c-9e28-4d5e-b3b1-77311e5df5d7","system_id":"levelo_inurba_marseille","lat":43.31488,"lon":5.38089,"is_reserved":false,"is_disabled":false,"rental_uris":{"android":"levelo://app?vid=7ce3271c-9e28-4d5e-b3b1-77311e5df5d7","ios":"levelo://app?vid=7ce3271c-9e28-4d5e-b3b1-77311e5df5d7"},"vehicle_type_id":"4","last_reported":1770273821,"current_range_meters":11600,"station_id":"","pricing_plan_id":"cebpf4jnsgd1na2vs0mg"},{"bike_id":"ea394ce4-561e-40c3-b5d8-13958e8a40d6","system_id":"levelo_inurba_marseille","lat":43.23182,"lon":5.35562,"is_reserved":false,"is_disabled":false,"rental_uris":{"android":"levelo://app?vid=ea394ce4-561e-40c3-b5d8-13958e8a40d6","ios":"levelo://app?vid=ea394ce4-561e-40c3-b5d8-13958e8a40d6"},"vehicle_type_id":"4","last_reported":1770273821,"current_range_meters":11600,"station_id":"ce4bhu92rcd13ifvqi70","pricing_plan_id":"cebpf4jnsgd1na2vs0mg"},{"bike_id":"14a0bfe2-9ad8-41a2-8100-306572082be4","system_id":"levelo_inurba_marseille","lat":43.24642,"lon":5.38911,"is_reserved":false,"is_disabled":false,"rental_uris":{"android":"levelo://app?vid=14a0bfe2-9ad8-41a2-8100-306572082be4","ios":"levelo://app?vid=14a0bfe2-9ad8-41a2-8100-306572082be4"},"vehicle_type_id":"4","last_reported":1770273821,"current_range_meters":11600,"station_id":"ce4bhg12rcd13ifvqf60","pricing_plan_id":"cebpf4jnsgd1na2vs0mg"},{"bike_id":"06022918-bad5-4875-92db-f13638955eb6","system_id":"levelo_inurba_marseille","lat":43.31478,"lon":5.37305,"is_reserved":false,"is_disabled":false,"rental_uris":{"android":"levelo://app?vid=06022918-bad5-4875-92db-f13638955eb6","ios":"levelo://app?vid=06022918-bad5-4875-92db-f13638955eb6"},"vehicle_type_id":"4","last_reported":1770273821,"current_range_meters":11600,"station_id":"ce4bgt12rcd13ifvqcd0","pricing_plan_id":"cebpf4jnsgd1na2vs0mg"},{"bike_id":"98b89a63-b3c9-4748-8f93-0ccb5ab9560d","system_id":"levelo_inurba_marseille","lat":43.26544,"lon":5.37301,"is_reserved":false,"is_disabled":false,"rental_uris":{"android":"levelo://app?vid=98b89a63-b3c9-4748-8f93-0ccb5ab9560d","ios":"levelo://app?vid=98b89a63-b3c9-4748-8f93-0ccb5ab9560d"},"vehicle_type_id":"4","last_reported":1770273821,"current_range_meters":11600,"station_id":"ce4bhg12rcd13ifvqf70","pricing_plan_id":"cebpf4jnsgd1na2vs0mg"},{"bike_id":"0ff7d1fc-c942-4e04-bb24-6b30b880d197","system_id":"levelo_inurba_marseille","lat":43.31566,"lon":5.36915,"is_reserved":false,"is_disabled":false,"rental_uris":{"android":"levelo://app?vid=0ff7d1fc-c942-4e04-bb24-6b30b880d197","ios":"levelo://app?vid=0ff7d1fc-c942-4e04-bb24-6b30b880d197"},"vehicle_type_id":"4","last_reported":1770273821,"current_range_meters":11600,"station_id":"","pricing_plan_id":"cebpf4jnsgd1na2vs0mg"},{"bike_id":"e6f11cd6-3531-4096-9079-debdff2f85fd","system_id":"levelo_inurba_marseille","lat":43.22928,"lon":5.35393,"is_reserved":false,"is_disabled":false,"rental_uris":{"android":"levelo://app?vid=e6f11cd6-3531-4096-9079-debdff2f85fd","ios":"levelo://app?vid=e6f11cd6-3531-4096-9079-debdff2f85fd"},"vehicle_type_id":"4","last_reported":1770273821,"current_range_meters":11600,"station_id":"cpo3532slgdg3j2ikp40","pricing_plan_id":"cebpf4jnsgd1na2vs0mg"},