{"last_updated":1704834389,"ttl":30,"version":"2.2","data":{"bikes":[{"bike_id":"ac0ae112-3df7-4770-9dd6-7a276faa0a9b","system_id":"levelo_inurba_marseille","lat":43.3123,"lon":5.36866,"is_reserved":false,"is_disabled":false,"rental_uris":{"android":"levelo://app?vid=ac0ae112-3df7-4770-9dd6-7a276faa0a9b","ios":"levelo://app?vid=ac0ae112-3df7-4770-9dd6-7a276faa0a9b"},"vehicle_type_id":"4","last_reported":1704834389,"current_range_meters":0,"station_id":"ce4bgl92rcd13ifvqbq0","pricing_plan_id":"free"},{"bike_id":"dc18961b-fe7f-439b-8bed-6dbd38e0bb49","system_id":"levelo_inurba_marseille","lat":43.309076,"lon":5.368465,"is_reserved":false,"is_disabled":false,"rental_uris":{"android":"levelo://app?vid=dc18961b-fe7f-439b-8bed-6dbd38e0bb49","ios":"levelo://app?vid=dc18961b-fe7f-439b-8bed-6dbd38e0bb49"},"vehicle_type_id":"4","last_reported":1704834389,"current_range_meters":24000,"station_id":"ce4bgn92rcd13ifvqbvg","pricing_plan_id":"free"},{"bike_id":"31075a05-114f-46c8-a0a5-3a28b985355d","system_id":"levelo_inurba_marseille","lat":43.309076,"lon":5.368465,"is_reserved":false,"is_disabled":false,"rental_uris":{"android":"levelo://app?vid=31075a05-114f-46c8-a0a5-3a28b985355d","ios":"levelo://app?vid=31075a05-114f-46c8-a0a5-3a28b985355d"},"vehicle_type_id":"4","last_reported":1704834389,"current_range_meters":28000,"station_id":"ce4bgn92rcd13ifvqbvg","pricing_plan_id":"free"},{"bike_id":"a18c9f18-dd23-4fa3-ae4c-750a813ec2dd","system_id":"levelo_inurba_marseille","lat":43.31361,"lon":5.37348,"is_reserved":false,"is_disabled":false,"rental_uris":{"android":"levelo://app?vid=a18c9f18-dd23-4fa3-ae4c-750a813ec2dd","ios":"levelo://app?vid=a18c9f18-dd23-4fa3-ae4c-750a813ec2dd"},"vehicle_type_id":"4","last_reported":1704834389,"current_range_meters":4800,"station_id":"","pricing_plan_id":"free"},{"bike_id":"8130f7b7-276b-4dcb-9553-58bda24c92ed","system_id":"levelo_inurba_marseille","lat":43.314811,"lon":5.373103,"is_reserved":false,"is_disabled":false,"rental_uris":{"android":"levelo://app?vid=8130f7b7-276b-4dcb-9553-58bda24c92ed","ios":"levelo://app?vid=8130f7b7-276b-4dcb-9553-58bda24c92ed"},"vehicle_type_id":"4","last_reported":1704834389,"current_range_meters":26000,"station_id":"ce4bgt12rcd13ifvqcd0","pricing_plan_id":"free"},{"bike_id":"af6f47ef-40df-4e4e-ac93-350709f0ddb1","system_id":"levelo_inurba_marseille","lat":43.314811,"lon":5.373103,"is_reserved":false,"is_disabled":false,"rental_uris":{"android":"levelo://app?vid=af6f47ef-40df-4e4e-ac93-350709f0ddb1","ios":"levelo://app?vid=af6f47ef-40df-4e4e-ac93-350709f0ddb1"},"vehicle_type_id":"4","last_reported":1704834389,"current_range_meters":16800,"station_id":"ce4bgt12rcd13ifvqcd0","pricing_plan_id":"free"},{"bike_id":"7b3b699f-3f99-4e35-89af-d56ef1f73cc7","system_id":"levelo_inurba_marseille","lat":43.31531,"lon":5.37284,"is_reserved":false,"is_disabled":false,"rental_uris":{"android":"levelo://app?vid=7b3b699f-3f99-4e35-89af-d56ef1f73cc7","ios":"levelo://app?vid=7b3b699f-3f99-4e35-89af-d56ef1f73cc7"},"vehicle_type_id":"4","last_reported":1704834389,"current_range_meters":20400,"station_id":"","pricing_plan_id":"free"},{"bike_id":"dccb29e9-017f-4a8e-a5e4-3466ddfabbe7","system_id":"levelo_inurba_marseille","lat":43.309039,"lon":5.371797,"is_reserved":false,"is_disabled":false,"rental_uris":{"android":"levelo://app?vid=dccb29e9-017f-4a8e-a5e4-3466ddfabbe7","ios":"levelo://app?vid=dccb29e9-017f-4a8e-a5e4-3466ddfabbe7"},"vehicle_type_id":"4","last_reported":1704834389,"current_range_meters":31200,"station_id":"ce4bguh2rcd13ifvqckg","pricing_plan_id":"free"},{"bike_id":"2980a71a-723a-4d76-9c58-e80ae11bdcf8","system_id":"levelo_inurba_marseille","lat":43.309039,"lon":5.371797,"is_reserved":false,"is_disabled":false,"rental_uris":{"android":"levelo://app?vid=2980a71a-723a-4d76-9c58-e80ae11bdcf8","ios":"levelo://app?vid=2980a71a-723a-4d76-9c58-e80ae11bdcf8"},"vehicle_type_id":"4","last_reported":1704834389,"current_range_meters":10000,"station_id":"ce4bguh2rcd13ifvqckg","pricing_plan_id":"free"},{"bike_id":"8acc3b37-c5e6-44fa-acdd-cb9adc25ca15","system_id":"levelo_inurba_marseille","lat":43.309039,"lon":5.371797,"is_reserved":false,"is_disabled":false,"rental_uris":{"android":"levelo://app?vid=8acc3b37-c5e6-44fa-acdd-cb9adc25ca15","ios":"levelo://app?vid=8acc3b37-c5e6-44fa-acdd-cb9adc25ca15"},"vehicle_type_id":"4","last_reported":1704834389,"current_range_meters":25600,"station_id":"ce4bguh2rcd13ifvqckg","pricing_plan_id":"free"},{"bike_id":"5ab70589-32b5-4290-91a4-e3c5db683f19","system_id":"levelo_inurba_marseille","lat":43.309039,"lon":5.371797,"is_reserved":false,"is_disabled":false,"rental_uris":{"android":"levelo://app?vid=5ab70589-32b5-4290-91a4-e3c5db683f19","ios":"levelo://app?vid=5ab70589-32b5-4290-91a4-e3c5db683f19"},"vehicle_type_id":"4","last_reported":1704834389,"current_range_meters":20800,"station_id":"ce4bguh2rcd13ifvqckg","pricing_plan_id":"free"},{"bike_id":"c8892881-d86c-4f68-bfeb-1dfd8e0b7d40","system_id":"levelo_inurba_marseille","lat":43.305368,"lon":5.367343,"is_reserved":false,"is_disabled":false,"rental_uris":{"android":"levelo://app?vid=c8892881-d86c-4f68-bfeb-1dfd8e0b7d40","ios":"levelo://app?vid=c8892881-d86c-4f68-bfeb-1dfd8e0b7d40"},"vehicle_type_id":"4","last_reported":1704834389,"current_range_meters":10000,"station_id":"ce4bgrp2rcd13ifvqc9g","pricing_plan_id":"free"},{"bike_id":"66cb6309-9162-4eb9-86fe-07c4974f436d","system_id":"levelo_inurba_marseille","lat":43.305989,"lon":5.37225,"is_reserved":false,"is_disabled":false,"rental_uris":{"android":"levelo://app?vid=66cb6309-9162-4eb9-86fe-07c4974f436d","ios":"levelo://app?vid=66cb6309-9162-4eb9-86fe-07c4974f436d"},"vehicle_type_id":"4","last_reported":1704834389,"current_range_meters":12000,"station_id":"ce4bgqh2rcd13ifvqc4g","pricing_plan_id":"free"},{"bike_id":"9a1521f8-4131-4189-88e8-072398af8b3f","system_id":"levelo_inurba_marseille","lat":43.305989,"lon":5.37225,"is_reserved":false,"is_disabled":false,"rental_uris":{"android":"levelo://app?vid=9a1521f8-4131-4189-88e8-072398af8b3f","ios":"levelo://app?vid=9a1521f8-4131-4189-88e8-072398af8b3f"},"vehicle_type_id":"4","last_reported":1704834389,"current_range_meters":30000,"station_id":"ce4bgqh2rcd13ifvqc4g","pricing_plan_id":"free"},{"bike_id":"961b53d2-a391-4807-8d36-b5457a96a289","system_id":"levelo_inurba_marseille","lat":43.305989,"lon":5.37225,"is_reserved":false,"is_disabled":false,"rental_uris":{"android":"levelo://app?vid=961b53d2-a391-4807-8d36-b5457a96a289","ios":"levelo://app?vid=961b53d2-a391-4807-8d36-b5457a96a289"},"vehicle_type_id":"4","last_reported":1704834389,"current_range_meters":28000,"station_id":"ce4bgqh2rcd13ifvqc4g","pricing_plan_id":"free"},{"bike_id":"dbfd96a6-4f0c-4c05-b05c-d7a02237e190","system_id":"levelo_inurba_marseille","lat":43.31127,"lon":5.37757,"is_reserved":false,"is_disabled":false,"rental_uris":{"android":"levelo://app?vid=dbfd96a6-4f0c-4c05-b05c-d7a02237e190","ios":"levelo://app?vid=dbfd96a6-4f0c-4c05-b05c-d7a02237e190"},"vehicle_type_id":"4","last_reported":1704834389,"current_range_meters":14400,"station_id":"ce4bgt92rcd13ifvqcg0","pricing_plan_id":"free"},{"bike_id":"83e2e606-05b5-4405-aeff-599755888f2b","system_id":"levelo_inurba_marseille","lat":43.311131,"lon":5.377651,"is_reserved":false,"is_disabled":false,"rental_uris":{"android":"levelo://app?vid=83e2e606-05b5-4405-aeff-599755888f2b","ios":"levelo://app?vid=83e2e606-05b5-4405-aeff-599755888f2b"},"vehicle_type_id":"4","last_reported":1704834389,"current_range_meters":18400,"station_id":"ce4bgt92rcd13ifvqcg0","pricing_plan_id":"free"},{"bike_id":"2fd592a2-6b7d-41ef-ae1f-f915351b7ae8","system_id":"levelo_inurba_marseille","lat":43.31129,"lon":5.37779,"is_reserved":false,"is_disabled":false,"rental_uris":{"android":"levelo://app?vid=2fd592a2-6b7d-41ef-ae1f-f915351b7ae8","ios":"levelo://app?vid=2fd592a2-6b7d-41ef-ae1f-f915351b7ae8"},"vehicle_type_id":"4","last_reported":1704834389,"current_range_meters":0,"station_id":"ce4bgt92rcd13ifvqcg0","pricing_plan_id":"free"},{"bike_id":"bcf6113b-df09-4996-803f-f235cc725174","system_id":"levelo_inurba_marseille","lat":43.311131,"lon":5.377651,"is_reserved":false,"is_disabled":false,"rental_uris":{"android":"levelo://app?vid=bcf6113b-df09-4996-803f-f235cc725174","ios":"levelo://app?vid=bcf6113b-df09-4996-803f-f235cc725174"},"vehicle_type_id":"4","last_reported":1704834389,"current_range_meters":31200,"station_id":"ce4bgt92rcd13ifvqcg0","pricing_plan_id":"free"},{"bike_id":"b27493f3-9e77-459c-a1a7-9680231d4332","system_id":"levelo_inurba_marseille","lat":43.307945,"lon":5.376487,"is_reserved":false,"is_disabled":false,"rental_uris":{"android":"levelo://app?vid=b27493f3-9e77-459c-a1a7-9680231d4332","ios":"levelo://app?vid=b27493f3-9e77-459c-a1a7-9680231d4332"},"vehicle_type_id":"4","last_reported":1704834389,"current_range_meters":31200,"station_id":"ce4bgv92rcd13ifvqcq0","pricing_plan_id":"free"},{"bike_id":"464cf71c-30dd-44a3-b3b2-b6879ae12feb","system_id":"levelo_inurba_marseille","lat":43.307945,"lon":5.376487,"is_reserved":false,"is_disabled":false,"rental_uris":{"android":"levelo://app?vid=464cf71c-30dd-44a3-b3b2-b6879ae12feb","ios":"levelo://app?vid=464cf71c-30dd-44a3-b3b2-b6879ae12feb"},"vehicle_type_id":"4","last_reported":1704834389,"current_range_meters":23600,"station_id":"ce4bgv92rcd13ifvqcq0","pricing_plan_id":"free"},{"bike_id":"68a2e4d5-df94-4531-8df4-dd89633f0d44","system_id":"levelo_inurba_marseille","lat":43.307945,"lon":5.376487,"is_reserved":false,"is_disabled":false,"rental_uris":{"android":"levelo://app?vid=68a2e4d5-df94-4531-8df4-dd89633f0d44","ios":"levelo://app?vid=68a2e4d5-df94-4531-8df4-dd89633f0d44"},"vehicle_type_id":"4","last_reported":1704834389,"current_range_meters":12800,"station_id":"ce4bgv92rcd13ifvqcq0","pricing_plan_id":"free"},{"bike_id":"dd5387d2-458c-4283-9f14-5702c861ee74","system_id":"levelo_inurba_marseille","lat":43.317075,"lon":5.377367,"is_reserved":false,"is_disabled":false,"rental_uris":{"android":"levelo://app?vid=dd5387d2-458c-4283-9f14-5702c861ee74","ios":"levelo://app?vid=dd5387d2-458c-4283-9f14-5702c861ee74"},"vehicle_type_id":"4","last_reported":1704834389,"current_range_meters":9200,"station_id":"ce4bgth2rcd13ifvqch0","pricing_plan_id":"free"},{"bike_id":"e9033b25-0025-4725-bd54-ab2b6c87aa9f","system_id":"levelo_inurba_marseille","lat":43.30304,"lon":5.368987,"is_reserved":false,"is_disabled":false,"rental_uris":{"android":"levelo://app?vid=e9033b25-0025-4725-bd54-ab2b6c87aa9f","ios":"levelo://app?vid=e9033b25-0025-4725-bd54-ab2b6c87aa9f"},"vehicle_type_id":"4","last_reported":1704834389,"current_range_meters":29600,"station_id":"ce4bgqh2rcd13ifvqc5g","pricing_plan_id":"free"},{"bike_id":"3a00716f-d013-4723-971b-a74c0751b1db","system_id":"levelo_inurba_marseille","lat":43.3153,"lon":5.38029,"is_reserved":false,"is_disabled":false,"rental_uris":{"android":"levelo://app?vid=3a00716f-d013-4723-971b-a74c0751b1db","ios":"levelo://app?vid=3a00716f-d013-4723-971b-a74c0751b1db"},"vehicle_type_id":"4","last_reported":1704834389,"current_range_meters":30800,"station_id":"ce4bhsp2rcd13ifvqi50","pricing_plan_id":"free"},{"bike_id":"78e7e72b-de28-4a5a-86c2-d78e031ad675","system_id":"levelo_inurba_marseille","lat":43.31531,"lon":5.38038,"is_reserved":false,"is_disabled":false,"rental_uris":{"android":"levelo://app?vid=78e7e72b-de28-4a5a-86c2-d78e031ad675","ios":"levelo://app?vid=78e7e72b-de28-4a5a-86c2-d78e031ad675"},"vehicle_type_id":"4","last_reported":1704834389,"current_range_meters":21200,"station_id":"ce4bhsp2rcd13ifvqi50","pricing_plan_id":"free"},{"bike_id":"18f41fc9-047b-4751-b04f-46203cdf9655","system_id":"levelo_inurba_marseille","lat":43.301939,"lon":5.366286,"is_reserved":false,"is_disabled":false,"rental_uris":{"android":"levelo://app?vid=18f41fc9-047b-4751-b04f-46203cdf9655","ios":"levelo://app?vid=18f41fc9-047b-4751-b04f-46203cdf9655"},"vehicle_type_id":"4","last_reported":1704834389,"current_range_meters":4000,"station_id":"ce4bgrh2rcd13ifvqc8g","pricing_plan_id":"free"},{"bike_id":"b7b627a3-cd04-4856-acd2-4d9a3142ac11","system_id":"levelo_inurba_marseille","lat":43.308012,"lon":5.381511,"is_reserved":false,"is_disabled":false,"rental_uris":{"android":"levelo://app?vid=b7b627a3-cd04-4856-acd2-4d9a3142ac11","ios":"levelo://app?vid=b7b627a3-cd04-4856-acd2-4d9a3142ac11"},"vehicle_type_id":"4","last_reported":1704834389,"current_range_meters":6400,"station_id":"ce4bgt12rcd13ifvqce0","pricing_plan_id":"free"},{"bike_id":"1b7b6e60-9a00-405e-b8f8-efbe7ec76bf6","system_id":"levelo_inurba_marseille","lat":43.308012,"lon":5.381511,"is_reserved":false,"is_disabled":false,"rental_uris":{"android":"levelo://app?vid=1b7b6e60-9a00-405e-b8f8-efbe7ec76bf6","ios":"levelo://app?vid=1b7b6e60-9a00-405e-b8f8-efbe7ec76bf6"},"vehicle_type_id":"4","last_reported":1704834389,"current_range_meters":25600,"station_id":"ce4bgt12rcd13ifvqce0","pricing_plan_id":"free"},{"bike_id":"0e5ce871-c722-414c-b730-396641532e54","system_id":"levelo_inurba_marseille","lat":43.308012,"lon":5.381511,"is_reserved":false,"is_disabled":false,"rental_uris":{"android":"levelo://app?vid=0e5ce871-c722-414c-b730-396641532e54","ios":"levelo://app?vid=0e5ce871-c722-414c-b730-396641532e54"},"vehicle_type_id":"4","last_reported":1704834389,"current_range_meters":2800,"station_id":"ce4bgt12rcd13ifvqce0","pricing_plan_id":"free"},{"bike_id":"68f50423-f887-49e8-90b0-eb86589b8ffd","system_id":"levelo_inurba_marseille","lat":43.308012,"lon":5.381511,"is_reserved":false,"is_disabled":false,"rental_uris":{"android":"levelo://app?vid=68f50423-f887-49e8-90b0-eb86589b8ffd","ios":"levelo://app?vid=68f50423-f887-49e8-90b0-eb86589b8ffd"},"vehicle_type_id":"4","last_reported":1704834389,"current_range_meters":14400,"station_id":"ce4bgt12rcd13ifvqce0","pricing_plan_id":"free"},{"bike_id":"c29a4f58-b04a-47d0-9ebe-b3d10a644a00","system_id":"levelo_inurba_marseille","lat":43.308012,"lon":5.381511,"is_reserved":false,"is_disabled":false,"rental_uris":{"android":"levelo://app?vid=c29a4f58-b04a-47d0-9ebe-b3d10a644a00","ios":"levelo://app?vid=c29a4f58-b04a-47d0-9ebe-b3d10a644a00"},"vehicle_type_id":"4","last_reported":1704834389,"current_range_meters":6800,"station_id":"ce4bgt12rcd13ifvqce0","pricing_plan_id":"free"},{"bike_id":"f3024a02-cad0-4e53-8fac-c01eac4054bd","system_id":"levelo_inurba_marseille","lat":43.300827,"lon":5.365856,"is_reserved":false,"is_disabled":false,"rental_uris":{"android":"levelo://app?vid=f3024a02-cad0-4e53-8fac-c01eac4054bd","ios":"levelo://app?vid=f3024a02-cad0-4e53-8fac-c01eac4054bd"},"vehicle_type_id":"4","last_reported":1704834389,"current_range_meters":15600,"station_id":"","pricing_plan_id":"free"},{"bike_id":"43d1534d-2009-4e41-8ec2-3edfe4161447","system_id":"levelo_inurba_marseille","lat":43.304606,"lon":5.379026,"is_reserved":false,"is_disabled":false,"rental_uris":{"android":"levelo://app?vid=43d1534d-2009-4e41-8ec2-3edfe4161447","ios":"levelo://app?vid=43d1534d-2009-4e41-8ec2-3edfe4161447"},"vehicle_type_id":"4","last_reported":1704834389,"current_range_meters":6800,"station_id":"ce4bgup2rcd13ifvqcn0","pricing_plan_id":"free"},{"bike_id":"966b2d41-1764-4aeb-ab96-2e27d6a6aaf7","system_id":"levelo_inurba_marseille","lat":43.30464,"lon":5.37903,"is_reserved":false,"is_disabled":false,"rental_uris":{"android":"levelo://app?vid=966b2d41-1764-4aeb-ab96-2e27d6a6aaf7","ios":"levelo://app?vid=966b2d41-1764-4aeb-ab96-2e27d6a6aaf7"},"vehicle_type_id":"4","last_reported":1704834389,"current_range_meters":0,"station_id":"ce4bgup2rcd13ifvqcn0","pricing_plan_id":"free"},{"bike_id":"592186ea-9749-4077-a128-39abeba103d1","system_id":"levelo_inurba_marseille","lat":43.324765,"lon":5.365581,"is_reserved":false,"is_disabled":false,"rental_uris":{"android":"levelo://app?vid=592186ea-9749-4077-a128-39abeba103d1","ios":"levelo://app?vid=592186ea-9749-4077-a128-39abeba103d1"},"vehicle_type_id":"4","last_reported":1704834389,"current_range_meters":10800,"station_id":"ce4bhs12rcd13ifvqhvg","pricing_plan_id":"free"},{"bike_id":"2aa100e7-2671-4c1b-a1f0-ab7832afcbad","system_id":"levelo_inurba_marseille","lat":43.324771,"lon":5.36557,"is_reserved":false,"is_disabled":false,"rental_uris":{"android":"levelo://app?vid=2aa100e7-2671-4c1b-a1f0-ab7832afcbad","ios":"levelo://app?vid=2aa100e7-2671-4c1b-a1f0-ab7832afcbad"},"vehicle_type_id":"4","last_reported":1704834389,"current_range_meters":15200,"station_id":"ce4bhs12rcd13ifvqhvg","pricing_plan_id":"free"},{"bike_id":"ff7d6d39-92d2-4309-910f-696520f9158d","system_id":"levelo_inurba_marseille","lat":43.324771,"lon":5.36557,"is_reserved":false,"is_disabled":false,"rental_uris":{"android":"levelo://app?vid=ff7d6d39-92d2-4309-910f-696520f9158d","ios":"levelo://app?vid=ff7d6d39-92d2-4309-910f-696520f9158d"},"vehicle_type_id":"4","last_reported":1704834389,"current_range_meters":15600,"station_id":"ce4bhs12rcd13ifvqhvg","pricing_plan_id":"free"},{"bike_id":"9a5d20fc-5739-4188-aece-a966211e1333","system_id":"levelo_inurba_marseille","lat":43.324771,"lon":5.36557,"is_reserved":false,"is_disabled":false,"rental_uris":{"android":"levelo://app?vid=9a5d20fc-5739-4188-aece-a966211e1333","ios":"levelo://app?vid=9a5d20fc-5739-4188-aece-a966211e1333"},"vehicle_type_id":"4","last_reported":1704834389,"current_range_meters":4000,"station_id":"ce4bhs12rcd13ifvqhvg","pricing_plan_id":"free"},{"bike_id":"52f54fe1-209b-48d5-a9e5-77969beb0120","system_id":"levelo_inurba_marseille","lat":43.324771,"lon":5.36557,"is_reserved":false,"is_disabled":false,"rental_uris":{"android":"levelo://app?vid=52f54fe1-209b-48d5-a9e5-77969beb0120","ios":"levelo://app?vid=52f54fe1-209b-48d5-a9e5-77969beb0120"},"vehicle_type_id":"4","last_reported":1704834389,"current_range_meters":23600,"station_id":"ce4bhs12rcd13ifvqhvg","pricing_plan_id":"free"},{"bike_id":"ee926864-2611-4e6a-bfd8-5fc91eba9acd","system_id":"levelo_inurba_marseille","lat":43.324771,"lon":5.36557,"is_reserved":false,"is_disabled":false,"rental_uris":{"android":"levelo://app?vid=ee926864-2611-4e6a-bfd8-5fc91eba9acd","ios":"levelo://app?vid=ee926864-2611-4e6a-bfd8-5fc91eba9acd"},"vehicle_type_id":"4","last_reported":1704834389,"current_range_meters":21200,"station_id":"ce4bhs12rcd13ifvqhvg","pricing_plan_id":"free"},{"bike_id":"bb02e8fc-1b1a-442d-be08-908b3392a957","system_id":"levelo_inurba_marseille","lat":43.324771,"lon":5.36557,"is_reserved":false,"is_disabled":false,"rental_uris":{"android":"levelo://app?vid=bb02e8fc-1b1a-442d-be08-908b3392a957","ios":"levelo://app?vid=bb02e8fc-1b1a-442d-be08-908b3392a957"},"vehicle_type_id":"4","last_reported":1704834389,"current_range_meters":15200,"station_id":"ce4bhs12rcd13ifvqhvg","pricing_plan_id":"free"},{"bike_id":"fd05656f-849e-4da8-8179-d9c0dba14610","system_id":"levelo_inurba_marseille","lat":43.30275,"lon":5.37696,"is_reserved":false,"is_disabled":false,"rental_uris":{"android":"levelo://app?vid=fd05656f-849e-4da8-8179-d9c0dba14610","ios":"levelo://app?vid=fd05656f-849e-4da8-8179-d9c0dba14610"},"vehicle_type_id":"4","last_reported":1704834389,"current_range_meters":14800,"station_id":"","pricing_plan_id":"free"},{"bike_id":"ebe520f5-39e9-442e-9ec1-ff6266ced4f1","system_id":"levelo_inurba_marseille","lat":43.301465,"lon":5.374256,"is_reserved":false,"is_disabled":false,"rental_uris":{"android":"levelo://app?vid=ebe520f5-39e9-442e-9ec1-ff6266ced4f1","ios":"levelo://app?vid=ebe520f5-39e9-442e-9ec1-ff6266ced4f1"},"vehicle_type_id":"4","last_reported":1704834389,"current_range_meters":16800,"station_id":"","pricing_plan_id":"free"},{"bike_id":"f83cc974-146d-4216-8e0a-fc1f44d54a58","system_id":"levelo_inurba_marseille","lat":43.301437,"lon":5.37425,"is_reserved":false,"is_disabled":false,"rental_uris":{"android":"levelo://app?vid=f83cc974-146d-4216-8e0a-fc1f44d54a58","ios":"levelo://app?vid=f83cc974-146d-4216-8e0a-fc1f44d54a58"},"vehicle_type_id":"4","last_reported":1704834389,"current_range_meters":27600,"station_id":"ce4bgs92rcd13ifvqcc0","pricing_plan_id":"free"},{"bike_id":"6088c916-f4e5-4543-91f4-522af5528794","system_id":"levelo_inurba_marseille","lat":43.319935,"lon":5.381699,"is_reserved":false,"is_disabled":false,"rental_uris":{"android":"levelo://app?vid=6088c916-f4e5-4543-91f4-522af5528794","ios":"levelo://app?vid=6088c916-f4e5-4543-91f4-522af5528794"},"vehicle_type_id":"4","last_reported":1704834389,"current_range_meters":25600,"station_id":"ce4bhr12rcd13ifvqhpg","pricing_plan_id":"free"},{"bike_id":"90c7e69f-3898-41b0-addb-5f44a927f3d7","system_id":"levelo_inurba_marseille","lat":43.319935,"lon":5.381699,"is_reserved":false,"is_disabled":false,"rental_uris":{"android":"levelo://app?vid=90c7e69f-3898-41b0-addb-5f44a927f3d7","ios":"levelo://app?vid=90c7e69f-3898-41b0-addb-5f44a927f3d7"},"vehicle_type_id":"4","last_reported":1704834389,"current_range_meters":29200,"station_id":"ce4bhr12rcd13ifvqhpg","pricing_plan_id":"free"},{"bike_id":"bd90d70e-761b-4e9d-afb4-8cc89c14186c","system_id":"levelo_inurba_marseille","lat":43.319935,"lon":5.381699,"is_reserved":false,"is_disabled":false,"rental_uris":{"android":"levelo://app?vid=bd90d70e-761b-4e9d-afb4-8cc89c14186c","ios":"levelo://app?vid=bd90d70e-761b-4e9d-afb4-8cc89c14186c"},"vehicle_type_id":"4","last_reported":1704834389,"current_range_meters":5200,"station_id":"ce4bhr12rcd13ifvqhpg","pricing_plan_id":"free"},{"bike_id":"ab8286ac-c517-4741-8341-0ca3cd19bb64","system_id":"levelo_inurba_marseille","lat":43.311131,"lon":5.377651,"is_reserved":false,"is_disabled":false,"rental_uris":{"android":"levelo://app?vid=ab8286ac-c517-4741-8341-0ca3cd19bb64","ios":"levelo://app?vid=ab8286ac-c517-4741-8341-0ca3cd19bb64"},"vehicle_type_id":"4","last_reported":1704834389,"current_range_meters":14800,"station_id":"ce4bgt92rcd13ifvqcg0","pricing_plan_id":"free"},{"bike_id":"44d6c772-5490-45be-b7fe-3b8909d46d18","system_id":"levelo_inurba_marseille","lat":43.304606,"lon":5.379026,"is_reserved":false,"is_disabled":false,"rental_uris":{"android":"levelo://app?vid=44d6c772-5490-45be-b7fe-3b8909d46d18","ios":"levelo://app?vid=44d6c772-5490-45be-b7fe-3b8909d46d18"},"vehicle_type_id":"4","last_reported":1704834389,"current_range_meters":22400,"station_id":"ce4bgup2rcd13ifvqcn0","pricing_plan_id":"free"},{"bike_id":"6039ecb1-b500-4b0f-ba1e-0f11e4de5d49","system_id":"levelo_inurba_marseille","lat":43.313571,"lon":5.384829,"is_reserved":false,"is_disabled":false,"rental_uris":{"android":"levelo://app?vid=6039ecb1-b500-4b0f-ba1e-0f11e4de5d49","ios":"levelo://app?vid=6039ecb1-b500-4b0f-ba1e-0f11e4de5d49"},"vehicle_type_id":"4","last_reported":1704834389,"current_range_meters":6000,"station_id":"ce4bgt92rcd13ifvqcf0","pricing_plan_id":"free"},{"bike_id":"55f6a7c8-173a-4548-a857-35e75d3d93c3","system_id":"levelo_inurba_marseille","lat":43.313571,"lon":5.384829,"is_reserved":false,"is_disabled":false,"rental_uris":{"android":"levelo://app?vid=55f6a7c8-173a-4548-a857-35e75d3d93c3","ios":"levelo://app?vid=55f6a7c8-173a-4548-a857-35e75d3d93c3"},"vehicle_type_id":"4","last_reported":1704834389,"current_range_meters":28000,"station_id":"ce4bgt92rcd13ifvqcf0","pricing_plan_id":"free"},{"bike_id":"60c14532-9245-4221-9dc1-7870ecd5e7ac","system_id":"levelo_inurba_marseille","lat":43.313571,"lon":5.384829,"is_reserved":false,"is_disabled":false,"rental_uris":{"android":"levelo://app?vid=60c14532-9245-4221-9dc1-7870ecd5e7ac","ios":"levelo://app?vid=60c14532-9245-4221-9dc1-7870ecd5e7ac"},"vehicle_type_id":"4","last_reported":1704834389,"current_range_meters":21600,"station_id":"ce4bgt92rcd13ifvqcf0","pricing_plan_id":"free"},{"bike_id":"d9350f27-4d33-4cc1-b416-6cff7436aa03","system_id":"levelo_inurba_marseille","lat":43.313571,"lon":5.384829,"is_reserved":false,"is_disabled":false,"rental_uris":{"android":"levelo://app?vid=d9350f27-4d33-4cc1-b416-6cff7436aa03","ios":"levelo://app?vid=d9350f27-4d33-4cc1-b416-6cff7436aa03"},"vehicle_type_id":"4","last_reported":1704834389,"current_range_meters":26400,"station_id":"ce4bgt92rcd13ifvqcf0","pricing_plan_id":"free"},{"bike_id":"e71b8a55-ac4b-4f85-bc90-262ff0bd178c","system_id":"levelo_inurba_marseille","lat":43.299724,"lon":5.371829,"is_reserved":false,"is_disabled":false,"rental_uris":{"android":"levelo://app?vid=e71b8a55-ac4b-4f85-bc90-262ff0bd178c","ios":"levelo://app?vid=e71b8a55-ac4b-4f85-bc90-262ff0bd178c"},"vehicle_type_id":"4","last_reported":1704834389,"current_range_meters":17200,"station_id":"ce4bgr92rcd13ifvqc7g","pricing_plan_id":"free"},{"bike_id":"101e8ec4-e6d2-4c94-bd4b-ea144e307b0b","system_id":"levelo_inurba_marseille","lat":43.299222,"lon":5.365554,"is_reserved":false,"is_disabled":false,"rental_uris":{"android":"levelo://app?vid=101e8ec4-e6d2-4c94-bd4b-ea144e307b0b","ios":"levelo://app?vid=101e8ec4-e6d2-4c94-bd4b-ea144e307b0b"},"vehicle_type_id":"4","last_reported":1704834389,"current_range_meters":0,"station_id":"ce4bgm92rcd13ifvqbr0","pricing_plan_id":"free"},{"bike_id":"deb5bd06-d719-4950-8257-43b41818bfe8","system_id":"levelo_inurba_marseille","lat":43.299724,"lon":5.371829,"is_reserved":false,"is_disabled":false,"rental_uris":{"android":"levelo://app?vid=deb5bd06-d719-4950-8257-43b41818bfe8","ios":"levelo://app?vid=deb5bd06-d719-4950-8257-43b41818bfe8"},"vehicle_type_id":"4","last_reported":1704834389,"current_range_meters":12000,"station_id":"ce4bgr92rcd13ifvqc7g","pricing_plan_id":"free"},{"bike_id":"09b1373b-cd65-4f5a-a434-223ee14924cf","system_id":"levelo_inurba_marseille","lat":43.299724,"lon":5.371829,"is_reserved":false,"is_disabled":false,"rental_uris":{"android":"levelo://app?vid=09b1373b-cd65-4f5a-a434-223ee14924cf","ios":"levelo://app?vid=09b1373b-cd65-4f5a-a434-223ee14924cf"},"vehicle_type_id":"4","last_reported":1704834389,"current_range_meters":15600,"station_id":"ce4bgr92rcd13ifvqc7g","pricing_plan_id":"free"},{"bike_id":"6aacb2cd-00e7-4143-a724-7783dad66374","system_id":"levelo_inurba_marseille","lat":43.299724,"lon":5.371829,"is_reserved":false,"is_disabled":false,"rental_uris":{"android":"levelo://app?vid=6aacb2cd-00e7-4143-a724-7783dad66374","ios":"levelo://app?vid=6aacb2cd-00e7-4143-a724-7783dad66374"},"vehicle_type_id":"4","last_reported":1704834389,"current_range_meters":17200,"station_id":"ce4bgr92rcd13ifvqc7g","pricing_plan_id":"free"},{"bike_id":"5e3ae350-92fc-4f1a-91e5-fca6c6157e9c","system_id":"levelo_inurba_marseille","lat":43.314305,"lon":5.385497,"is_reserved":false,"is_disabled":false,"rental_uris":{"android":"levelo://app?vid=5e3ae350-92fc-4f1a-91e5-fca6c6157e9c","ios":"levelo://app?vid=5e3ae350-92fc-4f1a-91e5-fca6c6157e9c"},"vehicle_type_id":"4","last_reported":1704834389,"current_range_meters":11200,"station_id":"","pricing_plan_id":"free"},{"bike_id":"b22604ec-0c4b-41b4-a20e-38add68f7682","system_id":"levelo_inurba_marseille","lat":43.325403,"lon":5.374837,"is_reserved":false,"is_disabled":false,"rental_uris":{"android":"levelo://app?vid=b22604ec-0c4b-41b4-a20e-38add68f7682","ios":"levelo://app?vid=b22604ec-0c4b-41b4-a20e-38add68f7682"},"vehicle_type_id":"4","last_reported":1704834389,"current_range_meters":0,"station_id":"","pricing_plan_id":"free"},{"bike_id":"e3eafc4f-329b-4e2c-9993-b4db35dc9db5","system_id":"levelo_inurba_marseille","lat":43.325667,"lon":5.374548,"is_reserved":false,"is_disabled":false,"rental_uris":{"android":"levelo://app?vid=e3eafc4f-329b-4e2c-9993-b4db35dc9db5","ios":"levelo://app?vid=e3eafc4f-329b-4e2c-9993-b4db35dc9db5"},"vehicle_type_id":"4","last_reported":1704834389,"current_range_meters":18400,"station_id":"","pricing_plan_id":"free"},{"bike_id":"12a2427e-db81-4a91-b15f-750d82a0c861","system_id":"levelo_inurba_marseille","lat":43.305364,"lon":5.384119,"is_reserved":false,"is_disabled":false,"rental_uris":{"android":"levelo://app?vid=12a2427e-db81-4a91-b15f-750d82a0c861","ios":"levelo://app?vid=12a2427e-db81-4a91-b15f-750d82a0c861"},"vehicle_type_id":"4","last_reported":1704834389,"current_range_meters":13200,"station_id":"ce4bgg92rcd13ifvqb30","pricing_plan_id":"free"},{"bike_id":"f331eec0-f977-4301-928b-ae60bfcdf4c7","system_id":"levelo_inurba_marseille","lat":43.305364,"lon":5.384119,"is_reserved":false,"is_disabled":false,"rental_uris":{"android":"levelo://app?vid=f331eec0-f977-4301-928b-ae60bfcdf4c7","ios":"levelo://app?vid=f331eec0-f977-4301-928b-ae60bfcdf4c7"},"vehicle_type_id":"4","last_reported":1704834389,"current_range_meters":11600,"station_id":"ce4bgg92rcd13ifvqb30","pricing_plan_id":"free"},{"bike_id":"c79e6924-bce6-40fe-922a-e6be6251d88c","system_id":"levelo_inurba_marseille","lat":43.305364,"lon":5.384119,"is_reserved":false,"is_disabled":false,"rental_uris":{"android":"levelo://app?vid=c79e6924-bce6-40fe-922a-e6be6251d88c","ios":"levelo://app?vid=c79e6924-bce6-40fe-922a-e6be6251d88c"},"vehicle_type_id":"4","last_reported":1704834389,"current_range_meters":25600,"station_id":"ce4bgg92rcd13ifvqb30","pricing_plan_id":"free"},{"bike_id":"11001729-62f8-4685-a6d6-08aab21d9463","system_id":"levelo_inurba_marseille","lat":43.311722,"lon":5.387247,"is_reserved":false,"is_disabled":false,"rental_uris":{"android":"levelo://app?vid=11001729-62f8-4685-a6d6-08aab21d9463","ios":"levelo://app?vid=11001729-62f8-4685-a6d6-08aab21d9463"},"vehicle_type_id":"4","last_reported":1704834389,"current_range_meters":15600,"station_id":"ce4bgv12rcd13ifvqcp0","pricing_plan_id":"free"},{"bike_id":"4970d51d-81f8-46ca-9b61-d3cb9b18d51a","system_id":"levelo_inurba_marseille","lat":43.311722,"lon":5.387247,"is_reserved":false,"is_disabled":false,"rental_uris":{"android":"levelo://app?vid=4970d51d-81f8-46ca-9b61-d3cb9b18d51a","ios":"levelo://app?vid=4970d51d-81f8-46ca-9b61-d3cb9b18d51a"},"vehicle_type_id":"4","last_reported":1704834389,"current_range_meters":22400,"station_id":"ce4bgv12rcd13ifvqcp0","pricing_plan_id":"free"},{"bike_id":"77932a8b-3738-487e-9eb4-ab36eb4cf9d8","system_id":"levelo_inurba_marseille","lat":43.311722,"lon":5.387247,"is_reserved":false,"is_disabled":false,"rental_uris":{"android":"levelo://app?vid=77932a8b-3738-487e-9eb4-ab36eb4cf9d8","ios":"levelo://app?vid=77932a8b-3738-487e-9eb4-ab36eb4cf9d8"},"vehicle_type_id":"4","last_reported":1704834389,"current_range_meters":19200,"station_id":"ce4bgv12rcd13ifvqcp0","pricing_plan_id":"free"},{"bike_id":"9598a06b-3b5b-4fe3-bf37-58920cc06264","system_id":"levelo_inurba_marseille","lat":43.299243,"lon":5.374807,"is_reserved":false,"is_disabled":false,"rental_uris":{"android":"levelo://app?vid=9598a06b-3b5b-4fe3-bf37-58920cc06264","ios":"levelo://app?vid=9598a06b-3b5b-4fe3-bf37-58920cc06264"},"vehicle_type_id":"4","last_reported":1704834389,"current_range_meters":22000,"station_id":"ce4bgjh2rcd13ifvqbg0","pricing_plan_id":"free"},{"bike_id":"edb9ae2d-6754-4db6-98d7-7e5ce4840454","system_id":"levelo_inurba_marseille","lat":43.311722,"lon":5.387247,"is_reserved":false,"is_disabled":false,"rental_uris":{"android":"levelo://app?vid=edb9ae2d-6754-4db6-98d7-7e5ce4840454","ios":"levelo://app?vid=edb9ae2d-6754-4db6-98d7-7e5ce4840454"},"vehicle_type_id":"4","last_reported":1704834389,"current_range_meters":25600,"station_id":"ce4bgv12rcd13ifvqcp0","pricing_plan_id":"free"},{"bike_id":"e1d45971-d7e0-4000-94a4-ff4be29d46f5","system_id":"levelo_inurba_marseille","lat":43.311722,"lon":5.387247,"is_reserved":false,"is_disabled":false,"rental_uris":{"android":"levelo://app?vid=e1d45971-d7e0-4000-94a4-ff4be29d46f5","ios":"levelo://app?vid=e1d45971-d7e0-4000-94a4-ff4be29d46f5"},"vehicle_type_id":"4","last_reported":1704834389,"current_range_meters":15200,"station_id":"ce4bgv12rcd13ifvqcp0","pricing_plan_id":"free"},{"bike_id":"c89a17a0-41d3-43ec-8d45-d4aea4fe2d1b","system_id":"levelo_inurba_marseille","lat":43.311722,"lon":5.387247,"is_reserved":false,"is_disabled":false,"rental_uris":{"android":"levelo://app?vid=c89a17a0-41d3-43ec-8d45-d4aea4fe2d1b","ios":"levelo://app?vid=c89a17a0-41d3-43ec-8d45-d4aea4fe2d1b"},"vehicle_type_id":"4","last_reported":1704834389,"current_range_meters":5600,"station_id":"ce4bgv12rcd13ifvqcp0","pricing_plan_id":"free"},{"bike_id":"cc7fe815-f50e-4dd0-af15-91a6ff3331fa","system_id":"levelo_inurba_marseille","lat":43.311722,"lon":5.387247,"is_reserved":false,"is_disabled":false,"rental_uris":{"android":"levelo://app?vid=cc7fe815-f50e-4dd0-af15-91a6ff3331fa","ios":"levelo://app?vid=cc7fe815-f50e-4dd0-af15-91a6ff3331fa"},"vehicle_type_id":"4","last_reported":1704834389,"current_range_meters":24000,"station_id":"ce4bgv12rcd13ifvqcp0","pricing_plan_id":"free"},{"bike_id":"5dc78555-3731-47fb-81b3-66a4d4a711f9","system_id":"levelo_inurba_marseille","lat":43.311722,"lon":5.387247,"is_reserved":false,"is_disabled":false,"rental_uris":{"android":"levelo://app?vid=5dc78555-3731-47fb-81b3-66a4d4a711f9","ios":"levelo://app?vid=5dc78555-3731-47fb-81b3-66a4d4a711f9"},"vehicle_type_id":"4","last_reported":1704834389,"current_range_meters":18400,"station_id":"ce4bgv12rcd13ifvqcp0","pricing_plan_id":"free"},{"bike_id":"a4b69b8b-9efd-4666-ae1f-f23920d7ce64","system_id":"levelo_inurba_marseille","lat":43.311722,"lon":5.387247,"is_reserved":false,"is_disabled":false,"rental_uris":{"android":"levelo://app?vid=a4b69b8b-9efd-4666-ae1f-f23920d7ce64","ios":"levelo://app?vid=a4b69b8b-9efd-4666-ae1f-f23920d7ce64"},"vehicle_type_id":"4","last_reported":1704834389,"current_range_meters":24400,"station_id":"ce4bgv12rcd13ifvqcp0","pricing_plan_id":"free"},{"bike_id":"5bf1d6bc-5ec0-4225-a9ca-40b8f03cb77d","system_id":"levelo_inurba_marseille","lat":43.31174,"lon":5.38719,"is_reserved":false,"is_disabled":false,"rental_uris":{"android":"levelo://app?vid=5bf1d6bc-5ec0-4225-a9ca-40b8f03cb77d","ios":"levelo://app?vid=5bf1d6bc-5ec0-4225-a9ca-40b8f03cb77d"},"vehicle_type_id":"4","last_reported":1704834389,"current_range_meters":20000,"station_id":"ce4bgv12rcd13ifvqcp0","pricing_plan_id":"free"},{"bike_id":"61430ce9-1b32-4b54-84f7-cebe3fce465d","system_id":"levelo_inurba_marseille","lat":43.311722,"lon":5.387247,"is_reserved":false,"is_disabled":false,"rental_uris":{"android":"levelo://app?vid=61430ce9-1b32-4b54-84f7-cebe3fce465d","ios":"levelo://app?vid=61430ce9-1b32-4b54-84f7-cebe3fce465d"},"vehicle_type_id":"4","last_reported":1704834389,"current_range_meters":15600,"station_id":"ce4bgv12rcd13ifvqcp0","pricing_plan_id":"free"},{"bike_id":"e4be501f-f6d8-429a-959e-6b411ad5476c","system_id":"levelo_inurba_marseille","lat":43.311722,"lon":5.387247,"is_reserved":false,"is_disabled":false,"rental_uris":{"android":"levelo://app?vid=e4be501f-f6d8-429a-959e-6b411ad5476c","ios":"levelo://app?vid=e4be501f-f6d8-429a-959e-6b411ad5476c"},"vehicle_type_id":"4","last_reported":1704834389,"current_range_meters":28000,"station_id":"ce4bgv12rcd13ifvqcp0","pricing_plan_id":"free"},{"bike_id":"6f3386fd-51d8-445a-b1d7-74d38e3e5710","system_id":"levelo_inurba_marseille","lat":43.298013,"lon":5.371007,"is_reserved":false,"is_disabled":false,"rental_uris":{"android":"levelo://app?vid=6f3386fd-51d8-445a-b1d7-74d38e3e5710","ios":"levelo://app?vid=6f3386fd-51d8-445a-b1d7-74d38e3e5710"},"vehicle_type_id":"4","last_reported":1704834389,"current_range_meters":9600,"station_id":"ce4bgop2rcd13ifvqc1g","pricing_plan_id":"free"},{"bike_id":"96d89e44-bf9b-45f1-abb8-d9c9870203f1","system_id":"levelo_inurba_marseille","lat":43.297774,"lon":5.370875,"is_reserved":false,"is_disabled":false,"rental_uris":{"android":"levelo://app?vid=96d89e44-bf9b-45f1-abb8-d9c9870203f1","ios":"levelo://app?vid=96d89e44-bf9b-45f1-abb8-d9c9870203f1"},"vehicle_type_id":"4","last_reported":1704834389,"current_range_meters":30400,"station_id":"ce4bgop2rcd13ifvqc1g","pricing_plan_id":"free"},{"bike_id":"57ff67a1-74cc-4a3d-a5a7-2a402c400f1b","system_id":"levelo_inurba_marseille","lat":43.297794,"lon":5.370888,"is_reserved":false,"is_disabled":false,"rental_uris":{"android":"levelo://app?vid=57ff67a1-74cc-4a3d-a5a7-2a402c400f1b","ios":"levelo://app?vid=57ff67a1-74cc-4a3d-a5a7-2a402c400f1b"},"vehicle_type_id":"4","last_reported":1704834389,"current_range_meters":22400,"station_id":"ce4bgop2rcd13ifvqc1g","pricing_plan_id":"free"},{"bike_id":"24149caa-6f18-4bae-b403-1263d07418c6","system_id":"levelo_inurba_marseille","lat":43.297774,"lon":5.370875,"is_reserved":false,"is_disabled":false,"rental_uris":{"android":"levelo://app?vid=24149caa-6f18-4bae-b403-1263d07418c6","ios":"levelo://app?vid=24149caa-6f18-4bae-b403-1263d07418c6"},"vehicle_type_id":"4","last_reported":1704834389,"current_range_meters":25600,"station_id":"ce4bgop2rcd13ifvqc1g","pricing_plan_id":"free"},{"bike_id":"965e06bb-d727-441b-b835-de8a0777d9ea","system_id":"levelo_inurba_marseille","lat":43.3229,"lon":5.38255,"is_reserved":false,"is_disabled":false,"rental_uris":{"android":"levelo://app?vid=965e06bb-d727-441b-b835-de8a0777d9ea","ios":"levelo://app?vid=965e06bb-d727-441b-b835-de8a0777d9ea"},"vehicle_type_id":"4","last_reported":1704834389,"current_range_meters":1600,"station_id":"ce4bhr12rcd13ifvqhqg","pricing_plan_id":"free"},{"bike_id":"f6070138-b435-45cd-afe5-5fa586feac4e","system_id":"levelo_inurba_marseille","lat":43.322872,"lon":5.382756,"is_reserved":false,"is_disabled":false,"rental_uris":{"android":"levelo://app?vid=f6070138-b435-45cd-afe5-5fa586feac4e","ios":"levelo://app?vid=f6070138-b435-45cd-afe5-5fa586feac4e"},"vehicle_type_id":"4","last_reported":1704834389,"current_range_meters":22800,"station_id":"ce4bhr12rcd13ifvqhqg","pricing_plan_id":"free"},{"bike_id":"9dddb55b-ab2a-4362-984d-08fd7ede665f","system_id":"levelo_inurba_marseille","lat":43.32284,"lon":5.38266,"is_reserved":false,"is_disabled":false,"rental_uris":{"android":"levelo://app?vid=9dddb55b-ab2a-4362-984d-08fd7ede665f","ios":"levelo://app?vid=9dddb55b-ab2a-4362-984d-08fd7ede665f"},"vehicle_type_id":"4","last_reported":1704834389,"current_range_meters":20400,"station_id":"ce4bhr12rcd13ifvqhqg","pricing_plan_id":"free"},{"bike_id":"198ab8d8-34df-452b-b039-c369bdea82d5","system_id":"levelo_inurba_marseille","lat":43.3229,"lon":5.38261,"is_reserved":false,"is_disabled":false,"rental_uris":{"android":"levelo://app?vid=198ab8d8-34df-452b-b039-c369bdea82d5","ios":"levelo://app?vid=198ab8d8-34df-452b-b039-c369bdea82d5"},"vehicle_type_id":"4","last_reported":1704834389,"current_range_meters":9200,"station_id":"ce4bhr12rcd13ifvqhqg","pricing_plan_id":"free"},{"bike_id":"01a76a40-89b1-49f0-917c-d8107f95a77f","system_id":"levelo_inurba_marseille","lat":43.32288,"lon":5.38266,"is_reserved":false,"is_disabled":false,"rental_uris":{"android":"levelo://app?vid=01a76a40-89b1-49f0-917c-d8107f95a77f","ios":"levelo://app?vid=01a76a40-89b1-49f0-917c-d8107f95a77f"},"vehicle_type_id":"4","last_reported":1704834389,"current_range_meters":6800,"station_id":"ce4bhr12rcd13ifvqhqg","pricing_plan_id":"free"},{"bike_id":"f4a772fa-5e25-4411-a2f1-6273bbd7c8b0","system_id":"levelo_inurba_marseille","lat":43.32285,"lon":5.38275,"is_reserved":false,"is_disabled":false,"rental_uris":{"android":"levelo://app?vid=f4a772fa-5e25-4411-a2f1-6273bbd7c8b0","ios":"levelo://app?vid=f4a772fa-5e25-4411-a2f1-6273bbd7c8b0"},"vehicle_type_id":"4","last_reported":1704834389,"current_range_meters":20800,"station_id":"ce4bhr12rcd13ifvqhqg","pricing_plan_id":"free"},{"bike_id":"e5f64b36-ecfd-4fac-a3a5-5904b691c001","system_id":"levelo_inurba_marseille","lat":43.32289,"lon":5.38273,"is_reserved":false,"is_disabled":false,"rental_uris":{"android":"levelo://app?vid=e5f64b36-ecfd-4fac-a3a5-5904b691c001","ios":"levelo://app?vid=e5f64b36-ecfd-4fac-a3a5-5904b691c001"},"vehicle_type_id":"4","last_reported":1704834389,"current_range_meters":30000,"station_id":"ce4bhr12rcd13ifvqhqg","pricing_plan_id":"free"},{"bike_id":"d68ce626-ef98-4d52-b3b3-f34d703a806b","system_id":"levelo_inurba_marseille","lat":43.328215,"lon":5.366737,"is_reserved":false,"is_disabled":false,"rental_uris":{"android":"levelo://app?vid=d68ce626-ef98-4d52-b3b3-f34d703a806b","ios":"levelo://app?vid=d68ce626-ef98-4d52-b3b3-f34d703a806b"},"vehicle_type_id":"4","last_reported":1704834389,"current_range_meters":24800,"station_id":"ce4bhs92rcd13ifvqi0g","pricing_plan_id":"free"},{"bike_id":"66addf4b-70b7-4ac4-8e17-37956e9ecfbb","system_id":"levelo_inurba_marseille","lat":43.328238,"lon":5.366784,"is_reserved":false,"is_disabled":false,"rental_uris":{"android":"levelo://app?vid=66addf4b-70b7-4ac4-8e17-37956e9ecfbb","ios":"levelo://app?vid=66addf4b-70b7-4ac4-8e17-37956e9ecfbb"},"vehicle_type_id":"4","last_reported":1704834389,"current_range_meters":9200,"station_id":"ce4bhs92rcd13ifvqi0g","pricing_plan_id":"free"},{"bike_id":"b417e045-2acd-45ab-8543-5d87cc32d878","system_id":"levelo_inurba_marseille","lat":43.328371,"lon":5.366909,"is_reserved":false,"is_disabled":false,"rental_uris":{"android":"levelo://app?vid=b417e045-2acd-45ab-8543-5d87cc32d878","ios":"levelo://app?vid=b417e045-2acd-45ab-8543-5d87cc32d878"},"vehicle_type_id":"4","last_reported":1704834389,"current_range_meters":12000,"station_id":"ce4bhs92rcd13ifvqi0g","pricing_plan_id":"free"},{"bike_id":"387c1dff-fb7e-4547-838e-1af3f69c4219","system_id":"levelo_inurba_marseille","lat":43.328243,"lon":5.366805,"is_reserved":false,"is_disabled":false,"rental_uris":{"android":"levelo://app?vid=387c1dff-fb7e-4547-838e-1af3f69c4219","ios":"levelo://app?vid=387c1dff-fb7e-4547-838e-1af3f69c4219"},"vehicle_type_id":"4","last_reported":1704834389,"current_range_meters":12000,"station_id":"ce4bhs92rcd13ifvqi0g","pricing_plan_id":"free"},{"bike_id":"72905f78-9c33-4138-8385-d331d9223abd","system_id":"levelo_inurba_marseille","lat":43.328245,"lon":5.366884,"is_reserved":false,"is_disabled":false,"rental_uris":{"android":"levelo://app?vid=72905f78-9c33-4138-8385-d331d9223abd","ios":"levelo://app?vid=72905f78-9c33-4138-8385-d331d9223abd"},"vehicle_type_id":"4","last_reported":1704834389,"current_range_meters":4400,"station_id":"ce4bhs92rcd13ifvqi0g","pricing_plan_id":"free"},{"bike_id":"a70069dc-f773-452d-9d3a-320d0014d11e","system_id":"levelo_inurba_marseille","lat":43.328371,"lon":5.366909,"is_reserved":false,"is_disabled":false,"rental_uris":{"android":"levelo://app?vid=a70069dc-f773-452d-9d3a-320d0014d11e","ios":"levelo://app?vid=a70069dc-f773-452d-9d3a-320d0014d11e"},"vehicle_type_id":"4","last_reported":1704834389,"current_range_meters":21600,"station_id":"ce4bhs92rcd13ifvqi0g","pricing_plan_id":"free"},{"bike_id":"fb45f142-a2e6-4b54-b6fd-5660ca2c1fe5","system_id":"levelo_inurba_marseille","lat":43.328371,"lon":5.366909,"is_reserved":false,"is_disabled":false,"rental_uris":{"android":"levelo://app?vid=fb45f142-a2e6-4b54-b6fd-5660ca2c1fe5","ios":"levelo://app?vid=fb45f142-a2e6-4b54-b6fd-5660ca2c1fe5"},"vehicle_type_id":"4","last_reported":1704834389,"current_range_meters":25200,"station_id":"ce4bhs92rcd13ifvqi0g","pricing_plan_id":"free"},{"bike_id":"587a66c9-f8ee-4903-89d8-1c882c2fe9d8","system_id":"levelo_inurba_marseille","lat":43.328371,"lon":5.366909,"is_reserved":false,"is_disabled":false,"rental_uris":{"android":"levelo://app?vid=587a66c9-f8ee-4903-89d8-1c882c2fe9d8","ios":"levelo://app?vid=587a66c9-f8ee-4903-89d8-1c882c2fe9d8"},"vehicle_type_id":"4","last_reported":1704834389,"current_range_meters":18000,"station_id":"ce4bhs92rcd13ifvqi0g","pricing_plan_id":"free"},{"bike_id":"331410e4-8362-40e5-8b58-6a53f46a25bd","system_id":"levelo_inurba_marseille","lat":43.328371,"lon":5.366912,"is_reserved":false,"is_disabled":false,"rental_uris":{"android":"levelo://app?vid=331410e4-8362-40e5-8b58-6a53f46a25bd","ios":"levelo://app?vid=331410e4-8362-40e5-8b58-6a53f46a25bd"},"vehicle_type_id":"4","last_reported":1704834389,"current_range_meters":14400,"station_id":"ce4bhs92rcd13ifvqi0g","pricing_plan_id":"free"},{"bike_id":"5c7a59fa-b898-45ba-839d-ec00297bbc14","system_id":"levelo_inurba_marseille","lat":43.297163,"lon":5.365866,"is_reserved":false,"is_disabled":false,"rental_uris":{"android":"levelo://app?vid=5c7a59fa-b898-45ba-839d-ec00297bbc14","ios":"levelo://app?vid=5c7a59fa-b898-45ba-839d-ec00297bbc14"},"vehicle_type_id":"4","last_reported":1704834389,"current_range_meters":16800,"station_id":"ce4bgn12rcd13ifvqbt0","pricing_plan_id":"free"},{"bike_id":"cb10c6bf-7a07-4d62-8564-8123aa71a8db","system_id":"levelo_inurba_marseille","lat":43.297163,"lon":5.365866,"is_reserved":false,"is_disabled":false,"rental_uris":{"android":"levelo://app?vid=cb10c6bf-7a07-4d62-8564-8123aa71a8db","ios":"levelo://app?vid=cb10c6bf-7a07-4d62-8564-8123aa71a8db"},"vehicle_type_id":"4","last_reported":1704834389,"current_range_meters":18000,"station_id":"ce4bgn12rcd13ifvqbt0","pricing_plan_id":"free"},{"bike_id":"c03e8c47-d0d3-49bf-a9db-4300c1d60065","system_id":"levelo_inurba_marseille","lat":43.297101,"lon":5.366024,"is_reserved":false,"is_disabled":false,"rental_uris":{"android":"levelo://app?vid=c03e8c47-d0d3-49bf-a9db-4300c1d60065","ios":"levelo://app?vid=c03e8c47-d0d3-49bf-a9db-4300c1d60065"},"vehicle_type_id":"4","last_reported":1704834389,"current_range_meters":24000,"station_id":"ce4bgn12rcd13ifvqbt0","pricing_plan_id":"free"},{"bike_id":"5d17fcc1-ee1a-4e36-8844-4f9946d324b0","system_id":"levelo_inurba_marseille","lat":43.297004,"lon":5.365984,"is_reserved":false,"is_disabled":false,"rental_uris":{"android":"levelo://app?vid=5d17fcc1-ee1a-4e36-8844-4f9946d324b0","ios":"levelo://app?vid=5d17fcc1-ee1a-4e36-8844-4f9946d324b0"},"vehicle_type_id":"4","last_reported":1704834389,"current_range_meters":16800,"station_id":"ce4bgn12rcd13ifvqbt0","pricing_plan_id":"free"},{"bike_id":"37dcdeb4-373e-464b-9715-f991ab38e7cb","system_id":"levelo_inurba_marseille","lat":43.2968,"lon":5.37291,"is_reserved":false,"is_disabled":false,"rental_uris":{"android":"levelo://app?vid=37dcdeb4-373e-464b-9715-f991ab38e7cb","ios":"levelo://app?vid=37dcdeb4-373e-464b-9715-f991ab38e7cb"},"vehicle_type_id":"4","last_reported":1704834389,"current_range_meters":29600,"station_id":"ce4bgk12rcd13ifvqbj0","pricing_plan_id":"free"},{"bike_id":"6f21c99a-f667-4d62-8e74-57c6bd7ae399","system_id":"levelo_inurba_marseille","lat":43.2968,"lon":5.37291,"is_reserved":false,"is_disabled":false,"rental_uris":{"android":"levelo://app?vid=6f21c99a-f667-4d62-8e74-57c6bd7ae399","ios":"levelo://app?vid=6f21c99a-f667-4d62-8e74-57c6bd7ae399"},"vehicle_type_id":"4","last_reported":1704834389,"current_range_meters":19600,"station_id":"ce4bgk12rcd13ifvqbj0","pricing_plan_id":"free"},{"bike_id":"0e21c0e1-cd91-41f5-a668-23429ce9066e","system_id":"levelo_inurba_marseille","lat":43.296801,"lon":5.372822,"is_reserved":false,"is_disabled":false,"rental_uris":{"android":"levelo://app?vid=0e21c0e1-cd91-41f5-a668-23429ce9066e","ios":"levelo://app?vid=0e21c0e1-cd91-41f5-a668-23429ce9066e"},"vehicle_type_id":"4","last_reported":1704834389,"current_range_meters":14000,"station_id":"","pricing_plan_id":"free"},{"bike_id":"dfd53a63-0b12-403b-b2c9-50c997287923","system_id":"levelo_inurba_marseille","lat":43.296211,"lon":5.371499,"is_reserved":false,"is_disabled":false,"rental_uris":{"android":"levelo://app?vid=dfd53a63-0b12-403b-b2c9-50c997287923","ios":"levelo://app?vid=dfd53a63-0b12-403b-b2c9-50c997287923"},"vehicle_type_id":"4","last_reported":1704834389,"current_range_meters":24800,"station_id":"ce4bgnh2rcd13ifvqc0g","pricing_plan_id":"free"},{"bike_id":"1ceda21f-8588-4f86-9793-a32ca2c773d2","system_id":"levelo_inurba_marseille","lat":43.295872,"lon":5.367394,"is_reserved":false,"is_disabled":false,"rental_uris":{"android":"levelo://app?vid=1ceda21f-8588-4f86-9793-a32ca2c773d2","ios":"levelo://app?vid=1ceda21f-8588-4f86-9793-a32ca2c773d2"},"vehicle_type_id":"4","last_reported":1704834389,"current_range_meters":16000,"station_id":"","pricing_plan_id":"free"},{"bike_id":"a0d86292-a63e-4df4-a4ec-2cae0257265a","system_id":"levelo_inurba_marseille","lat":43.29573,"lon":5.367355,"is_reserved":false,"is_disabled":false,"rental_uris":{"android":"levelo://app?vid=a0d86292-a63e-4df4-a4ec-2cae0257265a","ios":"levelo://app?vid=a0d86292-a63e-4df4-a4ec-2cae0257265a"},"vehicle_type_id":"4","last_reported":1704834389,"current_range_meters":12800,"station_id":"ce4bgph2rcd13ifvqc2g","pricing_plan_id":"free"},{"bike_id":"9baa23e5-10fd-4726-a97f-bd4119347f6d","system_id":"levelo_inurba_marseille","lat":43.296129,"lon":5.370777,"is_reserved":false,"is_disabled":false,"rental_uris":{"android":"levelo://app?vid=9baa23e5-10fd-4726-a97f-bd4119347f6d","ios":"levelo://app?vid=9baa23e5-10fd-4726-a97f-bd4119347f6d"},"vehicle_type_id":"4","last_reported":1704834389,"current_range_meters":11200,"station_id":"ce4bgnh2rcd13ifvqc0g","pricing_plan_id":"free"},{"bike_id":"18cb156a-ad45-4c78-8a7d-db9922c920ce","system_id":"levelo_inurba_marseille","lat":43.29573,"lon":5.367355,"is_reserved":false,"is_disabled":false,"rental_uris":{"android":"levelo://app?vid=18cb156a-ad45-4c78-8a7d-db9922c920ce","ios":"levelo://app?vid=18cb156a-ad45-4c78-8a7d-db9922c920ce"},"vehicle_type_id":"4","last_reported":1704834389,"current_range_meters":4000,"station_id":"ce4bgph2rcd13ifvqc2g","pricing_plan_id":"free"},{"bike_id":"8bfeb527-788e-4d6a-871e-355bc72b67c1","system_id":"levelo_inurba_marseille","lat":43.306412,"lon":5.401035,"is_reserved":false,"is_disabled":false,"rental_uris":{"android":"levelo://app?vid=8bfeb527-788e-4d6a-871e-355bc72b67c1","ios":"levelo://app?vid=8bfeb527-788e-4d6a-871e-355bc72b67c1"},"vehicle_type_id":"4","last_reported":1704834389,"current_range_meters":14800,"station_id":"ce4bh112rcd13ifvqda0","pricing_plan_id":"free"},{"bike_id":"5b159e97-00e1-4124-93b7-e42c8ba76a66","system_id":"levelo_inurba_marseille","lat":43.309698,"lon":5.390499,"is_reserved":false,"is_disabled":false,"rental_uris":{"android":"levelo://app?vid=5b159e97-00e1-4124-93b7-e42c8ba76a66","ios":"levelo://app?vid=5b159e97-00e1-4124-93b7-e42c8ba76a66"},"vehicle_type_id":"4","last_reported":1704834389,"current_range_meters":6000,"station_id":"ce4bgup2rcd13ifvqco0","pricing_plan_id":"free"},{"bike_id":"a4a8fe16-b861-482d-8919-e7240e077d1f","system_id":"levelo_inurba_marseille","lat":43.31758,"lon":5.390199,"is_reserved":false,"is_disabled":false,"rental_uris":{"android":"levelo://app?vid=a4a8fe16-b861-482d-8919-e7240e077d1f","ios":"levelo://app?vid=a4a8fe16-b861-482d-8919-e7240e077d1f"},"vehicle_type_id":"4","last_reported":1704834389,"current_range_meters":20800,"station_id":"ce4bhqp2rcd13ifvqhng","pricing_plan_id":"free"},{"bike_id":"1082b61d-13d6-427d-a8e2-43b7e3c97f0a","system_id":"levelo_inurba_marseille","lat":43.30445,"lon":5.38862,"is_reserved":false,"is_disabled":false,"rental_uris":{"android":"levelo://app?vid=1082b61d-13d6-427d-a8e2-43b7e3c97f0a","ios":"levelo://app?vid=1082b61d-13d6-427d-a8e2-43b7e3c97f0a"},"vehicle_type_id":"4","last_reported":1704834389,"current_range_meters":5200,"station_id":"ce4bgk12rcd13ifvqbi0","pricing_plan_id":"free"},{"bike_id":"941bebe7-4299-47bb-a31b-7a53cebaf4fe","system_id":"levelo_inurba_marseille","lat":43.304278,"lon":5.388868,"is_reserved":false,"is_disabled":false,"rental_uris":{"android":"levelo://app?vid=941bebe7-4299-47bb-a31b-7a53cebaf4fe","ios":"levelo://app?vid=941bebe7-4299-47bb-a31b-7a53cebaf4fe"},"vehicle_type_id":"4","last_reported":1704834389,"current_range_meters":19200,"station_id":"ce4bgk12rcd13ifvqbi0","pricing_plan_id":"free"},{"bike_id":"5b4d2ce4-27d4-439b-a570-1aa6d8cfc48b","system_id":"levelo_inurba_marseille","lat":43.298037,"lon":5.381066,"is_reserved":false,"is_disabled":false,"rental_uris":{"android":"levelo://app?vid=5b4d2ce4-27d4-439b-a570-1aa6d8cfc48b","ios":"levelo://app?vid=5b4d2ce4-27d4-439b-a570-1aa6d8cfc48b"},"vehicle_type_id":"4","last_reported":1704834389,"current_range_meters":5200,"station_id":"ce4bgip2rcd13ifvqbb0","pricing_plan_id":"free"},{"bike_id":"cb8de5ca-b405-499d-8876-4ad46ee6225f","system_id":"levelo_inurba_marseille","lat":43.30447,"lon":5.38884,"is_reserved":false,"is_disabled":false,"rental_uris":{"android":"levelo://app?vid=cb8de5ca-b405-499d-8876-4ad46ee6225f","ios":"levelo://app?vid=cb8de5ca-b405-499d-8876-4ad46ee6225f"},"vehicle_type_id":"4","last_reported":1704834389,"current_range_meters":11600,"station_id":"ce4bgk12rcd13ifvqbi0","pricing_plan_id":"free"},{"bike_id":"6a0d34d5-6c37-4a62-a980-78770b4d0596","system_id":"levelo_inurba_marseille","lat":43.295748,"lon":5.37522,"is_reserved":false,"is_disabled":false,"rental_uris":{"android":"levelo://app?vid=6a0d34d5-6c37-4a62-a980-78770b4d0596","ios":"levelo://app?vid=6a0d34d5-6c37-4a62-a980-78770b4d0596"},"vehicle_type_id":"4","last_reported":1704834389,"current_range_meters":0,"station_id":"ce4bgh92rcd13ifvqb50","pricing_plan_id":"free"},{"bike_id":"d5f9788e-8e95-4c9a-a21f-10be0f1d071d","system_id":"levelo_inurba_marseille","lat":43.30431,"lon":5.38881,"is_reserved":false,"is_disabled":false,"rental_uris":{"android":"levelo://app?vid=d5f9788e-8e95-4c9a-a21f-10be0f1d071d","ios":"levelo://app?vid=d5f9788e-8e95-4c9a-a21f-10be0f1d071d"},"vehicle_type_id":"4","last_reported":1704834389,"current_range_meters":6800,"station_id":"ce4bgk12rcd13ifvqbi0","pricing_plan_id":"free"},{"bike_id":"333411fb-e205-4ec8-be42-370f7fd35106","system_id":"levelo_inurba_marseille","lat":43.296263,"lon":5.377094,"is_reserved":false,"is_disabled":false,"rental_uris":{"android":"levelo://app?vid=333411fb-e205-4ec8-be42-370f7fd35106","ios":"levelo://app?vid=333411fb-e205-4ec8-be42-370f7fd35106"},"vehicle_type_id":"4","last_reported":1704834389,"current_range_meters":0,"station_id":"ce4bgi92rcd13ifvqb90","pricing_plan_id":"free"},{"bike_id":"76b10a0b-c0e9-4395-aacb-e9e3e812e4bf","system_id":"levelo_inurba_marseille","lat":43.30424,"lon":5.38897,"is_reserved":false,"is_disabled":false,"rental_uris":{"android":"levelo://app?vid=76b10a0b-c0e9-4395-aacb-e9e3e812e4bf","ios":"levelo://app?vid=76b10a0b-c0e9-4395-aacb-e9e3e812e4bf"},"vehicle_type_id":"4","last_reported":1704834389,"current_range_meters":21200,"station_id":"ce4bgk12rcd13ifvqbi0","pricing_plan_id":"free"},{"bike_id":"8ffad84d-6289-4c15-b481-7a98e9d17338","system_id":"levelo_inurba_marseille","lat":43.299717,"lon":5.384845,"is_reserved":false,"is_disabled":false,"rental_uris":{"android":"levelo://app?vid=8ffad84d-6289-4c15-b481-7a98e9d17338","ios":"levelo://app?vid=8ffad84d-6289-4c15-b481-7a98e9d17338"},"vehicle_type_id":"4","last_reported":1704834389,"current_range_meters":12400,"station_id":"ce4bgj92rcd13ifvqbd0","pricing_plan_id":"free"},{"bike_id":"7f89379f-cec6-4f5b-8707-343dcfc413b6","system_id":"levelo_inurba_marseille","lat":43.29971,"lon":5.38494,"is_reserved":false,"is_disabled":false,"rental_uris":{"android":"levelo://app?vid=7f89379f-cec6-4f5b-8707-343dcfc413b6","ios":"levelo://app?vid=7f89379f-cec6-4f5b-8707-343dcfc413b6"},"vehicle_type_id":"4","last_reported":1704834389,"current_range_meters":0,"station_id":"ce4bgj92rcd13ifvqbd0","pricing_plan_id":"free"},{"bike_id":"81e921ca-b50d-451e-a2aa-0de67930d968","system_id":"levelo_inurba_marseille","lat":43.3236,"lon":5.38876,"is_reserved":false,"is_disabled":false,"rental_uris":{"android":"levelo://app?vid=81e921ca-b50d-451e-a2aa-0de67930d968","ios":"levelo://app?vid=81e921ca-b50d-451e-a2aa-0de67930d968"},"vehicle_type_id":"4","last_reported":1704834389,"current_range_meters":19200,"station_id":"ce4bhqp2rcd13ifvqhog","pricing_plan_id":"free"},{"bike_id":"75205096-6852-4545-82d0-2fc78b418465","system_id":"levelo_inurba_marseille","lat":43.32366,"lon":5.38872,"is_reserved":false,"is_disabled":false,"rental_uris":{"android":"levelo://app?vid=75205096-6852-4545-82d0-2fc78b418465","ios":"levelo://app?vid=75205096-6852-4545-82d0-2fc78b418465"},"vehicle_type_id":"4","last_reported":1704834389,"current_range_meters":22400,"station_id":"ce4bhqp2rcd13ifvqhog","pricing_plan_id":"free"},{"bike_id":"5e24668f-edd9-4a38-a8a4-a10538ce1a47","system_id":"levelo_inurba_marseille","lat":43.29501,"lon":5.37732,"is_reserved":false,"is_disabled":false,"rental_uris":{"android":"levelo://app?vid=5e24668f-edd9-4a38-a8a4-a10538ce1a47","ios":"levelo://app?vid=5e24668f-edd9-4a38-a8a4-a10538ce1a47"},"vehicle_type_id":"4","last_reported":1704834389,"current_range_meters":26000,"station_id":"","pricing_plan_id":"free"},{"bike_id":"c52cac78-36c5-4b60-a30f-f38d903841b2","system_id":"levelo_inurba_marseille","lat":43.32362,"lon":5.3888,"is_reserved":false,"is_disabled":false,"rental_uris":{"android":"levelo://app?vid=c52cac78-36c5-4b60-a30f-f38d903841b2","ios":"levelo://app?vid=c52cac78-36c5-4b60-a30f-f38d903841b2"},"vehicle_type_id":"4","last_reported":1704834389,"current_range_meters":24800,"station_id":"ce4bhqp2rcd13ifvqhog","pricing_plan_id":"free"},{"bike_id":"ea1b3b59-376b-41ec-ab9b-0e979094ae7e","system_id":"levelo_inurba_marseille","lat":43.323347,"lon":5.3891,"is_reserved":false,"is_disabled":false,"rental_uris":{"android":"levelo://app?vid=ea1b3b59-376b-41ec-ab9b-0e979094ae7e","ios":"levelo://app?vid=ea1b3b59-376b-41ec-ab9b-0e979094ae7e"},"vehicle_type_id":"4","last_reported":1704834389,"current_range_meters":10800,"station_id":"ce4bhqp2rcd13ifvqhog","pricing_plan_id":"free"},{"bike_id":"f98c8e4e-5262-4c11-b747-3fdaba5152b8","system_id":"levelo_inurba_marseille","lat":43.3237,"lon":5.3888,"is_reserved":false,"is_disabled":false,"rental_uris":{"android":"levelo://app?vid=f98c8e4e-5262-4c11-b747-3fdaba5152b8","ios":"levelo://app?vid=f98c8e4e-5262-4c11-b747-3fdaba5152b8"},"vehicle_type_id":"4","last_reported":1704834389,"current_range_meters":400,"station_id":"ce4bhqp2rcd13ifvqhog","pricing_plan_id":"free"},{"bike_id":"7cf362c3-c501-429a-89d8-68ec044fa5dc","system_id":"levelo_inurba_marseille","lat":43.32367,"lon":5.388836,"is_reserved":false,"is_disabled":false,"rental_uris":{"android":"levelo://app?vid=7cf362c3-c501-429a-89d8-68ec044fa5dc","ios":"levelo://app?vid=7cf362c3-c501-429a-89d8-68ec044fa5dc"},"vehicle_type_id":"4","last_reported":1704834389,"current_range_meters":26800,"station_id":"ce4bhqp2rcd13ifvqhog","pricing_plan_id":"free"},{"bike_id":"2a2494f4-2543-4ede-82f2-b9c4603b9a23","system_id":"levelo_inurba_marseille","lat":43.292749,"lon":5.368402,"is_reserved":false,"is_disabled":false,"rental_uris":{"android":"levelo://app?vid=2a2494f4-2543-4ede-82f2-b9c4603b9a23","ios":"levelo://app?vid=2a2494f4-2543-4ede-82f2-b9c4603b9a23"},"vehicle_type_id":"4","last_reported":1704834389,"current_range_meters":0,"station_id":"ce4bhbp2rcd13ifvqesg","pricing_plan_id":"free"},{"bike_id":"819c0ffa-c4b1-480a-807b-0e6b249af9b9","system_id":"levelo_inurba_marseille","lat":43.305994,"lon":5.393687,"is_reserved":false,"is_disabled":false,"rental_uris":{"android":"levelo://app?vid=819c0ffa-c4b1-480a-807b-0e6b249af9b9","ios":"levelo://app?vid=819c0ffa-c4b1-480a-807b-0e6b249af9b9"},"vehicle_type_id":"4","last_reported":1704834389,"current_range_meters":3600,"station_id":"ce4bh0p2rcd13ifvqd80","pricing_plan_id":"free"},{"bike_id":"f6240ad4-663d-45a7-bb7a-8f46191fe554","system_id":"levelo_inurba_marseille","lat":43.305994,"lon":5.393687,"is_reserved":false,"is_disabled":false,"rental_uris":{"android":"levelo://app?vid=f6240ad4-663d-45a7-bb7a-8f46191fe554","ios":"levelo://app?vid=f6240ad4-663d-45a7-bb7a-8f46191fe554"},"vehicle_type_id":"4","last_reported":1704834389,"current_range_meters":30000,"station_id":"ce4bh0p2rcd13ifvqd80","pricing_plan_id":"free"},{"bike_id":"14949da0-f693-4811-b5ef-82716eb34203","system_id":"levelo_inurba_marseille","lat":43.2936,"lon":5.37835,"is_reserved":false,"is_disabled":false,"rental_uris":{"android":"levelo://app?vid=14949da0-f693-4811-b5ef-82716eb34203","ios":"levelo://app?vid=14949da0-f693-4811-b5ef-82716eb34203"},"vehicle_type_id":"4","last_reported":1704834389,"current_range_meters":10800,"station_id":"ce4bgjh2rcd13ifvqbf0","pricing_plan_id":"free"},{"bike_id":"a7ada824-dd39-4881-9d8c-0efba9a2eab2","system_id":"levelo_inurba_marseille","lat":43.2936,"lon":5.37835,"is_reserved":false,"is_disabled":false,"rental_uris":{"android":"levelo://app?vid=a7ada824-dd39-4881-9d8c-0efba9a2eab2","ios":"levelo://app?vid=a7ada824-dd39-4881-9d8c-0efba9a2eab2"},"vehicle_type_id":"4","last_reported":1704834389,"current_range_meters":16800,"station_id":"ce4bgjh2rcd13ifvqbf0","pricing_plan_id":"free"},{"bike_id":"e8e20d5f-079c-43b4-b0e5-80fabb365f47","system_id":"levelo_inurba_marseille","lat":43.300852,"lon":5.390859,"is_reserved":false,"is_disabled":false,"rental_uris":{"android":"levelo://app?vid=e8e20d5f-079c-43b4-b0e5-80fabb365f47","ios":"levelo://app?vid=e8e20d5f-079c-43b4-b0e5-80fabb365f47"},"vehicle_type_id":"4","last_reported":1704834389,"current_range_meters":13200,"station_id":"ce4bh192rcd13ifvqdb0","pricing_plan_id":"free"},{"bike_id":"fe8ea900-52df-4876-a181-c39b7fbaefa4","system_id":"levelo_inurba_marseille","lat":43.30085,"lon":5.390856,"is_reserved":false,"is_disabled":false,"rental_uris":{"android":"levelo://app?vid=fe8ea900-52df-4876-a181-c39b7fbaefa4","ios":"levelo://app?vid=fe8ea900-52df-4876-a181-c39b7fbaefa4"},"vehicle_type_id":"4","last_reported":1704834389,"current_range_meters":30400,"station_id":"ce4bh192rcd13ifvqdb0","pricing_plan_id":"free"},{"bike_id":"48860a35-69ea-4a27-8dc4-64ff880dc4d2","system_id":"levelo_inurba_marseille","lat":43.292311,"lon":5.360731,"is_reserved":false,"is_disabled":false,"rental_uris":{"android":"levelo://app?vid=48860a35-69ea-4a27-8dc4-64ff880dc4d2","ios":"levelo://app?vid=48860a35-69ea-4a27-8dc4-64ff880dc4d2"},"vehicle_type_id":"4","last_reported":1704834389,"current_range_meters":26000,"station_id":"ce4bhbh2rcd13ifvqeqg","pricing_plan_id":"free"},{"bike_id":"4899f726-ef10-447b-a918-d84e0769d148","system_id":"levelo_inurba_marseille","lat":43.292251,"lon":5.360584,"is_reserved":false,"is_disabled":false,"rental_uris":{"android":"levelo://app?vid=4899f726-ef10-447b-a918-d84e0769d148","ios":"levelo://app?vid=4899f726-ef10-447b-a918-d84e0769d148"},"vehicle_type_id":"4","last_reported":1704834389,"current_range_meters":22000,"station_id":"ce4bhbh2rcd13ifvqeqg","pricing_plan_id":"free"},{"bike_id":"7d4eab22-70d0-4a5f-a051-7437c00de57f","system_id":"levelo_inurba_marseille","lat":43.29878,"lon":5.38896,"is_reserved":false,"is_disabled":false,"rental_uris":{"android":"levelo://app?vid=7d4eab22-70d0-4a5f-a051-7437c00de57f","ios":"levelo://app?vid=7d4eab22-70d0-4a5f-a051-7437c00de57f"},"vehicle_type_id":"4","last_reported":1704834389,"current_range_meters":18400,"station_id":"","pricing_plan_id":"free"},{"bike_id":"078ab494-784c-48dc-9d57-b696f448f56a","system_id":"levelo_inurba_marseille","lat":43.30894,"lon":5.39619,"is_reserved":false,"is_disabled":false,"rental_uris":{"android":"levelo://app?vid=078ab494-784c-48dc-9d57-b696f448f56a","ios":"levelo://app?vid=078ab494-784c-48dc-9d57-b696f448f56a"},"vehicle_type_id":"4","last_reported":1704834389,"current_range_meters":7600,"station_id":"ce4bh012rcd13ifvqcv0","pricing_plan_id":"free"},{"bike_id":"3a7d504c-9707-42ee-b6a5-5a26ad66a0d3","system_id":"levelo_inurba_marseille","lat":43.30892,"lon":5.39622,"is_reserved":false,"is_disabled":false,"rental_uris":{"android":"levelo://app?vid=3a7d504c-9707-42ee-b6a5-5a26ad66a0d3","ios":"levelo://app?vid=3a7d504c-9707-42ee-b6a5-5a26ad66a0d3"},"vehicle_type_id":"4","last_reported":1704834389,"current_range_meters":11200,"station_id":"ce4bh012rcd13ifvqcv0","pricing_plan_id":"free"},{"bike_id":"dacc7546-ee44-4b99-ab2a-4e1325d9999a","system_id":"levelo_inurba_marseille","lat":43.291994,"lon":5.357886,"is_reserved":false,"is_disabled":false,"rental_uris":{"android":"levelo://app?vid=dacc7546-ee44-4b99-ab2a-4e1325d9999a","ios":"levelo://app?vid=dacc7546-ee44-4b99-ab2a-4e1325d9999a"},"vehicle_type_id":"4","last_reported":1704834389,"current_range_meters":10400,"station_id":"ce4bhb12rcd13ifvqel0","pricing_plan_id":"free"},{"bike_id":"8ad73542-fa8e-4882-a475-b74467082e41","system_id":"levelo_inurba_marseille","lat":43.291994,"lon":5.357886,"is_reserved":false,"is_disabled":false,"rental_uris":{"android":"levelo://app?vid=8ad73542-fa8e-4882-a475-b74467082e41","ios":"levelo://app?vid=8ad73542-fa8e-4882-a475-b74467082e41"},"vehicle_type_id":"4","last_reported":1704834389,"current_range_meters":22000,"station_id":"ce4bhb12rcd13ifvqel0","pricing_plan_id":"free"},{"bike_id":"7c5a19e6-61e5-4ff9-b344-b29dad202a1a","system_id":"levelo_inurba_marseille","lat":43.309047,"lon":5.396551,"is_reserved":false,"is_disabled":false,"rental_uris":{"android":"levelo://app?vid=7c5a19e6-61e5-4ff9-b344-b29dad202a1a","ios":"levelo://app?vid=7c5a19e6-61e5-4ff9-b344-b29dad202a1a"},"vehicle_type_id":"4","last_reported":1704834389,"current_range_meters":10000,"station_id":"ce4bh012rcd13ifvqcv0","pricing_plan_id":"free"},{"bike_id":"c7db0237-cfd1-49fc-ade0-d877e98c6b27","system_id":"levelo_inurba_marseille","lat":43.313291,"lon":5.396838,"is_reserved":false,"is_disabled":false,"rental_uris":{"android":"levelo://app?vid=c7db0237-cfd1-49fc-ade0-d877e98c6b27","ios":"levelo://app?vid=c7db0237-cfd1-49fc-ade0-d877e98c6b27"},"vehicle_type_id":"4","last_reported":1704834389,"current_range_meters":10400,"station_id":"ce4bgvp2rcd13ifvqcu0","pricing_plan_id":"free"},{"bike_id":"44a20fee-d358-4faa-8e11-f0bff8832f7e","system_id":"levelo_inurba_marseille","lat":43.313291,"lon":5.396838,"is_reserved":false,"is_disabled":false,"rental_uris":{"android":"levelo://app?vid=44a20fee-d358-4faa-8e11-f0bff8832f7e","ios":"levelo://app?vid=44a20fee-d358-4faa-8e11-f0bff8832f7e"},"vehicle_type_id":"4","last_reported":1704834389,"current_range_meters":12400,"station_id":"ce4bgvp2rcd13ifvqcu0","pricing_plan_id":"free"},{"bike_id":"03dfc576-955f-4483-ae7b-8bfd08cf549d","system_id":"levelo_inurba_marseille","lat":43.313291,"lon":5.396838,"is_reserved":false,"is_disabled":false,"rental_uris":{"android":"levelo://app?vid=03dfc576-955f-4483-ae7b-8bfd08cf549d","ios":"levelo://app?vid=03dfc576-955f-4483-ae7b-8bfd08cf549d"},"vehicle_type_id":"4","last_reported":1704834389,"current_range_meters":31200,"station_id":"ce4bgvp2rcd13ifvqcu0","pricing_plan_id":"free"},{"bike_id":"32883a14-611d-4088-a4fd-ad7f6816bdac","system_id":"levelo_inurba_marseille","lat":43.308875,"lon":5.396399,"is_reserved":false,"is_disabled":false,"rental_uris":{"android":"levelo://app?vid=32883a14-611d-4088-a4fd-ad7f6816bdac","ios":"levelo://app?vid=32883a14-611d-4088-a4fd-ad7f6816bdac"},"vehicle_type_id":"4","last_reported":1704834389,"current_range_meters":30400,"station_id":"ce4bh012rcd13ifvqcv0","pricing_plan_id":"free"},{"bike_id":"3257972e-86a2-4400-b310-a776994a037a","system_id":"levelo_inurba_marseille","lat":43.30878,"lon":5.39639,"is_reserved":false,"is_disabled":false,"rental_uris":{"android":"levelo://app?vid=3257972e-86a2-4400-b310-a776994a037a","ios":"levelo://app?vid=3257972e-86a2-4400-b310-a776994a037a"},"vehicle_type_id":"4","last_reported":1704834389,"current_range_meters":9200,"station_id":"ce4bh012rcd13ifvqcv0","pricing_plan_id":"free"},{"bike_id":"5da25857-f0ea-4b8c-9451-3633e9dcf7f8","system_id":"levelo_inurba_marseille","lat":43.309047,"lon":5.396551,"is_reserved":false,"is_disabled":false,"rental_uris":{"android":"levelo://app?vid=5da25857-f0ea-4b8c-9451-3633e9dcf7f8","ios":"levelo://app?vid=5da25857-f0ea-4b8c-9451-3633e9dcf7f8"},"vehicle_type_id":"4","last_reported":1704834389,"current_range_meters":23200,"station_id":"ce4bh012rcd13ifvqcv0","pricing_plan_id":"free"},{"bike_id":"2e3a7afb-d8c7-4884-acc8-550933aad787","system_id":"levelo_inurba_marseille","lat":43.31329,"lon":5.39691,"is_reserved":false,"is_disabled":false,"rental_uris":{"android":"levelo://app?vid=2e3a7afb-d8c7-4884-acc8-550933aad787","ios":"levelo://app?vid=2e3a7afb-d8c7-4884-acc8-550933aad787"},"vehicle_type_id":"4","last_reported":1704834389,"current_range_meters":22800,"station_id":"ce4bgvp2rcd13ifvqcu0","pricing_plan_id":"free"},{"bike_id":"248c6735-6a24-4deb-8598-8470ec2c1aee","system_id":"levelo_inurba_marseille","lat":43.308918,"lon":5.396474,"is_reserved":false,"is_disabled":false,"rental_uris":{"android":"levelo://app?vid=248c6735-6a24-4deb-8598-8470ec2c1aee","ios":"levelo://app?vid=248c6735-6a24-4deb-8598-8470ec2c1aee"},"vehicle_type_id":"4","last_reported":1704834389,"current_range_meters":17200,"station_id":"ce4bh012rcd13ifvqcv0","pricing_plan_id":"free"},{"bike_id":"460038ff-124c-4609-8c97-f1c1d78c42e9","system_id":"levelo_inurba_marseille","lat":43.313291,"lon":5.396838,"is_reserved":false,"is_disabled":false,"rental_uris":{"android":"levelo://app?vid=460038ff-124c-4609-8c97-f1c1d78c42e9","ios":"levelo://app?vid=460038ff-124c-4609-8c97-f1c1d78c42e9"},"vehicle_type_id":"4","last_reported":1704834389,"current_range_meters":26800,"station_id":"ce4bgvp2rcd13ifvqcu0","pricing_plan_id":"free"},{"bike_id":"7b36211d-f979-4204-ae1c-1091b8280214","system_id":"levelo_inurba_marseille","lat":43.313291,"lon":5.396838,"is_reserved":false,"is_disabled":false,"rental_uris":{"android":"levelo://app?vid=7b36211d-f979-4204-ae1c-1091b8280214","ios":"levelo://app?vid=7b36211d-f979-4204-ae1c-1091b8280214"},"vehicle_type_id":"4","last_reported":1704834389,"current_range_meters":9600,"station_id":"ce4bgvp2rcd13ifvqcu0","pricing_plan_id":"free"},{"bike_id":"95d306a8-d7fd-45a2-895b-3f64883288e7","system_id":"levelo_inurba_marseille","lat":43.30885,"lon":5.39649,"is_reserved":false,"is_disabled":false,"rental_uris":{"android":"levelo://app?vid=95d306a8-d7fd-45a2-895b-3f64883288e7","ios":"levelo://app?vid=95d306a8-d7fd-45a2-895b-3f64883288e7"},"vehicle_type_id":"4","last_reported":1704834389,"current_range_meters":22400,"station_id":"ce4bh012rcd13ifvqcv0","pricing_plan_id":"free"},{"bike_id":"9613a6ca-4f7c-4032-be8c-94815fb8c28b","system_id":"levelo_inurba_marseille","lat":43.308904,"lon":5.396544,"is_reserved":false,"is_disabled":false,"rental_uris":{"android":"levelo://app?vid=9613a6ca-4f7c-4032-be8c-94815fb8c28b","ios":"levelo://app?vid=9613a6ca-4f7c-4032-be8c-94815fb8c28b"},"vehicle_type_id":"4","last_reported":1704834389,"current_range_meters":15600,"station_id":"ce4bh012rcd13ifvqcv0","pricing_plan_id":"free"},{"bike_id":"ce227334-7b48-47fe-8664-cbb2fc01cb37","system_id":"levelo_inurba_marseille","lat":43.309047,"lon":5.396551,"is_reserved":false,"is_disabled":false,"rental_uris":{"android":"levelo://app?vid=ce227334-7b48-47fe-8664-cbb2fc01cb37","ios":"levelo://app?vid=ce227334-7b48-47fe-8664-cbb2fc01cb37"},"vehicle_type_id":"4","last_reported":1704834389,"current_range_meters":22800,"station_id":"ce4bh012rcd13ifvqcv0","pricing_plan_id":"free"},{"bike_id":"b2dc01c8-3b06-4f45-9298-57ebf05a7e98","system_id":"levelo_inurba_marseille","lat":43.30885,"lon":5.39659,"is_reserved":false,"is_disabled":false,"rental_uris":{"android":"levelo://app?vid=b2dc01c8-3b06-4f45-9298-57ebf05a7e98","ios":"levelo://app?vid=b2dc01c8-3b06-4f45-9298-57ebf05a7e98"},"vehicle_type_id":"4","last_reported":1704834389,"current_range_meters":6000,"station_id":"ce4bh012rcd13ifvqcv0","pricing_plan_id":"free"},{"bike_id":"e73d0bc1-0b0b-4d8d-878c-c55644428b71","system_id":"levelo_inurba_marseille","lat":43.303002,"lon":5.392142,"is_reserved":false,"is_disabled":false,"rental_uris":{"android":"levelo://app?vid=e73d0bc1-0b0b-4d8d-878c-c55644428b71","ios":"levelo://app?vid=e73d0bc1-0b0b-4d8d-878c-c55644428b71"},"vehicle_type_id":"4","last_reported":1704834389,"current_range_meters":14800,"station_id":"ce4bgkh2rcd13ifvqbk0","pricing_plan_id":"free"},{"bike_id":"0494dfed-d160-439a-9daa-9d5a5c1dd464","system_id":"levelo_inurba_marseille","lat":43.313465,"lon":5.397881,"is_reserved":false,"is_disabled":false,"rental_uris":{"android":"levelo://app?vid=0494dfed-d160-439a-9daa-9d5a5c1dd464","ios":"levelo://app?vid=0494dfed-d160-439a-9daa-9d5a5c1dd464"},"vehicle_type_id":"4","last_reported":1704834389,"current_range_meters":10000,"station_id":"","pricing_plan_id":"free"},{"bike_id":"e301beb3-ba96-46f3-bdce-842b4e07402b","system_id":"levelo_inurba_marseille","lat":43.290624,"lon":5.359245,"is_reserved":false,"is_disabled":false,"rental_uris":{"android":"levelo://app?vid=e301beb3-ba96-46f3-bdce-842b4e07402b","ios":"levelo://app?vid=e301beb3-ba96-46f3-bdce-842b4e07402b"},"vehicle_type_id":"4","last_reported":1704834389,"current_range_meters":29200,"station_id":"ce4bha92rcd13ifvqeg0","pricing_plan_id":"free"},{"bike_id":"6a00b293-4f12-4ce8-9e93-b6bde95ae43b","system_id":"levelo_inurba_marseille","lat":43.2916,"lon":5.37911,"is_reserved":false,"is_disabled":false,"rental_uris":{"android":"levelo://app?vid=6a00b293-4f12-4ce8-9e93-b6bde95ae43b","ios":"levelo://app?vid=6a00b293-4f12-4ce8-9e93-b6bde95ae43b"},"vehicle_type_id":"4","last_reported":1704834389,"current_range_meters":4000,"station_id":"","pricing_plan_id":"free"},{"bike_id":"2bb1bcb6-54ce-4036-b5a0-a166a40d09f1","system_id":"levelo_inurba_marseille","lat":43.290624,"lon":5.359245,"is_reserved":false,"is_disabled":false,"rental_uris":{"android":"levelo://app?vid=2bb1bcb6-54ce-4036-b5a0-a166a40d09f1","ios":"levelo://app?vid=2bb1bcb6-54ce-4036-b5a0-a166a40d09f1"},"vehicle_type_id":"4","last_reported":1704834389,"current_range_meters":13600,"station_id":"ce4bha92rcd13ifvqeg0","pricing_plan_id":"free"},{"bike_id":"84dc494f-4202-4393-a66f-5fdbccac152c","system_id":"levelo_inurba_marseille","lat":43.290631,"lon":5.359244,"is_reserved":false,"is_disabled":false,"rental_uris":{"android":"levelo://app?vid=84dc494f-4202-4393-a66f-5fdbccac152c","ios":"levelo://app?vid=84dc494f-4202-4393-a66f-5fdbccac152c"},"vehicle_type_id":"4","last_reported":1704834389,"current_range_meters":22000,"station_id":"ce4bha92rcd13ifvqeg0","pricing_plan_id":"free"},{"bike_id":"eee345ac-3d4a-4b0e-821e-264d685f9d35","system_id":"levelo_inurba_marseille","lat":43.290624,"lon":5.359245,"is_reserved":false,"is_disabled":false,"rental_uris":{"android":"levelo://app?vid=eee345ac-3d4a-4b0e-821e-264d685f9d35","ios":"levelo://app?vid=eee345ac-3d4a-4b0e-821e-264d685f9d35"},"vehicle_type_id":"4","last_reported":1704834389,"current_range_meters":4000,"station_id":"ce4bha92rcd13ifvqeg0","pricing_plan_id":"free"},{"bike_id":"edb41130-f802-4dd5-923f-18b9826018b5","system_id":"levelo_inurba_marseille","lat":43.290327,"lon":5.375711,"is_reserved":false,"is_disabled":false,"rental_uris":{"android":"levelo://app?vid=edb41130-f802-4dd5-923f-18b9826018b5","ios":"levelo://app?vid=edb41130-f802-4dd5-923f-18b9826018b5"},"vehicle_type_id":"4","last_reported":1704834389,"current_range_meters":16000,"station_id":"ce4bh692rcd13ifvqe90","pricing_plan_id":"free"},{"bike_id":"3543c89d-994f-44ca-bc22-ce09c185cec7","system_id":"levelo_inurba_marseille","lat":43.294153,"lon":5.386305,"is_reserved":false,"is_disabled":false,"rental_uris":{"android":"levelo://app?vid=3543c89d-994f-44ca-bc22-ce09c185cec7","ios":"levelo://app?vid=3543c89d-994f-44ca-bc22-ce09c185cec7"},"vehicle_type_id":"4","last_reported":1704834389,"current_range_meters":4400,"station_id":"ce4bh2h2rcd13ifvqdh0","pricing_plan_id":"free"},{"bike_id":"13b863f2-e301-4ca9-923f-24ff4454f3ef","system_id":"levelo_inurba_marseille","lat":43.289468,"lon":5.363719,"is_reserved":false,"is_disabled":false,"rental_uris":{"android":"levelo://app?vid=13b863f2-e301-4ca9-923f-24ff4454f3ef","ios":"levelo://app?vid=13b863f2-e301-4ca9-923f-24ff4454f3ef"},"vehicle_type_id":"4","last_reported":1704834389,"current_range_meters":26800,"station_id":"ce4bhc92rcd13ifvqetg","pricing_plan_id":"free"},{"bike_id":"f4b2bec5-b628-4eed-872b-4612c3e4558d","system_id":"levelo_inurba_marseille","lat":43.28573,"lon":5.394992,"is_reserved":false,"is_disabled":false,"rental_uris":{"android":"levelo://app?vid=f4b2bec5-b628-4eed-872b-4612c3e4558d","ios":"levelo://app?vid=f4b2bec5-b628-4eed-872b-4612c3e4558d"},"vehicle_type_id":"4","last_reported":1704834389,"current_range_meters":3600,"station_id":"ce4bh292rcd13ifvqdg0","pricing_plan_id":"free"},{"bike_id":"a6fad106-251d-4c0e-aa48-3ad1a7f64648","system_id":"levelo_inurba_marseille","lat":43.292644,"lon":5.384257,"is_reserved":false,"is_disabled":false,"rental_uris":{"android":"levelo://app?vid=a6fad106-251d-4c0e-aa48-3ad1a7f64648","ios":"levelo://app?vid=a6fad106-251d-4c0e-aa48-3ad1a7f64648"},"vehicle_type_id":"4","last_reported":1704834389,"current_range_meters":9200,"station_id":"ce4bh692rcd13ifvqea0","pricing_plan_id":"free"},{"bike_id":"cb65b45a-b840-4996-b844-ce8f2eb41583","system_id":"levelo_inurba_marseille","lat":43.292642,"lon":5.384254,"is_reserved":false,"is_disabled":false,"rental_uris":{"android":"levelo://app?vid=cb65b45a-b840-4996-b844-ce8f2eb41583","ios":"levelo://app?vid=cb65b45a-b840-4996-b844-ce8f2eb41583"},"vehicle_type_id":"4","last_reported":1704834389,"current_range_meters":24800,"station_id":"ce4bh692rcd13ifvqea0","pricing_plan_id":"free"},{"bike_id":"f9e985c6-d21c-4b3b-8e54-7dcb0e8eeea0","system_id":"levelo_inurba_marseille","lat":43.290104,"lon":5.356111,"is_reserved":false,"is_disabled":false,"rental_uris":{"android":"levelo://app?vid=f9e985c6-d21c-4b3b-8e54-7dcb0e8eeea0","ios":"levelo://app?vid=f9e985c6-d21c-4b3b-8e54-7dcb0e8eeea0"},"vehicle_type_id":"4","last_reported":1704834389,"current_range_meters":3200,"station_id":"ce4bhb92rcd13ifvqen0","pricing_plan_id":"free"},{"bike_id":"be807f1a-57a8-4dec-ac1e-fdd78008e603","system_id":"levelo_inurba_marseille","lat":43.290104,"lon":5.356111,"is_reserved":false,"is_disabled":false,"rental_uris":{"android":"levelo://app?vid=be807f1a-57a8-4dec-ac1e-fdd78008e603","ios":"levelo://app?vid=be807f1a-57a8-4dec-ac1e-fdd78008e603"},"vehicle_type_id":"4","last_reported":1704834389,"current_range_meters":16000,"station_id":"ce4bhb92rcd13ifvqen0","pricing_plan_id":"free"},{"bike_id":"68cdbb37-796b-49dd-8237-60c50e990312","system_id":"levelo_inurba_marseille","lat":43.297815,"lon":5.393548,"is_reserved":false,"is_disabled":false,"rental_uris":{"android":"levelo://app?vid=68cdbb37-796b-49dd-8237-60c50e990312","ios":"levelo://app?vid=68cdbb37-796b-49dd-8237-60c50e990312"},"vehicle_type_id":"4","last_reported":1704834389,"current_range_meters":0,"station_id":"chh1huq6cuj3fo74tm60","pricing_plan_id":"free"},{"bike_id":"85bdde40-e1b0-43a9-b74c-79d909ced39b","system_id":"levelo_inurba_marseille","lat":43.290104,"lon":5.356111,"is_reserved":false,"is_disabled":false,"rental_uris":{"android":"levelo://app?vid=85bdde40-e1b0-43a9-b74c-79d909ced39b","ios":"levelo://app?vid=85bdde40-e1b0-43a9-b74c-79d909ced39b"},"vehicle_type_id":"4","last_reported":1704834389,"current_range_meters":4400,"station_id":"ce4bhb92rcd13ifvqen0","pricing_plan_id":"free"},{"bike_id":"3ebd609a-be06-428f-b8af-b7e9f0ea0f75","system_id":"levelo_inurba_marseille","lat":43.297897,"lon":5.393263,"is_reserved":false,"is_disabled":false,"rental_uris":{"android":"levelo://app?vid=3ebd609a-be06-428f-b8af-b7e9f0ea0f75","ios":"levelo://app?vid=3ebd609a-be06-428f-b8af-b7e9f0ea0f75"},"vehicle_type_id":"4","last_reported":1704834389,"current_range_meters":24800,"station_id":"chh1huq6cuj3fo74tm60","pricing_plan_id":"free"},{"bike_id":"00ceb65b-d038-4bb1-b17d-d4d95e332dcc","system_id":"levelo_inurba_marseille","lat":43.29795,"lon":5.39341,"is_reserved":false,"is_disabled":false,"rental_uris":{"android":"levelo://app?vid=00ceb65b-d038-4bb1-b17d-d4d95e332dcc","ios":"levelo://app?vid=00ceb65b-d038-4bb1-b17d-d4d95e332dcc"},"vehicle_type_id":"4","last_reported":1704834389,"current_range_meters":2400,"station_id":"chh1huq6cuj3fo74tm60","pricing_plan_id":"free"},{"bike_id":"2c297d74-faab-45cf-a069-75dc0ce4ae11","system_id":"levelo_inurba_marseille","lat":43.289741,"lon":5.378306,"is_reserved":false,"is_disabled":false,"rental_uris":{"android":"levelo://app?vid=2c297d74-faab-45cf-a069-75dc0ce4ae11","ios":"levelo://app?vid=2c297d74-faab-45cf-a069-75dc0ce4ae11"},"vehicle_type_id":"4","last_reported":1704834389,"current_range_meters":6000,"station_id":"ce4bh9p2rcd13ifvqed0","pricing_plan_id":"free"},{"bike_id":"29877edf-f914-4818-a395-be7aee9e9d72","system_id":"levelo_inurba_marseille","lat":43.33022,"lon":5.39038,"is_reserved":false,"is_disabled":false,"rental_uris":{"android":"levelo://app?vid=29877edf-f914-4818-a395-be7aee9e9d72","ios":"levelo://app?vid=29877edf-f914-4818-a395-be7aee9e9d72"},"vehicle_type_id":"4","last_reported":1704834389,"current_range_meters":28400,"station_id":"","pricing_plan_id":"free"},{"bike_id":"dd8fd48f-c3e4-44e3-8051-bdcd3d013882","system_id":"levelo_inurba_marseille","lat":43.295169,"lon":5.390426,"is_reserved":false,"is_disabled":false,"rental_uris":{"android":"levelo://app?vid=dd8fd48f-c3e4-44e3-8051-bdcd3d013882","ios":"levelo://app?vid=dd8fd48f-c3e4-44e3-8051-bdcd3d013882"},"vehicle_type_id":"4","last_reported":1704834389,"current_range_meters":14800,"station_id":"ce4bh3p2rcd13ifvqdp0","pricing_plan_id":"free"},{"bike_id":"b4b1d330-9cae-432f-bbe4-7ca5957c66dd","system_id":"levelo_inurba_marseille","lat":43.33032,"lon":5.39028,"is_reserved":false,"is_disabled":false,"rental_uris":{"android":"levelo://app?vid=b4b1d330-9cae-432f-bbe4-7ca5957c66dd","ios":"levelo://app?vid=b4b1d330-9cae-432f-bbe4-7ca5957c66dd"},"vehicle_type_id":"4","last_reported":1704834389,"current_range_meters":22000,"station_id":"","pricing_plan_id":"free"},{"bike_id":"87efb1e3-3a04-4a04-8a2c-7950735911ef","system_id":"levelo_inurba_marseille","lat":43.33023,"lon":5.39042,"is_reserved":false,"is_disabled":false,"rental_uris":{"android":"levelo://app?vid=87efb1e3-3a04-4a04-8a2c-7950735911ef","ios":"levelo://app?vid=87efb1e3-3a04-4a04-8a2c-7950735911ef"},"vehicle_type_id":"4","last_reported":1704834389,"current_range_meters":18800,"station_id":"","pricing_plan_id":"free"},{"bike_id":"604d70e1-4bfc-4c1a-ad50-5c45b428d61e","system_id":"levelo_inurba_marseille","lat":43.33027,"lon":5.39043,"is_reserved":false,"is_disabled":false,"rental_uris":{"android":"levelo://app?vid=604d70e1-4bfc-4c1a-ad50-5c45b428d61e","ios":"levelo://app?vid=604d70e1-4bfc-4c1a-ad50-5c45b428d61e"},"vehicle_type_id":"4","last_reported":1704834389,"current_range_meters":31200,"station_id":"ce4bhr92rcd13ifvqhrg","pricing_plan_id":"free"},{"bike_id":"4b0ff893-3f39-416a-bc4e-af7d0f42e870","system_id":"levelo_inurba_marseille","lat":43.2901,"lon":5.381269,"is_reserved":false,"is_disabled":false,"rental_uris":{"android":"levelo://app?vid=4b0ff893-3f39-416a-bc4e-af7d0f42e870","ios":"levelo://app?vid=4b0ff893-3f39-416a-bc4e-af7d0f42e870"},"vehicle_type_id":"4","last_reported":1704834389,"current_range_meters":20800,"station_id":"ce4bh4p2rcd13ifvqe1g","pricing_plan_id":"free"},{"bike_id":"3dac567c-d722-4e94-aa38-8a3688c276ae","system_id":"levelo_inurba_marseille","lat":43.310328,"lon":5.400942,"is_reserved":false,"is_disabled":false,"rental_uris":{"android":"levelo://app?vid=3dac567c-d722-4e94-aa38-8a3688c276ae","ios":"levelo://app?vid=3dac567c-d722-4e94-aa38-8a3688c276ae"},"vehicle_type_id":"4","last_reported":1704834389,"current_range_meters":23600,"station_id":"","pricing_plan_id":"free"},{"bike_id":"d6156160-372d-4a02-bb44-9a4806b19bb6","system_id":"levelo_inurba_marseille","lat":43.28856,"lon":5.358371,"is_reserved":false,"is_disabled":false,"rental_uris":{"android":"levelo://app?vid=d6156160-372d-4a02-bb44-9a4806b19bb6","ios":"levelo://app?vid=d6156160-372d-4a02-bb44-9a4806b19bb6"},"vehicle_type_id":"4","last_reported":1704834389,"current_range_meters":0,"station_id":"ce4bhb12rcd13ifvqem0","pricing_plan_id":"free"},{"bike_id":"289b3529-5d8a-4fad-a8a5-f4cf8377e902","system_id":"levelo_inurba_marseille","lat":43.28856,"lon":5.358371,"is_reserved":false,"is_disabled":false,"rental_uris":{"android":"levelo://app?vid=289b3529-5d8a-4fad-a8a5-f4cf8377e902","ios":"levelo://app?vid=289b3529-5d8a-4fad-a8a5-f4cf8377e902"},"vehicle_type_id":"4","last_reported":1704834389,"current_range_meters":27200,"station_id":"ce4bhb12rcd13ifvqem0","pricing_plan_id":"free"},{"bike_id":"5c6686f1-bda4-4c89-8578-aa1229416db0","system_id":"levelo_inurba_marseille","lat":43.312593,"lon":5.40155,"is_reserved":false,"is_disabled":false,"rental_uris":{"android":"levelo://app?vid=5c6686f1-bda4-4c89-8578-aa1229416db0","ios":"levelo://app?vid=5c6686f1-bda4-4c89-8578-aa1229416db0"},"vehicle_type_id":"4","last_reported":1704834389,"current_range_meters":3600,"station_id":"","pricing_plan_id":"free"},{"bike_id":"cf73facc-2fa3-4e06-b8d6-de2b8c1ab653","system_id":"levelo_inurba_marseille","lat":43.312788,"lon":5.401563,"is_reserved":false,"is_disabled":false,"rental_uris":{"android":"levelo://app?vid=cf73facc-2fa3-4e06-b8d6-de2b8c1ab653","ios":"levelo://app?vid=cf73facc-2fa3-4e06-b8d6-de2b8c1ab653"},"vehicle_type_id":"4","last_reported":1704834389,"current_range_meters":28800,"station_id":"ce4bh092rcd13ifvqd30","pricing_plan_id":"free"},{"bike_id":"f675d45c-d18c-4b87-baf5-d032c6b9539b","system_id":"levelo_inurba_marseille","lat":43.309371,"lon":5.401449,"is_reserved":false,"is_disabled":false,"rental_uris":{"android":"levelo://app?vid=f675d45c-d18c-4b87-baf5-d032c6b9539b","ios":"levelo://app?vid=f675d45c-d18c-4b87-baf5-d032c6b9539b"},"vehicle_type_id":"4","last_reported":1704834389,"current_range_meters":25200,"station_id":"ce4bgvp2rcd13ifvqct0","pricing_plan_id":"free"},{"bike_id":"183c8441-338e-422b-8bf0-f2bde2c56328","system_id":"levelo_inurba_marseille","lat":43.306412,"lon":5.401035,"is_reserved":false,"is_disabled":false,"rental_uris":{"android":"levelo://app?vid=183c8441-338e-422b-8bf0-f2bde2c56328","ios":"levelo://app?vid=183c8441-338e-422b-8bf0-f2bde2c56328"},"vehicle_type_id":"4","last_reported":1704834389,"current_range_meters":24000,"station_id":"ce4bh112rcd13ifvqda0","pricing_plan_id":"free"},{"bike_id":"7a3880c8-df66-4db0-97af-99785855549f","system_id":"levelo_inurba_marseille","lat":43.312786,"lon":5.401687,"is_reserved":false,"is_disabled":false,"rental_uris":{"android":"levelo://app?vid=7a3880c8-df66-4db0-97af-99785855549f","ios":"levelo://app?vid=7a3880c8-df66-4db0-97af-99785855549f"},"vehicle_type_id":"4","last_reported":1704834389,"current_range_meters":27200,"station_id":"ce4bh092rcd13ifvqd30","pricing_plan_id":"free"},{"bike_id":"d9074b9b-3474-4198-894f-34f59fd8f811","system_id":"levelo_inurba_marseille","lat":43.309273,"lon":5.40137,"is_reserved":false,"is_disabled":false,"rental_uris":{"android":"levelo://app?vid=d9074b9b-3474-4198-894f-34f59fd8f811","ios":"levelo://app?vid=d9074b9b-3474-4198-894f-34f59fd8f811"},"vehicle_type_id":"4","last_reported":1704834389,"current_range_meters":22400,"station_id":"ce4bgvp2rcd13ifvqct0","pricing_plan_id":"free"},{"bike_id":"85224a66-356a-449e-970b-29063edcd57c","system_id":"levelo_inurba_marseille","lat":43.306412,"lon":5.401035,"is_reserved":false,"is_disabled":false,"rental_uris":{"android":"levelo://app?vid=85224a66-356a-449e-970b-29063edcd57c","ios":"levelo://app?vid=85224a66-356a-449e-970b-29063edcd57c"},"vehicle_type_id":"4","last_reported":1704834389,"current_range_meters":21200,"station_id":"ce4bh112rcd13ifvqda0","pricing_plan_id":"free"},{"bike_id":"1a46d2d0-85d6-40a9-a7c8-890671b584e0","system_id":"levelo_inurba_marseille","lat":43.309269,"lon":5.401394,"is_reserved":false,"is_disabled":false,"rental_uris":{"android":"levelo://app?vid=1a46d2d0-85d6-40a9-a7c8-890671b584e0","ios":"levelo://app?vid=1a46d2d0-85d6-40a9-a7c8-890671b584e0"},"vehicle_type_id":"4","last_reported":1704834389,"current_range_meters":31200,"station_id":"ce4bgvp2rcd13ifvqct0","pricing_plan_id":"free"},{"bike_id":"d93f0256-4bb3-4c52-803e-1f82ac7f8d21","system_id":"levelo_inurba_marseille","lat":43.309371,"lon":5.401449,"is_reserved":false,"is_disabled":false,"rental_uris":{"android":"levelo://app?vid=d93f0256-4bb3-4c52-803e-1f82ac7f8d21","ios":"levelo://app?vid=d93f0256-4bb3-4c52-803e-1f82ac7f8d21"},"vehicle_type_id":"4","last_reported":1704834389,"current_range_meters":4000,"station_id":"ce4bgvp2rcd13ifvqct0","pricing_plan_id":"free"},{"bike_id":"6ded6c57-50d6-461c-a554-1e6a58cf74aa","system_id":"levelo_inurba_marseille","lat":43.312609,"lon":5.401662,"is_reserved":false,"is_disabled":false,"rental_uris":{"android":"levelo://app?vid=6ded6c57-50d6-461c-a554-1e6a58cf74aa","ios":"levelo://app?vid=6ded6c57-50d6-461c-a554-1e6a58cf74aa"},"vehicle_type_id":"4","last_reported":1704834389,"current_range_meters":16000,"station_id":"ce4bh092rcd13ifvqd30","pricing_plan_id":"free"},{"bike_id":"6d0a125e-4420-4867-b83b-5d481be74bca","system_id":"levelo_inurba_marseille","lat":43.30927,"lon":5.40143,"is_reserved":false,"is_disabled":false,"rental_uris":{"android":"levelo://app?vid=6d0a125e-4420-4867-b83b-5d481be74bca","ios":"levelo://app?vid=6d0a125e-4420-4867-b83b-5d481be74bca"},"vehicle_type_id":"4","last_reported":1704834389,"current_range_meters":18800,"station_id":"ce4bgvp2rcd13ifvqct0","pricing_plan_id":"free"},{"bike_id":"286d0c61-c0c4-45e1-8c5d-9f8dc2d215f1","system_id":"levelo_inurba_marseille","lat":43.306412,"lon":5.401035,"is_reserved":false,"is_disabled":false,"rental_uris":{"android":"levelo://app?vid=286d0c61-c0c4-45e1-8c5d-9f8dc2d215f1","ios":"levelo://app?vid=286d0c61-c0c4-45e1-8c5d-9f8dc2d215f1"},"vehicle_type_id":"4","last_reported":1704834389,"current_range_meters":30400,"station_id":"ce4bh112rcd13ifvqda0","pricing_plan_id":"free"},{"bike_id":"8ba44336-282f-4cda-90bb-b7fe4482f748","system_id":"levelo_inurba_marseille","lat":43.3093,"lon":5.40147,"is_reserved":false,"is_disabled":false,"rental_uris":{"android":"levelo://app?vid=8ba44336-282f-4cda-90bb-b7fe4482f748","ios":"levelo://app?vid=8ba44336-282f-4cda-90bb-b7fe4482f748"},"vehicle_type_id":"4","last_reported":1704834389,"current_range_meters":24000,"station_id":"ce4bgvp2rcd13ifvqct0","pricing_plan_id":"free"},{"bike_id":"e12d72da-85a2-4583-b875-7ac80017c6e4","system_id":"levelo_inurba_marseille","lat":43.309371,"lon":5.401449,"is_reserved":false,"is_disabled":false,"rental_uris":{"android":"levelo://app?vid=e12d72da-85a2-4583-b875-7ac80017c6e4","ios":"levelo://app?vid=e12d72da-85a2-4583-b875-7ac80017c6e4"},"vehicle_type_id":"4","last_reported":1704834389,"current_range_meters":27600,"station_id":"ce4bgvp2rcd13ifvqct0","pricing_plan_id":"free"},{"bike_id":"6668f8c3-55e3-4604-8f4a-c928f803f930","system_id":"levelo_inurba_marseille","lat":43.306412,"lon":5.401035,"is_reserved":false,"is_disabled":false,"rental_uris":{"android":"levelo://app?vid=6668f8c3-55e3-4604-8f4a-c928f803f930","ios":"levelo://app?vid=6668f8c3-55e3-4604-8f4a-c928f803f930"},"vehicle_type_id":"4","last_reported":1704834389,"current_range_meters":0,"station_id":"ce4bh112rcd13ifvqda0","pricing_plan_id":"free"},{"bike_id":"54ffbc00-7f11-46eb-8ba8-f883f08a6329","system_id":"levelo_inurba_marseille","lat":43.306412,"lon":5.401035,"is_reserved":false,"is_disabled":false,"rental_uris":{"android":"levelo://app?vid=54ffbc00-7f11-46eb-8ba8-f883f08a6329","ios":"levelo://app?vid=54ffbc00-7f11-46eb-8ba8-f883f08a6329"},"vehicle_type_id":"4","last_reported":1704834389,"current_range_meters":2800,"station_id":"ce4bh112rcd13ifvqda0","pricing_plan_id":"free"},{"bike_id":"c1c0f418-8120-4ac4-9bff-565beba4a8bc","system_id":"levelo_inurba_marseille","lat":43.306304,"lon":5.400829,"is_reserved":false,"is_disabled":false,"rental_uris":{"android":"levelo://app?vid=c1c0f418-8120-4ac4-9bff-565beba4a8bc","ios":"levelo://app?vid=c1c0f418-8120-4ac4-9bff-565beba4a8bc"},"vehicle_type_id":"4","last_reported":1704834389,"current_range_meters":0,"station_id":"ce4bh112rcd13ifvqda0","pricing_plan_id":"free"},{"bike_id":"a64d7259-d5fb-4ee6-9556-59430fa9232b","system_id":"levelo_inurba_marseille","lat":43.33769,"lon":5.37424,"is_reserved":false,"is_disabled":false,"rental_uris":{"android":"levelo://app?vid=a64d7259-d5fb-4ee6-9556-59430fa9232b","ios":"levelo://app?vid=a64d7259-d5fb-4ee6-9556-59430fa9232b"},"vehicle_type_id":"4","last_reported":1704834389,"current_range_meters":27200,"station_id":"","pricing_plan_id":"free"},{"bike_id":"894e8420-beb0-4f36-ba5f-19004c46961b","system_id":"levelo_inurba_marseille","lat":43.306412,"lon":5.401035,"is_reserved":false,"is_disabled":false,"rental_uris":{"android":"levelo://app?vid=894e8420-beb0-4f36-ba5f-19004c46961b","ios":"levelo://app?vid=894e8420-beb0-4f36-ba5f-19004c46961b"},"vehicle_type_id":"4","last_reported":1704834389,"current_range_meters":10800,"station_id":"ce4bh112rcd13ifvqda0","pricing_plan_id":"free"},{"bike_id":"b56832cc-b306-44c8-8861-e4f81260d007","system_id":"levelo_inurba_marseille","lat":43.28727,"lon":5.36078,"is_reserved":false,"is_disabled":false,"rental_uris":{"android":"levelo://app?vid=b56832cc-b306-44c8-8861-e4f81260d007","ios":"levelo://app?vid=b56832cc-b306-44c8-8861-e4f81260d007"},"vehicle_type_id":"4","last_reported":1704834389,"current_range_meters":17600,"station_id":"cki0cbj6b192h4jlfktg","pricing_plan_id":"free"},{"bike_id":"5e57c29e-7ebe-4d24-9aa6-b33de229845d","system_id":"levelo_inurba_marseille","lat":43.28727,"lon":5.36078,"is_reserved":false,"is_disabled":false,"rental_uris":{"android":"levelo://app?vid=5e57c29e-7ebe-4d24-9aa6-b33de229845d","ios":"levelo://app?vid=5e57c29e-7ebe-4d24-9aa6-b33de229845d"},"vehicle_type_id":"4","last_reported":1704834389,"current_range_meters":28000,"station_id":"cki0cbj6b192h4jlfktg","pricing_plan_id":"free"},{"bike_id":"85ad7107-a89b-41f1-a22f-89e98ef06030","system_id":"levelo_inurba_marseille","lat":43.28727,"lon":5.36078,"is_reserved":false,"is_disabled":false,"rental_uris":{"android":"levelo://app?vid=85ad7107-a89b-41f1-a22f-89e98ef06030","ios":"levelo://app?vid=85ad7107-a89b-41f1-a22f-89e98ef06030"},"vehicle_type_id":"4","last_reported":1704834389,"current_range_meters":27600,"station_id":"cki0cbj6b192h4jlfktg","pricing_plan_id":"free"},{"bike_id":"1fea92ae-83a3-481e-a710-11fbf933fcef","system_id":"levelo_inurba_marseille","lat":43.28727,"lon":5.36078,"is_reserved":false,"is_disabled":false,"rental_uris":{"android":"levelo://app?vid=1fea92ae-83a3-481e-a710-11fbf933fcef","ios":"levelo://app?vid=1fea92ae-83a3-481e-a710-11fbf933fcef"},"vehicle_type_id":"4","last_reported":1704834389,"current_range_meters":27600,"station_id":"cki0cbj6b192h4jlfktg","pricing_plan_id":"free"},{"bike_id":"31c4c7c0-8772-47f5-9f61-bb6c510e537f","system_id":"levelo_inurba_marseille","lat":43.28724,"lon":5.36097,"is_reserved":false,"is_disabled":false,"rental_uris":{"android":"levelo://app?vid=31c4c7c0-8772-47f5-9f61-bb6c510e537f","ios":"levelo://app?vid=31c4c7c0-8772-47f5-9f61-bb6c510e537f"},"vehicle_type_id":"4","last_reported":1704834389,"current_range_meters":26800,"station_id":"","pricing_plan_id":"free"},{"bike_id":"00462145-042f-41d8-a85f-a0f9cd03fe33","system_id":"levelo_inurba_marseille","lat":43.30462,"lon":5.40068,"is_reserved":false,"is_disabled":false,"rental_uris":{"android":"levelo://app?vid=00462145-042f-41d8-a85f-a0f9cd03fe33","ios":"levelo://app?vid=00462145-042f-41d8-a85f-a0f9cd03fe33"},"vehicle_type_id":"4","last_reported":1704834389,"current_range_meters":20400,"station_id":"","pricing_plan_id":"free"},{"bike_id":"288e8ddb-5a29-4084-a908-36c65db13c53","system_id":"levelo_inurba_marseille","lat":43.28727,"lon":5.36078,"is_reserved":false,"is_disabled":false,"rental_uris":{"android":"levelo://app?vid=288e8ddb-5a29-4084-a908-36c65db13c53","ios":"levelo://app?vid=288e8ddb-5a29-4084-a908-36c65db13c53"},"vehicle_type_id":"4","last_reported":1704834389,"current_range_meters":6400,"station_id":"cki0cbj6b192h4jlfktg","pricing_plan_id":"free"},{"bike_id":"7371e3c6-7cf7-47d9-b679-4fbd75fc1ec2","system_id":"levelo_inurba_marseille","lat":43.28727,"lon":5.36078,"is_reserved":false,"is_disabled":false,"rental_uris":{"android":"levelo://app?vid=7371e3c6-7cf7-47d9-b679-4fbd75fc1ec2","ios":"levelo://app?vid=7371e3c6-7cf7-47d9-b679-4fbd75fc1ec2"},"vehicle_type_id":"4","last_reported":1704834389,"current_range_meters":31600,"station_id":"cki0cbj6b192h4jlfktg","pricing_plan_id":"free"},{"bike_id":"b9cca6ae-c8ad-4223-ae8e-7e62eda2a3a7","system_id":"levelo_inurba_marseille","lat":43.298681,"lon":5.397225,"is_reserved":false,"is_disabled":false,"rental_uris":{"android":"levelo://app?vid=b9cca6ae-c8ad-4223-ae8e-7e62eda2a3a7","ios":"levelo://app?vid=b9cca6ae-c8ad-4223-ae8e-7e62eda2a3a7"},"vehicle_type_id":"4","last_reported":1704834389,"current_range_meters":12000,"station_id":"ce4bh0h2rcd13ifvqd50","pricing_plan_id":"free"},{"bike_id":"f2dbdcc3-8f1a-4d4d-a2cd-1eac3c475029","system_id":"levelo_inurba_marseille","lat":43.298681,"lon":5.397225,"is_reserved":false,"is_disabled":false,"rental_uris":{"android":"levelo://app?vid=f2dbdcc3-8f1a-4d4d-a2cd-1eac3c475029","ios":"levelo://app?vid=f2dbdcc3-8f1a-4d4d-a2cd-1eac3c475029"},"vehicle_type_id":"4","last_reported":1704834389,"current_range_meters":14400,"station_id":"ce4bh0h2rcd13ifvqd50","pricing_plan_id":"free"},{"bike_id":"4562825a-6394-4d2d-813a-e9e6994a830e","system_id":"levelo_inurba_marseille","lat":43.286746,"lon":5.363432,"is_reserved":false,"is_disabled":false,"rental_uris":{"android":"levelo://app?vid=4562825a-6394-4d2d-813a-e9e6994a830e","ios":"levelo://app?vid=4562825a-6394-4d2d-813a-e9e6994a830e"},"vehicle_type_id":"4","last_reported":1704834389,"current_range_meters":0,"station_id":"ce4bhah2rcd13ifvqej0","pricing_plan_id":"free"},{"bike_id":"4de6d7c9-bc20-4d22-8ec5-b637f0ef6e32","system_id":"levelo_inurba_marseille","lat":43.286742,"lon":5.363326,"is_reserved":false,"is_disabled":false,"rental_uris":{"android":"levelo://app?vid=4de6d7c9-bc20-4d22-8ec5-b637f0ef6e32","ios":"levelo://app?vid=4de6d7c9-bc20-4d22-8ec5-b637f0ef6e32"},"vehicle_type_id":"4","last_reported":1704834389,"current_range_meters":0,"station_id":"ce4bhah2rcd13ifvqej0","pricing_plan_id":"free"},{"bike_id":"9daacf3b-0162-40ab-a412-2df95df91aed","system_id":"levelo_inurba_marseille","lat":43.28673,"lon":5.36342,"is_reserved":false,"is_disabled":false,"rental_uris":{"android":"levelo://app?vid=9daacf3b-0162-40ab-a412-2df95df91aed","ios":"levelo://app?vid=9daacf3b-0162-40ab-a412-2df95df91aed"},"vehicle_type_id":"4","last_reported":1704834389,"current_range_meters":9600,"station_id":"ce4bhah2rcd13ifvqej0","pricing_plan_id":"free"},{"bike_id":"9d09b590-f4b2-480c-ba10-ac7b0e57d17c","system_id":"levelo_inurba_marseille","lat":43.286591,"lon":5.363346,"is_reserved":false,"is_disabled":false,"rental_uris":{"android":"levelo://app?vid=9d09b590-f4b2-480c-ba10-ac7b0e57d17c","ios":"levelo://app?vid=9d09b590-f4b2-480c-ba10-ac7b0e57d17c"},"vehicle_type_id":"4","last_reported":1704834389,"current_range_meters":30800,"station_id":"ce4bhah2rcd13ifvqej0","pricing_plan_id":"free"},{"bike_id":"6d5df037-177a-40c2-8671-63907aa2ca0b","system_id":"levelo_inurba_marseille","lat":43.286591,"lon":5.363346,"is_reserved":false,"is_disabled":false,"rental_uris":{"android":"levelo://app?vid=6d5df037-177a-40c2-8671-63907aa2ca0b","ios":"levelo://app?vid=6d5df037-177a-40c2-8671-63907aa2ca0b"},"vehicle_type_id":"4","last_reported":1704834389,"current_range_meters":11600,"station_id":"ce4bhah2rcd13ifvqej0","pricing_plan_id":"free"},{"bike_id":"5aaadb46-f377-4656-bb1e-74b4d740bc6b","system_id":"levelo_inurba_marseille","lat":43.286591,"lon":5.363346,"is_reserved":false,"is_disabled":false,"rental_uris":{"android":"levelo://app?vid=5aaadb46-f377-4656-bb1e-74b4d740bc6b","ios":"levelo://app?vid=5aaadb46-f377-4656-bb1e-74b4d740bc6b"},"vehicle_type_id":"4","last_reported":1704834389,"current_range_meters":21600,"station_id":"ce4bhah2rcd13ifvqej0","pricing_plan_id":"free"},{"bike_id":"80b94df8-4fcf-4502-9356-06e601164742","system_id":"levelo_inurba_marseille","lat":43.286591,"lon":5.363346,"is_reserved":false,"is_disabled":false,"rental_uris":{"android":"levelo://app?vid=80b94df8-4fcf-4502-9356-06e601164742","ios":"levelo://app?vid=80b94df8-4fcf-4502-9356-06e601164742"},"vehicle_type_id":"4","last_reported":1704834389,"current_range_meters":15200,"station_id":"ce4bhah2rcd13ifvqej0","pricing_plan_id":"free"},{"bike_id":"81e09945-5b3b-40f4-8588-57751d0db042","system_id":"levelo_inurba_marseille","lat":43.286591,"lon":5.363346,"is_reserved":false,"is_disabled":false,"rental_uris":{"android":"levelo://app?vid=81e09945-5b3b-40f4-8588-57751d0db042","ios":"levelo://app?vid=81e09945-5b3b-40f4-8588-57751d0db042"},"vehicle_type_id":"4","last_reported":1704834389,"current_range_meters":0,"station_id":"ce4bhah2rcd13ifvqej0","pricing_plan_id":"free"},{"bike_id":"0b141fbc-dd42-481d-9c26-d70b925c6c20","system_id":"levelo_inurba_marseille","lat":43.28665,"lon":5.36347,"is_reserved":false,"is_disabled":false,"rental_uris":{"android":"levelo://app?vid=0b141fbc-dd42-481d-9c26-d70b925c6c20","ios":"levelo://app?vid=0b141fbc-dd42-481d-9c26-d70b925c6c20"},"vehicle_type_id":"4","last_reported":1704834389,"current_range_meters":1600,"station_id":"ce4bhah2rcd13ifvqej0","pricing_plan_id":"free"},{"bike_id":"cb4ae437-d6e5-4163-be16-9d4185fb850f","system_id":"levelo_inurba_marseille","lat":43.287015,"lon":5.373847,"is_reserved":false,"is_disabled":false,"rental_uris":{"android":"levelo://app?vid=cb4ae437-d6e5-4163-be16-9d4185fb850f","ios":"levelo://app?vid=cb4ae437-d6e5-4163-be16-9d4185fb850f"},"vehicle_type_id":"4","last_reported":1704834389,"current_range_meters":14400,"station_id":"ce4bh3p2rcd13ifvqdq0","pricing_plan_id":"free"},