{"last_updated":1753787404,"ttl":60,"version":"2.2","data":{"bikes":[{"bike_id":"a4d6926e-f858-4349-ab37-ca5cdbe432d3","system_id":"levelo_inurba_marseille","lat":43.2898,"lon":5.37835,"is_reserved":false,"is_disabled":false,"rental_uris":{"android":"levelo://app?vid=a4d6926e-f858-4349-ab37-ca5cdbe432d3","ios":"levelo://app?vid=a4d6926e-f858-4349-ab37-ca5cdbe432d3"},"vehicle_type_id":"4","last_reported":1753787405,"current_range_meters":2800,"station_id":"ce4bh9p2rcd13ifvqed0","pricing_plan_id":"cebpf4jnsgd1na2vs0mg"},{"bike_id":"9c11acfd-9ab0-4994-bfe5-386f27cf0112","system_id":"levelo_inurba_marseille","lat":43.298725,"lon":5.397209,"is_reserved":false,"is_disabled":false,"rental_uris":{"android":"levelo://app?vid=9c11acfd-9ab0-4994-bfe5-386f27cf0112","ios":"levelo://app?vid=9c11acfd-9ab0-4994-bfe5-386f27cf0112"},"vehicle_type_id":"4","last_reported":1753787405,"current_range_meters":2800,"station_id":"ce4bh0h2rcd13ifvqd50","pricing_plan_id":"cebpf4jnsgd1na2vs0mg"},{"bike_id":"a6922362-229d-41a8-aeb7-b5772e221610","system_id":"levelo_inurba_marseille","lat":43.29198,"lon":5.39341,"is_reserved":false,"is_disabled":true,"rental_uris":{"android":"levelo://app?vid=a6922362-229d-41a8-aeb7-b5772e221610","ios":"levelo://app?vid=a6922362-229d-41a8-aeb7-b5772e221610"},"vehicle_type_id":"4","last_reported":1753787405,"current_range_meters":2800,"station_id":"ce4bh192rcd13ifvqdd0","pricing_plan_id":"cebpf4jnsgd1na2vs0mg"},{"bike_id":"7e3c154c-798f-455c-991e-fad574f8eaf3","system_id":"levelo_inurba_marseille","lat":43.27373,"lon":5.36268,"is_reserved":false,"is_disabled":false,"rental_uris":{"android":"levelo://app?vid=7e3c154c-798f-455c-991e-fad574f8eaf3","ios":"levelo://app?vid=7e3c154c-798f-455c-991e-fad574f8eaf3"},"vehicle_type_id":"4","last_reported":1753787405,"current_range_meters":2800,"station_id":"ce4bhbh2rcd13ifvqeo0","pricing_plan_id":"cebpf4jnsgd1na2vs0mg"},{"bike_id":"1b039ae0-bd90-4af5-b917-f9e20c56f19e","system_id":"levelo_inurba_marseille","lat":43.29901,"lon":5.3864,"is_reserved":false,"is_disabled":true,"rental_uris":{"android":"levelo://app?vid=1b039ae0-bd90-4af5-b917-f9e20c56f19e","ios":"levelo://app?vid=1b039ae0-bd90-4af5-b917-f9e20c56f19e"},"vehicle_type_id":"4","last_reported":1753787405,"current_range_meters":3200,"station_id":"","pricing_plan_id":"cebpf4jnsgd1na2vs0mg"},{"bike_id":"57d2148b-4900-48dc-9253-f8ca7d2e9d8a","system_id":"levelo_inurba_marseille","lat":43.303122,"lon":5.405017,"is_reserved":false,"is_disabled":false,"rental_uris":{"android":"levelo://app?vid=57d2148b-4900-48dc-9253-f8ca7d2e9d8a","ios":"levelo://app?vid=57d2148b-4900-48dc-9253-f8ca7d2e9d8a"},"vehicle_type_id":"4","last_reported":1753787405,"current_range_meters":3600,"station_id":"","pricing_plan_id":"cebpf4jnsgd1na2vs0mg"},{"bike_id":"750133cc-45fb-4ac5-a564-ff3a62d87f34","system_id":"levelo_inurba_marseille","lat":43.28702,"lon":5.37384,"is_reserved":false,"is_disabled":false,"rental_uris":{"android":"levelo://app?vid=750133cc-45fb-4ac5-a564-ff3a62d87f34","ios":"levelo://app?vid=750133cc-45fb-4ac5-a564-ff3a62d87f34"},"vehicle_type_id":"4","last_reported":1753787405,"current_range_meters":3600,"station_id":"ce4bh3p2rcd13ifvqdq0","pricing_plan_id":"cebpf4jnsgd1na2vs0mg"},{"bike_id":"dfac72e4-1c98-494a-83a7-e89aa61e3eaf","system_id":"levelo_inurba_marseille","lat":43.28932,"lon":5.36639,"is_reserved":false,"is_disabled":false,"rental_uris":{"android":"levelo://app?vid=dfac72e4-1c98-494a-83a7-e89aa61e3eaf","ios":"levelo://app?vid=dfac72e4-1c98-494a-83a7-e89aa61e3eaf"},"vehicle_type_id":"4","last_reported":1753787405,"current_range_meters":3600,"station_id":"ce4bhap2rcd13ifvqek0","pricing_plan_id":"cebpf4jnsgd1na2vs0mg"},{"bike_id":"16c6ac9b-1f47-4108-9866-f88d1f2ebac1","system_id":"levelo_inurba_marseille","lat":43.23139,"lon":5.43771,"is_reserved":false,"is_disabled":false,"rental_uris":{"android":"levelo://app?vid=16c6ac9b-1f47-4108-9866-f88d1f2ebac1","ios":"levelo://app?vid=16c6ac9b-1f47-4108-9866-f88d1f2ebac1"},"vehicle_type_id":"4","last_reported":1753787405,"current_range_meters":4000,"station_id":"","pricing_plan_id":"cebpf4jnsgd1na2vs0mg"},{"bike_id":"c566fac1-bdc0-44b4-b51d-6079acd80ddc","system_id":"levelo_inurba_marseille","lat":43.32287,"lon":5.38279,"is_reserved":false,"is_disabled":false,"rental_uris":{"android":"levelo://app?vid=c566fac1-bdc0-44b4-b51d-6079acd80ddc","ios":"levelo://app?vid=c566fac1-bdc0-44b4-b51d-6079acd80ddc"},"vehicle_type_id":"4","last_reported":1753787405,"current_range_meters":4400,"station_id":"ce4bhr12rcd13ifvqhqg","pricing_plan_id":"cebpf4jnsgd1na2vs0mg"},{"bike_id":"716f8e05-fc3a-40f5-8daf-695c1f201892","system_id":"levelo_inurba_marseille","lat":43.27321,"lon":5.3908,"is_reserved":false,"is_disabled":false,"rental_uris":{"android":"levelo://app?vid=716f8e05-fc3a-40f5-8daf-695c1f201892","ios":"levelo://app?vid=716f8e05-fc3a-40f5-8daf-695c1f201892"},"vehicle_type_id":"4","last_reported":1753787405,"current_range_meters":4400,"station_id":"ce4bhgp2rcd13ifvqfe0","pricing_plan_id":"cebpf4jnsgd1na2vs0mg"},{"bike_id":"ee815b08-2ddb-4bd6-9fd7-c003555d3965","system_id":"levelo_inurba_marseille","lat":43.31107,"lon":5.37798,"is_reserved":false,"is_disabled":false,"rental_uris":{"android":"levelo://app?vid=ee815b08-2ddb-4bd6-9fd7-c003555d3965","ios":"levelo://app?vid=ee815b08-2ddb-4bd6-9fd7-c003555d3965"},"vehicle_type_id":"4","last_reported":1753787405,"current_range_meters":4800,"station_id":"ce4bgt92rcd13ifvqcg0","pricing_plan_id":"cebpf4jnsgd1na2vs0mg"},{"bike_id":"53229dac-5aa3-4369-b0a1-b97b4ad5ef77","system_id":"levelo_inurba_marseille","lat":43.307945,"lon":5.376472,"is_reserved":false,"is_disabled":false,"rental_uris":{"android":"levelo://app?vid=53229dac-5aa3-4369-b0a1-b97b4ad5ef77","ios":"levelo://app?vid=53229dac-5aa3-4369-b0a1-b97b4ad5ef77"},"vehicle_type_id":"4","last_reported":1753787405,"current_range_meters":4800,"station_id":"ce4bgv92rcd13ifvqcq0","pricing_plan_id":"cebpf4jnsgd1na2vs0mg"},{"bike_id":"da0dea9a-07a2-4249-aa7c-2489e28d40de","system_id":"levelo_inurba_marseille","lat":43.296764,"lon":5.362219,"is_reserved":false,"is_disabled":false,"rental_uris":{"android":"levelo://app?vid=da0dea9a-07a2-4249-aa7c-2489e28d40de","ios":"levelo://app?vid=da0dea9a-07a2-4249-aa7c-2489e28d40de"},"vehicle_type_id":"4","last_reported":1753787405,"current_range_meters":5600,"station_id":"","pricing_plan_id":"cebpf4jnsgd1na2vs0mg"},{"bike_id":"ef6c4923-93cf-4f03-81d4-df7c02753599","system_id":"levelo_inurba_marseille","lat":43.30355,"lon":5.41881,"is_reserved":false,"is_disabled":false,"rental_uris":{"android":"levelo://app?vid=ef6c4923-93cf-4f03-81d4-df7c02753599","ios":"levelo://app?vid=ef6c4923-93cf-4f03-81d4-df7c02753599"},"vehicle_type_id":"4","last_reported":1753787405,"current_range_meters":4800,"station_id":"ce4bhop2rcd13ifvqh7g","pricing_plan_id":"cebpf4jnsgd1na2vs0mg"},{"bike_id":"5a67886b-2f40-46df-b0be-1179491cb0a7","system_id":"levelo_inurba_marseille","lat":43.299683,"lon":5.386239,"is_reserved":false,"is_disabled":false,"rental_uris":{"android":"levelo://app?vid=5a67886b-2f40-46df-b0be-1179491cb0a7","ios":"levelo://app?vid=5a67886b-2f40-46df-b0be-1179491cb0a7"},"vehicle_type_id":"4","last_reported":1753787405,"current_range_meters":6000,"station_id":"","pricing_plan_id":"cebpf4jnsgd1na2vs0mg"},{"bike_id":"e81defb4-2beb-40d1-8cac-d4b2f2c5f7cf","system_id":"levelo_inurba_marseille","lat":43.3234,"lon":5.40613,"is_reserved":false,"is_disabled":false,"rental_uris":{"android":"levelo://app?vid=e81defb4-2beb-40d1-8cac-d4b2f2c5f7cf","ios":"levelo://app?vid=e81defb4-2beb-40d1-8cac-d4b2f2c5f7cf"},"vehicle_type_id":"4","last_reported":1753787405,"current_range_meters":6000,"station_id":"ce4bhq92rcd13ifvqhjg","pricing_plan_id":"cebpf4jnsgd1na2vs0mg"},{"bike_id":"4c2cb473-87d7-4f4f-b049-712ee2ede05a","system_id":"levelo_inurba_marseille","lat":43.29004,"lon":5.35628,"is_reserved":false,"is_disabled":true,"rental_uris":{"android":"levelo://app?vid=4c2cb473-87d7-4f4f-b049-712ee2ede05a","ios":"levelo://app?vid=4c2cb473-87d7-4f4f-b049-712ee2ede05a"},"vehicle_type_id":"4","last_reported":1753787405,"current_range_meters":6000,"station_id":"ce4bhb92rcd13ifvqen0","pricing_plan_id":"cebpf4jnsgd1na2vs0mg"},{"bike_id":"8d48a5eb-b088-4ca9-a4ec-9397ac74df39","system_id":"levelo_inurba_marseille","lat":43.24175,"lon":5.39742,"is_reserved":false,"is_disabled":false,"rental_uris":{"android":"levelo://app?vid=8d48a5eb-b088-4ca9-a4ec-9397ac74df39","ios":"levelo://app?vid=8d48a5eb-b088-4ca9-a4ec-9397ac74df39"},"vehicle_type_id":"4","last_reported":1753787405,"current_range_meters":6400,"station_id":"ce4bhn12rcd13ifvqgpg","pricing_plan_id":"cebpf4jnsgd1na2vs0mg"},{"bike_id":"9937ba95-7ab1-4821-8d90-dcb8bf369733","system_id":"levelo_inurba_marseille","lat":43.29314,"lon":5.37035,"is_reserved":false,"is_disabled":false,"rental_uris":{"android":"levelo://app?vid=9937ba95-7ab1-4821-8d90-dcb8bf369733","ios":"levelo://app?vid=9937ba95-7ab1-4821-8d90-dcb8bf369733"},"vehicle_type_id":"4","last_reported":1753787405,"current_range_meters":6400,"station_id":"","pricing_plan_id":"cebpf4jnsgd1na2vs0mg"},{"bike_id":"6cb11f4f-f451-4a1b-a7c5-61054d6b97f6","system_id":"levelo_inurba_marseille","lat":43.23651,"lon":5.40952,"is_reserved":false,"is_disabled":false,"rental_uris":{"android":"levelo://app?vid=6cb11f4f-f451-4a1b-a7c5-61054d6b97f6","ios":"levelo://app?vid=6cb11f4f-f451-4a1b-a7c5-61054d6b97f6"},"vehicle_type_id":"4","last_reported":1753787405,"current_range_meters":6400,"station_id":"","pricing_plan_id":"cebpf4jnsgd1na2vs0mg"},{"bike_id":"fb45cff3-08fa-4cc9-bf53-0d8295f6b8d1","system_id":"levelo_inurba_marseille","lat":43.27874,"lon":5.4283,"is_reserved":false,"is_disabled":false,"rental_uris":{"android":"levelo://app?vid=fb45cff3-08fa-4cc9-bf53-0d8295f6b8d1","ios":"levelo://app?vid=fb45cff3-08fa-4cc9-bf53-0d8295f6b8d1"},"vehicle_type_id":"4","last_reported":1753787405,"current_range_meters":6800,"station_id":"","pricing_plan_id":"cebpf4jnsgd1na2vs0mg"},{"bike_id":"4e6652d1-064c-4e7b-8c35-703fdb1f144a","system_id":"levelo_inurba_marseille","lat":43.284,"lon":5.37514,"is_reserved":false,"is_disabled":false,"rental_uris":{"android":"levelo://app?vid=4e6652d1-064c-4e7b-8c35-703fdb1f144a","ios":"levelo://app?vid=4e6652d1-064c-4e7b-8c35-703fdb1f144a"},"vehicle_type_id":"4","last_reported":1753787405,"current_range_meters":6800,"station_id":"ce4bh412rcd13ifvqds0","pricing_plan_id":"cebpf4jnsgd1na2vs0mg"},{"bike_id":"0ac90e99-5d28-4813-a26e-3fcb012f1acb","system_id":"levelo_inurba_marseille","lat":43.22518,"lon":5.34793,"is_reserved":false,"is_disabled":false,"rental_uris":{"android":"levelo://app?vid=0ac90e99-5d28-4813-a26e-3fcb012f1acb","ios":"levelo://app?vid=0ac90e99-5d28-4813-a26e-3fcb012f1acb"},"vehicle_type_id":"4","last_reported":1753787405,"current_range_meters":6800,"station_id":"st_cvj5dfep6f1abm77gieg","pricing_plan_id":"cebpf4jnsgd1na2vs0mg"},{"bike_id":"90f1c87e-a44c-49dd-b860-fffe0942040d","system_id":"levelo_inurba_marseille","lat":43.272457,"lon":5.391294,"is_reserved":false,"is_disabled":false,"rental_uris":{"android":"levelo://app?vid=90f1c87e-a44c-49dd-b860-fffe0942040d","ios":"levelo://app?vid=90f1c87e-a44c-49dd-b860-fffe0942040d"},"vehicle_type_id":"4","last_reported":1753787405,"current_range_meters":6800,"station_id":"ce4bhdp2rcd13ifvqf20","pricing_plan_id":"cebpf4jnsgd1na2vs0mg"},{"bike_id":"3152576e-d602-4c3f-980e-717f41aed773","system_id":"levelo_inurba_marseille","lat":43.33737,"lon":5.37465,"is_reserved":false,"is_disabled":false,"rental_uris":{"android":"levelo://app?vid=3152576e-d602-4c3f-980e-717f41aed773","ios":"levelo://app?vid=3152576e-d602-4c3f-980e-717f41aed773"},"vehicle_type_id":"4","last_reported":1753787405,"current_range_meters":6800,"station_id":"","pricing_plan_id":"cebpf4jnsgd1na2vs0mg"},{"bike_id":"019501f5-4eaa-4845-895f-9abec0d71aa2","system_id":"levelo_inurba_marseille","lat":43.30466,"lon":5.37924,"is_reserved":false,"is_disabled":false,"rental_uris":{"android":"levelo://app?vid=019501f5-4eaa-4845-895f-9abec0d71aa2","ios":"levelo://app?vid=019501f5-4eaa-4845-895f-9abec0d71aa2"},"vehicle_type_id":"4","last_reported":1753787405,"current_range_meters":8000,"station_id":"ce4bgup2rcd13ifvqcn0","pricing_plan_id":"cebpf4jnsgd1na2vs0mg"},{"bike_id":"058d8cc8-62d1-4c3c-bf20-51e91f1638c6","system_id":"levelo_inurba_marseille","lat":43.289734,"lon":5.39774,"is_reserved":false,"is_disabled":false,"rental_uris":{"android":"levelo://app?vid=058d8cc8-62d1-4c3c-bf20-51e91f1638c6","ios":"levelo://app?vid=058d8cc8-62d1-4c3c-bf20-51e91f1638c6"},"vehicle_type_id":"4","last_reported":1753787405,"current_range_meters":8400,"station_id":"ce4bh392rcd13ifvqdm0","pricing_plan_id":"cebpf4jnsgd1na2vs0mg"},{"bike_id":"f33c36f7-2a48-435d-a3f9-42272441c5de","system_id":"levelo_inurba_marseille","lat":43.3091,"lon":5.36872,"is_reserved":false,"is_disabled":false,"rental_uris":{"android":"levelo://app?vid=f33c36f7-2a48-435d-a3f9-42272441c5de","ios":"levelo://app?vid=f33c36f7-2a48-435d-a3f9-42272441c5de"},"vehicle_type_id":"4","last_reported":1753787405,"current_range_meters":8000,"station_id":"ce4bgn92rcd13ifvqbvg","pricing_plan_id":"cebpf4jnsgd1na2vs0mg"},{"bike_id":"f078f85b-29cc-469a-b7a1-13876bebe32b","system_id":"levelo_inurba_marseille","lat":43.29592,"lon":5.36767,"is_reserved":false,"is_disabled":false,"rental_uris":{"android":"levelo://app?vid=f078f85b-29cc-469a-b7a1-13876bebe32b","ios":"levelo://app?vid=f078f85b-29cc-469a-b7a1-13876bebe32b"},"vehicle_type_id":"4","last_reported":1753787405,"current_range_meters":8000,"station_id":"ce4bgph2rcd13ifvqc2g","pricing_plan_id":"cebpf4jnsgd1na2vs0mg"},{"bike_id":"23cfb924-47e6-41f6-969b-b87903b972c1","system_id":"levelo_inurba_marseille","lat":43.22516,"lon":5.34793,"is_reserved":false,"is_disabled":false,"rental_uris":{"android":"levelo://app?vid=23cfb924-47e6-41f6-969b-b87903b972c1","ios":"levelo://app?vid=23cfb924-47e6-41f6-969b-b87903b972c1"},"vehicle_type_id":"4","last_reported":1753787405,"current_range_meters":8400,"station_id":"st_cvj5dfep6f1abm77gieg","pricing_plan_id":"cebpf4jnsgd1na2vs0mg"},{"bike_id":"c4783560-bf3d-48ba-b051-8b8d0ef48af7","system_id":"levelo_inurba_marseille","lat":43.32481,"lon":5.36573,"is_reserved":false,"is_disabled":false,"rental_uris":{"android":"levelo://app?vid=c4783560-bf3d-48ba-b051-8b8d0ef48af7","ios":"levelo://app?vid=c4783560-bf3d-48ba-b051-8b8d0ef48af7"},"vehicle_type_id":"4","last_reported":1753787405,"current_range_meters":8000,"station_id":"ce4bhs12rcd13ifvqhvg","pricing_plan_id":"cebpf4jnsgd1na2vs0mg"},{"bike_id":"88e40541-b2e8-4985-b1b7-5b6b4fc6951e","system_id":"levelo_inurba_marseille","lat":43.23054,"lon":5.35498,"is_reserved":false,"is_disabled":false,"rental_uris":{"android":"levelo://app?vid=88e40541-b2e8-4985-b1b7-5b6b4fc6951e","ios":"levelo://app?vid=88e40541-b2e8-4985-b1b7-5b6b4fc6951e"},"vehicle_type_id":"4","last_reported":1753787405,"current_range_meters":8400,"station_id":"cpo3342slgdg3j2ifvpg","pricing_plan_id":"cebpf4jnsgd1na2vs0mg"},{"bike_id":"8bf2129d-0df0-4a35-ba38-615c802fc22c","system_id":"levelo_inurba_marseille","lat":43.27303,"lon":5.39068,"is_reserved":false,"is_disabled":false,"rental_uris":{"android":"levelo://app?vid=8bf2129d-0df0-4a35-ba38-615c802fc22c","ios":"levelo://app?vid=8bf2129d-0df0-4a35-ba38-615c802fc22c"},"vehicle_type_id":"4","last_reported":1753787405,"current_range_meters":8400,"station_id":"ce4bhgp2rcd13ifvqfe0","pricing_plan_id":"cebpf4jnsgd1na2vs0mg"},{"bike_id":"e9eea2c9-cbb7-44cc-9d46-fd664121710e","system_id":"levelo_inurba_marseille","lat":43.2558,"lon":5.38232,"is_reserved":false,"is_disabled":false,"rental_uris":{"android":"levelo://app?vid=e9eea2c9-cbb7-44cc-9d46-fd664121710e","ios":"levelo://app?vid=e9eea2c9-cbb7-44cc-9d46-fd664121710e"},"vehicle_type_id":"4","last_reported":1753787405,"current_range_meters":8400,"station_id":"ce4bhih2rcd13ifvqfs0","pricing_plan_id":"cebpf4jnsgd1na2vs0mg"},{"bike_id":"f12b9382-480f-4638-a50b-a0ab6d0fcb7b","system_id":"levelo_inurba_marseille","lat":43.23152,"lon":5.43709,"is_reserved":false,"is_disabled":false,"rental_uris":{"android":"levelo://app?vid=f12b9382-480f-4638-a50b-a0ab6d0fcb7b","ios":"levelo://app?vid=f12b9382-480f-4638-a50b-a0ab6d0fcb7b"},"vehicle_type_id":"4","last_reported":1753787405,"current_range_meters":8800,"station_id":"ce4bhmp2rcd13ifvqgog","pricing_plan_id":"cebpf4jnsgd1na2vs0mg"},{"bike_id":"80915a30-ef88-4d81-b5d1-969d1c17a42d","system_id":"levelo_inurba_marseille","lat":43.30434,"lon":5.40819,"is_reserved":false,"is_disabled":false,"rental_uris":{"android":"levelo://app?vid=80915a30-ef88-4d81-b5d1-969d1c17a42d","ios":"levelo://app?vid=80915a30-ef88-4d81-b5d1-969d1c17a42d"},"vehicle_type_id":"4","last_reported":1753787405,"current_range_meters":8800,"station_id":"","pricing_plan_id":"cebpf4jnsgd1na2vs0mg"},{"bike_id":"8e37ef79-bd01-46c2-9d9e-3d3f7741a07a","system_id":"levelo_inurba_marseille","lat":43.297302,"lon":5.374166,"is_reserved":false,"is_disabled":false,"rental_uris":{"android":"levelo://app?vid=8e37ef79-bd01-46c2-9d9e-3d3f7741a07a","ios":"levelo://app?vid=8e37ef79-bd01-46c2-9d9e-3d3f7741a07a"},"vehicle_type_id":"4","last_reported":1753787405,"current_range_meters":8800,"station_id":"","pricing_plan_id":"cebpf4jnsgd1na2vs0mg"},{"bike_id":"70c0f9fc-43ef-4a4d-a9a0-e4cfdb5495bd","system_id":"levelo_inurba_marseille","lat":43.28259,"lon":5.35077,"is_reserved":false,"is_disabled":false,"rental_uris":{"android":"levelo://app?vid=70c0f9fc-43ef-4a4d-a9a0-e4cfdb5495bd","ios":"levelo://app?vid=70c0f9fc-43ef-4a4d-a9a0-e4cfdb5495bd"},"vehicle_type_id":"4","last_reported":1753787405,"current_range_meters":8800,"station_id":"ce4bhbp2rcd13ifvqerg","pricing_plan_id":"cebpf4jnsgd1na2vs0mg"},{"bike_id":"3efe99ad-0b45-4c18-92ca-96f6cb43a670","system_id":"levelo_inurba_marseille","lat":43.32376,"lon":5.36729,"is_reserved":false,"is_disabled":false,"rental_uris":{"android":"levelo://app?vid=3efe99ad-0b45-4c18-92ca-96f6cb43a670","ios":"levelo://app?vid=3efe99ad-0b45-4c18-92ca-96f6cb43a670"},"vehicle_type_id":"4","last_reported":1753787405,"current_range_meters":8800,"station_id":"ce4bhsh2rcd13ifvqi2g","pricing_plan_id":"cebpf4jnsgd1na2vs0mg"},{"bike_id":"84036e62-78c0-42e9-a5c2-ad3d3703bc8c","system_id":"levelo_inurba_marseille","lat":43.279621,"lon":5.410517,"is_reserved":false,"is_disabled":true,"rental_uris":{"android":"levelo://app?vid=84036e62-78c0-42e9-a5c2-ad3d3703bc8c","ios":"levelo://app?vid=84036e62-78c0-42e9-a5c2-ad3d3703bc8c"},"vehicle_type_id":"4","last_reported":1753787405,"current_range_meters":8800,"station_id":"ce4bhnp2rcd13ifvqh0g","pricing_plan_id":"cebpf4jnsgd1na2vs0mg"},{"bike_id":"35d4431a-83ad-4f70-a807-8dec1887248c","system_id":"levelo_inurba_marseille","lat":43.27082,"lon":5.42279,"is_reserved":false,"is_disabled":false,"rental_uris":{"android":"levelo://app?vid=35d4431a-83ad-4f70-a807-8dec1887248c","ios":"levelo://app?vid=35d4431a-83ad-4f70-a807-8dec1887248c"},"vehicle_type_id":"4","last_reported":1753787405,"current_range_meters":8800,"station_id":"ce4bhk92rcd13ifvqgb0","pricing_plan_id":"cebpf4jnsgd1na2vs0mg"},{"bike_id":"3a3caf90-66e2-4c21-a978-9bf2be33ba52","system_id":"levelo_inurba_marseille","lat":43.31277,"lon":5.40173,"is_reserved":false,"is_disabled":false,"rental_uris":{"android":"levelo://app?vid=3a3caf90-66e2-4c21-a978-9bf2be33ba52","ios":"levelo://app?vid=3a3caf90-66e2-4c21-a978-9bf2be33ba52"},"vehicle_type_id":"4","last_reported":1753787405,"current_range_meters":8400,"station_id":"ce4bh092rcd13ifvqd30","pricing_plan_id":"cebpf4jnsgd1na2vs0mg"},{"bike_id":"6aa8e4b8-ed68-4266-8bbe-12d0be5acd52","system_id":"levelo_inurba_marseille","lat":43.22922,"lon":5.35373,"is_reserved":false,"is_disabled":false,"rental_uris":{"android":"levelo://app?vid=6aa8e4b8-ed68-4266-8bbe-12d0be5acd52","ios":"levelo://app?vid=6aa8e4b8-ed68-4266-8bbe-12d0be5acd52"},"vehicle_type_id":"4","last_reported":1753787405,"current_range_meters":8800,"station_id":"cpo3532slgdg3j2ikp40","pricing_plan_id":"cebpf4jnsgd1na2vs0mg"},{"bike_id":"209c73e6-1f69-4d13-9fed-77cb46eecd05","system_id":"levelo_inurba_marseille","lat":43.34681,"lon":5.38065,"is_reserved":false,"is_disabled":false,"rental_uris":{"android":"levelo://app?vid=209c73e6-1f69-4d13-9fed-77cb46eecd05","ios":"levelo://app?vid=209c73e6-1f69-4d13-9fed-77cb46eecd05"},"vehicle_type_id":"4","last_reported":1753787405,"current_range_meters":8800,"station_id":"","pricing_plan_id":"cebpf4jnsgd1na2vs0mg"},{"bike_id":"6b68e271-8900-46dd-b7bf-f83d3e9118f7","system_id":"levelo_inurba_marseille","lat":43.28037,"lon":5.36953,"is_reserved":false,"is_disabled":false,"rental_uris":{"android":"levelo://app?vid=6b68e271-8900-46dd-b7bf-f83d3e9118f7","ios":"levelo://app?vid=6b68e271-8900-46dd-b7bf-f83d3e9118f7"},"vehicle_type_id":"4","last_reported":1753787405,"current_range_meters":9200,"station_id":"ce4bha12rcd13ifvqef0","pricing_plan_id":"cebpf4jnsgd1na2vs0mg"},{"bike_id":"05cbfde1-bc8b-4494-8924-fea2291ddb1f","system_id":"levelo_inurba_marseille","lat":43.29551,"lon":5.36634,"is_reserved":false,"is_disabled":false,"rental_uris":{"android":"levelo://app?vid=05cbfde1-bc8b-4494-8924-fea2291ddb1f","ios":"levelo://app?vid=05cbfde1-bc8b-4494-8924-fea2291ddb1f"},"vehicle_type_id":"4","last_reported":1753787405,"current_range_meters":9200,"station_id":"","pricing_plan_id":"cebpf4jnsgd1na2vs0mg"},{"bike_id":"37fcf059-83b8-4b6e-bc28-0c83f77e3c05","system_id":"levelo_inurba_marseille","lat":43.337444,"lon":5.374475,"is_reserved":false,"is_disabled":false,"rental_uris":{"android":"levelo://app?vid=37fcf059-83b8-4b6e-bc28-0c83f77e3c05","ios":"levelo://app?vid=37fcf059-83b8-4b6e-bc28-0c83f77e3c05"},"vehicle_type_id":"4","last_reported":1753787405,"current_range_meters":9200,"station_id":"","pricing_plan_id":"cebpf4jnsgd1na2vs0mg"},{"bike_id":"95dd70e4-879c-49e7-b318-a6c71b22a43e","system_id":"levelo_inurba_marseille","lat":43.2703,"lon":5.39295,"is_reserved":false,"is_disabled":false,"rental_uris":{"android":"levelo://app?vid=95dd70e4-879c-49e7-b318-a6c71b22a43e","ios":"levelo://app?vid=95dd70e4-879c-49e7-b318-a6c71b22a43e"},"vehicle_type_id":"4","last_reported":1753787405,"current_range_meters":9200,"station_id":"","pricing_plan_id":"cebpf4jnsgd1na2vs0mg"},{"bike_id":"65e3db07-f188-422b-b687-3d06cfe2bcf8","system_id":"levelo_inurba_marseille","lat":43.280429,"lon":5.350093,"is_reserved":false,"is_disabled":false,"rental_uris":{"android":"levelo://app?vid=65e3db07-f188-422b-b687-3d06cfe2bcf8","ios":"levelo://app?vid=65e3db07-f188-422b-b687-3d06cfe2bcf8"},"vehicle_type_id":"4","last_reported":1753787405,"current_range_meters":9200,"station_id":"","pricing_plan_id":"cebpf4jnsgd1na2vs0mg"},{"bike_id":"b8c3ef43-ad58-470f-894d-2ceb6375f3bd","system_id":"levelo_inurba_marseille","lat":43.29009,"lon":5.35613,"is_reserved":false,"is_disabled":true,"rental_uris":{"android":"levelo://app?vid=b8c3ef43-ad58-470f-894d-2ceb6375f3bd","ios":"levelo://app?vid=b8c3ef43-ad58-470f-894d-2ceb6375f3bd"},"vehicle_type_id":"4","last_reported":1753787405,"current_range_meters":9200,"station_id":"ce4bhb92rcd13ifvqen0","pricing_plan_id":"cebpf4jnsgd1na2vs0mg"},{"bike_id":"3dddabfb-566b-4525-981e-f94e9915ce4e","system_id":"levelo_inurba_marseille","lat":43.23147,"lon":5.43724,"is_reserved":false,"is_disabled":false,"rental_uris":{"android":"levelo://app?vid=3dddabfb-566b-4525-981e-f94e9915ce4e","ios":"levelo://app?vid=3dddabfb-566b-4525-981e-f94e9915ce4e"},"vehicle_type_id":"4","last_reported":1753787405,"current_range_meters":9200,"station_id":"ce4bhmp2rcd13ifvqgog","pricing_plan_id":"cebpf4jnsgd1na2vs0mg"},{"bike_id":"86eb531b-567c-4693-a0fb-c56320721de5","system_id":"levelo_inurba_marseille","lat":43.29367,"lon":5.378555,"is_reserved":false,"is_disabled":false,"rental_uris":{"android":"levelo://app?vid=86eb531b-567c-4693-a0fb-c56320721de5","ios":"levelo://app?vid=86eb531b-567c-4693-a0fb-c56320721de5"},"vehicle_type_id":"4","last_reported":1753787405,"current_range_meters":9600,"station_id":"ce4bh2p2rcd13ifvqdi0","pricing_plan_id":"cebpf4jnsgd1na2vs0mg"},{"bike_id":"24e4fbdb-edb3-4f7d-8c37-f4ec34322a64","system_id":"levelo_inurba_marseille","lat":43.308924,"lon":5.371955,"is_reserved":false,"is_disabled":false,"rental_uris":{"android":"levelo://app?vid=24e4fbdb-edb3-4f7d-8c37-f4ec34322a64","ios":"levelo://app?vid=24e4fbdb-edb3-4f7d-8c37-f4ec34322a64"},"vehicle_type_id":"4","last_reported":1753787405,"current_range_meters":9600,"station_id":"ce4bguh2rcd13ifvqckg","pricing_plan_id":"cebpf4jnsgd1na2vs0mg"},{"bike_id":"03cd89bf-db6a-491e-bf67-262348118398","system_id":"levelo_inurba_marseille","lat":43.23961,"lon":5.36623,"is_reserved":false,"is_disabled":false,"rental_uris":{"android":"levelo://app?vid=03cd89bf-db6a-491e-bf67-262348118398","ios":"levelo://app?vid=03cd89bf-db6a-491e-bf67-262348118398"},"vehicle_type_id":"4","last_reported":1753787405,"current_range_meters":9200,"station_id":"ce4bhi12rcd13ifvqfp0","pricing_plan_id":"cebpf4jnsgd1na2vs0mg"},{"bike_id":"149fbe11-3bce-47a0-b584-c7c7bd6bb12f","system_id":"levelo_inurba_marseille","lat":43.21601,"lon":5.34418,"is_reserved":false,"is_disabled":false,"rental_uris":{"android":"levelo://app?vid=149fbe11-3bce-47a0-b584-c7c7bd6bb12f","ios":"levelo://app?vid=149fbe11-3bce-47a0-b584-c7c7bd6bb12f"},"vehicle_type_id":"4","last_reported":1753787405,"current_range_meters":9600,"station_id":"","pricing_plan_id":"cebpf4jnsgd1na2vs0mg"},{"bike_id":"e5b26c21-1b4a-435e-a38b-e212c1d2f7a9","system_id":"levelo_inurba_marseille","lat":43.2972,"lon":5.37688,"is_reserved":false,"is_disabled":false,"rental_uris":{"android":"levelo://app?vid=e5b26c21-1b4a-435e-a38b-e212c1d2f7a9","ios":"levelo://app?vid=e5b26c21-1b4a-435e-a38b-e212c1d2f7a9"},"vehicle_type_id":"4","last_reported":1753787405,"current_range_meters":9600,"station_id":"ce4bgkh2rcd13ifvqbl0","pricing_plan_id":"cebpf4jnsgd1na2vs0mg"},{"bike_id":"2f6ee565-31e0-47cd-8193-c7ca68a19abb","system_id":"levelo_inurba_marseille","lat":43.337444,"lon":5.374475,"is_reserved":false,"is_disabled":true,"rental_uris":{"android":"levelo://app?vid=2f6ee565-31e0-47cd-8193-c7ca68a19abb","ios":"levelo://app?vid=2f6ee565-31e0-47cd-8193-c7ca68a19abb"},"vehicle_type_id":"4","last_reported":1753787405,"current_range_meters":10000,"station_id":"","pricing_plan_id":"cebpf4jnsgd1na2vs0mg"},{"bike_id":"76e6b1f7-80f7-45a6-a22e-7403c9386896","system_id":"levelo_inurba_marseille","lat":43.28403,"lon":5.37515,"is_reserved":false,"is_disabled":false,"rental_uris":{"android":"levelo://app?vid=76e6b1f7-80f7-45a6-a22e-7403c9386896","ios":"levelo://app?vid=76e6b1f7-80f7-45a6-a22e-7403c9386896"},"vehicle_type_id":"4","last_reported":1753787405,"current_range_meters":9600,"station_id":"ce4bh412rcd13ifvqds0","pricing_plan_id":"cebpf4jnsgd1na2vs0mg"},{"bike_id":"af5d0ad4-b8ea-4903-8d2f-c257f6c058fd","system_id":"levelo_inurba_marseille","lat":43.26218,"lon":5.37436,"is_reserved":false,"is_disabled":false,"rental_uris":{"android":"levelo://app?vid=af5d0ad4-b8ea-4903-8d2f-c257f6c058fd","ios":"levelo://app?vid=af5d0ad4-b8ea-4903-8d2f-c257f6c058fd"},"vehicle_type_id":"4","last_reported":1753787405,"current_range_meters":10000,"station_id":"ce4bhgp2rcd13ifvqfc0","pricing_plan_id":"cebpf4jnsgd1na2vs0mg"},{"bike_id":"f3c141e9-0add-4850-b520-3542c9199a19","system_id":"levelo_inurba_marseille","lat":43.22931,"lon":5.35377,"is_reserved":false,"is_disabled":false,"rental_uris":{"android":"levelo://app?vid=f3c141e9-0add-4850-b520-3542c9199a19","ios":"levelo://app?vid=f3c141e9-0add-4850-b520-3542c9199a19"},"vehicle_type_id":"4","last_reported":1753787405,"current_range_meters":10000,"station_id":"cpo3532slgdg3j2ikp40","pricing_plan_id":"cebpf4jnsgd1na2vs0mg"},{"bike_id":"fd144613-88c1-41d1-90c4-6f2da4136453","system_id":"levelo_inurba_marseille","lat":43.3038,"lon":5.42492,"is_reserved":false,"is_disabled":false,"rental_uris":{"android":"levelo://app?vid=fd144613-88c1-41d1-90c4-6f2da4136453","ios":"levelo://app?vid=fd144613-88c1-41d1-90c4-6f2da4136453"},"vehicle_type_id":"4","last_reported":1753787405,"current_range_meters":10000,"station_id":"ce4bhoh2rcd13ifvqh6g","pricing_plan_id":"cebpf4jnsgd1na2vs0mg"},{"bike_id":"e0ce0053-71c4-4b07-8b9e-379e7ce2bf22","system_id":"levelo_inurba_marseille","lat":43.302737,"lon":5.397977,"is_reserved":false,"is_disabled":false,"rental_uris":{"android":"levelo://app?vid=e0ce0053-71c4-4b07-8b9e-379e7ce2bf22","ios":"levelo://app?vid=e0ce0053-71c4-4b07-8b9e-379e7ce2bf22"},"vehicle_type_id":"4","last_reported":1753787405,"current_range_meters":10000,"station_id":"","pricing_plan_id":"cebpf4jnsgd1na2vs0mg"},{"bike_id":"e047debc-3909-43e5-b5e0-266ada42aef2","system_id":"levelo_inurba_marseille","lat":43.28273,"lon":5.35063,"is_reserved":false,"is_disabled":false,"rental_uris":{"android":"levelo://app?vid=e047debc-3909-43e5-b5e0-266ada42aef2","ios":"levelo://app?vid=e047debc-3909-43e5-b5e0-266ada42aef2"},"vehicle_type_id":"4","last_reported":1753787405,"current_range_meters":10000,"station_id":"ce4bhbp2rcd13ifvqerg","pricing_plan_id":"cebpf4jnsgd1na2vs0mg"},{"bike_id":"c13ce413-660f-4ff8-9547-d17d0704485e","system_id":"levelo_inurba_marseille","lat":43.21189,"lon":5.35062,"is_reserved":false,"is_disabled":false,"rental_uris":{"android":"levelo://app?vid=c13ce413-660f-4ff8-9547-d17d0704485e","ios":"levelo://app?vid=c13ce413-660f-4ff8-9547-d17d0704485e"},"vehicle_type_id":"4","last_reported":1753787405,"current_range_meters":10800,"station_id":"","pricing_plan_id":"cebpf4jnsgd1na2vs0mg"},{"bike_id":"3c6d990b-d853-4774-9e68-ab11c54c28bf","system_id":"levelo_inurba_marseille","lat":43.28409,"lon":5.35001,"is_reserved":false,"is_disabled":false,"rental_uris":{"android":"levelo://app?vid=3c6d990b-d853-4774-9e68-ab11c54c28bf","ios":"levelo://app?vid=3c6d990b-d853-4774-9e68-ab11c54c28bf"},"vehicle_type_id":"4","last_reported":1753787405,"current_range_meters":10800,"station_id":"ce4bhbh2rcd13ifvqepg","pricing_plan_id":"cebpf4jnsgd1na2vs0mg"},{"bike_id":"c5d6c16c-667e-4c61-9e09-b5efae6e86bc","system_id":"levelo_inurba_marseille","lat":43.29906,"lon":5.43658,"is_reserved":false,"is_disabled":false,"rental_uris":{"android":"levelo://app?vid=c5d6c16c-667e-4c61-9e09-b5efae6e86bc","ios":"levelo://app?vid=c5d6c16c-667e-4c61-9e09-b5efae6e86bc"},"vehicle_type_id":"4","last_reported":1753787405,"current_range_meters":10800,"station_id":"ce4bhpp2rcd13ifvqhfg","pricing_plan_id":"cebpf4jnsgd1na2vs0mg"},{"bike_id":"f90806a9-2490-4da0-9be8-c22ecb2b0c24","system_id":"levelo_inurba_marseille","lat":43.30186,"lon":5.36609,"is_reserved":false,"is_disabled":false,"rental_uris":{"android":"levelo://app?vid=f90806a9-2490-4da0-9be8-c22ecb2b0c24","ios":"levelo://app?vid=f90806a9-2490-4da0-9be8-c22ecb2b0c24"},"vehicle_type_id":"4","last_reported":1753787405,"current_range_meters":10800,"station_id":"ce4bgrh2rcd13ifvqc8g","pricing_plan_id":"cebpf4jnsgd1na2vs0mg"},{"bike_id":"52fa2f88-6678-4b0d-bdeb-77d5e9331688","system_id":"levelo_inurba_marseille","lat":43.22917,"lon":5.35369,"is_reserved":false,"is_disabled":true,"rental_uris":{"android":"levelo://app?vid=52fa2f88-6678-4b0d-bdeb-77d5e9331688","ios":"levelo://app?vid=52fa2f88-6678-4b0d-bdeb-77d5e9331688"},"vehicle_type_id":"4","last_reported":1753787405,"current_range_meters":10800,"station_id":"cpo3532slgdg3j2ikp40","pricing_plan_id":"cebpf4jnsgd1na2vs0mg"},{"bike_id":"2a3a9f20-00d1-4c95-a093-ba8e28724bc0","system_id":"levelo_inurba_marseille","lat":43.30654,"lon":5.37573,"is_reserved":false,"is_disabled":false,"rental_uris":{"android":"levelo://app?vid=2a3a9f20-00d1-4c95-a093-ba8e28724bc0","ios":"levelo://app?vid=2a3a9f20-00d1-4c95-a093-ba8e28724bc0"},"vehicle_type_id":"4","last_reported":1753787405,"current_range_meters":10800,"station_id":"","pricing_plan_id":"cebpf4jnsgd1na2vs0mg"},{"bike_id":"db135ae3-21a2-4ca3-9b62-84e33e774a1c","system_id":"levelo_inurba_marseille","lat":43.28481,"lon":5.38574,"is_reserved":false,"is_disabled":false,"rental_uris":{"android":"levelo://app?vid=db135ae3-21a2-4ca3-9b62-84e33e774a1c","ios":"levelo://app?vid=db135ae3-21a2-4ca3-9b62-84e33e774a1c"},"vehicle_type_id":"4","last_reported":1753787405,"current_range_meters":10800,"station_id":"ce4bh8p2rcd13ifvqeb0","pricing_plan_id":"cebpf4jnsgd1na2vs0mg"},{"bike_id":"962879c5-ede6-4ad1-8ad6-e3e238b6e210","system_id":"levelo_inurba_marseille","lat":43.28265,"lon":5.35067,"is_reserved":false,"is_disabled":false,"rental_uris":{"android":"levelo://app?vid=962879c5-ede6-4ad1-8ad6-e3e238b6e210","ios":"levelo://app?vid=962879c5-ede6-4ad1-8ad6-e3e238b6e210"},"vehicle_type_id":"4","last_reported":1753787405,"current_range_meters":11200,"station_id":"ce4bhbp2rcd13ifvqerg","pricing_plan_id":"cebpf4jnsgd1na2vs0mg"},{"bike_id":"e05b7ec4-d501-46b8-96ae-13cf9d00fd8e","system_id":"levelo_inurba_marseille","lat":43.23181,"lon":5.39987,"is_reserved":false,"is_disabled":false,"rental_uris":{"android":"levelo://app?vid=e05b7ec4-d501-46b8-96ae-13cf9d00fd8e","ios":"levelo://app?vid=e05b7ec4-d501-46b8-96ae-13cf9d00fd8e"},"vehicle_type_id":"4","last_reported":1753787405,"current_range_meters":11200,"station_id":"ce4bhn12rcd13ifvqgqg","pricing_plan_id":"cebpf4jnsgd1na2vs0mg"},{"bike_id":"882bdff1-651a-41c1-9ab0-596f43205cf1","system_id":"levelo_inurba_marseille","lat":43.337444,"lon":5.374475,"is_reserved":false,"is_disabled":false,"rental_uris":{"android":"levelo://app?vid=882bdff1-651a-41c1-9ab0-596f43205cf1","ios":"levelo://app?vid=882bdff1-651a-41c1-9ab0-596f43205cf1"},"vehicle_type_id":"4","last_reported":1753787405,"current_range_meters":11200,"station_id":"ce4bgkp2rcd13ifvqbmg","pricing_plan_id":"cebpf4jnsgd1na2vs0mg"},{"bike_id":"0f6db20e-be71-47fa-9788-37af1ae08fea","system_id":"levelo_inurba_marseille","lat":43.29367,"lon":5.37861,"is_reserved":false,"is_disabled":false,"rental_uris":{"android":"levelo://app?vid=0f6db20e-be71-47fa-9788-37af1ae08fea","ios":"levelo://app?vid=0f6db20e-be71-47fa-9788-37af1ae08fea"},"vehicle_type_id":"4","last_reported":1753787405,"current_range_meters":11200,"station_id":"ce4bgjh2rcd13ifvqbf0","pricing_plan_id":"cebpf4jnsgd1na2vs0mg"},{"bike_id":"20a40cc7-6b1e-49b3-8066-0bb241f80c44","system_id":"levelo_inurba_marseille","lat":43.31088,"lon":5.38537,"is_reserved":false,"is_disabled":false,"rental_uris":{"android":"levelo://app?vid=20a40cc7-6b1e-49b3-8066-0bb241f80c44","ios":"levelo://app?vid=20a40cc7-6b1e-49b3-8066-0bb241f80c44"},"vehicle_type_id":"4","last_reported":1753787405,"current_range_meters":11200,"station_id":"","pricing_plan_id":"cebpf4jnsgd1na2vs0mg"},{"bike_id":"21940e4e-6bc8-4aed-b45d-7245fb1a66c5","system_id":"levelo_inurba_marseille","lat":43.27207,"lon":5.39199,"is_reserved":false,"is_disabled":false,"rental_uris":{"android":"levelo://app?vid=21940e4e-6bc8-4aed-b45d-7245fb1a66c5","ios":"levelo://app?vid=21940e4e-6bc8-4aed-b45d-7245fb1a66c5"},"vehicle_type_id":"4","last_reported":1753787405,"current_range_meters":11200,"station_id":"ce4bhhp2rcd13ifvqfm0","pricing_plan_id":"cebpf4jnsgd1na2vs0mg"},{"bike_id":"94530bf9-23e8-4aff-985d-6e54875670df","system_id":"levelo_inurba_marseille","lat":43.30288,"lon":5.37718,"is_reserved":false,"is_disabled":false,"rental_uris":{"android":"levelo://app?vid=94530bf9-23e8-4aff-985d-6e54875670df","ios":"levelo://app?vid=94530bf9-23e8-4aff-985d-6e54875670df"},"vehicle_type_id":"4","last_reported":1753787405,"current_range_meters":11600,"station_id":"ce4bguh2rcd13ifvqcj0","pricing_plan_id":"cebpf4jnsgd1na2vs0mg"},{"bike_id":"a6b0eb47-37b7-48f1-83e0-dcf07288b039","system_id":"levelo_inurba_marseille","lat":43.29005,"lon":5.3562,"is_reserved":false,"is_disabled":false,"rental_uris":{"android":"levelo://app?vid=a6b0eb47-37b7-48f1-83e0-dcf07288b039","ios":"levelo://app?vid=a6b0eb47-37b7-48f1-83e0-dcf07288b039"},"vehicle_type_id":"4","last_reported":1753787405,"current_range_meters":11600,"station_id":"ce4bhb92rcd13ifvqen0","pricing_plan_id":"cebpf4jnsgd1na2vs0mg"},{"bike_id":"d4b0442d-37e3-4887-8827-87b59f4e9086","system_id":"levelo_inurba_marseille","lat":43.2977,"lon":5.38108,"is_reserved":false,"is_disabled":false,"rental_uris":{"android":"levelo://app?vid=d4b0442d-37e3-4887-8827-87b59f4e9086","ios":"levelo://app?vid=d4b0442d-37e3-4887-8827-87b59f4e9086"},"vehicle_type_id":"4","last_reported":1753787405,"current_range_meters":11600,"station_id":"","pricing_plan_id":"cebpf4jnsgd1na2vs0mg"},{"bike_id":"72e03784-0704-41e0-b1f1-3eacc06d2c0c","system_id":"levelo_inurba_marseille","lat":43.308776,"lon":5.371853,"is_reserved":false,"is_disabled":false,"rental_uris":{"android":"levelo://app?vid=72e03784-0704-41e0-b1f1-3eacc06d2c0c","ios":"levelo://app?vid=72e03784-0704-41e0-b1f1-3eacc06d2c0c"},"vehicle_type_id":"4","last_reported":1753787405,"current_range_meters":11600,"station_id":"ce4bguh2rcd13ifvqckg","pricing_plan_id":"cebpf4jnsgd1na2vs0mg"},{"bike_id":"d53899f2-c57b-4410-a931-68a38e9df6dd","system_id":"levelo_inurba_marseille","lat":43.3015,"lon":5.38094,"is_reserved":false,"is_disabled":false,"rental_uris":{"android":"levelo://app?vid=d53899f2-c57b-4410-a931-68a38e9df6dd","ios":"levelo://app?vid=d53899f2-c57b-4410-a931-68a38e9df6dd"},"vehicle_type_id":"4","last_reported":1753787405,"current_range_meters":11600,"station_id":"ce4bgjp2rcd13ifvqbh0","pricing_plan_id":"cebpf4jnsgd1na2vs0mg"},{"bike_id":"ca925fc2-2f2d-4856-ab96-1d6d55f0e4dc","system_id":"levelo_inurba_marseille","lat":43.284181,"lon":5.349863,"is_reserved":false,"is_disabled":false,"rental_uris":{"android":"levelo://app?vid=ca925fc2-2f2d-4856-ab96-1d6d55f0e4dc","ios":"levelo://app?vid=ca925fc2-2f2d-4856-ab96-1d6d55f0e4dc"},"vehicle_type_id":"4","last_reported":1753787405,"current_range_meters":11600,"station_id":"ce4bhbh2rcd13ifvqepg","pricing_plan_id":"cebpf4jnsgd1na2vs0mg"},{"bike_id":"8f9aa287-5fc0-4f4b-a463-f8c896a07c47","system_id":"levelo_inurba_marseille","lat":43.23154,"lon":5.43719,"is_reserved":false,"is_disabled":false,"rental_uris":{"android":"levelo://app?vid=8f9aa287-5fc0-4f4b-a463-f8c896a07c47","ios":"levelo://app?vid=8f9aa287-5fc0-4f4b-a463-f8c896a07c47"},"vehicle_type_id":"4","last_reported":1753787405,"current_range_meters":11200,"station_id":"ce4bhmp2rcd13ifvqgog","pricing_plan_id":"cebpf4jnsgd1na2vs0mg"},{"bike_id":"0938e41e-f961-425a-8c0f-36baf4215fb9","system_id":"levelo_inurba_marseille","lat":43.270695,"lon":5.422748,"is_reserved":false,"is_disabled":false,"rental_uris":{"android":"levelo://app?vid=0938e41e-f961-425a-8c0f-36baf4215fb9","ios":"levelo://app?vid=0938e41e-f961-425a-8c0f-36baf4215fb9"},"vehicle_type_id":"4","last_reported":1753787405,"current_range_meters":11600,"station_id":"ce4bhk92rcd13ifvqgb0","pricing_plan_id":"cebpf4jnsgd1na2vs0mg"},{"bike_id":"1d599ca9-96fe-4939-8af9-7954ed58ad38","system_id":"levelo_inurba_marseille","lat":43.235456,"lon":5.360198,"is_reserved":false,"is_disabled":false,"rental_uris":{"android":"levelo://app?vid=1d599ca9-96fe-4939-8af9-7954ed58ad38","ios":"levelo://app?vid=1d599ca9-96fe-4939-8af9-7954ed58ad38"},"vehicle_type_id":"4","last_reported":1753787405,"current_range_meters":12000,"station_id":"","pricing_plan_id":"cebpf4jnsgd1na2vs0mg"},{"bike_id":"9d81c361-5b7f-44dc-b0f1-1f6fccafd051","system_id":"levelo_inurba_marseille","lat":43.27977,"lon":5.4165,"is_reserved":false,"is_disabled":false,"rental_uris":{"android":"levelo://app?vid=9d81c361-5b7f-44dc-b0f1-1f6fccafd051","ios":"levelo://app?vid=9d81c361-5b7f-44dc-b0f1-1f6fccafd051"},"vehicle_type_id":"4","last_reported":1753787405,"current_range_meters":12000,"station_id":"ce4bho12rcd13ifvqh1g","pricing_plan_id":"cebpf4jnsgd1na2vs0mg"},{"bike_id":"45388ec2-015c-41a6-89f8-2443c9d299f1","system_id":"levelo_inurba_marseille","lat":43.22929,"lon":5.35386,"is_reserved":false,"is_disabled":false,"rental_uris":{"android":"levelo://app?vid=45388ec2-015c-41a6-89f8-2443c9d299f1","ios":"levelo://app?vid=45388ec2-015c-41a6-89f8-2443c9d299f1"},"vehicle_type_id":"4","last_reported":1753787405,"current_range_meters":12000,"station_id":"cpo3532slgdg3j2ikp40","pricing_plan_id":"cebpf4jnsgd1na2vs0mg"},{"bike_id":"5e45d9dd-78cf-49b3-855b-b0a1e2dd36ea","system_id":"levelo_inurba_marseille","lat":43.318998,"lon":5.407646,"is_reserved":false,"is_disabled":false,"rental_uris":{"android":"levelo://app?vid=5e45d9dd-78cf-49b3-855b-b0a1e2dd36ea","ios":"levelo://app?vid=5e45d9dd-78cf-49b3-855b-b0a1e2dd36ea"},"vehicle_type_id":"4","last_reported":1753787405,"current_range_meters":11600,"station_id":"ce4bhq12rcd13ifvqhig","pricing_plan_id":"cebpf4jnsgd1na2vs0mg"},{"bike_id":"b11f1456-4a1a-4e51-9dd4-b48933a25f68","system_id":"levelo_inurba_marseille","lat":43.25079,"lon":5.39516,"is_reserved":false,"is_disabled":false,"rental_uris":{"android":"levelo://app?vid=b11f1456-4a1a-4e51-9dd4-b48933a25f68","ios":"levelo://app?vid=b11f1456-4a1a-4e51-9dd4-b48933a25f68"},"vehicle_type_id":"4","last_reported":1753787405,"current_range_meters":12000,"station_id":"ce4bhm12rcd13ifvqgkg","pricing_plan_id":"cebpf4jnsgd1na2vs0mg"},{"bike_id":"9b98e48c-42e2-4d54-912b-177ea01acad5","system_id":"levelo_inurba_marseille","lat":43.22919,"lon":5.35374,"is_reserved":false,"is_disabled":false,"rental_uris":{"android":"levelo://app?vid=9b98e48c-42e2-4d54-912b-177ea01acad5","ios":"levelo://app?vid=9b98e48c-42e2-4d54-912b-177ea01acad5"},"vehicle_type_id":"4","last_reported":1753787405,"current_range_meters":12000,"station_id":"cpo3532slgdg3j2ikp40","pricing_plan_id":"cebpf4jnsgd1na2vs0mg"},{"bike_id":"6c7a7085-995a-4505-a68e-1bb1e2715632","system_id":"levelo_inurba_marseille","lat":43.31704,"lon":5.37771,"is_reserved":false,"is_disabled":false,"rental_uris":{"android":"levelo://app?vid=6c7a7085-995a-4505-a68e-1bb1e2715632","ios":"levelo://app?vid=6c7a7085-995a-4505-a68e-1bb1e2715632"},"vehicle_type_id":"4","last_reported":1753787405,"current_range_meters":12000,"station_id":"ce4bgth2rcd13ifvqch0","pricing_plan_id":"cebpf4jnsgd1na2vs0mg"},{"bike_id":"1276af15-a856-482f-9717-28313684abbc","system_id":"levelo_inurba_marseille","lat":43.29057,"lon":5.39992,"is_reserved":false,"is_disabled":false,"rental_uris":{"android":"levelo://app?vid=1276af15-a856-482f-9717-28313684abbc","ios":"levelo://app?vid=1276af15-a856-482f-9717-28313684abbc"},"vehicle_type_id":"4","last_reported":1753787405,"current_range_meters":12800,"station_id":"ce4bh392rcd13ifvqdm0","pricing_plan_id":"cebpf4jnsgd1na2vs0mg"},{"bike_id":"4b03818f-38c0-4721-8299-a39ad77b6df1","system_id":"levelo_inurba_marseille","lat":43.32494,"lon":5.36567,"is_reserved":false,"is_disabled":false,"rental_uris":{"android":"levelo://app?vid=4b03818f-38c0-4721-8299-a39ad77b6df1","ios":"levelo://app?vid=4b03818f-38c0-4721-8299-a39ad77b6df1"},"vehicle_type_id":"4","last_reported":1753787405,"current_range_meters":12800,"station_id":"ce4bhs12rcd13ifvqhvg","pricing_plan_id":"cebpf4jnsgd1na2vs0mg"},{"bike_id":"a3f6fcde-afcd-45f1-92b0-72893fa8786e","system_id":"levelo_inurba_marseille","lat":43.27375,"lon":5.36264,"is_reserved":false,"is_disabled":false,"rental_uris":{"android":"levelo://app?vid=a3f6fcde-afcd-45f1-92b0-72893fa8786e","ios":"levelo://app?vid=a3f6fcde-afcd-45f1-92b0-72893fa8786e"},"vehicle_type_id":"4","last_reported":1753787405,"current_range_meters":12800,"station_id":"ce4bhbh2rcd13ifvqeo0","pricing_plan_id":"cebpf4jnsgd1na2vs0mg"},{"bike_id":"05749c7e-da21-4749-aa02-9e4799816c97","system_id":"levelo_inurba_marseille","lat":43.27905,"lon":5.38002,"is_reserved":false,"is_disabled":false,"rental_uris":{"android":"levelo://app?vid=05749c7e-da21-4749-aa02-9e4799816c97","ios":"levelo://app?vid=05749c7e-da21-4749-aa02-9e4799816c97"},"vehicle_type_id":"4","last_reported":1753787405,"current_range_meters":12800,"station_id":"ce4bhf92rcd13ifvqf50","pricing_plan_id":"cebpf4jnsgd1na2vs0mg"},{"bike_id":"694e5393-eafc-473f-85e3-faab5d7b31a9","system_id":"levelo_inurba_marseille","lat":43.29626,"lon":5.37168,"is_reserved":false,"is_disabled":false,"rental_uris":{"android":"levelo://app?vid=694e5393-eafc-473f-85e3-faab5d7b31a9","ios":"levelo://app?vid=694e5393-eafc-473f-85e3-faab5d7b31a9"},"vehicle_type_id":"4","last_reported":1753787405,"current_range_meters":13600,"station_id":"ce4bgnh2rcd13ifvqc0g","pricing_plan_id":"cebpf4jnsgd1na2vs0mg"},{"bike_id":"edeebce6-e3cf-4eac-ac64-0399354a083c","system_id":"levelo_inurba_marseille","lat":43.30899,"lon":5.37194,"is_reserved":false,"is_disabled":false,"rental_uris":{"android":"levelo://app?vid=edeebce6-e3cf-4eac-ac64-0399354a083c","ios":"levelo://app?vid=edeebce6-e3cf-4eac-ac64-0399354a083c"},"vehicle_type_id":"4","last_reported":1753787405,"current_range_meters":13600,"station_id":"ce4bguh2rcd13ifvqckg","pricing_plan_id":"cebpf4jnsgd1na2vs0mg"},{"bike_id":"3b8fff58-2b8e-4e79-96f2-08e4d31023fa","system_id":"levelo_inurba_marseille","lat":43.30907,"lon":5.36879,"is_reserved":false,"is_disabled":false,"rental_uris":{"android":"levelo://app?vid=3b8fff58-2b8e-4e79-96f2-08e4d31023fa","ios":"levelo://app?vid=3b8fff58-2b8e-4e79-96f2-08e4d31023fa"},"vehicle_type_id":"4","last_reported":1753787405,"current_range_meters":13600,"station_id":"ce4bgn92rcd13ifvqbvg","pricing_plan_id":"cebpf4jnsgd1na2vs0mg"},{"bike_id":"a0757552-cef1-4156-a44e-da8e0ad06a62","system_id":"levelo_inurba_marseille","lat":43.22925,"lon":5.35393,"is_reserved":false,"is_disabled":false,"rental_uris":{"android":"levelo://app?vid=a0757552-cef1-4156-a44e-da8e0ad06a62","ios":"levelo://app?vid=a0757552-cef1-4156-a44e-da8e0ad06a62"},"vehicle_type_id":"4","last_reported":1753787405,"current_range_meters":13600,"station_id":"cpo3532slgdg3j2ikp40","pricing_plan_id":"cebpf4jnsgd1na2vs0mg"},{"bike_id":"62f5da51-1009-4002-b725-5765ccaaf3ec","system_id":"levelo_inurba_marseille","lat":43.29435,"lon":5.43259,"is_reserved":false,"is_disabled":false,"rental_uris":{"android":"levelo://app?vid=62f5da51-1009-4002-b725-5765ccaaf3ec","ios":"levelo://app?vid=62f5da51-1009-4002-b725-5765ccaaf3ec"},"vehicle_type_id":"4","last_reported":1753787405,"current_range_meters":13600,"station_id":"","pricing_plan_id":"cebpf4jnsgd1na2vs0mg"},{"bike_id":"ee584f9f-f9c7-4e8a-8373-4f3acc26809f","system_id":"levelo_inurba_marseille","lat":43.27206,"lon":5.39182,"is_reserved":false,"is_disabled":false,"rental_uris":{"android":"levelo://app?vid=ee584f9f-f9c7-4e8a-8373-4f3acc26809f","ios":"levelo://app?vid=ee584f9f-f9c7-4e8a-8373-4f3acc26809f"},"vehicle_type_id":"4","last_reported":1753787405,"current_range_meters":13600,"station_id":"ce4bhhp2rcd13ifvqfm0","pricing_plan_id":"cebpf4jnsgd1na2vs0mg"},{"bike_id":"7cf62c04-91f9-4e0a-bdd9-c677d355fb11","system_id":"levelo_inurba_marseille","lat":43.292473,"lon":5.382669,"is_reserved":false,"is_disabled":false,"rental_uris":{"android":"levelo://app?vid=7cf62c04-91f9-4e0a-bdd9-c677d355fb11","ios":"levelo://app?vid=7cf62c04-91f9-4e0a-bdd9-c677d355fb11"},"vehicle_type_id":"4","last_reported":1753787405,"current_range_meters":13600,"station_id":"","pricing_plan_id":"cebpf4jnsgd1na2vs0mg"},{"bike_id":"2155d833-2727-4638-8892-5daa0355963b","system_id":"levelo_inurba_marseille","lat":43.28416,"lon":5.3499,"is_reserved":false,"is_disabled":false,"rental_uris":{"android":"levelo://app?vid=2155d833-2727-4638-8892-5daa0355963b","ios":"levelo://app?vid=2155d833-2727-4638-8892-5daa0355963b"},"vehicle_type_id":"4","last_reported":1753787405,"current_range_meters":14000,"station_id":"ce4bhbh2rcd13ifvqepg","pricing_plan_id":"cebpf4jnsgd1na2vs0mg"},{"bike_id":"82641ba6-8d3f-4c37-98fc-43a2732b11ed","system_id":"levelo_inurba_marseille","lat":43.30915,"lon":5.36846,"is_reserved":false,"is_disabled":false,"rental_uris":{"android":"levelo://app?vid=82641ba6-8d3f-4c37-98fc-43a2732b11ed","ios":"levelo://app?vid=82641ba6-8d3f-4c37-98fc-43a2732b11ed"},"vehicle_type_id":"4","last_reported":1753787405,"current_range_meters":14000,"station_id":"ce4bgn92rcd13ifvqbvg","pricing_plan_id":"cebpf4jnsgd1na2vs0mg"},{"bike_id":"aa0f6b96-9058-40a2-88d9-cb0c74dda1fa","system_id":"levelo_inurba_marseille","lat":43.26786,"lon":5.39412,"is_reserved":false,"is_disabled":false,"rental_uris":{"android":"levelo://app?vid=aa0f6b96-9058-40a2-88d9-cb0c74dda1fa","ios":"levelo://app?vid=aa0f6b96-9058-40a2-88d9-cb0c74dda1fa"},"vehicle_type_id":"4","last_reported":1753787405,"current_range_meters":14000,"station_id":"ce4bhh12rcd13ifvqfg0","pricing_plan_id":"cebpf4jnsgd1na2vs0mg"},{"bike_id":"3d9f2061-7fb9-4387-9262-8d2451911c2b","system_id":"levelo_inurba_marseille","lat":43.22937,"lon":5.35397,"is_reserved":false,"is_disabled":false,"rental_uris":{"android":"levelo://app?vid=3d9f2061-7fb9-4387-9262-8d2451911c2b","ios":"levelo://app?vid=3d9f2061-7fb9-4387-9262-8d2451911c2b"},"vehicle_type_id":"4","last_reported":1753787405,"current_range_meters":14000,"station_id":"cpo3532slgdg3j2ikp40","pricing_plan_id":"cebpf4jnsgd1na2vs0mg"},{"bike_id":"0a5484f2-a0b8-4cea-ac01-f6c1175c309d","system_id":"levelo_inurba_marseille","lat":43.24073,"lon":5.37767,"is_reserved":false,"is_disabled":false,"rental_uris":{"android":"levelo://app?vid=0a5484f2-a0b8-4cea-ac01-f6c1175c309d","ios":"levelo://app?vid=0a5484f2-a0b8-4cea-ac01-f6c1175c309d"},"vehicle_type_id":"4","last_reported":1753787405,"current_range_meters":14400,"station_id":"ce4bhnp2rcd13ifvqgvg","pricing_plan_id":"cebpf4jnsgd1na2vs0mg"},{"bike_id":"590ece3a-e154-4543-a0a4-ffacfc78df16","system_id":"levelo_inurba_marseille","lat":43.28085,"lon":5.39654,"is_reserved":false,"is_disabled":false,"rental_uris":{"android":"levelo://app?vid=590ece3a-e154-4543-a0a4-ffacfc78df16","ios":"levelo://app?vid=590ece3a-e154-4543-a0a4-ffacfc78df16"},"vehicle_type_id":"4","last_reported":1753787405,"current_range_meters":14400,"station_id":"ce4bho12rcd13ifvqh2g","pricing_plan_id":"cebpf4jnsgd1na2vs0mg"},{"bike_id":"e137dc03-26cf-440c-b3ea-1ea522645199","system_id":"levelo_inurba_marseille","lat":43.280815,"lon":5.396626,"is_reserved":false,"is_disabled":false,"rental_uris":{"android":"levelo://app?vid=e137dc03-26cf-440c-b3ea-1ea522645199","ios":"levelo://app?vid=e137dc03-26cf-440c-b3ea-1ea522645199"},"vehicle_type_id":"4","last_reported":1753787405,"current_range_meters":14400,"station_id":"","pricing_plan_id":"cebpf4jnsgd1na2vs0mg"},{"bike_id":"5c5a65cd-e05d-45c6-a719-a72f6e62723b","system_id":"levelo_inurba_marseille","lat":43.28159,"lon":5.42651,"is_reserved":false,"is_disabled":false,"rental_uris":{"android":"levelo://app?vid=5c5a65cd-e05d-45c6-a719-a72f6e62723b","ios":"levelo://app?vid=5c5a65cd-e05d-45c6-a719-a72f6e62723b"},"vehicle_type_id":"4","last_reported":1753787405,"current_range_meters":14400,"station_id":"ce4bhnh2rcd13ifvqgug","pricing_plan_id":"cebpf4jnsgd1na2vs0mg"},{"bike_id":"4d199580-883e-4a55-b503-2f2d48122bc5","system_id":"levelo_inurba_marseille","lat":43.25935,"lon":5.4091,"is_reserved":false,"is_disabled":false,"rental_uris":{"android":"levelo://app?vid=4d199580-883e-4a55-b503-2f2d48122bc5","ios":"levelo://app?vid=4d199580-883e-4a55-b503-2f2d48122bc5"},"vehicle_type_id":"4","last_reported":1753787405,"current_range_meters":14800,"station_id":"ce4bhm92rcd13ifvqglg","pricing_plan_id":"cebpf4jnsgd1na2vs0mg"},{"bike_id":"eaa066a8-3de1-4811-9919-301c4c9745c0","system_id":"levelo_inurba_marseille","lat":43.28154,"lon":5.42643,"is_reserved":false,"is_disabled":false,"rental_uris":{"android":"levelo://app?vid=eaa066a8-3de1-4811-9919-301c4c9745c0","ios":"levelo://app?vid=eaa066a8-3de1-4811-9919-301c4c9745c0"},"vehicle_type_id":"4","last_reported":1753787405,"current_range_meters":14800,"station_id":"ce4bhnh2rcd13ifvqgug","pricing_plan_id":"cebpf4jnsgd1na2vs0mg"},{"bike_id":"6417f94c-7833-42a3-8770-bee520a8551e","system_id":"levelo_inurba_marseille","lat":43.250066,"lon":5.389358,"is_reserved":false,"is_disabled":false,"rental_uris":{"android":"levelo://app?vid=6417f94c-7833-42a3-8770-bee520a8551e","ios":"levelo://app?vid=6417f94c-7833-42a3-8770-bee520a8551e"},"vehicle_type_id":"4","last_reported":1753787405,"current_range_meters":14800,"station_id":"ce4bhgp2rcd13ifvqfd0","pricing_plan_id":"cebpf4jnsgd1na2vs0mg"},{"bike_id":"5dfabdc2-b806-44aa-94b4-47dba92b8204","system_id":"levelo_inurba_marseille","lat":43.22926,"lon":5.35395,"is_reserved":false,"is_disabled":false,"rental_uris":{"android":"levelo://app?vid=5dfabdc2-b806-44aa-94b4-47dba92b8204","ios":"levelo://app?vid=5dfabdc2-b806-44aa-94b4-47dba92b8204"},"vehicle_type_id":"4","last_reported":1753787405,"current_range_meters":14800,"station_id":"cpo3532slgdg3j2ikp40","pricing_plan_id":"cebpf4jnsgd1na2vs0mg"},{"bike_id":"75aa074a-8804-4fec-88d9-260a8abf5ca1","system_id":"levelo_inurba_marseille","lat":43.26554,"lon":5.37289,"is_reserved":false,"is_disabled":false,"rental_uris":{"android":"levelo://app?vid=75aa074a-8804-4fec-88d9-260a8abf5ca1","ios":"levelo://app?vid=75aa074a-8804-4fec-88d9-260a8abf5ca1"},"vehicle_type_id":"4","last_reported":1753787405,"current_range_meters":14800,"station_id":"ce4bhg12rcd13ifvqf70","pricing_plan_id":"cebpf4jnsgd1na2vs0mg"},{"bike_id":"68c717b4-9080-4751-9c80-831f5f0dcb85","system_id":"levelo_inurba_marseille","lat":43.24382,"lon":5.37056,"is_reserved":false,"is_disabled":false,"rental_uris":{"android":"levelo://app?vid=68c717b4-9080-4751-9c80-831f5f0dcb85","ios":"levelo://app?vid=68c717b4-9080-4751-9c80-831f5f0dcb85"},"vehicle_type_id":"4","last_reported":1753787405,"current_range_meters":14800,"station_id":"ce4bhhh2rcd13ifvqfk0","pricing_plan_id":"cebpf4jnsgd1na2vs0mg"},{"bike_id":"62e54455-0cad-476e-836b-6efe5dee6c34","system_id":"levelo_inurba_marseille","lat":43.225076,"lon":5.347842,"is_reserved":false,"is_disabled":false,"rental_uris":{"android":"levelo://app?vid=62e54455-0cad-476e-836b-6efe5dee6c34","ios":"levelo://app?vid=62e54455-0cad-476e-836b-6efe5dee6c34"},"vehicle_type_id":"4","last_reported":1753787405,"current_range_meters":14800,"station_id":"st_cvj5dfep6f1abm77gieg","pricing_plan_id":"cebpf4jnsgd1na2vs0mg"},{"bike_id":"5d5e0ed8-53a8-4dd4-81bf-ff5624b38868","system_id":"levelo_inurba_marseille","lat":43.24164,"lon":5.39679,"is_reserved":false,"is_disabled":false,"rental_uris":{"android":"levelo://app?vid=5d5e0ed8-53a8-4dd4-81bf-ff5624b38868","ios":"levelo://app?vid=5d5e0ed8-53a8-4dd4-81bf-ff5624b38868"},"vehicle_type_id":"4","last_reported":1753787405,"current_range_meters":14800,"station_id":"ce4bhn12rcd13ifvqgpg","pricing_plan_id":"cebpf4jnsgd1na2vs0mg"},{"bike_id":"242d1a11-d5a3-4aa2-a936-e67d956eb069","system_id":"levelo_inurba_marseille","lat":43.28486,"lon":5.38568,"is_reserved":false,"is_disabled":false,"rental_uris":{"android":"levelo://app?vid=242d1a11-d5a3-4aa2-a936-e67d956eb069","ios":"levelo://app?vid=242d1a11-d5a3-4aa2-a936-e67d956eb069"},"vehicle_type_id":"4","last_reported":1753787405,"current_range_meters":14800,"station_id":"ce4bh8p2rcd13ifvqeb0","pricing_plan_id":"cebpf4jnsgd1na2vs0mg"},{"bike_id":"947cf9dd-0905-42a3-aafb-8e1c05b7ea7a","system_id":"levelo_inurba_marseille","lat":43.30727,"lon":5.38405,"is_reserved":false,"is_disabled":false,"rental_uris":{"android":"levelo://app?vid=947cf9dd-0905-42a3-aafb-8e1c05b7ea7a","ios":"levelo://app?vid=947cf9dd-0905-42a3-aafb-8e1c05b7ea7a"},"vehicle_type_id":"4","last_reported":1753787405,"current_range_meters":14800,"station_id":"","pricing_plan_id":"cebpf4jnsgd1na2vs0mg"},{"bike_id":"4ffc9d79-d56a-482d-b7d9-a5892348f435","system_id":"levelo_inurba_marseille","lat":43.28408,"lon":5.35003,"is_reserved":false,"is_disabled":false,"rental_uris":{"android":"levelo://app?vid=4ffc9d79-d56a-482d-b7d9-a5892348f435","ios":"levelo://app?vid=4ffc9d79-d56a-482d-b7d9-a5892348f435"},"vehicle_type_id":"4","last_reported":1753787405,"current_range_meters":15200,"station_id":"ce4bhbh2rcd13ifvqepg","pricing_plan_id":"cebpf4jnsgd1na2vs0mg"},{"bike_id":"e8a52718-378a-42ad-924f-fc4470f369e1","system_id":"levelo_inurba_marseille","lat":43.28272,"lon":5.3507,"is_reserved":false,"is_disabled":false,"rental_uris":{"android":"levelo://app?vid=e8a52718-378a-42ad-924f-fc4470f369e1","ios":"levelo://app?vid=e8a52718-378a-42ad-924f-fc4470f369e1"},"vehicle_type_id":"4","last_reported":1753787405,"current_range_meters":15200,"station_id":"ce4bhbp2rcd13ifvqerg","pricing_plan_id":"cebpf4jnsgd1na2vs0mg"},{"bike_id":"e65acc05-153b-4942-8607-11c4ec4f142a","system_id":"levelo_inurba_marseille","lat":43.309086,"lon":5.368524,"is_reserved":false,"is_disabled":false,"rental_uris":{"android":"levelo://app?vid=e65acc05-153b-4942-8607-11c4ec4f142a","ios":"levelo://app?vid=e65acc05-153b-4942-8607-11c4ec4f142a"},"vehicle_type_id":"4","last_reported":1753787405,"current_range_meters":15200,"station_id":"ce4bgn92rcd13ifvqbvg","pricing_plan_id":"cebpf4jnsgd1na2vs0mg"},{"bike_id":"d8e6094c-0de7-412e-bab8-3969f4a35524","system_id":"levelo_inurba_marseille","lat":43.29847,"lon":5.37574,"is_reserved":false,"is_disabled":false,"rental_uris":{"android":"levelo://app?vid=d8e6094c-0de7-412e-bab8-3969f4a35524","ios":"levelo://app?vid=d8e6094c-0de7-412e-bab8-3969f4a35524"},"vehicle_type_id":"4","last_reported":1753787405,"current_range_meters":15200,"station_id":"","pricing_plan_id":"cebpf4jnsgd1na2vs0mg"},{"bike_id":"9c9b1310-07e4-4a85-8613-962f5b0526fb","system_id":"levelo_inurba_marseille","lat":43.23962,"lon":5.36635,"is_reserved":false,"is_disabled":false,"rental_uris":{"android":"levelo://app?vid=9c9b1310-07e4-4a85-8613-962f5b0526fb","ios":"levelo://app?vid=9c9b1310-07e4-4a85-8613-962f5b0526fb"},"vehicle_type_id":"4","last_reported":1753787405,"current_range_meters":14800,"station_id":"ce4bhi12rcd13ifvqfp0","pricing_plan_id":"cebpf4jnsgd1na2vs0mg"},{"bike_id":"aef2974f-280b-4206-a203-79ff9df865e1","system_id":"levelo_inurba_marseille","lat":43.239601,"lon":5.366243,"is_reserved":false,"is_disabled":false,"rental_uris":{"android":"levelo://app?vid=aef2974f-280b-4206-a203-79ff9df865e1","ios":"levelo://app?vid=aef2974f-280b-4206-a203-79ff9df865e1"},"vehicle_type_id":"4","last_reported":1753787405,"current_range_meters":15200,"station_id":"ce4bhi12rcd13ifvqfp0","pricing_plan_id":"cebpf4jnsgd1na2vs0mg"},{"bike_id":"df59e2f2-ebcb-4b5d-884c-2c743fa57461","system_id":"levelo_inurba_marseille","lat":43.28637,"lon":5.35141,"is_reserved":false,"is_disabled":false,"rental_uris":{"android":"levelo://app?vid=df59e2f2-ebcb-4b5d-884c-2c743fa57461","ios":"levelo://app?vid=df59e2f2-ebcb-4b5d-884c-2c743fa57461"},"vehicle_type_id":"4","last_reported":1753787405,"current_range_meters":16000,"station_id":"ce4bhch2rcd13ifvqeug","pricing_plan_id":"cebpf4jnsgd1na2vs0mg"},{"bike_id":"6f7ccb69-bf92-486d-92b3-1d25f0d6e17f","system_id":"levelo_inurba_marseille","lat":43.262201,"lon":5.374418,"is_reserved":false,"is_disabled":false,"rental_uris":{"android":"levelo://app?vid=6f7ccb69-bf92-486d-92b3-1d25f0d6e17f","ios":"levelo://app?vid=6f7ccb69-bf92-486d-92b3-1d25f0d6e17f"},"vehicle_type_id":"4","last_reported":1753787405,"current_range_meters":16000,"station_id":"ce4bhgp2rcd13ifvqfc0","pricing_plan_id":"cebpf4jnsgd1na2vs0mg"},{"bike_id":"b7234136-bf62-4ef1-9964-a9c43529d354","system_id":"levelo_inurba_marseille","lat":43.318162,"lon":5.394431,"is_reserved":false,"is_disabled":false,"rental_uris":{"android":"levelo://app?vid=b7234136-bf62-4ef1-9964-a9c43529d354","ios":"levelo://app?vid=b7234136-bf62-4ef1-9964-a9c43529d354"},"vehicle_type_id":"4","last_reported":1753787405,"current_range_meters":16000,"station_id":"","pricing_plan_id":"cebpf4jnsgd1na2vs0mg"},{"bike_id":"a5d21f19-a2f8-4c79-9341-84f97b97beb0","system_id":"levelo_inurba_marseille","lat":43.33404,"lon":5.40056,"is_reserved":false,"is_disabled":false,"rental_uris":{"android":"levelo://app?vid=a5d21f19-a2f8-4c79-9341-84f97b97beb0","ios":"levelo://app?vid=a5d21f19-a2f8-4c79-9341-84f97b97beb0"},"vehicle_type_id":"4","last_reported":1753787405,"current_range_meters":16000,"station_id":"","pricing_plan_id":"cebpf4jnsgd1na2vs0mg"},{"bike_id":"3b5f916d-3646-4a93-9420-4c8b1c061260","system_id":"levelo_inurba_marseille","lat":43.28411,"lon":5.34979,"is_reserved":false,"is_disabled":false,"rental_uris":{"android":"levelo://app?vid=3b5f916d-3646-4a93-9420-4c8b1c061260","ios":"levelo://app?vid=3b5f916d-3646-4a93-9420-4c8b1c061260"},"vehicle_type_id":"4","last_reported":1753787405,"current_range_meters":16000,"station_id":"ce4bhbh2rcd13ifvqepg","pricing_plan_id":"cebpf4jnsgd1na2vs0mg"},{"bike_id":"0284b153-ed18-4aff-854a-398618bd67fc","system_id":"levelo_inurba_marseille","lat":43.284336,"lon":5.349941,"is_reserved":false,"is_disabled":false,"rental_uris":{"android":"levelo://app?vid=0284b153-ed18-4aff-854a-398618bd67fc","ios":"levelo://app?vid=0284b153-ed18-4aff-854a-398618bd67fc"},"vehicle_type_id":"4","last_reported":1753787405,"current_range_meters":16000,"station_id":"ce4bhbh2rcd13ifvqepg","pricing_plan_id":"cebpf4jnsgd1na2vs0mg"},{"bike_id":"6f2e21e5-2437-4d81-b4c7-f124ffe8c6fd","system_id":"levelo_inurba_marseille","lat":43.2862,"lon":5.35108,"is_reserved":false,"is_disabled":false,"rental_uris":{"android":"levelo://app?vid=6f2e21e5-2437-4d81-b4c7-f124ffe8c6fd","ios":"levelo://app?vid=6f2e21e5-2437-4d81-b4c7-f124ffe8c6fd"},"vehicle_type_id":"4","last_reported":1753787405,"current_range_meters":16000,"station_id":"ce4bhch2rcd13ifvqeug","pricing_plan_id":"cebpf4jnsgd1na2vs0mg"},{"bike_id":"3d1c2d31-b7d6-4041-828b-3e4bd4f92106","system_id":"levelo_inurba_marseille","lat":43.30792,"lon":5.37664,"is_reserved":false,"is_disabled":true,"rental_uris":{"android":"levelo://app?vid=3d1c2d31-b7d6-4041-828b-3e4bd4f92106","ios":"levelo://app?vid=3d1c2d31-b7d6-4041-828b-3e4bd4f92106"},"vehicle_type_id":"4","last_reported":1753787405,"current_range_meters":16000,"station_id":"ce4bgv92rcd13ifvqcq0","pricing_plan_id":"cebpf4jnsgd1na2vs0mg"},{"bike_id":"a911c590-3fc3-41d8-a717-3e33faf888d9","system_id":"levelo_inurba_marseille","lat":43.25092,"lon":5.39526,"is_reserved":false,"is_disabled":false,"rental_uris":{"android":"levelo://app?vid=a911c590-3fc3-41d8-a717-3e33faf888d9","ios":"levelo://app?vid=a911c590-3fc3-41d8-a717-3e33faf888d9"},"vehicle_type_id":"4","last_reported":1753787405,"current_range_meters":16400,"station_id":"ce4bhm12rcd13ifvqgkg","pricing_plan_id":"cebpf4jnsgd1na2vs0mg"},{"bike_id":"54cb3db1-8539-44cd-beb2-e59f0ca659d4","system_id":"levelo_inurba_marseille","lat":43.26782,"lon":5.39414,"is_reserved":false,"is_disabled":false,"rental_uris":{"android":"levelo://app?vid=54cb3db1-8539-44cd-beb2-e59f0ca659d4","ios":"levelo://app?vid=54cb3db1-8539-44cd-beb2-e59f0ca659d4"},"vehicle_type_id":"4","last_reported":1753787405,"current_range_meters":16400,"station_id":"ce4bhh12rcd13ifvqfg0","pricing_plan_id":"cebpf4jnsgd1na2vs0mg"},{"bike_id":"57c25787-5337-4fe9-8a83-3851365c86d4","system_id":"levelo_inurba_marseille","lat":43.28624,"lon":5.35118,"is_reserved":false,"is_disabled":false,"rental_uris":{"android":"levelo://app?vid=57c25787-5337-4fe9-8a83-3851365c86d4","ios":"levelo://app?vid=57c25787-5337-4fe9-8a83-3851365c86d4"},"vehicle_type_id":"4","last_reported":1753787405,"current_range_meters":16400,"station_id":"ce4bhch2rcd13ifvqeug","pricing_plan_id":"cebpf4jnsgd1na2vs0mg"},{"bike_id":"d52bd79a-479d-43b4-ad86-786143dffe7c","system_id":"levelo_inurba_marseille","lat":43.31081,"lon":5.4244,"is_reserved":false,"is_disabled":false,"rental_uris":{"android":"levelo://app?vid=d52bd79a-479d-43b4-ad86-786143dffe7c","ios":"levelo://app?vid=d52bd79a-479d-43b4-ad86-786143dffe7c"},"vehicle_type_id":"4","last_reported":1753787405,"current_range_meters":16400,"station_id":"ce4bhp92rcd13ifvqhag","pricing_plan_id":"cebpf4jnsgd1na2vs0mg"},{"bike_id":"07eaa5c6-166d-4bb2-aacf-4829c97689fc","system_id":"levelo_inurba_marseille","lat":43.27915,"lon":5.39594,"is_reserved":false,"is_disabled":false,"rental_uris":{"android":"levelo://app?vid=07eaa5c6-166d-4bb2-aacf-4829c97689fc","ios":"levelo://app?vid=07eaa5c6-166d-4bb2-aacf-4829c97689fc"},"vehicle_type_id":"4","last_reported":1753787405,"current_range_meters":16400,"station_id":"ce4bhf92rcd13ifvqf40","pricing_plan_id":"cebpf4jnsgd1na2vs0mg"},{"bike_id":"e8a0c05d-7272-4138-a1f4-e9de17058e9b","system_id":"levelo_inurba_marseille","lat":43.28259,"lon":5.35072,"is_reserved":false,"is_disabled":false,"rental_uris":{"android":"levelo://app?vid=e8a0c05d-7272-4138-a1f4-e9de17058e9b","ios":"levelo://app?vid=e8a0c05d-7272-4138-a1f4-e9de17058e9b"},"vehicle_type_id":"4","last_reported":1753787405,"current_range_meters":16400,"station_id":"ce4bhbp2rcd13ifvqerg","pricing_plan_id":"cebpf4jnsgd1na2vs0mg"},{"bike_id":"f80360ba-0fe8-4b25-a649-77e551b6ca41","system_id":"levelo_inurba_marseille","lat":43.26225,"lon":5.37441,"is_reserved":false,"is_disabled":false,"rental_uris":{"android":"levelo://app?vid=f80360ba-0fe8-4b25-a649-77e551b6ca41","ios":"levelo://app?vid=f80360ba-0fe8-4b25-a649-77e551b6ca41"},"vehicle_type_id":"4","last_reported":1753787405,"current_range_meters":16400,"station_id":"ce4bhgp2rcd13ifvqfc0","pricing_plan_id":"cebpf4jnsgd1na2vs0mg"},{"bike_id":"8cf44712-23a6-417f-8aaf-b4bb013e3a06","system_id":"levelo_inurba_marseille","lat":43.2842,"lon":5.34991,"is_reserved":false,"is_disabled":false,"rental_uris":{"android":"levelo://app?vid=8cf44712-23a6-417f-8aaf-b4bb013e3a06","ios":"levelo://app?vid=8cf44712-23a6-417f-8aaf-b4bb013e3a06"},"vehicle_type_id":"4","last_reported":1753787405,"current_range_meters":16400,"station_id":"ce4bhbh2rcd13ifvqepg","pricing_plan_id":"cebpf4jnsgd1na2vs0mg"},{"bike_id":"ef65f066-de96-432a-a3bf-b1b3ad0e62a1","system_id":"levelo_inurba_marseille","lat":43.32103,"lon":5.36778,"is_reserved":false,"is_disabled":false,"rental_uris":{"android":"levelo://app?vid=ef65f066-de96-432a-a3bf-b1b3ad0e62a1","ios":"levelo://app?vid=ef65f066-de96-432a-a3bf-b1b3ad0e62a1"},"vehicle_type_id":"4","last_reported":1753787405,"current_range_meters":16400,"station_id":"ce4bhrh2rcd13ifvqhug","pricing_plan_id":"cebpf4jnsgd1na2vs0mg"},{"bike_id":"6688b234-e2ab-4042-9518-5f2fcd353a74","system_id":"levelo_inurba_marseille","lat":43.30559,"lon":5.36692,"is_reserved":false,"is_disabled":false,"rental_uris":{"android":"levelo://app?vid=6688b234-e2ab-4042-9518-5f2fcd353a74","ios":"levelo://app?vid=6688b234-e2ab-4042-9518-5f2fcd353a74"},"vehicle_type_id":"4","last_reported":1753787405,"current_range_meters":16400,"station_id":"ce4bgrp2rcd13ifvqc9g","pricing_plan_id":"cebpf4jnsgd1na2vs0mg"},{"bike_id":"6ad44a24-4533-4da0-9fd0-e52d1925d207","system_id":"levelo_inurba_marseille","lat":43.22941,"lon":5.35428,"is_reserved":false,"is_disabled":false,"rental_uris":{"android":"levelo://app?vid=6ad44a24-4533-4da0-9fd0-e52d1925d207","ios":"levelo://app?vid=6ad44a24-4533-4da0-9fd0-e52d1925d207"},"vehicle_type_id":"4","last_reported":1753787405,"current_range_meters":16800,"station_id":"cpo3532slgdg3j2ikp40","pricing_plan_id":"cebpf4jnsgd1na2vs0mg"},{"bike_id":"ab9c577b-9cc3-4d9b-9e71-2ee231744295","system_id":"levelo_inurba_marseille","lat":43.28107,"lon":5.38361,"is_reserved":false,"is_disabled":false,"rental_uris":{"android":"levelo://app?vid=ab9c577b-9cc3-4d9b-9e71-2ee231744295","ios":"levelo://app?vid=ab9c577b-9cc3-4d9b-9e71-2ee231744295"},"vehicle_type_id":"4","last_reported":1753787405,"current_range_meters":16800,"station_id":"","pricing_plan_id":"cebpf4jnsgd1na2vs0mg"},{"bike_id":"96f2817b-2168-4f43-87e5-f90384c5b505","system_id":"levelo_inurba_marseille","lat":43.23179,"lon":5.35532,"is_reserved":false,"is_disabled":false,"rental_uris":{"android":"levelo://app?vid=96f2817b-2168-4f43-87e5-f90384c5b505","ios":"levelo://app?vid=96f2817b-2168-4f43-87e5-f90384c5b505"},"vehicle_type_id":"4","last_reported":1753787405,"current_range_meters":16800,"station_id":"ce4bhu92rcd13ifvqi70","pricing_plan_id":"cebpf4jnsgd1na2vs0mg"},{"bike_id":"3890866e-14a6-4b7d-939c-2b1449234ab5","system_id":"levelo_inurba_marseille","lat":43.259398,"lon":5.409061,"is_reserved":false,"is_disabled":false,"rental_uris":{"android":"levelo://app?vid=3890866e-14a6-4b7d-939c-2b1449234ab5","ios":"levelo://app?vid=3890866e-14a6-4b7d-939c-2b1449234ab5"},"vehicle_type_id":"4","last_reported":1753787405,"current_range_meters":16800,"station_id":"ce4bhm92rcd13ifvqglg","pricing_plan_id":"cebpf4jnsgd1na2vs0mg"},{"bike_id":"3c65e3a4-d98b-4db2-8d36-951b9612ba65","system_id":"levelo_inurba_marseille","lat":43.23191,"lon":5.35562,"is_reserved":false,"is_disabled":false,"rental_uris":{"android":"levelo://app?vid=3c65e3a4-d98b-4db2-8d36-951b9612ba65","ios":"levelo://app?vid=3c65e3a4-d98b-4db2-8d36-951b9612ba65"},"vehicle_type_id":"4","last_reported":1753787405,"current_range_meters":16800,"station_id":"ce4bhu92rcd13ifvqi70","pricing_plan_id":"cebpf4jnsgd1na2vs0mg"},{"bike_id":"daabd21d-fe72-4bef-9caa-c5886e1b6fe4","system_id":"levelo_inurba_marseille","lat":43.32272,"lon":5.38692,"is_reserved":false,"is_disabled":false,"rental_uris":{"android":"levelo://app?vid=daabd21d-fe72-4bef-9caa-c5886e1b6fe4","ios":"levelo://app?vid=daabd21d-fe72-4bef-9caa-c5886e1b6fe4"},"vehicle_type_id":"4","last_reported":1753787405,"current_range_meters":16800,"station_id":"","pricing_plan_id":"cebpf4jnsgd1na2vs0mg"},{"bike_id":"3e632e67-e785-475b-93e1-b0a668624c02","system_id":"levelo_inurba_marseille","lat":43.28152,"lon":5.42662,"is_reserved":false,"is_disabled":false,"rental_uris":{"android":"levelo://app?vid=3e632e67-e785-475b-93e1-b0a668624c02","ios":"levelo://app?vid=3e632e67-e785-475b-93e1-b0a668624c02"},"vehicle_type_id":"4","last_reported":1753787405,"current_range_meters":16800,"station_id":"ce4bhnh2rcd13ifvqgug","pricing_plan_id":"cebpf4jnsgd1na2vs0mg"},{"bike_id":"9ec8faa6-a535-4fad-aa79-6cc1d20d11a0","system_id":"levelo_inurba_marseille","lat":43.33755,"lon":5.39186,"is_reserved":false,"is_disabled":false,"rental_uris":{"android":"levelo://app?vid=9ec8faa6-a535-4fad-aa79-6cc1d20d11a0","ios":"levelo://app?vid=9ec8faa6-a535-4fad-aa79-6cc1d20d11a0"},"vehicle_type_id":"4","last_reported":1753787405,"current_range_meters":17200,"station_id":"ce4bhr92rcd13ifvqhsg","pricing_plan_id":"cebpf4jnsgd1na2vs0mg"},{"bike_id":"e37eb161-fcf7-4b1c-b6d0-bf936484f52c","system_id":"levelo_inurba_marseille","lat":43.2681,"lon":5.40266,"is_reserved":false,"is_disabled":false,"rental_uris":{"android":"levelo://app?vid=e37eb161-fcf7-4b1c-b6d0-bf936484f52c","ios":"levelo://app?vid=e37eb161-fcf7-4b1c-b6d0-bf936484f52c"},"vehicle_type_id":"4","last_reported":1753787405,"current_range_meters":17200,"station_id":"ce501612rcd8frsf0b60","pricing_plan_id":"cebpf4jnsgd1na2vs0mg"},{"bike_id":"bf181d9f-b26d-4e8f-b338-ea493850dc19","system_id":"levelo_inurba_marseille","lat":43.26211,"lon":5.37444,"is_reserved":false,"is_disabled":false,"rental_uris":{"android":"levelo://app?vid=bf181d9f-b26d-4e8f-b338-ea493850dc19","ios":"levelo://app?vid=bf181d9f-b26d-4e8f-b338-ea493850dc19"},"vehicle_type_id":"4","last_reported":1753787405,"current_range_meters":17200,"station_id":"ce4bhgp2rcd13ifvqfc0","pricing_plan_id":"cebpf4jnsgd1na2vs0mg"},{"bike_id":"64d55015-af70-4bce-9f99-aaa8cb162c53","system_id":"levelo_inurba_marseille","lat":43.32504,"lon":5.36566,"is_reserved":false,"is_disabled":false,"rental_uris":{"android":"levelo://app?vid=64d55015-af70-4bce-9f99-aaa8cb162c53","ios":"levelo://app?vid=64d55015-af70-4bce-9f99-aaa8cb162c53"},"vehicle_type_id":"4","last_reported":1753787405,"current_range_meters":17200,"station_id":"ce4bhs12rcd13ifvqhvg","pricing_plan_id":"cebpf4jnsgd1na2vs0mg"},{"bike_id":"e242da77-ae60-4259-b353-85a58d103aa4","system_id":"levelo_inurba_marseille","lat":43.22928,"lon":5.35374,"is_reserved":false,"is_disabled":false,"rental_uris":{"android":"levelo://app?vid=e242da77-ae60-4259-b353-85a58d103aa4","ios":"levelo://app?vid=e242da77-ae60-4259-b353-85a58d103aa4"},"vehicle_type_id":"4","last_reported":1753787405,"current_range_meters":17200,"station_id":"cpo3532slgdg3j2ikp40","pricing_plan_id":"cebpf4jnsgd1na2vs0mg"},{"bike_id":"5f72df66-2d68-4c6e-a917-44e1dcfede98","system_id":"levelo_inurba_marseille","lat":43.22933,"lon":5.35378,"is_reserved":false,"is_disabled":false,"rental_uris":{"android":"levelo://app?vid=5f72df66-2d68-4c6e-a917-44e1dcfede98","ios":"levelo://app?vid=5f72df66-2d68-4c6e-a917-44e1dcfede98"},"vehicle_type_id":"4","last_reported":1753787405,"current_range_meters":17200,"station_id":"cpo3532slgdg3j2ikp40","pricing_plan_id":"cebpf4jnsgd1na2vs0mg"},{"bike_id":"47aa1595-7f9b-454c-b236-7e42e13fe541","system_id":"levelo_inurba_marseille","lat":43.33762,"lon":5.37414,"is_reserved":false,"is_disabled":false,"rental_uris":{"android":"levelo://app?vid=47aa1595-7f9b-454c-b236-7e42e13fe541","ios":"levelo://app?vid=47aa1595-7f9b-454c-b236-7e42e13fe541"},"vehicle_type_id":"4","last_reported":1753787405,"current_range_meters":17200,"station_id":"","pricing_plan_id":"cebpf4jnsgd1na2vs0mg"},{"bike_id":"863b2e2b-1f2d-4c94-b7fc-5e3cf1d176ec","system_id":"levelo_inurba_marseille","lat":43.32114,"lon":5.36808,"is_reserved":false,"is_disabled":false,"rental_uris":{"android":"levelo://app?vid=863b2e2b-1f2d-4c94-b7fc-5e3cf1d176ec","ios":"levelo://app?vid=863b2e2b-1f2d-4c94-b7fc-5e3cf1d176ec"},"vehicle_type_id":"4","last_reported":1753787405,"current_range_meters":17200,"station_id":"ce4bhrh2rcd13ifvqhug","pricing_plan_id":"cebpf4jnsgd1na2vs0mg"},{"bike_id":"791176c7-5b53-45c8-b4e6-2fd84fcf29cf","system_id":"levelo_inurba_marseille","lat":43.27922,"lon":5.39585,"is_reserved":false,"is_disabled":false,"rental_uris":{"android":"levelo://app?vid=791176c7-5b53-45c8-b4e6-2fd84fcf29cf","ios":"levelo://app?vid=791176c7-5b53-45c8-b4e6-2fd84fcf29cf"},"vehicle_type_id":"4","last_reported":1753787405,"current_range_meters":17200,"station_id":"ce4bhf92rcd13ifvqf40","pricing_plan_id":"cebpf4jnsgd1na2vs0mg"},{"bike_id":"583fe4cd-2e74-4e07-9efb-40c9db83ffb6","system_id":"levelo_inurba_marseille","lat":43.22945,"lon":5.35369,"is_reserved":false,"is_disabled":true,"rental_uris":{"android":"levelo://app?vid=583fe4cd-2e74-4e07-9efb-40c9db83ffb6","ios":"levelo://app?vid=583fe4cd-2e74-4e07-9efb-40c9db83ffb6"},"vehicle_type_id":"4","last_reported":1753787405,"current_range_meters":17200,"station_id":"cpo3532slgdg3j2ikp40","pricing_plan_id":"cebpf4jnsgd1na2vs0mg"},{"bike_id":"b4c74b11-a67e-40a3-9e0c-b42217416a86","system_id":"levelo_inurba_marseille","lat":43.26686,"lon":5.38285,"is_reserved":false,"is_disabled":false,"rental_uris":{"android":"levelo://app?vid=b4c74b11-a67e-40a3-9e0c-b42217416a86","ios":"levelo://app?vid=b4c74b11-a67e-40a3-9e0c-b42217416a86"},"vehicle_type_id":"4","last_reported":1753787405,"current_range_meters":17600,"station_id":"ce4bhg92rcd13ifvqf90","pricing_plan_id":"cebpf4jnsgd1na2vs0mg"},{"bike_id":"135ab1ea-fc9a-4785-9240-6bfa3adf7c7c","system_id":"levelo_inurba_marseille","lat":43.323639,"lon":5.367569,"is_reserved":false,"is_disabled":false,"rental_uris":{"android":"levelo://app?vid=135ab1ea-fc9a-4785-9240-6bfa3adf7c7c","ios":"levelo://app?vid=135ab1ea-fc9a-4785-9240-6bfa3adf7c7c"},"vehicle_type_id":"4","last_reported":1753787405,"current_range_meters":17600,"station_id":"ce4bhsh2rcd13ifvqi2g","pricing_plan_id":"cebpf4jnsgd1na2vs0mg"},{"bike_id":"23cb5642-15b1-4dff-8751-77349dab4204","system_id":"levelo_inurba_marseille","lat":43.2293,"lon":5.35377,"is_reserved":false,"is_disabled":false,"rental_uris":{"android":"levelo://app?vid=23cb5642-15b1-4dff-8751-77349dab4204","ios":"levelo://app?vid=23cb5642-15b1-4dff-8751-77349dab4204"},"vehicle_type_id":"4","last_reported":1753787405,"current_range_meters":17600,"station_id":"cpo3532slgdg3j2ikp40","pricing_plan_id":"cebpf4jnsgd1na2vs0mg"},{"bike_id":"b284b620-aa7d-4811-a5e8-71e127544b9e","system_id":"levelo_inurba_marseille","lat":43.30888,"lon":5.37201,"is_reserved":false,"is_disabled":false,"rental_uris":{"android":"levelo://app?vid=b284b620-aa7d-4811-a5e8-71e127544b9e","ios":"levelo://app?vid=b284b620-aa7d-4811-a5e8-71e127544b9e"},"vehicle_type_id":"4","last_reported":1753787405,"current_range_meters":17600,"station_id":"ce4bguh2rcd13ifvqckg","pricing_plan_id":"cebpf4jnsgd1na2vs0mg"},{"bike_id":"b48f5dd0-6dba-4454-bab2-8fe0e77c0439","system_id":"levelo_inurba_marseille","lat":43.24163,"lon":5.363965,"is_reserved":false,"is_disabled":false,"rental_uris":{"android":"levelo://app?vid=b48f5dd0-6dba-4454-bab2-8fe0e77c0439","ios":"levelo://app?vid=b48f5dd0-6dba-4454-bab2-8fe0e77c0439"},"vehicle_type_id":"4","last_reported":1753787405,"current_range_meters":17600,"station_id":"cpo36qri1sfpv3e86is0","pricing_plan_id":"cebpf4jnsgd1na2vs0mg"},{"bike_id":"ffc665ff-2440-43f9-beeb-a0f43c114d93","system_id":"levelo_inurba_marseille","lat":43.29006,"lon":5.3561,"is_reserved":false,"is_disabled":false,"rental_uris":{"android":"levelo://app?vid=ffc665ff-2440-43f9-beeb-a0f43c114d93","ios":"levelo://app?vid=ffc665ff-2440-43f9-beeb-a0f43c114d93"},"vehicle_type_id":"4","last_reported":1753787405,"current_range_meters":17200,"station_id":"ce4bhb92rcd13ifvqen0","pricing_plan_id":"cebpf4jnsgd1na2vs0mg"},{"bike_id":"00de3457-bb26-4f86-be97-d29604933a4d","system_id":"levelo_inurba_marseille","lat":43.286446,"lon":5.37177,"is_reserved":false,"is_disabled":false,"rental_uris":{"android":"levelo://app?vid=00de3457-bb26-4f86-be97-d29604933a4d","ios":"levelo://app?vid=00de3457-bb26-4f86-be97-d29604933a4d"},"vehicle_type_id":"4","last_reported":1753787405,"current_range_meters":17600,"station_id":"","pricing_plan_id":"cebpf4jnsgd1na2vs0mg"},{"bike_id":"64c0f7db-806d-4f64-9223-4dc39c52a1ee","system_id":"levelo_inurba_marseille","lat":43.29606,"lon":5.37715,"is_reserved":false,"is_disabled":false,"rental_uris":{"android":"levelo://app?vid=64c0f7db-806d-4f64-9223-4dc39c52a1ee","ios":"levelo://app?vid=64c0f7db-806d-4f64-9223-4dc39c52a1ee"},"vehicle_type_id":"4","last_reported":1753787405,"current_range_meters":18000,"station_id":"","pricing_plan_id":"cebpf4jnsgd1na2vs0mg"},{"bike_id":"ae160175-06a8-4ec4-8cd4-b0c682909b29","system_id":"levelo_inurba_marseille","lat":43.28637,"lon":5.35102,"is_reserved":false,"is_disabled":false,"rental_uris":{"android":"levelo://app?vid=ae160175-06a8-4ec4-8cd4-b0c682909b29","ios":"levelo://app?vid=ae160175-06a8-4ec4-8cd4-b0c682909b29"},"vehicle_type_id":"4","last_reported":1753787405,"current_range_meters":18000,"station_id":"ce4bhch2rcd13ifvqeug","pricing_plan_id":"cebpf4jnsgd1na2vs0mg"},{"bike_id":"6a8221ad-83c9-40bd-8997-bb175766af1b","system_id":"levelo_inurba_marseille","lat":43.2842,"lon":5.34966,"is_reserved":false,"is_disabled":false,"rental_uris":{"android":"levelo://app?vid=6a8221ad-83c9-40bd-8997-bb175766af1b","ios":"levelo://app?vid=6a8221ad-83c9-40bd-8997-bb175766af1b"},"vehicle_type_id":"4","last_reported":1753787405,"current_range_meters":18000,"station_id":"ce4bhbh2rcd13ifvqepg","pricing_plan_id":"cebpf4jnsgd1na2vs0mg"},{"bike_id":"c3f643b4-cbb2-458a-a37a-92a845005663","system_id":"levelo_inurba_marseille","lat":43.225031,"lon":5.347785,"is_reserved":false,"is_disabled":false,"rental_uris":{"android":"levelo://app?vid=c3f643b4-cbb2-458a-a37a-92a845005663","ios":"levelo://app?vid=c3f643b4-cbb2-458a-a37a-92a845005663"},"vehicle_type_id":"4","last_reported":1753787405,"current_range_meters":18000,"station_id":"","pricing_plan_id":"cebpf4jnsgd1na2vs0mg"},{"bike_id":"24ddc855-9db1-447b-8cc7-fb33f85a47fb","system_id":"levelo_inurba_marseille","lat":43.30595,"lon":5.37213,"is_reserved":false,"is_disabled":false,"rental_uris":{"android":"levelo://app?vid=24ddc855-9db1-447b-8cc7-fb33f85a47fb","ios":"levelo://app?vid=24ddc855-9db1-447b-8cc7-fb33f85a47fb"},"vehicle_type_id":"4","last_reported":1753787405,"current_range_meters":18000,"station_id":"ce4bgqh2rcd13ifvqc4g","pricing_plan_id":"cebpf4jnsgd1na2vs0mg"},{"bike_id":"a6a46ae2-d764-44ee-baf2-a76e49bd9084","system_id":"levelo_inurba_marseille","lat":43.26984,"lon":5.40308,"is_reserved":false,"is_disabled":false,"rental_uris":{"android":"levelo://app?vid=a6a46ae2-d764-44ee-baf2-a76e49bd9084","ios":"levelo://app?vid=a6a46ae2-d764-44ee-baf2-a76e49bd9084"},"vehicle_type_id":"4","last_reported":1753787405,"current_range_meters":18000,"station_id":"","pricing_plan_id":"cebpf4jnsgd1na2vs0mg"},{"bike_id":"c686771c-e4d6-4ee5-934b-f3ca190b833e","system_id":"levelo_inurba_marseille","lat":43.32765,"lon":5.39204,"is_reserved":false,"is_disabled":false,"rental_uris":{"android":"levelo://app?vid=c686771c-e4d6-4ee5-934b-f3ca190b833e","ios":"levelo://app?vid=c686771c-e4d6-4ee5-934b-f3ca190b833e"},"vehicle_type_id":"4","last_reported":1753787405,"current_range_meters":18000,"station_id":"","pricing_plan_id":"cebpf4jnsgd1na2vs0mg"},{"bike_id":"e5025d75-0be2-4ade-983e-e7b1f4a71865","system_id":"levelo_inurba_marseille","lat":43.244,"lon":5.37068,"is_reserved":false,"is_disabled":false,"rental_uris":{"android":"levelo://app?vid=e5025d75-0be2-4ade-983e-e7b1f4a71865","ios":"levelo://app?vid=e5025d75-0be2-4ade-983e-e7b1f4a71865"},"vehicle_type_id":"4","last_reported":1753787405,"current_range_meters":18800,"station_id":"ce4bhhh2rcd13ifvqfk0","pricing_plan_id":"cebpf4jnsgd1na2vs0mg"},{"bike_id":"2fad1b6f-d0b7-4211-9b9d-661d7c090096","system_id":"levelo_inurba_marseille","lat":43.29806,"lon":5.43339,"is_reserved":false,"is_disabled":false,"rental_uris":{"android":"levelo://app?vid=2fad1b6f-d0b7-4211-9b9d-661d7c090096","ios":"levelo://app?vid=2fad1b6f-d0b7-4211-9b9d-661d7c090096"},"vehicle_type_id":"4","last_reported":1753787405,"current_range_meters":18800,"station_id":"","pricing_plan_id":"cebpf4jnsgd1na2vs0mg"},{"bike_id":"97b6c739-eee4-428a-877b-29dd1d58f0da","system_id":"levelo_inurba_marseille","lat":43.30799,"lon":5.38165,"is_reserved":false,"is_disabled":false,"rental_uris":{"android":"levelo://app?vid=97b6c739-eee4-428a-877b-29dd1d58f0da","ios":"levelo://app?vid=97b6c739-eee4-428a-877b-29dd1d58f0da"},"vehicle_type_id":"4","last_reported":1753787405,"current_range_meters":18800,"station_id":"ce4bgt12rcd13ifvqce0","pricing_plan_id":"cebpf4jnsgd1na2vs0mg"},{"bike_id":"804bcebd-6204-4f37-8b85-0fefc7c5b38e","system_id":"levelo_inurba_marseille","lat":43.25721,"lon":5.41114,"is_reserved":false,"is_disabled":false,"rental_uris":{"android":"levelo://app?vid=804bcebd-6204-4f37-8b85-0fefc7c5b38e","ios":"levelo://app?vid=804bcebd-6204-4f37-8b85-0fefc7c5b38e"},"vehicle_type_id":"4","last_reported":1753787405,"current_range_meters":18800,"station_id":"ce4bhkp2rcd13ifvqgd0","pricing_plan_id":"cebpf4jnsgd1na2vs0mg"},{"bike_id":"e69bcd02-3737-403a-8168-1f3bfdebcf91","system_id":"levelo_inurba_marseille","lat":43.27223,"lon":5.39195,"is_reserved":false,"is_disabled":false,"rental_uris":{"android":"levelo://app?vid=e69bcd02-3737-403a-8168-1f3bfdebcf91","ios":"levelo://app?vid=e69bcd02-3737-403a-8168-1f3bfdebcf91"},"vehicle_type_id":"4","last_reported":1753787405,"current_range_meters":18800,"station_id":"ce4bhhp2rcd13ifvqfm0","pricing_plan_id":"cebpf4jnsgd1na2vs0mg"},{"bike_id":"9334f34a-980a-401c-82f4-9a8b79f8762a","system_id":"levelo_inurba_marseille","lat":43.32487,"lon":5.36582,"is_reserved":false,"is_disabled":false,"rental_uris":{"android":"levelo://app?vid=9334f34a-980a-401c-82f4-9a8b79f8762a","ios":"levelo://app?vid=9334f34a-980a-401c-82f4-9a8b79f8762a"},"vehicle_type_id":"4","last_reported":1753787405,"current_range_meters":18800,"station_id":"ce4bhs12rcd13ifvqhvg","pricing_plan_id":"cebpf4jnsgd1na2vs0mg"},{"bike_id":"e7a548be-cab7-42f7-9bdc-e660ec352b7b","system_id":"levelo_inurba_marseille","lat":43.31175,"lon":5.38713,"is_reserved":false,"is_disabled":false,"rental_uris":{"android":"levelo://app?vid=e7a548be-cab7-42f7-9bdc-e660ec352b7b","ios":"levelo://app?vid=e7a548be-cab7-42f7-9bdc-e660ec352b7b"},"vehicle_type_id":"4","last_reported":1753787405,"current_range_meters":18800,"station_id":"ce4bgv12rcd13ifvqcp0","pricing_plan_id":"cebpf4jnsgd1na2vs0mg"},{"bike_id":"e7de88d3-956c-4705-bd60-a71051af6aa9","system_id":"levelo_inurba_marseille","lat":43.28253,"lon":5.35071,"is_reserved":false,"is_disabled":false,"rental_uris":{"android":"levelo://app?vid=e7de88d3-956c-4705-bd60-a71051af6aa9","ios":"levelo://app?vid=e7de88d3-956c-4705-bd60-a71051af6aa9"},"vehicle_type_id":"4","last_reported":1753787405,"current_range_meters":18800,"station_id":"ce4bhbp2rcd13ifvqerg","pricing_plan_id":"cebpf4jnsgd1na2vs0mg"},{"bike_id":"90f41e46-fc72-43e7-a6f0-916b8726bef3","system_id":"levelo_inurba_marseille","lat":43.30137,"lon":5.3742,"is_reserved":false,"is_disabled":false,"rental_uris":{"android":"levelo://app?vid=90f41e46-fc72-43e7-a6f0-916b8726bef3","ios":"levelo://app?vid=90f41e46-fc72-43e7-a6f0-916b8726bef3"},"vehicle_type_id":"4","last_reported":1753787405,"current_range_meters":18800,"station_id":"ce4bgs92rcd13ifvqcc0","pricing_plan_id":"cebpf4jnsgd1na2vs0mg"},{"bike_id":"26727fb1-4146-4963-ab61-9ce646685cbc","system_id":"levelo_inurba_marseille","lat":43.285804,"lon":5.395233,"is_reserved":false,"is_disabled":false,"rental_uris":{"android":"levelo://app?vid=26727fb1-4146-4963-ab61-9ce646685cbc","ios":"levelo://app?vid=26727fb1-4146-4963-ab61-9ce646685cbc"},"vehicle_type_id":"4","last_reported":1753787405,"current_range_meters":18800,"station_id":"ce4bh292rcd13ifvqdg0","pricing_plan_id":"cebpf4jnsgd1na2vs0mg"},{"bike_id":"4a603a1b-8916-4ee3-a7f2-c2bcbd917399","system_id":"levelo_inurba_marseille","lat":43.26559,"lon":5.37284,"is_reserved":false,"is_disabled":false,"rental_uris":{"android":"levelo://app?vid=4a603a1b-8916-4ee3-a7f2-c2bcbd917399","ios":"levelo://app?vid=4a603a1b-8916-4ee3-a7f2-c2bcbd917399"},"vehicle_type_id":"4","last_reported":1753787405,"current_range_meters":18800,"station_id":"ce4bhg12rcd13ifvqf70","pricing_plan_id":"cebpf4jnsgd1na2vs0mg"},{"bike_id":"6f865df7-db91-4988-aa46-abb1a28dea07","system_id":"levelo_inurba_marseille","lat":43.2694,"lon":5.40285,"is_reserved":false,"is_disabled":false,"rental_uris":{"android":"levelo://app?vid=6f865df7-db91-4988-aa46-abb1a28dea07","ios":"levelo://app?vid=6f865df7-db91-4988-aa46-abb1a28dea07"},"vehicle_type_id":"4","last_reported":1753787405,"current_range_meters":18800,"station_id":"cjm6bp8fraef2m0cb0m0","pricing_plan_id":"cebpf4jnsgd1na2vs0mg"},{"bike_id":"5aae0171-8e81-41e3-9059-0b6db07bd8e8","system_id":"levelo_inurba_marseille","lat":43.28422,"lon":5.34992,"is_reserved":false,"is_disabled":false,"rental_uris":{"android":"levelo://app?vid=5aae0171-8e81-41e3-9059-0b6db07bd8e8","ios":"levelo://app?vid=5aae0171-8e81-41e3-9059-0b6db07bd8e8"},"vehicle_type_id":"4","last_reported":1753787405,"current_range_meters":18800,"station_id":"ce4bhbh2rcd13ifvqepg","pricing_plan_id":"cebpf4jnsgd1na2vs0mg"},{"bike_id":"915513aa-2ef0-4e1b-9aa3-73608a47efab","system_id":"levelo_inurba_marseille","lat":43.22498,"lon":5.34821,"is_reserved":false,"is_disabled":false,"rental_uris":{"android":"levelo://app?vid=915513aa-2ef0-4e1b-9aa3-73608a47efab","ios":"levelo://app?vid=915513aa-2ef0-4e1b-9aa3-73608a47efab"},"vehicle_type_id":"4","last_reported":1753787405,"current_range_meters":18800,"station_id":"st_cvj5dfep6f1abm77gieg","pricing_plan_id":"cebpf4jnsgd1na2vs0mg"},{"bike_id":"527f0562-2364-4f39-82f7-089d8e3d3705","system_id":"levelo_inurba_marseille","lat":43.31077,"lon":5.3836,"is_reserved":false,"is_disabled":false,"rental_uris":{"android":"levelo://app?vid=527f0562-2364-4f39-82f7-089d8e3d3705","ios":"levelo://app?vid=527f0562-2364-4f39-82f7-089d8e3d3705"},"vehicle_type_id":"4","last_reported":1753787405,"current_range_meters":18800,"station_id":"ce4bgv92rcd13ifvqcr0","pricing_plan_id":"cebpf4jnsgd1na2vs0mg"},{"bike_id":"82d57d4c-66e6-4f12-a6c5-1ed406f2a5ea","system_id":"levelo_inurba_marseille","lat":43.30883,"lon":5.36915,"is_reserved":false,"is_disabled":false,"rental_uris":{"android":"levelo://app?vid=82d57d4c-66e6-4f12-a6c5-1ed406f2a5ea","ios":"levelo://app?vid=82d57d4c-66e6-4f12-a6c5-1ed406f2a5ea"},"vehicle_type_id":"4","last_reported":1753787405,"current_range_meters":18800,"station_id":"ce4bgn92rcd13ifvqbvg","pricing_plan_id":"cebpf4jnsgd1na2vs0mg"},{"bike_id":"e160a4fd-6d8f-49bd-b928-7a8011b4a799","system_id":"levelo_inurba_marseille","lat":43.28272,"lon":5.35082,"is_reserved":false,"is_disabled":false,"rental_uris":{"android":"levelo://app?vid=e160a4fd-6d8f-49bd-b928-7a8011b4a799","ios":"levelo://app?vid=e160a4fd-6d8f-49bd-b928-7a8011b4a799"},"vehicle_type_id":"4","last_reported":1753787405,"current_range_meters":18800,"station_id":"ce4bhbp2rcd13ifvqerg","pricing_plan_id":"cebpf4jnsgd1na2vs0mg"},{"bike_id":"7d63cf5a-0da2-4b18-a94a-562fda8ccf0c","system_id":"levelo_inurba_marseille","lat":43.241709,"lon":5.364154,"is_reserved":false,"is_disabled":false,"rental_uris":{"android":"levelo://app?vid=7d63cf5a-0da2-4b18-a94a-562fda8ccf0c","ios":"levelo://app?vid=7d63cf5a-0da2-4b18-a94a-562fda8ccf0c"},"vehicle_type_id":"4","last_reported":1753787405,"current_range_meters":18800,"station_id":"cpo36qri1sfpv3e86is0","pricing_plan_id":"cebpf4jnsgd1na2vs0mg"},{"bike_id":"6c40ec02-1921-499d-8c43-12f25ee6244b","system_id":"levelo_inurba_marseille","lat":43.24087,"lon":5.37745,"is_reserved":false,"is_disabled":false,"rental_uris":{"android":"levelo://app?vid=6c40ec02-1921-499d-8c43-12f25ee6244b","ios":"levelo://app?vid=6c40ec02-1921-499d-8c43-12f25ee6244b"},"vehicle_type_id":"4","last_reported":1753787405,"current_range_meters":18800,"station_id":"ce4bhnp2rcd13ifvqgvg","pricing_plan_id":"cebpf4jnsgd1na2vs0mg"},{"bike_id":"c8c12418-d1dd-47f7-bf81-77edbbc90f99","system_id":"levelo_inurba_marseille","lat":43.26936,"lon":5.3892,"is_reserved":false,"is_disabled":false,"rental_uris":{"android":"levelo://app?vid=c8c12418-d1dd-47f7-bf81-77edbbc90f99","ios":"levelo://app?vid=c8c12418-d1dd-47f7-bf81-77edbbc90f99"},"vehicle_type_id":"4","last_reported":1753787405,"current_range_meters":19200,"station_id":"ce4bhhh2rcd13ifvqfl0","pricing_plan_id":"cebpf4jnsgd1na2vs0mg"},{"bike_id":"b993bb90-3c32-47d1-996b-183f0d73d78a","system_id":"levelo_inurba_marseille","lat":43.29982,"lon":5.37184,"is_reserved":false,"is_disabled":false,"rental_uris":{"android":"levelo://app?vid=b993bb90-3c32-47d1-996b-183f0d73d78a","ios":"levelo://app?vid=b993bb90-3c32-47d1-996b-183f0d73d78a"},"vehicle_type_id":"4","last_reported":1753787405,"current_range_meters":19200,"station_id":"ce4bgr92rcd13ifvqc7g","pricing_plan_id":"cebpf4jnsgd1na2vs0mg"},{"bike_id":"3b0fc468-0f53-43b2-bdc9-2accbf6297e5","system_id":"levelo_inurba_marseille","lat":43.29664,"lon":5.379215,"is_reserved":false,"is_disabled":false,"rental_uris":{"android":"levelo://app?vid=3b0fc468-0f53-43b2-bdc9-2accbf6297e5","ios":"levelo://app?vid=3b0fc468-0f53-43b2-bdc9-2accbf6297e5"},"vehicle_type_id":"4","last_reported":1753787405,"current_range_meters":19200,"station_id":"","pricing_plan_id":"cebpf4jnsgd1na2vs0mg"},{"bike_id":"84e51e5d-4014-4ce8-bba7-884d9c6fb693","system_id":"levelo_inurba_marseille","lat":43.27058,"lon":5.40289,"is_reserved":false,"is_disabled":false,"rental_uris":{"android":"levelo://app?vid=84e51e5d-4014-4ce8-bba7-884d9c6fb693","ios":"levelo://app?vid=84e51e5d-4014-4ce8-bba7-884d9c6fb693"},"vehicle_type_id":"4","last_reported":1753787405,"current_range_meters":19200,"station_id":"ce4bhk92rcd13ifvqgc0","pricing_plan_id":"cebpf4jnsgd1na2vs0mg"},{"bike_id":"b44d763b-4f92-4731-b76a-85ebcd91acd5","system_id":"levelo_inurba_marseille","lat":43.3022,"lon":5.37172,"is_reserved":false,"is_disabled":false,"rental_uris":{"android":"levelo://app?vid=b44d763b-4f92-4731-b76a-85ebcd91acd5","ios":"levelo://app?vid=b44d763b-4f92-4731-b76a-85ebcd91acd5"},"vehicle_type_id":"4","last_reported":1753787405,"current_range_meters":19200,"station_id":"","pricing_plan_id":"cebpf4jnsgd1na2vs0mg"},{"bike_id":"94701e02-c6f1-443a-81ad-610be4f78b1d","system_id":"levelo_inurba_marseille","lat":43.28119,"lon":5.38933,"is_reserved":false,"is_disabled":false,"rental_uris":{"android":"levelo://app?vid=94701e02-c6f1-443a-81ad-610be4f78b1d","ios":"levelo://app?vid=94701e02-c6f1-443a-81ad-610be4f78b1d"},"vehicle_type_id":"4","last_reported":1753787405,"current_range_meters":19200,"station_id":"","pricing_plan_id":"cebpf4jnsgd1na2vs0mg"},{"bike_id":"11a1b103-3025-4e7c-a909-8ea3cfd36f8f","system_id":"levelo_inurba_marseille","lat":43.32373,"lon":5.38932,"is_reserved":false,"is_disabled":false,"rental_uris":{"android":"levelo://app?vid=11a1b103-3025-4e7c-a909-8ea3cfd36f8f","ios":"levelo://app?vid=11a1b103-3025-4e7c-a909-8ea3cfd36f8f"},"vehicle_type_id":"4","last_reported":1753787405,"current_range_meters":19200,"station_id":"ce4bhqp2rcd13ifvqhog","pricing_plan_id":"cebpf4jnsgd1na2vs0mg"},{"bike_id":"347541b0-e2f3-42c7-96f4-367904768e18","system_id":"levelo_inurba_marseille","lat":43.27493,"lon":5.4246,"is_reserved":false,"is_disabled":false,"rental_uris":{"android":"levelo://app?vid=347541b0-e2f3-42c7-96f4-367904768e18","ios":"levelo://app?vid=347541b0-e2f3-42c7-96f4-367904768e18"},"vehicle_type_id":"4","last_reported":1753787405,"current_range_meters":19200,"station_id":"ce4bhn92rcd13ifvqgrg","pricing_plan_id":"cebpf4jnsgd1na2vs0mg"},{"bike_id":"17b23f6f-8523-4ede-9192-841d6e39ec2d","system_id":"levelo_inurba_marseille","lat":43.31252,"lon":5.39519,"is_reserved":false,"is_disabled":false,"rental_uris":{"android":"levelo://app?vid=17b23f6f-8523-4ede-9192-841d6e39ec2d","ios":"levelo://app?vid=17b23f6f-8523-4ede-9192-841d6e39ec2d"},"vehicle_type_id":"4","last_reported":1753787405,"current_range_meters":19200,"station_id":"","pricing_plan_id":"cebpf4jnsgd1na2vs0mg"},{"bike_id":"91e17399-d936-4f93-a978-801e80f8b687","system_id":"levelo_inurba_marseille","lat":43.23202,"lon":5.35552,"is_reserved":false,"is_disabled":false,"rental_uris":{"android":"levelo://app?vid=91e17399-d936-4f93-a978-801e80f8b687","ios":"levelo://app?vid=91e17399-d936-4f93-a978-801e80f8b687"},"vehicle_type_id":"4","last_reported":1753787405,"current_range_meters":19200,"station_id":"ce4bhu92rcd13ifvqi70","pricing_plan_id":"cebpf4jnsgd1na2vs0mg"},{"bike_id":"4077ec11-50f2-45c8-ab63-bd5c0ed0a661","system_id":"levelo_inurba_marseille","lat":43.243972,"lon":5.37088,"is_reserved":false,"is_disabled":false,"rental_uris":{"android":"levelo://app?vid=4077ec11-50f2-45c8-ab63-bd5c0ed0a661","ios":"levelo://app?vid=4077ec11-50f2-45c8-ab63-bd5c0ed0a661"},"vehicle_type_id":"4","last_reported":1753787405,"current_range_meters":19200,"station_id":"ce4bhhh2rcd13ifvqfk0","pricing_plan_id":"cebpf4jnsgd1na2vs0mg"},{"bike_id":"eb952cf2-233f-4a8c-845f-c16fd19dc94c","system_id":"levelo_inurba_marseille","lat":43.30216,"lon":5.366352,"is_reserved":false,"is_disabled":false,"rental_uris":{"android":"levelo://app?vid=eb952cf2-233f-4a8c-845f-c16fd19dc94c","ios":"levelo://app?vid=eb952cf2-233f-4a8c-845f-c16fd19dc94c"},"vehicle_type_id":"4","last_reported":1753787405,"current_range_meters":19600,"station_id":"ce4bgrh2rcd13ifvqc8g","pricing_plan_id":"cebpf4jnsgd1na2vs0mg"},{"bike_id":"170bd474-3f79-4551-a082-50b691d68071","system_id":"levelo_inurba_marseille","lat":43.30532,"lon":5.38423,"is_reserved":false,"is_disabled":false,"rental_uris":{"android":"levelo://app?vid=170bd474-3f79-4551-a082-50b691d68071","ios":"levelo://app?vid=170bd474-3f79-4551-a082-50b691d68071"},"vehicle_type_id":"4","last_reported":1753787405,"current_range_meters":19200,"station_id":"ce4bgg92rcd13ifvqb30","pricing_plan_id":"cebpf4jnsgd1na2vs0mg"},{"bike_id":"cec25c7e-8720-4574-875c-71a6c18d01b4","system_id":"levelo_inurba_marseille","lat":43.29246,"lon":5.37635,"is_reserved":false,"is_disabled":false,"rental_uris":{"android":"levelo://app?vid=cec25c7e-8720-4574-875c-71a6c18d01b4","ios":"levelo://app?vid=cec25c7e-8720-4574-875c-71a6c18d01b4"},"vehicle_type_id":"4","last_reported":1753787405,"current_range_meters":19600,"station_id":"ce4bgi12rcd13ifvqb80","pricing_plan_id":"cebpf4jnsgd1na2vs0mg"},{"bike_id":"493d6243-ea49-4643-8281-55e01db72414","system_id":"levelo_inurba_marseille","lat":43.306,"lon":5.37237,"is_reserved":false,"is_disabled":false,"rental_uris":{"android":"levelo://app?vid=493d6243-ea49-4643-8281-55e01db72414","ios":"levelo://app?vid=493d6243-ea49-4643-8281-55e01db72414"},"vehicle_type_id":"4","last_reported":1753787405,"current_range_meters":19600,"station_id":"ce4bgqh2rcd13ifvqc4g","pricing_plan_id":"cebpf4jnsgd1na2vs0mg"},{"bike_id":"8edefcb3-9329-458b-8234-434cb41db09a","system_id":"levelo_inurba_marseille","lat":43.27212,"lon":5.39186,"is_reserved":false,"is_disabled":false,"rental_uris":{"android":"levelo://app?vid=8edefcb3-9329-458b-8234-434cb41db09a","ios":"levelo://app?vid=8edefcb3-9329-458b-8234-434cb41db09a"},"vehicle_type_id":"4","last_reported":1753787405,"current_range_meters":19600,"station_id":"ce4bhhp2rcd13ifvqfm0","pricing_plan_id":"cebpf4jnsgd1na2vs0mg"},{"bike_id":"5ff7b424-be72-460e-9279-c80ac3b388ac","system_id":"levelo_inurba_marseille","lat":43.2319,"lon":5.40005,"is_reserved":false,"is_disabled":false,"rental_uris":{"android":"levelo://app?vid=5ff7b424-be72-460e-9279-c80ac3b388ac","ios":"levelo://app?vid=5ff7b424-be72-460e-9279-c80ac3b388ac"},"vehicle_type_id":"4","last_reported":1753787405,"current_range_meters":19600,"station_id":"ce4bhn12rcd13ifvqgqg","pricing_plan_id":"cebpf4jnsgd1na2vs0mg"},{"bike_id":"4bf24824-712e-4879-9aea-8a3178a74908","system_id":"levelo_inurba_marseille","lat":43.28146,"lon":5.42646,"is_reserved":false,"is_disabled":false,"rental_uris":{"android":"levelo://app?vid=4bf24824-712e-4879-9aea-8a3178a74908","ios":"levelo://app?vid=4bf24824-712e-4879-9aea-8a3178a74908"},"vehicle_type_id":"4","last_reported":1753787405,"current_range_meters":19600,"station_id":"ce4bhnh2rcd13ifvqgug","pricing_plan_id":"cebpf4jnsgd1na2vs0mg"},{"bike_id":"47dc9e4e-4d92-427b-97d0-9b60d0c8e269","system_id":"levelo_inurba_marseille","lat":43.23958,"lon":5.36631,"is_reserved":false,"is_disabled":false,"rental_uris":{"android":"levelo://app?vid=47dc9e4e-4d92-427b-97d0-9b60d0c8e269","ios":"levelo://app?vid=47dc9e4e-4d92-427b-97d0-9b60d0c8e269"},"vehicle_type_id":"4","last_reported":1753787405,"current_range_meters":19200,"station_id":"ce4bhi12rcd13ifvqfp0","pricing_plan_id":"cebpf4jnsgd1na2vs0mg"},{"bike_id":"e78d8526-8301-47c8-b205-41ecc13ba645","system_id":"levelo_inurba_marseille","lat":43.28268,"lon":5.3506,"is_reserved":false,"is_disabled":false,"rental_uris":{"android":"levelo://app?vid=e78d8526-8301-47c8-b205-41ecc13ba645","ios":"levelo://app?vid=e78d8526-8301-47c8-b205-41ecc13ba645"},"vehicle_type_id":"4","last_reported":1753787405,"current_range_meters":19600,"station_id":"ce4bhbp2rcd13ifvqerg","pricing_plan_id":"cebpf4jnsgd1na2vs0mg"},{"bike_id":"61009ed9-f35f-461a-aa6c-4706a758daab","system_id":"levelo_inurba_marseille","lat":43.31494,"lon":5.37311,"is_reserved":false,"is_disabled":false,"rental_uris":{"android":"levelo://app?vid=61009ed9-f35f-461a-aa6c-4706a758daab","ios":"levelo://app?vid=61009ed9-f35f-461a-aa6c-4706a758daab"},"vehicle_type_id":"4","last_reported":1753787405,"current_range_meters":20000,"station_id":"ce4bgt12rcd13ifvqcd0","pricing_plan_id":"cebpf4jnsgd1na2vs0mg"},{"bike_id":"b2b7885d-4238-408f-9ca2-2887da9aeda0","system_id":"levelo_inurba_marseille","lat":43.28266,"lon":5.35088,"is_reserved":false,"is_disabled":false,"rental_uris":{"android":"levelo://app?vid=b2b7885d-4238-408f-9ca2-2887da9aeda0","ios":"levelo://app?vid=b2b7885d-4238-408f-9ca2-2887da9aeda0"},"vehicle_type_id":"4","last_reported":1753787405,"current_range_meters":19600,"station_id":"ce4bhbp2rcd13ifvqerg","pricing_plan_id":"cebpf4jnsgd1na2vs0mg"},{"bike_id":"d09b03a6-95ec-493c-80b0-6644e41ac765","system_id":"levelo_inurba_marseille","lat":43.28624,"lon":5.35104,"is_reserved":false,"is_disabled":false,"rental_uris":{"android":"levelo://app?vid=d09b03a6-95ec-493c-80b0-6644e41ac765","ios":"levelo://app?vid=d09b03a6-95ec-493c-80b0-6644e41ac765"},"vehicle_type_id":"4","last_reported":1753787405,"current_range_meters":20000,"station_id":"ce4bhch2rcd13ifvqeug","pricing_plan_id":"cebpf4jnsgd1na2vs0mg"},{"bike_id":"69d38a7e-1fcd-4d86-82ea-8c496eb3852b","system_id":"levelo_inurba_marseille","lat":43.28975,"lon":5.35566,"is_reserved":false,"is_disabled":true,"rental_uris":{"android":"levelo://app?vid=69d38a7e-1fcd-4d86-82ea-8c496eb3852b","ios":"levelo://app?vid=69d38a7e-1fcd-4d86-82ea-8c496eb3852b"},"vehicle_type_id":"4","last_reported":1753787405,"current_range_meters":20000,"station_id":"","pricing_plan_id":"cebpf4jnsgd1na2vs0mg"},{"bike_id":"2c80417c-5743-40e0-b67b-f8c74206b3a6","system_id":"levelo_inurba_marseille","lat":43.32054,"lon":5.4164,"is_reserved":false,"is_disabled":false,"rental_uris":{"android":"levelo://app?vid=2c80417c-5743-40e0-b67b-f8c74206b3a6","ios":"levelo://app?vid=2c80417c-5743-40e0-b67b-f8c74206b3a6"},"vehicle_type_id":"4","last_reported":1753787405,"current_range_meters":20000,"station_id":"","pricing_plan_id":"cebpf4jnsgd1na2vs0mg"},{"bike_id":"1c551052-93aa-4f27-a7a0-ce7ef92bf860","system_id":"levelo_inurba_marseille","lat":43.324852,"lon":5.365703,"is_reserved":false,"is_disabled":false,"rental_uris":{"android":"levelo://app?vid=1c551052-93aa-4f27-a7a0-ce7ef92bf860","ios":"levelo://app?vid=1c551052-93aa-4f27-a7a0-ce7ef92bf860"},