{"last_updated":1744232919,"ttl":60,"version":"2.2","data":{"bikes":[{"bike_id":"3576b946-70b3-456f-a60a-d98e227f015c","system_id":"levelo_inurba_marseille","lat":43.30106,"lon":5.38215,"is_reserved":false,"is_disabled":false,"rental_uris":{"android":"levelo://app?vid=3576b946-70b3-456f-a60a-d98e227f015c","ios":"levelo://app?vid=3576b946-70b3-456f-a60a-d98e227f015c"},"vehicle_type_id":"4","last_reported":1744232919,"current_range_meters":2800,"station_id":"","pricing_plan_id":"cebpf4jnsgd1na2vs0mg"},{"bike_id":"725b7e04-d2cf-4d0d-9fb2-524aa18b31cc","system_id":"levelo_inurba_marseille","lat":43.308,"lon":5.38145,"is_reserved":false,"is_disabled":false,"rental_uris":{"android":"levelo://app?vid=725b7e04-d2cf-4d0d-9fb2-524aa18b31cc","ios":"levelo://app?vid=725b7e04-d2cf-4d0d-9fb2-524aa18b31cc"},"vehicle_type_id":"4","last_reported":1744232919,"current_range_meters":2800,"station_id":"ce4bgt12rcd13ifvqce0","pricing_plan_id":"cebpf4jnsgd1na2vs0mg"},{"bike_id":"0cfb335f-b768-44d7-b362-cc5539ffe213","system_id":"levelo_inurba_marseille","lat":43.30643,"lon":5.40093,"is_reserved":false,"is_disabled":false,"rental_uris":{"android":"levelo://app?vid=0cfb335f-b768-44d7-b362-cc5539ffe213","ios":"levelo://app?vid=0cfb335f-b768-44d7-b362-cc5539ffe213"},"vehicle_type_id":"4","last_reported":1744232919,"current_range_meters":2800,"station_id":"ce4bh112rcd13ifvqda0","pricing_plan_id":"cebpf4jnsgd1na2vs0mg"},{"bike_id":"61faeab7-d3b1-42ea-8185-a6bb834269b2","system_id":"levelo_inurba_marseille","lat":43.27134,"lon":5.41467,"is_reserved":false,"is_disabled":false,"rental_uris":{"android":"levelo://app?vid=61faeab7-d3b1-42ea-8185-a6bb834269b2","ios":"levelo://app?vid=61faeab7-d3b1-42ea-8185-a6bb834269b2"},"vehicle_type_id":"4","last_reported":1744232919,"current_range_meters":3200,"station_id":"","pricing_plan_id":"cebpf4jnsgd1na2vs0mg"},{"bike_id":"6e89ae53-bec1-44af-8fe0-ca177026efcc","system_id":"levelo_inurba_marseille","lat":43.29582,"lon":5.36738,"is_reserved":false,"is_disabled":false,"rental_uris":{"android":"levelo://app?vid=6e89ae53-bec1-44af-8fe0-ca177026efcc","ios":"levelo://app?vid=6e89ae53-bec1-44af-8fe0-ca177026efcc"},"vehicle_type_id":"4","last_reported":1744232919,"current_range_meters":3200,"station_id":"ce4bgph2rcd13ifvqc2g","pricing_plan_id":"cebpf4jnsgd1na2vs0mg"},{"bike_id":"a5893a1f-7c9d-4af5-acab-6328a27154af","system_id":"levelo_inurba_marseille","lat":43.292785,"lon":5.408999,"is_reserved":false,"is_disabled":true,"rental_uris":{"android":"levelo://app?vid=a5893a1f-7c9d-4af5-acab-6328a27154af","ios":"levelo://app?vid=a5893a1f-7c9d-4af5-acab-6328a27154af"},"vehicle_type_id":"4","last_reported":1744232919,"current_range_meters":3200,"station_id":"","pricing_plan_id":"cebpf4jnsgd1na2vs0mg"},{"bike_id":"a947b423-d659-4e3d-85e3-4c71483ad36f","system_id":"levelo_inurba_marseille","lat":43.28952,"lon":5.36641,"is_reserved":false,"is_disabled":false,"rental_uris":{"android":"levelo://app?vid=a947b423-d659-4e3d-85e3-4c71483ad36f","ios":"levelo://app?vid=a947b423-d659-4e3d-85e3-4c71483ad36f"},"vehicle_type_id":"4","last_reported":1744232919,"current_range_meters":3600,"station_id":"ce4bhap2rcd13ifvqek0","pricing_plan_id":"cebpf4jnsgd1na2vs0mg"},{"bike_id":"0c3a3bd3-4301-4ccc-9dfa-35c0c716dcce","system_id":"levelo_inurba_marseille","lat":43.24668,"lon":5.38166,"is_reserved":false,"is_disabled":true,"rental_uris":{"android":"levelo://app?vid=0c3a3bd3-4301-4ccc-9dfa-35c0c716dcce","ios":"levelo://app?vid=0c3a3bd3-4301-4ccc-9dfa-35c0c716dcce"},"vehicle_type_id":"4","last_reported":1744232919,"current_range_meters":3600,"station_id":"ce4bhih2rcd13ifvqfr0","pricing_plan_id":"cebpf4jnsgd1na2vs0mg"},{"bike_id":"dbb0b76b-e2fa-4351-8d0a-852e2dcd3171","system_id":"levelo_inurba_marseille","lat":43.30297,"lon":5.369,"is_reserved":false,"is_disabled":false,"rental_uris":{"android":"levelo://app?vid=dbb0b76b-e2fa-4351-8d0a-852e2dcd3171","ios":"levelo://app?vid=dbb0b76b-e2fa-4351-8d0a-852e2dcd3171"},"vehicle_type_id":"4","last_reported":1744232919,"current_range_meters":3600,"station_id":"ce4bgqh2rcd13ifvqc5g","pricing_plan_id":"cebpf4jnsgd1na2vs0mg"},{"bike_id":"ae7fc30f-36a4-4b2d-8b99-bb40d3c9eacc","system_id":"levelo_inurba_marseille","lat":43.29406,"lon":5.38614,"is_reserved":false,"is_disabled":true,"rental_uris":{"android":"levelo://app?vid=ae7fc30f-36a4-4b2d-8b99-bb40d3c9eacc","ios":"levelo://app?vid=ae7fc30f-36a4-4b2d-8b99-bb40d3c9eacc"},"vehicle_type_id":"4","last_reported":1744232919,"current_range_meters":4000,"station_id":"ce4bh2h2rcd13ifvqdh0","pricing_plan_id":"cebpf4jnsgd1na2vs0mg"},{"bike_id":"6fc4ba6b-617e-4a4a-9dba-01f0def35fec","system_id":"levelo_inurba_marseille","lat":43.29575,"lon":5.37525,"is_reserved":false,"is_disabled":false,"rental_uris":{"android":"levelo://app?vid=6fc4ba6b-617e-4a4a-9dba-01f0def35fec","ios":"levelo://app?vid=6fc4ba6b-617e-4a4a-9dba-01f0def35fec"},"vehicle_type_id":"4","last_reported":1744232919,"current_range_meters":4000,"station_id":"ce4bgh92rcd13ifvqb50","pricing_plan_id":"cebpf4jnsgd1na2vs0mg"},{"bike_id":"488970c7-ad85-4166-a4ad-456252c5bcc5","system_id":"levelo_inurba_marseille","lat":43.275174,"lon":5.409816,"is_reserved":false,"is_disabled":false,"rental_uris":{"android":"levelo://app?vid=488970c7-ad85-4166-a4ad-456252c5bcc5","ios":"levelo://app?vid=488970c7-ad85-4166-a4ad-456252c5bcc5"},"vehicle_type_id":"4","last_reported":1744232919,"current_range_meters":4000,"station_id":"","pricing_plan_id":"cebpf4jnsgd1na2vs0mg"},{"bike_id":"ebe1ea58-9f38-4c10-a6da-a9d33ab03a52","system_id":"levelo_inurba_marseille","lat":43.24991,"lon":5.38948,"is_reserved":false,"is_disabled":true,"rental_uris":{"android":"levelo://app?vid=ebe1ea58-9f38-4c10-a6da-a9d33ab03a52","ios":"levelo://app?vid=ebe1ea58-9f38-4c10-a6da-a9d33ab03a52"},"vehicle_type_id":"4","last_reported":1744232919,"current_range_meters":4400,"station_id":"ce4bhgp2rcd13ifvqfd0","pricing_plan_id":"cebpf4jnsgd1na2vs0mg"},{"bike_id":"d4a606a1-9dd3-46fc-8fda-2c615f520bbc","system_id":"levelo_inurba_marseille","lat":43.28851,"lon":5.3932,"is_reserved":false,"is_disabled":false,"rental_uris":{"android":"levelo://app?vid=d4a606a1-9dd3-46fc-8fda-2c615f520bbc","ios":"levelo://app?vid=d4a606a1-9dd3-46fc-8fda-2c615f520bbc"},"vehicle_type_id":"4","last_reported":1744232919,"current_range_meters":4400,"station_id":"ce4bh2p2rcd13ifvqdi0","pricing_plan_id":"cebpf4jnsgd1na2vs0mg"},{"bike_id":"3ea27e54-f8eb-412e-930d-2d778578f9d0","system_id":"levelo_inurba_marseille","lat":43.24061,"lon":5.3774,"is_reserved":false,"is_disabled":false,"rental_uris":{"android":"levelo://app?vid=3ea27e54-f8eb-412e-930d-2d778578f9d0","ios":"levelo://app?vid=3ea27e54-f8eb-412e-930d-2d778578f9d0"},"vehicle_type_id":"4","last_reported":1744232919,"current_range_meters":4400,"station_id":"ce4bhnp2rcd13ifvqgvg","pricing_plan_id":"cebpf4jnsgd1na2vs0mg"},{"bike_id":"ab79e153-0985-48d6-9751-615dd0ab9ac9","system_id":"levelo_inurba_marseille","lat":43.29799,"lon":5.38118,"is_reserved":false,"is_disabled":false,"rental_uris":{"android":"levelo://app?vid=ab79e153-0985-48d6-9751-615dd0ab9ac9","ios":"levelo://app?vid=ab79e153-0985-48d6-9751-615dd0ab9ac9"},"vehicle_type_id":"4","last_reported":1744232919,"current_range_meters":6000,"station_id":"ce4bgip2rcd13ifvqbb0","pricing_plan_id":"cebpf4jnsgd1na2vs0mg"},{"bike_id":"58b518c7-3105-4f5e-96af-5214cce79c4a","system_id":"levelo_inurba_marseille","lat":43.307993,"lon":5.381598,"is_reserved":false,"is_disabled":false,"rental_uris":{"android":"levelo://app?vid=58b518c7-3105-4f5e-96af-5214cce79c4a","ios":"levelo://app?vid=58b518c7-3105-4f5e-96af-5214cce79c4a"},"vehicle_type_id":"4","last_reported":1744232919,"current_range_meters":4400,"station_id":"ce4bgt12rcd13ifvqce0","pricing_plan_id":"cebpf4jnsgd1na2vs0mg"},{"bike_id":"cd07658d-a6fb-41d7-b49f-5b25a6336379","system_id":"levelo_inurba_marseille","lat":43.23965,"lon":5.36631,"is_reserved":false,"is_disabled":false,"rental_uris":{"android":"levelo://app?vid=cd07658d-a6fb-41d7-b49f-5b25a6336379","ios":"levelo://app?vid=cd07658d-a6fb-41d7-b49f-5b25a6336379"},"vehicle_type_id":"4","last_reported":1744232919,"current_range_meters":4400,"station_id":"ce4bhi12rcd13ifvqfp0","pricing_plan_id":"cebpf4jnsgd1na2vs0mg"},{"bike_id":"0afa710d-ae25-4ea1-8b2d-be4f5b57249c","system_id":"levelo_inurba_marseille","lat":43.27167,"lon":5.40973,"is_reserved":false,"is_disabled":false,"rental_uris":{"android":"levelo://app?vid=0afa710d-ae25-4ea1-8b2d-be4f5b57249c","ios":"levelo://app?vid=0afa710d-ae25-4ea1-8b2d-be4f5b57249c"},"vehicle_type_id":"4","last_reported":1744232919,"current_range_meters":4800,"station_id":"ce4bhl12rcd13ifvqgf0","pricing_plan_id":"cebpf4jnsgd1na2vs0mg"},{"bike_id":"ec41b842-c84f-4ab1-894c-fc6101e00efb","system_id":"levelo_inurba_marseille","lat":43.31755,"lon":5.4038,"is_reserved":false,"is_disabled":false,"rental_uris":{"android":"levelo://app?vid=ec41b842-c84f-4ab1-894c-fc6101e00efb","ios":"levelo://app?vid=ec41b842-c84f-4ab1-894c-fc6101e00efb"},"vehicle_type_id":"4","last_reported":1744232919,"current_range_meters":4800,"station_id":"","pricing_plan_id":"cebpf4jnsgd1na2vs0mg"},{"bike_id":"bb257c27-6724-4e74-94dc-8b1014eebad9","system_id":"levelo_inurba_marseille","lat":43.28942,"lon":5.36397,"is_reserved":false,"is_disabled":false,"rental_uris":{"android":"levelo://app?vid=bb257c27-6724-4e74-94dc-8b1014eebad9","ios":"levelo://app?vid=bb257c27-6724-4e74-94dc-8b1014eebad9"},"vehicle_type_id":"4","last_reported":1744232919,"current_range_meters":4800,"station_id":"ce4bhc92rcd13ifvqetg","pricing_plan_id":"cebpf4jnsgd1na2vs0mg"},{"bike_id":"44efffaa-803b-4dd7-b2ec-6bfc01dac8ce","system_id":"levelo_inurba_marseille","lat":43.27373,"lon":5.36263,"is_reserved":false,"is_disabled":false,"rental_uris":{"android":"levelo://app?vid=44efffaa-803b-4dd7-b2ec-6bfc01dac8ce","ios":"levelo://app?vid=44efffaa-803b-4dd7-b2ec-6bfc01dac8ce"},"vehicle_type_id":"4","last_reported":1744232919,"current_range_meters":4800,"station_id":"ce4bhbh2rcd13ifvqeo0","pricing_plan_id":"cebpf4jnsgd1na2vs0mg"},{"bike_id":"6569a176-a49c-464b-9416-ff731ba8b325","system_id":"levelo_inurba_marseille","lat":43.31124,"lon":5.37752,"is_reserved":false,"is_disabled":true,"rental_uris":{"android":"levelo://app?vid=6569a176-a49c-464b-9416-ff731ba8b325","ios":"levelo://app?vid=6569a176-a49c-464b-9416-ff731ba8b325"},"vehicle_type_id":"4","last_reported":1744232919,"current_range_meters":5600,"station_id":"ce4bgt92rcd13ifvqcg0","pricing_plan_id":"cebpf4jnsgd1na2vs0mg"},{"bike_id":"79b4a3fe-83b6-4a7e-b62d-fbe80c1f5666","system_id":"levelo_inurba_marseille","lat":43.21749,"lon":5.34601,"is_reserved":false,"is_disabled":false,"rental_uris":{"android":"levelo://app?vid=79b4a3fe-83b6-4a7e-b62d-fbe80c1f5666","ios":"levelo://app?vid=79b4a3fe-83b6-4a7e-b62d-fbe80c1f5666"},"vehicle_type_id":"4","last_reported":1744232919,"current_range_meters":6000,"station_id":"st_cvj6r9ubvosntc0bgbag","pricing_plan_id":"cebpf4jnsgd1na2vs0mg"},{"bike_id":"3bfd792d-8024-4b3d-8c0a-4428de874fa2","system_id":"levelo_inurba_marseille","lat":43.32042,"lon":5.38592,"is_reserved":false,"is_disabled":true,"rental_uris":{"android":"levelo://app?vid=3bfd792d-8024-4b3d-8c0a-4428de874fa2","ios":"levelo://app?vid=3bfd792d-8024-4b3d-8c0a-4428de874fa2"},"vehicle_type_id":"4","last_reported":1744232919,"current_range_meters":6000,"station_id":"","pricing_plan_id":"cebpf4jnsgd1na2vs0mg"},{"bike_id":"39b31432-a95f-4197-b7b1-d47fab348f93","system_id":"levelo_inurba_marseille","lat":43.25823,"lon":5.39435,"is_reserved":false,"is_disabled":false,"rental_uris":{"android":"levelo://app?vid=39b31432-a95f-4197-b7b1-d47fab348f93","ios":"levelo://app?vid=39b31432-a95f-4197-b7b1-d47fab348f93"},"vehicle_type_id":"4","last_reported":1744232919,"current_range_meters":6000,"station_id":"ce4bhip2rcd13ifvqft0","pricing_plan_id":"cebpf4jnsgd1na2vs0mg"},{"bike_id":"86b48419-f6e0-4c45-877f-37618aea9ed2","system_id":"levelo_inurba_marseille","lat":43.2845,"lon":5.35888,"is_reserved":false,"is_disabled":false,"rental_uris":{"android":"levelo://app?vid=86b48419-f6e0-4c45-877f-37618aea9ed2","ios":"levelo://app?vid=86b48419-f6e0-4c45-877f-37618aea9ed2"},"vehicle_type_id":"4","last_reported":1744232919,"current_range_meters":6000,"station_id":"ce4bhah2rcd13ifvqei0","pricing_plan_id":"cebpf4jnsgd1na2vs0mg"},{"bike_id":"87508fcc-fc22-4c77-a474-0e2a18811475","system_id":"levelo_inurba_marseille","lat":43.28923,"lon":5.38411,"is_reserved":false,"is_disabled":false,"rental_uris":{"android":"levelo://app?vid=87508fcc-fc22-4c77-a474-0e2a18811475","ios":"levelo://app?vid=87508fcc-fc22-4c77-a474-0e2a18811475"},"vehicle_type_id":"4","last_reported":1744232919,"current_range_meters":6400,"station_id":"ce4bh612rcd13ifvqe6g","pricing_plan_id":"cebpf4jnsgd1na2vs0mg"},{"bike_id":"30d1b9f2-05f3-47dd-8bfb-29a1d4c148de","system_id":"levelo_inurba_marseille","lat":43.28605,"lon":5.35109,"is_reserved":false,"is_disabled":false,"rental_uris":{"android":"levelo://app?vid=30d1b9f2-05f3-47dd-8bfb-29a1d4c148de","ios":"levelo://app?vid=30d1b9f2-05f3-47dd-8bfb-29a1d4c148de"},"vehicle_type_id":"4","last_reported":1744232919,"current_range_meters":6400,"station_id":"ce4bhch2rcd13ifvqeug","pricing_plan_id":"cebpf4jnsgd1na2vs0mg"},{"bike_id":"03926bc9-f9d8-4451-80fc-eb49eedc74e1","system_id":"levelo_inurba_marseille","lat":43.27815,"lon":5.40728,"is_reserved":false,"is_disabled":false,"rental_uris":{"android":"levelo://app?vid=03926bc9-f9d8-4451-80fc-eb49eedc74e1","ios":"levelo://app?vid=03926bc9-f9d8-4451-80fc-eb49eedc74e1"},"vehicle_type_id":"4","last_reported":1744232919,"current_range_meters":6400,"station_id":"ce4bhnh2rcd13ifvqgtg","pricing_plan_id":"cebpf4jnsgd1na2vs0mg"},{"bike_id":"9dad613b-fd85-481c-8b7c-456e1be1d564","system_id":"levelo_inurba_marseille","lat":43.26181,"lon":5.3793,"is_reserved":false,"is_disabled":false,"rental_uris":{"android":"levelo://app?vid=9dad613b-fd85-481c-8b7c-456e1be1d564","ios":"levelo://app?vid=9dad613b-fd85-481c-8b7c-456e1be1d564"},"vehicle_type_id":"4","last_reported":1744232919,"current_range_meters":6400,"station_id":"ce4bhjp2rcd13ifvqg90","pricing_plan_id":"cebpf4jnsgd1na2vs0mg"},{"bike_id":"3d0cae43-5b75-4aac-b7cb-471ce1151dd5","system_id":"levelo_inurba_marseille","lat":43.33041,"lon":5.39379,"is_reserved":false,"is_disabled":true,"rental_uris":{"android":"levelo://app?vid=3d0cae43-5b75-4aac-b7cb-471ce1151dd5","ios":"levelo://app?vid=3d0cae43-5b75-4aac-b7cb-471ce1151dd5"},"vehicle_type_id":"4","last_reported":1744232919,"current_range_meters":6400,"station_id":"","pricing_plan_id":"cebpf4jnsgd1na2vs0mg"},{"bike_id":"68d1cc33-0218-451e-8e10-d32225c21263","system_id":"levelo_inurba_marseille","lat":43.23152,"lon":5.43705,"is_reserved":false,"is_disabled":true,"rental_uris":{"android":"levelo://app?vid=68d1cc33-0218-451e-8e10-d32225c21263","ios":"levelo://app?vid=68d1cc33-0218-451e-8e10-d32225c21263"},"vehicle_type_id":"4","last_reported":1744232919,"current_range_meters":6400,"station_id":"ce4bhmp2rcd13ifvqgog","pricing_plan_id":"cebpf4jnsgd1na2vs0mg"},{"bike_id":"5e6ad826-38da-4531-b4ba-2eda8622ede3","system_id":"levelo_inurba_marseille","lat":43.31085,"lon":5.40465,"is_reserved":false,"is_disabled":false,"rental_uris":{"android":"levelo://app?vid=5e6ad826-38da-4531-b4ba-2eda8622ede3","ios":"levelo://app?vid=5e6ad826-38da-4531-b4ba-2eda8622ede3"},"vehicle_type_id":"4","last_reported":1744232919,"current_range_meters":6400,"station_id":"","pricing_plan_id":"cebpf4jnsgd1na2vs0mg"},{"bike_id":"80b222e4-342b-44c6-91e7-c2cd317a1869","system_id":"levelo_inurba_marseille","lat":43.31889,"lon":5.40719,"is_reserved":false,"is_disabled":false,"rental_uris":{"android":"levelo://app?vid=80b222e4-342b-44c6-91e7-c2cd317a1869","ios":"levelo://app?vid=80b222e4-342b-44c6-91e7-c2cd317a1869"},"vehicle_type_id":"4","last_reported":1744232919,"current_range_meters":6400,"station_id":"ce4bhq12rcd13ifvqhig","pricing_plan_id":"cebpf4jnsgd1na2vs0mg"},{"bike_id":"929d0315-d114-4461-af41-f6bff04d3821","system_id":"levelo_inurba_marseille","lat":43.30794,"lon":5.38162,"is_reserved":false,"is_disabled":false,"rental_uris":{"android":"levelo://app?vid=929d0315-d114-4461-af41-f6bff04d3821","ios":"levelo://app?vid=929d0315-d114-4461-af41-f6bff04d3821"},"vehicle_type_id":"4","last_reported":1744232919,"current_range_meters":6800,"station_id":"ce4bgt12rcd13ifvqce0","pricing_plan_id":"cebpf4jnsgd1na2vs0mg"},{"bike_id":"c40a2e2c-2a66-4aa2-81cf-c4ae98211b54","system_id":"levelo_inurba_marseille","lat":43.21741,"lon":5.34603,"is_reserved":false,"is_disabled":false,"rental_uris":{"android":"levelo://app?vid=c40a2e2c-2a66-4aa2-81cf-c4ae98211b54","ios":"levelo://app?vid=c40a2e2c-2a66-4aa2-81cf-c4ae98211b54"},"vehicle_type_id":"4","last_reported":1744232919,"current_range_meters":6800,"station_id":"st_cvj6r9ubvosntc0bgbag","pricing_plan_id":"cebpf4jnsgd1na2vs0mg"},{"bike_id":"33d2ed2c-1909-4b18-8952-b5294741fea7","system_id":"levelo_inurba_marseille","lat":43.30783,"lon":5.37655,"is_reserved":false,"is_disabled":false,"rental_uris":{"android":"levelo://app?vid=33d2ed2c-1909-4b18-8952-b5294741fea7","ios":"levelo://app?vid=33d2ed2c-1909-4b18-8952-b5294741fea7"},"vehicle_type_id":"4","last_reported":1744232919,"current_range_meters":6800,"station_id":"ce4bgv92rcd13ifvqcq0","pricing_plan_id":"cebpf4jnsgd1na2vs0mg"},{"bike_id":"d93866ee-6dc8-419e-b1cc-bbdeb5398b58","system_id":"levelo_inurba_marseille","lat":43.27314,"lon":5.39103,"is_reserved":false,"is_disabled":false,"rental_uris":{"android":"levelo://app?vid=d93866ee-6dc8-419e-b1cc-bbdeb5398b58","ios":"levelo://app?vid=d93866ee-6dc8-419e-b1cc-bbdeb5398b58"},"vehicle_type_id":"4","last_reported":1744232919,"current_range_meters":6800,"station_id":"ce4bhgp2rcd13ifvqfe0","pricing_plan_id":"cebpf4jnsgd1na2vs0mg"},{"bike_id":"1c73fc87-7233-462d-9414-7aaae10a4d47","system_id":"levelo_inurba_marseille","lat":43.30599,"lon":5.37232,"is_reserved":false,"is_disabled":false,"rental_uris":{"android":"levelo://app?vid=1c73fc87-7233-462d-9414-7aaae10a4d47","ios":"levelo://app?vid=1c73fc87-7233-462d-9414-7aaae10a4d47"},"vehicle_type_id":"4","last_reported":1744232919,"current_range_meters":6800,"station_id":"ce4bgqh2rcd13ifvqc4g","pricing_plan_id":"cebpf4jnsgd1na2vs0mg"},{"bike_id":"6650c56b-7012-403a-8fdd-eaa24045f69c","system_id":"levelo_inurba_marseille","lat":43.27956,"lon":5.3874,"is_reserved":false,"is_disabled":false,"rental_uris":{"android":"levelo://app?vid=6650c56b-7012-403a-8fdd-eaa24045f69c","ios":"levelo://app?vid=6650c56b-7012-403a-8fdd-eaa24045f69c"},"vehicle_type_id":"4","last_reported":1744232919,"current_range_meters":7200,"station_id":"ce4bhg12rcd13ifvqf80","pricing_plan_id":"cebpf4jnsgd1na2vs0mg"},{"bike_id":"bf0c585e-5b41-4721-a51a-71274899cf15","system_id":"levelo_inurba_marseille","lat":43.29652,"lon":5.37884,"is_reserved":false,"is_disabled":false,"rental_uris":{"android":"levelo://app?vid=bf0c585e-5b41-4721-a51a-71274899cf15","ios":"levelo://app?vid=bf0c585e-5b41-4721-a51a-71274899cf15"},"vehicle_type_id":"4","last_reported":1744232919,"current_range_meters":7200,"station_id":"","pricing_plan_id":"cebpf4jnsgd1na2vs0mg"},{"bike_id":"951a075f-4063-499f-95ef-2ec50db6526c","system_id":"levelo_inurba_marseille","lat":43.22927,"lon":5.35388,"is_reserved":false,"is_disabled":false,"rental_uris":{"android":"levelo://app?vid=951a075f-4063-499f-95ef-2ec50db6526c","ios":"levelo://app?vid=951a075f-4063-499f-95ef-2ec50db6526c"},"vehicle_type_id":"4","last_reported":1744232919,"current_range_meters":7200,"station_id":"cpo3532slgdg3j2ikp40","pricing_plan_id":"cebpf4jnsgd1na2vs0mg"},{"bike_id":"dcfc503a-9c83-4773-9b68-ab8277461700","system_id":"levelo_inurba_marseille","lat":43.27679,"lon":5.38869,"is_reserved":false,"is_disabled":false,"rental_uris":{"android":"levelo://app?vid=dcfc503a-9c83-4773-9b68-ab8277461700","ios":"levelo://app?vid=dcfc503a-9c83-4773-9b68-ab8277461700"},"vehicle_type_id":"4","last_reported":1744232919,"current_range_meters":7200,"station_id":"ce4bhi12rcd13ifvqfo0","pricing_plan_id":"cebpf4jnsgd1na2vs0mg"},{"bike_id":"98011710-961f-4b06-9ea5-2e20180ef4ff","system_id":"levelo_inurba_marseille","lat":43.28145,"lon":5.42656,"is_reserved":false,"is_disabled":false,"rental_uris":{"android":"levelo://app?vid=98011710-961f-4b06-9ea5-2e20180ef4ff","ios":"levelo://app?vid=98011710-961f-4b06-9ea5-2e20180ef4ff"},"vehicle_type_id":"4","last_reported":1744232919,"current_range_meters":7200,"station_id":"ce4bhnh2rcd13ifvqgug","pricing_plan_id":"cebpf4jnsgd1na2vs0mg"},{"bike_id":"806aabc5-a68c-49c9-9a9a-b9e74a1e0ea6","system_id":"levelo_inurba_marseille","lat":43.24795,"lon":5.37483,"is_reserved":false,"is_disabled":false,"rental_uris":{"android":"levelo://app?vid=806aabc5-a68c-49c9-9a9a-b9e74a1e0ea6","ios":"levelo://app?vid=806aabc5-a68c-49c9-9a9a-b9e74a1e0ea6"},"vehicle_type_id":"4","last_reported":1744232919,"current_range_meters":7200,"station_id":"ce4bhgh2rcd13ifvqfb0","pricing_plan_id":"cebpf4jnsgd1na2vs0mg"},{"bike_id":"c6b6c9fe-f58e-4729-b8e2-8688928f31a2","system_id":"levelo_inurba_marseille","lat":43.28661,"lon":5.36351,"is_reserved":false,"is_disabled":false,"rental_uris":{"android":"levelo://app?vid=c6b6c9fe-f58e-4729-b8e2-8688928f31a2","ios":"levelo://app?vid=c6b6c9fe-f58e-4729-b8e2-8688928f31a2"},"vehicle_type_id":"4","last_reported":1744232919,"current_range_meters":7200,"station_id":"ce4bhah2rcd13ifvqej0","pricing_plan_id":"cebpf4jnsgd1na2vs0mg"},{"bike_id":"4cd7bc47-1a4d-42ca-b634-d8a35d27a577","system_id":"levelo_inurba_marseille","lat":43.28457,"lon":5.35886,"is_reserved":false,"is_disabled":false,"rental_uris":{"android":"levelo://app?vid=4cd7bc47-1a4d-42ca-b634-d8a35d27a577","ios":"levelo://app?vid=4cd7bc47-1a4d-42ca-b634-d8a35d27a577"},"vehicle_type_id":"4","last_reported":1744232919,"current_range_meters":8000,"station_id":"ce4bhah2rcd13ifvqei0","pricing_plan_id":"cebpf4jnsgd1na2vs0mg"},{"bike_id":"1e5c030a-da50-4e75-b79d-a061b08b9c34","system_id":"levelo_inurba_marseille","lat":43.28721,"lon":5.37942,"is_reserved":false,"is_disabled":false,"rental_uris":{"android":"levelo://app?vid=1e5c030a-da50-4e75-b79d-a061b08b9c34","ios":"levelo://app?vid=1e5c030a-da50-4e75-b79d-a061b08b9c34"},"vehicle_type_id":"4","last_reported":1744232919,"current_range_meters":8000,"station_id":"ce4bh9p2rcd13ifvqec0","pricing_plan_id":"cebpf4jnsgd1na2vs0mg"},{"bike_id":"1adcfecd-7da9-485c-b40f-e62ffc130e51","system_id":"levelo_inurba_marseille","lat":43.21751,"lon":5.34604,"is_reserved":false,"is_disabled":false,"rental_uris":{"android":"levelo://app?vid=1adcfecd-7da9-485c-b40f-e62ffc130e51","ios":"levelo://app?vid=1adcfecd-7da9-485c-b40f-e62ffc130e51"},"vehicle_type_id":"4","last_reported":1744232919,"current_range_meters":8000,"station_id":"st_cvj6r9ubvosntc0bgbag","pricing_plan_id":"cebpf4jnsgd1na2vs0mg"},{"bike_id":"cb4c20d8-81f8-4b24-be70-4540f41d4dbd","system_id":"levelo_inurba_marseille","lat":43.27913,"lon":5.39583,"is_reserved":false,"is_disabled":false,"rental_uris":{"android":"levelo://app?vid=cb4c20d8-81f8-4b24-be70-4540f41d4dbd","ios":"levelo://app?vid=cb4c20d8-81f8-4b24-be70-4540f41d4dbd"},"vehicle_type_id":"4","last_reported":1744232919,"current_range_meters":8000,"station_id":"ce4bhf92rcd13ifvqf40","pricing_plan_id":"cebpf4jnsgd1na2vs0mg"},{"bike_id":"ff6a0b04-2f98-460c-99be-06e0ccf587e1","system_id":"levelo_inurba_marseille","lat":43.29199,"lon":5.39355,"is_reserved":false,"is_disabled":false,"rental_uris":{"android":"levelo://app?vid=ff6a0b04-2f98-460c-99be-06e0ccf587e1","ios":"levelo://app?vid=ff6a0b04-2f98-460c-99be-06e0ccf587e1"},"vehicle_type_id":"4","last_reported":1744232919,"current_range_meters":8000,"station_id":"ce4bh192rcd13ifvqdd0","pricing_plan_id":"cebpf4jnsgd1na2vs0mg"},{"bike_id":"b6866206-2132-483d-aa14-b816c784c335","system_id":"levelo_inurba_marseille","lat":43.28461,"lon":5.35882,"is_reserved":false,"is_disabled":false,"rental_uris":{"android":"levelo://app?vid=b6866206-2132-483d-aa14-b816c784c335","ios":"levelo://app?vid=b6866206-2132-483d-aa14-b816c784c335"},"vehicle_type_id":"4","last_reported":1744232919,"current_range_meters":8000,"station_id":"ce4bhah2rcd13ifvqei0","pricing_plan_id":"cebpf4jnsgd1na2vs0mg"},{"bike_id":"a746c4bc-0206-4d3e-9c8a-a1b43dd780da","system_id":"levelo_inurba_marseille","lat":43.3065,"lon":5.4009,"is_reserved":false,"is_disabled":false,"rental_uris":{"android":"levelo://app?vid=a746c4bc-0206-4d3e-9c8a-a1b43dd780da","ios":"levelo://app?vid=a746c4bc-0206-4d3e-9c8a-a1b43dd780da"},"vehicle_type_id":"4","last_reported":1744232919,"current_range_meters":8000,"station_id":"ce4bh112rcd13ifvqda0","pricing_plan_id":"cebpf4jnsgd1na2vs0mg"},{"bike_id":"bc41586b-49ab-4384-a354-abae8767ef13","system_id":"levelo_inurba_marseille","lat":43.29591,"lon":5.37679,"is_reserved":false,"is_disabled":false,"rental_uris":{"android":"levelo://app?vid=bc41586b-49ab-4384-a354-abae8767ef13","ios":"levelo://app?vid=bc41586b-49ab-4384-a354-abae8767ef13"},"vehicle_type_id":"4","last_reported":1744232919,"current_range_meters":8000,"station_id":"ce4bgi92rcd13ifvqb90","pricing_plan_id":"cebpf4jnsgd1na2vs0mg"},{"bike_id":"80663e12-6b64-446d-88c9-20255bde1a8a","system_id":"levelo_inurba_marseille","lat":43.30882,"lon":5.39637,"is_reserved":false,"is_disabled":true,"rental_uris":{"android":"levelo://app?vid=80663e12-6b64-446d-88c9-20255bde1a8a","ios":"levelo://app?vid=80663e12-6b64-446d-88c9-20255bde1a8a"},"vehicle_type_id":"4","last_reported":1744232919,"current_range_meters":8000,"station_id":"ce4bh012rcd13ifvqcv0","pricing_plan_id":"cebpf4jnsgd1na2vs0mg"},{"bike_id":"117be171-4e56-41e4-86e6-8fbe4c010556","system_id":"levelo_inurba_marseille","lat":43.27904,"lon":5.39588,"is_reserved":false,"is_disabled":false,"rental_uris":{"android":"levelo://app?vid=117be171-4e56-41e4-86e6-8fbe4c010556","ios":"levelo://app?vid=117be171-4e56-41e4-86e6-8fbe4c010556"},"vehicle_type_id":"4","last_reported":1744232919,"current_range_meters":8000,"station_id":"ce4bhf92rcd13ifvqf40","pricing_plan_id":"cebpf4jnsgd1na2vs0mg"},{"bike_id":"08f9c0c8-8b33-4578-8a03-20f44d582241","system_id":"levelo_inurba_marseille","lat":43.30545,"lon":5.37,"is_reserved":false,"is_disabled":false,"rental_uris":{"android":"levelo://app?vid=08f9c0c8-8b33-4578-8a03-20f44d582241","ios":"levelo://app?vid=08f9c0c8-8b33-4578-8a03-20f44d582241"},"vehicle_type_id":"4","last_reported":1744232919,"current_range_meters":8000,"station_id":"","pricing_plan_id":"cebpf4jnsgd1na2vs0mg"},{"bike_id":"d377b34f-d3d3-4364-b4c8-b6c61296f027","system_id":"levelo_inurba_marseille","lat":43.290422,"lon":5.371479,"is_reserved":false,"is_disabled":false,"rental_uris":{"android":"levelo://app?vid=d377b34f-d3d3-4364-b4c8-b6c61296f027","ios":"levelo://app?vid=d377b34f-d3d3-4364-b4c8-b6c61296f027"},"vehicle_type_id":"4","last_reported":1744232919,"current_range_meters":8000,"station_id":"ce4bh5p2rcd13ifvqe4g","pricing_plan_id":"cebpf4jnsgd1na2vs0mg"},{"bike_id":"feca3d9e-12e9-4a3a-8f8a-211aa953b3fa","system_id":"levelo_inurba_marseille","lat":43.2933,"lon":5.41157,"is_reserved":false,"is_disabled":false,"rental_uris":{"android":"levelo://app?vid=feca3d9e-12e9-4a3a-8f8a-211aa953b3fa","ios":"levelo://app?vid=feca3d9e-12e9-4a3a-8f8a-211aa953b3fa"},"vehicle_type_id":"4","last_reported":1744232919,"current_range_meters":8000,"station_id":"","pricing_plan_id":"cebpf4jnsgd1na2vs0mg"},{"bike_id":"ee7193c5-0e4a-4b5c-aab9-2072d4aba82d","system_id":"levelo_inurba_marseille","lat":43.28144,"lon":5.38633,"is_reserved":false,"is_disabled":false,"rental_uris":{"android":"levelo://app?vid=ee7193c5-0e4a-4b5c-aab9-2072d4aba82d","ios":"levelo://app?vid=ee7193c5-0e4a-4b5c-aab9-2072d4aba82d"},"vehicle_type_id":"4","last_reported":1744232919,"current_range_meters":8000,"station_id":"","pricing_plan_id":"cebpf4jnsgd1na2vs0mg"},{"bike_id":"b397701f-0d3d-44bf-ab3e-3ccc7e74fb2e","system_id":"levelo_inurba_marseille","lat":43.26445,"lon":5.42279,"is_reserved":false,"is_disabled":false,"rental_uris":{"android":"levelo://app?vid=b397701f-0d3d-44bf-ab3e-3ccc7e74fb2e","ios":"levelo://app?vid=b397701f-0d3d-44bf-ab3e-3ccc7e74fb2e"},"vehicle_type_id":"4","last_reported":1744232919,"current_range_meters":8000,"station_id":"","pricing_plan_id":"cebpf4jnsgd1na2vs0mg"},{"bike_id":"cf249a5f-af00-42a3-891f-2a32c7072ed3","system_id":"levelo_inurba_marseille","lat":43.262228,"lon":5.404514,"is_reserved":false,"is_disabled":false,"rental_uris":{"android":"levelo://app?vid=cf249a5f-af00-42a3-891f-2a32c7072ed3","ios":"levelo://app?vid=cf249a5f-af00-42a3-891f-2a32c7072ed3"},"vehicle_type_id":"4","last_reported":1744232919,"current_range_meters":8400,"station_id":"ce4bhmh2rcd13ifvqgmg","pricing_plan_id":"cebpf4jnsgd1na2vs0mg"},{"bike_id":"beb30b58-df0c-4423-bd0d-6b8e193ddc3c","system_id":"levelo_inurba_marseille","lat":43.29252,"lon":5.40902,"is_reserved":false,"is_disabled":false,"rental_uris":{"android":"levelo://app?vid=beb30b58-df0c-4423-bd0d-6b8e193ddc3c","ios":"levelo://app?vid=beb30b58-df0c-4423-bd0d-6b8e193ddc3c"},"vehicle_type_id":"4","last_reported":1744232919,"current_range_meters":8400,"station_id":"ce4bh192rcd13ifvqdc0","pricing_plan_id":"cebpf4jnsgd1na2vs0mg"},{"bike_id":"523f199e-c50d-4cd7-8cb0-ecd6da8f7fb1","system_id":"levelo_inurba_marseille","lat":43.31714,"lon":5.42416,"is_reserved":false,"is_disabled":false,"rental_uris":{"android":"levelo://app?vid=523f199e-c50d-4cd7-8cb0-ecd6da8f7fb1","ios":"levelo://app?vid=523f199e-c50d-4cd7-8cb0-ecd6da8f7fb1"},"vehicle_type_id":"4","last_reported":1744232919,"current_range_meters":8400,"station_id":"ce4bhp92rcd13ifvqhbg","pricing_plan_id":"cebpf4jnsgd1na2vs0mg"},{"bike_id":"21263c65-45ad-4e71-916b-3a4ebc1a0504","system_id":"levelo_inurba_marseille","lat":43.24658,"lon":5.38163,"is_reserved":false,"is_disabled":false,"rental_uris":{"android":"levelo://app?vid=21263c65-45ad-4e71-916b-3a4ebc1a0504","ios":"levelo://app?vid=21263c65-45ad-4e71-916b-3a4ebc1a0504"},"vehicle_type_id":"4","last_reported":1744232919,"current_range_meters":8400,"station_id":"ce4bhih2rcd13ifvqfr0","pricing_plan_id":"cebpf4jnsgd1na2vs0mg"},{"bike_id":"7c41bab6-0404-4314-b218-f822072c5aba","system_id":"levelo_inurba_marseille","lat":43.24065,"lon":5.37763,"is_reserved":false,"is_disabled":false,"rental_uris":{"android":"levelo://app?vid=7c41bab6-0404-4314-b218-f822072c5aba","ios":"levelo://app?vid=7c41bab6-0404-4314-b218-f822072c5aba"},"vehicle_type_id":"4","last_reported":1744232919,"current_range_meters":8400,"station_id":"ce4bhnp2rcd13ifvqgvg","pricing_plan_id":"cebpf4jnsgd1na2vs0mg"},{"bike_id":"f2b0db51-2ec2-479a-992a-5a3075666083","system_id":"levelo_inurba_marseille","lat":43.29849,"lon":5.36287,"is_reserved":false,"is_disabled":false,"rental_uris":{"android":"levelo://app?vid=f2b0db51-2ec2-479a-992a-5a3075666083","ios":"levelo://app?vid=f2b0db51-2ec2-479a-992a-5a3075666083"},"vehicle_type_id":"4","last_reported":1744232919,"current_range_meters":8400,"station_id":"ce4bgpp2rcd13ifvqc3g","pricing_plan_id":"cebpf4jnsgd1na2vs0mg"},{"bike_id":"0f58884c-3ca8-4379-9ac9-5621a95cf9bd","system_id":"levelo_inurba_marseille","lat":43.26565,"lon":5.3901,"is_reserved":false,"is_disabled":false,"rental_uris":{"android":"levelo://app?vid=0f58884c-3ca8-4379-9ac9-5621a95cf9bd","ios":"levelo://app?vid=0f58884c-3ca8-4379-9ac9-5621a95cf9bd"},"vehicle_type_id":"4","last_reported":1744232919,"current_range_meters":8400,"station_id":"ce4bhe12rcd13ifvqf30","pricing_plan_id":"cebpf4jnsgd1na2vs0mg"},{"bike_id":"c3f46634-3305-48d5-8bab-834f101f8d30","system_id":"levelo_inurba_marseille","lat":43.286981,"lon":5.373998,"is_reserved":false,"is_disabled":false,"rental_uris":{"android":"levelo://app?vid=c3f46634-3305-48d5-8bab-834f101f8d30","ios":"levelo://app?vid=c3f46634-3305-48d5-8bab-834f101f8d30"},"vehicle_type_id":"4","last_reported":1744232919,"current_range_meters":8400,"station_id":"ce4bha12rcd13ifvqef0","pricing_plan_id":"cebpf4jnsgd1na2vs0mg"},{"bike_id":"fc973399-e131-445b-9648-7b0ac8e69419","system_id":"levelo_inurba_marseille","lat":43.26563,"lon":5.37296,"is_reserved":false,"is_disabled":false,"rental_uris":{"android":"levelo://app?vid=fc973399-e131-445b-9648-7b0ac8e69419","ios":"levelo://app?vid=fc973399-e131-445b-9648-7b0ac8e69419"},"vehicle_type_id":"4","last_reported":1744232919,"current_range_meters":8400,"station_id":"ce4bhg12rcd13ifvqf70","pricing_plan_id":"cebpf4jnsgd1na2vs0mg"},{"bike_id":"b4218643-c35e-414b-b1e6-d136f98ecb8c","system_id":"levelo_inurba_marseille","lat":43.30261,"lon":5.40098,"is_reserved":false,"is_disabled":false,"rental_uris":{"android":"levelo://app?vid=b4218643-c35e-414b-b1e6-d136f98ecb8c","ios":"levelo://app?vid=b4218643-c35e-414b-b1e6-d136f98ecb8c"},"vehicle_type_id":"4","last_reported":1744232919,"current_range_meters":8400,"station_id":"ce4bgvh2rcd13ifvqcs0","pricing_plan_id":"cebpf4jnsgd1na2vs0mg"},{"bike_id":"2ea0e531-d908-4aba-86b9-16b6889b5ad9","system_id":"levelo_inurba_marseille","lat":43.28367,"lon":5.38646,"is_reserved":false,"is_disabled":false,"rental_uris":{"android":"levelo://app?vid=2ea0e531-d908-4aba-86b9-16b6889b5ad9","ios":"levelo://app?vid=2ea0e531-d908-4aba-86b9-16b6889b5ad9"},"vehicle_type_id":"4","last_reported":1744232919,"current_range_meters":8400,"station_id":"ce4bh492rcd13ifvqdvg","pricing_plan_id":"cebpf4jnsgd1na2vs0mg"},{"bike_id":"c6b6975e-7c57-426a-81aa-a263f3e5bca2","system_id":"levelo_inurba_marseille","lat":43.28883,"lon":5.35823,"is_reserved":false,"is_disabled":true,"rental_uris":{"android":"levelo://app?vid=c6b6975e-7c57-426a-81aa-a263f3e5bca2","ios":"levelo://app?vid=c6b6975e-7c57-426a-81aa-a263f3e5bca2"},"vehicle_type_id":"4","last_reported":1744232919,"current_range_meters":8400,"station_id":"ce4bhb12rcd13ifvqem0","pricing_plan_id":"cebpf4jnsgd1na2vs0mg"},{"bike_id":"4eb280b3-5923-4cd2-a122-21058a7d0c17","system_id":"levelo_inurba_marseille","lat":43.24177,"lon":5.39728,"is_reserved":false,"is_disabled":false,"rental_uris":{"android":"levelo://app?vid=4eb280b3-5923-4cd2-a122-21058a7d0c17","ios":"levelo://app?vid=4eb280b3-5923-4cd2-a122-21058a7d0c17"},"vehicle_type_id":"4","last_reported":1744232919,"current_range_meters":8800,"station_id":"ce4bhn12rcd13ifvqgpg","pricing_plan_id":"cebpf4jnsgd1na2vs0mg"},{"bike_id":"d3e21a76-c23b-4995-851d-d1b8e438f8d5","system_id":"levelo_inurba_marseille","lat":43.24648,"lon":5.38173,"is_reserved":false,"is_disabled":false,"rental_uris":{"android":"levelo://app?vid=d3e21a76-c23b-4995-851d-d1b8e438f8d5","ios":"levelo://app?vid=d3e21a76-c23b-4995-851d-d1b8e438f8d5"},"vehicle_type_id":"4","last_reported":1744232919,"current_range_meters":8800,"station_id":"ce4bhih2rcd13ifvqfr0","pricing_plan_id":"cebpf4jnsgd1na2vs0mg"},{"bike_id":"841cc48f-644f-4c42-a397-236e943da4b4","system_id":"levelo_inurba_marseille","lat":43.270746,"lon":5.422843,"is_reserved":false,"is_disabled":false,"rental_uris":{"android":"levelo://app?vid=841cc48f-644f-4c42-a397-236e943da4b4","ios":"levelo://app?vid=841cc48f-644f-4c42-a397-236e943da4b4"},"vehicle_type_id":"4","last_reported":1744232919,"current_range_meters":8800,"station_id":"ce4bhk92rcd13ifvqgb0","pricing_plan_id":"cebpf4jnsgd1na2vs0mg"},{"bike_id":"3ff04e72-73e5-4ada-9baf-e5e1244be974","system_id":"levelo_inurba_marseille","lat":43.31345,"lon":5.39726,"is_reserved":false,"is_disabled":false,"rental_uris":{"android":"levelo://app?vid=3ff04e72-73e5-4ada-9baf-e5e1244be974","ios":"levelo://app?vid=3ff04e72-73e5-4ada-9baf-e5e1244be974"},"vehicle_type_id":"4","last_reported":1744232919,"current_range_meters":8800,"station_id":"ce4bgvp2rcd13ifvqcu0","pricing_plan_id":"cebpf4jnsgd1na2vs0mg"},{"bike_id":"d053714a-5cec-483d-91ca-b34517dfece3","system_id":"levelo_inurba_marseille","lat":43.29776,"lon":5.370842,"is_reserved":false,"is_disabled":false,"rental_uris":{"android":"levelo://app?vid=d053714a-5cec-483d-91ca-b34517dfece3","ios":"levelo://app?vid=d053714a-5cec-483d-91ca-b34517dfece3"},"vehicle_type_id":"4","last_reported":1744232919,"current_range_meters":9200,"station_id":"","pricing_plan_id":"cebpf4jnsgd1na2vs0mg"},{"bike_id":"ff731aec-71b8-46a4-8e6a-87f50d4c0728","system_id":"levelo_inurba_marseille","lat":43.28327,"lon":5.38147,"is_reserved":false,"is_disabled":false,"rental_uris":{"android":"levelo://app?vid=ff731aec-71b8-46a4-8e6a-87f50d4c0728","ios":"levelo://app?vid=ff731aec-71b8-46a4-8e6a-87f50d4c0728"},"vehicle_type_id":"4","last_reported":1744232919,"current_range_meters":9200,"station_id":"ce4bh412rcd13ifvqdr0","pricing_plan_id":"cebpf4jnsgd1na2vs0mg"},{"bike_id":"fdb4c052-f138-4355-8297-fbb28be751b3","system_id":"levelo_inurba_marseille","lat":43.27369,"lon":5.36261,"is_reserved":false,"is_disabled":true,"rental_uris":{"android":"levelo://app?vid=fdb4c052-f138-4355-8297-fbb28be751b3","ios":"levelo://app?vid=fdb4c052-f138-4355-8297-fbb28be751b3"},"vehicle_type_id":"4","last_reported":1744232919,"current_range_meters":9200,"station_id":"ce4bhbh2rcd13ifvqeo0","pricing_plan_id":"cebpf4jnsgd1na2vs0mg"},{"bike_id":"08294fca-a3e2-4094-bdc6-31bcd02a29d1","system_id":"levelo_inurba_marseille","lat":43.28719,"lon":5.3794,"is_reserved":false,"is_disabled":false,"rental_uris":{"android":"levelo://app?vid=08294fca-a3e2-4094-bdc6-31bcd02a29d1","ios":"levelo://app?vid=08294fca-a3e2-4094-bdc6-31bcd02a29d1"},"vehicle_type_id":"4","last_reported":1744232919,"current_range_meters":9200,"station_id":"ce4bh9p2rcd13ifvqec0","pricing_plan_id":"cebpf4jnsgd1na2vs0mg"},{"bike_id":"a6062fb8-9956-4878-9240-a78ab7935b55","system_id":"levelo_inurba_marseille","lat":43.27919,"lon":5.39587,"is_reserved":false,"is_disabled":false,"rental_uris":{"android":"levelo://app?vid=a6062fb8-9956-4878-9240-a78ab7935b55","ios":"levelo://app?vid=a6062fb8-9956-4878-9240-a78ab7935b55"},"vehicle_type_id":"4","last_reported":1744232919,"current_range_meters":9200,"station_id":"ce4bhf92rcd13ifvqf40","pricing_plan_id":"cebpf4jnsgd1na2vs0mg"},{"bike_id":"0e7051ad-00f7-4897-9995-929c1987289a","system_id":"levelo_inurba_marseille","lat":43.34171,"lon":5.37008,"is_reserved":false,"is_disabled":false,"rental_uris":{"android":"levelo://app?vid=0e7051ad-00f7-4897-9995-929c1987289a","ios":"levelo://app?vid=0e7051ad-00f7-4897-9995-929c1987289a"},"vehicle_type_id":"4","last_reported":1744232919,"current_range_meters":9200,"station_id":"","pricing_plan_id":"cebpf4jnsgd1na2vs0mg"},{"bike_id":"85c6c1a7-1e02-4ae5-b680-67cbc15bed7f","system_id":"levelo_inurba_marseille","lat":43.27484,"lon":5.42443,"is_reserved":false,"is_disabled":false,"rental_uris":{"android":"levelo://app?vid=85c6c1a7-1e02-4ae5-b680-67cbc15bed7f","ios":"levelo://app?vid=85c6c1a7-1e02-4ae5-b680-67cbc15bed7f"},"vehicle_type_id":"4","last_reported":1744232919,"current_range_meters":9600,"station_id":"ce4bhn92rcd13ifvqgrg","pricing_plan_id":"cebpf4jnsgd1na2vs0mg"},{"bike_id":"8b1885c7-c990-486a-9363-3a428e6713c7","system_id":"levelo_inurba_marseille","lat":43.2845,"lon":5.35918,"is_reserved":false,"is_disabled":false,"rental_uris":{"android":"levelo://app?vid=8b1885c7-c990-486a-9363-3a428e6713c7","ios":"levelo://app?vid=8b1885c7-c990-486a-9363-3a428e6713c7"},"vehicle_type_id":"4","last_reported":1744232919,"current_range_meters":9600,"station_id":"ce4bhah2rcd13ifvqei0","pricing_plan_id":"cebpf4jnsgd1na2vs0mg"},{"bike_id":"1a8c3bfa-7658-4f5e-93b8-93807ec24b6f","system_id":"levelo_inurba_marseille","lat":43.26571,"lon":5.39012,"is_reserved":false,"is_disabled":true,"rental_uris":{"android":"levelo://app?vid=1a8c3bfa-7658-4f5e-93b8-93807ec24b6f","ios":"levelo://app?vid=1a8c3bfa-7658-4f5e-93b8-93807ec24b6f"},"vehicle_type_id":"4","last_reported":1744232919,"current_range_meters":9600,"station_id":"ce4bhe12rcd13ifvqf30","pricing_plan_id":"cebpf4jnsgd1na2vs0mg"},{"bike_id":"31fd1cbf-a0a9-4619-9ea1-c4ae63c3ca70","system_id":"levelo_inurba_marseille","lat":43.25113,"lon":5.4032,"is_reserved":false,"is_disabled":false,"rental_uris":{"android":"levelo://app?vid=31fd1cbf-a0a9-4619-9ea1-c4ae63c3ca70","ios":"levelo://app?vid=31fd1cbf-a0a9-4619-9ea1-c4ae63c3ca70"},"vehicle_type_id":"4","last_reported":1744232919,"current_range_meters":9600,"station_id":"ce4bhlh2rcd13ifvqgig","pricing_plan_id":"cebpf4jnsgd1na2vs0mg"},{"bike_id":"a5f81979-db12-42e6-b86b-94d39f8f2d1c","system_id":"levelo_inurba_marseille","lat":43.310836,"lon":5.424306,"is_reserved":false,"is_disabled":false,"rental_uris":{"android":"levelo://app?vid=a5f81979-db12-42e6-b86b-94d39f8f2d1c","ios":"levelo://app?vid=a5f81979-db12-42e6-b86b-94d39f8f2d1c"},"vehicle_type_id":"4","last_reported":1744232919,"current_range_meters":9600,"station_id":"ce4bhp92rcd13ifvqhag","pricing_plan_id":"cebpf4jnsgd1na2vs0mg"},{"bike_id":"d6560052-20ef-4042-a568-efb998a7476b","system_id":"levelo_inurba_marseille","lat":43.30905,"lon":5.3686,"is_reserved":false,"is_disabled":false,"rental_uris":{"android":"levelo://app?vid=d6560052-20ef-4042-a568-efb998a7476b","ios":"levelo://app?vid=d6560052-20ef-4042-a568-efb998a7476b"},"vehicle_type_id":"4","last_reported":1744232919,"current_range_meters":9600,"station_id":"ce4bgn92rcd13ifvqbvg","pricing_plan_id":"cebpf4jnsgd1na2vs0mg"},{"bike_id":"aac5e7eb-6c98-470f-99b0-2e086ce3595a","system_id":"levelo_inurba_marseille","lat":43.27914,"lon":5.39588,"is_reserved":false,"is_disabled":false,"rental_uris":{"android":"levelo://app?vid=aac5e7eb-6c98-470f-99b0-2e086ce3595a","ios":"levelo://app?vid=aac5e7eb-6c98-470f-99b0-2e086ce3595a"},"vehicle_type_id":"4","last_reported":1744232919,"current_range_meters":9600,"station_id":"ce4bhf92rcd13ifvqf40","pricing_plan_id":"cebpf4jnsgd1na2vs0mg"},{"bike_id":"b0ee8110-12b9-4204-b103-76680f3e4afd","system_id":"levelo_inurba_marseille","lat":43.30669,"lon":5.40079,"is_reserved":false,"is_disabled":false,"rental_uris":{"android":"levelo://app?vid=b0ee8110-12b9-4204-b103-76680f3e4afd","ios":"levelo://app?vid=b0ee8110-12b9-4204-b103-76680f3e4afd"},"vehicle_type_id":"4","last_reported":1744232919,"current_range_meters":9600,"station_id":"ce4bh112rcd13ifvqda0","pricing_plan_id":"cebpf4jnsgd1na2vs0mg"},{"bike_id":"8fa78f52-8834-4b2c-8a1d-e4f911c35cd4","system_id":"levelo_inurba_marseille","lat":43.25706,"lon":5.41119,"is_reserved":false,"is_disabled":true,"rental_uris":{"android":"levelo://app?vid=8fa78f52-8834-4b2c-8a1d-e4f911c35cd4","ios":"levelo://app?vid=8fa78f52-8834-4b2c-8a1d-e4f911c35cd4"},"vehicle_type_id":"4","last_reported":1744232919,"current_range_meters":10000,"station_id":"ce4bhkp2rcd13ifvqgd0","pricing_plan_id":"cebpf4jnsgd1na2vs0mg"},{"bike_id":"cf334e37-1932-42c6-b9e9-e5d0e849cd74","system_id":"levelo_inurba_marseille","lat":43.29518,"lon":5.39404,"is_reserved":false,"is_disabled":false,"rental_uris":{"android":"levelo://app?vid=cf334e37-1932-42c6-b9e9-e5d0e849cd74","ios":"levelo://app?vid=cf334e37-1932-42c6-b9e9-e5d0e849cd74"},"vehicle_type_id":"4","last_reported":1744232919,"current_range_meters":10000,"station_id":"ce4bh292rcd13ifvqdf0","pricing_plan_id":"cebpf4jnsgd1na2vs0mg"},{"bike_id":"68bb489e-c4e2-4ece-ba38-7a818ae7ebb3","system_id":"levelo_inurba_marseille","lat":43.27817,"lon":5.39219,"is_reserved":false,"is_disabled":false,"rental_uris":{"android":"levelo://app?vid=68bb489e-c4e2-4ece-ba38-7a818ae7ebb3","ios":"levelo://app?vid=68bb489e-c4e2-4ece-ba38-7a818ae7ebb3"},"vehicle_type_id":"4","last_reported":1744232919,"current_range_meters":10000,"station_id":"ce4bhjp2rcd13ifvqga0","pricing_plan_id":"cebpf4jnsgd1na2vs0mg"},{"bike_id":"60bc3fb2-7a9c-478d-bae3-531d94541e5b","system_id":"levelo_inurba_marseille","lat":43.27089,"lon":5.42264,"is_reserved":false,"is_disabled":false,"rental_uris":{"android":"levelo://app?vid=60bc3fb2-7a9c-478d-bae3-531d94541e5b","ios":"levelo://app?vid=60bc3fb2-7a9c-478d-bae3-531d94541e5b"},"vehicle_type_id":"4","last_reported":1744232919,"current_range_meters":10000,"station_id":"ce4bhk92rcd13ifvqgb0","pricing_plan_id":"cebpf4jnsgd1na2vs0mg"},{"bike_id":"d70ea41c-0e47-4cda-83b6-f7121878c5e6","system_id":"levelo_inurba_marseille","lat":43.30943,"lon":5.40138,"is_reserved":false,"is_disabled":false,"rental_uris":{"android":"levelo://app?vid=d70ea41c-0e47-4cda-83b6-f7121878c5e6","ios":"levelo://app?vid=d70ea41c-0e47-4cda-83b6-f7121878c5e6"},"vehicle_type_id":"4","last_reported":1744232919,"current_range_meters":10000,"station_id":"ce4bgvp2rcd13ifvqct0","pricing_plan_id":"cebpf4jnsgd1na2vs0mg"},{"bike_id":"06b151c5-ace7-42a9-b46b-d2596e010a5f","system_id":"levelo_inurba_marseille","lat":43.27809,"lon":5.40715,"is_reserved":false,"is_disabled":false,"rental_uris":{"android":"levelo://app?vid=06b151c5-ace7-42a9-b46b-d2596e010a5f","ios":"levelo://app?vid=06b151c5-ace7-42a9-b46b-d2596e010a5f"},"vehicle_type_id":"4","last_reported":1744232919,"current_range_meters":10000,"station_id":"ce4bhnh2rcd13ifvqgtg","pricing_plan_id":"cebpf4jnsgd1na2vs0mg"},{"bike_id":"8f6c02db-644f-41e4-98a2-e0b21a4c9465","system_id":"levelo_inurba_marseille","lat":43.27959,"lon":5.38714,"is_reserved":false,"is_disabled":false,"rental_uris":{"android":"levelo://app?vid=8f6c02db-644f-41e4-98a2-e0b21a4c9465","ios":"levelo://app?vid=8f6c02db-644f-41e4-98a2-e0b21a4c9465"},"vehicle_type_id":"4","last_reported":1744232919,"current_range_meters":10000,"station_id":"ce4bhg12rcd13ifvqf80","pricing_plan_id":"cebpf4jnsgd1na2vs0mg"},{"bike_id":"c1c84328-b412-42f6-bb08-d4273df8d987","system_id":"levelo_inurba_marseille","lat":43.30805,"lon":5.4353,"is_reserved":false,"is_disabled":false,"rental_uris":{"android":"levelo://app?vid=c1c84328-b412-42f6-bb08-d4273df8d987","ios":"levelo://app?vid=c1c84328-b412-42f6-bb08-d4273df8d987"},"vehicle_type_id":"4","last_reported":1744232919,"current_range_meters":10800,"station_id":"ce4bhph2rcd13ifvqheg","pricing_plan_id":"cebpf4jnsgd1na2vs0mg"},{"bike_id":"d1b3ec6e-df03-41dd-b222-2e42a5fd35f6","system_id":"levelo_inurba_marseille","lat":43.2558,"lon":5.38234,"is_reserved":false,"is_disabled":false,"rental_uris":{"android":"levelo://app?vid=d1b3ec6e-df03-41dd-b222-2e42a5fd35f6","ios":"levelo://app?vid=d1b3ec6e-df03-41dd-b222-2e42a5fd35f6"},"vehicle_type_id":"4","last_reported":1744232919,"current_range_meters":10800,"station_id":"ce4bhih2rcd13ifvqfs0","pricing_plan_id":"cebpf4jnsgd1na2vs0mg"},{"bike_id":"01e31f15-bc9b-4d18-bebd-edf19bcedef2","system_id":"levelo_inurba_marseille","lat":43.28703,"lon":5.3795,"is_reserved":false,"is_disabled":true,"rental_uris":{"android":"levelo://app?vid=01e31f15-bc9b-4d18-bebd-edf19bcedef2","ios":"levelo://app?vid=01e31f15-bc9b-4d18-bebd-edf19bcedef2"},"vehicle_type_id":"4","last_reported":1744232919,"current_range_meters":10800,"station_id":"ce4bh9p2rcd13ifvqec0","pricing_plan_id":"cebpf4jnsgd1na2vs0mg"},{"bike_id":"da89b175-f719-43fe-8eec-54e316ac9d8c","system_id":"levelo_inurba_marseille","lat":43.29564,"lon":5.39938,"is_reserved":false,"is_disabled":false,"rental_uris":{"android":"levelo://app?vid=da89b175-f719-43fe-8eec-54e316ac9d8c","ios":"levelo://app?vid=da89b175-f719-43fe-8eec-54e316ac9d8c"},"vehicle_type_id":"4","last_reported":1744232919,"current_range_meters":10800,"station_id":"ce4bh312rcd13ifvqdj0","pricing_plan_id":"cebpf4jnsgd1na2vs0mg"},{"bike_id":"5f30a5a4-de9f-499e-b151-b811ebb3b43a","system_id":"levelo_inurba_marseille","lat":43.31076,"lon":5.38355,"is_reserved":false,"is_disabled":true,"rental_uris":{"android":"levelo://app?vid=5f30a5a4-de9f-499e-b151-b811ebb3b43a","ios":"levelo://app?vid=5f30a5a4-de9f-499e-b151-b811ebb3b43a"},"vehicle_type_id":"4","last_reported":1744232919,"current_range_meters":10800,"station_id":"ce4bgv92rcd13ifvqcr0","pricing_plan_id":"cebpf4jnsgd1na2vs0mg"},{"bike_id":"147f9b4c-1c73-4048-93a4-44a3ec726794","system_id":"levelo_inurba_marseille","lat":43.29574,"lon":5.37494,"is_reserved":false,"is_disabled":true,"rental_uris":{"android":"levelo://app?vid=147f9b4c-1c73-4048-93a4-44a3ec726794","ios":"levelo://app?vid=147f9b4c-1c73-4048-93a4-44a3ec726794"},"vehicle_type_id":"4","last_reported":1744232919,"current_range_meters":10800,"station_id":"ce4bgh92rcd13ifvqb50","pricing_plan_id":"cebpf4jnsgd1na2vs0mg"},{"bike_id":"8e8f9f8d-7ff4-4330-a0c9-e83369a7deb3","system_id":"levelo_inurba_marseille","lat":43.29191,"lon":5.39308,"is_reserved":false,"is_disabled":false,"rental_uris":{"android":"levelo://app?vid=8e8f9f8d-7ff4-4330-a0c9-e83369a7deb3","ios":"levelo://app?vid=8e8f9f8d-7ff4-4330-a0c9-e83369a7deb3"},"vehicle_type_id":"4","last_reported":1744232919,"current_range_meters":10800,"station_id":"ce4bh192rcd13ifvqdd0","pricing_plan_id":"cebpf4jnsgd1na2vs0mg"},{"bike_id":"3e3d123d-5e19-4834-bff2-83b4027ee341","system_id":"levelo_inurba_marseille","lat":43.26679,"lon":5.38272,"is_reserved":false,"is_disabled":false,"rental_uris":{"android":"levelo://app?vid=3e3d123d-5e19-4834-bff2-83b4027ee341","ios":"levelo://app?vid=3e3d123d-5e19-4834-bff2-83b4027ee341"},"vehicle_type_id":"4","last_reported":1744232919,"current_range_meters":10800,"station_id":"ce4bhg92rcd13ifvqf90","pricing_plan_id":"cebpf4jnsgd1na2vs0mg"},{"bike_id":"9f000f15-44e9-41e4-b51d-12e9a7f823c3","system_id":"levelo_inurba_marseille","lat":43.26196,"lon":5.37931,"is_reserved":false,"is_disabled":false,"rental_uris":{"android":"levelo://app?vid=9f000f15-44e9-41e4-b51d-12e9a7f823c3","ios":"levelo://app?vid=9f000f15-44e9-41e4-b51d-12e9a7f823c3"},"vehicle_type_id":"4","last_reported":1744232919,"current_range_meters":11200,"station_id":"ce4bhjp2rcd13ifvqg90","pricing_plan_id":"cebpf4jnsgd1na2vs0mg"},{"bike_id":"17f4902e-c861-4806-a819-8e218247cad7","system_id":"levelo_inurba_marseille","lat":43.24673,"lon":5.38171,"is_reserved":false,"is_disabled":false,"rental_uris":{"android":"levelo://app?vid=17f4902e-c861-4806-a819-8e218247cad7","ios":"levelo://app?vid=17f4902e-c861-4806-a819-8e218247cad7"},"vehicle_type_id":"4","last_reported":1744232919,"current_range_meters":11200,"station_id":"ce4bhih2rcd13ifvqfr0","pricing_plan_id":"cebpf4jnsgd1na2vs0mg"},{"bike_id":"b85221dc-73c2-4729-bd2d-bf033ae6c975","system_id":"levelo_inurba_marseille","lat":43.29901,"lon":5.39749,"is_reserved":false,"is_disabled":false,"rental_uris":{"android":"levelo://app?vid=b85221dc-73c2-4729-bd2d-bf033ae6c975","ios":"levelo://app?vid=b85221dc-73c2-4729-bd2d-bf033ae6c975"},"vehicle_type_id":"4","last_reported":1744232919,"current_range_meters":11200,"station_id":"ce4bh0h2rcd13ifvqd50","pricing_plan_id":"cebpf4jnsgd1na2vs0mg"},{"bike_id":"2b057902-5353-4a42-8c4f-71b0e09d4c02","system_id":"levelo_inurba_marseille","lat":43.3073,"lon":5.42451,"is_reserved":false,"is_disabled":false,"rental_uris":{"android":"levelo://app?vid=2b057902-5353-4a42-8c4f-71b0e09d4c02","ios":"levelo://app?vid=2b057902-5353-4a42-8c4f-71b0e09d4c02"},"vehicle_type_id":"4","last_reported":1744232919,"current_range_meters":11200,"station_id":"st_cvj6ca6bvosntc0bfgr0","pricing_plan_id":"cebpf4jnsgd1na2vs0mg"},{"bike_id":"2cc21995-af47-445b-a1d0-9164b2a9260f","system_id":"levelo_inurba_marseille","lat":43.31883,"lon":5.40739,"is_reserved":false,"is_disabled":false,"rental_uris":{"android":"levelo://app?vid=2cc21995-af47-445b-a1d0-9164b2a9260f","ios":"levelo://app?vid=2cc21995-af47-445b-a1d0-9164b2a9260f"},"vehicle_type_id":"4","last_reported":1744232919,"current_range_meters":11600,"station_id":"ce4bhq12rcd13ifvqhig","pricing_plan_id":"cebpf4jnsgd1na2vs0mg"},{"bike_id":"49ff83c9-b7ae-4714-8e73-f563a5b3bbce","system_id":"levelo_inurba_marseille","lat":43.28126,"lon":5.42582,"is_reserved":false,"is_disabled":false,"rental_uris":{"android":"levelo://app?vid=49ff83c9-b7ae-4714-8e73-f563a5b3bbce","ios":"levelo://app?vid=49ff83c9-b7ae-4714-8e73-f563a5b3bbce"},"vehicle_type_id":"4","last_reported":1744232919,"current_range_meters":11600,"station_id":"","pricing_plan_id":"cebpf4jnsgd1na2vs0mg"},{"bike_id":"5e46e260-3a6a-48a1-932e-819fef6b786b","system_id":"levelo_inurba_marseille","lat":43.30931,"lon":5.40148,"is_reserved":false,"is_disabled":false,"rental_uris":{"android":"levelo://app?vid=5e46e260-3a6a-48a1-932e-819fef6b786b","ios":"levelo://app?vid=5e46e260-3a6a-48a1-932e-819fef6b786b"},"vehicle_type_id":"4","last_reported":1744232919,"current_range_meters":11600,"station_id":"ce4bgvp2rcd13ifvqct0","pricing_plan_id":"cebpf4jnsgd1na2vs0mg"},{"bike_id":"42183e06-5978-4858-b301-03ad7c7deda6","system_id":"levelo_inurba_marseille","lat":43.27166,"lon":5.40987,"is_reserved":false,"is_disabled":false,"rental_uris":{"android":"levelo://app?vid=42183e06-5978-4858-b301-03ad7c7deda6","ios":"levelo://app?vid=42183e06-5978-4858-b301-03ad7c7deda6"},"vehicle_type_id":"4","last_reported":1744232919,"current_range_meters":11600,"station_id":"ce4bhl12rcd13ifvqgf0","pricing_plan_id":"cebpf4jnsgd1na2vs0mg"},{"bike_id":"51220fd5-275f-44db-a81e-280c0ca810af","system_id":"levelo_inurba_marseille","lat":43.32264,"lon":5.38534,"is_reserved":false,"is_disabled":false,"rental_uris":{"android":"levelo://app?vid=51220fd5-275f-44db-a81e-280c0ca810af","ios":"levelo://app?vid=51220fd5-275f-44db-a81e-280c0ca810af"},"vehicle_type_id":"4","last_reported":1744232919,"current_range_meters":11600,"station_id":"","pricing_plan_id":"cebpf4jnsgd1na2vs0mg"},{"bike_id":"b96be04a-adcd-4816-8c18-ee76dccce0e8","system_id":"levelo_inurba_marseille","lat":43.24179,"lon":5.364,"is_reserved":false,"is_disabled":false,"rental_uris":{"android":"levelo://app?vid=b96be04a-adcd-4816-8c18-ee76dccce0e8","ios":"levelo://app?vid=b96be04a-adcd-4816-8c18-ee76dccce0e8"},"vehicle_type_id":"4","last_reported":1744232919,"current_range_meters":11600,"station_id":"cpo36qri1sfpv3e86is0","pricing_plan_id":"cebpf4jnsgd1na2vs0mg"},{"bike_id":"c243072f-6bd2-4d94-ba83-04162cf2a05c","system_id":"levelo_inurba_marseille","lat":43.27211,"lon":5.40095,"is_reserved":false,"is_disabled":false,"rental_uris":{"android":"levelo://app?vid=c243072f-6bd2-4d94-ba83-04162cf2a05c","ios":"levelo://app?vid=c243072f-6bd2-4d94-ba83-04162cf2a05c"},"vehicle_type_id":"4","last_reported":1744232919,"current_range_meters":11600,"station_id":"","pricing_plan_id":"cebpf4jnsgd1na2vs0mg"},{"bike_id":"9fce7fb9-26b6-4832-9f96-ea1b75c489f0","system_id":"levelo_inurba_marseille","lat":43.21177,"lon":5.35066,"is_reserved":false,"is_disabled":false,"rental_uris":{"android":"levelo://app?vid=9fce7fb9-26b6-4832-9f96-ea1b75c489f0","ios":"levelo://app?vid=9fce7fb9-26b6-4832-9f96-ea1b75c489f0"},"vehicle_type_id":"4","last_reported":1744232919,"current_range_meters":12000,"station_id":"st_cvj6sg6p6f1abm77japg","pricing_plan_id":"cebpf4jnsgd1na2vs0mg"},{"bike_id":"4c28f3d7-3228-4605-8a0a-01ab16fbb532","system_id":"levelo_inurba_marseille","lat":43.27206,"lon":5.39214,"is_reserved":false,"is_disabled":true,"rental_uris":{"android":"levelo://app?vid=4c28f3d7-3228-4605-8a0a-01ab16fbb532","ios":"levelo://app?vid=4c28f3d7-3228-4605-8a0a-01ab16fbb532"},"vehicle_type_id":"4","last_reported":1744232919,"current_range_meters":12000,"station_id":"ce4bhhp2rcd13ifvqfm0","pricing_plan_id":"cebpf4jnsgd1na2vs0mg"},{"bike_id":"370c5ce7-3d00-4a67-b12b-0443c7b825ee","system_id":"levelo_inurba_marseille","lat":43.27612,"lon":5.36118,"is_reserved":false,"is_disabled":false,"rental_uris":{"android":"levelo://app?vid=370c5ce7-3d00-4a67-b12b-0443c7b825ee","ios":"levelo://app?vid=370c5ce7-3d00-4a67-b12b-0443c7b825ee"},"vehicle_type_id":"4","last_reported":1744232919,"current_range_meters":12000,"station_id":"ce4bgj92rcd13ifvqbe0","pricing_plan_id":"cebpf4jnsgd1na2vs0mg"},{"bike_id":"0d7206fb-6328-4b01-8cf9-dc42893d6672","system_id":"levelo_inurba_marseille","lat":43.29789,"lon":5.37105,"is_reserved":false,"is_disabled":false,"rental_uris":{"android":"levelo://app?vid=0d7206fb-6328-4b01-8cf9-dc42893d6672","ios":"levelo://app?vid=0d7206fb-6328-4b01-8cf9-dc42893d6672"},"vehicle_type_id":"4","last_reported":1744232919,"current_range_meters":12000,"station_id":"ce4bgop2rcd13ifvqc1g","pricing_plan_id":"cebpf4jnsgd1na2vs0mg"},{"bike_id":"b2323607-30a0-4dcd-b86a-75bb6b4b1da9","system_id":"levelo_inurba_marseille","lat":43.30883,"lon":5.39646,"is_reserved":false,"is_disabled":false,"rental_uris":{"android":"levelo://app?vid=b2323607-30a0-4dcd-b86a-75bb6b4b1da9","ios":"levelo://app?vid=b2323607-30a0-4dcd-b86a-75bb6b4b1da9"},"vehicle_type_id":"4","last_reported":1744232919,"current_range_meters":12400,"station_id":"ce4bh012rcd13ifvqcv0","pricing_plan_id":"cebpf4jnsgd1na2vs0mg"},{"bike_id":"8648d4e2-2d3b-4e70-bd12-e8933055d343","system_id":"levelo_inurba_marseille","lat":43.2867,"lon":5.36349,"is_reserved":false,"is_disabled":false,"rental_uris":{"android":"levelo://app?vid=8648d4e2-2d3b-4e70-bd12-e8933055d343","ios":"levelo://app?vid=8648d4e2-2d3b-4e70-bd12-e8933055d343"},"vehicle_type_id":"4","last_reported":1744232919,"current_range_meters":12400,"station_id":"ce4bhah2rcd13ifvqej0","pricing_plan_id":"cebpf4jnsgd1na2vs0mg"},{"bike_id":"d42e96a4-8360-454d-9c0b-28550ede1a79","system_id":"levelo_inurba_marseille","lat":43.29568,"lon":5.39985,"is_reserved":false,"is_disabled":false,"rental_uris":{"android":"levelo://app?vid=d42e96a4-8360-454d-9c0b-28550ede1a79","ios":"levelo://app?vid=d42e96a4-8360-454d-9c0b-28550ede1a79"},"vehicle_type_id":"4","last_reported":1744232919,"current_range_meters":12400,"station_id":"ce4bh312rcd13ifvqdj0","pricing_plan_id":"cebpf4jnsgd1na2vs0mg"},{"bike_id":"d87cc5c4-1c8e-421b-a351-02b810df9ea3","system_id":"levelo_inurba_marseille","lat":43.25819,"lon":5.39431,"is_reserved":false,"is_disabled":false,"rental_uris":{"android":"levelo://app?vid=d87cc5c4-1c8e-421b-a351-02b810df9ea3","ios":"levelo://app?vid=d87cc5c4-1c8e-421b-a351-02b810df9ea3"},"vehicle_type_id":"4","last_reported":1744232919,"current_range_meters":12400,"station_id":"ce4bhip2rcd13ifvqft0","pricing_plan_id":"cebpf4jnsgd1na2vs0mg"},{"bike_id":"b4b93a64-d083-4ab2-bbd0-53609c602fb5","system_id":"levelo_inurba_marseille","lat":43.3093,"lon":5.40143,"is_reserved":false,"is_disabled":true,"rental_uris":{"android":"levelo://app?vid=b4b93a64-d083-4ab2-bbd0-53609c602fb5","ios":"levelo://app?vid=b4b93a64-d083-4ab2-bbd0-53609c602fb5"},"vehicle_type_id":"4","last_reported":1744232919,"current_range_meters":12400,"station_id":"ce4bgvp2rcd13ifvqct0","pricing_plan_id":"cebpf4jnsgd1na2vs0mg"},{"bike_id":"f2ddeead-c55a-49b3-90e5-4eec0e251056","system_id":"levelo_inurba_marseille","lat":43.31702,"lon":5.43699,"is_reserved":false,"is_disabled":false,"rental_uris":{"android":"levelo://app?vid=f2ddeead-c55a-49b3-90e5-4eec0e251056","ios":"levelo://app?vid=f2ddeead-c55a-49b3-90e5-4eec0e251056"},"vehicle_type_id":"4","last_reported":1744232919,"current_range_meters":12400,"station_id":"ce4bhp92rcd13ifvqhcg","pricing_plan_id":"cebpf4jnsgd1na2vs0mg"},{"bike_id":"cc0b19bd-0040-40ba-8872-0047c3cc2158","system_id":"levelo_inurba_marseille","lat":43.27362,"lon":5.36258,"is_reserved":false,"is_disabled":false,"rental_uris":{"android":"levelo://app?vid=cc0b19bd-0040-40ba-8872-0047c3cc2158","ios":"levelo://app?vid=cc0b19bd-0040-40ba-8872-0047c3cc2158"},"vehicle_type_id":"4","last_reported":1744232919,"current_range_meters":12400,"station_id":"ce4bhbh2rcd13ifvqeo0","pricing_plan_id":"cebpf4jnsgd1na2vs0mg"},{"bike_id":"122cdde6-9512-4fc1-b3dd-8da01087c3ed","system_id":"levelo_inurba_marseille","lat":43.2115,"lon":5.35085,"is_reserved":false,"is_disabled":false,"rental_uris":{"android":"levelo://app?vid=122cdde6-9512-4fc1-b3dd-8da01087c3ed","ios":"levelo://app?vid=122cdde6-9512-4fc1-b3dd-8da01087c3ed"},"vehicle_type_id":"4","last_reported":1744232919,"current_range_meters":12400,"station_id":"","pricing_plan_id":"cebpf4jnsgd1na2vs0mg"},{"bike_id":"de07ea0a-be7c-4e4e-90a4-07f0b64a1287","system_id":"levelo_inurba_marseille","lat":43.24808,"lon":5.37454,"is_reserved":false,"is_disabled":false,"rental_uris":{"android":"levelo://app?vid=de07ea0a-be7c-4e4e-90a4-07f0b64a1287","ios":"levelo://app?vid=de07ea0a-be7c-4e4e-90a4-07f0b64a1287"},"vehicle_type_id":"4","last_reported":1744232919,"current_range_meters":12400,"station_id":"ce4bhgh2rcd13ifvqfb0","pricing_plan_id":"cebpf4jnsgd1na2vs0mg"},{"bike_id":"94dd9459-42c8-4b57-a4ac-e309f448cd0c","system_id":"levelo_inurba_marseille","lat":43.28367,"lon":5.38639,"is_reserved":false,"is_disabled":false,"rental_uris":{"android":"levelo://app?vid=94dd9459-42c8-4b57-a4ac-e309f448cd0c","ios":"levelo://app?vid=94dd9459-42c8-4b57-a4ac-e309f448cd0c"},"vehicle_type_id":"4","last_reported":1744232919,"current_range_meters":12800,"station_id":"ce4bh492rcd13ifvqdvg","pricing_plan_id":"cebpf4jnsgd1na2vs0mg"},{"bike_id":"e616583f-8136-4758-95c9-cfbd8a46ac76","system_id":"levelo_inurba_marseille","lat":43.28474,"lon":5.38414,"is_reserved":false,"is_disabled":false,"rental_uris":{"android":"levelo://app?vid=e616583f-8136-4758-95c9-cfbd8a46ac76","ios":"levelo://app?vid=e616583f-8136-4758-95c9-cfbd8a46ac76"},"vehicle_type_id":"4","last_reported":1744232919,"current_range_meters":12800,"station_id":"ce4bh512rcd13ifvqe3g","pricing_plan_id":"cebpf4jnsgd1na2vs0mg"},{"bike_id":"d44ff2b9-417e-4368-bebb-1fc974db3122","system_id":"levelo_inurba_marseille","lat":43.33634,"lon":5.39751,"is_reserved":false,"is_disabled":false,"rental_uris":{"android":"levelo://app?vid=d44ff2b9-417e-4368-bebb-1fc974db3122","ios":"levelo://app?vid=d44ff2b9-417e-4368-bebb-1fc974db3122"},"vehicle_type_id":"4","last_reported":1744232919,"current_range_meters":12800,"station_id":"","pricing_plan_id":"cebpf4jnsgd1na2vs0mg"},{"bike_id":"ae7f5023-ae11-420f-985c-1ea539511dfd","system_id":"levelo_inurba_marseille","lat":43.30354,"lon":5.41872,"is_reserved":false,"is_disabled":false,"rental_uris":{"android":"levelo://app?vid=ae7f5023-ae11-420f-985c-1ea539511dfd","ios":"levelo://app?vid=ae7f5023-ae11-420f-985c-1ea539511dfd"},"vehicle_type_id":"4","last_reported":1744232919,"current_range_meters":12800,"station_id":"ce4bhop2rcd13ifvqh7g","pricing_plan_id":"cebpf4jnsgd1na2vs0mg"},{"bike_id":"9b9a53ff-a9c9-4d39-9a13-3ede3ffd5177","system_id":"levelo_inurba_marseille","lat":43.27926,"lon":5.39576,"is_reserved":false,"is_disabled":false,"rental_uris":{"android":"levelo://app?vid=9b9a53ff-a9c9-4d39-9a13-3ede3ffd5177","ios":"levelo://app?vid=9b9a53ff-a9c9-4d39-9a13-3ede3ffd5177"},"vehicle_type_id":"4","last_reported":1744232919,"current_range_meters":13600,"station_id":"ce4bhf92rcd13ifvqf40","pricing_plan_id":"cebpf4jnsgd1na2vs0mg"},{"bike_id":"8166caf1-d69e-4d75-aab3-a1662ca94e00","system_id":"levelo_inurba_marseille","lat":43.29101,"lon":5.3814,"is_reserved":false,"is_disabled":false,"rental_uris":{"android":"levelo://app?vid=8166caf1-d69e-4d75-aab3-a1662ca94e00","ios":"levelo://app?vid=8166caf1-d69e-4d75-aab3-a1662ca94e00"},"vehicle_type_id":"4","last_reported":1744232919,"current_range_meters":13600,"station_id":"ce4bh512rcd13ifvqe2g","pricing_plan_id":"cebpf4jnsgd1na2vs0mg"},{"bike_id":"359554b7-9be0-4fad-af0c-7636833d5bf1","system_id":"levelo_inurba_marseille","lat":43.27623,"lon":5.36102,"is_reserved":false,"is_disabled":false,"rental_uris":{"android":"levelo://app?vid=359554b7-9be0-4fad-af0c-7636833d5bf1","ios":"levelo://app?vid=359554b7-9be0-4fad-af0c-7636833d5bf1"},"vehicle_type_id":"4","last_reported":1744232919,"current_range_meters":13600,"station_id":"ce4bgj92rcd13ifvqbe0","pricing_plan_id":"cebpf4jnsgd1na2vs0mg"},{"bike_id":"cc29b15f-44c2-432a-b8c5-44e366421085","system_id":"levelo_inurba_marseille","lat":43.32297,"lon":5.38602,"is_reserved":false,"is_disabled":false,"rental_uris":{"android":"levelo://app?vid=cc29b15f-44c2-432a-b8c5-44e366421085","ios":"levelo://app?vid=cc29b15f-44c2-432a-b8c5-44e366421085"},"vehicle_type_id":"4","last_reported":1744232919,"current_range_meters":13600,"station_id":"","pricing_plan_id":"cebpf4jnsgd1na2vs0mg"},{"bike_id":"8ab6dcfc-9a38-4d9a-b92d-93ebc3289f5f","system_id":"levelo_inurba_marseille","lat":43.26086,"lon":5.39397,"is_reserved":false,"is_disabled":true,"rental_uris":{"android":"levelo://app?vid=8ab6dcfc-9a38-4d9a-b92d-93ebc3289f5f","ios":"levelo://app?vid=8ab6dcfc-9a38-4d9a-b92d-93ebc3289f5f"},"vehicle_type_id":"4","last_reported":1744232919,"current_range_meters":13600,"station_id":"ce4bhh92rcd13ifvqfj0","pricing_plan_id":"cebpf4jnsgd1na2vs0mg"},{"bike_id":"414ede67-eac2-425c-a4ce-c004dccc09ee","system_id":"levelo_inurba_marseille","lat":43.32348,"lon":5.40624,"is_reserved":false,"is_disabled":false,"rental_uris":{"android":"levelo://app?vid=414ede67-eac2-425c-a4ce-c004dccc09ee","ios":"levelo://app?vid=414ede67-eac2-425c-a4ce-c004dccc09ee"},"vehicle_type_id":"4","last_reported":1744232919,"current_range_meters":13600,"station_id":"ce4bhq92rcd13ifvqhjg","pricing_plan_id":"cebpf4jnsgd1na2vs0mg"},{"bike_id":"b22a4ea9-4a92-40e9-885e-b101760a7067","system_id":"levelo_inurba_marseille","lat":43.2885,"lon":5.39297,"is_reserved":false,"is_disabled":false,"rental_uris":{"android":"levelo://app?vid=b22a4ea9-4a92-40e9-885e-b101760a7067","ios":"levelo://app?vid=b22a4ea9-4a92-40e9-885e-b101760a7067"},"vehicle_type_id":"4","last_reported":1744232919,"current_range_meters":13600,"station_id":"ce4bh2p2rcd13ifvqdi0","pricing_plan_id":"cebpf4jnsgd1na2vs0mg"},{"bike_id":"982968a0-33ea-4e15-847b-5762a7864fb4","system_id":"levelo_inurba_marseille","lat":43.30605,"lon":5.39334,"is_reserved":false,"is_disabled":false,"rental_uris":{"android":"levelo://app?vid=982968a0-33ea-4e15-847b-5762a7864fb4","ios":"levelo://app?vid=982968a0-33ea-4e15-847b-5762a7864fb4"},"vehicle_type_id":"4","last_reported":1744232919,"current_range_meters":14000,"station_id":"","pricing_plan_id":"cebpf4jnsgd1na2vs0mg"},{"bike_id":"7be7baa9-3d80-4f05-b34c-d4dccffca30e","system_id":"levelo_inurba_marseille","lat":43.23965,"lon":5.36633,"is_reserved":false,"is_disabled":false,"rental_uris":{"android":"levelo://app?vid=7be7baa9-3d80-4f05-b34c-d4dccffca30e","ios":"levelo://app?vid=7be7baa9-3d80-4f05-b34c-d4dccffca30e"},"vehicle_type_id":"4","last_reported":1744232919,"current_range_meters":14000,"station_id":"ce4bhi12rcd13ifvqfp0","pricing_plan_id":"cebpf4jnsgd1na2vs0mg"},{"bike_id":"e6b27e51-7a6f-4c87-9cdb-e0dbaf392783","system_id":"levelo_inurba_marseille","lat":43.3097,"lon":5.39655,"is_reserved":false,"is_disabled":false,"rental_uris":{"android":"levelo://app?vid=e6b27e51-7a6f-4c87-9cdb-e0dbaf392783","ios":"levelo://app?vid=e6b27e51-7a6f-4c87-9cdb-e0dbaf392783"},"vehicle_type_id":"4","last_reported":1744232919,"current_range_meters":14000,"station_id":"","pricing_plan_id":"cebpf4jnsgd1na2vs0mg"},{"bike_id":"8d708f6d-df7e-4b8c-9703-c7e737ed86bd","system_id":"levelo_inurba_marseille","lat":43.29565,"lon":5.39997,"is_reserved":false,"is_disabled":false,"rental_uris":{"android":"levelo://app?vid=8d708f6d-df7e-4b8c-9703-c7e737ed86bd","ios":"levelo://app?vid=8d708f6d-df7e-4b8c-9703-c7e737ed86bd"},"vehicle_type_id":"4","last_reported":1744232919,"current_range_meters":14000,"station_id":"ce4bh312rcd13ifvqdj0","pricing_plan_id":"cebpf4jnsgd1na2vs0mg"},{"bike_id":"4e50999f-1b83-4f2d-beb9-95cad795279e","system_id":"levelo_inurba_marseille","lat":43.3171,"lon":5.43704,"is_reserved":false,"is_disabled":false,"rental_uris":{"android":"levelo://app?vid=4e50999f-1b83-4f2d-beb9-95cad795279e","ios":"levelo://app?vid=4e50999f-1b83-4f2d-beb9-95cad795279e"},"vehicle_type_id":"4","last_reported":1744232919,"current_range_meters":14400,"station_id":"ce4bhp92rcd13ifvqhcg","pricing_plan_id":"cebpf4jnsgd1na2vs0mg"},{"bike_id":"5829cd0d-c17e-4de3-b63f-9cd151926e69","system_id":"levelo_inurba_marseille","lat":43.29627,"lon":5.36727,"is_reserved":false,"is_disabled":true,"rental_uris":{"android":"levelo://app?vid=5829cd0d-c17e-4de3-b63f-9cd151926e69","ios":"levelo://app?vid=5829cd0d-c17e-4de3-b63f-9cd151926e69"},"vehicle_type_id":"4","last_reported":1744232919,"current_range_meters":14000,"station_id":"","pricing_plan_id":"cebpf4jnsgd1na2vs0mg"},{"bike_id":"ad1fb239-eea7-4ddc-bf81-a667182012d2","system_id":"levelo_inurba_marseille","lat":43.28097,"lon":5.37841,"is_reserved":false,"is_disabled":false,"rental_uris":{"android":"levelo://app?vid=ad1fb239-eea7-4ddc-bf81-a667182012d2","ios":"levelo://app?vid=ad1fb239-eea7-4ddc-bf81-a667182012d2"},"vehicle_type_id":"4","last_reported":1744232919,"current_range_meters":14400,"station_id":"ce4bha12rcd13ifvqee0","pricing_plan_id":"cebpf4jnsgd1na2vs0mg"},{"bike_id":"4d2b5cd5-2c6c-4905-b4b8-8faa5aae631b","system_id":"levelo_inurba_marseille","lat":43.33095,"lon":5.39376,"is_reserved":false,"is_disabled":false,"rental_uris":{"android":"levelo://app?vid=4d2b5cd5-2c6c-4905-b4b8-8faa5aae631b","ios":"levelo://app?vid=4d2b5cd5-2c6c-4905-b4b8-8faa5aae631b"},"vehicle_type_id":"4","last_reported":1744232919,"current_range_meters":14400,"station_id":"","pricing_plan_id":"cebpf4jnsgd1na2vs0mg"},{"bike_id":"76f386ed-2125-44e7-a355-9014e3ae791a","system_id":"levelo_inurba_marseille","lat":43.27905,"lon":5.39579,"is_reserved":false,"is_disabled":false,"rental_uris":{"android":"levelo://app?vid=76f386ed-2125-44e7-a355-9014e3ae791a","ios":"levelo://app?vid=76f386ed-2125-44e7-a355-9014e3ae791a"},"vehicle_type_id":"4","last_reported":1744232919,"current_range_meters":14400,"station_id":"ce4bhf92rcd13ifvqf40","pricing_plan_id":"cebpf4jnsgd1na2vs0mg"},{"bike_id":"6ea13098-fa17-4d72-9a98-dc3e83f8f184","system_id":"levelo_inurba_marseille","lat":43.3088,"lon":5.39623,"is_reserved":false,"is_disabled":false,"rental_uris":{"android":"levelo://app?vid=6ea13098-fa17-4d72-9a98-dc3e83f8f184","ios":"levelo://app?vid=6ea13098-fa17-4d72-9a98-dc3e83f8f184"},"vehicle_type_id":"4","last_reported":1744232919,"current_range_meters":14400,"station_id":"ce4bh012rcd13ifvqcv0","pricing_plan_id":"cebpf4jnsgd1na2vs0mg"},{"bike_id":"3eb4db5a-216b-43d3-addc-9c000b4d9b9f","system_id":"levelo_inurba_marseille","lat":43.30893,"lon":5.39633,"is_reserved":false,"is_disabled":false,"rental_uris":{"android":"levelo://app?vid=3eb4db5a-216b-43d3-addc-9c000b4d9b9f","ios":"levelo://app?vid=3eb4db5a-216b-43d3-addc-9c000b4d9b9f"},"vehicle_type_id":"4","last_reported":1744232919,"current_range_meters":14400,"station_id":"ce4bh012rcd13ifvqcv0","pricing_plan_id":"cebpf4jnsgd1na2vs0mg"},{"bike_id":"3ce3d920-dde9-4fd8-b282-79c836620424","system_id":"levelo_inurba_marseille","lat":43.281623,"lon":5.426293,"is_reserved":false,"is_disabled":false,"rental_uris":{"android":"levelo://app?vid=3ce3d920-dde9-4fd8-b282-79c836620424","ios":"levelo://app?vid=3ce3d920-dde9-4fd8-b282-79c836620424"},"vehicle_type_id":"4","last_reported":1744232919,"current_range_meters":14400,"station_id":"ce4bhnh2rcd13ifvqgug","pricing_plan_id":"cebpf4jnsgd1na2vs0mg"},{"bike_id":"a4069f9c-47c2-49d7-bdc3-df93f55c1305","system_id":"levelo_inurba_marseille","lat":43.26482,"lon":5.39549,"is_reserved":false,"is_disabled":false,"rental_uris":{"android":"levelo://app?vid=a4069f9c-47c2-49d7-bdc3-df93f55c1305","ios":"levelo://app?vid=a4069f9c-47c2-49d7-bdc3-df93f55c1305"},"vehicle_type_id":"4","last_reported":1744232919,"current_range_meters":14800,"station_id":"ce4bhi12rcd13ifvqfq0","pricing_plan_id":"cebpf4jnsgd1na2vs0mg"},{"bike_id":"42c1fdc6-38af-4ea1-a910-702e15d5a9b4","system_id":"levelo_inurba_marseille","lat":43.30927,"lon":5.40157,"is_reserved":false,"is_disabled":true,"rental_uris":{"android":"levelo://app?vid=42c1fdc6-38af-4ea1-a910-702e15d5a9b4","ios":"levelo://app?vid=42c1fdc6-38af-4ea1-a910-702e15d5a9b4"},"vehicle_type_id":"4","last_reported":1744232919,"current_range_meters":14800,"station_id":"ce4bgvp2rcd13ifvqct0","pricing_plan_id":"cebpf4jnsgd1na2vs0mg"},{"bike_id":"13bfc569-62e2-4b36-b92d-cce18f12f717","system_id":"levelo_inurba_marseille","lat":43.31216,"lon":5.36851,"is_reserved":false,"is_disabled":false,"rental_uris":{"android":"levelo://app?vid=13bfc569-62e2-4b36-b92d-cce18f12f717","ios":"levelo://app?vid=13bfc569-62e2-4b36-b92d-cce18f12f717"},"vehicle_type_id":"4","last_reported":1744232919,"current_range_meters":14800,"station_id":"ce4bgl92rcd13ifvqbq0","pricing_plan_id":"cebpf4jnsgd1na2vs0mg"},{"bike_id":"934d286e-1a7a-4e88-8688-5048b50c70aa","system_id":"levelo_inurba_marseille","lat":43.27838,"lon":5.39205,"is_reserved":false,"is_disabled":false,"rental_uris":{"android":"levelo://app?vid=934d286e-1a7a-4e88-8688-5048b50c70aa","ios":"levelo://app?vid=934d286e-1a7a-4e88-8688-5048b50c70aa"},"vehicle_type_id":"4","last_reported":1744232919,"current_range_meters":15200,"station_id":"ce4bhjp2rcd13ifvqga0","pricing_plan_id":"cebpf4jnsgd1na2vs0mg"},{"bike_id":"a17e6cae-e8f2-45c0-b2fd-f1e0af3aab88","system_id":"levelo_inurba_marseille","lat":43.27807,"lon":5.4072,"is_reserved":false,"is_disabled":false,"rental_uris":{"android":"levelo://app?vid=a17e6cae-e8f2-45c0-b2fd-f1e0af3aab88","ios":"levelo://app?vid=a17e6cae-e8f2-45c0-b2fd-f1e0af3aab88"},"vehicle_type_id":"4","last_reported":1744232919,"current_range_meters":15200,"station_id":"ce4bhnh2rcd13ifvqgtg","pricing_plan_id":"cebpf4jnsgd1na2vs0mg"},{"bike_id":"d5271ad9-da96-4b25-a877-fbc78197d97e","system_id":"levelo_inurba_marseille","lat":43.31181,"lon":5.38721,"is_reserved":false,"is_disabled":false,"rental_uris":{"android":"levelo://app?vid=d5271ad9-da96-4b25-a877-fbc78197d97e","ios":"levelo://app?vid=d5271ad9-da96-4b25-a877-fbc78197d97e"},"vehicle_type_id":"4","last_reported":1744232919,"current_range_meters":15200,"station_id":"ce4bgv12rcd13ifvqcp0","pricing_plan_id":"cebpf4jnsgd1na2vs0mg"},{"bike_id":"5154dce8-1dfa-451e-b897-845edc6aea9b","system_id":"levelo_inurba_marseille","lat":43.29761,"lon":5.37052,"is_reserved":false,"is_disabled":false,"rental_uris":{"android":"levelo://app?vid=5154dce8-1dfa-451e-b897-845edc6aea9b","ios":"levelo://app?vid=5154dce8-1dfa-451e-b897-845edc6aea9b"},"vehicle_type_id":"4","last_reported":1744232919,"current_range_meters":16000,"station_id":"ce4bgop2rcd13ifvqc1g","pricing_plan_id":"cebpf4jnsgd1na2vs0mg"},{"bike_id":"5d14c852-7d39-4daa-9337-9b008497a52a","system_id":"levelo_inurba_marseille","lat":43.29412,"lon":5.38627,"is_reserved":false,"is_disabled":true,"rental_uris":{"android":"levelo://app?vid=5d14c852-7d39-4daa-9337-9b008497a52a","ios":"levelo://app?vid=5d14c852-7d39-4daa-9337-9b008497a52a"},"vehicle_type_id":"4","last_reported":1744232919,"current_range_meters":16000,"station_id":"ce4bh2h2rcd13ifvqdh0","pricing_plan_id":"cebpf4jnsgd1na2vs0mg"},{"bike_id":"ae158248-d8c1-42a9-9466-b356e48cc0e3","system_id":"levelo_inurba_marseille","lat":43.308,"lon":5.38157,"is_reserved":false,"is_disabled":false,"rental_uris":{"android":"levelo://app?vid=ae158248-d8c1-42a9-9466-b356e48cc0e3","ios":"levelo://app?vid=ae158248-d8c1-42a9-9466-b356e48cc0e3"},"vehicle_type_id":"4","last_reported":1744232919,"current_range_meters":16000,"station_id":"ce4bgt12rcd13ifvqce0","pricing_plan_id":"cebpf4jnsgd1na2vs0mg"},{"bike_id":"6621f1b3-f2d5-4b59-91dd-98e3f63c3ef9","system_id":"levelo_inurba_marseille","lat":43.29046,"lon":5.35923,"is_reserved":false,"is_disabled":false,"rental_uris":{"android":"levelo://app?vid=6621f1b3-f2d5-4b59-91dd-98e3f63c3ef9","ios":"levelo://app?vid=6621f1b3-f2d5-4b59-91dd-98e3f63c3ef9"},"vehicle_type_id":"4","last_reported":1744232919,"current_range_meters":16000,"station_id":"ce4bha92rcd13ifvqeg0","pricing_plan_id":"cebpf4jnsgd1na2vs0mg"},{"bike_id":"1a3cd0ab-ec77-41b3-982c-74e5093499a8","system_id":"levelo_inurba_marseille","lat":43.30466,"lon":5.38899,"is_reserved":false,"is_disabled":true,"rental_uris":{"android":"levelo://app?vid=1a3cd0ab-ec77-41b3-982c-74e5093499a8","ios":"levelo://app?vid=1a3cd0ab-ec77-41b3-982c-74e5093499a8"},"vehicle_type_id":"4","last_reported":1744232919,"current_range_meters":16000,"station_id":"ce4bgk12rcd13ifvqbi0","pricing_plan_id":"cebpf4jnsgd1na2vs0mg"},{"bike_id":"8ef273ac-c689-4f24-a851-468efa4e0854","system_id":"levelo_inurba_marseille","lat":43.29005,"lon":5.36833,"is_reserved":false,"is_disabled":false,"rental_uris":{"android":"levelo://app?vid=8ef273ac-c689-4f24-a851-468efa4e0854","ios":"levelo://app?vid=8ef273ac-c689-4f24-a851-468efa4e0854"},"vehicle_type_id":"4","last_reported":1744232919,"current_range_meters":16000,"station_id":"","pricing_plan_id":"cebpf4jnsgd1na2vs0mg"},{"bike_id":"066918e9-658d-41fb-94df-83bd20a02c25","system_id":"levelo_inurba_marseille","lat":43.23058,"lon":5.35484,"is_reserved":false,"is_disabled":true,"rental_uris":{"android":"levelo://app?vid=066918e9-658d-41fb-94df-83bd20a02c25","ios":"levelo://app?vid=066918e9-658d-41fb-94df-83bd20a02c25"},"vehicle_type_id":"4","last_reported":1744232919,"current_range_meters":16400,"station_id":"cpo3342slgdg3j2ifvpg","pricing_plan_id":"cebpf4jnsgd1na2vs0mg"},{"bike_id":"ba260ce7-c346-4426-9a40-e0bbd6c1a81c","system_id":"levelo_inurba_marseille","lat":43.29612,"lon":5.3814,"is_reserved":false,"is_disabled":false,"rental_uris":{"android":"levelo://app?vid=ba260ce7-c346-4426-9a40-e0bbd6c1a81c","ios":"levelo://app?vid=ba260ce7-c346-4426-9a40-e0bbd6c1a81c"},"vehicle_type_id":"4","last_reported":1744232919,"current_range_meters":16400,"station_id":"ce4bgl12rcd13ifvqbo0","pricing_plan_id":"cebpf4jnsgd1na2vs0mg"},{"bike_id":"5047455d-c97a-4875-9440-a0dd56a0356d","system_id":"levelo_inurba_marseille","lat":43.32359,"lon":5.36734,"is_reserved":false,"is_disabled":false,"rental_uris":{"android":"levelo://app?vid=5047455d-c97a-4875-9440-a0dd56a0356d","ios":"levelo://app?vid=5047455d-c97a-4875-9440-a0dd56a0356d"},"vehicle_type_id":"4","last_reported":1744232919,"current_range_meters":16400,"station_id":"ce4bhsh2rcd13ifvqi2g","pricing_plan_id":"cebpf4jnsgd1na2vs0mg"},{"bike_id":"07e370a6-4fb2-4567-9428-21fe2e13531b","system_id":"levelo_inurba_marseille","lat":43.28159,"lon":5.4264,"is_reserved":false,"is_disabled":false,"rental_uris":{"android":"levelo://app?vid=07e370a6-4fb2-4567-9428-21fe2e13531b","ios":"levelo://app?vid=07e370a6-4fb2-4567-9428-21fe2e13531b"},"vehicle_type_id":"4","last_reported":1744232919,"current_range_meters":16400,"station_id":"ce4bhnh2rcd13ifvqgug","pricing_plan_id":"cebpf4jnsgd1na2vs0mg"},{"bike_id":"e305259c-6e8b-4c30-bb3e-d31643eeb2cc","system_id":"levelo_inurba_marseille","lat":43.29255,"lon":5.40172,"is_reserved":false,"is_disabled":false,"rental_uris":{"android":"levelo://app?vid=e305259c-6e8b-4c30-bb3e-d31643eeb2cc","ios":"levelo://app?vid=e305259c-6e8b-4c30-bb3e-d31643eeb2cc"},"vehicle_type_id":"4","last_reported":1744232919,"current_range_meters":16800,"station_id":"ce4bh312rcd13ifvqdk0","pricing_plan_id":"cebpf4jnsgd1na2vs0mg"},{"bike_id":"e294201b-353a-4033-93e9-19d8f22d2aa7","system_id":"levelo_inurba_marseille","lat":43.29262,"lon":5.40907,"is_reserved":false,"is_disabled":false,"rental_uris":{"android":"levelo://app?vid=e294201b-353a-4033-93e9-19d8f22d2aa7","ios":"levelo://app?vid=e294201b-353a-4033-93e9-19d8f22d2aa7"},"vehicle_type_id":"4","last_reported":1744232919,"current_range_meters":16800,"station_id":"ce4bh192rcd13ifvqdc0","pricing_plan_id":"cebpf4jnsgd1na2vs0mg"},{"bike_id":"61368bc6-2f35-48e8-8699-4eb46dedda74","system_id":"levelo_inurba_marseille","lat":43.324745,"lon":5.365595,"is_reserved":false,"is_disabled":false,"rental_uris":{"android":"levelo://app?vid=61368bc6-2f35-48e8-8699-4eb46dedda74","ios":"levelo://app?vid=61368bc6-2f35-48e8-8699-4eb46dedda74"},"vehicle_type_id":"4","last_reported":1744232919,"current_range_meters":16800,"station_id":"ce4bhs12rcd13ifvqhvg","pricing_plan_id":"cebpf4jnsgd1na2vs0mg"},{"bike_id":"878ca4bf-6e3c-4046-a2c9-3a2ba34ef415","system_id":"levelo_inurba_marseille","lat":43.29928,"lon":5.365505,"is_reserved":false,"is_disabled":false,"rental_uris":{"android":"levelo://app?vid=878ca4bf-6e3c-4046-a2c9-3a2ba34ef415","ios":"levelo://app?vid=878ca4bf-6e3c-4046-a2c9-3a2ba34ef415"},"vehicle_type_id":"4","last_reported":1744232919,"current_range_meters":16800,"station_id":"ce4bgm92rcd13ifvqbr0","pricing_plan_id":"cebpf4jnsgd1na2vs0mg"},{"bike_id":"11b51f7d-d7f9-4c58-a90b-7482f9a355ab","system_id":"levelo_inurba_marseille","lat":43.27821,"lon":5.39206,"is_reserved":false,"is_disabled":false,"rental_uris":{"android":"levelo://app?vid=11b51f7d-d7f9-4c58-a90b-7482f9a355ab","ios":"levelo://app?vid=11b51f7d-d7f9-4c58-a90b-7482f9a355ab"},"vehicle_type_id":"4","last_reported":1744232919,"current_range_meters":16800,"station_id":"ce4bhjp2rcd13ifvqga0","pricing_plan_id":"cebpf4jnsgd1na2vs0mg"},{"bike_id":"58a06d5c-23f8-466b-a88d-449307d0c901","system_id":"levelo_inurba_marseille","lat":43.31473,"lon":5.36865,"is_reserved":false,"is_disabled":false,"rental_uris":{"android":"levelo://app?vid=58a06d5c-23f8-466b-a88d-449307d0c901","ios":"levelo://app?vid=58a06d5c-23f8-466b-a88d-449307d0c901"},"vehicle_type_id":"4","last_reported":1744232919,"current_range_meters":16800,"station_id":"","pricing_plan_id":"cebpf4jnsgd1na2vs0mg"},{"bike_id":"7a0989a6-30c7-4223-ae20-b640f84bdd1c","system_id":"levelo_inurba_marseille","lat":43.30313,"lon":5.36889,"is_reserved":false,"is_disabled":false,"rental_uris":{"android":"levelo://app?vid=7a0989a6-30c7-4223-ae20-b640f84bdd1c","ios":"levelo://app?vid=7a0989a6-30c7-4223-ae20-b640f84bdd1c"},"vehicle_type_id":"4","last_reported":1744232919,"current_range_meters":16800,"station_id":"ce4bgqh2rcd13ifvqc5g","pricing_plan_id":"cebpf4jnsgd1na2vs0mg"},{"bike_id":"f9fde33d-3e05-4f24-9670-2ad2d1cacdc1","system_id":"levelo_inurba_marseille","lat":43.28813,"lon":5.37276,"is_reserved":false,"is_disabled":false,"rental_uris":{"android":"levelo://app?vid=f9fde33d-3e05-4f24-9670-2ad2d1cacdc1","ios":"levelo://app?vid=f9fde33d-3e05-4f24-9670-2ad2d1cacdc1"},"vehicle_type_id":"4","last_reported":1744232919,"current_range_meters":16800,"station_id":"","pricing_plan_id":"cebpf4jnsgd1na2vs0mg"},{"bike_id":"97c886ff-aee8-465e-8e81-5e47737c7ff3","system_id":"levelo_inurba_marseille","lat":43.26551,"lon":5.37288,"is_reserved":false,"is_disabled":false,"rental_uris":{"android":"levelo://app?vid=97c886ff-aee8-465e-8e81-5e47737c7ff3","ios":"levelo://app?vid=97c886ff-aee8-465e-8e81-5e47737c7ff3"},"vehicle_type_id":"4","last_reported":1744232919,"current_range_meters":16800,"station_id":"ce4bhg12rcd13ifvqf70","pricing_plan_id":"cebpf4jnsgd1na2vs0mg"},{"bike_id":"e3c3a051-8134-4ed3-913b-374aa217874c","system_id":"levelo_inurba_marseille","lat":43.2559,"lon":5.40455,"is_reserved":false,"is_disabled":false,"rental_uris":{"android":"levelo://app?vid=e3c3a051-8134-4ed3-913b-374aa217874c","ios":"levelo://app?vid=e3c3a051-8134-4ed3-913b-374aa217874c"},"vehicle_type_id":"4","last_reported":1744232919,"current_range_meters":17200,"station_id":"","pricing_plan_id":"cebpf4jnsgd1na2vs0mg"},{"bike_id":"5d7db4b2-25bb-442b-b054-c3f9e9515910","system_id":"levelo_inurba_marseille","lat":43.30301,"lon":5.40447,"is_reserved":false,"is_disabled":false,"rental_uris":{"android":"levelo://app?vid=5d7db4b2-25bb-442b-b054-c3f9e9515910","ios":"levelo://app?vid=5d7db4b2-25bb-442b-b054-c3f9e9515910"},"vehicle_type_id":"4","last_reported":1744232919,"current_range_meters":17200,"station_id":"ce4bh012rcd13ifvqd10","pricing_plan_id":"cebpf4jnsgd1na2vs0mg"},{"bike_id":"37a57820-6d1f-420b-ade8-e980c79adacf","system_id":"levelo_inurba_marseille","lat":43.28663,"lon":5.36343,"is_reserved":false,"is_disabled":false,"rental_uris":{"android":"levelo://app?vid=37a57820-6d1f-420b-ade8-e980c79adacf","ios":"levelo://app?vid=37a57820-6d1f-420b-ade8-e980c79adacf"},"vehicle_type_id":"4","last_reported":1744232919,"current_range_meters":17200,"station_id":"ce4bhah2rcd13ifvqej0","pricing_plan_id":"cebpf4jnsgd1na2vs0mg"},{"bike_id":"4d37d4fc-55b7-4c6e-8ddb-69734b0a8ab4","system_id":"levelo_inurba_marseille","lat":43.3081,"lon":5.38152,"is_reserved":false,"is_disabled":false,"rental_uris":{"android":"levelo://app?vid=4d37d4fc-55b7-4c6e-8ddb-69734b0a8ab4","ios":"levelo://app?vid=4d37d4fc-55b7-4c6e-8ddb-69734b0a8ab4"},"vehicle_type_id":"4","last_reported":1744232919,"current_range_meters":17200,"station_id":"ce4bgt12rcd13ifvqce0","pricing_plan_id":"cebpf4jnsgd1na2vs0mg"},{"bike_id":"4f510143-d367-4bdb-be1d-1e4f7b307eb7","system_id":"levelo_inurba_marseille","lat":43.3361,"lon":5.41034,"is_reserved":false,"is_disabled":false,"rental_uris":{"android":"levelo://app?vid=4f510143-d367-4bdb-be1d-1e4f7b307eb7","ios":"levelo://app?vid=4f510143-d367-4bdb-be1d-1e4f7b307eb7"},"vehicle_type_id":"4","last_reported":1744232919,"current_range_meters":17200,"station_id":"ce4bhqh2rcd13ifvqhmg","pricing_plan_id":"cebpf4jnsgd1na2vs0mg"},{"bike_id":"640b6901-af87-4cbb-84ba-cf000e7c8d63","system_id":"levelo_inurba_marseille","lat":43.26494,"lon":5.39549,"is_reserved":false,"is_disabled":true,"rental_uris":{"android":"levelo://app?vid=640b6901-af87-4cbb-84ba-cf000e7c8d63","ios":"levelo://app?vid=640b6901-af87-4cbb-84ba-cf000e7c8d63"},"vehicle_type_id":"4","last_reported":1744232919,"current_range_meters":17200,"station_id":"ce4bhi12rcd13ifvqfq0","pricing_plan_id":"cebpf4jnsgd1na2vs0mg"},{"bike_id":"19e57953-6d0c-43b9-ae97-3bf79908d670","system_id":"levelo_inurba_marseille","lat":43.27212,"lon":5.39187,"is_reserved":false,"is_disabled":true,"rental_uris":{"android":"levelo://app?vid=19e57953-6d0c-43b9-ae97-3bf79908d670","ios":"levelo://app?vid=19e57953-6d0c-43b9-ae97-3bf79908d670"},"vehicle_type_id":"4","last_reported":1744232919,"current_range_meters":17200,"station_id":"ce4bhhp2rcd13ifvqfm0","pricing_plan_id":"cebpf4jnsgd1na2vs0mg"},{"bike_id":"073955c6-6f8e-4d79-bdbc-3802d168fcc3","system_id":"levelo_inurba_marseille","lat":43.24153,"lon":5.36391,"is_reserved":false,"is_disabled":false,"rental_uris":{"android":"levelo://app?vid=073955c6-6f8e-4d79-bdbc-3802d168fcc3","ios":"levelo://app?vid=073955c6-6f8e-4d79-bdbc-3802d168fcc3"},"vehicle_type_id":"4","last_reported":1744232919,"current_range_meters":17200,"station_id":"cpo36qri1sfpv3e86is0","pricing_plan_id":"cebpf4jnsgd1na2vs0mg"},{"bike_id":"d1f92f28-9609-4256-bd4a-880c7b09d4e8","system_id":"levelo_inurba_marseille","lat":43.2933,"lon":5.41152,"is_reserved":false,"is_disabled":false,"rental_uris":{"android":"levelo://app?vid=d1f92f28-9609-4256-bd4a-880c7b09d4e8","ios":"levelo://app?vid=d1f92f28-9609-4256-bd4a-880c7b09d4e8"},"vehicle_type_id":"4","last_reported":1744232919,"current_range_meters":17200,"station_id":"","pricing_plan_id":"cebpf4jnsgd1na2vs0mg"},{"bike_id":"bae2bada-6798-4887-897e-1f73fb185ce2","system_id":"levelo_inurba_marseille","lat":43.2861,"lon":5.35103,"is_reserved":false,"is_disabled":false,"rental_uris":{"android":"levelo://app?vid=bae2bada-6798-4887-897e-1f73fb185ce2","ios":"levelo://app?vid=bae2bada-6798-4887-897e-1f73fb185ce2"},"vehicle_type_id":"4","last_reported":1744232919,"current_range_meters":17200,"station_id":"ce4bhch2rcd13ifvqeug","pricing_plan_id":"cebpf4jnsgd1na2vs0mg"},{"bike_id":"a6b10bae-97d8-4387-a1fa-841ed3bf0715","system_id":"levelo_inurba_marseille","lat":43.29387,"lon":5.38641,"is_reserved":false,"is_disabled":false,"rental_uris":{"android":"levelo://app?vid=a6b10bae-97d8-4387-a1fa-841ed3bf0715","ios":"levelo://app?vid=a6b10bae-97d8-4387-a1fa-841ed3bf0715"},"vehicle_type_id":"4","last_reported":1744232919,"current_range_meters":17200,"station_id":"ce4bh2h2rcd13ifvqdh0","pricing_plan_id":"cebpf4jnsgd1na2vs0mg"},{"bike_id":"a2b8656b-805b-48a3-8338-d362bf2dd4f3","system_id":"levelo_inurba_marseille","lat":43.29026,"lon":5.38641,"is_reserved":false,"is_disabled":false,"rental_uris":{"android":"levelo://app?vid=a2b8656b-805b-48a3-8338-d362bf2dd4f3","ios":"levelo://app?vid=a2b8656b-805b-48a3-8338-d362bf2dd4f3"},"vehicle_type_id":"4","last_reported":1744232919,"current_range_meters":17600,"station_id":"ce4bh4p2rcd13ifvqe0g","pricing_plan_id":"cebpf4jnsgd1na2vs0mg"},{"bike_id":"f78bf8a8-b506-43e9-9fc4-9ec4cb688e82","system_id":"levelo_inurba_marseille","lat":43.32099,"lon":5.36773,"is_reserved":false,"is_disabled":false,"rental_uris":{"android":"levelo://app?vid=f78bf8a8-b506-43e9-9fc4-9ec4cb688e82","ios":"levelo://app?vid=f78bf8a8-b506-43e9-9fc4-9ec4cb688e82"},"vehicle_type_id":"4","last_reported":1744232919,"current_range_meters":17600,"station_id":"ce4bhrh2rcd13ifvqhug","pricing_plan_id":"cebpf4jnsgd1na2vs0mg"},{"bike_id":"4e5309d3-4d99-4a94-99ef-b4e02baa2cc2","system_id":"levelo_inurba_marseille","lat":43.28949,"lon":5.36412,"is_reserved":false,"is_disabled":false,"rental_uris":{"android":"levelo://app?vid=4e5309d3-4d99-4a94-99ef-b4e02baa2cc2","ios":"levelo://app?vid=4e5309d3-4d99-4a94-99ef-b4e02baa2cc2"},"vehicle_type_id":"4","last_reported":1744232919,"current_range_meters":17600,"station_id":"ce4bhc92rcd13ifvqetg","pricing_plan_id":"cebpf4jnsgd1na2vs0mg"},{"bike_id":"ef291804-1477-432e-b153-82ea15725418","system_id":"levelo_inurba_marseille","lat":43.33768,"lon":5.37484,"is_reserved":false,"is_disabled":false,"rental_uris":{"android":"levelo://app?vid=ef291804-1477-432e-b153-82ea15725418","ios":"levelo://app?vid=ef291804-1477-432e-b153-82ea15725418"},"vehicle_type_id":"4","last_reported":1744232919,"current_range_meters":17600,"station_id":"","pricing_plan_id":"cebpf4jnsgd1na2vs0mg"},{"bike_id":"8fc75a06-b383-4356-9ce0-507c4c1bc08f","system_id":"levelo_inurba_marseille","lat":43.27071,"lon":5.4228,"is_reserved":false,"is_disabled":false,"rental_uris":{"android":"levelo://app?vid=8fc75a06-b383-4356-9ce0-507c4c1bc08f","ios":"levelo://app?vid=8fc75a06-b383-4356-9ce0-507c4c1bc08f"},"vehicle_type_id":"4","last_reported":1744232919,"current_range_meters":17600,"station_id":"ce4bhk92rcd13ifvqgb0","pricing_plan_id":"cebpf4jnsgd1na2vs0mg"},{"bike_id":"0f24365a-d039-409b-bda4-468662ceb1b9","system_id":"levelo_inurba_marseille","lat":43.28032,"lon":5.36943,"is_reserved":false,"is_disabled":false,"rental_uris":{"android":"levelo://app?vid=0f24365a-d039-409b-bda4-468662ceb1b9","ios":"levelo://app?vid=0f24365a-d039-409b-bda4-468662ceb1b9"},"vehicle_type_id":"4","last_reported":1744232919,"current_range_meters":17600,"station_id":"ce4bha12rcd13ifvqef0","pricing_plan_id":"cebpf4jnsgd1na2vs0mg"},{"bike_id":"39d569f2-804d-4c1f-93cb-ffdd8bba0563","system_id":"levelo_inurba_marseille","lat":43.305389,"lon":5.384293,"is_reserved":false,"is_disabled":true,"rental_uris":{"android":"levelo://app?vid=39d569f2-804d-4c1f-93cb-ffdd8bba0563","ios":"levelo://app?vid=39d569f2-804d-4c1f-93cb-ffdd8bba0563"},"vehicle_type_id":"4","last_reported":1744232919,"current_range_meters":18000,"station_id":"ce4bgg92rcd13ifvqb30","pricing_plan_id":"cebpf4jnsgd1na2vs0mg"},{"bike_id":"dad1b0b5-9864-4d37-aead-4e0c633b2ef0","system_id":"levelo_inurba_marseille","lat":43.2978,"lon":5.39319,"is_reserved":false,"is_disabled":false,"rental_uris":{"android":"levelo://app?vid=dad1b0b5-9864-4d37-aead-4e0c633b2ef0","ios":"levelo://app?vid=dad1b0b5-9864-4d37-aead-4e0c633b2ef0"},"vehicle_type_id":"4","last_reported":1744232919,"current_range_meters":18000,"station_id":"chh1huq6cuj3fo74tm60","pricing_plan_id":"cebpf4jnsgd1na2vs0mg"},{"bike_id":"2a353b13-ee6b-4196-b870-d93aa6abf93a","system_id":"levelo_inurba_marseille","lat":43.25815,"lon":5.394363,"is_reserved":false,"is_disabled":false,"rental_uris":{"android":"levelo://app?vid=2a353b13-ee6b-4196-b870-d93aa6abf93a","ios":"levelo://app?vid=2a353b13-ee6b-4196-b870-d93aa6abf93a"},"vehicle_type_id":"4","last_reported":1744232919,"current_range_meters":18000,"station_id":"ce4bhip2rcd13ifvqft0","pricing_plan_id":"cebpf4jnsgd1na2vs0mg"},{"bike_id":"20135a28-cd15-4f4d-bbeb-9a39f64882d9","system_id":"levelo_inurba_marseille","lat":43.28411,"lon":5.37536,"is_reserved":false,"is_disabled":false,"rental_uris":{"android":"levelo://app?vid=20135a28-cd15-4f4d-bbeb-9a39f64882d9","ios":"levelo://app?vid=20135a28-cd15-4f4d-bbeb-9a39f64882d9"},"vehicle_type_id":"4","last_reported":1744232919,"current_range_meters":18000,"station_id":"ce4bh412rcd13ifvqds0","pricing_plan_id":"cebpf4jnsgd1na2vs0mg"},{"bike_id":"231aaa88-1e79-4a74-a543-651d8fd5a027","system_id":"levelo_inurba_marseille","lat":43.33081,"lon":5.40501,"is_reserved":false,"is_disabled":false,"rental_uris":{"android":"levelo://app?vid=231aaa88-1e79-4a74-a543-651d8fd5a027","ios":"levelo://app?vid=231aaa88-1e79-4a74-a543-651d8fd5a027"},"vehicle_type_id":"4","last_reported":1744232919,"current_range_meters":18000,"station_id":"","pricing_plan_id":"cebpf4jnsgd1na2vs0mg"},{"bike_id":"49f12fd7-4c87-4529-a7b9-de78fd0243f1","system_id":"levelo_inurba_marseille","lat":43.324764,"lon":5.365586,"is_reserved":false,"is_disabled":false,"rental_uris":{"android":"levelo://app?vid=49f12fd7-4c87-4529-a7b9-de78fd0243f1","ios":"levelo://app?vid=49f12fd7-4c87-4529-a7b9-de78fd0243f1"},"vehicle_type_id":"4","last_reported":1744232919,"current_range_meters":18000,"station_id":"ce4bhs12rcd13ifvqhvg","pricing_plan_id":"cebpf4jnsgd1na2vs0mg"},{"bike_id":"8ee9f686-4549-4aad-af30-9017baadcb23","system_id":"levelo_inurba_marseille","lat":43.31444,"lon":5.37582,"is_reserved":false,"is_disabled":false,"rental_uris":{"android":"levelo://app?vid=8ee9f686-4549-4aad-af30-9017baadcb23","ios":"levelo://app?vid=8ee9f686-4549-4aad-af30-9017baadcb23"},"vehicle_type_id":"4","last_reported":1744232919,"current_range_meters":18000,"station_id":"","pricing_plan_id":"cebpf4jnsgd1na2vs0mg"},{"bike_id":"ba4fa121-3d46-4d4d-97b2-2082b875eeca","system_id":"levelo_inurba_marseille","lat":43.28858,"lon":5.39312,"is_reserved":false,"is_disabled":false,"rental_uris":{"android":"levelo://app?vid=ba4fa121-3d46-4d4d-97b2-2082b875eeca","ios":"levelo://app?vid=ba4fa121-3d46-4d4d-97b2-2082b875eeca"},"vehicle_type_id":"4","last_reported":1744232919,"current_range_meters":18000,"station_id":"ce4bh2p2rcd13ifvqdi0","pricing_plan_id":"cebpf4jnsgd1na2vs0mg"},{"bike_id":"b72a1b52-33d4-4852-8e1b-ac62a6d7d170","system_id":"levelo_inurba_marseille","lat":43.32653,"lon":5.40988,"is_reserved":false,"is_disabled":false,"rental_uris":{"android":"levelo://app?vid=b72a1b52-33d4-4852-8e1b-ac62a6d7d170","ios":"levelo://app?vid=b72a1b52-33d4-4852-8e1b-ac62a6d7d170"},"vehicle_type_id":"4","last_reported":1744232919,"current_range_meters":18000,"station_id":"ce4bhpp2rcd13ifvqhgg","pricing_plan_id":"cebpf4jnsgd1na2vs0mg"},{"bike_id":"61608a79-afc5-4575-8424-01a09cb9cfdd","system_id":"levelo_inurba_marseille","lat":43.28334,"lon":5.38104,"is_reserved":false,"is_disabled":false,"rental_uris":{"android":"levelo://app?vid=61608a79-afc5-4575-8424-01a09cb9cfdd","ios":"levelo://app?vid=61608a79-afc5-4575-8424-01a09cb9cfdd"},"vehicle_type_id":"4","last_reported":1744232919,"current_range_meters":18000,"station_id":"ce4bh412rcd13ifvqdr0","pricing_plan_id":"cebpf4jnsgd1na2vs0mg"},{"bike_id":"4f49c09f-fc8b-4537-a3b6-9cfdb7243b79","system_id":"levelo_inurba_marseille","lat":43.27417,"lon":5.39414,"is_reserved":false,"is_disabled":false,"rental_uris":{"android":"levelo://app?vid=4f49c09f-fc8b-4537-a3b6-9cfdb7243b79","ios":"levelo://app?vid=4f49c09f-fc8b-4537-a3b6-9cfdb7243b79"},"vehicle_type_id":"4","last_reported":1744232919,"current_range_meters":18000,"station_id":"ce4bhdp2rcd13ifvqf20","pricing_plan_id":"cebpf4jnsgd1na2vs0mg"},{"bike_id":"66ec808b-c5a5-41f8-9020-4c8f8415fdb1","system_id":"levelo_inurba_marseille","lat":43.32939,"lon":5.36692,"is_reserved":false,"is_disabled":false,"rental_uris":{"android":"levelo://app?vid=66ec808b-c5a5-41f8-9020-4c8f8415fdb1","ios":"levelo://app?vid=66ec808b-c5a5-41f8-9020-4c8f8415fdb1"},"vehicle_type_id":"4","last_reported":1744232919,"current_range_meters":18800,"station_id":"","pricing_plan_id":"cebpf4jnsgd1na2vs0mg"},{"bike_id":"562a44d2-330b-479e-ac78-988327863d7a","system_id":"levelo_inurba_marseille","lat":43.30158,"lon":5.39624,"is_reserved":false,"is_disabled":false,"rental_uris":{"android":"levelo://app?vid=562a44d2-330b-479e-ac78-988327863d7a","ios":"levelo://app?vid=562a44d2-330b-479e-ac78-988327863d7a"},"vehicle_type_id":"4","last_reported":1744232919,"current_range_meters":18800,"station_id":"ce4bh0h2rcd13ifvqd40","pricing_plan_id":"cebpf4jnsgd1na2vs0mg"},{"bike_id":"c5803cf2-eedb-4297-9474-679d200ec1ea","system_id":"levelo_inurba_marseille","lat":43.31481,"lon":5.37317,"is_reserved":false,"is_disabled":false,"rental_uris":{"android":"levelo://app?vid=c5803cf2-eedb-4297-9474-679d200ec1ea","ios":"levelo://app?vid=c5803cf2-eedb-4297-9474-679d200ec1ea"},"vehicle_type_id":"4","last_reported":1744232919,"current_range_meters":18800,"station_id":"ce4bgt12rcd13ifvqcd0","pricing_plan_id":"cebpf4jnsgd1na2vs0mg"},{"bike_id":"fbce8f49-308d-4d46-ad20-9924c12ca71b","system_id":"levelo_inurba_marseille","lat":43.26925,"lon":5.38922,"is_reserved":false,"is_disabled":false,"rental_uris":{"android":"levelo://app?vid=fbce8f49-308d-4d46-ad20-9924c12ca71b","ios":"levelo://app?vid=fbce8f49-308d-4d46-ad20-9924c12ca71b"},"vehicle_type_id":"4","last_reported":1744232919,"current_range_meters":18800,"station_id":"ce4bhhh2rcd13ifvqfl0","pricing_plan_id":"cebpf4jnsgd1na2vs0mg"},{"bike_id":"2b54a496-5bb2-42c4-bb01-6f1e5c2215a7","system_id":"levelo_inurba_marseille","lat":43.30797,"lon":5.37727,"is_reserved":false,"is_disabled":true,"rental_uris":{"android":"levelo://app?vid=2b54a496-5bb2-42c4-bb01-6f1e5c2215a7","ios":"levelo://app?vid=2b54a496-5bb2-42c4-bb01-6f1e5c2215a7"},"vehicle_type_id":"4","last_reported":1744232919,"current_range_meters":18800,"station_id":"","pricing_plan_id":"cebpf4jnsgd1na2vs0mg"},{"bike_id":"2db062fe-2ccd-450d-85dd-3c77819ba37a","system_id":"levelo_inurba_marseille","lat":43.28939,"lon":5.366279,"is_reserved":false,"is_disabled":true,"rental_uris":{"android":"levelo://app?vid=2db062fe-2ccd-450d-85dd-3c77819ba37a","ios":"levelo://app?vid=2db062fe-2ccd-450d-85dd-3c77819ba37a"},"vehicle_type_id":"4","last_reported":1744232919,"current_range_meters":18800,"station_id":"ce4bhap2rcd13ifvqek0","pricing_plan_id":"cebpf4jnsgd1na2vs0mg"},{"bike_id":"ec71824f-66d8-4c73-9328-262c264b4051","system_id":"levelo_inurba_marseille","lat":43.32727,"lon":5.38257,"is_reserved":false,"is_disabled":false,"rental_uris":{"android":"levelo://app?vid=ec71824f-66d8-4c73-9328-262c264b4051","ios":"levelo://app?vid=ec71824f-66d8-4c73-9328-262c264b4051"},"vehicle_type_id":"4","last_reported":1744232919,"current_range_meters":18800,"station_id":"","pricing_plan_id":"cebpf4jnsgd1na2vs0mg"},{"bike_id":"4886b5f8-a7fa-4c61-8ca3-5a505d4752fa","system_id":"levelo_inurba_marseille","lat":43.29821,"lon":5.40397,"is_reserved":false,"is_disabled":false,"rental_uris":{"android":"levelo://app?vid=4886b5f8-a7fa-4c61-8ca3-5a505d4752fa","ios":"levelo://app?vid=4886b5f8-a7fa-4c61-8ca3-5a505d4752fa"},"vehicle_type_id":"4","last_reported":1744232919,"current_range_meters":19200,"station_id":"ce4bh112rcd13ifvqd90","pricing_plan_id":"cebpf4jnsgd1na2vs0mg"},{"bike_id":"d35b2008-f0a8-4785-a34c-1a28e16cb02a","system_id":"levelo_inurba_marseille","lat":43.27408,"lon":5.39373,"is_reserved":false,"is_disabled":false,"rental_uris":{"android":"levelo://app?vid=d35b2008-f0a8-4785-a34c-1a28e16cb02a","ios":"levelo://app?vid=d35b2008-f0a8-4785-a34c-1a28e16cb02a"},"vehicle_type_id":"4","last_reported":1744232919,"current_range_meters":19200,"station_id":"ce4bhdp2rcd13ifvqf20","pricing_plan_id":"cebpf4jnsgd1na2vs0mg"},{"bike_id":"06ba34ca-91dc-44c4-ba22-fae2f1847045","system_id":"levelo_inurba_marseille","lat":43.29566,"lon":5.38069,"is_reserved":false,"is_disabled":false,"rental_uris":{"android":"levelo://app?vid=06ba34ca-91dc-44c4-ba22-fae2f1847045","ios":"levelo://app?vid=06ba34ca-91dc-44c4-ba22-fae2f1847045"},"vehicle_type_id":"4","last_reported":1744232919,"current_range_meters":19200,"station_id":"ce4bgl12rcd13ifvqbo0","pricing_plan_id":"cebpf4jnsgd1na2vs0mg"},{"bike_id":"846c60a4-2eea-4d30-bbdc-64e554665657","system_id":"levelo_inurba_marseille","lat":43.30653,"lon":5.40082,"is_reserved":false,"is_disabled":false,"rental_uris":{"android":"levelo://app?vid=846c60a4-2eea-4d30-bbdc-64e554665657","ios":"levelo://app?vid=846c60a4-2eea-4d30-bbdc-64e554665657"},"vehicle_type_id":"4","last_reported":1744232919,"current_range_meters":19200,"station_id":"ce4bh112rcd13ifvqda0","pricing_plan_id":"cebpf4jnsgd1na2vs0mg"},{"bike_id":"2230177f-90b6-4f37-ae01-b9ed5740e468","system_id":"levelo_inurba_marseille","lat":43.29196,"lon":5.39328,"is_reserved":false,"is_disabled":false,"rental_uris":{"android":"levelo://app?vid=2230177f-90b6-4f37-ae01-b9ed5740e468","ios":"levelo://app?vid=2230177f-90b6-4f37-ae01-b9ed5740e468"},"vehicle_type_id":"4","last_reported":1744232919,"current_range_meters":19200,"station_id":"ce4bh192rcd13ifvqdd0","pricing_plan_id":"cebpf4jnsgd1na2vs0mg"},{"bike_id":"f36ca3d8-7188-4931-9a39-385909a64d27","system_id":"levelo_inurba_marseille","lat":43.3323,"lon":5.40618,"is_reserved":false,"is_disabled":false,"rental_uris":{"android":"levelo://app?vid=f36ca3d8-7188-4931-9a39-385909a64d27","ios":"levelo://app?vid=f36ca3d8-7188-4931-9a39-385909a64d27"},"vehicle_type_id":"4","last_reported":1744232919,"current_range_meters":19200,"station_id":"","pricing_plan_id":"cebpf4jnsgd1na2vs0mg"},