{"last_updated":1721502365,"ttl":30,"version":"2.2","data":{"bikes":[{"bike_id":"d1d81e54-fed9-443c-944a-6820c8a62e66","system_id":"levelo_inurba_marseille","lat":43.31251,"lon":5.36793,"is_reserved":false,"is_disabled":false,"rental_uris":{"android":"levelo://app?vid=d1d81e54-fed9-443c-944a-6820c8a62e66","ios":"levelo://app?vid=d1d81e54-fed9-443c-944a-6820c8a62e66"},"vehicle_type_id":"4","last_reported":1721502366,"current_range_meters":0,"station_id":"","pricing_plan_id":"cebpf4jnsgd1na2vs0mg"},{"bike_id":"251b19cb-dd58-42a0-89fb-0eeedd63794d","system_id":"levelo_inurba_marseille","lat":43.312239,"lon":5.368562,"is_reserved":false,"is_disabled":false,"rental_uris":{"android":"levelo://app?vid=251b19cb-dd58-42a0-89fb-0eeedd63794d","ios":"levelo://app?vid=251b19cb-dd58-42a0-89fb-0eeedd63794d"},"vehicle_type_id":"4","last_reported":1721502366,"current_range_meters":27200,"station_id":"ce4bgl92rcd13ifvqbq0","pricing_plan_id":"cebpf4jnsgd1na2vs0mg"},{"bike_id":"e3650fa1-3505-4390-a54b-75fdbc689d61","system_id":"levelo_inurba_marseille","lat":43.312239,"lon":5.368562,"is_reserved":false,"is_disabled":false,"rental_uris":{"android":"levelo://app?vid=e3650fa1-3505-4390-a54b-75fdbc689d61","ios":"levelo://app?vid=e3650fa1-3505-4390-a54b-75fdbc689d61"},"vehicle_type_id":"4","last_reported":1721502366,"current_range_meters":28800,"station_id":"ce4bgl92rcd13ifvqbq0","pricing_plan_id":"cebpf4jnsgd1na2vs0mg"},{"bike_id":"ed524bc5-d3a5-46e8-a9fd-492235f97e80","system_id":"levelo_inurba_marseille","lat":43.312239,"lon":5.368562,"is_reserved":false,"is_disabled":false,"rental_uris":{"android":"levelo://app?vid=ed524bc5-d3a5-46e8-a9fd-492235f97e80","ios":"levelo://app?vid=ed524bc5-d3a5-46e8-a9fd-492235f97e80"},"vehicle_type_id":"4","last_reported":1721502366,"current_range_meters":5600,"station_id":"ce4bgl92rcd13ifvqbq0","pricing_plan_id":"cebpf4jnsgd1na2vs0mg"},{"bike_id":"4bf0cdee-b834-4725-8b33-40518fe7bf8b","system_id":"levelo_inurba_marseille","lat":43.312239,"lon":5.368562,"is_reserved":false,"is_disabled":false,"rental_uris":{"android":"levelo://app?vid=4bf0cdee-b834-4725-8b33-40518fe7bf8b","ios":"levelo://app?vid=4bf0cdee-b834-4725-8b33-40518fe7bf8b"},"vehicle_type_id":"4","last_reported":1721502366,"current_range_meters":7200,"station_id":"ce4bgl92rcd13ifvqbq0","pricing_plan_id":"cebpf4jnsgd1na2vs0mg"},{"bike_id":"f094b7af-3918-4e62-aa34-cb8bbdb298b0","system_id":"levelo_inurba_marseille","lat":43.314811,"lon":5.373103,"is_reserved":false,"is_disabled":false,"rental_uris":{"android":"levelo://app?vid=f094b7af-3918-4e62-aa34-cb8bbdb298b0","ios":"levelo://app?vid=f094b7af-3918-4e62-aa34-cb8bbdb298b0"},"vehicle_type_id":"4","last_reported":1721502366,"current_range_meters":0,"station_id":"ce4bgt12rcd13ifvqcd0","pricing_plan_id":"cebpf4jnsgd1na2vs0mg"},{"bike_id":"05699495-c689-4a71-932d-6c999400fb91","system_id":"levelo_inurba_marseille","lat":43.314811,"lon":5.373104,"is_reserved":false,"is_disabled":false,"rental_uris":{"android":"levelo://app?vid=05699495-c689-4a71-932d-6c999400fb91","ios":"levelo://app?vid=05699495-c689-4a71-932d-6c999400fb91"},"vehicle_type_id":"4","last_reported":1721502366,"current_range_meters":0,"station_id":"ce4bgt12rcd13ifvqcd0","pricing_plan_id":"cebpf4jnsgd1na2vs0mg"},{"bike_id":"0fd02a98-37b0-4fe2-9b99-99ed98db2b81","system_id":"levelo_inurba_marseille","lat":43.30886,"lon":5.37184,"is_reserved":false,"is_disabled":false,"rental_uris":{"android":"levelo://app?vid=0fd02a98-37b0-4fe2-9b99-99ed98db2b81","ios":"levelo://app?vid=0fd02a98-37b0-4fe2-9b99-99ed98db2b81"},"vehicle_type_id":"4","last_reported":1721502366,"current_range_meters":0,"station_id":"ce4bguh2rcd13ifvqckg","pricing_plan_id":"cebpf4jnsgd1na2vs0mg"},{"bike_id":"122e6cf5-0445-4085-97e1-5ecc8ba8a5e3","system_id":"levelo_inurba_marseille","lat":43.309039,"lon":5.371797,"is_reserved":false,"is_disabled":false,"rental_uris":{"android":"levelo://app?vid=122e6cf5-0445-4085-97e1-5ecc8ba8a5e3","ios":"levelo://app?vid=122e6cf5-0445-4085-97e1-5ecc8ba8a5e3"},"vehicle_type_id":"4","last_reported":1721502366,"current_range_meters":31200,"station_id":"ce4bguh2rcd13ifvqckg","pricing_plan_id":"cebpf4jnsgd1na2vs0mg"},{"bike_id":"7eea2edd-a2ff-470e-9ed2-0f6e942f07a4","system_id":"levelo_inurba_marseille","lat":43.309039,"lon":5.371797,"is_reserved":false,"is_disabled":false,"rental_uris":{"android":"levelo://app?vid=7eea2edd-a2ff-470e-9ed2-0f6e942f07a4","ios":"levelo://app?vid=7eea2edd-a2ff-470e-9ed2-0f6e942f07a4"},"vehicle_type_id":"4","last_reported":1721502366,"current_range_meters":24000,"station_id":"ce4bguh2rcd13ifvqckg","pricing_plan_id":"cebpf4jnsgd1na2vs0mg"},{"bike_id":"0f857db0-2b55-4409-83a0-325c73f8bb99","system_id":"levelo_inurba_marseille","lat":43.309039,"lon":5.371797,"is_reserved":false,"is_disabled":false,"rental_uris":{"android":"levelo://app?vid=0f857db0-2b55-4409-83a0-325c73f8bb99","ios":"levelo://app?vid=0f857db0-2b55-4409-83a0-325c73f8bb99"},"vehicle_type_id":"4","last_reported":1721502366,"current_range_meters":24400,"station_id":"ce4bguh2rcd13ifvqckg","pricing_plan_id":"cebpf4jnsgd1na2vs0mg"},{"bike_id":"32bf86fb-39c7-4520-b12e-60e8f91c25e9","system_id":"levelo_inurba_marseille","lat":43.30643,"lon":5.36802,"is_reserved":false,"is_disabled":false,"rental_uris":{"android":"levelo://app?vid=32bf86fb-39c7-4520-b12e-60e8f91c25e9","ios":"levelo://app?vid=32bf86fb-39c7-4520-b12e-60e8f91c25e9"},"vehicle_type_id":"4","last_reported":1721502366,"current_range_meters":30400,"station_id":"","pricing_plan_id":"cebpf4jnsgd1na2vs0mg"},{"bike_id":"929ad914-cbdf-4410-88bc-2fa51c16d494","system_id":"levelo_inurba_marseille","lat":43.30143,"lon":5.37413,"is_reserved":false,"is_disabled":false,"rental_uris":{"android":"levelo://app?vid=929ad914-cbdf-4410-88bc-2fa51c16d494","ios":"levelo://app?vid=929ad914-cbdf-4410-88bc-2fa51c16d494"},"vehicle_type_id":"4","last_reported":1721502366,"current_range_meters":13600,"station_id":"ce4bgs92rcd13ifvqcc0","pricing_plan_id":"cebpf4jnsgd1na2vs0mg"},{"bike_id":"87da451c-8325-4d41-81fc-a74ccd4e42bd","system_id":"levelo_inurba_marseille","lat":43.305989,"lon":5.37225,"is_reserved":false,"is_disabled":false,"rental_uris":{"android":"levelo://app?vid=87da451c-8325-4d41-81fc-a74ccd4e42bd","ios":"levelo://app?vid=87da451c-8325-4d41-81fc-a74ccd4e42bd"},"vehicle_type_id":"4","last_reported":1721502366,"current_range_meters":14400,"station_id":"ce4bgqh2rcd13ifvqc4g","pricing_plan_id":"cebpf4jnsgd1na2vs0mg"},{"bike_id":"b3ce8116-23bf-4a91-b35a-f3801ca392e0","system_id":"levelo_inurba_marseille","lat":43.30604,"lon":5.37221,"is_reserved":false,"is_disabled":false,"rental_uris":{"android":"levelo://app?vid=b3ce8116-23bf-4a91-b35a-f3801ca392e0","ios":"levelo://app?vid=b3ce8116-23bf-4a91-b35a-f3801ca392e0"},"vehicle_type_id":"4","last_reported":1721502366,"current_range_meters":4000,"station_id":"ce4bgqh2rcd13ifvqc4g","pricing_plan_id":"cebpf4jnsgd1na2vs0mg"},{"bike_id":"8d87a287-a8b0-4855-90f3-43c005a54446","system_id":"levelo_inurba_marseille","lat":43.30602,"lon":5.37234,"is_reserved":false,"is_disabled":false,"rental_uris":{"android":"levelo://app?vid=8d87a287-a8b0-4855-90f3-43c005a54446","ios":"levelo://app?vid=8d87a287-a8b0-4855-90f3-43c005a54446"},"vehicle_type_id":"4","last_reported":1721502366,"current_range_meters":26400,"station_id":"ce4bgqh2rcd13ifvqc4g","pricing_plan_id":"cebpf4jnsgd1na2vs0mg"},{"bike_id":"a5647cad-9a9f-406a-b4b3-7a7a47e15ff6","system_id":"levelo_inurba_marseille","lat":43.311125,"lon":5.377624,"is_reserved":false,"is_disabled":false,"rental_uris":{"android":"levelo://app?vid=a5647cad-9a9f-406a-b4b3-7a7a47e15ff6","ios":"levelo://app?vid=a5647cad-9a9f-406a-b4b3-7a7a47e15ff6"},"vehicle_type_id":"4","last_reported":1721502366,"current_range_meters":0,"station_id":"ce4bgt92rcd13ifvqcg0","pricing_plan_id":"cebpf4jnsgd1na2vs0mg"},{"bike_id":"cca099ab-4cca-4b35-9371-712496c290a4","system_id":"levelo_inurba_marseille","lat":43.31112,"lon":5.37762,"is_reserved":false,"is_disabled":false,"rental_uris":{"android":"levelo://app?vid=cca099ab-4cca-4b35-9371-712496c290a4","ios":"levelo://app?vid=cca099ab-4cca-4b35-9371-712496c290a4"},"vehicle_type_id":"4","last_reported":1721502366,"current_range_meters":11200,"station_id":"ce4bgt92rcd13ifvqcg0","pricing_plan_id":"cebpf4jnsgd1na2vs0mg"},{"bike_id":"0f0da58a-3316-4d42-be25-999f8d92becd","system_id":"levelo_inurba_marseille","lat":43.3078,"lon":5.37653,"is_reserved":false,"is_disabled":false,"rental_uris":{"android":"levelo://app?vid=0f0da58a-3316-4d42-be25-999f8d92becd","ios":"levelo://app?vid=0f0da58a-3316-4d42-be25-999f8d92becd"},"vehicle_type_id":"4","last_reported":1721502366,"current_range_meters":31200,"station_id":"","pricing_plan_id":"cebpf4jnsgd1na2vs0mg"},{"bike_id":"1731dc36-a787-4697-8300-993643f41203","system_id":"levelo_inurba_marseille","lat":43.317075,"lon":5.377367,"is_reserved":false,"is_disabled":false,"rental_uris":{"android":"levelo://app?vid=1731dc36-a787-4697-8300-993643f41203","ios":"levelo://app?vid=1731dc36-a787-4697-8300-993643f41203"},"vehicle_type_id":"4","last_reported":1721502366,"current_range_meters":12000,"station_id":"ce4bgth2rcd13ifvqch0","pricing_plan_id":"cebpf4jnsgd1na2vs0mg"},{"bike_id":"9ea967bb-9d58-47a4-a913-bb08fc29e8c3","system_id":"levelo_inurba_marseille","lat":43.30194,"lon":5.36617,"is_reserved":false,"is_disabled":false,"rental_uris":{"android":"levelo://app?vid=9ea967bb-9d58-47a4-a913-bb08fc29e8c3","ios":"levelo://app?vid=9ea967bb-9d58-47a4-a913-bb08fc29e8c3"},"vehicle_type_id":"4","last_reported":1721502366,"current_range_meters":4400,"station_id":"ce4bgrh2rcd13ifvqc8g","pricing_plan_id":"cebpf4jnsgd1na2vs0mg"},{"bike_id":"bd3decd2-8333-417f-a07d-fa44407c9070","system_id":"levelo_inurba_marseille","lat":43.301939,"lon":5.366286,"is_reserved":false,"is_disabled":false,"rental_uris":{"android":"levelo://app?vid=bd3decd2-8333-417f-a07d-fa44407c9070","ios":"levelo://app?vid=bd3decd2-8333-417f-a07d-fa44407c9070"},"vehicle_type_id":"4","last_reported":1721502366,"current_range_meters":12800,"station_id":"ce4bgrh2rcd13ifvqc8g","pricing_plan_id":"cebpf4jnsgd1na2vs0mg"},{"bike_id":"207f701f-a951-4493-9bd0-5f6dfd42cb5f","system_id":"levelo_inurba_marseille","lat":43.308012,"lon":5.381511,"is_reserved":false,"is_disabled":false,"rental_uris":{"android":"levelo://app?vid=207f701f-a951-4493-9bd0-5f6dfd42cb5f","ios":"levelo://app?vid=207f701f-a951-4493-9bd0-5f6dfd42cb5f"},"vehicle_type_id":"4","last_reported":1721502366,"current_range_meters":5600,"station_id":"ce4bgt12rcd13ifvqce0","pricing_plan_id":"cebpf4jnsgd1na2vs0mg"},{"bike_id":"a8cecd93-f7da-4fb8-9aa9-56f472262cc4","system_id":"levelo_inurba_marseille","lat":43.30804,"lon":5.38154,"is_reserved":false,"is_disabled":false,"rental_uris":{"android":"levelo://app?vid=a8cecd93-f7da-4fb8-9aa9-56f472262cc4","ios":"levelo://app?vid=a8cecd93-f7da-4fb8-9aa9-56f472262cc4"},"vehicle_type_id":"4","last_reported":1721502366,"current_range_meters":0,"station_id":"ce4bgt12rcd13ifvqce0","pricing_plan_id":"cebpf4jnsgd1na2vs0mg"},{"bike_id":"e1a11728-f498-4169-bfd2-efbd3ce51b81","system_id":"levelo_inurba_marseille","lat":43.308,"lon":5.38153,"is_reserved":false,"is_disabled":false,"rental_uris":{"android":"levelo://app?vid=e1a11728-f498-4169-bfd2-efbd3ce51b81","ios":"levelo://app?vid=e1a11728-f498-4169-bfd2-efbd3ce51b81"},"vehicle_type_id":"4","last_reported":1721502366,"current_range_meters":0,"station_id":"ce4bgt12rcd13ifvqce0","pricing_plan_id":"cebpf4jnsgd1na2vs0mg"},{"bike_id":"78660666-50ab-49ca-aef0-079f38c8a8b0","system_id":"levelo_inurba_marseille","lat":43.308012,"lon":5.381511,"is_reserved":false,"is_disabled":false,"rental_uris":{"android":"levelo://app?vid=78660666-50ab-49ca-aef0-079f38c8a8b0","ios":"levelo://app?vid=78660666-50ab-49ca-aef0-079f38c8a8b0"},"vehicle_type_id":"4","last_reported":1721502366,"current_range_meters":2800,"station_id":"ce4bgt12rcd13ifvqce0","pricing_plan_id":"cebpf4jnsgd1na2vs0mg"},{"bike_id":"96190691-5c79-4f2a-af95-3f66f23d1b5b","system_id":"levelo_inurba_marseille","lat":43.32475,"lon":5.36584,"is_reserved":false,"is_disabled":false,"rental_uris":{"android":"levelo://app?vid=96190691-5c79-4f2a-af95-3f66f23d1b5b","ios":"levelo://app?vid=96190691-5c79-4f2a-af95-3f66f23d1b5b"},"vehicle_type_id":"4","last_reported":1721502366,"current_range_meters":1200,"station_id":"ce4bhs12rcd13ifvqhvg","pricing_plan_id":"cebpf4jnsgd1na2vs0mg"},{"bike_id":"b32653a6-eced-4061-82a4-11bf0d00e36c","system_id":"levelo_inurba_marseille","lat":43.324771,"lon":5.36557,"is_reserved":false,"is_disabled":false,"rental_uris":{"android":"levelo://app?vid=b32653a6-eced-4061-82a4-11bf0d00e36c","ios":"levelo://app?vid=b32653a6-eced-4061-82a4-11bf0d00e36c"},"vehicle_type_id":"4","last_reported":1721502366,"current_range_meters":6400,"station_id":"ce4bhs12rcd13ifvqhvg","pricing_plan_id":"cebpf4jnsgd1na2vs0mg"},{"bike_id":"751b495a-ded5-440d-924d-2bf060460f69","system_id":"levelo_inurba_marseille","lat":43.324819,"lon":5.365771,"is_reserved":false,"is_disabled":false,"rental_uris":{"android":"levelo://app?vid=751b495a-ded5-440d-924d-2bf060460f69","ios":"levelo://app?vid=751b495a-ded5-440d-924d-2bf060460f69"},"vehicle_type_id":"4","last_reported":1721502366,"current_range_meters":17200,"station_id":"ce4bhs12rcd13ifvqhvg","pricing_plan_id":"cebpf4jnsgd1na2vs0mg"},{"bike_id":"ec2a5c46-2694-4133-8118-2da6c4217cbd","system_id":"levelo_inurba_marseille","lat":43.324771,"lon":5.36557,"is_reserved":false,"is_disabled":false,"rental_uris":{"android":"levelo://app?vid=ec2a5c46-2694-4133-8118-2da6c4217cbd","ios":"levelo://app?vid=ec2a5c46-2694-4133-8118-2da6c4217cbd"},"vehicle_type_id":"4","last_reported":1721502366,"current_range_meters":1200,"station_id":"ce4bhs12rcd13ifvqhvg","pricing_plan_id":"cebpf4jnsgd1na2vs0mg"},{"bike_id":"98b9c8a2-3a7c-491b-b038-f36476ecd441","system_id":"levelo_inurba_marseille","lat":43.324771,"lon":5.36557,"is_reserved":false,"is_disabled":false,"rental_uris":{"android":"levelo://app?vid=98b9c8a2-3a7c-491b-b038-f36476ecd441","ios":"levelo://app?vid=98b9c8a2-3a7c-491b-b038-f36476ecd441"},"vehicle_type_id":"4","last_reported":1721502366,"current_range_meters":24000,"station_id":"ce4bhs12rcd13ifvqhvg","pricing_plan_id":"cebpf4jnsgd1na2vs0mg"},{"bike_id":"2baca4ef-0d69-4564-91f0-6aa88a9ace5b","system_id":"levelo_inurba_marseille","lat":43.324844,"lon":5.365779,"is_reserved":false,"is_disabled":false,"rental_uris":{"android":"levelo://app?vid=2baca4ef-0d69-4564-91f0-6aa88a9ace5b","ios":"levelo://app?vid=2baca4ef-0d69-4564-91f0-6aa88a9ace5b"},"vehicle_type_id":"4","last_reported":1721502366,"current_range_meters":10800,"station_id":"ce4bhs12rcd13ifvqhvg","pricing_plan_id":"cebpf4jnsgd1na2vs0mg"},{"bike_id":"feefa1db-43c9-45bf-adaf-8904865759cc","system_id":"levelo_inurba_marseille","lat":43.324771,"lon":5.36557,"is_reserved":false,"is_disabled":false,"rental_uris":{"android":"levelo://app?vid=feefa1db-43c9-45bf-adaf-8904865759cc","ios":"levelo://app?vid=feefa1db-43c9-45bf-adaf-8904865759cc"},"vehicle_type_id":"4","last_reported":1721502366,"current_range_meters":6400,"station_id":"ce4bhs12rcd13ifvqhvg","pricing_plan_id":"cebpf4jnsgd1na2vs0mg"},{"bike_id":"96442150-d32c-44ac-a637-519fd25b0f97","system_id":"levelo_inurba_marseille","lat":43.324771,"lon":5.36557,"is_reserved":false,"is_disabled":false,"rental_uris":{"android":"levelo://app?vid=96442150-d32c-44ac-a637-519fd25b0f97","ios":"levelo://app?vid=96442150-d32c-44ac-a637-519fd25b0f97"},"vehicle_type_id":"4","last_reported":1721502366,"current_range_meters":16400,"station_id":"ce4bhs12rcd13ifvqhvg","pricing_plan_id":"cebpf4jnsgd1na2vs0mg"},{"bike_id":"83d0d2a4-db84-49e3-92b6-3a18fd57e226","system_id":"levelo_inurba_marseille","lat":43.324771,"lon":5.36557,"is_reserved":false,"is_disabled":false,"rental_uris":{"android":"levelo://app?vid=83d0d2a4-db84-49e3-92b6-3a18fd57e226","ios":"levelo://app?vid=83d0d2a4-db84-49e3-92b6-3a18fd57e226"},"vehicle_type_id":"4","last_reported":1721502366,"current_range_meters":10000,"station_id":"ce4bhs12rcd13ifvqhvg","pricing_plan_id":"cebpf4jnsgd1na2vs0mg"},{"bike_id":"b3414686-b118-41e2-b345-6fc6e19bca15","system_id":"levelo_inurba_marseille","lat":43.310804,"lon":5.38359,"is_reserved":false,"is_disabled":false,"rental_uris":{"android":"levelo://app?vid=b3414686-b118-41e2-b345-6fc6e19bca15","ios":"levelo://app?vid=b3414686-b118-41e2-b345-6fc6e19bca15"},"vehicle_type_id":"4","last_reported":1721502366,"current_range_meters":5600,"station_id":"ce4bgv92rcd13ifvqcr0","pricing_plan_id":"cebpf4jnsgd1na2vs0mg"},{"bike_id":"6f83053f-7f90-4937-81a2-1f476f216a91","system_id":"levelo_inurba_marseille","lat":43.310804,"lon":5.38359,"is_reserved":false,"is_disabled":false,"rental_uris":{"android":"levelo://app?vid=6f83053f-7f90-4937-81a2-1f476f216a91","ios":"levelo://app?vid=6f83053f-7f90-4937-81a2-1f476f216a91"},"vehicle_type_id":"4","last_reported":1721502366,"current_range_meters":18400,"station_id":"ce4bgv92rcd13ifvqcr0","pricing_plan_id":"cebpf4jnsgd1na2vs0mg"},{"bike_id":"5231b795-c1af-46f1-9f65-960b364bd3c4","system_id":"levelo_inurba_marseille","lat":43.310804,"lon":5.38359,"is_reserved":false,"is_disabled":false,"rental_uris":{"android":"levelo://app?vid=5231b795-c1af-46f1-9f65-960b364bd3c4","ios":"levelo://app?vid=5231b795-c1af-46f1-9f65-960b364bd3c4"},"vehicle_type_id":"4","last_reported":1721502366,"current_range_meters":1600,"station_id":"ce4bgv92rcd13ifvqcr0","pricing_plan_id":"cebpf4jnsgd1na2vs0mg"},{"bike_id":"12f9ddb4-c18c-4d39-a6f4-bdad1fda02ba","system_id":"levelo_inurba_marseille","lat":43.310804,"lon":5.38359,"is_reserved":false,"is_disabled":false,"rental_uris":{"android":"levelo://app?vid=12f9ddb4-c18c-4d39-a6f4-bdad1fda02ba","ios":"levelo://app?vid=12f9ddb4-c18c-4d39-a6f4-bdad1fda02ba"},"vehicle_type_id":"4","last_reported":1721502366,"current_range_meters":28400,"station_id":"ce4bgv92rcd13ifvqcr0","pricing_plan_id":"cebpf4jnsgd1na2vs0mg"},{"bike_id":"018e4707-8e87-424c-945c-a6e58ee691a3","system_id":"levelo_inurba_marseille","lat":43.310804,"lon":5.38359,"is_reserved":false,"is_disabled":false,"rental_uris":{"android":"levelo://app?vid=018e4707-8e87-424c-945c-a6e58ee691a3","ios":"levelo://app?vid=018e4707-8e87-424c-945c-a6e58ee691a3"},"vehicle_type_id":"4","last_reported":1721502366,"current_range_meters":2400,"station_id":"ce4bgv92rcd13ifvqcr0","pricing_plan_id":"cebpf4jnsgd1na2vs0mg"},{"bike_id":"98aa74e7-d0e9-4b68-9e3a-b94b9d3794dd","system_id":"levelo_inurba_marseille","lat":43.302808,"lon":5.377173,"is_reserved":false,"is_disabled":false,"rental_uris":{"android":"levelo://app?vid=98aa74e7-d0e9-4b68-9e3a-b94b9d3794dd","ios":"levelo://app?vid=98aa74e7-d0e9-4b68-9e3a-b94b9d3794dd"},"vehicle_type_id":"4","last_reported":1721502366,"current_range_meters":6000,"station_id":"","pricing_plan_id":"cebpf4jnsgd1na2vs0mg"},{"bike_id":"1ba01627-7b5c-4899-b99a-c9a8e6600bad","system_id":"levelo_inurba_marseille","lat":43.319935,"lon":5.381699,"is_reserved":false,"is_disabled":false,"rental_uris":{"android":"levelo://app?vid=1ba01627-7b5c-4899-b99a-c9a8e6600bad","ios":"levelo://app?vid=1ba01627-7b5c-4899-b99a-c9a8e6600bad"},"vehicle_type_id":"4","last_reported":1721502366,"current_range_meters":1200,"station_id":"ce4bhr12rcd13ifvqhpg","pricing_plan_id":"cebpf4jnsgd1na2vs0mg"},{"bike_id":"834ae887-00f6-435d-90c1-6f2d087bd1f5","system_id":"levelo_inurba_marseille","lat":43.29964,"lon":5.36624,"is_reserved":false,"is_disabled":false,"rental_uris":{"android":"levelo://app?vid=834ae887-00f6-435d-90c1-6f2d087bd1f5","ios":"levelo://app?vid=834ae887-00f6-435d-90c1-6f2d087bd1f5"},"vehicle_type_id":"4","last_reported":1721502366,"current_range_meters":21600,"station_id":"","pricing_plan_id":"cebpf4jnsgd1na2vs0mg"},{"bike_id":"fbe6f029-3915-48d5-ae4b-82e25d6074cd","system_id":"levelo_inurba_marseille","lat":43.313571,"lon":5.384829,"is_reserved":false,"is_disabled":false,"rental_uris":{"android":"levelo://app?vid=fbe6f029-3915-48d5-ae4b-82e25d6074cd","ios":"levelo://app?vid=fbe6f029-3915-48d5-ae4b-82e25d6074cd"},"vehicle_type_id":"4","last_reported":1721502366,"current_range_meters":0,"station_id":"ce4bgt92rcd13ifvqcf0","pricing_plan_id":"cebpf4jnsgd1na2vs0mg"},{"bike_id":"5fec8928-a84d-420d-90d6-6c4573dac8dc","system_id":"levelo_inurba_marseille","lat":43.31367,"lon":5.38506,"is_reserved":false,"is_disabled":false,"rental_uris":{"android":"levelo://app?vid=5fec8928-a84d-420d-90d6-6c4573dac8dc","ios":"levelo://app?vid=5fec8928-a84d-420d-90d6-6c4573dac8dc"},"vehicle_type_id":"4","last_reported":1721502366,"current_range_meters":27600,"station_id":"ce4bgt92rcd13ifvqcf0","pricing_plan_id":"cebpf4jnsgd1na2vs0mg"},{"bike_id":"eaf18b3e-7e0a-46b1-a407-491e5e120fd2","system_id":"levelo_inurba_marseille","lat":43.299724,"lon":5.371829,"is_reserved":false,"is_disabled":false,"rental_uris":{"android":"levelo://app?vid=eaf18b3e-7e0a-46b1-a407-491e5e120fd2","ios":"levelo://app?vid=eaf18b3e-7e0a-46b1-a407-491e5e120fd2"},"vehicle_type_id":"4","last_reported":1721502366,"current_range_meters":16000,"station_id":"ce4bgr92rcd13ifvqc7g","pricing_plan_id":"cebpf4jnsgd1na2vs0mg"},{"bike_id":"47cc6d1d-8be5-4f98-90f0-b254b62df139","system_id":"levelo_inurba_marseille","lat":43.299724,"lon":5.371829,"is_reserved":false,"is_disabled":false,"rental_uris":{"android":"levelo://app?vid=47cc6d1d-8be5-4f98-90f0-b254b62df139","ios":"levelo://app?vid=47cc6d1d-8be5-4f98-90f0-b254b62df139"},"vehicle_type_id":"4","last_reported":1721502366,"current_range_meters":12400,"station_id":"ce4bgr92rcd13ifvqc7g","pricing_plan_id":"cebpf4jnsgd1na2vs0mg"},{"bike_id":"5ea2b58f-802a-49f4-ba88-a97b7d73f64b","system_id":"levelo_inurba_marseille","lat":43.299222,"lon":5.365554,"is_reserved":false,"is_disabled":false,"rental_uris":{"android":"levelo://app?vid=5ea2b58f-802a-49f4-ba88-a97b7d73f64b","ios":"levelo://app?vid=5ea2b58f-802a-49f4-ba88-a97b7d73f64b"},"vehicle_type_id":"4","last_reported":1721502366,"current_range_meters":8000,"station_id":"ce4bgm92rcd13ifvqbr0","pricing_plan_id":"cebpf4jnsgd1na2vs0mg"},{"bike_id":"cbec8abb-eb9d-4ebe-bc7f-5c5f559adb38","system_id":"levelo_inurba_marseille","lat":43.294153,"lon":5.386305,"is_reserved":false,"is_disabled":false,"rental_uris":{"android":"levelo://app?vid=cbec8abb-eb9d-4ebe-bc7f-5c5f559adb38","ios":"levelo://app?vid=cbec8abb-eb9d-4ebe-bc7f-5c5f559adb38"},"vehicle_type_id":"4","last_reported":1721502366,"current_range_meters":3200,"station_id":"ce4bh2h2rcd13ifvqdh0","pricing_plan_id":"cebpf4jnsgd1na2vs0mg"},{"bike_id":"42f12fe8-f37d-4780-800d-144a30dd59a3","system_id":"levelo_inurba_marseille","lat":43.298433,"lon":5.362774,"is_reserved":false,"is_disabled":false,"rental_uris":{"android":"levelo://app?vid=42f12fe8-f37d-4780-800d-144a30dd59a3","ios":"levelo://app?vid=42f12fe8-f37d-4780-800d-144a30dd59a3"},"vehicle_type_id":"4","last_reported":1721502366,"current_range_meters":5600,"station_id":"ce4bgpp2rcd13ifvqc3g","pricing_plan_id":"cebpf4jnsgd1na2vs0mg"},{"bike_id":"ad03c32f-e4ff-47b9-8cff-ef90dc1206f9","system_id":"levelo_inurba_marseille","lat":43.298433,"lon":5.362774,"is_reserved":false,"is_disabled":false,"rental_uris":{"android":"levelo://app?vid=ad03c32f-e4ff-47b9-8cff-ef90dc1206f9","ios":"levelo://app?vid=ad03c32f-e4ff-47b9-8cff-ef90dc1206f9"},"vehicle_type_id":"4","last_reported":1721502366,"current_range_meters":31200,"station_id":"ce4bgpp2rcd13ifvqc3g","pricing_plan_id":"cebpf4jnsgd1na2vs0mg"},{"bike_id":"70b06cd7-d1f6-4fa2-aca2-c968d57f2066","system_id":"levelo_inurba_marseille","lat":43.298433,"lon":5.362774,"is_reserved":false,"is_disabled":false,"rental_uris":{"android":"levelo://app?vid=70b06cd7-d1f6-4fa2-aca2-c968d57f2066","ios":"levelo://app?vid=70b06cd7-d1f6-4fa2-aca2-c968d57f2066"},"vehicle_type_id":"4","last_reported":1721502366,"current_range_meters":0,"station_id":"ce4bgpp2rcd13ifvqc3g","pricing_plan_id":"cebpf4jnsgd1na2vs0mg"},{"bike_id":"736bbdfb-2c4f-4a1d-b24f-7178d471f4cb","system_id":"levelo_inurba_marseille","lat":43.298433,"lon":5.362774,"is_reserved":false,"is_disabled":false,"rental_uris":{"android":"levelo://app?vid=736bbdfb-2c4f-4a1d-b24f-7178d471f4cb","ios":"levelo://app?vid=736bbdfb-2c4f-4a1d-b24f-7178d471f4cb"},"vehicle_type_id":"4","last_reported":1721502366,"current_range_meters":17200,"station_id":"ce4bgpp2rcd13ifvqc3g","pricing_plan_id":"cebpf4jnsgd1na2vs0mg"},{"bike_id":"de5e1513-bdd3-4962-9969-4cd4498d33a7","system_id":"levelo_inurba_marseille","lat":43.298433,"lon":5.362774,"is_reserved":false,"is_disabled":false,"rental_uris":{"android":"levelo://app?vid=de5e1513-bdd3-4962-9969-4cd4498d33a7","ios":"levelo://app?vid=de5e1513-bdd3-4962-9969-4cd4498d33a7"},"vehicle_type_id":"4","last_reported":1721502366,"current_range_meters":31200,"station_id":"ce4bgpp2rcd13ifvqc3g","pricing_plan_id":"cebpf4jnsgd1na2vs0mg"},{"bike_id":"de566955-5a6b-4de8-ae6b-4c44e94d7109","system_id":"levelo_inurba_marseille","lat":43.297794,"lon":5.370888,"is_reserved":false,"is_disabled":false,"rental_uris":{"android":"levelo://app?vid=de566955-5a6b-4de8-ae6b-4c44e94d7109","ios":"levelo://app?vid=de566955-5a6b-4de8-ae6b-4c44e94d7109"},"vehicle_type_id":"4","last_reported":1721502366,"current_range_meters":2400,"station_id":"ce4bgop2rcd13ifvqc1g","pricing_plan_id":"cebpf4jnsgd1na2vs0mg"},{"bike_id":"fd19526c-fddb-4fce-8d32-321bbfb4322c","system_id":"levelo_inurba_marseille","lat":43.322872,"lon":5.382756,"is_reserved":false,"is_disabled":false,"rental_uris":{"android":"levelo://app?vid=fd19526c-fddb-4fce-8d32-321bbfb4322c","ios":"levelo://app?vid=fd19526c-fddb-4fce-8d32-321bbfb4322c"},"vehicle_type_id":"4","last_reported":1721502366,"current_range_meters":5600,"station_id":"ce4bhr12rcd13ifvqhqg","pricing_plan_id":"cebpf4jnsgd1na2vs0mg"},{"bike_id":"28ffaacc-a643-4a6a-9ecf-b1a93dc78dbc","system_id":"levelo_inurba_marseille","lat":43.322872,"lon":5.382756,"is_reserved":false,"is_disabled":false,"rental_uris":{"android":"levelo://app?vid=28ffaacc-a643-4a6a-9ecf-b1a93dc78dbc","ios":"levelo://app?vid=28ffaacc-a643-4a6a-9ecf-b1a93dc78dbc"},"vehicle_type_id":"4","last_reported":1721502366,"current_range_meters":9200,"station_id":"ce4bhr12rcd13ifvqhqg","pricing_plan_id":"cebpf4jnsgd1na2vs0mg"},{"bike_id":"46920590-0dbc-44b5-aa87-4201002b7d17","system_id":"levelo_inurba_marseille","lat":43.322872,"lon":5.382756,"is_reserved":false,"is_disabled":false,"rental_uris":{"android":"levelo://app?vid=46920590-0dbc-44b5-aa87-4201002b7d17","ios":"levelo://app?vid=46920590-0dbc-44b5-aa87-4201002b7d17"},"vehicle_type_id":"4","last_reported":1721502366,"current_range_meters":4000,"station_id":"ce4bhr12rcd13ifvqhqg","pricing_plan_id":"cebpf4jnsgd1na2vs0mg"},{"bike_id":"4b4f9417-e97a-4d21-8f69-3469db0a90bd","system_id":"levelo_inurba_marseille","lat":43.297163,"lon":5.365866,"is_reserved":false,"is_disabled":false,"rental_uris":{"android":"levelo://app?vid=4b4f9417-e97a-4d21-8f69-3469db0a90bd","ios":"levelo://app?vid=4b4f9417-e97a-4d21-8f69-3469db0a90bd"},"vehicle_type_id":"4","last_reported":1721502366,"current_range_meters":0,"station_id":"ce4bgn12rcd13ifvqbt0","pricing_plan_id":"cebpf4jnsgd1na2vs0mg"},{"bike_id":"f566f586-ca49-4c50-8e15-e43b9ad0e670","system_id":"levelo_inurba_marseille","lat":43.297163,"lon":5.365866,"is_reserved":false,"is_disabled":false,"rental_uris":{"android":"levelo://app?vid=f566f586-ca49-4c50-8e15-e43b9ad0e670","ios":"levelo://app?vid=f566f586-ca49-4c50-8e15-e43b9ad0e670"},"vehicle_type_id":"4","last_reported":1721502366,"current_range_meters":2000,"station_id":"ce4bgn12rcd13ifvqbt0","pricing_plan_id":"cebpf4jnsgd1na2vs0mg"},{"bike_id":"8685c198-af2d-428e-9013-e4de515249d2","system_id":"levelo_inurba_marseille","lat":43.297163,"lon":5.365866,"is_reserved":false,"is_disabled":false,"rental_uris":{"android":"levelo://app?vid=8685c198-af2d-428e-9013-e4de515249d2","ios":"levelo://app?vid=8685c198-af2d-428e-9013-e4de515249d2"},"vehicle_type_id":"4","last_reported":1721502366,"current_range_meters":1600,"station_id":"ce4bgn12rcd13ifvqbt0","pricing_plan_id":"cebpf4jnsgd1na2vs0mg"},{"bike_id":"05bdae84-1067-465f-ae1f-1f8e13b8e143","system_id":"levelo_inurba_marseille","lat":43.32905,"lon":5.36705,"is_reserved":false,"is_disabled":false,"rental_uris":{"android":"levelo://app?vid=05bdae84-1067-465f-ae1f-1f8e13b8e143","ios":"levelo://app?vid=05bdae84-1067-465f-ae1f-1f8e13b8e143"},"vehicle_type_id":"4","last_reported":1721502366,"current_range_meters":2400,"station_id":"","pricing_plan_id":"cebpf4jnsgd1na2vs0mg"},{"bike_id":"4fe8f272-486b-4977-8f85-739296f8933a","system_id":"levelo_inurba_marseille","lat":43.297027,"lon":5.373447,"is_reserved":false,"is_disabled":false,"rental_uris":{"android":"levelo://app?vid=4fe8f272-486b-4977-8f85-739296f8933a","ios":"levelo://app?vid=4fe8f272-486b-4977-8f85-739296f8933a"},"vehicle_type_id":"4","last_reported":1721502366,"current_range_meters":0,"station_id":"","pricing_plan_id":"cebpf4jnsgd1na2vs0mg"},{"bike_id":"0a04e3e6-8d7c-4659-b28f-7cb59c0ef208","system_id":"levelo_inurba_marseille","lat":43.296131,"lon":5.370791,"is_reserved":false,"is_disabled":false,"rental_uris":{"android":"levelo://app?vid=0a04e3e6-8d7c-4659-b28f-7cb59c0ef208","ios":"levelo://app?vid=0a04e3e6-8d7c-4659-b28f-7cb59c0ef208"},"vehicle_type_id":"4","last_reported":1721502366,"current_range_meters":6000,"station_id":"ce4bgnh2rcd13ifvqc0g","pricing_plan_id":"cebpf4jnsgd1na2vs0mg"},{"bike_id":"19c3a51d-e9da-41ab-b61f-03d6694d461f","system_id":"levelo_inurba_marseille","lat":43.29624,"lon":5.37149,"is_reserved":false,"is_disabled":false,"rental_uris":{"android":"levelo://app?vid=19c3a51d-e9da-41ab-b61f-03d6694d461f","ios":"levelo://app?vid=19c3a51d-e9da-41ab-b61f-03d6694d461f"},"vehicle_type_id":"4","last_reported":1721502366,"current_range_meters":0,"station_id":"ce4bgnh2rcd13ifvqc0g","pricing_plan_id":"cebpf4jnsgd1na2vs0mg"},{"bike_id":"d5f2ac4c-cfc0-4039-a09f-e17f7f661e4b","system_id":"levelo_inurba_marseille","lat":43.296129,"lon":5.370777,"is_reserved":false,"is_disabled":false,"rental_uris":{"android":"levelo://app?vid=d5f2ac4c-cfc0-4039-a09f-e17f7f661e4b","ios":"levelo://app?vid=d5f2ac4c-cfc0-4039-a09f-e17f7f661e4b"},"vehicle_type_id":"4","last_reported":1721502366,"current_range_meters":23200,"station_id":"ce4bgnh2rcd13ifvqc0g","pricing_plan_id":"cebpf4jnsgd1na2vs0mg"},{"bike_id":"2200a36c-dc1a-4431-b880-b78a0edb1cea","system_id":"levelo_inurba_marseille","lat":43.296131,"lon":5.370791,"is_reserved":false,"is_disabled":false,"rental_uris":{"android":"levelo://app?vid=2200a36c-dc1a-4431-b880-b78a0edb1cea","ios":"levelo://app?vid=2200a36c-dc1a-4431-b880-b78a0edb1cea"},"vehicle_type_id":"4","last_reported":1721502366,"current_range_meters":0,"station_id":"ce4bgnh2rcd13ifvqc0g","pricing_plan_id":"cebpf4jnsgd1na2vs0mg"},{"bike_id":"dd614e6c-96c4-4bdc-ad6b-98d069d71f77","system_id":"levelo_inurba_marseille","lat":43.296921,"lon":5.376579,"is_reserved":false,"is_disabled":false,"rental_uris":{"android":"levelo://app?vid=dd614e6c-96c4-4bdc-ad6b-98d069d71f77","ios":"levelo://app?vid=dd614e6c-96c4-4bdc-ad6b-98d069d71f77"},"vehicle_type_id":"4","last_reported":1721502366,"current_range_meters":6000,"station_id":"ce4bgkh2rcd13ifvqbl0","pricing_plan_id":"cebpf4jnsgd1na2vs0mg"},{"bike_id":"24b2bd52-d538-4c8c-8a4c-f14dadf34d94","system_id":"levelo_inurba_marseille","lat":43.296935,"lon":5.376544,"is_reserved":false,"is_disabled":false,"rental_uris":{"android":"levelo://app?vid=24b2bd52-d538-4c8c-8a4c-f14dadf34d94","ios":"levelo://app?vid=24b2bd52-d538-4c8c-8a4c-f14dadf34d94"},"vehicle_type_id":"4","last_reported":1721502366,"current_range_meters":0,"station_id":"ce4bgkh2rcd13ifvqbl0","pricing_plan_id":"cebpf4jnsgd1na2vs0mg"},{"bike_id":"d371f574-17ce-4e7f-9600-0331597ef065","system_id":"levelo_inurba_marseille","lat":43.30944,"lon":5.39008,"is_reserved":false,"is_disabled":false,"rental_uris":{"android":"levelo://app?vid=d371f574-17ce-4e7f-9600-0331597ef065","ios":"levelo://app?vid=d371f574-17ce-4e7f-9600-0331597ef065"},"vehicle_type_id":"4","last_reported":1721502366,"current_range_meters":10400,"station_id":"ce4bgup2rcd13ifvqco0","pricing_plan_id":"cebpf4jnsgd1na2vs0mg"},{"bike_id":"0b69e4f8-d51c-4d1b-9088-69bc9d7553f8","system_id":"levelo_inurba_marseille","lat":43.30951,"lon":5.39021,"is_reserved":false,"is_disabled":false,"rental_uris":{"android":"levelo://app?vid=0b69e4f8-d51c-4d1b-9088-69bc9d7553f8","ios":"levelo://app?vid=0b69e4f8-d51c-4d1b-9088-69bc9d7553f8"},"vehicle_type_id":"4","last_reported":1721502366,"current_range_meters":11600,"station_id":"ce4bgup2rcd13ifvqco0","pricing_plan_id":"cebpf4jnsgd1na2vs0mg"},{"bike_id":"469a29e9-3a53-4718-ab96-a2480ce8c429","system_id":"levelo_inurba_marseille","lat":43.309589,"lon":5.390258,"is_reserved":false,"is_disabled":false,"rental_uris":{"android":"levelo://app?vid=469a29e9-3a53-4718-ab96-a2480ce8c429","ios":"levelo://app?vid=469a29e9-3a53-4718-ab96-a2480ce8c429"},"vehicle_type_id":"4","last_reported":1721502366,"current_range_meters":10800,"station_id":"ce4bgup2rcd13ifvqco0","pricing_plan_id":"cebpf4jnsgd1na2vs0mg"},{"bike_id":"3a0d96bb-d09e-4a6c-b789-db151e90e606","system_id":"levelo_inurba_marseille","lat":43.296935,"lon":5.376544,"is_reserved":false,"is_disabled":false,"rental_uris":{"android":"levelo://app?vid=3a0d96bb-d09e-4a6c-b789-db151e90e606","ios":"levelo://app?vid=3a0d96bb-d09e-4a6c-b789-db151e90e606"},"vehicle_type_id":"4","last_reported":1721502366,"current_range_meters":22400,"station_id":"ce4bgkh2rcd13ifvqbl0","pricing_plan_id":"cebpf4jnsgd1na2vs0mg"},{"bike_id":"f610f0ac-f89a-4358-bde1-8a8359331b18","system_id":"levelo_inurba_marseille","lat":43.30952,"lon":5.39027,"is_reserved":false,"is_disabled":false,"rental_uris":{"android":"levelo://app?vid=f610f0ac-f89a-4358-bde1-8a8359331b18","ios":"levelo://app?vid=f610f0ac-f89a-4358-bde1-8a8359331b18"},"vehicle_type_id":"4","last_reported":1721502366,"current_range_meters":5200,"station_id":"ce4bgup2rcd13ifvqco0","pricing_plan_id":"cebpf4jnsgd1na2vs0mg"},{"bike_id":"6b6f62f6-17a0-485b-ac41-19ce074c43ef","system_id":"levelo_inurba_marseille","lat":43.309589,"lon":5.390258,"is_reserved":false,"is_disabled":false,"rental_uris":{"android":"levelo://app?vid=6b6f62f6-17a0-485b-ac41-19ce074c43ef","ios":"levelo://app?vid=6b6f62f6-17a0-485b-ac41-19ce074c43ef"},"vehicle_type_id":"4","last_reported":1721502366,"current_range_meters":0,"station_id":"ce4bgup2rcd13ifvqco0","pricing_plan_id":"cebpf4jnsgd1na2vs0mg"},{"bike_id":"06de800e-6c64-450b-9ac9-fe17a6e7e1e7","system_id":"levelo_inurba_marseille","lat":43.309589,"lon":5.390258,"is_reserved":false,"is_disabled":false,"rental_uris":{"android":"levelo://app?vid=06de800e-6c64-450b-9ac9-fe17a6e7e1e7","ios":"levelo://app?vid=06de800e-6c64-450b-9ac9-fe17a6e7e1e7"},"vehicle_type_id":"4","last_reported":1721502366,"current_range_meters":3600,"station_id":"ce4bgup2rcd13ifvqco0","pricing_plan_id":"cebpf4jnsgd1na2vs0mg"},{"bike_id":"55229fe6-5c67-4283-8b86-be963dd46776","system_id":"levelo_inurba_marseille","lat":43.30957,"lon":5.390303,"is_reserved":false,"is_disabled":false,"rental_uris":{"android":"levelo://app?vid=55229fe6-5c67-4283-8b86-be963dd46776","ios":"levelo://app?vid=55229fe6-5c67-4283-8b86-be963dd46776"},"vehicle_type_id":"4","last_reported":1721502366,"current_range_meters":18000,"station_id":"ce4bgup2rcd13ifvqco0","pricing_plan_id":"cebpf4jnsgd1na2vs0mg"},{"bike_id":"32ea673f-5aad-45bc-a7fe-b60ddf8c9101","system_id":"levelo_inurba_marseille","lat":43.309535,"lon":5.390297,"is_reserved":false,"is_disabled":false,"rental_uris":{"android":"levelo://app?vid=32ea673f-5aad-45bc-a7fe-b60ddf8c9101","ios":"levelo://app?vid=32ea673f-5aad-45bc-a7fe-b60ddf8c9101"},"vehicle_type_id":"4","last_reported":1721502366,"current_range_meters":0,"station_id":"ce4bgup2rcd13ifvqco0","pricing_plan_id":"cebpf4jnsgd1na2vs0mg"},{"bike_id":"14b8da56-a0c8-450f-8e32-caa28ffae636","system_id":"levelo_inurba_marseille","lat":43.309589,"lon":5.390258,"is_reserved":false,"is_disabled":false,"rental_uris":{"android":"levelo://app?vid=14b8da56-a0c8-450f-8e32-caa28ffae636","ios":"levelo://app?vid=14b8da56-a0c8-450f-8e32-caa28ffae636"},"vehicle_type_id":"4","last_reported":1721502366,"current_range_meters":13200,"station_id":"ce4bgup2rcd13ifvqco0","pricing_plan_id":"cebpf4jnsgd1na2vs0mg"},{"bike_id":"091af877-a5ce-43de-960d-bba79d79a625","system_id":"levelo_inurba_marseille","lat":43.30953,"lon":5.39032,"is_reserved":false,"is_disabled":false,"rental_uris":{"android":"levelo://app?vid=091af877-a5ce-43de-960d-bba79d79a625","ios":"levelo://app?vid=091af877-a5ce-43de-960d-bba79d79a625"},"vehicle_type_id":"4","last_reported":1721502366,"current_range_meters":0,"station_id":"ce4bgup2rcd13ifvqco0","pricing_plan_id":"cebpf4jnsgd1na2vs0mg"},{"bike_id":"f9add01e-b56b-4289-b17b-217415a0ab34","system_id":"levelo_inurba_marseille","lat":43.309589,"lon":5.390258,"is_reserved":false,"is_disabled":false,"rental_uris":{"android":"levelo://app?vid=f9add01e-b56b-4289-b17b-217415a0ab34","ios":"levelo://app?vid=f9add01e-b56b-4289-b17b-217415a0ab34"},"vehicle_type_id":"4","last_reported":1721502366,"current_range_meters":19200,"station_id":"ce4bgup2rcd13ifvqco0","pricing_plan_id":"cebpf4jnsgd1na2vs0mg"},{"bike_id":"c837dc52-1929-4ede-81b3-192bf0867658","system_id":"levelo_inurba_marseille","lat":43.309589,"lon":5.390258,"is_reserved":false,"is_disabled":false,"rental_uris":{"android":"levelo://app?vid=c837dc52-1929-4ede-81b3-192bf0867658","ios":"levelo://app?vid=c837dc52-1929-4ede-81b3-192bf0867658"},"vehicle_type_id":"4","last_reported":1721502366,"current_range_meters":19200,"station_id":"ce4bgup2rcd13ifvqco0","pricing_plan_id":"cebpf4jnsgd1na2vs0mg"},{"bike_id":"e76ee844-607d-46b0-ae79-9133e249f079","system_id":"levelo_inurba_marseille","lat":43.3095,"lon":5.39033,"is_reserved":false,"is_disabled":false,"rental_uris":{"android":"levelo://app?vid=e76ee844-607d-46b0-ae79-9133e249f079","ios":"levelo://app?vid=e76ee844-607d-46b0-ae79-9133e249f079"},"vehicle_type_id":"4","last_reported":1721502366,"current_range_meters":23200,"station_id":"ce4bgup2rcd13ifvqco0","pricing_plan_id":"cebpf4jnsgd1na2vs0mg"},{"bike_id":"cec4391b-664e-40be-8c62-f0f6a627ed64","system_id":"levelo_inurba_marseille","lat":43.309589,"lon":5.390258,"is_reserved":false,"is_disabled":false,"rental_uris":{"android":"levelo://app?vid=cec4391b-664e-40be-8c62-f0f6a627ed64","ios":"levelo://app?vid=cec4391b-664e-40be-8c62-f0f6a627ed64"},"vehicle_type_id":"4","last_reported":1721502366,"current_range_meters":28400,"station_id":"ce4bgup2rcd13ifvqco0","pricing_plan_id":"cebpf4jnsgd1na2vs0mg"},{"bike_id":"9389ba00-e9c3-49b9-affb-1d4f077c53bf","system_id":"levelo_inurba_marseille","lat":43.309589,"lon":5.390258,"is_reserved":false,"is_disabled":false,"rental_uris":{"android":"levelo://app?vid=9389ba00-e9c3-49b9-affb-1d4f077c53bf","ios":"levelo://app?vid=9389ba00-e9c3-49b9-affb-1d4f077c53bf"},"vehicle_type_id":"4","last_reported":1721502366,"current_range_meters":8800,"station_id":"ce4bgup2rcd13ifvqco0","pricing_plan_id":"cebpf4jnsgd1na2vs0mg"},{"bike_id":"437c54cd-9a22-4d0e-925a-3fb1fcfa15e7","system_id":"levelo_inurba_marseille","lat":43.309589,"lon":5.390258,"is_reserved":false,"is_disabled":false,"rental_uris":{"android":"levelo://app?vid=437c54cd-9a22-4d0e-925a-3fb1fcfa15e7","ios":"levelo://app?vid=437c54cd-9a22-4d0e-925a-3fb1fcfa15e7"},"vehicle_type_id":"4","last_reported":1721502366,"current_range_meters":30800,"station_id":"ce4bgup2rcd13ifvqco0","pricing_plan_id":"cebpf4jnsgd1na2vs0mg"},{"bike_id":"ebb531ac-8160-4045-a6d9-424175f80b01","system_id":"levelo_inurba_marseille","lat":43.309589,"lon":5.390258,"is_reserved":false,"is_disabled":false,"rental_uris":{"android":"levelo://app?vid=ebb531ac-8160-4045-a6d9-424175f80b01","ios":"levelo://app?vid=ebb531ac-8160-4045-a6d9-424175f80b01"},"vehicle_type_id":"4","last_reported":1721502366,"current_range_meters":4400,"station_id":"ce4bgup2rcd13ifvqco0","pricing_plan_id":"cebpf4jnsgd1na2vs0mg"},{"bike_id":"724d32ec-4e8e-4b16-ad90-6513912d1d70","system_id":"levelo_inurba_marseille","lat":43.309589,"lon":5.390258,"is_reserved":false,"is_disabled":false,"rental_uris":{"android":"levelo://app?vid=724d32ec-4e8e-4b16-ad90-6513912d1d70","ios":"levelo://app?vid=724d32ec-4e8e-4b16-ad90-6513912d1d70"},"vehicle_type_id":"4","last_reported":1721502366,"current_range_meters":11600,"station_id":"ce4bgup2rcd13ifvqco0","pricing_plan_id":"cebpf4jnsgd1na2vs0mg"},{"bike_id":"58770c48-df64-4702-8df8-55b10ce92e56","system_id":"levelo_inurba_marseille","lat":43.309589,"lon":5.390258,"is_reserved":false,"is_disabled":false,"rental_uris":{"android":"levelo://app?vid=58770c48-df64-4702-8df8-55b10ce92e56","ios":"levelo://app?vid=58770c48-df64-4702-8df8-55b10ce92e56"},"vehicle_type_id":"4","last_reported":1721502366,"current_range_meters":31200,"station_id":"ce4bgup2rcd13ifvqco0","pricing_plan_id":"cebpf4jnsgd1na2vs0mg"},{"bike_id":"9d109053-2ad2-4f68-af59-e02c04becf65","system_id":"levelo_inurba_marseille","lat":43.309589,"lon":5.390258,"is_reserved":false,"is_disabled":false,"rental_uris":{"android":"levelo://app?vid=9d109053-2ad2-4f68-af59-e02c04becf65","ios":"levelo://app?vid=9d109053-2ad2-4f68-af59-e02c04becf65"},"vehicle_type_id":"4","last_reported":1721502366,"current_range_meters":24400,"station_id":"ce4bgup2rcd13ifvqco0","pricing_plan_id":"cebpf4jnsgd1na2vs0mg"},{"bike_id":"3da75c95-f3e9-48b0-a8cb-648aa9cc0b3b","system_id":"levelo_inurba_marseille","lat":43.309589,"lon":5.390258,"is_reserved":false,"is_disabled":false,"rental_uris":{"android":"levelo://app?vid=3da75c95-f3e9-48b0-a8cb-648aa9cc0b3b","ios":"levelo://app?vid=3da75c95-f3e9-48b0-a8cb-648aa9cc0b3b"},"vehicle_type_id":"4","last_reported":1721502366,"current_range_meters":6800,"station_id":"ce4bgup2rcd13ifvqco0","pricing_plan_id":"cebpf4jnsgd1na2vs0mg"},{"bike_id":"e8dc7ea3-49f1-4ff8-b31e-93acf8c004f0","system_id":"levelo_inurba_marseille","lat":43.309589,"lon":5.390258,"is_reserved":false,"is_disabled":false,"rental_uris":{"android":"levelo://app?vid=e8dc7ea3-49f1-4ff8-b31e-93acf8c004f0","ios":"levelo://app?vid=e8dc7ea3-49f1-4ff8-b31e-93acf8c004f0"},"vehicle_type_id":"4","last_reported":1721502366,"current_range_meters":0,"station_id":"ce4bgup2rcd13ifvqco0","pricing_plan_id":"cebpf4jnsgd1na2vs0mg"},{"bike_id":"396180e1-487c-40ac-9f07-a01a68a78fc2","system_id":"levelo_inurba_marseille","lat":43.309589,"lon":5.390258,"is_reserved":false,"is_disabled":false,"rental_uris":{"android":"levelo://app?vid=396180e1-487c-40ac-9f07-a01a68a78fc2","ios":"levelo://app?vid=396180e1-487c-40ac-9f07-a01a68a78fc2"},"vehicle_type_id":"4","last_reported":1721502366,"current_range_meters":6000,"station_id":"ce4bgup2rcd13ifvqco0","pricing_plan_id":"cebpf4jnsgd1na2vs0mg"},{"bike_id":"cf358a63-5b8c-4bba-8023-26a50d5db6ba","system_id":"levelo_inurba_marseille","lat":43.309589,"lon":5.390258,"is_reserved":false,"is_disabled":false,"rental_uris":{"android":"levelo://app?vid=cf358a63-5b8c-4bba-8023-26a50d5db6ba","ios":"levelo://app?vid=cf358a63-5b8c-4bba-8023-26a50d5db6ba"},"vehicle_type_id":"4","last_reported":1721502366,"current_range_meters":28000,"station_id":"ce4bgup2rcd13ifvqco0","pricing_plan_id":"cebpf4jnsgd1na2vs0mg"},{"bike_id":"183d913a-5725-4ad9-97f8-fa939119866d","system_id":"levelo_inurba_marseille","lat":43.317557,"lon":5.390173,"is_reserved":false,"is_disabled":false,"rental_uris":{"android":"levelo://app?vid=183d913a-5725-4ad9-97f8-fa939119866d","ios":"levelo://app?vid=183d913a-5725-4ad9-97f8-fa939119866d"},"vehicle_type_id":"4","last_reported":1721502366,"current_range_meters":0,"station_id":"ce4bhqp2rcd13ifvqhng","pricing_plan_id":"cebpf4jnsgd1na2vs0mg"},{"bike_id":"addb1237-8ccd-4738-8d22-ec0ac6e1d8c2","system_id":"levelo_inurba_marseille","lat":43.295748,"lon":5.37522,"is_reserved":false,"is_disabled":false,"rental_uris":{"android":"levelo://app?vid=addb1237-8ccd-4738-8d22-ec0ac6e1d8c2","ios":"levelo://app?vid=addb1237-8ccd-4738-8d22-ec0ac6e1d8c2"},"vehicle_type_id":"4","last_reported":1721502366,"current_range_meters":0,"station_id":"ce4bgh92rcd13ifvqb50","pricing_plan_id":"cebpf4jnsgd1na2vs0mg"},{"bike_id":"460470c5-c3e1-4d88-9cc5-204320676580","system_id":"levelo_inurba_marseille","lat":43.295748,"lon":5.37522,"is_reserved":false,"is_disabled":false,"rental_uris":{"android":"levelo://app?vid=460470c5-c3e1-4d88-9cc5-204320676580","ios":"levelo://app?vid=460470c5-c3e1-4d88-9cc5-204320676580"},"vehicle_type_id":"4","last_reported":1721502366,"current_range_meters":0,"station_id":"ce4bgh92rcd13ifvqb50","pricing_plan_id":"cebpf4jnsgd1na2vs0mg"},{"bike_id":"4df54ece-377d-4c4a-97bf-8a73520ef126","system_id":"levelo_inurba_marseille","lat":43.295748,"lon":5.37522,"is_reserved":false,"is_disabled":false,"rental_uris":{"android":"levelo://app?vid=4df54ece-377d-4c4a-97bf-8a73520ef126","ios":"levelo://app?vid=4df54ece-377d-4c4a-97bf-8a73520ef126"},"vehicle_type_id":"4","last_reported":1721502366,"current_range_meters":0,"station_id":"ce4bgh92rcd13ifvqb50","pricing_plan_id":"cebpf4jnsgd1na2vs0mg"},{"bike_id":"82f57613-dafa-467f-ac31-e80234d309bc","system_id":"levelo_inurba_marseille","lat":43.304274,"lon":5.388873,"is_reserved":false,"is_disabled":false,"rental_uris":{"android":"levelo://app?vid=82f57613-dafa-467f-ac31-e80234d309bc","ios":"levelo://app?vid=82f57613-dafa-467f-ac31-e80234d309bc"},"vehicle_type_id":"4","last_reported":1721502366,"current_range_meters":6800,"station_id":"ce4bgk12rcd13ifvqbi0","pricing_plan_id":"cebpf4jnsgd1na2vs0mg"},{"bike_id":"3bd9f83d-53ae-44c1-ab01-f219f63c35d8","system_id":"levelo_inurba_marseille","lat":43.304274,"lon":5.388873,"is_reserved":false,"is_disabled":false,"rental_uris":{"android":"levelo://app?vid=3bd9f83d-53ae-44c1-ab01-f219f63c35d8","ios":"levelo://app?vid=3bd9f83d-53ae-44c1-ab01-f219f63c35d8"},"vehicle_type_id":"4","last_reported":1721502366,"current_range_meters":0,"station_id":"ce4bgk12rcd13ifvqbi0","pricing_plan_id":"cebpf4jnsgd1na2vs0mg"},{"bike_id":"28151956-9da1-4776-a7a8-8ab83f6a7b35","system_id":"levelo_inurba_marseille","lat":43.295748,"lon":5.37522,"is_reserved":false,"is_disabled":false,"rental_uris":{"android":"levelo://app?vid=28151956-9da1-4776-a7a8-8ab83f6a7b35","ios":"levelo://app?vid=28151956-9da1-4776-a7a8-8ab83f6a7b35"},"vehicle_type_id":"4","last_reported":1721502366,"current_range_meters":14000,"station_id":"ce4bgh92rcd13ifvqb50","pricing_plan_id":"cebpf4jnsgd1na2vs0mg"},{"bike_id":"6ff96268-549a-4041-bebb-f45d22c27bab","system_id":"levelo_inurba_marseille","lat":43.296263,"lon":5.377094,"is_reserved":false,"is_disabled":false,"rental_uris":{"android":"levelo://app?vid=6ff96268-549a-4041-bebb-f45d22c27bab","ios":"levelo://app?vid=6ff96268-549a-4041-bebb-f45d22c27bab"},"vehicle_type_id":"4","last_reported":1721502366,"current_range_meters":17200,"station_id":"ce4bgi92rcd13ifvqb90","pricing_plan_id":"cebpf4jnsgd1na2vs0mg"},{"bike_id":"6c314f6c-86e6-4ae9-b033-f149c58bf4f1","system_id":"levelo_inurba_marseille","lat":43.299724,"lon":5.384848,"is_reserved":false,"is_disabled":false,"rental_uris":{"android":"levelo://app?vid=6c314f6c-86e6-4ae9-b033-f149c58bf4f1","ios":"levelo://app?vid=6c314f6c-86e6-4ae9-b033-f149c58bf4f1"},"vehicle_type_id":"4","last_reported":1721502366,"current_range_meters":0,"station_id":"ce4bgj92rcd13ifvqbd0","pricing_plan_id":"cebpf4jnsgd1na2vs0mg"},{"bike_id":"18491e9b-089a-423d-92a6-2224fb4ac1cb","system_id":"levelo_inurba_marseille","lat":43.30473,"lon":5.39011,"is_reserved":false,"is_disabled":false,"rental_uris":{"android":"levelo://app?vid=18491e9b-089a-423d-92a6-2224fb4ac1cb","ios":"levelo://app?vid=18491e9b-089a-423d-92a6-2224fb4ac1cb"},"vehicle_type_id":"4","last_reported":1721502366,"current_range_meters":2800,"station_id":"","pricing_plan_id":"cebpf4jnsgd1na2vs0mg"},{"bike_id":"64c83d4a-b449-4397-b3e7-b3b6831f5742","system_id":"levelo_inurba_marseille","lat":43.309589,"lon":5.390258,"is_reserved":false,"is_disabled":false,"rental_uris":{"android":"levelo://app?vid=64c83d4a-b449-4397-b3e7-b3b6831f5742","ios":"levelo://app?vid=64c83d4a-b449-4397-b3e7-b3b6831f5742"},"vehicle_type_id":"4","last_reported":1721502366,"current_range_meters":0,"station_id":"ce4bgup2rcd13ifvqco0","pricing_plan_id":"cebpf4jnsgd1na2vs0mg"},{"bike_id":"0c9834eb-11c9-451c-91b3-437701e24bc1","system_id":"levelo_inurba_marseille","lat":43.309589,"lon":5.390258,"is_reserved":false,"is_disabled":false,"rental_uris":{"android":"levelo://app?vid=0c9834eb-11c9-451c-91b3-437701e24bc1","ios":"levelo://app?vid=0c9834eb-11c9-451c-91b3-437701e24bc1"},"vehicle_type_id":"4","last_reported":1721502366,"current_range_meters":29600,"station_id":"ce4bgup2rcd13ifvqco0","pricing_plan_id":"cebpf4jnsgd1na2vs0mg"},{"bike_id":"5b46c555-81a4-4d11-bec8-11588f937b4c","system_id":"levelo_inurba_marseille","lat":43.32367,"lon":5.388836,"is_reserved":false,"is_disabled":false,"rental_uris":{"android":"levelo://app?vid=5b46c555-81a4-4d11-bec8-11588f937b4c","ios":"levelo://app?vid=5b46c555-81a4-4d11-bec8-11588f937b4c"},"vehicle_type_id":"4","last_reported":1721502366,"current_range_meters":22400,"station_id":"ce4bhqp2rcd13ifvqhog","pricing_plan_id":"cebpf4jnsgd1na2vs0mg"},{"bike_id":"a714632d-44c0-4d33-8aa9-55a02a942e0d","system_id":"levelo_inurba_marseille","lat":43.324993,"lon":5.387863,"is_reserved":false,"is_disabled":false,"rental_uris":{"android":"levelo://app?vid=a714632d-44c0-4d33-8aa9-55a02a942e0d","ios":"levelo://app?vid=a714632d-44c0-4d33-8aa9-55a02a942e0d"},"vehicle_type_id":"4","last_reported":1721502366,"current_range_meters":12000,"station_id":"","pricing_plan_id":"cebpf4jnsgd1na2vs0mg"},{"bike_id":"04d14f9e-6f09-465a-9963-81da2400f6b2","system_id":"levelo_inurba_marseille","lat":43.29602,"lon":5.381084,"is_reserved":false,"is_disabled":false,"rental_uris":{"android":"levelo://app?vid=04d14f9e-6f09-465a-9963-81da2400f6b2","ios":"levelo://app?vid=04d14f9e-6f09-465a-9963-81da2400f6b2"},"vehicle_type_id":"4","last_reported":1721502366,"current_range_meters":0,"station_id":"ce4bgl12rcd13ifvqbo0","pricing_plan_id":"cebpf4jnsgd1na2vs0mg"},{"bike_id":"272c85e1-516d-476a-91eb-4556d28a90ff","system_id":"levelo_inurba_marseille","lat":43.29602,"lon":5.381084,"is_reserved":false,"is_disabled":false,"rental_uris":{"android":"levelo://app?vid=272c85e1-516d-476a-91eb-4556d28a90ff","ios":"levelo://app?vid=272c85e1-516d-476a-91eb-4556d28a90ff"},"vehicle_type_id":"4","last_reported":1721502366,"current_range_meters":26000,"station_id":"ce4bgl12rcd13ifvqbo0","pricing_plan_id":"cebpf4jnsgd1na2vs0mg"},{"bike_id":"85858614-8668-4409-8e4f-9e0d87877602","system_id":"levelo_inurba_marseille","lat":43.29602,"lon":5.381084,"is_reserved":false,"is_disabled":false,"rental_uris":{"android":"levelo://app?vid=85858614-8668-4409-8e4f-9e0d87877602","ios":"levelo://app?vid=85858614-8668-4409-8e4f-9e0d87877602"},"vehicle_type_id":"4","last_reported":1721502366,"current_range_meters":28800,"station_id":"ce4bgl12rcd13ifvqbo0","pricing_plan_id":"cebpf4jnsgd1na2vs0mg"},{"bike_id":"21af8daf-b402-4413-8d27-4fded88c8620","system_id":"levelo_inurba_marseille","lat":43.293009,"lon":5.374584,"is_reserved":false,"is_disabled":false,"rental_uris":{"android":"levelo://app?vid=21af8daf-b402-4413-8d27-4fded88c8620","ios":"levelo://app?vid=21af8daf-b402-4413-8d27-4fded88c8620"},"vehicle_type_id":"4","last_reported":1721502366,"current_range_meters":27600,"station_id":"ce4bgi12rcd13ifvqb70","pricing_plan_id":"cebpf4jnsgd1na2vs0mg"},{"bike_id":"ed6bbe2d-05ab-41cb-8d01-ab130e21d9c6","system_id":"levelo_inurba_marseille","lat":43.295748,"lon":5.37522,"is_reserved":false,"is_disabled":false,"rental_uris":{"android":"levelo://app?vid=ed6bbe2d-05ab-41cb-8d01-ab130e21d9c6","ios":"levelo://app?vid=ed6bbe2d-05ab-41cb-8d01-ab130e21d9c6"},"vehicle_type_id":"4","last_reported":1721502366,"current_range_meters":400,"station_id":"ce4bgh92rcd13ifvqb50","pricing_plan_id":"cebpf4jnsgd1na2vs0mg"},{"bike_id":"27667a25-9da7-45ce-80f0-c3e1e40b5ab9","system_id":"levelo_inurba_marseille","lat":43.29299,"lon":5.371785,"is_reserved":false,"is_disabled":false,"rental_uris":{"android":"levelo://app?vid=27667a25-9da7-45ce-80f0-c3e1e40b5ab9","ios":"levelo://app?vid=27667a25-9da7-45ce-80f0-c3e1e40b5ab9"},"vehicle_type_id":"4","last_reported":1721502366,"current_range_meters":0,"station_id":"ce4bgh92rcd13ifvqb40","pricing_plan_id":"cebpf4jnsgd1na2vs0mg"},{"bike_id":"2bb6f90a-bf1e-486b-8751-7df49e5f89de","system_id":"levelo_inurba_marseille","lat":43.33272,"lon":5.36243,"is_reserved":false,"is_disabled":false,"rental_uris":{"android":"levelo://app?vid=2bb6f90a-bf1e-486b-8751-7df49e5f89de","ios":"levelo://app?vid=2bb6f90a-bf1e-486b-8751-7df49e5f89de"},"vehicle_type_id":"4","last_reported":1721502366,"current_range_meters":7200,"station_id":"","pricing_plan_id":"cebpf4jnsgd1na2vs0mg"},{"bike_id":"104be022-09cb-4885-8166-ffad10ef346c","system_id":"levelo_inurba_marseille","lat":43.293009,"lon":5.374584,"is_reserved":false,"is_disabled":false,"rental_uris":{"android":"levelo://app?vid=104be022-09cb-4885-8166-ffad10ef346c","ios":"levelo://app?vid=104be022-09cb-4885-8166-ffad10ef346c"},"vehicle_type_id":"4","last_reported":1721502366,"current_range_meters":0,"station_id":"ce4bgi12rcd13ifvqb70","pricing_plan_id":"cebpf4jnsgd1na2vs0mg"},{"bike_id":"dac9f811-e6e7-4f47-875a-fcc7fd7a6bd2","system_id":"levelo_inurba_marseille","lat":43.293009,"lon":5.374584,"is_reserved":false,"is_disabled":false,"rental_uris":{"android":"levelo://app?vid=dac9f811-e6e7-4f47-875a-fcc7fd7a6bd2","ios":"levelo://app?vid=dac9f811-e6e7-4f47-875a-fcc7fd7a6bd2"},"vehicle_type_id":"4","last_reported":1721502366,"current_range_meters":18800,"station_id":"ce4bgi12rcd13ifvqb70","pricing_plan_id":"cebpf4jnsgd1na2vs0mg"},{"bike_id":"95e589d3-34fe-48ab-8069-be1a87dd908c","system_id":"levelo_inurba_marseille","lat":43.305994,"lon":5.393687,"is_reserved":false,"is_disabled":false,"rental_uris":{"android":"levelo://app?vid=95e589d3-34fe-48ab-8069-be1a87dd908c","ios":"levelo://app?vid=95e589d3-34fe-48ab-8069-be1a87dd908c"},"vehicle_type_id":"4","last_reported":1721502366,"current_range_meters":25200,"station_id":"ce4bh0p2rcd13ifvqd80","pricing_plan_id":"cebpf4jnsgd1na2vs0mg"},{"bike_id":"0fe67bd6-c0a8-479f-b302-7343d69947d3","system_id":"levelo_inurba_marseille","lat":43.305994,"lon":5.393687,"is_reserved":false,"is_disabled":false,"rental_uris":{"android":"levelo://app?vid=0fe67bd6-c0a8-479f-b302-7343d69947d3","ios":"levelo://app?vid=0fe67bd6-c0a8-479f-b302-7343d69947d3"},"vehicle_type_id":"4","last_reported":1721502366,"current_range_meters":31200,"station_id":"ce4bh0p2rcd13ifvqd80","pricing_plan_id":"cebpf4jnsgd1na2vs0mg"},{"bike_id":"3d9fa5d2-9bf0-4e88-923b-7ad8ce2e980d","system_id":"levelo_inurba_marseille","lat":43.303002,"lon":5.392142,"is_reserved":false,"is_disabled":false,"rental_uris":{"android":"levelo://app?vid=3d9fa5d2-9bf0-4e88-923b-7ad8ce2e980d","ios":"levelo://app?vid=3d9fa5d2-9bf0-4e88-923b-7ad8ce2e980d"},"vehicle_type_id":"4","last_reported":1721502366,"current_range_meters":0,"station_id":"ce4bgkh2rcd13ifvqbk0","pricing_plan_id":"cebpf4jnsgd1na2vs0mg"},{"bike_id":"e594b8e5-2995-4eb5-bef3-a5851503fc71","system_id":"levelo_inurba_marseille","lat":43.302992,"lon":5.392136,"is_reserved":false,"is_disabled":false,"rental_uris":{"android":"levelo://app?vid=e594b8e5-2995-4eb5-bef3-a5851503fc71","ios":"levelo://app?vid=e594b8e5-2995-4eb5-bef3-a5851503fc71"},"vehicle_type_id":"4","last_reported":1721502366,"current_range_meters":23200,"station_id":"ce4bgkh2rcd13ifvqbk0","pricing_plan_id":"cebpf4jnsgd1na2vs0mg"},{"bike_id":"fdf6b988-3b30-40df-b3b2-36a2f78f36b4","system_id":"levelo_inurba_marseille","lat":43.2936,"lon":5.37835,"is_reserved":false,"is_disabled":false,"rental_uris":{"android":"levelo://app?vid=fdf6b988-3b30-40df-b3b2-36a2f78f36b4","ios":"levelo://app?vid=fdf6b988-3b30-40df-b3b2-36a2f78f36b4"},"vehicle_type_id":"4","last_reported":1721502366,"current_range_meters":30000,"station_id":"ce4bgjh2rcd13ifvqbf0","pricing_plan_id":"cebpf4jnsgd1na2vs0mg"},{"bike_id":"c33ca63d-cadd-4d0b-82db-76b0c377babc","system_id":"levelo_inurba_marseille","lat":43.293697,"lon":5.37838,"is_reserved":false,"is_disabled":false,"rental_uris":{"android":"levelo://app?vid=c33ca63d-cadd-4d0b-82db-76b0c377babc","ios":"levelo://app?vid=c33ca63d-cadd-4d0b-82db-76b0c377babc"},"vehicle_type_id":"4","last_reported":1721502366,"current_range_meters":0,"station_id":"ce4bgjh2rcd13ifvqbf0","pricing_plan_id":"cebpf4jnsgd1na2vs0mg"},{"bike_id":"8c449df3-8faf-4ed9-a503-6c1ba764be0e","system_id":"levelo_inurba_marseille","lat":43.293777,"lon":5.378686,"is_reserved":false,"is_disabled":false,"rental_uris":{"android":"levelo://app?vid=8c449df3-8faf-4ed9-a503-6c1ba764be0e","ios":"levelo://app?vid=8c449df3-8faf-4ed9-a503-6c1ba764be0e"},"vehicle_type_id":"4","last_reported":1721502366,"current_range_meters":0,"station_id":"ce4bgjh2rcd13ifvqbf0","pricing_plan_id":"cebpf4jnsgd1na2vs0mg"},{"bike_id":"4c62c4e8-1d43-468b-8a15-5f1e5a05da1d","system_id":"levelo_inurba_marseille","lat":43.2936,"lon":5.37835,"is_reserved":false,"is_disabled":false,"rental_uris":{"android":"levelo://app?vid=4c62c4e8-1d43-468b-8a15-5f1e5a05da1d","ios":"levelo://app?vid=4c62c4e8-1d43-468b-8a15-5f1e5a05da1d"},"vehicle_type_id":"4","last_reported":1721502366,"current_range_meters":24000,"station_id":"ce4bgjh2rcd13ifvqbf0","pricing_plan_id":"cebpf4jnsgd1na2vs0mg"},{"bike_id":"295e5a8a-9480-4788-aff5-ac311c730682","system_id":"levelo_inurba_marseille","lat":43.293635,"lon":5.37862,"is_reserved":false,"is_disabled":false,"rental_uris":{"android":"levelo://app?vid=295e5a8a-9480-4788-aff5-ac311c730682","ios":"levelo://app?vid=295e5a8a-9480-4788-aff5-ac311c730682"},"vehicle_type_id":"4","last_reported":1721502366,"current_range_meters":0,"station_id":"ce4bgjh2rcd13ifvqbf0","pricing_plan_id":"cebpf4jnsgd1na2vs0mg"},{"bike_id":"3a57637c-03be-4ed2-9516-2fa8944f10f3","system_id":"levelo_inurba_marseille","lat":43.29217,"lon":5.36047,"is_reserved":false,"is_disabled":false,"rental_uris":{"android":"levelo://app?vid=3a57637c-03be-4ed2-9516-2fa8944f10f3","ios":"levelo://app?vid=3a57637c-03be-4ed2-9516-2fa8944f10f3"},"vehicle_type_id":"4","last_reported":1721502366,"current_range_meters":24800,"station_id":"ce4bhbh2rcd13ifvqeqg","pricing_plan_id":"cebpf4jnsgd1na2vs0mg"},{"bike_id":"286325d3-37a8-44e5-81c7-181cc8613399","system_id":"levelo_inurba_marseille","lat":43.29216,"lon":5.36049,"is_reserved":false,"is_disabled":false,"rental_uris":{"android":"levelo://app?vid=286325d3-37a8-44e5-81c7-181cc8613399","ios":"levelo://app?vid=286325d3-37a8-44e5-81c7-181cc8613399"},"vehicle_type_id":"4","last_reported":1721502366,"current_range_meters":28800,"station_id":"ce4bhbh2rcd13ifvqeqg","pricing_plan_id":"cebpf4jnsgd1na2vs0mg"},{"bike_id":"d00c4725-7227-43ed-a279-1b4dfd2c714a","system_id":"levelo_inurba_marseille","lat":43.298764,"lon":5.388973,"is_reserved":false,"is_disabled":false,"rental_uris":{"android":"levelo://app?vid=d00c4725-7227-43ed-a279-1b4dfd2c714a","ios":"levelo://app?vid=d00c4725-7227-43ed-a279-1b4dfd2c714a"},"vehicle_type_id":"4","last_reported":1721502366,"current_range_meters":1200,"station_id":"ce4bh392rcd13ifvqdl0","pricing_plan_id":"cebpf4jnsgd1na2vs0mg"},{"bike_id":"06d9d688-f28e-4d36-a99a-723f5120ed4a","system_id":"levelo_inurba_marseille","lat":43.298813,"lon":5.38912,"is_reserved":false,"is_disabled":false,"rental_uris":{"android":"levelo://app?vid=06d9d688-f28e-4d36-a99a-723f5120ed4a","ios":"levelo://app?vid=06d9d688-f28e-4d36-a99a-723f5120ed4a"},"vehicle_type_id":"4","last_reported":1721502366,"current_range_meters":0,"station_id":"ce4bh392rcd13ifvqdl0","pricing_plan_id":"cebpf4jnsgd1na2vs0mg"},{"bike_id":"f1783930-7eca-48c5-b2bb-a79eebf93e3b","system_id":"levelo_inurba_marseille","lat":43.30884,"lon":5.3963,"is_reserved":false,"is_disabled":false,"rental_uris":{"android":"levelo://app?vid=f1783930-7eca-48c5-b2bb-a79eebf93e3b","ios":"levelo://app?vid=f1783930-7eca-48c5-b2bb-a79eebf93e3b"},"vehicle_type_id":"4","last_reported":1721502366,"current_range_meters":0,"station_id":"ce4bh012rcd13ifvqcv0","pricing_plan_id":"cebpf4jnsgd1na2vs0mg"},{"bike_id":"cbcfbeda-0eb9-42cd-9b18-fbda40b153b3","system_id":"levelo_inurba_marseille","lat":43.291994,"lon":5.357886,"is_reserved":false,"is_disabled":false,"rental_uris":{"android":"levelo://app?vid=cbcfbeda-0eb9-42cd-9b18-fbda40b153b3","ios":"levelo://app?vid=cbcfbeda-0eb9-42cd-9b18-fbda40b153b3"},"vehicle_type_id":"4","last_reported":1721502366,"current_range_meters":0,"station_id":"ce4bhb12rcd13ifvqel0","pricing_plan_id":"cebpf4jnsgd1na2vs0mg"},{"bike_id":"16f32303-6285-43d2-b961-2c6fb33d0f67","system_id":"levelo_inurba_marseille","lat":43.313291,"lon":5.396838,"is_reserved":false,"is_disabled":false,"rental_uris":{"android":"levelo://app?vid=16f32303-6285-43d2-b961-2c6fb33d0f67","ios":"levelo://app?vid=16f32303-6285-43d2-b961-2c6fb33d0f67"},"vehicle_type_id":"4","last_reported":1721502366,"current_range_meters":30400,"station_id":"ce4bgvp2rcd13ifvqcu0","pricing_plan_id":"cebpf4jnsgd1na2vs0mg"},{"bike_id":"058b39f3-5b98-4f5f-9c95-645af171862a","system_id":"levelo_inurba_marseille","lat":43.313291,"lon":5.396838,"is_reserved":false,"is_disabled":false,"rental_uris":{"android":"levelo://app?vid=058b39f3-5b98-4f5f-9c95-645af171862a","ios":"levelo://app?vid=058b39f3-5b98-4f5f-9c95-645af171862a"},"vehicle_type_id":"4","last_reported":1721502366,"current_range_meters":14400,"station_id":"ce4bgvp2rcd13ifvqcu0","pricing_plan_id":"cebpf4jnsgd1na2vs0mg"},{"bike_id":"940b5027-55e6-465b-810b-d398b04da51d","system_id":"levelo_inurba_marseille","lat":43.29194,"lon":5.3579,"is_reserved":false,"is_disabled":false,"rental_uris":{"android":"levelo://app?vid=940b5027-55e6-465b-810b-d398b04da51d","ios":"levelo://app?vid=940b5027-55e6-465b-810b-d398b04da51d"},"vehicle_type_id":"4","last_reported":1721502366,"current_range_meters":0,"station_id":"ce4bhb12rcd13ifvqel0","pricing_plan_id":"cebpf4jnsgd1na2vs0mg"},{"bike_id":"5ebc99c9-e659-4207-a80b-e4979a8c4d42","system_id":"levelo_inurba_marseille","lat":43.313291,"lon":5.396838,"is_reserved":false,"is_disabled":false,"rental_uris":{"android":"levelo://app?vid=5ebc99c9-e659-4207-a80b-e4979a8c4d42","ios":"levelo://app?vid=5ebc99c9-e659-4207-a80b-e4979a8c4d42"},"vehicle_type_id":"4","last_reported":1721502366,"current_range_meters":4400,"station_id":"ce4bgvp2rcd13ifvqcu0","pricing_plan_id":"cebpf4jnsgd1na2vs0mg"},{"bike_id":"10ef7eb7-bfbc-4887-a34c-aa6c1126497b","system_id":"levelo_inurba_marseille","lat":43.313291,"lon":5.396838,"is_reserved":false,"is_disabled":false,"rental_uris":{"android":"levelo://app?vid=10ef7eb7-bfbc-4887-a34c-aa6c1126497b","ios":"levelo://app?vid=10ef7eb7-bfbc-4887-a34c-aa6c1126497b"},"vehicle_type_id":"4","last_reported":1721502366,"current_range_meters":15600,"station_id":"ce4bgvp2rcd13ifvqcu0","pricing_plan_id":"cebpf4jnsgd1na2vs0mg"},{"bike_id":"0fc69436-151d-40d8-9a13-7a021341d712","system_id":"levelo_inurba_marseille","lat":43.313291,"lon":5.396838,"is_reserved":false,"is_disabled":false,"rental_uris":{"android":"levelo://app?vid=0fc69436-151d-40d8-9a13-7a021341d712","ios":"levelo://app?vid=0fc69436-151d-40d8-9a13-7a021341d712"},"vehicle_type_id":"4","last_reported":1721502366,"current_range_meters":30400,"station_id":"ce4bgvp2rcd13ifvqcu0","pricing_plan_id":"cebpf4jnsgd1na2vs0mg"},{"bike_id":"411a8b4f-6dc1-497d-9a00-f755e7343cc0","system_id":"levelo_inurba_marseille","lat":43.309038,"lon":5.396546,"is_reserved":false,"is_disabled":false,"rental_uris":{"android":"levelo://app?vid=411a8b4f-6dc1-497d-9a00-f755e7343cc0","ios":"levelo://app?vid=411a8b4f-6dc1-497d-9a00-f755e7343cc0"},"vehicle_type_id":"4","last_reported":1721502366,"current_range_meters":0,"station_id":"ce4bh012rcd13ifvqcv0","pricing_plan_id":"cebpf4jnsgd1na2vs0mg"},{"bike_id":"dbce3027-f1b1-46a4-a3d3-fd7e93c1d4ba","system_id":"levelo_inurba_marseille","lat":43.332406,"lon":5.380534,"is_reserved":false,"is_disabled":false,"rental_uris":{"android":"levelo://app?vid=dbce3027-f1b1-46a4-a3d3-fd7e93c1d4ba","ios":"levelo://app?vid=dbce3027-f1b1-46a4-a3d3-fd7e93c1d4ba"},"vehicle_type_id":"4","last_reported":1721502366,"current_range_meters":0,"station_id":"","pricing_plan_id":"cebpf4jnsgd1na2vs0mg"},{"bike_id":"8e14a466-7f6a-4397-9a5e-70e1947f3d43","system_id":"levelo_inurba_marseille","lat":43.29531,"lon":5.38548,"is_reserved":false,"is_disabled":false,"rental_uris":{"android":"levelo://app?vid=8e14a466-7f6a-4397-9a5e-70e1947f3d43","ios":"levelo://app?vid=8e14a466-7f6a-4397-9a5e-70e1947f3d43"},"vehicle_type_id":"4","last_reported":1721502366,"current_range_meters":0,"station_id":"ce4bgih2rcd13ifvqba0","pricing_plan_id":"cebpf4jnsgd1na2vs0mg"},{"bike_id":"f6281b2d-093d-403a-83d6-4ee35a44b7ff","system_id":"levelo_inurba_marseille","lat":43.29067,"lon":5.3717,"is_reserved":false,"is_disabled":false,"rental_uris":{"android":"levelo://app?vid=f6281b2d-093d-403a-83d6-4ee35a44b7ff","ios":"levelo://app?vid=f6281b2d-093d-403a-83d6-4ee35a44b7ff"},"vehicle_type_id":"4","last_reported":1721502366,"current_range_meters":0,"station_id":"ce4bh5p2rcd13ifvqe4g","pricing_plan_id":"cebpf4jnsgd1na2vs0mg"},{"bike_id":"56ffc8b1-b697-4222-bfc8-adc34bfca4dc","system_id":"levelo_inurba_marseille","lat":43.294206,"lon":5.385736,"is_reserved":false,"is_disabled":false,"rental_uris":{"android":"levelo://app?vid=56ffc8b1-b697-4222-bfc8-adc34bfca4dc","ios":"levelo://app?vid=56ffc8b1-b697-4222-bfc8-adc34bfca4dc"},"vehicle_type_id":"4","last_reported":1721502366,"current_range_meters":6400,"station_id":"","pricing_plan_id":"cebpf4jnsgd1na2vs0mg"},{"bike_id":"4d8eac3c-8a13-457e-bb05-912549e26d95","system_id":"levelo_inurba_marseille","lat":43.29039,"lon":5.37505,"is_reserved":false,"is_disabled":false,"rental_uris":{"android":"levelo://app?vid=4d8eac3c-8a13-457e-bb05-912549e26d95","ios":"levelo://app?vid=4d8eac3c-8a13-457e-bb05-912549e26d95"},"vehicle_type_id":"4","last_reported":1721502366,"current_range_meters":4800,"station_id":"","pricing_plan_id":"cebpf4jnsgd1na2vs0mg"},{"bike_id":"641780be-fa11-40fb-840b-69750dfc24ff","system_id":"levelo_inurba_marseille","lat":43.2942,"lon":5.38619,"is_reserved":false,"is_disabled":false,"rental_uris":{"android":"levelo://app?vid=641780be-fa11-40fb-840b-69750dfc24ff","ios":"levelo://app?vid=641780be-fa11-40fb-840b-69750dfc24ff"},"vehicle_type_id":"4","last_reported":1721502366,"current_range_meters":400,"station_id":"ce4bh2h2rcd13ifvqdh0","pricing_plan_id":"cebpf4jnsgd1na2vs0mg"},{"bike_id":"5d7f75fa-bd1b-4e9b-8595-89b0cf7485b6","system_id":"levelo_inurba_marseille","lat":43.2942,"lon":5.38621,"is_reserved":false,"is_disabled":false,"rental_uris":{"android":"levelo://app?vid=5d7f75fa-bd1b-4e9b-8595-89b0cf7485b6","ios":"levelo://app?vid=5d7f75fa-bd1b-4e9b-8595-89b0cf7485b6"},"vehicle_type_id":"4","last_reported":1721502366,"current_range_meters":0,"station_id":"ce4bh2h2rcd13ifvqdh0","pricing_plan_id":"cebpf4jnsgd1na2vs0mg"},{"bike_id":"dd80f704-9e27-44bf-a5c2-6b2b9588999a","system_id":"levelo_inurba_marseille","lat":43.29416,"lon":5.38617,"is_reserved":false,"is_disabled":false,"rental_uris":{"android":"levelo://app?vid=dd80f704-9e27-44bf-a5c2-6b2b9588999a","ios":"levelo://app?vid=dd80f704-9e27-44bf-a5c2-6b2b9588999a"},"vehicle_type_id":"4","last_reported":1721502366,"current_range_meters":0,"station_id":"ce4bh2h2rcd13ifvqdh0","pricing_plan_id":"cebpf4jnsgd1na2vs0mg"},{"bike_id":"25ec6cfa-63a1-4680-bd07-ee017204cf20","system_id":"levelo_inurba_marseille","lat":43.290327,"lon":5.375711,"is_reserved":false,"is_disabled":false,"rental_uris":{"android":"levelo://app?vid=25ec6cfa-63a1-4680-bd07-ee017204cf20","ios":"levelo://app?vid=25ec6cfa-63a1-4680-bd07-ee017204cf20"},"vehicle_type_id":"4","last_reported":1721502366,"current_range_meters":3600,"station_id":"ce4bh692rcd13ifvqe90","pricing_plan_id":"cebpf4jnsgd1na2vs0mg"},{"bike_id":"76ba53af-b00b-4354-849c-d2c216e20599","system_id":"levelo_inurba_marseille","lat":43.2942,"lon":5.38629,"is_reserved":false,"is_disabled":false,"rental_uris":{"android":"levelo://app?vid=76ba53af-b00b-4354-849c-d2c216e20599","ios":"levelo://app?vid=76ba53af-b00b-4354-849c-d2c216e20599"},"vehicle_type_id":"4","last_reported":1721502366,"current_range_meters":0,"station_id":"ce4bh2h2rcd13ifvqdh0","pricing_plan_id":"cebpf4jnsgd1na2vs0mg"},{"bike_id":"8946d602-cf48-4200-a856-9aab1cb051fe","system_id":"levelo_inurba_marseille","lat":43.294139,"lon":5.38621,"is_reserved":false,"is_disabled":false,"rental_uris":{"android":"levelo://app?vid=8946d602-cf48-4200-a856-9aab1cb051fe","ios":"levelo://app?vid=8946d602-cf48-4200-a856-9aab1cb051fe"},"vehicle_type_id":"4","last_reported":1721502366,"current_range_meters":10800,"station_id":"ce4bgih2rcd13ifvqba0","pricing_plan_id":"cebpf4jnsgd1na2vs0mg"},{"bike_id":"4f4a0957-6679-43a9-8227-4bdd638f7411","system_id":"levelo_inurba_marseille","lat":43.29415,"lon":5.38624,"is_reserved":false,"is_disabled":false,"rental_uris":{"android":"levelo://app?vid=4f4a0957-6679-43a9-8227-4bdd638f7411","ios":"levelo://app?vid=4f4a0957-6679-43a9-8227-4bdd638f7411"},"vehicle_type_id":"4","last_reported":1721502366,"current_range_meters":31200,"station_id":"ce4bh2h2rcd13ifvqdh0","pricing_plan_id":"cebpf4jnsgd1na2vs0mg"},{"bike_id":"0d9225e2-89e5-4a73-b8f6-3b732e8be7c8","system_id":"levelo_inurba_marseille","lat":43.294162,"lon":5.386292,"is_reserved":false,"is_disabled":false,"rental_uris":{"android":"levelo://app?vid=0d9225e2-89e5-4a73-b8f6-3b732e8be7c8","ios":"levelo://app?vid=0d9225e2-89e5-4a73-b8f6-3b732e8be7c8"},"vehicle_type_id":"4","last_reported":1721502366,"current_range_meters":10800,"station_id":"ce4bh2h2rcd13ifvqdh0","pricing_plan_id":"cebpf4jnsgd1na2vs0mg"},{"bike_id":"19445523-a905-4c36-b146-fe9ae3b3baae","system_id":"levelo_inurba_marseille","lat":43.28942,"lon":5.36395,"is_reserved":false,"is_disabled":false,"rental_uris":{"android":"levelo://app?vid=19445523-a905-4c36-b146-fe9ae3b3baae","ios":"levelo://app?vid=19445523-a905-4c36-b146-fe9ae3b3baae"},"vehicle_type_id":"4","last_reported":1721502366,"current_range_meters":3600,"station_id":"","pricing_plan_id":"cebpf4jnsgd1na2vs0mg"},{"bike_id":"2bee8ded-52a3-4e97-81dc-8180000c7ec0","system_id":"levelo_inurba_marseille","lat":43.292406,"lon":5.383753,"is_reserved":false,"is_disabled":false,"rental_uris":{"android":"levelo://app?vid=2bee8ded-52a3-4e97-81dc-8180000c7ec0","ios":"levelo://app?vid=2bee8ded-52a3-4e97-81dc-8180000c7ec0"},"vehicle_type_id":"4","last_reported":1721502366,"current_range_meters":8400,"station_id":"","pricing_plan_id":"cebpf4jnsgd1na2vs0mg"},{"bike_id":"12f25660-d57e-440f-8359-13d41f12c462","system_id":"levelo_inurba_marseille","lat":43.304274,"lon":5.397513,"is_reserved":false,"is_disabled":false,"rental_uris":{"android":"levelo://app?vid=12f25660-d57e-440f-8359-13d41f12c462","ios":"levelo://app?vid=12f25660-d57e-440f-8359-13d41f12c462"},"vehicle_type_id":"4","last_reported":1721502366,"current_range_meters":8400,"station_id":"ce4bh092rcd13ifvqd20","pricing_plan_id":"cebpf4jnsgd1na2vs0mg"},{"bike_id":"17b88c1e-4ce8-4312-973b-9d7ba48ceedf","system_id":"levelo_inurba_marseille","lat":43.292633,"lon":5.384357,"is_reserved":false,"is_disabled":false,"rental_uris":{"android":"levelo://app?vid=17b88c1e-4ce8-4312-973b-9d7ba48ceedf","ios":"levelo://app?vid=17b88c1e-4ce8-4312-973b-9d7ba48ceedf"},"vehicle_type_id":"4","last_reported":1721502366,"current_range_meters":0,"station_id":"ce4bh692rcd13ifvqea0","pricing_plan_id":"cebpf4jnsgd1na2vs0mg"},{"bike_id":"e1f9fc0e-bbcc-483d-a82e-9ac878873412","system_id":"levelo_inurba_marseille","lat":43.2926,"lon":5.38438,"is_reserved":false,"is_disabled":false,"rental_uris":{"android":"levelo://app?vid=e1f9fc0e-bbcc-483d-a82e-9ac878873412","ios":"levelo://app?vid=e1f9fc0e-bbcc-483d-a82e-9ac878873412"},"vehicle_type_id":"4","last_reported":1721502366,"current_range_meters":800,"station_id":"ce4bh692rcd13ifvqea0","pricing_plan_id":"cebpf4jnsgd1na2vs0mg"},{"bike_id":"be80d768-05b0-48ef-b666-a4f8b7f4d876","system_id":"levelo_inurba_marseille","lat":43.304274,"lon":5.397513,"is_reserved":false,"is_disabled":false,"rental_uris":{"android":"levelo://app?vid=be80d768-05b0-48ef-b666-a4f8b7f4d876","ios":"levelo://app?vid=be80d768-05b0-48ef-b666-a4f8b7f4d876"},"vehicle_type_id":"4","last_reported":1721502366,"current_range_meters":4400,"station_id":"ce4bh092rcd13ifvqd20","pricing_plan_id":"cebpf4jnsgd1na2vs0mg"},{"bike_id":"d01b0f39-258c-4931-aad3-d2db649adb42","system_id":"levelo_inurba_marseille","lat":43.290104,"lon":5.356111,"is_reserved":false,"is_disabled":false,"rental_uris":{"android":"levelo://app?vid=d01b0f39-258c-4931-aad3-d2db649adb42","ios":"levelo://app?vid=d01b0f39-258c-4931-aad3-d2db649adb42"},"vehicle_type_id":"4","last_reported":1721502366,"current_range_meters":0,"station_id":"ce4bhb92rcd13ifvqen0","pricing_plan_id":"cebpf4jnsgd1na2vs0mg"},{"bike_id":"b2e18c59-5bce-4563-a0f4-d2b2d621fcc3","system_id":"levelo_inurba_marseille","lat":43.290103,"lon":5.356114,"is_reserved":false,"is_disabled":false,"rental_uris":{"android":"levelo://app?vid=b2e18c59-5bce-4563-a0f4-d2b2d621fcc3","ios":"levelo://app?vid=b2e18c59-5bce-4563-a0f4-d2b2d621fcc3"},"vehicle_type_id":"4","last_reported":1721502366,"current_range_meters":20000,"station_id":"ce4bhb92rcd13ifvqen0","pricing_plan_id":"cebpf4jnsgd1na2vs0mg"},{"bike_id":"31afbd5b-f587-4785-a993-135b99b20d78","system_id":"levelo_inurba_marseille","lat":43.29101,"lon":5.38143,"is_reserved":false,"is_disabled":false,"rental_uris":{"android":"levelo://app?vid=31afbd5b-f587-4785-a993-135b99b20d78","ios":"levelo://app?vid=31afbd5b-f587-4785-a993-135b99b20d78"},"vehicle_type_id":"4","last_reported":1721502366,"current_range_meters":0,"station_id":"ce4bh512rcd13ifvqe2g","pricing_plan_id":"cebpf4jnsgd1na2vs0mg"},{"bike_id":"bdba121a-f85c-48f2-bed6-cf128c0f148b","system_id":"levelo_inurba_marseille","lat":43.297807,"lon":5.393533,"is_reserved":false,"is_disabled":false,"rental_uris":{"android":"levelo://app?vid=bdba121a-f85c-48f2-bed6-cf128c0f148b","ios":"levelo://app?vid=bdba121a-f85c-48f2-bed6-cf128c0f148b"},"vehicle_type_id":"4","last_reported":1721502366,"current_range_meters":5200,"station_id":"chh1huq6cuj3fo74tm60","pricing_plan_id":"cebpf4jnsgd1na2vs0mg"},{"bike_id":"30f42a2c-00ce-4508-aebd-e2c2257f5e4f","system_id":"levelo_inurba_marseille","lat":43.33023,"lon":5.39036,"is_reserved":false,"is_disabled":false,"rental_uris":{"android":"levelo://app?vid=30f42a2c-00ce-4508-aebd-e2c2257f5e4f","ios":"levelo://app?vid=30f42a2c-00ce-4508-aebd-e2c2257f5e4f"},"vehicle_type_id":"4","last_reported":1721502366,"current_range_meters":6800,"station_id":"ce4bhr92rcd13ifvqhrg","pricing_plan_id":"cebpf4jnsgd1na2vs0mg"},{"bike_id":"87ddd670-3d8e-4dc6-b927-aa3d01031f78","system_id":"levelo_inurba_marseille","lat":43.28978,"lon":5.3784,"is_reserved":false,"is_disabled":false,"rental_uris":{"android":"levelo://app?vid=87ddd670-3d8e-4dc6-b927-aa3d01031f78","ios":"levelo://app?vid=87ddd670-3d8e-4dc6-b927-aa3d01031f78"},"vehicle_type_id":"4","last_reported":1721502366,"current_range_meters":0,"station_id":"ce4bh9p2rcd13ifvqed0","pricing_plan_id":"cebpf4jnsgd1na2vs0mg"},{"bike_id":"e9175177-cdd8-49d2-b31c-883f492f1a3d","system_id":"levelo_inurba_marseille","lat":43.33023,"lon":5.39041,"is_reserved":false,"is_disabled":false,"rental_uris":{"android":"levelo://app?vid=e9175177-cdd8-49d2-b31c-883f492f1a3d","ios":"levelo://app?vid=e9175177-cdd8-49d2-b31c-883f492f1a3d"},"vehicle_type_id":"4","last_reported":1721502366,"current_range_meters":6400,"station_id":"ce4bhr92rcd13ifvqhrg","pricing_plan_id":"cebpf4jnsgd1na2vs0mg"},{"bike_id":"b1a16b32-b489-4f87-8dec-d8bdcffff305","system_id":"levelo_inurba_marseille","lat":43.330442,"lon":5.389148,"is_reserved":false,"is_disabled":false,"rental_uris":{"android":"levelo://app?vid=b1a16b32-b489-4f87-8dec-d8bdcffff305","ios":"levelo://app?vid=b1a16b32-b489-4f87-8dec-d8bdcffff305"},"vehicle_type_id":"4","last_reported":1721502366,"current_range_meters":28000,"station_id":"ce4bhr92rcd13ifvqhrg","pricing_plan_id":"cebpf4jnsgd1na2vs0mg"},{"bike_id":"d7883c51-d39d-415e-9768-53adca165df6","system_id":"levelo_inurba_marseille","lat":43.330442,"lon":5.389148,"is_reserved":false,"is_disabled":false,"rental_uris":{"android":"levelo://app?vid=d7883c51-d39d-415e-9768-53adca165df6","ios":"levelo://app?vid=d7883c51-d39d-415e-9768-53adca165df6"},"vehicle_type_id":"4","last_reported":1721502366,"current_range_meters":3600,"station_id":"ce4bhr92rcd13ifvqhrg","pricing_plan_id":"cebpf4jnsgd1na2vs0mg"},{"bike_id":"2f1690b1-4e08-4afe-b613-b5cf3959eef9","system_id":"levelo_inurba_marseille","lat":43.295169,"lon":5.390426,"is_reserved":false,"is_disabled":false,"rental_uris":{"android":"levelo://app?vid=2f1690b1-4e08-4afe-b613-b5cf3959eef9","ios":"levelo://app?vid=2f1690b1-4e08-4afe-b613-b5cf3959eef9"},"vehicle_type_id":"4","last_reported":1721502366,"current_range_meters":3600,"station_id":"ce4bh3p2rcd13ifvqdp0","pricing_plan_id":"cebpf4jnsgd1na2vs0mg"},{"bike_id":"3f9bbfe4-8c00-449b-a688-2221dde97e79","system_id":"levelo_inurba_marseille","lat":43.312609,"lon":5.401662,"is_reserved":false,"is_disabled":false,"rental_uris":{"android":"levelo://app?vid=3f9bbfe4-8c00-449b-a688-2221dde97e79","ios":"levelo://app?vid=3f9bbfe4-8c00-449b-a688-2221dde97e79"},"vehicle_type_id":"4","last_reported":1721502366,"current_range_meters":17200,"station_id":"ce4bh092rcd13ifvqd30","pricing_plan_id":"cebpf4jnsgd1na2vs0mg"},{"bike_id":"76974679-eaf5-41fa-8633-acc82d773d44","system_id":"levelo_inurba_marseille","lat":43.312609,"lon":5.401662,"is_reserved":false,"is_disabled":false,"rental_uris":{"android":"levelo://app?vid=76974679-eaf5-41fa-8633-acc82d773d44","ios":"levelo://app?vid=76974679-eaf5-41fa-8633-acc82d773d44"},"vehicle_type_id":"4","last_reported":1721502366,"current_range_meters":28400,"station_id":"ce4bh092rcd13ifvqd30","pricing_plan_id":"cebpf4jnsgd1na2vs0mg"},{"bike_id":"9458a255-a47a-41f1-849e-755dc4612ffe","system_id":"levelo_inurba_marseille","lat":43.337446,"lon":5.374514,"is_reserved":false,"is_disabled":false,"rental_uris":{"android":"levelo://app?vid=9458a255-a47a-41f1-849e-755dc4612ffe","ios":"levelo://app?vid=9458a255-a47a-41f1-849e-755dc4612ffe"},"vehicle_type_id":"4","last_reported":1721502366,"current_range_meters":20800,"station_id":"","pricing_plan_id":"cebpf4jnsgd1na2vs0mg"},{"bike_id":"da1ef795-4411-4787-a704-e9710fe27f7e","system_id":"levelo_inurba_marseille","lat":43.337472,"lon":5.374599,"is_reserved":false,"is_disabled":false,"rental_uris":{"android":"levelo://app?vid=da1ef795-4411-4787-a704-e9710fe27f7e","ios":"levelo://app?vid=da1ef795-4411-4787-a704-e9710fe27f7e"},"vehicle_type_id":"4","last_reported":1721502366,"current_range_meters":22000,"station_id":"","pricing_plan_id":"cebpf4jnsgd1na2vs0mg"},{"bike_id":"0ad3db73-21e8-41b5-aad3-7f410c37748d","system_id":"levelo_inurba_marseille","lat":43.33754,"lon":5.37454,"is_reserved":false,"is_disabled":false,"rental_uris":{"android":"levelo://app?vid=0ad3db73-21e8-41b5-aad3-7f410c37748d","ios":"levelo://app?vid=0ad3db73-21e8-41b5-aad3-7f410c37748d"},"vehicle_type_id":"4","last_reported":1721502366,"current_range_meters":13200,"station_id":"","pricing_plan_id":"cebpf4jnsgd1na2vs0mg"},{"bike_id":"31d1814a-d70f-4c25-bd84-c703d98c5bc0","system_id":"levelo_inurba_marseille","lat":43.295169,"lon":5.390426,"is_reserved":false,"is_disabled":false,"rental_uris":{"android":"levelo://app?vid=31d1814a-d70f-4c25-bd84-c703d98c5bc0","ios":"levelo://app?vid=31d1814a-d70f-4c25-bd84-c703d98c5bc0"},"vehicle_type_id":"4","last_reported":1721502366,"current_range_meters":16800,"station_id":"ce4bh3p2rcd13ifvqdp0","pricing_plan_id":"cebpf4jnsgd1na2vs0mg"},{"bike_id":"9fd23b8b-c7c3-4b5a-b11d-8284b8e4dfa2","system_id":"levelo_inurba_marseille","lat":43.337578,"lon":5.374428,"is_reserved":false,"is_disabled":false,"rental_uris":{"android":"levelo://app?vid=9fd23b8b-c7c3-4b5a-b11d-8284b8e4dfa2","ios":"levelo://app?vid=9fd23b8b-c7c3-4b5a-b11d-8284b8e4dfa2"},"vehicle_type_id":"4","last_reported":1721502366,"current_range_meters":25600,"station_id":"","pricing_plan_id":"cebpf4jnsgd1na2vs0mg"},{"bike_id":"161764a4-8701-4d40-bc59-336005c439ce","system_id":"levelo_inurba_marseille","lat":43.306412,"lon":5.401035,"is_reserved":false,"is_disabled":false,"rental_uris":{"android":"levelo://app?vid=161764a4-8701-4d40-bc59-336005c439ce","ios":"levelo://app?vid=161764a4-8701-4d40-bc59-336005c439ce"},"vehicle_type_id":"4","last_reported":1721502366,"current_range_meters":30000,"station_id":"ce4bh112rcd13ifvqda0","pricing_plan_id":"cebpf4jnsgd1na2vs0mg"},{"bike_id":"ac377a63-6a02-42fa-8a70-d5bb9b7546c9","system_id":"levelo_inurba_marseille","lat":43.337615,"lon":5.374331,"is_reserved":false,"is_disabled":false,"rental_uris":{"android":"levelo://app?vid=ac377a63-6a02-42fa-8a70-d5bb9b7546c9","ios":"levelo://app?vid=ac377a63-6a02-42fa-8a70-d5bb9b7546c9"},"vehicle_type_id":"4","last_reported":1721502366,"current_range_meters":20000,"station_id":"","pricing_plan_id":"cebpf4jnsgd1na2vs0mg"},{"bike_id":"d0723523-f35a-472e-b198-a5153fc33bb6","system_id":"levelo_inurba_marseille","lat":43.3376,"lon":5.37479,"is_reserved":false,"is_disabled":false,"rental_uris":{"android":"levelo://app?vid=d0723523-f35a-472e-b198-a5153fc33bb6","ios":"levelo://app?vid=d0723523-f35a-472e-b198-a5153fc33bb6"},"vehicle_type_id":"4","last_reported":1721502366,"current_range_meters":21200,"station_id":"","pricing_plan_id":"cebpf4jnsgd1na2vs0mg"},{"bike_id":"f1ae88cb-409a-4d07-aa27-32414abc2e1d","system_id":"levelo_inurba_marseille","lat":43.30642,"lon":5.401031,"is_reserved":false,"is_disabled":false,"rental_uris":{"android":"levelo://app?vid=f1ae88cb-409a-4d07-aa27-32414abc2e1d","ios":"levelo://app?vid=f1ae88cb-409a-4d07-aa27-32414abc2e1d"},"vehicle_type_id":"4","last_reported":1721502366,"current_range_meters":20800,"station_id":"ce4bh112rcd13ifvqda0","pricing_plan_id":"cebpf4jnsgd1na2vs0mg"},{"bike_id":"97985319-414b-485d-b0a1-32275752b8d6","system_id":"levelo_inurba_marseille","lat":43.301117,"lon":5.398795,"is_reserved":false,"is_disabled":false,"rental_uris":{"android":"levelo://app?vid=97985319-414b-485d-b0a1-32275752b8d6","ios":"levelo://app?vid=97985319-414b-485d-b0a1-32275752b8d6"},"vehicle_type_id":"4","last_reported":1721502366,"current_range_meters":3600,"station_id":"ce4bh0h2rcd13ifvqd40","pricing_plan_id":"cebpf4jnsgd1na2vs0mg"},{"bike_id":"76cac496-8c8e-46d4-9fe7-6975c65e46fa","system_id":"levelo_inurba_marseille","lat":43.286961,"lon":5.373785,"is_reserved":false,"is_disabled":false,"rental_uris":{"android":"levelo://app?vid=76cac496-8c8e-46d4-9fe7-6975c65e46fa","ios":"levelo://app?vid=76cac496-8c8e-46d4-9fe7-6975c65e46fa"},"vehicle_type_id":"4","last_reported":1721502366,"current_range_meters":8000,"station_id":"ce4bh3p2rcd13ifvqdq0","pricing_plan_id":"cebpf4jnsgd1na2vs0mg"},{"bike_id":"43326dab-b8d1-46f5-9f48-13782457057f","system_id":"levelo_inurba_marseille","lat":43.286961,"lon":5.373785,"is_reserved":false,"is_disabled":false,"rental_uris":{"android":"levelo://app?vid=43326dab-b8d1-46f5-9f48-13782457057f","ios":"levelo://app?vid=43326dab-b8d1-46f5-9f48-13782457057f"},"vehicle_type_id":"4","last_reported":1721502366,"current_range_meters":24000,"station_id":"ce4bh3p2rcd13ifvqdq0","pricing_plan_id":"cebpf4jnsgd1na2vs0mg"},{"bike_id":"98eba859-a08e-4d0b-be2f-d00f21e1f962","system_id":"levelo_inurba_marseille","lat":43.286961,"lon":5.373785,"is_reserved":false,"is_disabled":false,"rental_uris":{"android":"levelo://app?vid=98eba859-a08e-4d0b-be2f-d00f21e1f962","ios":"levelo://app?vid=98eba859-a08e-4d0b-be2f-d00f21e1f962"},"vehicle_type_id":"4","last_reported":1721502366,"current_range_meters":0,"station_id":"ce4bh3p2rcd13ifvqdq0","pricing_plan_id":"cebpf4jnsgd1na2vs0mg"},{"bike_id":"5e0815f0-806f-4687-b4b8-000e5ef9e84c","system_id":"levelo_inurba_marseille","lat":43.286039,"lon":5.370679,"is_reserved":false,"is_disabled":false,"rental_uris":{"android":"levelo://app?vid=5e0815f0-806f-4687-b4b8-000e5ef9e84c","ios":"levelo://app?vid=5e0815f0-806f-4687-b4b8-000e5ef9e84c"},"vehicle_type_id":"4","last_reported":1721502366,"current_range_meters":2400,"station_id":"ce4bht12rcd13ifvqi60","pricing_plan_id":"cebpf4jnsgd1na2vs0mg"},{"bike_id":"ec8a7d20-d387-4f92-adc2-b3b8ad7a0b1d","system_id":"levelo_inurba_marseille","lat":43.302759,"lon":5.400793,"is_reserved":false,"is_disabled":false,"rental_uris":{"android":"levelo://app?vid=ec8a7d20-d387-4f92-adc2-b3b8ad7a0b1d","ios":"levelo://app?vid=ec8a7d20-d387-4f92-adc2-b3b8ad7a0b1d"},"vehicle_type_id":"4","last_reported":1721502366,"current_range_meters":16400,"station_id":"ce4bgvh2rcd13ifvqcs0","pricing_plan_id":"cebpf4jnsgd1na2vs0mg"},{"bike_id":"81d2d3a8-8bad-4765-afb4-30180f75efb8","system_id":"levelo_inurba_marseille","lat":43.28925,"lon":5.38387,"is_reserved":false,"is_disabled":false,"rental_uris":{"android":"levelo://app?vid=81d2d3a8-8bad-4765-afb4-30180f75efb8","ios":"levelo://app?vid=81d2d3a8-8bad-4765-afb4-30180f75efb8"},"vehicle_type_id":"4","last_reported":1721502366,"current_range_meters":0,"station_id":"ce4bh612rcd13ifvqe6g","pricing_plan_id":"cebpf4jnsgd1na2vs0mg"},{"bike_id":"a8cb3bc8-804e-4f72-8d96-3c83c46cb078","system_id":"levelo_inurba_marseille","lat":43.326114,"lon":5.398425,"is_reserved":false,"is_disabled":false,"rental_uris":{"android":"levelo://app?vid=a8cb3bc8-804e-4f72-8d96-3c83c46cb078","ios":"levelo://app?vid=a8cb3bc8-804e-4f72-8d96-3c83c46cb078"},"vehicle_type_id":"4","last_reported":1721502366,"current_range_meters":28400,"station_id":"","pricing_plan_id":"cebpf4jnsgd1na2vs0mg"},{"bike_id":"6ecf1464-131c-4c50-adf6-fbd42b39700e","system_id":"levelo_inurba_marseille","lat":43.290336,"lon":5.386425,"is_reserved":false,"is_disabled":false,"rental_uris":{"android":"levelo://app?vid=6ecf1464-131c-4c50-adf6-fbd42b39700e","ios":"levelo://app?vid=6ecf1464-131c-4c50-adf6-fbd42b39700e"},"vehicle_type_id":"4","last_reported":1721502366,"current_range_meters":0,"station_id":"ce4bh4p2rcd13ifvqe0g","pricing_plan_id":"cebpf4jnsgd1na2vs0mg"},{"bike_id":"6d17c688-883b-40d5-98d6-2aee2a5d3b2b","system_id":"levelo_inurba_marseille","lat":43.290336,"lon":5.386425,"is_reserved":false,"is_disabled":false,"rental_uris":{"android":"levelo://app?vid=6d17c688-883b-40d5-98d6-2aee2a5d3b2b","ios":"levelo://app?vid=6d17c688-883b-40d5-98d6-2aee2a5d3b2b"},"vehicle_type_id":"4","last_reported":1721502366,"current_range_meters":1600,"station_id":"ce4bh4p2rcd13ifvqe0g","pricing_plan_id":"cebpf4jnsgd1na2vs0mg"},{"bike_id":"9b4d3593-ac77-4213-b7a2-2023264cfd31","system_id":"levelo_inurba_marseille","lat":43.29026,"lon":5.38663,"is_reserved":false,"is_disabled":false,"rental_uris":{"android":"levelo://app?vid=9b4d3593-ac77-4213-b7a2-2023264cfd31","ios":"levelo://app?vid=9b4d3593-ac77-4213-b7a2-2023264cfd31"},"vehicle_type_id":"4","last_reported":1721502366,"current_range_meters":0,"station_id":"ce4bh4p2rcd13ifvqe0g","pricing_plan_id":"cebpf4jnsgd1na2vs0mg"},{"bike_id":"d97b8c8e-4d49-4e62-aba2-6e8e6b0d6cb5","system_id":"levelo_inurba_marseille","lat":43.286039,"lon":5.370679,"is_reserved":false,"is_disabled":false,"rental_uris":{"android":"levelo://app?vid=d97b8c8e-4d49-4e62-aba2-6e8e6b0d6cb5","ios":"levelo://app?vid=d97b8c8e-4d49-4e62-aba2-6e8e6b0d6cb5"},"vehicle_type_id":"4","last_reported":1721502366,"current_range_meters":22800,"station_id":"ce4bht12rcd13ifvqi60","pricing_plan_id":"cebpf4jnsgd1na2vs0mg"},{"bike_id":"2add18a6-8374-49e4-8d89-64fd874cd577","system_id":"levelo_inurba_marseille","lat":43.286039,"lon":5.370679,"is_reserved":false,"is_disabled":false,"rental_uris":{"android":"levelo://app?vid=2add18a6-8374-49e4-8d89-64fd874cd577","ios":"levelo://app?vid=2add18a6-8374-49e4-8d89-64fd874cd577"},"vehicle_type_id":"4","last_reported":1721502366,"current_range_meters":20400,"station_id":"ce4bht12rcd13ifvqi60","pricing_plan_id":"cebpf4jnsgd1na2vs0mg"},{"bike_id":"7ee580f2-7dd1-425c-b8a7-236e1a61f548","system_id":"levelo_inurba_marseille","lat":43.286039,"lon":5.370679,"is_reserved":false,"is_disabled":false,"rental_uris":{"android":"levelo://app?vid=7ee580f2-7dd1-425c-b8a7-236e1a61f548","ios":"levelo://app?vid=7ee580f2-7dd1-425c-b8a7-236e1a61f548"},"vehicle_type_id":"4","last_reported":1721502366,"current_range_meters":20800,"station_id":"ce4bht12rcd13ifvqi60","pricing_plan_id":"cebpf4jnsgd1na2vs0mg"},{"bike_id":"f37587f4-d796-4c2f-bc09-32807d2f05fa","system_id":"levelo_inurba_marseille","lat":43.286039,"lon":5.370679,"is_reserved":false,"is_disabled":false,"rental_uris":{"android":"levelo://app?vid=f37587f4-d796-4c2f-bc09-32807d2f05fa","ios":"levelo://app?vid=f37587f4-d796-4c2f-bc09-32807d2f05fa"},"vehicle_type_id":"4","last_reported":1721502366,"current_range_meters":2400,"station_id":"ce4bht12rcd13ifvqi60","pricing_plan_id":"cebpf4jnsgd1na2vs0mg"},{"bike_id":"6175abc4-c269-4367-af2a-3aa1a130634e","system_id":"levelo_inurba_marseille","lat":43.28608,"lon":5.37063,"is_reserved":false,"is_disabled":false,"rental_uris":{"android":"levelo://app?vid=6175abc4-c269-4367-af2a-3aa1a130634e","ios":"levelo://app?vid=6175abc4-c269-4367-af2a-3aa1a130634e"},"vehicle_type_id":"4","last_reported":1721502366,"current_range_meters":0,"station_id":"ce4bht12rcd13ifvqi60","pricing_plan_id":"cebpf4jnsgd1na2vs0mg"},{"bike_id":"a3f6da84-a650-47c2-b39e-c4b922ed7421","system_id":"levelo_inurba_marseille","lat":43.28608,"lon":5.37066,"is_reserved":false,"is_disabled":false,"rental_uris":{"android":"levelo://app?vid=a3f6da84-a650-47c2-b39e-c4b922ed7421","ios":"levelo://app?vid=a3f6da84-a650-47c2-b39e-c4b922ed7421"},"vehicle_type_id":"4","last_reported":1721502366,"current_range_meters":11600,"station_id":"ce4bht12rcd13ifvqi60","pricing_plan_id":"cebpf4jnsgd1na2vs0mg"},{"bike_id":"07276d83-b9c9-46ec-9e2c-fcf95f4e7a8c","system_id":"levelo_inurba_marseille","lat":43.286039,"lon":5.370679,"is_reserved":false,"is_disabled":false,"rental_uris":{"android":"levelo://app?vid=07276d83-b9c9-46ec-9e2c-fcf95f4e7a8c","ios":"levelo://app?vid=07276d83-b9c9-46ec-9e2c-fcf95f4e7a8c"},"vehicle_type_id":"4","last_reported":1721502366,"current_range_meters":9600,"station_id":"ce4bht12rcd13ifvqi60","pricing_plan_id":"cebpf4jnsgd1na2vs0mg"},{"bike_id":"d5e922bf-281a-4d6e-958f-fe73f5506bb7","system_id":"levelo_inurba_marseille","lat":43.28719,"lon":5.37936,"is_reserved":false,"is_disabled":false,"rental_uris":{"android":"levelo://app?vid=d5e922bf-281a-4d6e-958f-fe73f5506bb7","ios":"levelo://app?vid=d5e922bf-281a-4d6e-958f-fe73f5506bb7"},"vehicle_type_id":"4","last_reported":1721502366,"current_range_meters":0,"station_id":"ce4bh9p2rcd13ifvqec0","pricing_plan_id":"cebpf4jnsgd1na2vs0mg"},{"bike_id":"e5994358-e04b-4fd9-b3ed-b5393ed3a73b","system_id":"levelo_inurba_marseille","lat":43.287184,"lon":5.37937,"is_reserved":false,"is_disabled":false,"rental_uris":{"android":"levelo://app?vid=e5994358-e04b-4fd9-b3ed-b5393ed3a73b","ios":"levelo://app?vid=e5994358-e04b-4fd9-b3ed-b5393ed3a73b"},"vehicle_type_id":"4","last_reported":1721502366,"current_range_meters":0,"station_id":"ce4bh9p2rcd13ifvqec0","pricing_plan_id":"cebpf4jnsgd1na2vs0mg"},{"bike_id":"157d913f-e3d0-4d0a-8f42-d92ef117d9aa","system_id":"levelo_inurba_marseille","lat":43.287184,"lon":5.37937,"is_reserved":false,"is_disabled":false,"rental_uris":{"android":"levelo://app?vid=157d913f-e3d0-4d0a-8f42-d92ef117d9aa","ios":"levelo://app?vid=157d913f-e3d0-4d0a-8f42-d92ef117d9aa"},"vehicle_type_id":"4","last_reported":1721502366,"current_range_meters":0,"station_id":"ce4bh9p2rcd13ifvqec0","pricing_plan_id":"cebpf4jnsgd1na2vs0mg"},{"bike_id":"af8c9f28-bfe5-43c7-b2cb-a840dc76a329","system_id":"levelo_inurba_marseille","lat":43.287163,"lon":5.379425,"is_reserved":false,"is_disabled":false,"rental_uris":{"android":"levelo://app?vid=af8c9f28-bfe5-43c7-b2cb-a840dc76a329","ios":"levelo://app?vid=af8c9f28-bfe5-43c7-b2cb-a840dc76a329"},"vehicle_type_id":"4","last_reported":1721502366,"current_range_meters":0,"station_id":"ce4bh9p2rcd13ifvqec0","pricing_plan_id":"cebpf4jnsgd1na2vs0mg"},{"bike_id":"eb113a68-d192-4c1a-b145-00ad5eeb049b","system_id":"levelo_inurba_marseille","lat":43.287184,"lon":5.37937,"is_reserved":false,"is_disabled":false,"rental_uris":{"android":"levelo://app?vid=eb113a68-d192-4c1a-b145-00ad5eeb049b","ios":"levelo://app?vid=eb113a68-d192-4c1a-b145-00ad5eeb049b"},"vehicle_type_id":"4","last_reported":1721502366,"current_range_meters":0,"station_id":"ce4bh9p2rcd13ifvqec0","pricing_plan_id":"cebpf4jnsgd1na2vs0mg"},{"bike_id":"9396222d-2129-464b-888b-70d4b0de467d","system_id":"levelo_inurba_marseille","lat":43.286039,"lon":5.370679,"is_reserved":false,"is_disabled":false,"rental_uris":{"android":"levelo://app?vid=9396222d-2129-464b-888b-70d4b0de467d","ios":"levelo://app?vid=9396222d-2129-464b-888b-70d4b0de467d"},"vehicle_type_id":"4","last_reported":1721502366,"current_range_meters":11200,"station_id":"ce4bht12rcd13ifvqi60","pricing_plan_id":"cebpf4jnsgd1na2vs0mg"},{"bike_id":"68e6cbf9-e97f-4874-943d-53e93d5b2b96","system_id":"levelo_inurba_marseille","lat":43.28845,"lon":5.38532,"is_reserved":false,"is_disabled":false,"rental_uris":{"android":"levelo://app?vid=68e6cbf9-e97f-4874-943d-53e93d5b2b96","ios":"levelo://app?vid=68e6cbf9-e97f-4874-943d-53e93d5b2b96"},"vehicle_type_id":"4","last_reported":1721502366,"current_range_meters":19600,"station_id":"","pricing_plan_id":"cebpf4jnsgd1na2vs0mg"},{"bike_id":"e12cfbc4-b118-4b2e-9ee6-c73a056023b6","system_id":"levelo_inurba_marseille","lat":43.316821,"lon":5.404737,"is_reserved":false,"is_disabled":false,"rental_uris":{"android":"levelo://app?vid=e12cfbc4-b118-4b2e-9ee6-c73a056023b6","ios":"levelo://app?vid=e12cfbc4-b118-4b2e-9ee6-c73a056023b6"},"vehicle_type_id":"4","last_reported":1721502366,"current_range_meters":9200,"station_id":"ce4bh012rcd13ifvqd00","pricing_plan_id":"cebpf4jnsgd1na2vs0mg"},{"bike_id":"c68fae0c-9a7d-4b1a-993c-25b21aa7faf6","system_id":"levelo_inurba_marseille","lat":43.316828,"lon":5.404723,"is_reserved":false,"is_disabled":false,"rental_uris":{"android":"levelo://app?vid=c68fae0c-9a7d-4b1a-993c-25b21aa7faf6","ios":"levelo://app?vid=c68fae0c-9a7d-4b1a-993c-25b21aa7faf6"},"vehicle_type_id":"4","last_reported":1721502366,"current_range_meters":28000,"station_id":"ce4bh012rcd13ifvqd00","pricing_plan_id":"cebpf4jnsgd1na2vs0mg"},{"bike_id":"38d2ebcd-4c91-4e17-8c0c-f729e90bd5c9","system_id":"levelo_inurba_marseille","lat":43.316828,"lon":5.404723,"is_reserved":false,"is_disabled":false,"rental_uris":{"android":"levelo://app?vid=38d2ebcd-4c91-4e17-8c0c-f729e90bd5c9","ios":"levelo://app?vid=38d2ebcd-4c91-4e17-8c0c-f729e90bd5c9"},"vehicle_type_id":"4","last_reported":1721502366,"current_range_meters":18000,"station_id":"ce4bh012rcd13ifvqd00","pricing_plan_id":"cebpf4jnsgd1na2vs0mg"},{"bike_id":"52a89d5e-0ac1-4436-a3bc-b010b9fe9383","system_id":"levelo_inurba_marseille","lat":43.316821,"lon":5.404737,"is_reserved":false,"is_disabled":false,"rental_uris":{"android":"levelo://app?vid=52a89d5e-0ac1-4436-a3bc-b010b9fe9383","ios":"levelo://app?vid=52a89d5e-0ac1-4436-a3bc-b010b9fe9383"},"vehicle_type_id":"4","last_reported":1721502366,"current_range_meters":5200,"station_id":"ce4bh012rcd13ifvqd00","pricing_plan_id":"cebpf4jnsgd1na2vs0mg"},{"bike_id":"7cd2b343-af89-4bad-9a8c-6cdece582057","system_id":"levelo_inurba_marseille","lat":43.291994,"lon":5.392907,"is_reserved":false,"is_disabled":false,"rental_uris":{"android":"levelo://app?vid=7cd2b343-af89-4bad-9a8c-6cdece582057","ios":"levelo://app?vid=7cd2b343-af89-4bad-9a8c-6cdece582057"},"vehicle_type_id":"4","last_reported":1721502366,"current_range_meters":2800,"station_id":"ce4bh192rcd13ifvqdd0","pricing_plan_id":"cebpf4jnsgd1na2vs0mg"},{"bike_id":"26d5a55b-23c5-48bc-8f8f-5c75ea2fda6e","system_id":"levelo_inurba_marseille","lat":43.294314,"lon":5.397498,"is_reserved":false,"is_disabled":false,"rental_uris":{"android":"levelo://app?vid=26d5a55b-23c5-48bc-8f8f-5c75ea2fda6e","ios":"levelo://app?vid=26d5a55b-23c5-48bc-8f8f-5c75ea2fda6e"},"vehicle_type_id":"4","last_reported":1721502366,"current_range_meters":400,"station_id":"ce4bh3h2rcd13ifvqdo0","pricing_plan_id":"cebpf4jnsgd1na2vs0mg"},{"bike_id":"b0bae87e-56e0-4d92-b640-b341ec2fc71a","system_id":"levelo_inurba_marseille","lat":43.28619,"lon":5.35105,"is_reserved":false,"is_disabled":false,"rental_uris":{"android":"levelo://app?vid=b0bae87e-56e0-4d92-b640-b341ec2fc71a","ios":"levelo://app?vid=b0bae87e-56e0-4d92-b640-b341ec2fc71a"},"vehicle_type_id":"4","last_reported":1721502366,"current_range_meters":0,"station_id":"ce4bhch2rcd13ifvqeug","pricing_plan_id":"cebpf4jnsgd1na2vs0mg"},{"bike_id":"9125047c-d0f9-4b2e-b9fb-a36768bdde48","system_id":"levelo_inurba_marseille","lat":43.285848,"lon":5.350787,"is_reserved":false,"is_disabled":false,"rental_uris":{"android":"levelo://app?vid=9125047c-d0f9-4b2e-b9fb-a36768bdde48","ios":"levelo://app?vid=9125047c-d0f9-4b2e-b9fb-a36768bdde48"},"vehicle_type_id":"4","last_reported":1721502366,"current_range_meters":0,"station_id":"ce4bhch2rcd13ifvqeug","pricing_plan_id":"cebpf4jnsgd1na2vs0mg"},{"bike_id":"57d2b317-8f6a-4eb0-af3b-67e1cab96ae5","system_id":"levelo_inurba_marseille","lat":43.28614,"lon":5.35098,"is_reserved":false,"is_disabled":false,"rental_uris":{"android":"levelo://app?vid=57d2b317-8f6a-4eb0-af3b-67e1cab96ae5","ios":"levelo://app?vid=57d2b317-8f6a-4eb0-af3b-67e1cab96ae5"},"vehicle_type_id":"4","last_reported":1721502366,"current_range_meters":31200,"station_id":"ce4bhch2rcd13ifvqeug","pricing_plan_id":"cebpf4jnsgd1na2vs0mg"},{"bike_id":"b5927a0f-59e1-4147-b017-2047737bde08","system_id":"levelo_inurba_marseille","lat":43.28612,"lon":5.35102,"is_reserved":false,"is_disabled":false,"rental_uris":{"android":"levelo://app?vid=b5927a0f-59e1-4147-b017-2047737bde08","ios":"levelo://app?vid=b5927a0f-59e1-4147-b017-2047737bde08"},"vehicle_type_id":"4","last_reported":1721502366,"current_range_meters":0,"station_id":"ce4bhch2rcd13ifvqeug","pricing_plan_id":"cebpf4jnsgd1na2vs0mg"},{"bike_id":"7ca2d8bb-becb-40b3-8d52-72259a6612ef","system_id":"levelo_inurba_marseille","lat":43.28755,"lon":5.38688,"is_reserved":false,"is_disabled":false,"rental_uris":{"android":"levelo://app?vid=7ca2d8bb-becb-40b3-8d52-72259a6612ef","ios":"levelo://app?vid=7ca2d8bb-becb-40b3-8d52-72259a6612ef"},"vehicle_type_id":"4","last_reported":1721502366,"current_range_meters":13200,"station_id":"","pricing_plan_id":"cebpf4jnsgd1na2vs0mg"},{"bike_id":"e4d6229d-ba6f-4870-9e19-a05183cf18a9","system_id":"levelo_inurba_marseille","lat":43.283998,"lon":5.375062,"is_reserved":false,"is_disabled":false,"rental_uris":{"android":"levelo://app?vid=e4d6229d-ba6f-4870-9e19-a05183cf18a9","ios":"levelo://app?vid=e4d6229d-ba6f-4870-9e19-a05183cf18a9"},"vehicle_type_id":"4","last_reported":1721502366,"current_range_meters":31200,"station_id":"ce4bh412rcd13ifvqds0","pricing_plan_id":"cebpf4jnsgd1na2vs0mg"},{"bike_id":"83dbcc56-5409-43e2-841c-a9218ec64ba8","system_id":"levelo_inurba_marseille","lat":43.283998,"lon":5.375062,"is_reserved":false,"is_disabled":false,"rental_uris":{"android":"levelo://app?vid=83dbcc56-5409-43e2-841c-a9218ec64ba8","ios":"levelo://app?vid=83dbcc56-5409-43e2-841c-a9218ec64ba8"},"vehicle_type_id":"4","last_reported":1721502366,"current_range_meters":20000,"station_id":"ce4bh412rcd13ifvqds0","pricing_plan_id":"cebpf4jnsgd1na2vs0mg"},{"bike_id":"2773ebe8-2ed1-469a-bc40-7c29c2a431a5","system_id":"levelo_inurba_marseille","lat":43.283998,"lon":5.375062,"is_reserved":false,"is_disabled":false,"rental_uris":{"android":"levelo://app?vid=2773ebe8-2ed1-469a-bc40-7c29c2a431a5","ios":"levelo://app?vid=2773ebe8-2ed1-469a-bc40-7c29c2a431a5"},"vehicle_type_id":"4","last_reported":1721502366,"current_range_meters":31200,"station_id":"ce4bh412rcd13ifvqds0","pricing_plan_id":"cebpf4jnsgd1na2vs0mg"},{"bike_id":"b8e247ae-864e-4a98-9e39-84ee5bfaba59","system_id":"levelo_inurba_marseille","lat":43.283998,"lon":5.375062,"is_reserved":false,"is_disabled":false,"rental_uris":{"android":"levelo://app?vid=b8e247ae-864e-4a98-9e39-84ee5bfaba59","ios":"levelo://app?vid=b8e247ae-864e-4a98-9e39-84ee5bfaba59"},"vehicle_type_id":"4","last_reported":1721502366,"current_range_meters":16800,"station_id":"ce4bh412rcd13ifvqds0","pricing_plan_id":"cebpf4jnsgd1na2vs0mg"},{"bike_id":"8cbac4a9-af27-4468-8463-2915faa5638b","system_id":"levelo_inurba_marseille","lat":43.283998,"lon":5.375062,"is_reserved":false,"is_disabled":false,"rental_uris":{"android":"levelo://app?vid=8cbac4a9-af27-4468-8463-2915faa5638b","ios":"levelo://app?vid=8cbac4a9-af27-4468-8463-2915faa5638b"},