{"last_updated":1756214761,"ttl":60,"version":"2.2","data":{"bikes":[{"bike_id":"248a3184-8abc-4a19-9e4e-1abe7e72e19e","system_id":"levelo_inurba_marseille","lat":43.22934,"lon":5.35379,"is_reserved":false,"is_disabled":false,"rental_uris":{"android":"levelo://app?vid=248a3184-8abc-4a19-9e4e-1abe7e72e19e","ios":"levelo://app?vid=248a3184-8abc-4a19-9e4e-1abe7e72e19e"},"vehicle_type_id":"4","last_reported":1756214762,"current_range_meters":2800,"station_id":"cpo3532slgdg3j2ikp40","pricing_plan_id":"cebpf4jnsgd1na2vs0mg"},{"bike_id":"6f0d03e6-2c6f-467b-8bff-d4818ae9b2a2","system_id":"levelo_inurba_marseille","lat":43.29632,"lon":5.40598,"is_reserved":false,"is_disabled":false,"rental_uris":{"android":"levelo://app?vid=6f0d03e6-2c6f-467b-8bff-d4818ae9b2a2","ios":"levelo://app?vid=6f0d03e6-2c6f-467b-8bff-d4818ae9b2a2"},"vehicle_type_id":"4","last_reported":1756214762,"current_range_meters":2800,"station_id":"","pricing_plan_id":"cebpf4jnsgd1na2vs0mg"},{"bike_id":"5a94cd1f-5ae1-47d0-a15d-d5554856827f","system_id":"levelo_inurba_marseille","lat":43.305698,"lon":5.375362,"is_reserved":false,"is_disabled":false,"rental_uris":{"android":"levelo://app?vid=5a94cd1f-5ae1-47d0-a15d-d5554856827f","ios":"levelo://app?vid=5a94cd1f-5ae1-47d0-a15d-d5554856827f"},"vehicle_type_id":"4","last_reported":1756214762,"current_range_meters":2800,"station_id":"","pricing_plan_id":"cebpf4jnsgd1na2vs0mg"},{"bike_id":"1f72e49c-afd1-4ef6-abb2-0ebd0e5d6494","system_id":"levelo_inurba_marseille","lat":43.21196,"lon":5.35066,"is_reserved":false,"is_disabled":false,"rental_uris":{"android":"levelo://app?vid=1f72e49c-afd1-4ef6-abb2-0ebd0e5d6494","ios":"levelo://app?vid=1f72e49c-afd1-4ef6-abb2-0ebd0e5d6494"},"vehicle_type_id":"4","last_reported":1756214762,"current_range_meters":2800,"station_id":"st_cvj6sg6p6f1abm77japg","pricing_plan_id":"cebpf4jnsgd1na2vs0mg"},{"bike_id":"d3697827-1791-428f-92e1-30acbdef834f","system_id":"levelo_inurba_marseille","lat":43.2904,"lon":5.38644,"is_reserved":false,"is_disabled":false,"rental_uris":{"android":"levelo://app?vid=d3697827-1791-428f-92e1-30acbdef834f","ios":"levelo://app?vid=d3697827-1791-428f-92e1-30acbdef834f"},"vehicle_type_id":"4","last_reported":1756214762,"current_range_meters":2800,"station_id":"ce4bh4p2rcd13ifvqe0g","pricing_plan_id":"cebpf4jnsgd1na2vs0mg"},{"bike_id":"158f6a64-bc01-4e02-8422-e733476b2893","system_id":"levelo_inurba_marseille","lat":43.291364,"lon":5.390845,"is_reserved":false,"is_disabled":false,"rental_uris":{"android":"levelo://app?vid=158f6a64-bc01-4e02-8422-e733476b2893","ios":"levelo://app?vid=158f6a64-bc01-4e02-8422-e733476b2893"},"vehicle_type_id":"4","last_reported":1756214762,"current_range_meters":2800,"station_id":"ce4bgt92rcd13ifvqcf0","pricing_plan_id":"cebpf4jnsgd1na2vs0mg"},{"bike_id":"2d6f86f3-a0f2-4ca5-839e-747843d2425d","system_id":"levelo_inurba_marseille","lat":43.28613,"lon":5.35102,"is_reserved":false,"is_disabled":false,"rental_uris":{"android":"levelo://app?vid=2d6f86f3-a0f2-4ca5-839e-747843d2425d","ios":"levelo://app?vid=2d6f86f3-a0f2-4ca5-839e-747843d2425d"},"vehicle_type_id":"4","last_reported":1756214762,"current_range_meters":3200,"station_id":"ce4bhch2rcd13ifvqeug","pricing_plan_id":"cebpf4jnsgd1na2vs0mg"},{"bike_id":"322c13d7-5103-40c7-9806-91edae6ced8c","system_id":"levelo_inurba_marseille","lat":43.312691,"lon":5.401696,"is_reserved":false,"is_disabled":false,"rental_uris":{"android":"levelo://app?vid=322c13d7-5103-40c7-9806-91edae6ced8c","ios":"levelo://app?vid=322c13d7-5103-40c7-9806-91edae6ced8c"},"vehicle_type_id":"4","last_reported":1756214762,"current_range_meters":3200,"station_id":"ce4bh092rcd13ifvqd30","pricing_plan_id":"cebpf4jnsgd1na2vs0mg"},{"bike_id":"0490c530-845d-44f9-bf75-09a8b4d2b9b9","system_id":"levelo_inurba_marseille","lat":43.29739,"lon":5.38077,"is_reserved":false,"is_disabled":false,"rental_uris":{"android":"levelo://app?vid=0490c530-845d-44f9-bf75-09a8b4d2b9b9","ios":"levelo://app?vid=0490c530-845d-44f9-bf75-09a8b4d2b9b9"},"vehicle_type_id":"4","last_reported":1756214762,"current_range_meters":3200,"station_id":"ce4bgip2rcd13ifvqbb0","pricing_plan_id":"cebpf4jnsgd1na2vs0mg"},{"bike_id":"e7dab58f-c69f-4c88-a629-e8909078ae96","system_id":"levelo_inurba_marseille","lat":43.291891,"lon":5.358065,"is_reserved":false,"is_disabled":false,"rental_uris":{"android":"levelo://app?vid=e7dab58f-c69f-4c88-a629-e8909078ae96","ios":"levelo://app?vid=e7dab58f-c69f-4c88-a629-e8909078ae96"},"vehicle_type_id":"4","last_reported":1756214762,"current_range_meters":3200,"station_id":"ce4bh8p2rcd13ifvqeb0","pricing_plan_id":"cebpf4jnsgd1na2vs0mg"},{"bike_id":"8278d03d-5584-48a8-a86a-7847a162c713","system_id":"levelo_inurba_marseille","lat":43.30893,"lon":5.3821,"is_reserved":false,"is_disabled":false,"rental_uris":{"android":"levelo://app?vid=8278d03d-5584-48a8-a86a-7847a162c713","ios":"levelo://app?vid=8278d03d-5584-48a8-a86a-7847a162c713"},"vehicle_type_id":"4","last_reported":1756214762,"current_range_meters":3200,"station_id":"","pricing_plan_id":"cebpf4jnsgd1na2vs0mg"},{"bike_id":"489c91f0-d5a2-4581-b07b-95ca85f90530","system_id":"levelo_inurba_marseille","lat":43.28613,"lon":5.35103,"is_reserved":false,"is_disabled":false,"rental_uris":{"android":"levelo://app?vid=489c91f0-d5a2-4581-b07b-95ca85f90530","ios":"levelo://app?vid=489c91f0-d5a2-4581-b07b-95ca85f90530"},"vehicle_type_id":"4","last_reported":1756214762,"current_range_meters":3200,"station_id":"ce4bhch2rcd13ifvqeug","pricing_plan_id":"cebpf4jnsgd1na2vs0mg"},{"bike_id":"158fe4a9-48cc-491f-95fd-2aa73bd55cc0","system_id":"levelo_inurba_marseille","lat":43.30572,"lon":5.36905,"is_reserved":false,"is_disabled":false,"rental_uris":{"android":"levelo://app?vid=158fe4a9-48cc-491f-95fd-2aa73bd55cc0","ios":"levelo://app?vid=158fe4a9-48cc-491f-95fd-2aa73bd55cc0"},"vehicle_type_id":"4","last_reported":1756214762,"current_range_meters":3200,"station_id":"","pricing_plan_id":"cebpf4jnsgd1na2vs0mg"},{"bike_id":"eeb17628-3b59-4258-b1f2-556548261210","system_id":"levelo_inurba_marseille","lat":43.296293,"lon":5.405975,"is_reserved":false,"is_disabled":false,"rental_uris":{"android":"levelo://app?vid=eeb17628-3b59-4258-b1f2-556548261210","ios":"levelo://app?vid=eeb17628-3b59-4258-b1f2-556548261210"},"vehicle_type_id":"4","last_reported":1756214762,"current_range_meters":3200,"station_id":"ce4bh0h2rcd13ifvqd60","pricing_plan_id":"cebpf4jnsgd1na2vs0mg"},{"bike_id":"4d855d5d-6475-43b2-a1d6-3cbf3dcce0cb","system_id":"levelo_inurba_marseille","lat":43.28419,"lon":5.34987,"is_reserved":false,"is_disabled":false,"rental_uris":{"android":"levelo://app?vid=4d855d5d-6475-43b2-a1d6-3cbf3dcce0cb","ios":"levelo://app?vid=4d855d5d-6475-43b2-a1d6-3cbf3dcce0cb"},"vehicle_type_id":"4","last_reported":1756214762,"current_range_meters":3600,"station_id":"ce4bhbh2rcd13ifvqepg","pricing_plan_id":"cebpf4jnsgd1na2vs0mg"},{"bike_id":"c9e021c4-de4c-487c-9dd6-3cd9dd16eb66","system_id":"levelo_inurba_marseille","lat":43.30903,"lon":5.36841,"is_reserved":false,"is_disabled":false,"rental_uris":{"android":"levelo://app?vid=c9e021c4-de4c-487c-9dd6-3cd9dd16eb66","ios":"levelo://app?vid=c9e021c4-de4c-487c-9dd6-3cd9dd16eb66"},"vehicle_type_id":"4","last_reported":1756214762,"current_range_meters":3600,"station_id":"ce4bgn92rcd13ifvqbvg","pricing_plan_id":"cebpf4jnsgd1na2vs0mg"},{"bike_id":"38343120-7264-496e-a892-73fa74d9ca4a","system_id":"levelo_inurba_marseille","lat":43.25085,"lon":5.39525,"is_reserved":false,"is_disabled":false,"rental_uris":{"android":"levelo://app?vid=38343120-7264-496e-a892-73fa74d9ca4a","ios":"levelo://app?vid=38343120-7264-496e-a892-73fa74d9ca4a"},"vehicle_type_id":"4","last_reported":1756214762,"current_range_meters":3600,"station_id":"ce4bhm12rcd13ifvqgkg","pricing_plan_id":"cebpf4jnsgd1na2vs0mg"},{"bike_id":"ab592525-bb3e-4fed-9dd5-c40c1daffdeb","system_id":"levelo_inurba_marseille","lat":43.28275,"lon":5.35091,"is_reserved":false,"is_disabled":false,"rental_uris":{"android":"levelo://app?vid=ab592525-bb3e-4fed-9dd5-c40c1daffdeb","ios":"levelo://app?vid=ab592525-bb3e-4fed-9dd5-c40c1daffdeb"},"vehicle_type_id":"4","last_reported":1756214762,"current_range_meters":3600,"station_id":"ce4bhbp2rcd13ifvqerg","pricing_plan_id":"cebpf4jnsgd1na2vs0mg"},{"bike_id":"4abb6752-d611-4ab6-b3f2-02437e419fa0","system_id":"levelo_inurba_marseille","lat":43.2509,"lon":5.39526,"is_reserved":false,"is_disabled":false,"rental_uris":{"android":"levelo://app?vid=4abb6752-d611-4ab6-b3f2-02437e419fa0","ios":"levelo://app?vid=4abb6752-d611-4ab6-b3f2-02437e419fa0"},"vehicle_type_id":"4","last_reported":1756214762,"current_range_meters":3600,"station_id":"ce4bhm12rcd13ifvqgkg","pricing_plan_id":"cebpf4jnsgd1na2vs0mg"},{"bike_id":"3db0e455-8fa9-4eb6-841f-6400327b4181","system_id":"levelo_inurba_marseille","lat":43.3009,"lon":5.39077,"is_reserved":false,"is_disabled":false,"rental_uris":{"android":"levelo://app?vid=3db0e455-8fa9-4eb6-841f-6400327b4181","ios":"levelo://app?vid=3db0e455-8fa9-4eb6-841f-6400327b4181"},"vehicle_type_id":"4","last_reported":1756214762,"current_range_meters":4000,"station_id":"ce4bh192rcd13ifvqdb0","pricing_plan_id":"cebpf4jnsgd1na2vs0mg"},{"bike_id":"1dfd7719-f6fc-438e-b94c-9dbde86d2483","system_id":"levelo_inurba_marseille","lat":43.28277,"lon":5.35071,"is_reserved":false,"is_disabled":false,"rental_uris":{"android":"levelo://app?vid=1dfd7719-f6fc-438e-b94c-9dbde86d2483","ios":"levelo://app?vid=1dfd7719-f6fc-438e-b94c-9dbde86d2483"},"vehicle_type_id":"4","last_reported":1756214762,"current_range_meters":4000,"station_id":"ce4bhbp2rcd13ifvqerg","pricing_plan_id":"cebpf4jnsgd1na2vs0mg"},{"bike_id":"501a78ea-1144-4a61-8b78-a555924eaa16","system_id":"levelo_inurba_marseille","lat":43.28233,"lon":5.39068,"is_reserved":false,"is_disabled":false,"rental_uris":{"android":"levelo://app?vid=501a78ea-1144-4a61-8b78-a555924eaa16","ios":"levelo://app?vid=501a78ea-1144-4a61-8b78-a555924eaa16"},"vehicle_type_id":"4","last_reported":1756214762,"current_range_meters":4000,"station_id":"ce4bhn92rcd13ifvqgsg","pricing_plan_id":"cebpf4jnsgd1na2vs0mg"},{"bike_id":"26ff712f-0423-4139-9968-1cbb1b15bec6","system_id":"levelo_inurba_marseille","lat":43.30454,"lon":5.37907,"is_reserved":false,"is_disabled":false,"rental_uris":{"android":"levelo://app?vid=26ff712f-0423-4139-9968-1cbb1b15bec6","ios":"levelo://app?vid=26ff712f-0423-4139-9968-1cbb1b15bec6"},"vehicle_type_id":"4","last_reported":1756214762,"current_range_meters":4000,"station_id":"ce4bgup2rcd13ifvqcn0","pricing_plan_id":"cebpf4jnsgd1na2vs0mg"},{"bike_id":"ae6e7466-f79a-43dd-ba01-51043638613b","system_id":"levelo_inurba_marseille","lat":43.22221,"lon":5.34538,"is_reserved":false,"is_disabled":false,"rental_uris":{"android":"levelo://app?vid=ae6e7466-f79a-43dd-ba01-51043638613b","ios":"levelo://app?vid=ae6e7466-f79a-43dd-ba01-51043638613b"},"vehicle_type_id":"4","last_reported":1756214762,"current_range_meters":4000,"station_id":"","pricing_plan_id":"cebpf4jnsgd1na2vs0mg"},{"bike_id":"46c28713-bb2b-45d5-98fc-8d5e885d13cf","system_id":"levelo_inurba_marseille","lat":43.21184,"lon":5.35083,"is_reserved":false,"is_disabled":false,"rental_uris":{"android":"levelo://app?vid=46c28713-bb2b-45d5-98fc-8d5e885d13cf","ios":"levelo://app?vid=46c28713-bb2b-45d5-98fc-8d5e885d13cf"},"vehicle_type_id":"4","last_reported":1756214762,"current_range_meters":4400,"station_id":"st_cvj6sg6p6f1abm77japg","pricing_plan_id":"cebpf4jnsgd1na2vs0mg"},{"bike_id":"18cadd98-ca5b-4518-98d8-bbb26e647823","system_id":"levelo_inurba_marseille","lat":43.21188,"lon":5.35075,"is_reserved":false,"is_disabled":false,"rental_uris":{"android":"levelo://app?vid=18cadd98-ca5b-4518-98d8-bbb26e647823","ios":"levelo://app?vid=18cadd98-ca5b-4518-98d8-bbb26e647823"},"vehicle_type_id":"4","last_reported":1756214762,"current_range_meters":4400,"station_id":"st_cvj6sg6p6f1abm77japg","pricing_plan_id":"cebpf4jnsgd1na2vs0mg"},{"bike_id":"d5745108-f0a2-4aa9-a119-1282fba272af","system_id":"levelo_inurba_marseille","lat":43.30111,"lon":5.3742,"is_reserved":false,"is_disabled":false,"rental_uris":{"android":"levelo://app?vid=d5745108-f0a2-4aa9-a119-1282fba272af","ios":"levelo://app?vid=d5745108-f0a2-4aa9-a119-1282fba272af"},"vehicle_type_id":"4","last_reported":1756214762,"current_range_meters":4400,"station_id":"ce4bgs92rcd13ifvqcc0","pricing_plan_id":"cebpf4jnsgd1na2vs0mg"},{"bike_id":"628a5b90-9a15-491e-b90f-3c79de10e703","system_id":"levelo_inurba_marseille","lat":43.29259,"lon":5.38441,"is_reserved":false,"is_disabled":false,"rental_uris":{"android":"levelo://app?vid=628a5b90-9a15-491e-b90f-3c79de10e703","ios":"levelo://app?vid=628a5b90-9a15-491e-b90f-3c79de10e703"},"vehicle_type_id":"4","last_reported":1756214762,"current_range_meters":4400,"station_id":"ce4bh692rcd13ifvqea0","pricing_plan_id":"cebpf4jnsgd1na2vs0mg"},{"bike_id":"05891365-22fd-4fa7-a629-4b55d8ac6dd2","system_id":"levelo_inurba_marseille","lat":43.29104,"lon":5.38138,"is_reserved":false,"is_disabled":false,"rental_uris":{"android":"levelo://app?vid=05891365-22fd-4fa7-a629-4b55d8ac6dd2","ios":"levelo://app?vid=05891365-22fd-4fa7-a629-4b55d8ac6dd2"},"vehicle_type_id":"4","last_reported":1756214762,"current_range_meters":4800,"station_id":"ce4bh512rcd13ifvqe2g","pricing_plan_id":"cebpf4jnsgd1na2vs0mg"},{"bike_id":"22211f90-1512-46fd-b0d6-92600e4ccfaf","system_id":"levelo_inurba_marseille","lat":43.29634,"lon":5.40592,"is_reserved":false,"is_disabled":false,"rental_uris":{"android":"levelo://app?vid=22211f90-1512-46fd-b0d6-92600e4ccfaf","ios":"levelo://app?vid=22211f90-1512-46fd-b0d6-92600e4ccfaf"},"vehicle_type_id":"4","last_reported":1756214762,"current_range_meters":4800,"station_id":"ce4bh0h2rcd13ifvqd60","pricing_plan_id":"cebpf4jnsgd1na2vs0mg"},{"bike_id":"3acc3047-efe7-45ff-b4ec-c2ca733a66d5","system_id":"levelo_inurba_marseille","lat":43.27566,"lon":5.38408,"is_reserved":false,"is_disabled":false,"rental_uris":{"android":"levelo://app?vid=3acc3047-efe7-45ff-b4ec-c2ca733a66d5","ios":"levelo://app?vid=3acc3047-efe7-45ff-b4ec-c2ca733a66d5"},"vehicle_type_id":"4","last_reported":1756214762,"current_range_meters":4800,"station_id":"ce4bhh92rcd13ifvqfi0","pricing_plan_id":"cebpf4jnsgd1na2vs0mg"},{"bike_id":"ef01656a-e34e-4115-a79f-874a6e92a045","system_id":"levelo_inurba_marseille","lat":43.292726,"lon":5.384369,"is_reserved":false,"is_disabled":false,"rental_uris":{"android":"levelo://app?vid=ef01656a-e34e-4115-a79f-874a6e92a045","ios":"levelo://app?vid=ef01656a-e34e-4115-a79f-874a6e92a045"},"vehicle_type_id":"4","last_reported":1756214762,"current_range_meters":4800,"station_id":"ce4bh692rcd13ifvqea0","pricing_plan_id":"cebpf4jnsgd1na2vs0mg"},{"bike_id":"6bf7a5a6-24f0-4af9-b432-aaebf2219ccc","system_id":"levelo_inurba_marseille","lat":43.29625,"lon":5.40592,"is_reserved":false,"is_disabled":false,"rental_uris":{"android":"levelo://app?vid=6bf7a5a6-24f0-4af9-b432-aaebf2219ccc","ios":"levelo://app?vid=6bf7a5a6-24f0-4af9-b432-aaebf2219ccc"},"vehicle_type_id":"4","last_reported":1756214762,"current_range_meters":5600,"station_id":"ce4bh0h2rcd13ifvqd60","pricing_plan_id":"cebpf4jnsgd1na2vs0mg"},{"bike_id":"c4ccc10f-8ccd-44be-a00a-f6ebdc6ec159","system_id":"levelo_inurba_marseille","lat":43.30397,"lon":5.43449,"is_reserved":false,"is_disabled":false,"rental_uris":{"android":"levelo://app?vid=c4ccc10f-8ccd-44be-a00a-f6ebdc6ec159","ios":"levelo://app?vid=c4ccc10f-8ccd-44be-a00a-f6ebdc6ec159"},"vehicle_type_id":"4","last_reported":1756214762,"current_range_meters":6000,"station_id":"","pricing_plan_id":"cebpf4jnsgd1na2vs0mg"},{"bike_id":"6a5c33e2-cb9d-482d-941f-1ebae64ec280","system_id":"levelo_inurba_marseille","lat":43.29315,"lon":5.37168,"is_reserved":false,"is_disabled":false,"rental_uris":{"android":"levelo://app?vid=6a5c33e2-cb9d-482d-941f-1ebae64ec280","ios":"levelo://app?vid=6a5c33e2-cb9d-482d-941f-1ebae64ec280"},"vehicle_type_id":"4","last_reported":1756214762,"current_range_meters":5600,"station_id":"ce4bgh92rcd13ifvqb40","pricing_plan_id":"cebpf4jnsgd1na2vs0mg"},{"bike_id":"6eb4730f-c2f9-482b-9102-8c660ca4de66","system_id":"levelo_inurba_marseille","lat":43.30947,"lon":5.39034,"is_reserved":false,"is_disabled":false,"rental_uris":{"android":"levelo://app?vid=6eb4730f-c2f9-482b-9102-8c660ca4de66","ios":"levelo://app?vid=6eb4730f-c2f9-482b-9102-8c660ca4de66"},"vehicle_type_id":"4","last_reported":1756214762,"current_range_meters":5600,"station_id":"ce4bgup2rcd13ifvqco0","pricing_plan_id":"cebpf4jnsgd1na2vs0mg"},{"bike_id":"fb0ecd7c-2c0f-42f1-9e73-9448c9893367","system_id":"levelo_inurba_marseille","lat":43.26469,"lon":5.37043,"is_reserved":false,"is_disabled":false,"rental_uris":{"android":"levelo://app?vid=fb0ecd7c-2c0f-42f1-9e73-9448c9893367","ios":"levelo://app?vid=fb0ecd7c-2c0f-42f1-9e73-9448c9893367"},"vehicle_type_id":"4","last_reported":1756214762,"current_range_meters":6000,"station_id":"","pricing_plan_id":"cebpf4jnsgd1na2vs0mg"},{"bike_id":"11692de5-285d-4108-84a2-e6f4937c9b09","system_id":"levelo_inurba_marseille","lat":43.27379,"lon":5.36254,"is_reserved":false,"is_disabled":false,"rental_uris":{"android":"levelo://app?vid=11692de5-285d-4108-84a2-e6f4937c9b09","ios":"levelo://app?vid=11692de5-285d-4108-84a2-e6f4937c9b09"},"vehicle_type_id":"4","last_reported":1756214762,"current_range_meters":6400,"station_id":"ce4bhbh2rcd13ifvqeo0","pricing_plan_id":"cebpf4jnsgd1na2vs0mg"},{"bike_id":"bc6f8b95-9489-4fba-bd36-d37c414b3b31","system_id":"levelo_inurba_marseille","lat":43.27374,"lon":5.36261,"is_reserved":false,"is_disabled":false,"rental_uris":{"android":"levelo://app?vid=bc6f8b95-9489-4fba-bd36-d37c414b3b31","ios":"levelo://app?vid=bc6f8b95-9489-4fba-bd36-d37c414b3b31"},"vehicle_type_id":"4","last_reported":1756214762,"current_range_meters":6400,"station_id":"ce4bhbh2rcd13ifvqeo0","pricing_plan_id":"cebpf4jnsgd1na2vs0mg"},{"bike_id":"f6382f60-94df-45b0-9d74-e457a03f730d","system_id":"levelo_inurba_marseille","lat":43.29536,"lon":5.39038,"is_reserved":false,"is_disabled":false,"rental_uris":{"android":"levelo://app?vid=f6382f60-94df-45b0-9d74-e457a03f730d","ios":"levelo://app?vid=f6382f60-94df-45b0-9d74-e457a03f730d"},"vehicle_type_id":"4","last_reported":1756214762,"current_range_meters":6400,"station_id":"ce4bh3p2rcd13ifvqdp0","pricing_plan_id":"cebpf4jnsgd1na2vs0mg"},{"bike_id":"1458a041-9d9d-4475-914e-dc407a7a6ce5","system_id":"levelo_inurba_marseille","lat":43.24392,"lon":5.37054,"is_reserved":false,"is_disabled":false,"rental_uris":{"android":"levelo://app?vid=1458a041-9d9d-4475-914e-dc407a7a6ce5","ios":"levelo://app?vid=1458a041-9d9d-4475-914e-dc407a7a6ce5"},"vehicle_type_id":"4","last_reported":1756214762,"current_range_meters":6800,"station_id":"ce4bhhh2rcd13ifvqfk0","pricing_plan_id":"cebpf4jnsgd1na2vs0mg"},{"bike_id":"c275ac95-ea12-4f2d-adcc-e234cec24644","system_id":"levelo_inurba_marseille","lat":43.27969,"lon":5.38737,"is_reserved":false,"is_disabled":false,"rental_uris":{"android":"levelo://app?vid=c275ac95-ea12-4f2d-adcc-e234cec24644","ios":"levelo://app?vid=c275ac95-ea12-4f2d-adcc-e234cec24644"},"vehicle_type_id":"4","last_reported":1756214762,"current_range_meters":6800,"station_id":"ce4bhg12rcd13ifvqf80","pricing_plan_id":"cebpf4jnsgd1na2vs0mg"},{"bike_id":"761e2286-9e05-43a5-a48d-2b1181602eab","system_id":"levelo_inurba_marseille","lat":43.211976,"lon":5.35071,"is_reserved":false,"is_disabled":false,"rental_uris":{"android":"levelo://app?vid=761e2286-9e05-43a5-a48d-2b1181602eab","ios":"levelo://app?vid=761e2286-9e05-43a5-a48d-2b1181602eab"},"vehicle_type_id":"4","last_reported":1756214762,"current_range_meters":6800,"station_id":"st_cvj6sg6p6f1abm77japg","pricing_plan_id":"cebpf4jnsgd1na2vs0mg"},{"bike_id":"0426d474-dc3b-4382-9af5-341bee809d59","system_id":"levelo_inurba_marseille","lat":43.2862,"lon":5.35105,"is_reserved":false,"is_disabled":false,"rental_uris":{"android":"levelo://app?vid=0426d474-dc3b-4382-9af5-341bee809d59","ios":"levelo://app?vid=0426d474-dc3b-4382-9af5-341bee809d59"},"vehicle_type_id":"4","last_reported":1756214762,"current_range_meters":6800,"station_id":"ce4bhch2rcd13ifvqeug","pricing_plan_id":"cebpf4jnsgd1na2vs0mg"},{"bike_id":"38ad1a97-0458-472a-84e5-68f0bffe7ff6","system_id":"levelo_inurba_marseille","lat":43.28475,"lon":5.38424,"is_reserved":false,"is_disabled":false,"rental_uris":{"android":"levelo://app?vid=38ad1a97-0458-472a-84e5-68f0bffe7ff6","ios":"levelo://app?vid=38ad1a97-0458-472a-84e5-68f0bffe7ff6"},"vehicle_type_id":"4","last_reported":1756214762,"current_range_meters":6800,"station_id":"ce4bh512rcd13ifvqe3g","pricing_plan_id":"cebpf4jnsgd1na2vs0mg"},{"bike_id":"824cd227-e1fd-4e05-b87e-05768514bec2","system_id":"levelo_inurba_marseille","lat":43.21202,"lon":5.35071,"is_reserved":false,"is_disabled":false,"rental_uris":{"android":"levelo://app?vid=824cd227-e1fd-4e05-b87e-05768514bec2","ios":"levelo://app?vid=824cd227-e1fd-4e05-b87e-05768514bec2"},"vehicle_type_id":"4","last_reported":1756214762,"current_range_meters":6800,"station_id":"st_cvj6sg6p6f1abm77japg","pricing_plan_id":"cebpf4jnsgd1na2vs0mg"},{"bike_id":"e36321a0-d08c-4233-b244-c8c58a31f83d","system_id":"levelo_inurba_marseille","lat":43.244,"lon":5.37067,"is_reserved":false,"is_disabled":false,"rental_uris":{"android":"levelo://app?vid=e36321a0-d08c-4233-b244-c8c58a31f83d","ios":"levelo://app?vid=e36321a0-d08c-4233-b244-c8c58a31f83d"},"vehicle_type_id":"4","last_reported":1756214762,"current_range_meters":7200,"station_id":"ce4bhhh2rcd13ifvqfk0","pricing_plan_id":"cebpf4jnsgd1na2vs0mg"},{"bike_id":"299e282d-11ad-45e7-8c10-0dd8103bc41e","system_id":"levelo_inurba_marseille","lat":43.27621,"lon":5.36116,"is_reserved":false,"is_disabled":false,"rental_uris":{"android":"levelo://app?vid=299e282d-11ad-45e7-8c10-0dd8103bc41e","ios":"levelo://app?vid=299e282d-11ad-45e7-8c10-0dd8103bc41e"},"vehicle_type_id":"4","last_reported":1756214762,"current_range_meters":7200,"station_id":"ce4bgj92rcd13ifvqbe0","pricing_plan_id":"cebpf4jnsgd1na2vs0mg"},{"bike_id":"23952167-4e57-4f0e-9e6d-7bc6d149e6ac","system_id":"levelo_inurba_marseille","lat":43.30893,"lon":5.3719,"is_reserved":false,"is_disabled":false,"rental_uris":{"android":"levelo://app?vid=23952167-4e57-4f0e-9e6d-7bc6d149e6ac","ios":"levelo://app?vid=23952167-4e57-4f0e-9e6d-7bc6d149e6ac"},"vehicle_type_id":"4","last_reported":1756214762,"current_range_meters":7200,"station_id":"ce4bguh2rcd13ifvqckg","pricing_plan_id":"cebpf4jnsgd1na2vs0mg"},{"bike_id":"e9394074-896a-4f73-a276-5c6582d4957c","system_id":"levelo_inurba_marseille","lat":43.25015,"lon":5.3894,"is_reserved":false,"is_disabled":false,"rental_uris":{"android":"levelo://app?vid=e9394074-896a-4f73-a276-5c6582d4957c","ios":"levelo://app?vid=e9394074-896a-4f73-a276-5c6582d4957c"},"vehicle_type_id":"4","last_reported":1756214762,"current_range_meters":8000,"station_id":"ce4bhgp2rcd13ifvqfd0","pricing_plan_id":"cebpf4jnsgd1na2vs0mg"},{"bike_id":"6a20d436-781f-46ba-8d3b-648b429dd6bc","system_id":"levelo_inurba_marseille","lat":43.279842,"lon":5.395298,"is_reserved":false,"is_disabled":false,"rental_uris":{"android":"levelo://app?vid=6a20d436-781f-46ba-8d3b-648b429dd6bc","ios":"levelo://app?vid=6a20d436-781f-46ba-8d3b-648b429dd6bc"},"vehicle_type_id":"4","last_reported":1756214762,"current_range_meters":8000,"station_id":"ce4bho12rcd13ifvqh2g","pricing_plan_id":"cebpf4jnsgd1na2vs0mg"},{"bike_id":"f6d365ff-e5c9-4559-baad-714a2a16cec1","system_id":"levelo_inurba_marseille","lat":43.2829,"lon":5.35085,"is_reserved":false,"is_disabled":false,"rental_uris":{"android":"levelo://app?vid=f6d365ff-e5c9-4559-baad-714a2a16cec1","ios":"levelo://app?vid=f6d365ff-e5c9-4559-baad-714a2a16cec1"},"vehicle_type_id":"4","last_reported":1756214762,"current_range_meters":8000,"station_id":"ce4bhbp2rcd13ifvqerg","pricing_plan_id":"cebpf4jnsgd1na2vs0mg"},{"bike_id":"205ab6b7-129c-4a77-b375-c0a2c8d4848d","system_id":"levelo_inurba_marseille","lat":43.28414,"lon":5.34983,"is_reserved":false,"is_disabled":false,"rental_uris":{"android":"levelo://app?vid=205ab6b7-129c-4a77-b375-c0a2c8d4848d","ios":"levelo://app?vid=205ab6b7-129c-4a77-b375-c0a2c8d4848d"},"vehicle_type_id":"4","last_reported":1756214762,"current_range_meters":8000,"station_id":"ce4bhbh2rcd13ifvqepg","pricing_plan_id":"cebpf4jnsgd1na2vs0mg"},{"bike_id":"91a12208-e703-48f9-ac3a-33c93572b35b","system_id":"levelo_inurba_marseille","lat":43.24551,"lon":5.39518,"is_reserved":false,"is_disabled":false,"rental_uris":{"android":"levelo://app?vid=91a12208-e703-48f9-ac3a-33c93572b35b","ios":"levelo://app?vid=91a12208-e703-48f9-ac3a-33c93572b35b"},"vehicle_type_id":"4","last_reported":1756214762,"current_range_meters":8000,"station_id":"ce4bhlp2rcd13ifvqgjg","pricing_plan_id":"cebpf4jnsgd1na2vs0mg"},{"bike_id":"54a50261-e125-4a5a-8d3e-5946d9e31532","system_id":"levelo_inurba_marseille","lat":43.21208,"lon":5.35057,"is_reserved":false,"is_disabled":false,"rental_uris":{"android":"levelo://app?vid=54a50261-e125-4a5a-8d3e-5946d9e31532","ios":"levelo://app?vid=54a50261-e125-4a5a-8d3e-5946d9e31532"},"vehicle_type_id":"4","last_reported":1756214762,"current_range_meters":8000,"station_id":"st_cvj6sg6p6f1abm77japg","pricing_plan_id":"cebpf4jnsgd1na2vs0mg"},{"bike_id":"a6661863-a7a4-40e3-8bce-f6697042e054","system_id":"levelo_inurba_marseille","lat":43.28415,"lon":5.34991,"is_reserved":false,"is_disabled":false,"rental_uris":{"android":"levelo://app?vid=a6661863-a7a4-40e3-8bce-f6697042e054","ios":"levelo://app?vid=a6661863-a7a4-40e3-8bce-f6697042e054"},"vehicle_type_id":"4","last_reported":1756214762,"current_range_meters":8400,"station_id":"ce4bhbh2rcd13ifvqepg","pricing_plan_id":"cebpf4jnsgd1na2vs0mg"},{"bike_id":"b72ddfe3-c483-48b6-a880-a138054f95e8","system_id":"levelo_inurba_marseille","lat":43.21198,"lon":5.35083,"is_reserved":false,"is_disabled":false,"rental_uris":{"android":"levelo://app?vid=b72ddfe3-c483-48b6-a880-a138054f95e8","ios":"levelo://app?vid=b72ddfe3-c483-48b6-a880-a138054f95e8"},"vehicle_type_id":"4","last_reported":1756214762,"current_range_meters":8400,"station_id":"st_cvj6sg6p6f1abm77japg","pricing_plan_id":"cebpf4jnsgd1na2vs0mg"},{"bike_id":"baf1e75f-6603-4be6-a673-efe7efcdac10","system_id":"levelo_inurba_marseille","lat":43.2176,"lon":5.34593,"is_reserved":false,"is_disabled":false,"rental_uris":{"android":"levelo://app?vid=baf1e75f-6603-4be6-a673-efe7efcdac10","ios":"levelo://app?vid=baf1e75f-6603-4be6-a673-efe7efcdac10"},"vehicle_type_id":"4","last_reported":1756214762,"current_range_meters":8400,"station_id":"st_cvj6r9ubvosntc0bgbag","pricing_plan_id":"cebpf4jnsgd1na2vs0mg"},{"bike_id":"4223e1b0-3e67-4dfc-b36a-f9e47b4d906c","system_id":"levelo_inurba_marseille","lat":43.27955,"lon":5.38734,"is_reserved":false,"is_disabled":false,"rental_uris":{"android":"levelo://app?vid=4223e1b0-3e67-4dfc-b36a-f9e47b4d906c","ios":"levelo://app?vid=4223e1b0-3e67-4dfc-b36a-f9e47b4d906c"},"vehicle_type_id":"4","last_reported":1756214762,"current_range_meters":8400,"station_id":"ce4bhg12rcd13ifvqf80","pricing_plan_id":"cebpf4jnsgd1na2vs0mg"},{"bike_id":"236f1a17-bd84-4b8e-977f-7df7d8cf402c","system_id":"levelo_inurba_marseille","lat":43.30809,"lon":5.4353,"is_reserved":false,"is_disabled":true,"rental_uris":{"android":"levelo://app?vid=236f1a17-bd84-4b8e-977f-7df7d8cf402c","ios":"levelo://app?vid=236f1a17-bd84-4b8e-977f-7df7d8cf402c"},"vehicle_type_id":"4","last_reported":1756214762,"current_range_meters":8400,"station_id":"ce4bhph2rcd13ifvqheg","pricing_plan_id":"cebpf4jnsgd1na2vs0mg"},{"bike_id":"abfa5b93-3365-41af-b914-86fcdc16c104","system_id":"levelo_inurba_marseille","lat":43.26554,"lon":5.37285,"is_reserved":false,"is_disabled":false,"rental_uris":{"android":"levelo://app?vid=abfa5b93-3365-41af-b914-86fcdc16c104","ios":"levelo://app?vid=abfa5b93-3365-41af-b914-86fcdc16c104"},"vehicle_type_id":"4","last_reported":1756214762,"current_range_meters":8400,"station_id":"ce4bhg12rcd13ifvqf70","pricing_plan_id":"cebpf4jnsgd1na2vs0mg"},{"bike_id":"e2a6f0eb-3b4d-487b-a905-9baf5348ff72","system_id":"levelo_inurba_marseille","lat":43.2862,"lon":5.35095,"is_reserved":false,"is_disabled":false,"rental_uris":{"android":"levelo://app?vid=e2a6f0eb-3b4d-487b-a905-9baf5348ff72","ios":"levelo://app?vid=e2a6f0eb-3b4d-487b-a905-9baf5348ff72"},"vehicle_type_id":"4","last_reported":1756214762,"current_range_meters":8400,"station_id":"ce4bhch2rcd13ifvqeug","pricing_plan_id":"cebpf4jnsgd1na2vs0mg"},{"bike_id":"1421f5cd-47fc-41e9-b3d9-4c1fca6aa789","system_id":"levelo_inurba_marseille","lat":43.30897,"lon":5.37186,"is_reserved":false,"is_disabled":false,"rental_uris":{"android":"levelo://app?vid=1421f5cd-47fc-41e9-b3d9-4c1fca6aa789","ios":"levelo://app?vid=1421f5cd-47fc-41e9-b3d9-4c1fca6aa789"},"vehicle_type_id":"4","last_reported":1756214762,"current_range_meters":8400,"station_id":"ce4bguh2rcd13ifvqckg","pricing_plan_id":"cebpf4jnsgd1na2vs0mg"},{"bike_id":"fcdfb1d4-2f58-4004-b07f-bc087fd0169f","system_id":"levelo_inurba_marseille","lat":43.303887,"lon":5.373754,"is_reserved":false,"is_disabled":false,"rental_uris":{"android":"levelo://app?vid=fcdfb1d4-2f58-4004-b07f-bc087fd0169f","ios":"levelo://app?vid=fcdfb1d4-2f58-4004-b07f-bc087fd0169f"},"vehicle_type_id":"4","last_reported":1756214762,"current_range_meters":8800,"station_id":"","pricing_plan_id":"cebpf4jnsgd1na2vs0mg"},{"bike_id":"0656ce77-3fb6-47c3-becc-ddbe0aaba798","system_id":"levelo_inurba_marseille","lat":43.304245,"lon":5.3889,"is_reserved":false,"is_disabled":false,"rental_uris":{"android":"levelo://app?vid=0656ce77-3fb6-47c3-becc-ddbe0aaba798","ios":"levelo://app?vid=0656ce77-3fb6-47c3-becc-ddbe0aaba798"},"vehicle_type_id":"4","last_reported":1756214762,"current_range_meters":8800,"station_id":"ce4bgk12rcd13ifvqbi0","pricing_plan_id":"cebpf4jnsgd1na2vs0mg"},{"bike_id":"466cbfcd-9e86-4a5d-b202-2dea76dbbe42","system_id":"levelo_inurba_marseille","lat":43.296,"lon":5.38092,"is_reserved":false,"is_disabled":false,"rental_uris":{"android":"levelo://app?vid=466cbfcd-9e86-4a5d-b202-2dea76dbbe42","ios":"levelo://app?vid=466cbfcd-9e86-4a5d-b202-2dea76dbbe42"},"vehicle_type_id":"4","last_reported":1756214762,"current_range_meters":8800,"station_id":"ce4bgl12rcd13ifvqbo0","pricing_plan_id":"cebpf4jnsgd1na2vs0mg"},{"bike_id":"e6c90b04-fbb6-41a2-a95e-e2143b2a634a","system_id":"levelo_inurba_marseille","lat":43.24171,"lon":5.36387,"is_reserved":false,"is_disabled":false,"rental_uris":{"android":"levelo://app?vid=e6c90b04-fbb6-41a2-a95e-e2143b2a634a","ios":"levelo://app?vid=e6c90b04-fbb6-41a2-a95e-e2143b2a634a"},"vehicle_type_id":"4","last_reported":1756214762,"current_range_meters":8800,"station_id":"cpo36qri1sfpv3e86is0","pricing_plan_id":"cebpf4jnsgd1na2vs0mg"},{"bike_id":"9beeb3c1-185b-41bc-8b1b-ec2eb2483132","system_id":"levelo_inurba_marseille","lat":43.29593,"lon":5.37503,"is_reserved":false,"is_disabled":false,"rental_uris":{"android":"levelo://app?vid=9beeb3c1-185b-41bc-8b1b-ec2eb2483132","ios":"levelo://app?vid=9beeb3c1-185b-41bc-8b1b-ec2eb2483132"},"vehicle_type_id":"4","last_reported":1756214762,"current_range_meters":9200,"station_id":"ce4bgh92rcd13ifvqb50","pricing_plan_id":"cebpf4jnsgd1na2vs0mg"},{"bike_id":"df75f1fa-75ae-4074-a5b6-5911a8c1b6a8","system_id":"levelo_inurba_marseille","lat":43.30761,"lon":5.3721,"is_reserved":false,"is_disabled":false,"rental_uris":{"android":"levelo://app?vid=df75f1fa-75ae-4074-a5b6-5911a8c1b6a8","ios":"levelo://app?vid=df75f1fa-75ae-4074-a5b6-5911a8c1b6a8"},"vehicle_type_id":"4","last_reported":1756214762,"current_range_meters":9200,"station_id":"","pricing_plan_id":"cebpf4jnsgd1na2vs0mg"},{"bike_id":"2f23c204-be0d-4594-b5d4-5526fa47c566","system_id":"levelo_inurba_marseille","lat":43.29635,"lon":5.40596,"is_reserved":false,"is_disabled":false,"rental_uris":{"android":"levelo://app?vid=2f23c204-be0d-4594-b5d4-5526fa47c566","ios":"levelo://app?vid=2f23c204-be0d-4594-b5d4-5526fa47c566"},"vehicle_type_id":"4","last_reported":1756214762,"current_range_meters":9200,"station_id":"ce4bh0h2rcd13ifvqd60","pricing_plan_id":"cebpf4jnsgd1na2vs0mg"},{"bike_id":"51c0815c-b75c-4ed8-a344-509ee7607c92","system_id":"levelo_inurba_marseille","lat":43.29631,"lon":5.40596,"is_reserved":false,"is_disabled":false,"rental_uris":{"android":"levelo://app?vid=51c0815c-b75c-4ed8-a344-509ee7607c92","ios":"levelo://app?vid=51c0815c-b75c-4ed8-a344-509ee7607c92"},"vehicle_type_id":"4","last_reported":1756214762,"current_range_meters":9200,"station_id":"ce4bh0h2rcd13ifvqd60","pricing_plan_id":"cebpf4jnsgd1na2vs0mg"},{"bike_id":"3ee84fbd-e819-4951-adfb-9e900f6f8d51","system_id":"levelo_inurba_marseille","lat":43.28431,"lon":5.34989,"is_reserved":false,"is_disabled":false,"rental_uris":{"android":"levelo://app?vid=3ee84fbd-e819-4951-adfb-9e900f6f8d51","ios":"levelo://app?vid=3ee84fbd-e819-4951-adfb-9e900f6f8d51"},"vehicle_type_id":"4","last_reported":1756214762,"current_range_meters":9600,"station_id":"ce4bhbh2rcd13ifvqepg","pricing_plan_id":"cebpf4jnsgd1na2vs0mg"},{"bike_id":"23a282e4-c41f-4f81-b70d-30b33a9b37b1","system_id":"levelo_inurba_marseille","lat":43.30945,"lon":5.39039,"is_reserved":false,"is_disabled":false,"rental_uris":{"android":"levelo://app?vid=23a282e4-c41f-4f81-b70d-30b33a9b37b1","ios":"levelo://app?vid=23a282e4-c41f-4f81-b70d-30b33a9b37b1"},"vehicle_type_id":"4","last_reported":1756214762,"current_range_meters":9600,"station_id":"ce4bgup2rcd13ifvqco0","pricing_plan_id":"cebpf4jnsgd1na2vs0mg"},{"bike_id":"96290dcb-5422-4c66-b871-eb048cbeec71","system_id":"levelo_inurba_marseille","lat":43.21191,"lon":5.35061,"is_reserved":false,"is_disabled":false,"rental_uris":{"android":"levelo://app?vid=96290dcb-5422-4c66-b871-eb048cbeec71","ios":"levelo://app?vid=96290dcb-5422-4c66-b871-eb048cbeec71"},"vehicle_type_id":"4","last_reported":1756214762,"current_range_meters":9600,"station_id":"st_cvj6sg6p6f1abm77japg","pricing_plan_id":"cebpf4jnsgd1na2vs0mg"},{"bike_id":"a7617eaa-1f94-4263-82ae-df4c6a62a5c5","system_id":"levelo_inurba_marseille","lat":43.21761,"lon":5.34618,"is_reserved":false,"is_disabled":false,"rental_uris":{"android":"levelo://app?vid=a7617eaa-1f94-4263-82ae-df4c6a62a5c5","ios":"levelo://app?vid=a7617eaa-1f94-4263-82ae-df4c6a62a5c5"},"vehicle_type_id":"4","last_reported":1756214762,"current_range_meters":9600,"station_id":"st_cvj6r9ubvosntc0bgbag","pricing_plan_id":"cebpf4jnsgd1na2vs0mg"},{"bike_id":"596812f8-4150-472f-b629-f945ea841949","system_id":"levelo_inurba_marseille","lat":43.23965,"lon":5.36635,"is_reserved":false,"is_disabled":false,"rental_uris":{"android":"levelo://app?vid=596812f8-4150-472f-b629-f945ea841949","ios":"levelo://app?vid=596812f8-4150-472f-b629-f945ea841949"},"vehicle_type_id":"4","last_reported":1756214762,"current_range_meters":9600,"station_id":"ce4bhi12rcd13ifvqfp0","pricing_plan_id":"cebpf4jnsgd1na2vs0mg"},{"bike_id":"9ebbca0f-8b0f-49e0-bbc0-5934ebb0e846","system_id":"levelo_inurba_marseille","lat":43.21184,"lon":5.35071,"is_reserved":false,"is_disabled":false,"rental_uris":{"android":"levelo://app?vid=9ebbca0f-8b0f-49e0-bbc0-5934ebb0e846","ios":"levelo://app?vid=9ebbca0f-8b0f-49e0-bbc0-5934ebb0e846"},"vehicle_type_id":"4","last_reported":1756214762,"current_range_meters":10000,"station_id":"st_cvj6sg6p6f1abm77japg","pricing_plan_id":"cebpf4jnsgd1na2vs0mg"},{"bike_id":"9653b575-f3f0-481f-b5ab-adc0a30148e8","system_id":"levelo_inurba_marseille","lat":43.230652,"lon":5.354885,"is_reserved":false,"is_disabled":false,"rental_uris":{"android":"levelo://app?vid=9653b575-f3f0-481f-b5ab-adc0a30148e8","ios":"levelo://app?vid=9653b575-f3f0-481f-b5ab-adc0a30148e8"},"vehicle_type_id":"4","last_reported":1756214762,"current_range_meters":10000,"station_id":"","pricing_plan_id":"cebpf4jnsgd1na2vs0mg"},{"bike_id":"1c1c3b96-f487-4416-b723-95bce25a6bfa","system_id":"levelo_inurba_marseille","lat":43.23195,"lon":5.35551,"is_reserved":false,"is_disabled":false,"rental_uris":{"android":"levelo://app?vid=1c1c3b96-f487-4416-b723-95bce25a6bfa","ios":"levelo://app?vid=1c1c3b96-f487-4416-b723-95bce25a6bfa"},"vehicle_type_id":"4","last_reported":1756214762,"current_range_meters":10000,"station_id":"ce4bhu92rcd13ifvqi70","pricing_plan_id":"cebpf4jnsgd1na2vs0mg"},{"bike_id":"cb0a8ef9-2aa8-4b39-b79a-aa4b5daffc47","system_id":"levelo_inurba_marseille","lat":43.33726,"lon":5.39177,"is_reserved":false,"is_disabled":false,"rental_uris":{"android":"levelo://app?vid=cb0a8ef9-2aa8-4b39-b79a-aa4b5daffc47","ios":"levelo://app?vid=cb0a8ef9-2aa8-4b39-b79a-aa4b5daffc47"},"vehicle_type_id":"4","last_reported":1756214762,"current_range_meters":10000,"station_id":"ce4bhr92rcd13ifvqhsg","pricing_plan_id":"cebpf4jnsgd1na2vs0mg"},{"bike_id":"b2ef36d0-b194-4bbb-b36e-f342c717f029","system_id":"levelo_inurba_marseille","lat":43.298605,"lon":5.362881,"is_reserved":false,"is_disabled":false,"rental_uris":{"android":"levelo://app?vid=b2ef36d0-b194-4bbb-b36e-f342c717f029","ios":"levelo://app?vid=b2ef36d0-b194-4bbb-b36e-f342c717f029"},"vehicle_type_id":"4","last_reported":1756214762,"current_range_meters":10000,"station_id":"ce4bgpp2rcd13ifvqc3g","pricing_plan_id":"cebpf4jnsgd1na2vs0mg"},{"bike_id":"f8858819-6537-4266-aca3-2874849b5575","system_id":"levelo_inurba_marseille","lat":43.28412,"lon":5.34991,"is_reserved":false,"is_disabled":false,"rental_uris":{"android":"levelo://app?vid=f8858819-6537-4266-aca3-2874849b5575","ios":"levelo://app?vid=f8858819-6537-4266-aca3-2874849b5575"},"vehicle_type_id":"4","last_reported":1756214762,"current_range_meters":10000,"station_id":"ce4bhbh2rcd13ifvqepg","pricing_plan_id":"cebpf4jnsgd1na2vs0mg"},{"bike_id":"46f38273-8c7d-49ab-b965-5341f541f616","system_id":"levelo_inurba_marseille","lat":43.24177,"lon":5.36395,"is_reserved":false,"is_disabled":false,"rental_uris":{"android":"levelo://app?vid=46f38273-8c7d-49ab-b965-5341f541f616","ios":"levelo://app?vid=46f38273-8c7d-49ab-b965-5341f541f616"},"vehicle_type_id":"4","last_reported":1756214762,"current_range_meters":10000,"station_id":"cpo36qri1sfpv3e86is0","pricing_plan_id":"cebpf4jnsgd1na2vs0mg"},{"bike_id":"f781d014-afa9-4acc-b6f7-3670b0862de3","system_id":"levelo_inurba_marseille","lat":43.21191,"lon":5.35062,"is_reserved":false,"is_disabled":false,"rental_uris":{"android":"levelo://app?vid=f781d014-afa9-4acc-b6f7-3670b0862de3","ios":"levelo://app?vid=f781d014-afa9-4acc-b6f7-3670b0862de3"},"vehicle_type_id":"4","last_reported":1756214762,"current_range_meters":10000,"station_id":"st_cvj6sg6p6f1abm77japg","pricing_plan_id":"cebpf4jnsgd1na2vs0mg"},{"bike_id":"bea9b573-b0c0-471b-a983-7d2a5da760bb","system_id":"levelo_inurba_marseille","lat":43.30378,"lon":5.42475,"is_reserved":false,"is_disabled":false,"rental_uris":{"android":"levelo://app?vid=bea9b573-b0c0-471b-a983-7d2a5da760bb","ios":"levelo://app?vid=bea9b573-b0c0-471b-a983-7d2a5da760bb"},"vehicle_type_id":"4","last_reported":1756214762,"current_range_meters":10800,"station_id":"ce4bhoh2rcd13ifvqh6g","pricing_plan_id":"cebpf4jnsgd1na2vs0mg"},{"bike_id":"7c8f3a51-5187-4ccb-b454-f6565d98a191","system_id":"levelo_inurba_marseille","lat":43.28259,"lon":5.35061,"is_reserved":false,"is_disabled":false,"rental_uris":{"android":"levelo://app?vid=7c8f3a51-5187-4ccb-b454-f6565d98a191","ios":"levelo://app?vid=7c8f3a51-5187-4ccb-b454-f6565d98a191"},"vehicle_type_id":"4","last_reported":1756214762,"current_range_meters":10800,"station_id":"ce4bhbp2rcd13ifvqerg","pricing_plan_id":"cebpf4jnsgd1na2vs0mg"},{"bike_id":"4e326991-524a-498f-8eda-9c8ae7d86a4d","system_id":"levelo_inurba_marseille","lat":43.30552,"lon":5.36532,"is_reserved":false,"is_disabled":false,"rental_uris":{"android":"levelo://app?vid=4e326991-524a-498f-8eda-9c8ae7d86a4d","ios":"levelo://app?vid=4e326991-524a-498f-8eda-9c8ae7d86a4d"},"vehicle_type_id":"4","last_reported":1756214762,"current_range_meters":10800,"station_id":"ce4bgs12rcd13ifvqcag","pricing_plan_id":"cebpf4jnsgd1na2vs0mg"},{"bike_id":"84babc92-9730-409e-b2d4-d57e12421d80","system_id":"levelo_inurba_marseille","lat":43.28608,"lon":5.3509,"is_reserved":false,"is_disabled":false,"rental_uris":{"android":"levelo://app?vid=84babc92-9730-409e-b2d4-d57e12421d80","ios":"levelo://app?vid=84babc92-9730-409e-b2d4-d57e12421d80"},"vehicle_type_id":"4","last_reported":1756214762,"current_range_meters":10800,"station_id":"ce4bhch2rcd13ifvqeug","pricing_plan_id":"cebpf4jnsgd1na2vs0mg"},{"bike_id":"c14d2678-48fa-4d63-ac9b-b3687dd66c68","system_id":"levelo_inurba_marseille","lat":43.2842,"lon":5.34973,"is_reserved":false,"is_disabled":false,"rental_uris":{"android":"levelo://app?vid=c14d2678-48fa-4d63-ac9b-b3687dd66c68","ios":"levelo://app?vid=c14d2678-48fa-4d63-ac9b-b3687dd66c68"},"vehicle_type_id":"4","last_reported":1756214762,"current_range_meters":10800,"station_id":"ce4bhbh2rcd13ifvqepg","pricing_plan_id":"cebpf4jnsgd1na2vs0mg"},{"bike_id":"196f9ae8-cdfd-4703-b3e8-c7caad4af683","system_id":"levelo_inurba_marseille","lat":43.21752,"lon":5.34599,"is_reserved":false,"is_disabled":false,"rental_uris":{"android":"levelo://app?vid=196f9ae8-cdfd-4703-b3e8-c7caad4af683","ios":"levelo://app?vid=196f9ae8-cdfd-4703-b3e8-c7caad4af683"},"vehicle_type_id":"4","last_reported":1756214762,"current_range_meters":11200,"station_id":"st_cvj6r9ubvosntc0bgbag","pricing_plan_id":"cebpf4jnsgd1na2vs0mg"},{"bike_id":"c8f19ab0-2650-42bf-bf99-315bb14cecb1","system_id":"levelo_inurba_marseille","lat":43.323629,"lon":5.367459,"is_reserved":false,"is_disabled":false,"rental_uris":{"android":"levelo://app?vid=c8f19ab0-2650-42bf-bf99-315bb14cecb1","ios":"levelo://app?vid=c8f19ab0-2650-42bf-bf99-315bb14cecb1"},"vehicle_type_id":"4","last_reported":1756214762,"current_range_meters":11200,"station_id":"ce4bhsh2rcd13ifvqi2g","pricing_plan_id":"cebpf4jnsgd1na2vs0mg"},{"bike_id":"fec7b355-d26f-4568-977c-b1618ba8bc4a","system_id":"levelo_inurba_marseille","lat":43.28483,"lon":5.38415,"is_reserved":false,"is_disabled":false,"rental_uris":{"android":"levelo://app?vid=fec7b355-d26f-4568-977c-b1618ba8bc4a","ios":"levelo://app?vid=fec7b355-d26f-4568-977c-b1618ba8bc4a"},"vehicle_type_id":"4","last_reported":1756214762,"current_range_meters":11200,"station_id":"ce4bh512rcd13ifvqe3g","pricing_plan_id":"cebpf4jnsgd1na2vs0mg"},{"bike_id":"ac61e6e0-8cfd-4b21-883b-87f1ad402b1f","system_id":"levelo_inurba_marseille","lat":43.297546,"lon":5.375848,"is_reserved":false,"is_disabled":false,"rental_uris":{"android":"levelo://app?vid=ac61e6e0-8cfd-4b21-883b-87f1ad402b1f","ios":"levelo://app?vid=ac61e6e0-8cfd-4b21-883b-87f1ad402b1f"},"vehicle_type_id":"4","last_reported":1756214762,"current_range_meters":11600,"station_id":"st_cvj6r9ubvosntc0bgbag","pricing_plan_id":"cebpf4jnsgd1na2vs0mg"},{"bike_id":"bb3b1f8e-8cc5-4b98-b134-1d38210e2d7b","system_id":"levelo_inurba_marseille","lat":43.28423,"lon":5.35005,"is_reserved":false,"is_disabled":false,"rental_uris":{"android":"levelo://app?vid=bb3b1f8e-8cc5-4b98-b134-1d38210e2d7b","ios":"levelo://app?vid=bb3b1f8e-8cc5-4b98-b134-1d38210e2d7b"},"vehicle_type_id":"4","last_reported":1756214762,"current_range_meters":11600,"station_id":"ce4bhbh2rcd13ifvqepg","pricing_plan_id":"cebpf4jnsgd1na2vs0mg"},{"bike_id":"226f5b10-670d-4790-b84a-f061bb4dd76a","system_id":"levelo_inurba_marseille","lat":43.21754,"lon":5.34601,"is_reserved":false,"is_disabled":false,"rental_uris":{"android":"levelo://app?vid=226f5b10-670d-4790-b84a-f061bb4dd76a","ios":"levelo://app?vid=226f5b10-670d-4790-b84a-f061bb4dd76a"},"vehicle_type_id":"4","last_reported":1756214762,"current_range_meters":11600,"station_id":"","pricing_plan_id":"cebpf4jnsgd1na2vs0mg"},{"bike_id":"3373f291-fdf9-4608-8755-af0a854bdfd2","system_id":"levelo_inurba_marseille","lat":43.21754,"lon":5.34609,"is_reserved":false,"is_disabled":false,"rental_uris":{"android":"levelo://app?vid=3373f291-fdf9-4608-8755-af0a854bdfd2","ios":"levelo://app?vid=3373f291-fdf9-4608-8755-af0a854bdfd2"},"vehicle_type_id":"4","last_reported":1756214762,"current_range_meters":11600,"station_id":"st_cvj6r9ubvosntc0bgbag","pricing_plan_id":"cebpf4jnsgd1na2vs0mg"},{"bike_id":"f9bf7b08-4ffd-4853-bb8b-fa3a93c31f4b","system_id":"levelo_inurba_marseille","lat":43.27428,"lon":5.3942,"is_reserved":false,"is_disabled":false,"rental_uris":{"android":"levelo://app?vid=f9bf7b08-4ffd-4853-bb8b-fa3a93c31f4b","ios":"levelo://app?vid=f9bf7b08-4ffd-4853-bb8b-fa3a93c31f4b"},"vehicle_type_id":"4","last_reported":1756214762,"current_range_meters":11600,"station_id":"ce4bhdp2rcd13ifvqf20","pricing_plan_id":"cebpf4jnsgd1na2vs0mg"},{"bike_id":"3fdab342-812b-4e87-a622-3fd4fcd806fa","system_id":"levelo_inurba_marseille","lat":43.31262,"lon":5.36835,"is_reserved":false,"is_disabled":false,"rental_uris":{"android":"levelo://app?vid=3fdab342-812b-4e87-a622-3fd4fcd806fa","ios":"levelo://app?vid=3fdab342-812b-4e87-a622-3fd4fcd806fa"},"vehicle_type_id":"4","last_reported":1756214762,"current_range_meters":11600,"station_id":"ce4bgl92rcd13ifvqbq0","pricing_plan_id":"cebpf4jnsgd1na2vs0mg"},{"bike_id":"f5b9bdf3-e981-4ec9-b3c8-e8477d05dbe8","system_id":"levelo_inurba_marseille","lat":43.325608,"lon":5.414413,"is_reserved":false,"is_disabled":false,"rental_uris":{"android":"levelo://app?vid=f5b9bdf3-e981-4ec9-b3c8-e8477d05dbe8","ios":"levelo://app?vid=f5b9bdf3-e981-4ec9-b3c8-e8477d05dbe8"},"vehicle_type_id":"4","last_reported":1756214762,"current_range_meters":11200,"station_id":"ce4bhq12rcd13ifvqhhg","pricing_plan_id":"cebpf4jnsgd1na2vs0mg"},{"bike_id":"496ceff6-3523-4d00-af10-0d755c0033f2","system_id":"levelo_inurba_marseille","lat":43.29796,"lon":5.40386,"is_reserved":false,"is_disabled":false,"rental_uris":{"android":"levelo://app?vid=496ceff6-3523-4d00-af10-0d755c0033f2","ios":"levelo://app?vid=496ceff6-3523-4d00-af10-0d755c0033f2"},"vehicle_type_id":"4","last_reported":1756214762,"current_range_meters":12000,"station_id":"ce4bh112rcd13ifvqd90","pricing_plan_id":"cebpf4jnsgd1na2vs0mg"},{"bike_id":"9a25a217-0875-4991-a53a-f6f506199362","system_id":"levelo_inurba_marseille","lat":43.28264,"lon":5.35057,"is_reserved":false,"is_disabled":true,"rental_uris":{"android":"levelo://app?vid=9a25a217-0875-4991-a53a-f6f506199362","ios":"levelo://app?vid=9a25a217-0875-4991-a53a-f6f506199362"},"vehicle_type_id":"4","last_reported":1756214762,"current_range_meters":12000,"station_id":"ce4bhbp2rcd13ifvqerg","pricing_plan_id":"cebpf4jnsgd1na2vs0mg"},{"bike_id":"4cc018f4-5cd5-4be4-91ab-3d8ac7f2c0a2","system_id":"levelo_inurba_marseille","lat":43.30604,"lon":5.37228,"is_reserved":false,"is_disabled":false,"rental_uris":{"android":"levelo://app?vid=4cc018f4-5cd5-4be4-91ab-3d8ac7f2c0a2","ios":"levelo://app?vid=4cc018f4-5cd5-4be4-91ab-3d8ac7f2c0a2"},"vehicle_type_id":"4","last_reported":1756214762,"current_range_meters":12000,"station_id":"ce4bgqh2rcd13ifvqc4g","pricing_plan_id":"cebpf4jnsgd1na2vs0mg"},{"bike_id":"d4dfb875-85eb-45d0-b13f-4e64a05defc1","system_id":"levelo_inurba_marseille","lat":43.30534,"lon":5.36705,"is_reserved":false,"is_disabled":false,"rental_uris":{"android":"levelo://app?vid=d4dfb875-85eb-45d0-b13f-4e64a05defc1","ios":"levelo://app?vid=d4dfb875-85eb-45d0-b13f-4e64a05defc1"},"vehicle_type_id":"4","last_reported":1756214762,"current_range_meters":12000,"station_id":"ce4bgrp2rcd13ifvqc9g","pricing_plan_id":"cebpf4jnsgd1na2vs0mg"},{"bike_id":"cd7bec15-8a58-4825-9e88-3f858c018694","system_id":"levelo_inurba_marseille","lat":43.27376,"lon":5.36262,"is_reserved":false,"is_disabled":false,"rental_uris":{"android":"levelo://app?vid=cd7bec15-8a58-4825-9e88-3f858c018694","ios":"levelo://app?vid=cd7bec15-8a58-4825-9e88-3f858c018694"},"vehicle_type_id":"4","last_reported":1756214762,"current_range_meters":12000,"station_id":"ce4bhbh2rcd13ifvqeo0","pricing_plan_id":"cebpf4jnsgd1na2vs0mg"},{"bike_id":"3e130ff4-87da-4c51-a264-44d1f277fd66","system_id":"levelo_inurba_marseille","lat":43.32085,"lon":5.3677,"is_reserved":false,"is_disabled":false,"rental_uris":{"android":"levelo://app?vid=3e130ff4-87da-4c51-a264-44d1f277fd66","ios":"levelo://app?vid=3e130ff4-87da-4c51-a264-44d1f277fd66"},"vehicle_type_id":"4","last_reported":1756214762,"current_range_meters":12000,"station_id":"ce4bhrh2rcd13ifvqhug","pricing_plan_id":"cebpf4jnsgd1na2vs0mg"},{"bike_id":"bf69c5a9-2dda-478b-a044-670a6c6ee1c5","system_id":"levelo_inurba_marseille","lat":43.2738,"lon":5.36259,"is_reserved":false,"is_disabled":false,"rental_uris":{"android":"levelo://app?vid=bf69c5a9-2dda-478b-a044-670a6c6ee1c5","ios":"levelo://app?vid=bf69c5a9-2dda-478b-a044-670a6c6ee1c5"},"vehicle_type_id":"4","last_reported":1756214762,"current_range_meters":12000,"station_id":"ce4bhbh2rcd13ifvqeo0","pricing_plan_id":"cebpf4jnsgd1na2vs0mg"},{"bike_id":"d43b1437-d64b-444f-a464-64bbe01f485f","system_id":"levelo_inurba_marseille","lat":43.2619,"lon":5.37443,"is_reserved":false,"is_disabled":false,"rental_uris":{"android":"levelo://app?vid=d43b1437-d64b-444f-a464-64bbe01f485f","ios":"levelo://app?vid=d43b1437-d64b-444f-a464-64bbe01f485f"},"vehicle_type_id":"4","last_reported":1756214762,"current_range_meters":12000,"station_id":"ce4bhgp2rcd13ifvqfc0","pricing_plan_id":"cebpf4jnsgd1na2vs0mg"},{"bike_id":"e2b0f307-cfe9-4ad5-b104-d661fcb0d809","system_id":"levelo_inurba_marseille","lat":43.22931,"lon":5.3537,"is_reserved":false,"is_disabled":false,"rental_uris":{"android":"levelo://app?vid=e2b0f307-cfe9-4ad5-b104-d661fcb0d809","ios":"levelo://app?vid=e2b0f307-cfe9-4ad5-b104-d661fcb0d809"},"vehicle_type_id":"4","last_reported":1756214762,"current_range_meters":12400,"station_id":"cpo3532slgdg3j2ikp40","pricing_plan_id":"cebpf4jnsgd1na2vs0mg"},{"bike_id":"a145021b-ec34-4c18-929d-86c127cde754","system_id":"levelo_inurba_marseille","lat":43.31714,"lon":5.43708,"is_reserved":false,"is_disabled":false,"rental_uris":{"android":"levelo://app?vid=a145021b-ec34-4c18-929d-86c127cde754","ios":"levelo://app?vid=a145021b-ec34-4c18-929d-86c127cde754"},"vehicle_type_id":"4","last_reported":1756214762,"current_range_meters":12400,"station_id":"ce4bhp92rcd13ifvqhcg","pricing_plan_id":"cebpf4jnsgd1na2vs0mg"},{"bike_id":"a02c36f2-5c73-4274-9dab-3dcfac8b6d0b","system_id":"levelo_inurba_marseille","lat":43.32361,"lon":5.36734,"is_reserved":false,"is_disabled":false,"rental_uris":{"android":"levelo://app?vid=a02c36f2-5c73-4274-9dab-3dcfac8b6d0b","ios":"levelo://app?vid=a02c36f2-5c73-4274-9dab-3dcfac8b6d0b"},"vehicle_type_id":"4","last_reported":1756214762,"current_range_meters":12400,"station_id":"ce4bhsh2rcd13ifvqi2g","pricing_plan_id":"cebpf4jnsgd1na2vs0mg"},{"bike_id":"39c1501a-39e6-4b95-b927-362d00c98359","system_id":"levelo_inurba_marseille","lat":43.28469,"lon":5.38417,"is_reserved":false,"is_disabled":false,"rental_uris":{"android":"levelo://app?vid=39c1501a-39e6-4b95-b927-362d00c98359","ios":"levelo://app?vid=39c1501a-39e6-4b95-b927-362d00c98359"},"vehicle_type_id":"4","last_reported":1756214762,"current_range_meters":12400,"station_id":"ce4bh512rcd13ifvqe3g","pricing_plan_id":"cebpf4jnsgd1na2vs0mg"},{"bike_id":"1628099a-a094-4d8d-af8d-21bad918c2d8","system_id":"levelo_inurba_marseille","lat":43.28485,"lon":5.38418,"is_reserved":false,"is_disabled":false,"rental_uris":{"android":"levelo://app?vid=1628099a-a094-4d8d-af8d-21bad918c2d8","ios":"levelo://app?vid=1628099a-a094-4d8d-af8d-21bad918c2d8"},"vehicle_type_id":"4","last_reported":1756214762,"current_range_meters":12800,"station_id":"ce4bh512rcd13ifvqe3g","pricing_plan_id":"cebpf4jnsgd1na2vs0mg"},{"bike_id":"632030b5-1498-47c0-aa28-dfb19d01a1ea","system_id":"levelo_inurba_marseille","lat":43.26207,"lon":5.37449,"is_reserved":false,"is_disabled":false,"rental_uris":{"android":"levelo://app?vid=632030b5-1498-47c0-aa28-dfb19d01a1ea","ios":"levelo://app?vid=632030b5-1498-47c0-aa28-dfb19d01a1ea"},"vehicle_type_id":"4","last_reported":1756214762,"current_range_meters":12800,"station_id":"ce4bhgp2rcd13ifvqfc0","pricing_plan_id":"cebpf4jnsgd1na2vs0mg"},{"bike_id":"b375d41b-9575-4c77-a6a9-d089747042e7","system_id":"levelo_inurba_marseille","lat":43.32283,"lon":5.3678,"is_reserved":false,"is_disabled":false,"rental_uris":{"android":"levelo://app?vid=b375d41b-9575-4c77-a6a9-d089747042e7","ios":"levelo://app?vid=b375d41b-9575-4c77-a6a9-d089747042e7"},"vehicle_type_id":"4","last_reported":1756214762,"current_range_meters":12800,"station_id":"","pricing_plan_id":"cebpf4jnsgd1na2vs0mg"},{"bike_id":"83e818dd-7ff3-45dd-b46a-ecfe9cbc3bf8","system_id":"levelo_inurba_marseille","lat":43.262182,"lon":5.374436,"is_reserved":false,"is_disabled":false,"rental_uris":{"android":"levelo://app?vid=83e818dd-7ff3-45dd-b46a-ecfe9cbc3bf8","ios":"levelo://app?vid=83e818dd-7ff3-45dd-b46a-ecfe9cbc3bf8"},"vehicle_type_id":"4","last_reported":1756214762,"current_range_meters":12800,"station_id":"ce4bhgp2rcd13ifvqfc0","pricing_plan_id":"cebpf4jnsgd1na2vs0mg"},{"bike_id":"0d502687-08ef-4491-8893-8a03d8688be8","system_id":"levelo_inurba_marseille","lat":43.29539,"lon":5.36223,"is_reserved":false,"is_disabled":false,"rental_uris":{"android":"levelo://app?vid=0d502687-08ef-4491-8893-8a03d8688be8","ios":"levelo://app?vid=0d502687-08ef-4491-8893-8a03d8688be8"},"vehicle_type_id":"4","last_reported":1756214762,"current_range_meters":12800,"station_id":"","pricing_plan_id":"cebpf4jnsgd1na2vs0mg"},{"bike_id":"64352914-fa5b-431d-bfa0-3208bb97ce49","system_id":"levelo_inurba_marseille","lat":43.24169,"lon":5.36402,"is_reserved":false,"is_disabled":false,"rental_uris":{"android":"levelo://app?vid=64352914-fa5b-431d-bfa0-3208bb97ce49","ios":"levelo://app?vid=64352914-fa5b-431d-bfa0-3208bb97ce49"},"vehicle_type_id":"4","last_reported":1756214762,"current_range_meters":12800,"station_id":"cpo36qri1sfpv3e86is0","pricing_plan_id":"cebpf4jnsgd1na2vs0mg"},{"bike_id":"b6d727d8-b5ab-46d2-9978-fd5ba1dad8e0","system_id":"levelo_inurba_marseille","lat":43.30902,"lon":5.36862,"is_reserved":false,"is_disabled":false,"rental_uris":{"android":"levelo://app?vid=b6d727d8-b5ab-46d2-9978-fd5ba1dad8e0","ios":"levelo://app?vid=b6d727d8-b5ab-46d2-9978-fd5ba1dad8e0"},"vehicle_type_id":"4","last_reported":1756214762,"current_range_meters":13600,"station_id":"ce4bgn92rcd13ifvqbvg","pricing_plan_id":"cebpf4jnsgd1na2vs0mg"},{"bike_id":"b6fa71de-cb87-445d-ba99-d3eabe8dc29d","system_id":"levelo_inurba_marseille","lat":43.21744,"lon":5.34607,"is_reserved":false,"is_disabled":false,"rental_uris":{"android":"levelo://app?vid=b6fa71de-cb87-445d-ba99-d3eabe8dc29d","ios":"levelo://app?vid=b6fa71de-cb87-445d-ba99-d3eabe8dc29d"},"vehicle_type_id":"4","last_reported":1756214762,"current_range_meters":13600,"station_id":"st_cvj6r9ubvosntc0bgbag","pricing_plan_id":"cebpf4jnsgd1na2vs0mg"},{"bike_id":"3471f848-1c0d-416c-8546-8eb586955e21","system_id":"levelo_inurba_marseille","lat":43.28265,"lon":5.3507,"is_reserved":false,"is_disabled":false,"rental_uris":{"android":"levelo://app?vid=3471f848-1c0d-416c-8546-8eb586955e21","ios":"levelo://app?vid=3471f848-1c0d-416c-8546-8eb586955e21"},"vehicle_type_id":"4","last_reported":1756214762,"current_range_meters":13600,"station_id":"ce4bhbp2rcd13ifvqerg","pricing_plan_id":"cebpf4jnsgd1na2vs0mg"},{"bike_id":"4ab5cd05-9797-4377-a531-1f2dcb632bba","system_id":"levelo_inurba_marseille","lat":43.28413,"lon":5.34982,"is_reserved":false,"is_disabled":false,"rental_uris":{"android":"levelo://app?vid=4ab5cd05-9797-4377-a531-1f2dcb632bba","ios":"levelo://app?vid=4ab5cd05-9797-4377-a531-1f2dcb632bba"},"vehicle_type_id":"4","last_reported":1756214762,"current_range_meters":13600,"station_id":"ce4bhbh2rcd13ifvqepg","pricing_plan_id":"cebpf4jnsgd1na2vs0mg"},{"bike_id":"a25faefd-0357-4bc0-914c-e2f2949d57b3","system_id":"levelo_inurba_marseille","lat":43.27075,"lon":5.42286,"is_reserved":false,"is_disabled":false,"rental_uris":{"android":"levelo://app?vid=a25faefd-0357-4bc0-914c-e2f2949d57b3","ios":"levelo://app?vid=a25faefd-0357-4bc0-914c-e2f2949d57b3"},"vehicle_type_id":"4","last_reported":1756214762,"current_range_meters":13600,"station_id":"ce4bhk92rcd13ifvqgb0","pricing_plan_id":"cebpf4jnsgd1na2vs0mg"},{"bike_id":"f84f46c8-243d-42cd-b308-2b289e4c09d3","system_id":"levelo_inurba_marseille","lat":43.334514,"lon":5.356717,"is_reserved":false,"is_disabled":false,"rental_uris":{"android":"levelo://app?vid=f84f46c8-243d-42cd-b308-2b289e4c09d3","ios":"levelo://app?vid=f84f46c8-243d-42cd-b308-2b289e4c09d3"},"vehicle_type_id":"4","last_reported":1756214762,"current_range_meters":13600,"station_id":"","pricing_plan_id":"cebpf4jnsgd1na2vs0mg"},{"bike_id":"54e12628-0423-4c6a-95f2-a41071cbd0e4","system_id":"levelo_inurba_marseille","lat":43.3059,"lon":5.3936,"is_reserved":false,"is_disabled":false,"rental_uris":{"android":"levelo://app?vid=54e12628-0423-4c6a-95f2-a41071cbd0e4","ios":"levelo://app?vid=54e12628-0423-4c6a-95f2-a41071cbd0e4"},"vehicle_type_id":"4","last_reported":1756214762,"current_range_meters":13600,"station_id":"ce4bh0p2rcd13ifvqd80","pricing_plan_id":"cebpf4jnsgd1na2vs0mg"},{"bike_id":"b17e9630-4e67-4e4a-bb95-0a4f7773f222","system_id":"levelo_inurba_marseille","lat":43.29661,"lon":5.37696,"is_reserved":false,"is_disabled":false,"rental_uris":{"android":"levelo://app?vid=b17e9630-4e67-4e4a-bb95-0a4f7773f222","ios":"levelo://app?vid=b17e9630-4e67-4e4a-bb95-0a4f7773f222"},"vehicle_type_id":"4","last_reported":1756214762,"current_range_meters":13600,"station_id":"ce4bgi92rcd13ifvqb90","pricing_plan_id":"cebpf4jnsgd1na2vs0mg"},{"bike_id":"cfce8311-12ce-481f-86ab-4ff0c0006ee0","system_id":"levelo_inurba_marseille","lat":43.30782,"lon":5.37634,"is_reserved":false,"is_disabled":false,"rental_uris":{"android":"levelo://app?vid=cfce8311-12ce-481f-86ab-4ff0c0006ee0","ios":"levelo://app?vid=cfce8311-12ce-481f-86ab-4ff0c0006ee0"},"vehicle_type_id":"4","last_reported":1756214762,"current_range_meters":14000,"station_id":"ce4bgv92rcd13ifvqcq0","pricing_plan_id":"cebpf4jnsgd1na2vs0mg"},{"bike_id":"f175a4a8-cff5-4bf3-9583-b78ee58c2d43","system_id":"levelo_inurba_marseille","lat":43.25501,"lon":5.37649,"is_reserved":false,"is_disabled":false,"rental_uris":{"android":"levelo://app?vid=f175a4a8-cff5-4bf3-9583-b78ee58c2d43","ios":"levelo://app?vid=f175a4a8-cff5-4bf3-9583-b78ee58c2d43"},"vehicle_type_id":"4","last_reported":1756214762,"current_range_meters":14000,"station_id":"ce4bhh12rcd13ifvqff0","pricing_plan_id":"cebpf4jnsgd1na2vs0mg"},{"bike_id":"e0d03284-cbc7-4fee-8cb9-9d762d405c69","system_id":"levelo_inurba_marseille","lat":43.273801,"lon":5.362556,"is_reserved":false,"is_disabled":false,"rental_uris":{"android":"levelo://app?vid=e0d03284-cbc7-4fee-8cb9-9d762d405c69","ios":"levelo://app?vid=e0d03284-cbc7-4fee-8cb9-9d762d405c69"},"vehicle_type_id":"4","last_reported":1756214762,"current_range_meters":14000,"station_id":"ce4bhbh2rcd13ifvqeo0","pricing_plan_id":"cebpf4jnsgd1na2vs0mg"},{"bike_id":"1981ee1b-b2b0-4273-beed-4cd83ca5ba47","system_id":"levelo_inurba_marseille","lat":43.29309,"lon":5.37188,"is_reserved":false,"is_disabled":false,"rental_uris":{"android":"levelo://app?vid=1981ee1b-b2b0-4273-beed-4cd83ca5ba47","ios":"levelo://app?vid=1981ee1b-b2b0-4273-beed-4cd83ca5ba47"},"vehicle_type_id":"4","last_reported":1756214762,"current_range_meters":14000,"station_id":"ce4bgh92rcd13ifvqb40","pricing_plan_id":"cebpf4jnsgd1na2vs0mg"},{"bike_id":"c47b2876-c564-417f-9d7f-97cdd2f94270","system_id":"levelo_inurba_marseille","lat":43.24171,"lon":5.36393,"is_reserved":false,"is_disabled":false,"rental_uris":{"android":"levelo://app?vid=c47b2876-c564-417f-9d7f-97cdd2f94270","ios":"levelo://app?vid=c47b2876-c564-417f-9d7f-97cdd2f94270"},"vehicle_type_id":"4","last_reported":1756214762,"current_range_meters":14000,"station_id":"cpo36qri1sfpv3e86is0","pricing_plan_id":"cebpf4jnsgd1na2vs0mg"},{"bike_id":"51842e17-ef10-4624-a23e-c8a182427991","system_id":"levelo_inurba_marseille","lat":43.3162,"lon":5.38256,"is_reserved":false,"is_disabled":false,"rental_uris":{"android":"levelo://app?vid=51842e17-ef10-4624-a23e-c8a182427991","ios":"levelo://app?vid=51842e17-ef10-4624-a23e-c8a182427991"},"vehicle_type_id":"4","last_reported":1756214762,"current_range_meters":14000,"station_id":"","pricing_plan_id":"cebpf4jnsgd1na2vs0mg"},{"bike_id":"b8f80bed-a26c-4b50-aa16-73ed9b840521","system_id":"levelo_inurba_marseille","lat":43.28433,"lon":5.34994,"is_reserved":false,"is_disabled":false,"rental_uris":{"android":"levelo://app?vid=b8f80bed-a26c-4b50-aa16-73ed9b840521","ios":"levelo://app?vid=b8f80bed-a26c-4b50-aa16-73ed9b840521"},"vehicle_type_id":"4","last_reported":1756214762,"current_range_meters":14000,"station_id":"ce4bhbh2rcd13ifvqepg","pricing_plan_id":"cebpf4jnsgd1na2vs0mg"},{"bike_id":"5f9365e2-60dc-4158-a2c3-0e40911a7a32","system_id":"levelo_inurba_marseille","lat":43.33414,"lon":5.40035,"is_reserved":false,"is_disabled":false,"rental_uris":{"android":"levelo://app?vid=5f9365e2-60dc-4158-a2c3-0e40911a7a32","ios":"levelo://app?vid=5f9365e2-60dc-4158-a2c3-0e40911a7a32"},"vehicle_type_id":"4","last_reported":1756214762,"current_range_meters":14000,"station_id":"","pricing_plan_id":"cebpf4jnsgd1na2vs0mg"},{"bike_id":"eaac1ac6-6c5d-4274-970f-7bad9d177f4b","system_id":"levelo_inurba_marseille","lat":43.33776,"lon":5.37475,"is_reserved":false,"is_disabled":false,"rental_uris":{"android":"levelo://app?vid=eaac1ac6-6c5d-4274-970f-7bad9d177f4b","ios":"levelo://app?vid=eaac1ac6-6c5d-4274-970f-7bad9d177f4b"},"vehicle_type_id":"4","last_reported":1756214762,"current_range_meters":14400,"station_id":"","pricing_plan_id":"cebpf4jnsgd1na2vs0mg"},{"bike_id":"37027406-50fb-40be-aa96-1257bd2a89a6","system_id":"levelo_inurba_marseille","lat":43.23158,"lon":5.43699,"is_reserved":false,"is_disabled":false,"rental_uris":{"android":"levelo://app?vid=37027406-50fb-40be-aa96-1257bd2a89a6","ios":"levelo://app?vid=37027406-50fb-40be-aa96-1257bd2a89a6"},"vehicle_type_id":"4","last_reported":1756214762,"current_range_meters":14400,"station_id":"ce4bhmp2rcd13ifvqgog","pricing_plan_id":"cebpf4jnsgd1na2vs0mg"},{"bike_id":"a15a1c44-718b-407d-acaa-0383628c87d7","system_id":"levelo_inurba_marseille","lat":43.32696,"lon":5.39202,"is_reserved":false,"is_disabled":false,"rental_uris":{"android":"levelo://app?vid=a15a1c44-718b-407d-acaa-0383628c87d7","ios":"levelo://app?vid=a15a1c44-718b-407d-acaa-0383628c87d7"},"vehicle_type_id":"4","last_reported":1756214762,"current_range_meters":14400,"station_id":"","pricing_plan_id":"cebpf4jnsgd1na2vs0mg"},{"bike_id":"f8d714df-0fbd-4c44-a8ff-1115ab398f4d","system_id":"levelo_inurba_marseille","lat":43.211886,"lon":5.350728,"is_reserved":false,"is_disabled":false,"rental_uris":{"android":"levelo://app?vid=f8d714df-0fbd-4c44-a8ff-1115ab398f4d","ios":"levelo://app?vid=f8d714df-0fbd-4c44-a8ff-1115ab398f4d"},"vehicle_type_id":"4","last_reported":1756214762,"current_range_meters":14400,"station_id":"","pricing_plan_id":"cebpf4jnsgd1na2vs0mg"},{"bike_id":"92a6daf4-52a3-4912-9963-677bd6223717","system_id":"levelo_inurba_marseille","lat":43.21188,"lon":5.3508,"is_reserved":false,"is_disabled":false,"rental_uris":{"android":"levelo://app?vid=92a6daf4-52a3-4912-9963-677bd6223717","ios":"levelo://app?vid=92a6daf4-52a3-4912-9963-677bd6223717"},"vehicle_type_id":"4","last_reported":1756214762,"current_range_meters":14400,"station_id":"st_cvj6sg6p6f1abm77japg","pricing_plan_id":"cebpf4jnsgd1na2vs0mg"},{"bike_id":"fd67696d-ef93-4fd1-be0a-8a9116cbc5b1","system_id":"levelo_inurba_marseille","lat":43.25006,"lon":5.389113,"is_reserved":false,"is_disabled":false,"rental_uris":{"android":"levelo://app?vid=fd67696d-ef93-4fd1-be0a-8a9116cbc5b1","ios":"levelo://app?vid=fd67696d-ef93-4fd1-be0a-8a9116cbc5b1"},"vehicle_type_id":"4","last_reported":1756214762,"current_range_meters":14400,"station_id":"","pricing_plan_id":"cebpf4jnsgd1na2vs0mg"},{"bike_id":"46bb9e02-33a5-4e9a-b16b-06a39fd7309b","system_id":"levelo_inurba_marseille","lat":43.27425,"lon":5.39399,"is_reserved":false,"is_disabled":false,"rental_uris":{"android":"levelo://app?vid=46bb9e02-33a5-4e9a-b16b-06a39fd7309b","ios":"levelo://app?vid=46bb9e02-33a5-4e9a-b16b-06a39fd7309b"},"vehicle_type_id":"4","last_reported":1756214762,"current_range_meters":14400,"station_id":"ce4bhdp2rcd13ifvqf20","pricing_plan_id":"cebpf4jnsgd1na2vs0mg"},{"bike_id":"1a744c20-0dcb-4f34-8748-d2837e4321a7","system_id":"levelo_inurba_marseille","lat":43.27379,"lon":5.36256,"is_reserved":false,"is_disabled":false,"rental_uris":{"android":"levelo://app?vid=1a744c20-0dcb-4f34-8748-d2837e4321a7","ios":"levelo://app?vid=1a744c20-0dcb-4f34-8748-d2837e4321a7"},"vehicle_type_id":"4","last_reported":1756214762,"current_range_meters":14400,"station_id":"ce4bhbh2rcd13ifvqeo0","pricing_plan_id":"cebpf4jnsgd1na2vs0mg"},{"bike_id":"1027bb83-a668-47de-9094-84302cb909d4","system_id":"levelo_inurba_marseille","lat":43.21204,"lon":5.35081,"is_reserved":false,"is_disabled":false,"rental_uris":{"android":"levelo://app?vid=1027bb83-a668-47de-9094-84302cb909d4","ios":"levelo://app?vid=1027bb83-a668-47de-9094-84302cb909d4"},"vehicle_type_id":"4","last_reported":1756214762,"current_range_meters":14800,"station_id":"st_cvj6sg6p6f1abm77japg","pricing_plan_id":"cebpf4jnsgd1na2vs0mg"},{"bike_id":"04d8e1df-db01-4442-a14b-54180f3354a1","system_id":"levelo_inurba_marseille","lat":43.3149,"lon":5.37306,"is_reserved":false,"is_disabled":false,"rental_uris":{"android":"levelo://app?vid=04d8e1df-db01-4442-a14b-54180f3354a1","ios":"levelo://app?vid=04d8e1df-db01-4442-a14b-54180f3354a1"},"vehicle_type_id":"4","last_reported":1756214762,"current_range_meters":14400,"station_id":"ce4bgt12rcd13ifvqcd0","pricing_plan_id":"cebpf4jnsgd1na2vs0mg"},{"bike_id":"0e256118-fe33-4307-b7cb-16c76027513c","system_id":"levelo_inurba_marseille","lat":43.240881,"lon":5.377596,"is_reserved":false,"is_disabled":false,"rental_uris":{"android":"levelo://app?vid=0e256118-fe33-4307-b7cb-16c76027513c","ios":"levelo://app?vid=0e256118-fe33-4307-b7cb-16c76027513c"},"vehicle_type_id":"4","last_reported":1756214762,"current_range_meters":14800,"station_id":"ce4bhnp2rcd13ifvqgvg","pricing_plan_id":"cebpf4jnsgd1na2vs0mg"},{"bike_id":"0843825f-6559-43f2-866a-37cadfae5689","system_id":"levelo_inurba_marseille","lat":43.2119,"lon":5.35073,"is_reserved":false,"is_disabled":false,"rental_uris":{"android":"levelo://app?vid=0843825f-6559-43f2-866a-37cadfae5689","ios":"levelo://app?vid=0843825f-6559-43f2-866a-37cadfae5689"},"vehicle_type_id":"4","last_reported":1756214762,"current_range_meters":14800,"station_id":"st_cvj6sg6p6f1abm77japg","pricing_plan_id":"cebpf4jnsgd1na2vs0mg"},{"bike_id":"f50e029c-78e4-4943-96e6-f587e062386c","system_id":"levelo_inurba_marseille","lat":43.31711,"lon":5.42406,"is_reserved":false,"is_disabled":false,"rental_uris":{"android":"levelo://app?vid=f50e029c-78e4-4943-96e6-f587e062386c","ios":"levelo://app?vid=f50e029c-78e4-4943-96e6-f587e062386c"},"vehicle_type_id":"4","last_reported":1756214762,"current_range_meters":14800,"station_id":"ce4bhp92rcd13ifvqhbg","pricing_plan_id":"cebpf4jnsgd1na2vs0mg"},{"bike_id":"6b1d6cf2-1d53-4fa4-893f-38ad077623c5","system_id":"levelo_inurba_marseille","lat":43.30149,"lon":5.37425,"is_reserved":false,"is_disabled":false,"rental_uris":{"android":"levelo://app?vid=6b1d6cf2-1d53-4fa4-893f-38ad077623c5","ios":"levelo://app?vid=6b1d6cf2-1d53-4fa4-893f-38ad077623c5"},"vehicle_type_id":"4","last_reported":1756214762,"current_range_meters":15200,"station_id":"ce4bgs92rcd13ifvqcc0","pricing_plan_id":"cebpf4jnsgd1na2vs0mg"},{"bike_id":"108b622f-741f-46bc-a63e-f53025af3542","system_id":"levelo_inurba_marseille","lat":43.23964,"lon":5.36652,"is_reserved":false,"is_disabled":false,"rental_uris":{"android":"levelo://app?vid=108b622f-741f-46bc-a63e-f53025af3542","ios":"levelo://app?vid=108b622f-741f-46bc-a63e-f53025af3542"},"vehicle_type_id":"4","last_reported":1756214762,"current_range_meters":15200,"station_id":"ce4bhi12rcd13ifvqfp0","pricing_plan_id":"cebpf4jnsgd1na2vs0mg"},{"bike_id":"026e3973-93d1-4c5c-ae15-8b22641bac68","system_id":"levelo_inurba_marseille","lat":43.28636,"lon":5.35079,"is_reserved":false,"is_disabled":false,"rental_uris":{"android":"levelo://app?vid=026e3973-93d1-4c5c-ae15-8b22641bac68","ios":"levelo://app?vid=026e3973-93d1-4c5c-ae15-8b22641bac68"},"vehicle_type_id":"4","last_reported":1756214762,"current_range_meters":15200,"station_id":"ce4bhch2rcd13ifvqeug","pricing_plan_id":"cebpf4jnsgd1na2vs0mg"},{"bike_id":"89bb2efc-5c45-48e0-b659-b8ecb63211d5","system_id":"levelo_inurba_marseille","lat":43.298,"lon":5.39347,"is_reserved":false,"is_disabled":false,"rental_uris":{"android":"levelo://app?vid=89bb2efc-5c45-48e0-b659-b8ecb63211d5","ios":"levelo://app?vid=89bb2efc-5c45-48e0-b659-b8ecb63211d5"},"vehicle_type_id":"4","last_reported":1756214762,"current_range_meters":15200,"station_id":"chh1huq6cuj3fo74tm60","pricing_plan_id":"cebpf4jnsgd1na2vs0mg"},{"bike_id":"af732ca8-2cea-448a-9928-59e03d12656f","system_id":"levelo_inurba_marseille","lat":43.33567,"lon":5.3589,"is_reserved":false,"is_disabled":false,"rental_uris":{"android":"levelo://app?vid=af732ca8-2cea-448a-9928-59e03d12656f","ios":"levelo://app?vid=af732ca8-2cea-448a-9928-59e03d12656f"},"vehicle_type_id":"4","last_reported":1756214762,"current_range_meters":15200,"station_id":"","pricing_plan_id":"cebpf4jnsgd1na2vs0mg"},{"bike_id":"db7d3d83-f39a-4469-8445-29697e69fec4","system_id":"levelo_inurba_marseille","lat":43.322261,"lon":5.38568,"is_reserved":false,"is_disabled":false,"rental_uris":{"android":"levelo://app?vid=db7d3d83-f39a-4469-8445-29697e69fec4","ios":"levelo://app?vid=db7d3d83-f39a-4469-8445-29697e69fec4"},"vehicle_type_id":"4","last_reported":1756214762,"current_range_meters":15200,"station_id":"","pricing_plan_id":"cebpf4jnsgd1na2vs0mg"},{"bike_id":"b243651b-cb07-42ce-afd0-8c676d14595c","system_id":"levelo_inurba_marseille","lat":43.25007,"lon":5.3893,"is_reserved":false,"is_disabled":false,"rental_uris":{"android":"levelo://app?vid=b243651b-cb07-42ce-afd0-8c676d14595c","ios":"levelo://app?vid=b243651b-cb07-42ce-afd0-8c676d14595c"},"vehicle_type_id":"4","last_reported":1756214762,"current_range_meters":16000,"station_id":"ce4bhgp2rcd13ifvqfd0","pricing_plan_id":"cebpf4jnsgd1na2vs0mg"},{"bike_id":"cb1f85ac-5769-43f5-bf19-3844a717c5b6","system_id":"levelo_inurba_marseille","lat":43.28426,"lon":5.37504,"is_reserved":false,"is_disabled":false,"rental_uris":{"android":"levelo://app?vid=cb1f85ac-5769-43f5-bf19-3844a717c5b6","ios":"levelo://app?vid=cb1f85ac-5769-43f5-bf19-3844a717c5b6"},"vehicle_type_id":"4","last_reported":1756214762,"current_range_meters":16000,"station_id":"ce4bh412rcd13ifvqds0","pricing_plan_id":"cebpf4jnsgd1na2vs0mg"},{"bike_id":"74523b34-01fd-46a1-bd19-98b1b8aa81ed","system_id":"levelo_inurba_marseille","lat":43.30421,"lon":5.41279,"is_reserved":false,"is_disabled":false,"rental_uris":{"android":"levelo://app?vid=74523b34-01fd-46a1-bd19-98b1b8aa81ed","ios":"levelo://app?vid=74523b34-01fd-46a1-bd19-98b1b8aa81ed"},"vehicle_type_id":"4","last_reported":1756214762,"current_range_meters":16000,"station_id":"ce4bhop2rcd13ifvqh8g","pricing_plan_id":"cebpf4jnsgd1na2vs0mg"},{"bike_id":"977df7ca-21e9-43e2-ade8-22de20bad5aa","system_id":"levelo_inurba_marseille","lat":43.26206,"lon":5.37449,"is_reserved":false,"is_disabled":false,"rental_uris":{"android":"levelo://app?vid=977df7ca-21e9-43e2-ade8-22de20bad5aa","ios":"levelo://app?vid=977df7ca-21e9-43e2-ade8-22de20bad5aa"},"vehicle_type_id":"4","last_reported":1756214762,"current_range_meters":16000,"station_id":"ce4bhgp2rcd13ifvqfc0","pricing_plan_id":"cebpf4jnsgd1na2vs0mg"},{"bike_id":"444185a1-99b2-4724-a588-1f691746c053","system_id":"levelo_inurba_marseille","lat":43.270721,"lon":5.422783,"is_reserved":false,"is_disabled":false,"rental_uris":{"android":"levelo://app?vid=444185a1-99b2-4724-a588-1f691746c053","ios":"levelo://app?vid=444185a1-99b2-4724-a588-1f691746c053"},"vehicle_type_id":"4","last_reported":1756214762,"current_range_meters":16000,"station_id":"ce4bhk92rcd13ifvqgb0","pricing_plan_id":"cebpf4jnsgd1na2vs0mg"},{"bike_id":"84d12ccb-6366-409a-bb47-44f6ad184127","system_id":"levelo_inurba_marseille","lat":43.312083,"lon":5.368905,"is_reserved":false,"is_disabled":false,"rental_uris":{"android":"levelo://app?vid=84d12ccb-6366-409a-bb47-44f6ad184127","ios":"levelo://app?vid=84d12ccb-6366-409a-bb47-44f6ad184127"},"vehicle_type_id":"4","last_reported":1756214762,"current_range_meters":16000,"station_id":"ce4bgl92rcd13ifvqbq0","pricing_plan_id":"cebpf4jnsgd1na2vs0mg"},{"bike_id":"5ea5de96-ab5a-4443-984f-50a4d21f7918","system_id":"levelo_inurba_marseille","lat":43.30891,"lon":5.37188,"is_reserved":false,"is_disabled":false,"rental_uris":{"android":"levelo://app?vid=5ea5de96-ab5a-4443-984f-50a4d21f7918","ios":"levelo://app?vid=5ea5de96-ab5a-4443-984f-50a4d21f7918"},"vehicle_type_id":"4","last_reported":1756214762,"current_range_meters":16000,"station_id":"ce4bguh2rcd13ifvqckg","pricing_plan_id":"cebpf4jnsgd1na2vs0mg"},{"bike_id":"70da21d6-59bc-4110-9660-375f7695dd04","system_id":"levelo_inurba_marseille","lat":43.23962,"lon":5.36637,"is_reserved":false,"is_disabled":false,"rental_uris":{"android":"levelo://app?vid=70da21d6-59bc-4110-9660-375f7695dd04","ios":"levelo://app?vid=70da21d6-59bc-4110-9660-375f7695dd04"},"vehicle_type_id":"4","last_reported":1756214762,"current_range_meters":16000,"station_id":"ce4bhi12rcd13ifvqfp0","pricing_plan_id":"cebpf4jnsgd1na2vs0mg"},{"bike_id":"974ad24a-ebe3-4eaf-93e5-d979d93ceb49","system_id":"levelo_inurba_marseille","lat":43.30537,"lon":5.3654,"is_reserved":false,"is_disabled":false,"rental_uris":{"android":"levelo://app?vid=974ad24a-ebe3-4eaf-93e5-d979d93ceb49","ios":"levelo://app?vid=974ad24a-ebe3-4eaf-93e5-d979d93ceb49"},"vehicle_type_id":"4","last_reported":1756214762,"current_range_meters":16000,"station_id":"ce4bgs12rcd13ifvqcag","pricing_plan_id":"cebpf4jnsgd1na2vs0mg"},{"bike_id":"213bbb59-dfc7-46e4-be72-3b88dbb14919","system_id":"levelo_inurba_marseille","lat":43.26059,"lon":5.39399,"is_reserved":false,"is_disabled":false,"rental_uris":{"android":"levelo://app?vid=213bbb59-dfc7-46e4-be72-3b88dbb14919","ios":"levelo://app?vid=213bbb59-dfc7-46e4-be72-3b88dbb14919"},"vehicle_type_id":"4","last_reported":1756214762,"current_range_meters":15200,"station_id":"ce4bhh92rcd13ifvqfj0","pricing_plan_id":"cebpf4jnsgd1na2vs0mg"},{"bike_id":"777a8c83-aed8-4881-84b6-34465956e738","system_id":"levelo_inurba_marseille","lat":43.257501,"lon":5.410048,"is_reserved":false,"is_disabled":false,"rental_uris":{"android":"levelo://app?vid=777a8c83-aed8-4881-84b6-34465956e738","ios":"levelo://app?vid=777a8c83-aed8-4881-84b6-34465956e738"},"vehicle_type_id":"4","last_reported":1756214762,"current_range_meters":16000,"station_id":"","pricing_plan_id":"cebpf4jnsgd1na2vs0mg"},{"bike_id":"507bfa7a-77ad-4faf-874f-5e94ad334f53","system_id":"levelo_inurba_marseille","lat":43.23153,"lon":5.40013,"is_reserved":false,"is_disabled":false,"rental_uris":{"android":"levelo://app?vid=507bfa7a-77ad-4faf-874f-5e94ad334f53","ios":"levelo://app?vid=507bfa7a-77ad-4faf-874f-5e94ad334f53"},"vehicle_type_id":"4","last_reported":1756214762,"current_range_meters":16000,"station_id":"ce4bhn12rcd13ifvqgqg","pricing_plan_id":"cebpf4jnsgd1na2vs0mg"},{"bike_id":"a43c5a5d-8106-498f-8685-7ce430cf0cff","system_id":"levelo_inurba_marseille","lat":43.30786,"lon":5.37634,"is_reserved":false,"is_disabled":false,"rental_uris":{"android":"levelo://app?vid=a43c5a5d-8106-498f-8685-7ce430cf0cff","ios":"levelo://app?vid=a43c5a5d-8106-498f-8685-7ce430cf0cff"},"vehicle_type_id":"4","last_reported":1756214762,"current_range_meters":16400,"station_id":"ce4bgv92rcd13ifvqcq0","pricing_plan_id":"cebpf4jnsgd1na2vs0mg"},{"bike_id":"070c5c08-8102-4233-9aa2-6dc44cc7988e","system_id":"levelo_inurba_marseille","lat":43.3029,"lon":5.38411,"is_reserved":false,"is_disabled":false,"rental_uris":{"android":"levelo://app?vid=070c5c08-8102-4233-9aa2-6dc44cc7988e","ios":"levelo://app?vid=070c5c08-8102-4233-9aa2-6dc44cc7988e"},"vehicle_type_id":"4","last_reported":1756214762,"current_range_meters":16400,"station_id":"","pricing_plan_id":"cebpf4jnsgd1na2vs0mg"},{"bike_id":"0988fa91-9cc7-4f9a-af6e-fc691961b1a8","system_id":"levelo_inurba_marseille","lat":43.25504,"lon":5.37653,"is_reserved":false,"is_disabled":false,"rental_uris":{"android":"levelo://app?vid=0988fa91-9cc7-4f9a-af6e-fc691961b1a8","ios":"levelo://app?vid=0988fa91-9cc7-4f9a-af6e-fc691961b1a8"},"vehicle_type_id":"4","last_reported":1756214762,"current_range_meters":16400,"station_id":"ce4bhh12rcd13ifvqff0","pricing_plan_id":"cebpf4jnsgd1na2vs0mg"},{"bike_id":"826f9c0a-980b-43d8-bf4c-e43d77c221ed","system_id":"levelo_inurba_marseille","lat":43.23185,"lon":5.39989,"is_reserved":false,"is_disabled":false,"rental_uris":{"android":"levelo://app?vid=826f9c0a-980b-43d8-bf4c-e43d77c221ed","ios":"levelo://app?vid=826f9c0a-980b-43d8-bf4c-e43d77c221ed"},"vehicle_type_id":"4","last_reported":1756214762,"current_range_meters":16400,"station_id":"ce4bhn12rcd13ifvqgqg","pricing_plan_id":"cebpf4jnsgd1na2vs0mg"},{"bike_id":"f0400c37-c7f6-4929-b1ac-d92430ff6f2d","system_id":"levelo_inurba_marseille","lat":43.27541,"lon":5.39671,"is_reserved":false,"is_disabled":false,"rental_uris":{"android":"levelo://app?vid=f0400c37-c7f6-4929-b1ac-d92430ff6f2d","ios":"levelo://app?vid=f0400c37-c7f6-4929-b1ac-d92430ff6f2d"},"vehicle_type_id":"4","last_reported":1756214762,"current_range_meters":16400,"station_id":"","pricing_plan_id":"cebpf4jnsgd1na2vs0mg"},{"bike_id":"5bce688b-fc81-4596-8277-b66f54be87c1","system_id":"levelo_inurba_marseille","lat":43.33768,"lon":5.37438,"is_reserved":false,"is_disabled":false,"rental_uris":{"android":"levelo://app?vid=5bce688b-fc81-4596-8277-b66f54be87c1","ios":"levelo://app?vid=5bce688b-fc81-4596-8277-b66f54be87c1"},"vehicle_type_id":"4","last_reported":1756214762,"current_range_meters":16400,"station_id":"","pricing_plan_id":"cebpf4jnsgd1na2vs0mg"},{"bike_id":"ac684350-3014-45f3-875d-af933fb50867","system_id":"levelo_inurba_marseille","lat":43.26212,"lon":5.37485,"is_reserved":false,"is_disabled":true,"rental_uris":{"android":"levelo://app?vid=ac684350-3014-45f3-875d-af933fb50867","ios":"levelo://app?vid=ac684350-3014-45f3-875d-af933fb50867"},"vehicle_type_id":"4","last_reported":1756214762,"current_range_meters":16400,"station_id":"ce4bhgp2rcd13ifvqfc0","pricing_plan_id":"cebpf4jnsgd1na2vs0mg"},{"bike_id":"1d985a38-4220-4dcb-a7e7-5a5e28a72995","system_id":"levelo_inurba_marseille","lat":43.30279,"lon":5.37709,"is_reserved":false,"is_disabled":false,"rental_uris":{"android":"levelo://app?vid=1d985a38-4220-4dcb-a7e7-5a5e28a72995","ios":"levelo://app?vid=1d985a38-4220-4dcb-a7e7-5a5e28a72995"},"vehicle_type_id":"4","last_reported":1756214762,"current_range_meters":16400,"station_id":"ce4bguh2rcd13ifvqcj0","pricing_plan_id":"cebpf4jnsgd1na2vs0mg"},{"bike_id":"e55c5166-258e-4ef1-8bb0-61c40d73cb1f","system_id":"levelo_inurba_marseille","lat":43.28415,"lon":5.34995,"is_reserved":false,"is_disabled":false,"rental_uris":{"android":"levelo://app?vid=e55c5166-258e-4ef1-8bb0-61c40d73cb1f","ios":"levelo://app?vid=e55c5166-258e-4ef1-8bb0-61c40d73cb1f"},"vehicle_type_id":"4","last_reported":1756214762,"current_range_meters":16400,"station_id":"ce4bhbh2rcd13ifvqepg","pricing_plan_id":"cebpf4jnsgd1na2vs0mg"},{"bike_id":"18759b6c-377b-4e45-bc99-be40ff74842c","system_id":"levelo_inurba_marseille","lat":43.23823,"lon":5.36379,"is_reserved":false,"is_disabled":false,"rental_uris":{"android":"levelo://app?vid=18759b6c-377b-4e45-bc99-be40ff74842c","ios":"levelo://app?vid=18759b6c-377b-4e45-bc99-be40ff74842c"},"vehicle_type_id":"4","last_reported":1756214762,"current_range_meters":16400,"station_id":"","pricing_plan_id":"cebpf4jnsgd1na2vs0mg"},{"bike_id":"2484822f-51d8-4cf0-954c-3beadc49056b","system_id":"levelo_inurba_marseille","lat":43.28451,"lon":5.34901,"is_reserved":false,"is_disabled":false,"rental_uris":{"android":"levelo://app?vid=2484822f-51d8-4cf0-954c-3beadc49056b","ios":"levelo://app?vid=2484822f-51d8-4cf0-954c-3beadc49056b"},"vehicle_type_id":"4","last_reported":1756214762,"current_range_meters":16400,"station_id":"","pricing_plan_id":"cebpf4jnsgd1na2vs0mg"},{"bike_id":"af744081-2681-4d1e-9525-a9843cca33d2","system_id":"levelo_inurba_marseille","lat":43.32557,"lon":5.36466,"is_reserved":false,"is_disabled":false,"rental_uris":{"android":"levelo://app?vid=af744081-2681-4d1e-9525-a9843cca33d2","ios":"levelo://app?vid=af744081-2681-4d1e-9525-a9843cca33d2"},"vehicle_type_id":"4","last_reported":1756214762,"current_range_meters":16400,"station_id":"","pricing_plan_id":"cebpf4jnsgd1na2vs0mg"},{"bike_id":"0979c739-5f5a-42e4-8b4d-5606fa5e28ec","system_id":"levelo_inurba_marseille","lat":43.21752,"lon":5.34598,"is_reserved":false,"is_disabled":false,"rental_uris":{"android":"levelo://app?vid=0979c739-5f5a-42e4-8b4d-5606fa5e28ec","ios":"levelo://app?vid=0979c739-5f5a-42e4-8b4d-5606fa5e28ec"},"vehicle_type_id":"4","last_reported":1756214762,"current_range_meters":16400,"station_id":"st_cvj6r9ubvosntc0bgbag","pricing_plan_id":"cebpf4jnsgd1na2vs0mg"},{"bike_id":"4fc0d636-130b-4784-b54f-8e669b16fbd9","system_id":"levelo_inurba_marseille","lat":43.32486,"lon":5.36568,"is_reserved":false,"is_disabled":false,"rental_uris":{"android":"levelo://app?vid=4fc0d636-130b-4784-b54f-8e669b16fbd9","ios":"levelo://app?vid=4fc0d636-130b-4784-b54f-8e669b16fbd9"},"vehicle_type_id":"4","last_reported":1756214762,"current_range_meters":16800,"station_id":"ce4bhs12rcd13ifvqhvg","pricing_plan_id":"cebpf4jnsgd1na2vs0mg"},{"bike_id":"ea0489a1-031a-49db-9ae6-27ec4920f2dc","system_id":"levelo_inurba_marseille","lat":43.23184,"lon":5.39983,"is_reserved":false,"is_disabled":false,"rental_uris":{"android":"levelo://app?vid=ea0489a1-031a-49db-9ae6-27ec4920f2dc","ios":"levelo://app?vid=ea0489a1-031a-49db-9ae6-27ec4920f2dc"},"vehicle_type_id":"4","last_reported":1756214762,"current_range_meters":16800,"station_id":"ce4bhn12rcd13ifvqgqg","pricing_plan_id":"cebpf4jnsgd1na2vs0mg"},{"bike_id":"f9c4b729-fc58-4ca3-bbe4-58dd3a8925e3","system_id":"levelo_inurba_marseille","lat":43.28618,"lon":5.35102,"is_reserved":false,"is_disabled":false,"rental_uris":{"android":"levelo://app?vid=f9c4b729-fc58-4ca3-bbe4-58dd3a8925e3","ios":"levelo://app?vid=f9c4b729-fc58-4ca3-bbe4-58dd3a8925e3"},"vehicle_type_id":"4","last_reported":1756214762,"current_range_meters":16800,"station_id":"ce4bhch2rcd13ifvqeug","pricing_plan_id":"cebpf4jnsgd1na2vs0mg"},{"bike_id":"f20d33e7-7322-492b-a458-228c763f42cf","system_id":"levelo_inurba_marseille","lat":43.28415,"lon":5.35004,"is_reserved":false,"is_disabled":false,"rental_uris":{"android":"levelo://app?vid=f20d33e7-7322-492b-a458-228c763f42cf","ios":"levelo://app?vid=f20d33e7-7322-492b-a458-228c763f42cf"},"vehicle_type_id":"4","last_reported":1756214762,"current_range_meters":16800,"station_id":"ce4bhbh2rcd13ifvqepg","pricing_plan_id":"cebpf4jnsgd1na2vs0mg"},{"bike_id":"98cf9e01-34c4-4d06-a586-be9f0b75c3d4","system_id":"levelo_inurba_marseille","lat":43.29262,"lon":5.38445,"is_reserved":false,"is_disabled":false,"rental_uris":{"android":"levelo://app?vid=98cf9e01-34c4-4d06-a586-be9f0b75c3d4","ios":"levelo://app?vid=98cf9e01-34c4-4d06-a586-be9f0b75c3d4"},"vehicle_type_id":"4","last_reported":1756214762,"current_range_meters":16800,"station_id":"ce4bh692rcd13ifvqea0","pricing_plan_id":"cebpf4jnsgd1na2vs0mg"},{"bike_id":"090c3fa3-f0e9-4591-9145-76b67868dcf3","system_id":"levelo_inurba_marseille","lat":43.28273,"lon":5.35075,"is_reserved":false,"is_disabled":false,"rental_uris":{"android":"levelo://app?vid=090c3fa3-f0e9-4591-9145-76b67868dcf3","ios":"levelo://app?vid=090c3fa3-f0e9-4591-9145-76b67868dcf3"},"vehicle_type_id":"4","last_reported":1756214762,"current_range_meters":17200,"station_id":"ce4bhbp2rcd13ifvqerg","pricing_plan_id":"cebpf4jnsgd1na2vs0mg"},{"bike_id":"91e2f3be-19b5-4aea-8c69-4b59eaea104f","system_id":"levelo_inurba_marseille","lat":43.28614,"lon":5.35106,"is_reserved":false,"is_disabled":false,"rental_uris":{"android":"levelo://app?vid=91e2f3be-19b5-4aea-8c69-4b59eaea104f","ios":"levelo://app?vid=91e2f3be-19b5-4aea-8c69-4b59eaea104f"},"vehicle_type_id":"4","last_reported":1756214762,"current_range_meters":17200,"station_id":"ce4bhch2rcd13ifvqeug","pricing_plan_id":"cebpf4jnsgd1na2vs0mg"},{"bike_id":"baf7e9f9-45ea-4235-ae37-d9c82c198bae","system_id":"levelo_inurba_marseille","lat":43.25006,"lon":5.38932,"is_reserved":false,"is_disabled":false,"rental_uris":{"android":"levelo://app?vid=baf7e9f9-45ea-4235-ae37-d9c82c198bae","ios":"levelo://app?vid=baf7e9f9-45ea-4235-ae37-d9c82c198bae"},"vehicle_type_id":"4","last_reported":1756214762,"current_range_meters":17200,"station_id":"ce4bhgp2rcd13ifvqfd0","pricing_plan_id":"cebpf4jnsgd1na2vs0mg"},{"bike_id":"8e745973-6166-412c-a3b3-303f242a098e","system_id":"levelo_inurba_marseille","lat":43.29626,"lon":5.4059,"is_reserved":false,"is_disabled":false,"rental_uris":{"android":"levelo://app?vid=8e745973-6166-412c-a3b3-303f242a098e","ios":"levelo://app?vid=8e745973-6166-412c-a3b3-303f242a098e"},"vehicle_type_id":"4","last_reported":1756214762,"current_range_meters":17600,"station_id":"ce4bh0h2rcd13ifvqd60","pricing_plan_id":"cebpf4jnsgd1na2vs0mg"},{"bike_id":"2ed2310f-9f3d-454e-883e-7ba7d15f3e5f","system_id":"levelo_inurba_marseille","lat":43.31178,"lon":5.3872,"is_reserved":false,"is_disabled":false,"rental_uris":{"android":"levelo://app?vid=2ed2310f-9f3d-454e-883e-7ba7d15f3e5f","ios":"levelo://app?vid=2ed2310f-9f3d-454e-883e-7ba7d15f3e5f"},"vehicle_type_id":"4","last_reported":1756214762,"current_range_meters":17600,"station_id":"ce4bgv12rcd13ifvqcp0","pricing_plan_id":"cebpf4jnsgd1na2vs0mg"},{"bike_id":"0306ba73-3d0f-4523-9d11-9a4554b2d8ff","system_id":"levelo_inurba_marseille","lat":43.21201,"lon":5.35063,"is_reserved":false,"is_disabled":false,"rental_uris":{"android":"levelo://app?vid=0306ba73-3d0f-4523-9d11-9a4554b2d8ff","ios":"levelo://app?vid=0306ba73-3d0f-4523-9d11-9a4554b2d8ff"},"vehicle_type_id":"4","last_reported":1756214762,"current_range_meters":17600,"station_id":"st_cvj6sg6p6f1abm77japg","pricing_plan_id":"cebpf4jnsgd1na2vs0mg"},{"bike_id":"cd822ebe-8d01-44f2-b9e8-1f0b3a981bae","system_id":"levelo_inurba_marseille","lat":43.28866,"lon":5.35828,"is_reserved":false,"is_disabled":true,"rental_uris":{"android":"levelo://app?vid=cd822ebe-8d01-44f2-b9e8-1f0b3a981bae","ios":"levelo://app?vid=cd822ebe-8d01-44f2-b9e8-1f0b3a981bae"},"vehicle_type_id":"4","last_reported":1756214762,"current_range_meters":17600,"station_id":"ce4bhb12rcd13ifvqem0","pricing_plan_id":"cebpf4jnsgd1na2vs0mg"},{"bike_id":"05b33747-456b-4ff0-9890-c01e7ca0a562","system_id":"levelo_inurba_marseille","lat":43.2985,"lon":5.36287,"is_reserved":false,"is_disabled":false,"rental_uris":{"android":"levelo://app?vid=05b33747-456b-4ff0-9890-c01e7ca0a562","ios":"levelo://app?vid=05b33747-456b-4ff0-9890-c01e7ca0a562"},"vehicle_type_id":"4","last_reported":1756214762,"current_range_meters":17600,"station_id":"ce4bgpp2rcd13ifvqc3g","pricing_plan_id":"cebpf4jnsgd1na2vs0mg"},{"bike_id":"be00e296-420d-411a-933e-59cf249e8cad","system_id":"levelo_inurba_marseille","lat":43.21265,"lon":5.35278,"is_reserved":false,"is_disabled":false,"rental_uris":{"android":"levelo://app?vid=be00e296-420d-411a-933e-59cf249e8cad","ios":"levelo://app?vid=be00e296-420d-411a-933e-59cf249e8cad"},"vehicle_type_id":"4","last_reported":1756214762,"current_range_meters":17600,"station_id":"","pricing_plan_id":"cebpf4jnsgd1na2vs0mg"},{"bike_id":"40c1fb45-9550-4904-9c4b-5647cd1299ba","system_id":"levelo_inurba_marseille","lat":43.21191,"lon":5.35052,"is_reserved":false,"is_disabled":false,"rental_uris":{"android":"levelo://app?vid=40c1fb45-9550-4904-9c4b-5647cd1299ba","ios":"levelo://app?vid=40c1fb45-9550-4904-9c4b-5647cd1299ba"},"vehicle_type_id":"4","last_reported":1756214762,"current_range_meters":18000,"station_id":"st_cvj6sg6p6f1abm77japg","pricing_plan_id":"cebpf4jnsgd1na2vs0mg"},{"bike_id":"ef90c9be-6ba9-4f31-8e32-f87ba869c1fc","system_id":"levelo_inurba_marseille","lat":43.26555,"lon":5.37285,"is_reserved":false,"is_disabled":false,"rental_uris":{"android":"levelo://app?vid=ef90c9be-6ba9-4f31-8e32-f87ba869c1fc","ios":"levelo://app?vid=ef90c9be-6ba9-4f31-8e32-f87ba869c1fc"},"vehicle_type_id":"4","last_reported":1756214762,"current_range_meters":18000,"station_id":"ce4bhg12rcd13ifvqf70","pricing_plan_id":"cebpf4jnsgd1na2vs0mg"},{"bike_id":"248bf14d-378d-4e2f-9999-982acfdf56f9","system_id":"levelo_inurba_marseille","lat":43.28451,"lon":5.34928,"is_reserved":false,"is_disabled":false,"rental_uris":{"android":"levelo://app?vid=248bf14d-378d-4e2f-9999-982acfdf56f9","ios":"levelo://app?vid=248bf14d-378d-4e2f-9999-982acfdf56f9"},"vehicle_type_id":"4","last_reported":1756214762,"current_range_meters":18000,"station_id":"ce4bhbh2rcd13ifvqepg","pricing_plan_id":"cebpf4jnsgd1na2vs0mg"},{"bike_id":"92537c29-0d6f-4fd8-bbe3-fd71a708ea75","system_id":"levelo_inurba_marseille","lat":43.2847,"lon":5.38413,"is_reserved":false,"is_disabled":false,"rental_uris":{"android":"levelo://app?vid=92537c29-0d6f-4fd8-bbe3-fd71a708ea75","ios":"levelo://app?vid=92537c29-0d6f-4fd8-bbe3-fd71a708ea75"},"vehicle_type_id":"4","last_reported":1756214762,"current_range_meters":18000,"station_id":"ce4bh512rcd13ifvqe3g","pricing_plan_id":"cebpf4jnsgd1na2vs0mg"},{"bike_id":"3dff11d5-3872-4ffe-8cce-b5631d6c6058","system_id":"levelo_inurba_marseille","lat":43.32681,"lon":5.39225,"is_reserved":false,"is_disabled":false,"rental_uris":{"android":"levelo://app?vid=3dff11d5-3872-4ffe-8cce-b5631d6c6058","ios":"levelo://app?vid=3dff11d5-3872-4ffe-8cce-b5631d6c6058"},"vehicle_type_id":"4","last_reported":1756214762,"current_range_meters":18000,"station_id":"","pricing_plan_id":"cebpf4jnsgd1na2vs0mg"},{"bike_id":"a78c16ad-366d-4781-aac7-605a2fd3997b","system_id":"levelo_inurba_marseille","lat":43.284206,"lon":5.349892,"is_reserved":false,"is_disabled":false,"rental_uris":{"android":"levelo://app?vid=a78c16ad-366d-4781-aac7-605a2fd3997b","ios":"levelo://app?vid=a78c16ad-366d-4781-aac7-605a2fd3997b"},"vehicle_type_id":"4","last_reported":1756214762,"current_range_meters":18000,"station_id":"ce4bhbh2rcd13ifvqepg","pricing_plan_id":"cebpf4jnsgd1na2vs0mg"},{"bike_id":"84595ff3-fa78-4239-8881-4f84dc9a165e","system_id":"levelo_inurba_marseille","lat":43.33607,"lon":5.41036,"is_reserved":false,"is_disabled":false,"rental_uris":{"android":"levelo://app?vid=84595ff3-fa78-4239-8881-4f84dc9a165e","ios":"levelo://app?vid=84595ff3-fa78-4239-8881-4f84dc9a165e"},"vehicle_type_id":"4","last_reported":1756214762,"current_range_meters":18000,"station_id":"ce4bhqh2rcd13ifvqhmg","pricing_plan_id":"cebpf4jnsgd1na2vs0mg"},{"bike_id":"dce64f74-02ff-4382-b0b2-2575a1a14e5f","system_id":"levelo_inurba_marseille","lat":43.28278,"lon":5.35081,"is_reserved":false,"is_disabled":false,"rental_uris":{"android":"levelo://app?vid=dce64f74-02ff-4382-b0b2-2575a1a14e5f","ios":"levelo://app?vid=dce64f74-02ff-4382-b0b2-2575a1a14e5f"},"vehicle_type_id":"4","last_reported":1756214762,"current_range_meters":18800,"station_id":"ce4bhbp2rcd13ifvqerg","pricing_plan_id":"cebpf4jnsgd1na2vs0mg"},{"bike_id":"fbf0e9b4-0244-4455-89e8-bb336b1646cf","system_id":"levelo_inurba_marseille","lat":43.23184,"lon":5.39992,"is_reserved":false,"is_disabled":false,"rental_uris":{"android":"levelo://app?vid=fbf0e9b4-0244-4455-89e8-bb336b1646cf","ios":"levelo://app?vid=fbf0e9b4-0244-4455-89e8-bb336b1646cf"},"vehicle_type_id":"4","last_reported":1756214762,"current_range_meters":18800,"station_id":"ce4bhn12rcd13ifvqgqg","pricing_plan_id":"cebpf4jnsgd1na2vs0mg"},{"bike_id":"abaf99ca-5823-4460-ba5c-ff01280743d0","system_id":"levelo_inurba_marseille","lat":43.27067,"lon":5.42281,"is_reserved":false,"is_disabled":false,"rental_uris":{"android":"levelo://app?vid=abaf99ca-5823-4460-ba5c-ff01280743d0","ios":"levelo://app?vid=abaf99ca-5823-4460-ba5c-ff01280743d0"},"vehicle_type_id":"4","last_reported":1756214762,"current_range_meters":18800,"station_id":"ce4bhk92rcd13ifvqgb0","pricing_plan_id":"cebpf4jnsgd1na2vs0mg"},{"bike_id":"4dd066a3-5039-4c08-96e4-92ee4cbb306d","system_id":"levelo_inurba_marseille","lat":43.23249,"lon":5.35532,"is_reserved":false,"is_disabled":false,"rental_uris":{"android":"levelo://app?vid=4dd066a3-5039-4c08-96e4-92ee4cbb306d","ios":"levelo://app?vid=4dd066a3-5039-4c08-96e4-92ee4cbb306d"},"vehicle_type_id":"4","last_reported":1756214762,"current_range_meters":18800,"station_id":"","pricing_plan_id":"cebpf4jnsgd1na2vs0mg"},{"bike_id":"a53d899e-6e95-43dc-8d18-2c41f2eda36e","system_id":"levelo_inurba_marseille","lat":43.28271,"lon":5.35064,"is_reserved":false,"is_disabled":false,"rental_uris":{"android":"levelo://app?vid=a53d899e-6e95-43dc-8d18-2c41f2eda36e","ios":"levelo://app?vid=a53d899e-6e95-43dc-8d18-2c41f2eda36e"},"vehicle_type_id":"4","last_reported":1756214762,"current_range_meters":18800,"station_id":"ce4bhbp2rcd13ifvqerg","pricing_plan_id":"cebpf4jnsgd1na2vs0mg"},{"bike_id":"7ad2097a-7ea1-460f-83ed-a57e958e7c46","system_id":"levelo_inurba_marseille","lat":43.29986,"lon":5.36763,"is_reserved":false,"is_disabled":false,"rental_uris":{"android":"levelo://app?vid=7ad2097a-7ea1-460f-83ed-a57e958e7c46","ios":"levelo://app?vid=7ad2097a-7ea1-460f-83ed-a57e958e7c46"},"vehicle_type_id":"4","last_reported":1756214762,"current_range_meters":18800,"station_id":"","pricing_plan_id":"cebpf4jnsgd1na2vs0mg"},{"bike_id":"d5edd176-dc20-48cc-aea0-c4b4119653a3","system_id":"levelo_inurba_marseille","lat":43.28421,"lon":5.34995,"is_reserved":false,"is_disabled":false,"rental_uris":{"android":"levelo://app?vid=d5edd176-dc20-48cc-aea0-c4b4119653a3","ios":"levelo://app?vid=d5edd176-dc20-48cc-aea0-c4b4119653a3"},"vehicle_type_id":"4","last_reported":1756214762,"current_range_meters":18800,"station_id":"ce4bhbh2rcd13ifvqepg","pricing_plan_id":"cebpf4jnsgd1na2vs0mg"},{"bike_id":"96b99427-8885-496e-ab85-145187f2bdf1","system_id":"levelo_inurba_marseille","lat":43.321,"lon":5.36769,"is_reserved":false,"is_disabled":false,"rental_uris":{"android":"levelo://app?vid=96b99427-8885-496e-ab85-145187f2bdf1","ios":"levelo://app?vid=96b99427-8885-496e-ab85-145187f2bdf1"},"vehicle_type_id":"4","last_reported":1756214762,"current_range_meters":18800,"station_id":"ce4bhrh2rcd13ifvqhug","pricing_plan_id":"cebpf4jnsgd1na2vs0mg"},{"bike_id":"3efd5b4c-544b-47ae-b771-88c8225668bb","system_id":"levelo_inurba_marseille","lat":43.24167,"lon":5.36406,"is_reserved":false,"is_disabled":false,"rental_uris":{"android":"levelo://app?vid=3efd5b4c-544b-47ae-b771-88c8225668bb","ios":"levelo://app?vid=3efd5b4c-544b-47ae-b771-88c8225668bb"},"vehicle_type_id":"4","last_reported":1756214762,"current_range_meters":19200,"station_id":"cpo36qri1sfpv3e86is0","pricing_plan_id":"cebpf4jnsgd1na2vs0mg"},{"bike_id":"e5eabf25-4e1c-476e-b130-9f83cdcfc80c","system_id":"levelo_inurba_marseille","lat":43.298107,"lon":5.417197,"is_reserved":false,"is_disabled":false,"rental_uris":{"android":"levelo://app?vid=e5eabf25-4e1c-476e-b130-9f83cdcfc80c","ios":"levelo://app?vid=e5eabf25-4e1c-476e-b130-9f83cdcfc80c"},"vehicle_type_id":"4","last_reported":1756214762,"current_range_meters":19200,"station_id":"","pricing_plan_id":"cebpf4jnsgd1na2vs0mg"},{"bike_id":"7574a184-e163-435b-be50-4d80b1f9f304","system_id":"levelo_inurba_marseille","lat":43.24166,"lon":5.36392,"is_reserved":false,"is_disabled":false,"rental_uris":{"android":"levelo://app?vid=7574a184-e163-435b-be50-4d80b1f9f304","ios":"levelo://app?vid=7574a184-e163-435b-be50-4d80b1f9f304"},"vehicle_type_id":"4","last_reported":1756214762,"current_range_meters":19200,"station_id":"cpo36qri1sfpv3e86is0","pricing_plan_id":"cebpf4jnsgd1na2vs0mg"},{"bike_id":"49eec2c5-900f-441c-bbed-cc4391f2a50b","system_id":"levelo_inurba_marseille","lat":43.27216,"lon":5.39167,"is_reserved":false,"is_disabled":false,"rental_uris":{"android":"levelo://app?vid=49eec2c5-900f-441c-bbed-cc4391f2a50b","ios":"levelo://app?vid=49eec2c5-900f-441c-bbed-cc4391f2a50b"},"vehicle_type_id":"4","last_reported":1756214762,"current_range_meters":19200,"station_id":"ce4bhhp2rcd13ifvqfm0","pricing_plan_id":"cebpf4jnsgd1na2vs0mg"},{"bike_id":"5a63cc4f-02af-4d70-82a0-f2e560a9fea2","system_id":"levelo_inurba_marseille","lat":43.21744,"lon":5.34602,"is_reserved":false,"is_disabled":false,"rental_uris":{"android":"levelo://app?vid=5a63cc4f-02af-4d70-82a0-f2e560a9fea2","ios":"levelo://app?vid=5a63cc4f-02af-4d70-82a0-f2e560a9fea2"},"vehicle_type_id":"4","last_reported":1756214762,"current_range_meters":19200,"station_id":"","pricing_plan_id":"cebpf4jnsgd1na2vs0mg"},{"bike_id":"7a4c7327-869b-418c-afd3-2fa3665ffd5c","system_id":"levelo_inurba_marseille","lat":43.24644,"lon":5.43167,"is_reserved":false,"is_disabled":false,"rental_uris":{"android":"levelo://app?vid=7a4c7327-869b-418c-afd3-2fa3665ffd5c","ios":"levelo://app?vid=7a4c7327-869b-418c-afd3-2fa3665ffd5c"},"vehicle_type_id":"4","last_reported":1756214762,"current_range_meters":19600,"station_id":"st_d2m6c4gdas8pm72e190g","pricing_plan_id":"cebpf4jnsgd1na2vs0mg"},{"bike_id":"3dce14fa-c5ed-425f-bd46-d8dac74d4490","system_id":"levelo_inurba_marseille","lat":43.30948,"lon":5.39033,"is_reserved":false,"is_disabled":false,"rental_uris":{"android":"levelo://app?vid=3dce14fa-c5ed-425f-bd46-d8dac74d4490","ios":"levelo://app?vid=3dce14fa-c5ed-425f-bd46-d8dac74d4490"},"vehicle_type_id":"4","last_reported":1756214762,"current_range_meters":19600,"station_id":"ce4bgup2rcd13ifvqco0","pricing_plan_id":"cebpf4jnsgd1na2vs0mg"},{"bike_id":"5c26a54e-1e97-4ad3-a16d-614ad930b130","system_id":"levelo_inurba_marseille","lat":43.32108,"lon":5.3675,"is_reserved":false,"is_disabled":false,"rental_uris":{"android":"levelo://app?vid=5c26a54e-1e97-4ad3-a16d-614ad930b130","ios":"levelo://app?vid=5c26a54e-1e97-4ad3-a16d-614ad930b130"},"vehicle_type_id":"4","last_reported":1756214762,"current_range_meters":19600,"station_id":"ce4bhrh2rcd13ifvqhug","pricing_plan_id":"cebpf4jnsgd1na2vs0mg"},{"bike_id":"803d1fa0-57d6-4bdc-9b3f-d05b39b2579f","system_id":"levelo_inurba_marseille","lat":43.31698,"lon":5.40472,"is_reserved":false,"is_disabled":false,"rental_uris":{"android":"levelo://app?vid=803d1fa0-57d6-4bdc-9b3f-d05b39b2579f","ios":"levelo://app?vid=803d1fa0-57d6-4bdc-9b3f-d05b39b2579f"},"vehicle_type_id":"4","last_reported":1756214762,"current_range_meters":19600,"station_id":"ce4bh012rcd13ifvqd00","pricing_plan_id":"cebpf4jnsgd1na2vs0mg"},{"bike_id":"9debf4d9-b244-4d97-8654-802b3ec59894","system_id":"levelo_inurba_marseille","lat":43.231874,"lon":5.355548,"is_reserved":false,"is_disabled":false,"rental_uris":{"android":"levelo://app?vid=9debf4d9-b244-4d97-8654-802b3ec59894","ios":"levelo://app?vid=9debf4d9-b244-4d97-8654-802b3ec59894"},"vehicle_type_id":"4","last_reported":1756214762,"current_range_meters":19600,"station_id":"ce4bhu92rcd13ifvqi70","pricing_plan_id":"cebpf4jnsgd1na2vs0mg"},{"bike_id":"d54d40f4-651c-422f-bbf0-9741c47753a6","system_id":"levelo_inurba_marseille","lat":43.23197,"lon":5.35553,"is_reserved":false,"is_disabled":false,"rental_uris":{"android":"levelo://app?vid=d54d40f4-651c-422f-bbf0-9741c47753a6","ios":"levelo://app?vid=d54d40f4-651c-422f-bbf0-9741c47753a6"},"vehicle_type_id":"4","last_reported":1756214762,"current_range_meters":19600,"station_id":"ce4bhu92rcd13ifvqi70","pricing_plan_id":"cebpf4jnsgd1na2vs0mg"},{"bike_id":"3115c199-1541-45cb-a98a-f6ff5bbd4b1f","system_id":"levelo_inurba_marseille","lat":43.30802,"lon":5.36975,"is_reserved":false,"is_disabled":false,"rental_uris":{"android":"levelo://app?vid=3115c199-1541-45cb-a98a-f6ff5bbd4b1f","ios":"levelo://app?vid=3115c199-1541-45cb-a98a-f6ff5bbd4b1f"},"vehicle_type_id":"4","last_reported":1756214762,"current_range_meters":19600,"station_id":"","pricing_plan_id":"cebpf4jnsgd1na2vs0mg"},{"bike_id":"f67c8e5e-7af8-4847-a4ce-1e12088b4291","system_id":"levelo_inurba_marseille","lat":43.325182,"lon":5.368626,"is_reserved":false,"is_disabled":false,"rental_uris":{"android":"levelo://app?vid=f67c8e5e-7af8-4847-a4ce-1e12088b4291","ios":"levelo://app?vid=f67c8e5e-7af8-4847-a4ce-1e12088b4291"},"vehicle_type_id":"4","last_reported":1756214762,"current_range_meters":19600,"station_id":"","pricing_plan_id":"cebpf4jnsgd1na2vs0mg"},{"bike_id":"c8b31377-ee53-43c7-9f37-c4e3dbbde6f6","system_id":"levelo_inurba_marseille","lat":43.26555,"lon":5.37286,"is_reserved":false,"is_disabled":false,"rental_uris":{"android":"levelo://app?vid=c8b31377-ee53-43c7-9f37-c4e3dbbde6f6","ios":"levelo://app?vid=c8b31377-ee53-43c7-9f37-c4e3dbbde6f6"},"vehicle_type_id":"4","last_reported":1756214762,"current_range_meters":19600,"station_id":"ce4bhg12rcd13ifvqf70","pricing_plan_id":"cebpf4jnsgd1na2vs0mg"},