{"last_updated":1740885581,"ttl":60,"version":"2.2","data":{"bikes":[{"bike_id":"498c2ace-4821-4676-a9ac-9368b02a49b6","system_id":"levelo_inurba_marseille","lat":43.33799,"lon":5.37386,"is_reserved":false,"is_disabled":false,"rental_uris":{"android":"levelo://app?vid=498c2ace-4821-4676-a9ac-9368b02a49b6","ios":"levelo://app?vid=498c2ace-4821-4676-a9ac-9368b02a49b6"},"vehicle_type_id":"4","last_reported":1740885581,"current_range_meters":27600,"station_id":"","pricing_plan_id":"cebpf4jnsgd1na2vs0mg"},{"bike_id":"819fc6fd-4768-4c11-82f9-0b5fd0b62d4a","system_id":"levelo_inurba_marseille","lat":43.34245,"lon":5.37797,"is_reserved":false,"is_disabled":true,"rental_uris":{"android":"levelo://app?vid=819fc6fd-4768-4c11-82f9-0b5fd0b62d4a","ios":"levelo://app?vid=819fc6fd-4768-4c11-82f9-0b5fd0b62d4a"},"vehicle_type_id":"4","last_reported":1740885581,"current_range_meters":0,"station_id":"","pricing_plan_id":"cebpf4jnsgd1na2vs0mg"},{"bike_id":"d5458f89-73a3-43f1-9894-000389f52995","system_id":"levelo_inurba_marseille","lat":43.27622,"lon":5.41488,"is_reserved":false,"is_disabled":true,"rental_uris":{"android":"levelo://app?vid=d5458f89-73a3-43f1-9894-000389f52995","ios":"levelo://app?vid=d5458f89-73a3-43f1-9894-000389f52995"},"vehicle_type_id":"4","last_reported":1740885581,"current_range_meters":0,"station_id":"","pricing_plan_id":"cebpf4jnsgd1na2vs0mg"},{"bike_id":"ea6a02cb-3810-403c-ab47-423df20fff9f","system_id":"levelo_inurba_marseille","lat":43.277361,"lon":5.415132,"is_reserved":false,"is_disabled":true,"rental_uris":{"android":"levelo://app?vid=ea6a02cb-3810-403c-ab47-423df20fff9f","ios":"levelo://app?vid=ea6a02cb-3810-403c-ab47-423df20fff9f"},"vehicle_type_id":"4","last_reported":1740885581,"current_range_meters":0,"station_id":"","pricing_plan_id":"cebpf4jnsgd1na2vs0mg"},{"bike_id":"afcec8eb-28d8-4889-8879-0897cb5957e3","system_id":"levelo_inurba_marseille","lat":43.279863,"lon":5.40564,"is_reserved":false,"is_disabled":true,"rental_uris":{"android":"levelo://app?vid=afcec8eb-28d8-4889-8879-0897cb5957e3","ios":"levelo://app?vid=afcec8eb-28d8-4889-8879-0897cb5957e3"},"vehicle_type_id":"4","last_reported":1740885581,"current_range_meters":0,"station_id":"","pricing_plan_id":"cebpf4jnsgd1na2vs0mg"},{"bike_id":"e230f143-782a-4f9a-a34f-d3286418c5b5","system_id":"levelo_inurba_marseille","lat":43.27417,"lon":5.3939,"is_reserved":false,"is_disabled":true,"rental_uris":{"android":"levelo://app?vid=e230f143-782a-4f9a-a34f-d3286418c5b5","ios":"levelo://app?vid=e230f143-782a-4f9a-a34f-d3286418c5b5"},"vehicle_type_id":"4","last_reported":1740885581,"current_range_meters":800,"station_id":"ce4bhdp2rcd13ifvqf20","pricing_plan_id":"cebpf4jnsgd1na2vs0mg"},{"bike_id":"5436cbb2-8984-4ba2-b474-b72f609ae74e","system_id":"levelo_inurba_marseille","lat":43.24536,"lon":5.39516,"is_reserved":false,"is_disabled":true,"rental_uris":{"android":"levelo://app?vid=5436cbb2-8984-4ba2-b474-b72f609ae74e","ios":"levelo://app?vid=5436cbb2-8984-4ba2-b474-b72f609ae74e"},"vehicle_type_id":"4","last_reported":1740885581,"current_range_meters":800,"station_id":"ce4bhlp2rcd13ifvqgjg","pricing_plan_id":"cebpf4jnsgd1na2vs0mg"},{"bike_id":"01a1a8c3-7355-43ae-9250-51a59bc6c514","system_id":"levelo_inurba_marseille","lat":43.31179,"lon":5.38711,"is_reserved":false,"is_disabled":true,"rental_uris":{"android":"levelo://app?vid=01a1a8c3-7355-43ae-9250-51a59bc6c514","ios":"levelo://app?vid=01a1a8c3-7355-43ae-9250-51a59bc6c514"},"vehicle_type_id":"4","last_reported":1740885581,"current_range_meters":1600,"station_id":"ce4bgv12rcd13ifvqcp0","pricing_plan_id":"cebpf4jnsgd1na2vs0mg"},{"bike_id":"303c2b96-5131-48b9-8dd0-e5a82865f4bc","system_id":"levelo_inurba_marseille","lat":43.35349,"lon":5.36541,"is_reserved":false,"is_disabled":false,"rental_uris":{"android":"levelo://app?vid=303c2b96-5131-48b9-8dd0-e5a82865f4bc","ios":"levelo://app?vid=303c2b96-5131-48b9-8dd0-e5a82865f4bc"},"vehicle_type_id":"4","last_reported":1740885581,"current_range_meters":2800,"station_id":"","pricing_plan_id":"cebpf4jnsgd1na2vs0mg"},{"bike_id":"70d8c7b3-610a-419e-b50d-afe9250d43ba","system_id":"levelo_inurba_marseille","lat":43.295578,"lon":5.422907,"is_reserved":false,"is_disabled":false,"rental_uris":{"android":"levelo://app?vid=70d8c7b3-610a-419e-b50d-afe9250d43ba","ios":"levelo://app?vid=70d8c7b3-610a-419e-b50d-afe9250d43ba"},"vehicle_type_id":"4","last_reported":1740885581,"current_range_meters":2800,"station_id":"ce4bhph2rcd13ifvqhdg","pricing_plan_id":"cebpf4jnsgd1na2vs0mg"},{"bike_id":"78beb1d6-985d-46dc-9daf-98a8f1461f99","system_id":"levelo_inurba_marseille","lat":43.309477,"lon":5.390373,"is_reserved":false,"is_disabled":false,"rental_uris":{"android":"levelo://app?vid=78beb1d6-985d-46dc-9daf-98a8f1461f99","ios":"levelo://app?vid=78beb1d6-985d-46dc-9daf-98a8f1461f99"},"vehicle_type_id":"4","last_reported":1740885581,"current_range_meters":3200,"station_id":"ce4bgup2rcd13ifvqco0","pricing_plan_id":"cebpf4jnsgd1na2vs0mg"},{"bike_id":"f6184735-5b0f-4260-b18c-79d71768ac93","system_id":"levelo_inurba_marseille","lat":43.287,"lon":5.38656,"is_reserved":false,"is_disabled":false,"rental_uris":{"android":"levelo://app?vid=f6184735-5b0f-4260-b18c-79d71768ac93","ios":"levelo://app?vid=f6184735-5b0f-4260-b18c-79d71768ac93"},"vehicle_type_id":"4","last_reported":1740885581,"current_range_meters":4400,"station_id":"ce4bh492rcd13ifvqdug","pricing_plan_id":"cebpf4jnsgd1na2vs0mg"},{"bike_id":"bf539502-6044-4aa2-acf9-ffbcdaefd787","system_id":"levelo_inurba_marseille","lat":43.27975,"lon":5.38751,"is_reserved":false,"is_disabled":false,"rental_uris":{"android":"levelo://app?vid=bf539502-6044-4aa2-acf9-ffbcdaefd787","ios":"levelo://app?vid=bf539502-6044-4aa2-acf9-ffbcdaefd787"},"vehicle_type_id":"4","last_reported":1740885581,"current_range_meters":4400,"station_id":"ce4bhg12rcd13ifvqf80","pricing_plan_id":"cebpf4jnsgd1na2vs0mg"},{"bike_id":"a65cb524-c756-42a0-9639-a6505770c05b","system_id":"levelo_inurba_marseille","lat":43.35068,"lon":5.36609,"is_reserved":false,"is_disabled":false,"rental_uris":{"android":"levelo://app?vid=a65cb524-c756-42a0-9639-a6505770c05b","ios":"levelo://app?vid=a65cb524-c756-42a0-9639-a6505770c05b"},"vehicle_type_id":"4","last_reported":1740885581,"current_range_meters":4800,"station_id":"","pricing_plan_id":"cebpf4jnsgd1na2vs0mg"},{"bike_id":"d1ade81a-69cc-4425-94b4-975017b125f0","system_id":"levelo_inurba_marseille","lat":43.28081,"lon":5.3969,"is_reserved":false,"is_disabled":false,"rental_uris":{"android":"levelo://app?vid=d1ade81a-69cc-4425-94b4-975017b125f0","ios":"levelo://app?vid=d1ade81a-69cc-4425-94b4-975017b125f0"},"vehicle_type_id":"4","last_reported":1740885581,"current_range_meters":4800,"station_id":"ce4bho12rcd13ifvqh2g","pricing_plan_id":"cebpf4jnsgd1na2vs0mg"},{"bike_id":"bb466852-6aa2-4b6b-b87c-39a91f50818d","system_id":"levelo_inurba_marseille","lat":43.30101,"lon":5.36471,"is_reserved":false,"is_disabled":false,"rental_uris":{"android":"levelo://app?vid=bb466852-6aa2-4b6b-b87c-39a91f50818d","ios":"levelo://app?vid=bb466852-6aa2-4b6b-b87c-39a91f50818d"},"vehicle_type_id":"4","last_reported":1740885581,"current_range_meters":5600,"station_id":"","pricing_plan_id":"cebpf4jnsgd1na2vs0mg"},{"bike_id":"c3de624f-bb58-4daf-bfea-274d6c574848","system_id":"levelo_inurba_marseille","lat":43.280212,"lon":5.387291,"is_reserved":false,"is_disabled":false,"rental_uris":{"android":"levelo://app?vid=c3de624f-bb58-4daf-bfea-274d6c574848","ios":"levelo://app?vid=c3de624f-bb58-4daf-bfea-274d6c574848"},"vehicle_type_id":"4","last_reported":1740885581,"current_range_meters":5600,"station_id":"ce4bgi92rcd13ifvqb90","pricing_plan_id":"cebpf4jnsgd1na2vs0mg"},{"bike_id":"0d3dca6a-d590-4e72-a1ae-af700e6dffe8","system_id":"levelo_inurba_marseille","lat":43.308812,"lon":5.396237,"is_reserved":false,"is_disabled":false,"rental_uris":{"android":"levelo://app?vid=0d3dca6a-d590-4e72-a1ae-af700e6dffe8","ios":"levelo://app?vid=0d3dca6a-d590-4e72-a1ae-af700e6dffe8"},"vehicle_type_id":"4","last_reported":1740885581,"current_range_meters":5600,"station_id":"ce4bh012rcd13ifvqcv0","pricing_plan_id":"cebpf4jnsgd1na2vs0mg"},{"bike_id":"c40fc13e-1c97-4952-9af0-30ae574d48da","system_id":"levelo_inurba_marseille","lat":43.30906,"lon":5.39662,"is_reserved":false,"is_disabled":false,"rental_uris":{"android":"levelo://app?vid=c40fc13e-1c97-4952-9af0-30ae574d48da","ios":"levelo://app?vid=c40fc13e-1c97-4952-9af0-30ae574d48da"},"vehicle_type_id":"4","last_reported":1740885581,"current_range_meters":5600,"station_id":"ce4bh012rcd13ifvqcv0","pricing_plan_id":"cebpf4jnsgd1na2vs0mg"},{"bike_id":"89fb1ae9-3cfa-4523-b435-403d5912d4ea","system_id":"levelo_inurba_marseille","lat":43.27494,"lon":5.42444,"is_reserved":false,"is_disabled":false,"rental_uris":{"android":"levelo://app?vid=89fb1ae9-3cfa-4523-b435-403d5912d4ea","ios":"levelo://app?vid=89fb1ae9-3cfa-4523-b435-403d5912d4ea"},"vehicle_type_id":"4","last_reported":1740885581,"current_range_meters":5600,"station_id":"ce4bhn92rcd13ifvqgrg","pricing_plan_id":"cebpf4jnsgd1na2vs0mg"},{"bike_id":"d87b7120-ca17-4de4-9662-d179abcd84c4","system_id":"levelo_inurba_marseille","lat":43.30951,"lon":5.39072,"is_reserved":false,"is_disabled":false,"rental_uris":{"android":"levelo://app?vid=d87b7120-ca17-4de4-9662-d179abcd84c4","ios":"levelo://app?vid=d87b7120-ca17-4de4-9662-d179abcd84c4"},"vehicle_type_id":"4","last_reported":1740885581,"current_range_meters":6000,"station_id":"ce4bgup2rcd13ifvqco0","pricing_plan_id":"cebpf4jnsgd1na2vs0mg"},{"bike_id":"93bfbf50-fc08-41b5-84de-fc2e92ed89e8","system_id":"levelo_inurba_marseille","lat":43.30609,"lon":5.39348,"is_reserved":false,"is_disabled":false,"rental_uris":{"android":"levelo://app?vid=93bfbf50-fc08-41b5-84de-fc2e92ed89e8","ios":"levelo://app?vid=93bfbf50-fc08-41b5-84de-fc2e92ed89e8"},"vehicle_type_id":"4","last_reported":1740885581,"current_range_meters":6000,"station_id":"ce4bh0p2rcd13ifvqd80","pricing_plan_id":"cebpf4jnsgd1na2vs0mg"},{"bike_id":"14144dff-7421-4064-b353-0584b513eb4b","system_id":"levelo_inurba_marseille","lat":43.28927,"lon":5.38402,"is_reserved":false,"is_disabled":false,"rental_uris":{"android":"levelo://app?vid=14144dff-7421-4064-b353-0584b513eb4b","ios":"levelo://app?vid=14144dff-7421-4064-b353-0584b513eb4b"},"vehicle_type_id":"4","last_reported":1740885581,"current_range_meters":6000,"station_id":"ce4bh612rcd13ifvqe6g","pricing_plan_id":"cebpf4jnsgd1na2vs0mg"},{"bike_id":"d0d0993b-54aa-432c-932c-eaa437846780","system_id":"levelo_inurba_marseille","lat":43.30231,"lon":5.3861,"is_reserved":false,"is_disabled":false,"rental_uris":{"android":"levelo://app?vid=d0d0993b-54aa-432c-932c-eaa437846780","ios":"levelo://app?vid=d0d0993b-54aa-432c-932c-eaa437846780"},"vehicle_type_id":"4","last_reported":1740885581,"current_range_meters":6400,"station_id":"","pricing_plan_id":"cebpf4jnsgd1na2vs0mg"},{"bike_id":"2f561144-f346-4e44-9742-03fd91c4bfdd","system_id":"levelo_inurba_marseille","lat":43.27935,"lon":5.41046,"is_reserved":false,"is_disabled":false,"rental_uris":{"android":"levelo://app?vid=2f561144-f346-4e44-9742-03fd91c4bfdd","ios":"levelo://app?vid=2f561144-f346-4e44-9742-03fd91c4bfdd"},"vehicle_type_id":"4","last_reported":1740885581,"current_range_meters":6400,"station_id":"ce4bhnp2rcd13ifvqh0g","pricing_plan_id":"cebpf4jnsgd1na2vs0mg"},{"bike_id":"6cab3ccf-906e-49bc-8c04-4783fcea4279","system_id":"levelo_inurba_marseille","lat":43.27613,"lon":5.36025,"is_reserved":false,"is_disabled":false,"rental_uris":{"android":"levelo://app?vid=6cab3ccf-906e-49bc-8c04-4783fcea4279","ios":"levelo://app?vid=6cab3ccf-906e-49bc-8c04-4783fcea4279"},"vehicle_type_id":"4","last_reported":1740885581,"current_range_meters":6800,"station_id":"","pricing_plan_id":"cebpf4jnsgd1na2vs0mg"},{"bike_id":"5d400628-6942-4692-924b-707edb439f1f","system_id":"levelo_inurba_marseille","lat":43.286966,"lon":5.373964,"is_reserved":false,"is_disabled":false,"rental_uris":{"android":"levelo://app?vid=5d400628-6942-4692-924b-707edb439f1f","ios":"levelo://app?vid=5d400628-6942-4692-924b-707edb439f1f"},"vehicle_type_id":"4","last_reported":1740885581,"current_range_meters":6800,"station_id":"ce4bh3p2rcd13ifvqdq0","pricing_plan_id":"cebpf4jnsgd1na2vs0mg"},{"bike_id":"280b288b-3188-456f-bfed-46e32d89bb5e","system_id":"levelo_inurba_marseille","lat":43.29234,"lon":5.36044,"is_reserved":false,"is_disabled":false,"rental_uris":{"android":"levelo://app?vid=280b288b-3188-456f-bfed-46e32d89bb5e","ios":"levelo://app?vid=280b288b-3188-456f-bfed-46e32d89bb5e"},"vehicle_type_id":"4","last_reported":1740885581,"current_range_meters":6800,"station_id":"ce4bhbh2rcd13ifvqeqg","pricing_plan_id":"cebpf4jnsgd1na2vs0mg"},{"bike_id":"67a0de88-ba36-4298-b13d-b95a224ba097","system_id":"levelo_inurba_marseille","lat":43.27072,"lon":5.42279,"is_reserved":false,"is_disabled":false,"rental_uris":{"android":"levelo://app?vid=67a0de88-ba36-4298-b13d-b95a224ba097","ios":"levelo://app?vid=67a0de88-ba36-4298-b13d-b95a224ba097"},"vehicle_type_id":"4","last_reported":1740885581,"current_range_meters":6800,"station_id":"ce4bhk92rcd13ifvqgb0","pricing_plan_id":"cebpf4jnsgd1na2vs0mg"},{"bike_id":"2bcf0ef7-cc4d-4f0c-8f2b-2f0e50cbea7e","system_id":"levelo_inurba_marseille","lat":43.27941,"lon":5.410418,"is_reserved":false,"is_disabled":false,"rental_uris":{"android":"levelo://app?vid=2bcf0ef7-cc4d-4f0c-8f2b-2f0e50cbea7e","ios":"levelo://app?vid=2bcf0ef7-cc4d-4f0c-8f2b-2f0e50cbea7e"},"vehicle_type_id":"4","last_reported":1740885581,"current_range_meters":6800,"station_id":"ce4bhnp2rcd13ifvqh0g","pricing_plan_id":"cebpf4jnsgd1na2vs0mg"},{"bike_id":"708cb63e-7966-4c0f-b2a0-0604675fc087","system_id":"levelo_inurba_marseille","lat":43.3094,"lon":5.39024,"is_reserved":false,"is_disabled":false,"rental_uris":{"android":"levelo://app?vid=708cb63e-7966-4c0f-b2a0-0604675fc087","ios":"levelo://app?vid=708cb63e-7966-4c0f-b2a0-0604675fc087"},"vehicle_type_id":"4","last_reported":1740885581,"current_range_meters":7200,"station_id":"ce4bgup2rcd13ifvqco0","pricing_plan_id":"cebpf4jnsgd1na2vs0mg"},{"bike_id":"30f3d885-beb9-4876-986f-766d0fcd74ba","system_id":"levelo_inurba_marseille","lat":43.28693,"lon":5.37389,"is_reserved":false,"is_disabled":false,"rental_uris":{"android":"levelo://app?vid=30f3d885-beb9-4876-986f-766d0fcd74ba","ios":"levelo://app?vid=30f3d885-beb9-4876-986f-766d0fcd74ba"},"vehicle_type_id":"4","last_reported":1740885581,"current_range_meters":7200,"station_id":"ce4bh3p2rcd13ifvqdq0","pricing_plan_id":"cebpf4jnsgd1na2vs0mg"},{"bike_id":"3e993898-cdfc-4bc6-9f78-9ed206eb2b40","system_id":"levelo_inurba_marseille","lat":43.27504,"lon":5.42459,"is_reserved":false,"is_disabled":false,"rental_uris":{"android":"levelo://app?vid=3e993898-cdfc-4bc6-9f78-9ed206eb2b40","ios":"levelo://app?vid=3e993898-cdfc-4bc6-9f78-9ed206eb2b40"},"vehicle_type_id":"4","last_reported":1740885581,"current_range_meters":7200,"station_id":"ce4bhn92rcd13ifvqgrg","pricing_plan_id":"cebpf4jnsgd1na2vs0mg"},{"bike_id":"364b209e-752e-45ea-b26c-06b2552c1833","system_id":"levelo_inurba_marseille","lat":43.23176,"lon":5.35529,"is_reserved":false,"is_disabled":false,"rental_uris":{"android":"levelo://app?vid=364b209e-752e-45ea-b26c-06b2552c1833","ios":"levelo://app?vid=364b209e-752e-45ea-b26c-06b2552c1833"},"vehicle_type_id":"4","last_reported":1740885581,"current_range_meters":7200,"station_id":"ce4bhu92rcd13ifvqi70","pricing_plan_id":"cebpf4jnsgd1na2vs0mg"},{"bike_id":"49cf196d-46c2-4b6a-b1ce-adef85481502","system_id":"levelo_inurba_marseille","lat":43.24162,"lon":5.36388,"is_reserved":false,"is_disabled":false,"rental_uris":{"android":"levelo://app?vid=49cf196d-46c2-4b6a-b1ce-adef85481502","ios":"levelo://app?vid=49cf196d-46c2-4b6a-b1ce-adef85481502"},"vehicle_type_id":"4","last_reported":1740885581,"current_range_meters":7200,"station_id":"cpo36qri1sfpv3e86is0","pricing_plan_id":"cebpf4jnsgd1na2vs0mg"},{"bike_id":"49e9cdc7-76a5-4b66-ae2d-61c73beb73a8","system_id":"levelo_inurba_marseille","lat":43.241656,"lon":5.364121,"is_reserved":false,"is_disabled":false,"rental_uris":{"android":"levelo://app?vid=49e9cdc7-76a5-4b66-ae2d-61c73beb73a8","ios":"levelo://app?vid=49e9cdc7-76a5-4b66-ae2d-61c73beb73a8"},"vehicle_type_id":"4","last_reported":1740885581,"current_range_meters":7200,"station_id":"cpo36qri1sfpv3e86is0","pricing_plan_id":"cebpf4jnsgd1na2vs0mg"},{"bike_id":"59aefcfd-cb49-414f-a2b4-58f76bb5ab27","system_id":"levelo_inurba_marseille","lat":43.30385,"lon":5.42855,"is_reserved":false,"is_disabled":false,"rental_uris":{"android":"levelo://app?vid=59aefcfd-cb49-414f-a2b4-58f76bb5ab27","ios":"levelo://app?vid=59aefcfd-cb49-414f-a2b4-58f76bb5ab27"},"vehicle_type_id":"4","last_reported":1740885581,"current_range_meters":8000,"station_id":"","pricing_plan_id":"cebpf4jnsgd1na2vs0mg"},{"bike_id":"5b73c424-717f-4e99-be2f-9bee1e715131","system_id":"levelo_inurba_marseille","lat":43.31687,"lon":5.40463,"is_reserved":false,"is_disabled":false,"rental_uris":{"android":"levelo://app?vid=5b73c424-717f-4e99-be2f-9bee1e715131","ios":"levelo://app?vid=5b73c424-717f-4e99-be2f-9bee1e715131"},"vehicle_type_id":"4","last_reported":1740885581,"current_range_meters":8000,"station_id":"ce4bh012rcd13ifvqd00","pricing_plan_id":"cebpf4jnsgd1na2vs0mg"},{"bike_id":"e6bb96b3-3160-495b-92cd-e149dc1f395e","system_id":"levelo_inurba_marseille","lat":43.27901,"lon":5.39596,"is_reserved":false,"is_disabled":false,"rental_uris":{"android":"levelo://app?vid=e6bb96b3-3160-495b-92cd-e149dc1f395e","ios":"levelo://app?vid=e6bb96b3-3160-495b-92cd-e149dc1f395e"},"vehicle_type_id":"4","last_reported":1740885581,"current_range_meters":8000,"station_id":"ce4bhf92rcd13ifvqf40","pricing_plan_id":"cebpf4jnsgd1na2vs0mg"},{"bike_id":"03a302fb-b187-4fdc-b649-695431f73b06","system_id":"levelo_inurba_marseille","lat":43.26491,"lon":5.39558,"is_reserved":false,"is_disabled":false,"rental_uris":{"android":"levelo://app?vid=03a302fb-b187-4fdc-b649-695431f73b06","ios":"levelo://app?vid=03a302fb-b187-4fdc-b649-695431f73b06"},"vehicle_type_id":"4","last_reported":1740885581,"current_range_meters":8000,"station_id":"ce4bhi12rcd13ifvqfq0","pricing_plan_id":"cebpf4jnsgd1na2vs0mg"},{"bike_id":"bddf37d4-a2ae-4c74-bcad-602e7e9ee614","system_id":"levelo_inurba_marseille","lat":43.2469,"lon":5.38132,"is_reserved":false,"is_disabled":false,"rental_uris":{"android":"levelo://app?vid=bddf37d4-a2ae-4c74-bcad-602e7e9ee614","ios":"levelo://app?vid=bddf37d4-a2ae-4c74-bcad-602e7e9ee614"},"vehicle_type_id":"4","last_reported":1740885581,"current_range_meters":8000,"station_id":"ce4bhih2rcd13ifvqfr0","pricing_plan_id":"cebpf4jnsgd1na2vs0mg"},{"bike_id":"593edb3c-7add-4a3d-9dbe-95cef549de0d","system_id":"levelo_inurba_marseille","lat":43.23052,"lon":5.35491,"is_reserved":false,"is_disabled":false,"rental_uris":{"android":"levelo://app?vid=593edb3c-7add-4a3d-9dbe-95cef549de0d","ios":"levelo://app?vid=593edb3c-7add-4a3d-9dbe-95cef549de0d"},"vehicle_type_id":"4","last_reported":1740885581,"current_range_meters":8000,"station_id":"cpo3342slgdg3j2ifvpg","pricing_plan_id":"cebpf4jnsgd1na2vs0mg"},{"bike_id":"9b596371-d612-49f2-b81f-de4bef0d4e5a","system_id":"levelo_inurba_marseille","lat":43.24161,"lon":5.364056,"is_reserved":false,"is_disabled":false,"rental_uris":{"android":"levelo://app?vid=9b596371-d612-49f2-b81f-de4bef0d4e5a","ios":"levelo://app?vid=9b596371-d612-49f2-b81f-de4bef0d4e5a"},"vehicle_type_id":"4","last_reported":1740885581,"current_range_meters":8000,"station_id":"cpo36qri1sfpv3e86is0","pricing_plan_id":"cebpf4jnsgd1na2vs0mg"},{"bike_id":"ce5b717b-8065-41cb-ac73-ea554cd5c020","system_id":"levelo_inurba_marseille","lat":43.2658,"lon":5.39024,"is_reserved":false,"is_disabled":false,"rental_uris":{"android":"levelo://app?vid=ce5b717b-8065-41cb-ac73-ea554cd5c020","ios":"levelo://app?vid=ce5b717b-8065-41cb-ac73-ea554cd5c020"},"vehicle_type_id":"4","last_reported":1740885581,"current_range_meters":8400,"station_id":"ce4bhe12rcd13ifvqf30","pricing_plan_id":"cebpf4jnsgd1na2vs0mg"},{"bike_id":"53ebed9a-fd1a-4d94-96e3-0c8bc5887ace","system_id":"levelo_inurba_marseille","lat":43.31429,"lon":5.39388,"is_reserved":false,"is_disabled":false,"rental_uris":{"android":"levelo://app?vid=53ebed9a-fd1a-4d94-96e3-0c8bc5887ace","ios":"levelo://app?vid=53ebed9a-fd1a-4d94-96e3-0c8bc5887ace"},"vehicle_type_id":"4","last_reported":1740885581,"current_range_meters":8800,"station_id":"","pricing_plan_id":"cebpf4jnsgd1na2vs0mg"},{"bike_id":"28507a75-2eef-4eed-8ffb-e0a33e674a22","system_id":"levelo_inurba_marseille","lat":43.30329,"lon":5.40442,"is_reserved":false,"is_disabled":false,"rental_uris":{"android":"levelo://app?vid=28507a75-2eef-4eed-8ffb-e0a33e674a22","ios":"levelo://app?vid=28507a75-2eef-4eed-8ffb-e0a33e674a22"},"vehicle_type_id":"4","last_reported":1740885581,"current_range_meters":8800,"station_id":"ce4bh012rcd13ifvqd10","pricing_plan_id":"cebpf4jnsgd1na2vs0mg"},{"bike_id":"fd4ceb47-7745-40bf-b9f8-cbc3ab65ca1f","system_id":"levelo_inurba_marseille","lat":43.23187,"lon":5.39985,"is_reserved":false,"is_disabled":false,"rental_uris":{"android":"levelo://app?vid=fd4ceb47-7745-40bf-b9f8-cbc3ab65ca1f","ios":"levelo://app?vid=fd4ceb47-7745-40bf-b9f8-cbc3ab65ca1f"},"vehicle_type_id":"4","last_reported":1740885581,"current_range_meters":8800,"station_id":"ce4bhn12rcd13ifvqgqg","pricing_plan_id":"cebpf4jnsgd1na2vs0mg"},{"bike_id":"24b426ec-114a-4cca-b485-1331408dda43","system_id":"levelo_inurba_marseille","lat":43.24076,"lon":5.37753,"is_reserved":false,"is_disabled":false,"rental_uris":{"android":"levelo://app?vid=24b426ec-114a-4cca-b485-1331408dda43","ios":"levelo://app?vid=24b426ec-114a-4cca-b485-1331408dda43"},"vehicle_type_id":"4","last_reported":1740885581,"current_range_meters":8800,"station_id":"ce4bhnp2rcd13ifvqgvg","pricing_plan_id":"cebpf4jnsgd1na2vs0mg"},{"bike_id":"63bd5179-e096-4fc2-9ddf-a04ead103bc0","system_id":"levelo_inurba_marseille","lat":43.28284,"lon":5.39079,"is_reserved":false,"is_disabled":false,"rental_uris":{"android":"levelo://app?vid=63bd5179-e096-4fc2-9ddf-a04ead103bc0","ios":"levelo://app?vid=63bd5179-e096-4fc2-9ddf-a04ead103bc0"},"vehicle_type_id":"4","last_reported":1740885581,"current_range_meters":9200,"station_id":"","pricing_plan_id":"cebpf4jnsgd1na2vs0mg"},{"bike_id":"d59c6c10-be69-41cc-ba02-d2725f68c8e8","system_id":"levelo_inurba_marseille","lat":43.31351,"lon":5.38491,"is_reserved":false,"is_disabled":false,"rental_uris":{"android":"levelo://app?vid=d59c6c10-be69-41cc-ba02-d2725f68c8e8","ios":"levelo://app?vid=d59c6c10-be69-41cc-ba02-d2725f68c8e8"},"vehicle_type_id":"4","last_reported":1740885581,"current_range_meters":9200,"station_id":"ce4bgt92rcd13ifvqcf0","pricing_plan_id":"cebpf4jnsgd1na2vs0mg"},{"bike_id":"72ff5b47-6584-466f-b94c-365470641023","system_id":"levelo_inurba_marseille","lat":43.31166,"lon":5.38722,"is_reserved":false,"is_disabled":false,"rental_uris":{"android":"levelo://app?vid=72ff5b47-6584-466f-b94c-365470641023","ios":"levelo://app?vid=72ff5b47-6584-466f-b94c-365470641023"},"vehicle_type_id":"4","last_reported":1740885581,"current_range_meters":9200,"station_id":"ce4bgv12rcd13ifvqcp0","pricing_plan_id":"cebpf4jnsgd1na2vs0mg"},{"bike_id":"23cab17d-b6bb-40e7-9520-7101829b0f11","system_id":"levelo_inurba_marseille","lat":43.28464,"lon":5.35884,"is_reserved":false,"is_disabled":false,"rental_uris":{"android":"levelo://app?vid=23cab17d-b6bb-40e7-9520-7101829b0f11","ios":"levelo://app?vid=23cab17d-b6bb-40e7-9520-7101829b0f11"},"vehicle_type_id":"4","last_reported":1740885581,"current_range_meters":9200,"station_id":"ce4bhah2rcd13ifvqei0","pricing_plan_id":"cebpf4jnsgd1na2vs0mg"},{"bike_id":"ad88cc03-6a9d-461a-9a8a-8499f966ee18","system_id":"levelo_inurba_marseille","lat":43.24214,"lon":5.37602,"is_reserved":false,"is_disabled":false,"rental_uris":{"android":"levelo://app?vid=ad88cc03-6a9d-461a-9a8a-8499f966ee18","ios":"levelo://app?vid=ad88cc03-6a9d-461a-9a8a-8499f966ee18"},"vehicle_type_id":"4","last_reported":1740885581,"current_range_meters":9200,"station_id":"ce4bhnp2rcd13ifvqgvg","pricing_plan_id":"cebpf4jnsgd1na2vs0mg"},{"bike_id":"cbd3b7da-1333-4458-b6f2-7065ce830ca2","system_id":"levelo_inurba_marseille","lat":43.280729,"lon":5.396483,"is_reserved":false,"is_disabled":false,"rental_uris":{"android":"levelo://app?vid=cbd3b7da-1333-4458-b6f2-7065ce830ca2","ios":"levelo://app?vid=cbd3b7da-1333-4458-b6f2-7065ce830ca2"},"vehicle_type_id":"4","last_reported":1740885581,"current_range_meters":9200,"station_id":"ce4bho12rcd13ifvqh2g","pricing_plan_id":"cebpf4jnsgd1na2vs0mg"},{"bike_id":"4a01e614-9a34-4e70-9e02-4e744008ae90","system_id":"levelo_inurba_marseille","lat":43.31392,"lon":5.3919,"is_reserved":false,"is_disabled":false,"rental_uris":{"android":"levelo://app?vid=4a01e614-9a34-4e70-9e02-4e744008ae90","ios":"levelo://app?vid=4a01e614-9a34-4e70-9e02-4e744008ae90"},"vehicle_type_id":"4","last_reported":1740885581,"current_range_meters":9600,"station_id":"","pricing_plan_id":"cebpf4jnsgd1na2vs0mg"},{"bike_id":"ddf90109-4572-4b1a-a4f2-eae9f9d34937","system_id":"levelo_inurba_marseille","lat":43.24384,"lon":5.37069,"is_reserved":false,"is_disabled":false,"rental_uris":{"android":"levelo://app?vid=ddf90109-4572-4b1a-a4f2-eae9f9d34937","ios":"levelo://app?vid=ddf90109-4572-4b1a-a4f2-eae9f9d34937"},"vehicle_type_id":"4","last_reported":1740885581,"current_range_meters":9600,"station_id":"ce4bhhh2rcd13ifvqfk0","pricing_plan_id":"cebpf4jnsgd1na2vs0mg"},{"bike_id":"e28469c8-88b6-48eb-a0c4-75070d65fa9b","system_id":"levelo_inurba_marseille","lat":43.297123,"lon":5.366003,"is_reserved":false,"is_disabled":false,"rental_uris":{"android":"levelo://app?vid=e28469c8-88b6-48eb-a0c4-75070d65fa9b","ios":"levelo://app?vid=e28469c8-88b6-48eb-a0c4-75070d65fa9b"},"vehicle_type_id":"4","last_reported":1740885581,"current_range_meters":10000,"station_id":"ce4bgn12rcd13ifvqbt0","pricing_plan_id":"cebpf4jnsgd1na2vs0mg"},{"bike_id":"343fb41d-a0a0-4733-9a01-85de2fb42a8b","system_id":"levelo_inurba_marseille","lat":43.31175,"lon":5.38712,"is_reserved":false,"is_disabled":false,"rental_uris":{"android":"levelo://app?vid=343fb41d-a0a0-4733-9a01-85de2fb42a8b","ios":"levelo://app?vid=343fb41d-a0a0-4733-9a01-85de2fb42a8b"},"vehicle_type_id":"4","last_reported":1740885581,"current_range_meters":10000,"station_id":"ce4bgv12rcd13ifvqcp0","pricing_plan_id":"cebpf4jnsgd1na2vs0mg"},{"bike_id":"9f754028-8b59-402a-9897-3fe7785c0d59","system_id":"levelo_inurba_marseille","lat":43.28697,"lon":5.37388,"is_reserved":false,"is_disabled":false,"rental_uris":{"android":"levelo://app?vid=9f754028-8b59-402a-9897-3fe7785c0d59","ios":"levelo://app?vid=9f754028-8b59-402a-9897-3fe7785c0d59"},"vehicle_type_id":"4","last_reported":1740885581,"current_range_meters":10000,"station_id":"ce4bh3p2rcd13ifvqdq0","pricing_plan_id":"cebpf4jnsgd1na2vs0mg"},{"bike_id":"b860e650-b452-4917-bc4b-4edc088650d3","system_id":"levelo_inurba_marseille","lat":43.28369,"lon":5.38607,"is_reserved":false,"is_disabled":false,"rental_uris":{"android":"levelo://app?vid=b860e650-b452-4917-bc4b-4edc088650d3","ios":"levelo://app?vid=b860e650-b452-4917-bc4b-4edc088650d3"},"vehicle_type_id":"4","last_reported":1740885581,"current_range_meters":10000,"station_id":"ce4bh492rcd13ifvqdvg","pricing_plan_id":"cebpf4jnsgd1na2vs0mg"},{"bike_id":"3aebfc4a-b79b-400f-91ae-dad88b04ca31","system_id":"levelo_inurba_marseille","lat":43.286647,"lon":5.363494,"is_reserved":false,"is_disabled":false,"rental_uris":{"android":"levelo://app?vid=3aebfc4a-b79b-400f-91ae-dad88b04ca31","ios":"levelo://app?vid=3aebfc4a-b79b-400f-91ae-dad88b04ca31"},"vehicle_type_id":"4","last_reported":1740885581,"current_range_meters":10000,"station_id":"ce4bhah2rcd13ifvqej0","pricing_plan_id":"cebpf4jnsgd1na2vs0mg"},{"bike_id":"0693b9d6-4a9d-4e38-bfa2-80f934bcc2e3","system_id":"levelo_inurba_marseille","lat":43.24163,"lon":5.36404,"is_reserved":false,"is_disabled":false,"rental_uris":{"android":"levelo://app?vid=0693b9d6-4a9d-4e38-bfa2-80f934bcc2e3","ios":"levelo://app?vid=0693b9d6-4a9d-4e38-bfa2-80f934bcc2e3"},"vehicle_type_id":"4","last_reported":1740885581,"current_range_meters":10000,"station_id":"cpo36qri1sfpv3e86is0","pricing_plan_id":"cebpf4jnsgd1na2vs0mg"},{"bike_id":"0e4d5d36-7d5d-4fbf-9597-759cc9a1b223","system_id":"levelo_inurba_marseille","lat":43.3053,"lon":5.37222,"is_reserved":false,"is_disabled":false,"rental_uris":{"android":"levelo://app?vid=0e4d5d36-7d5d-4fbf-9597-759cc9a1b223","ios":"levelo://app?vid=0e4d5d36-7d5d-4fbf-9597-759cc9a1b223"},"vehicle_type_id":"4","last_reported":1740885581,"current_range_meters":10800,"station_id":"","pricing_plan_id":"cebpf4jnsgd1na2vs0mg"},{"bike_id":"8f4b321d-137e-47fe-b91f-a8bf64fc5b26","system_id":"levelo_inurba_marseille","lat":43.29966,"lon":5.38454,"is_reserved":false,"is_disabled":false,"rental_uris":{"android":"levelo://app?vid=8f4b321d-137e-47fe-b91f-a8bf64fc5b26","ios":"levelo://app?vid=8f4b321d-137e-47fe-b91f-a8bf64fc5b26"},"vehicle_type_id":"4","last_reported":1740885581,"current_range_meters":10800,"station_id":"ce4bgj92rcd13ifvqbd0","pricing_plan_id":"cebpf4jnsgd1na2vs0mg"},{"bike_id":"d3dbd7c7-d48d-4d5c-bf1e-b18a9ab1a600","system_id":"levelo_inurba_marseille","lat":43.31364,"lon":5.38483,"is_reserved":false,"is_disabled":false,"rental_uris":{"android":"levelo://app?vid=d3dbd7c7-d48d-4d5c-bf1e-b18a9ab1a600","ios":"levelo://app?vid=d3dbd7c7-d48d-4d5c-bf1e-b18a9ab1a600"},"vehicle_type_id":"4","last_reported":1740885581,"current_range_meters":10800,"station_id":"ce4bgt92rcd13ifvqcf0","pricing_plan_id":"cebpf4jnsgd1na2vs0mg"},{"bike_id":"5f323ddb-bbf3-4ef5-88d4-2bedc17b6782","system_id":"levelo_inurba_marseille","lat":43.311676,"lon":5.387166,"is_reserved":false,"is_disabled":false,"rental_uris":{"android":"levelo://app?vid=5f323ddb-bbf3-4ef5-88d4-2bedc17b6782","ios":"levelo://app?vid=5f323ddb-bbf3-4ef5-88d4-2bedc17b6782"},"vehicle_type_id":"4","last_reported":1740885581,"current_range_meters":10800,"station_id":"ce4bhap2rcd13ifvqek0","pricing_plan_id":"cebpf4jnsgd1na2vs0mg"},{"bike_id":"98d30ac8-3bd7-4aef-a008-2521b117e221","system_id":"levelo_inurba_marseille","lat":43.26559,"lon":5.39011,"is_reserved":false,"is_disabled":false,"rental_uris":{"android":"levelo://app?vid=98d30ac8-3bd7-4aef-a008-2521b117e221","ios":"levelo://app?vid=98d30ac8-3bd7-4aef-a008-2521b117e221"},"vehicle_type_id":"4","last_reported":1740885581,"current_range_meters":10800,"station_id":"ce4bhe12rcd13ifvqf30","pricing_plan_id":"cebpf4jnsgd1na2vs0mg"},{"bike_id":"1697087c-3a15-4d2b-8fbc-57126afe45c3","system_id":"levelo_inurba_marseille","lat":43.231471,"lon":5.436975,"is_reserved":false,"is_disabled":false,"rental_uris":{"android":"levelo://app?vid=1697087c-3a15-4d2b-8fbc-57126afe45c3","ios":"levelo://app?vid=1697087c-3a15-4d2b-8fbc-57126afe45c3"},"vehicle_type_id":"4","last_reported":1740885581,"current_range_meters":10800,"station_id":"ce4bhmp2rcd13ifvqgog","pricing_plan_id":"cebpf4jnsgd1na2vs0mg"},{"bike_id":"08b66ead-5970-4c42-aef8-8434df652915","system_id":"levelo_inurba_marseille","lat":43.27625,"lon":5.36091,"is_reserved":false,"is_disabled":false,"rental_uris":{"android":"levelo://app?vid=08b66ead-5970-4c42-aef8-8434df652915","ios":"levelo://app?vid=08b66ead-5970-4c42-aef8-8434df652915"},"vehicle_type_id":"4","last_reported":1740885581,"current_range_meters":11200,"station_id":"ce4bgj92rcd13ifvqbe0","pricing_plan_id":"cebpf4jnsgd1na2vs0mg"},{"bike_id":"fb18759c-f3ca-4612-8704-baf08a44bab2","system_id":"levelo_inurba_marseille","lat":43.28408,"lon":5.34983,"is_reserved":false,"is_disabled":false,"rental_uris":{"android":"levelo://app?vid=fb18759c-f3ca-4612-8704-baf08a44bab2","ios":"levelo://app?vid=fb18759c-f3ca-4612-8704-baf08a44bab2"},"vehicle_type_id":"4","last_reported":1740885581,"current_range_meters":11200,"station_id":"ce4bhbh2rcd13ifvqepg","pricing_plan_id":"cebpf4jnsgd1na2vs0mg"},{"bike_id":"94fa0b73-5864-4665-bdbb-eb6df01414c8","system_id":"levelo_inurba_marseille","lat":43.2466,"lon":5.38167,"is_reserved":false,"is_disabled":false,"rental_uris":{"android":"levelo://app?vid=94fa0b73-5864-4665-bdbb-eb6df01414c8","ios":"levelo://app?vid=94fa0b73-5864-4665-bdbb-eb6df01414c8"},"vehicle_type_id":"4","last_reported":1740885581,"current_range_meters":11200,"station_id":"ce4bhih2rcd13ifvqfr0","pricing_plan_id":"cebpf4jnsgd1na2vs0mg"},{"bike_id":"dca47370-0af2-4b83-9276-f3814af3b64b","system_id":"levelo_inurba_marseille","lat":43.245473,"lon":5.395285,"is_reserved":false,"is_disabled":false,"rental_uris":{"android":"levelo://app?vid=dca47370-0af2-4b83-9276-f3814af3b64b","ios":"levelo://app?vid=dca47370-0af2-4b83-9276-f3814af3b64b"},"vehicle_type_id":"4","last_reported":1740885581,"current_range_meters":11200,"station_id":"ce4bhlp2rcd13ifvqgjg","pricing_plan_id":"cebpf4jnsgd1na2vs0mg"},{"bike_id":"3c888da5-10a3-48b2-bde3-68f1af4c75b1","system_id":"levelo_inurba_marseille","lat":43.31372,"lon":5.367108,"is_reserved":false,"is_disabled":false,"rental_uris":{"android":"levelo://app?vid=3c888da5-10a3-48b2-bde3-68f1af4c75b1","ios":"levelo://app?vid=3c888da5-10a3-48b2-bde3-68f1af4c75b1"},"vehicle_type_id":"4","last_reported":1740885581,"current_range_meters":11600,"station_id":"ce4bgr92rcd13ifvqc6g","pricing_plan_id":"cebpf4jnsgd1na2vs0mg"},{"bike_id":"1989c11a-c148-40c4-ba0d-0988be13fff2","system_id":"levelo_inurba_marseille","lat":43.305944,"lon":5.393537,"is_reserved":false,"is_disabled":false,"rental_uris":{"android":"levelo://app?vid=1989c11a-c148-40c4-ba0d-0988be13fff2","ios":"levelo://app?vid=1989c11a-c148-40c4-ba0d-0988be13fff2"},"vehicle_type_id":"4","last_reported":1740885581,"current_range_meters":11600,"station_id":"ce4bh0p2rcd13ifvqd80","pricing_plan_id":"cebpf4jnsgd1na2vs0mg"},{"bike_id":"f711a177-8c95-4e96-bcaf-e6e0dc33f59e","system_id":"levelo_inurba_marseille","lat":43.24376,"lon":5.37063,"is_reserved":false,"is_disabled":false,"rental_uris":{"android":"levelo://app?vid=f711a177-8c95-4e96-bcaf-e6e0dc33f59e","ios":"levelo://app?vid=f711a177-8c95-4e96-bcaf-e6e0dc33f59e"},"vehicle_type_id":"4","last_reported":1740885581,"current_range_meters":11600,"station_id":"ce4bhhh2rcd13ifvqfk0","pricing_plan_id":"cebpf4jnsgd1na2vs0mg"},{"bike_id":"bbcad7a0-3558-4710-b9fc-e88f0b23aeac","system_id":"levelo_inurba_marseille","lat":43.257217,"lon":5.411059,"is_reserved":false,"is_disabled":false,"rental_uris":{"android":"levelo://app?vid=bbcad7a0-3558-4710-b9fc-e88f0b23aeac","ios":"levelo://app?vid=bbcad7a0-3558-4710-b9fc-e88f0b23aeac"},"vehicle_type_id":"4","last_reported":1740885581,"current_range_meters":11600,"station_id":"ce4bhkp2rcd13ifvqgd0","pricing_plan_id":"cebpf4jnsgd1na2vs0mg"},{"bike_id":"cb06de29-252c-45ff-969f-f14eca72f5f5","system_id":"levelo_inurba_marseille","lat":43.28434,"lon":5.39191,"is_reserved":false,"is_disabled":false,"rental_uris":{"android":"levelo://app?vid=cb06de29-252c-45ff-969f-f14eca72f5f5","ios":"levelo://app?vid=cb06de29-252c-45ff-969f-f14eca72f5f5"},"vehicle_type_id":"4","last_reported":1740885581,"current_range_meters":11600,"station_id":"ce4bhoh2rcd13ifvqh5g","pricing_plan_id":"cebpf4jnsgd1na2vs0mg"},{"bike_id":"49740944-d3c3-4593-a80d-2aff0de21358","system_id":"levelo_inurba_marseille","lat":43.29964,"lon":5.37017,"is_reserved":false,"is_disabled":false,"rental_uris":{"android":"levelo://app?vid=49740944-d3c3-4593-a80d-2aff0de21358","ios":"levelo://app?vid=49740944-d3c3-4593-a80d-2aff0de21358"},"vehicle_type_id":"4","last_reported":1740885581,"current_range_meters":12000,"station_id":"","pricing_plan_id":"cebpf4jnsgd1na2vs0mg"},{"bike_id":"cbeff9af-2821-498e-8353-cbbe4b72cc62","system_id":"levelo_inurba_marseille","lat":43.25004,"lon":5.38927,"is_reserved":false,"is_disabled":false,"rental_uris":{"android":"levelo://app?vid=cbeff9af-2821-498e-8353-cbbe4b72cc62","ios":"levelo://app?vid=cbeff9af-2821-498e-8353-cbbe4b72cc62"},"vehicle_type_id":"4","last_reported":1740885581,"current_range_meters":12000,"station_id":"ce4bhgp2rcd13ifvqfd0","pricing_plan_id":"cebpf4jnsgd1na2vs0mg"},{"bike_id":"d2c363b3-bacf-4359-85f2-7dc9f8b4aa4d","system_id":"levelo_inurba_marseille","lat":43.316921,"lon":5.404528,"is_reserved":false,"is_disabled":false,"rental_uris":{"android":"levelo://app?vid=d2c363b3-bacf-4359-85f2-7dc9f8b4aa4d","ios":"levelo://app?vid=d2c363b3-bacf-4359-85f2-7dc9f8b4aa4d"},"vehicle_type_id":"4","last_reported":1740885581,"current_range_meters":12400,"station_id":"ce4bh012rcd13ifvqd00","pricing_plan_id":"cebpf4jnsgd1na2vs0mg"},{"bike_id":"22e3b6e7-b64a-47b3-8ae8-7e961173385c","system_id":"levelo_inurba_marseille","lat":43.28994,"lon":5.35569,"is_reserved":false,"is_disabled":false,"rental_uris":{"android":"levelo://app?vid=22e3b6e7-b64a-47b3-8ae8-7e961173385c","ios":"levelo://app?vid=22e3b6e7-b64a-47b3-8ae8-7e961173385c"},"vehicle_type_id":"4","last_reported":1740885581,"current_range_meters":12400,"station_id":"ce4bhb92rcd13ifvqen0","pricing_plan_id":"cebpf4jnsgd1na2vs0mg"},{"bike_id":"97efda35-6204-44de-b93b-817189a09671","system_id":"levelo_inurba_marseille","lat":43.25599,"lon":5.38244,"is_reserved":false,"is_disabled":false,"rental_uris":{"android":"levelo://app?vid=97efda35-6204-44de-b93b-817189a09671","ios":"levelo://app?vid=97efda35-6204-44de-b93b-817189a09671"},"vehicle_type_id":"4","last_reported":1740885581,"current_range_meters":12400,"station_id":"ce4bhih2rcd13ifvqfs0","pricing_plan_id":"cebpf4jnsgd1na2vs0mg"},{"bike_id":"27d57ba8-cb2b-4da3-bcfc-1efd3956d0fa","system_id":"levelo_inurba_marseille","lat":43.2955,"lon":5.42282,"is_reserved":false,"is_disabled":false,"rental_uris":{"android":"levelo://app?vid=27d57ba8-cb2b-4da3-bcfc-1efd3956d0fa","ios":"levelo://app?vid=27d57ba8-cb2b-4da3-bcfc-1efd3956d0fa"},"vehicle_type_id":"4","last_reported":1740885581,"current_range_meters":12400,"station_id":"ce4bhph2rcd13ifvqhdg","pricing_plan_id":"cebpf4jnsgd1na2vs0mg"},{"bike_id":"da21eac7-93a3-411d-b040-cf4793b9b03e","system_id":"levelo_inurba_marseille","lat":43.30977,"lon":5.39052,"is_reserved":false,"is_disabled":false,"rental_uris":{"android":"levelo://app?vid=da21eac7-93a3-411d-b040-cf4793b9b03e","ios":"levelo://app?vid=da21eac7-93a3-411d-b040-cf4793b9b03e"},"vehicle_type_id":"4","last_reported":1740885581,"current_range_meters":12800,"station_id":"ce4bgup2rcd13ifvqco0","pricing_plan_id":"cebpf4jnsgd1na2vs0mg"},{"bike_id":"42f529dc-cd89-47a4-a9a4-bd9910c274a6","system_id":"levelo_inurba_marseille","lat":43.309532,"lon":5.390434,"is_reserved":false,"is_disabled":false,"rental_uris":{"android":"levelo://app?vid=42f529dc-cd89-47a4-a9a4-bd9910c274a6","ios":"levelo://app?vid=42f529dc-cd89-47a4-a9a4-bd9910c274a6"},"vehicle_type_id":"4","last_reported":1740885581,"current_range_meters":12800,"station_id":"ce4bgup2rcd13ifvqco0","pricing_plan_id":"cebpf4jnsgd1na2vs0mg"},{"bike_id":"ae04f87b-754f-4898-8869-22274c3377b5","system_id":"levelo_inurba_marseille","lat":43.29282,"lon":5.40113,"is_reserved":false,"is_disabled":false,"rental_uris":{"android":"levelo://app?vid=ae04f87b-754f-4898-8869-22274c3377b5","ios":"levelo://app?vid=ae04f87b-754f-4898-8869-22274c3377b5"},"vehicle_type_id":"4","last_reported":1740885581,"current_range_meters":12800,"station_id":"ce4bh312rcd13ifvqdk0","pricing_plan_id":"cebpf4jnsgd1na2vs0mg"},{"bike_id":"e43f4f71-054c-410e-9efa-c6d5ef79ac61","system_id":"levelo_inurba_marseille","lat":43.241746,"lon":5.397329,"is_reserved":false,"is_disabled":false,"rental_uris":{"android":"levelo://app?vid=e43f4f71-054c-410e-9efa-c6d5ef79ac61","ios":"levelo://app?vid=e43f4f71-054c-410e-9efa-c6d5ef79ac61"},"vehicle_type_id":"4","last_reported":1740885581,"current_range_meters":12800,"station_id":"ce4bhn12rcd13ifvqgpg","pricing_plan_id":"cebpf4jnsgd1na2vs0mg"},{"bike_id":"4344b157-eb08-4392-b5df-dc676d5b075c","system_id":"levelo_inurba_marseille","lat":43.30787,"lon":5.37643,"is_reserved":false,"is_disabled":false,"rental_uris":{"android":"levelo://app?vid=4344b157-eb08-4392-b5df-dc676d5b075c","ios":"levelo://app?vid=4344b157-eb08-4392-b5df-dc676d5b075c"},"vehicle_type_id":"4","last_reported":1740885581,"current_range_meters":13600,"station_id":"ce4bgv92rcd13ifvqcq0","pricing_plan_id":"cebpf4jnsgd1na2vs0mg"},{"bike_id":"abdce9a5-165a-430d-93c6-b1980bc72eea","system_id":"levelo_inurba_marseille","lat":43.31329,"lon":5.39694,"is_reserved":false,"is_disabled":false,"rental_uris":{"android":"levelo://app?vid=abdce9a5-165a-430d-93c6-b1980bc72eea","ios":"levelo://app?vid=abdce9a5-165a-430d-93c6-b1980bc72eea"},"vehicle_type_id":"4","last_reported":1740885581,"current_range_meters":13600,"station_id":"ce4bgvp2rcd13ifvqcu0","pricing_plan_id":"cebpf4jnsgd1na2vs0mg"},{"bike_id":"e2b1a97c-05f9-4994-8c76-5c4c26614832","system_id":"levelo_inurba_marseille","lat":43.26553,"lon":5.37278,"is_reserved":false,"is_disabled":false,"rental_uris":{"android":"levelo://app?vid=e2b1a97c-05f9-4994-8c76-5c4c26614832","ios":"levelo://app?vid=e2b1a97c-05f9-4994-8c76-5c4c26614832"},"vehicle_type_id":"4","last_reported":1740885581,"current_range_meters":13600,"station_id":"ce4bhg12rcd13ifvqf70","pricing_plan_id":"cebpf4jnsgd1na2vs0mg"},{"bike_id":"c272f144-1302-4356-8d7d-046dcce3b360","system_id":"levelo_inurba_marseille","lat":43.262149,"lon":5.379211,"is_reserved":false,"is_disabled":false,"rental_uris":{"android":"levelo://app?vid=c272f144-1302-4356-8d7d-046dcce3b360","ios":"levelo://app?vid=c272f144-1302-4356-8d7d-046dcce3b360"},"vehicle_type_id":"4","last_reported":1740885581,"current_range_meters":13600,"station_id":"ce4bhjp2rcd13ifvqg90","pricing_plan_id":"cebpf4jnsgd1na2vs0mg"},{"bike_id":"39c1dd7d-9a10-44b7-9513-368af5f5261b","system_id":"levelo_inurba_marseille","lat":43.30303,"lon":5.36882,"is_reserved":false,"is_disabled":false,"rental_uris":{"android":"levelo://app?vid=39c1dd7d-9a10-44b7-9513-368af5f5261b","ios":"levelo://app?vid=39c1dd7d-9a10-44b7-9513-368af5f5261b"},"vehicle_type_id":"4","last_reported":1740885581,"current_range_meters":14000,"station_id":"ce4bgqh2rcd13ifvqc5g","pricing_plan_id":"cebpf4jnsgd1na2vs0mg"},{"bike_id":"9db9a663-8169-4605-857e-9689652f92e9","system_id":"levelo_inurba_marseille","lat":43.31496,"lon":5.37279,"is_reserved":false,"is_disabled":false,"rental_uris":{"android":"levelo://app?vid=9db9a663-8169-4605-857e-9689652f92e9","ios":"levelo://app?vid=9db9a663-8169-4605-857e-9689652f92e9"},"vehicle_type_id":"4","last_reported":1740885581,"current_range_meters":14000,"station_id":"ce4bgt12rcd13ifvqcd0","pricing_plan_id":"cebpf4jnsgd1na2vs0mg"},{"bike_id":"14da2a3a-0d3b-4102-84c6-346945a4b8ae","system_id":"levelo_inurba_marseille","lat":43.31269,"lon":5.40157,"is_reserved":false,"is_disabled":false,"rental_uris":{"android":"levelo://app?vid=14da2a3a-0d3b-4102-84c6-346945a4b8ae","ios":"levelo://app?vid=14da2a3a-0d3b-4102-84c6-346945a4b8ae"},"vehicle_type_id":"4","last_reported":1740885581,"current_range_meters":14000,"station_id":"ce4bh092rcd13ifvqd30","pricing_plan_id":"cebpf4jnsgd1na2vs0mg"},{"bike_id":"d1e57ba5-c32d-4587-a341-c2139f6d0723","system_id":"levelo_inurba_marseille","lat":43.2803,"lon":5.3695,"is_reserved":false,"is_disabled":false,"rental_uris":{"android":"levelo://app?vid=d1e57ba5-c32d-4587-a341-c2139f6d0723","ios":"levelo://app?vid=d1e57ba5-c32d-4587-a341-c2139f6d0723"},"vehicle_type_id":"4","last_reported":1740885581,"current_range_meters":14000,"station_id":"ce4bha12rcd13ifvqef0","pricing_plan_id":"cebpf4jnsgd1na2vs0mg"},{"bike_id":"4013bc6c-c7f7-4089-af65-618d0eeef3f4","system_id":"levelo_inurba_marseille","lat":43.245459,"lon":5.395269,"is_reserved":false,"is_disabled":false,"rental_uris":{"android":"levelo://app?vid=4013bc6c-c7f7-4089-af65-618d0eeef3f4","ios":"levelo://app?vid=4013bc6c-c7f7-4089-af65-618d0eeef3f4"},"vehicle_type_id":"4","last_reported":1740885581,"current_range_meters":14000,"station_id":"ce4bhlp2rcd13ifvqgjg","pricing_plan_id":"cebpf4jnsgd1na2vs0mg"},{"bike_id":"ed8bb562-d048-4d97-a62c-052cc210d3b2","system_id":"levelo_inurba_marseille","lat":43.31717,"lon":5.43709,"is_reserved":false,"is_disabled":false,"rental_uris":{"android":"levelo://app?vid=ed8bb562-d048-4d97-a62c-052cc210d3b2","ios":"levelo://app?vid=ed8bb562-d048-4d97-a62c-052cc210d3b2"},"vehicle_type_id":"4","last_reported":1740885581,"current_range_meters":14000,"station_id":"ce4bhp92rcd13ifvqhcg","pricing_plan_id":"cebpf4jnsgd1na2vs0mg"},{"bike_id":"bc8aa798-f930-448d-990e-f5b91ae1768e","system_id":"levelo_inurba_marseille","lat":43.287255,"lon":5.360957,"is_reserved":false,"is_disabled":false,"rental_uris":{"android":"levelo://app?vid=bc8aa798-f930-448d-990e-f5b91ae1768e","ios":"levelo://app?vid=bc8aa798-f930-448d-990e-f5b91ae1768e"},"vehicle_type_id":"4","last_reported":1740885581,"current_range_meters":14000,"station_id":"cki0cbj6b192h4jlfktg","pricing_plan_id":"cebpf4jnsgd1na2vs0mg"},{"bike_id":"3c9c65ff-a2a8-4c52-a6f4-62bcc77556ef","system_id":"levelo_inurba_marseille","lat":43.24165,"lon":5.36394,"is_reserved":false,"is_disabled":false,"rental_uris":{"android":"levelo://app?vid=3c9c65ff-a2a8-4c52-a6f4-62bcc77556ef","ios":"levelo://app?vid=3c9c65ff-a2a8-4c52-a6f4-62bcc77556ef"},"vehicle_type_id":"4","last_reported":1740885581,"current_range_meters":14000,"station_id":"cpo36qri1sfpv3e86is0","pricing_plan_id":"cebpf4jnsgd1na2vs0mg"},{"bike_id":"858a6eb2-839d-41c4-88c1-2befe0b73ee6","system_id":"levelo_inurba_marseille","lat":43.30881,"lon":5.39626,"is_reserved":false,"is_disabled":false,"rental_uris":{"android":"levelo://app?vid=858a6eb2-839d-41c4-88c1-2befe0b73ee6","ios":"levelo://app?vid=858a6eb2-839d-41c4-88c1-2befe0b73ee6"},"vehicle_type_id":"4","last_reported":1740885581,"current_range_meters":14400,"station_id":"ce4bh012rcd13ifvqcv0","pricing_plan_id":"cebpf4jnsgd1na2vs0mg"},{"bike_id":"28094c26-ebf7-4f10-9752-a86036fd897f","system_id":"levelo_inurba_marseille","lat":43.28435,"lon":5.34999,"is_reserved":false,"is_disabled":false,"rental_uris":{"android":"levelo://app?vid=28094c26-ebf7-4f10-9752-a86036fd897f","ios":"levelo://app?vid=28094c26-ebf7-4f10-9752-a86036fd897f"},"vehicle_type_id":"4","last_reported":1740885581,"current_range_meters":14400,"station_id":"ce4bhbh2rcd13ifvqepg","pricing_plan_id":"cebpf4jnsgd1na2vs0mg"},{"bike_id":"8fd6e265-67e3-4ac3-8b33-e46f35485ff3","system_id":"levelo_inurba_marseille","lat":43.27912,"lon":5.39587,"is_reserved":false,"is_disabled":false,"rental_uris":{"android":"levelo://app?vid=8fd6e265-67e3-4ac3-8b33-e46f35485ff3","ios":"levelo://app?vid=8fd6e265-67e3-4ac3-8b33-e46f35485ff3"},"vehicle_type_id":"4","last_reported":1740885581,"current_range_meters":14400,"station_id":"ce4bhf92rcd13ifvqf40","pricing_plan_id":"cebpf4jnsgd1na2vs0mg"},{"bike_id":"49645587-4897-47af-80cb-ea0df5af90cc","system_id":"levelo_inurba_marseille","lat":43.262096,"lon":5.374461,"is_reserved":false,"is_disabled":false,"rental_uris":{"android":"levelo://app?vid=49645587-4897-47af-80cb-ea0df5af90cc","ios":"levelo://app?vid=49645587-4897-47af-80cb-ea0df5af90cc"},"vehicle_type_id":"4","last_reported":1740885581,"current_range_meters":14400,"station_id":"ce4bhgp2rcd13ifvqfc0","pricing_plan_id":"cebpf4jnsgd1na2vs0mg"},{"bike_id":"88d09cbc-1497-4fea-99b9-c1fe29ff58f0","system_id":"levelo_inurba_marseille","lat":43.28038,"lon":5.3659,"is_reserved":false,"is_disabled":false,"rental_uris":{"android":"levelo://app?vid=88d09cbc-1497-4fea-99b9-c1fe29ff58f0","ios":"levelo://app?vid=88d09cbc-1497-4fea-99b9-c1fe29ff58f0"},"vehicle_type_id":"4","last_reported":1740885581,"current_range_meters":14800,"station_id":"","pricing_plan_id":"cebpf4jnsgd1na2vs0mg"},{"bike_id":"cdc94510-961c-4d34-af09-7d4fad5c31aa","system_id":"levelo_inurba_marseille","lat":43.306009,"lon":5.372228,"is_reserved":false,"is_disabled":false,"rental_uris":{"android":"levelo://app?vid=cdc94510-961c-4d34-af09-7d4fad5c31aa","ios":"levelo://app?vid=cdc94510-961c-4d34-af09-7d4fad5c31aa"},"vehicle_type_id":"4","last_reported":1740885581,"current_range_meters":14800,"station_id":"ce4bgqh2rcd13ifvqc4g","pricing_plan_id":"cebpf4jnsgd1na2vs0mg"},{"bike_id":"72feed50-e4f0-40be-9f9f-db124cf4901a","system_id":"levelo_inurba_marseille","lat":43.31372,"lon":5.38498,"is_reserved":false,"is_disabled":false,"rental_uris":{"android":"levelo://app?vid=72feed50-e4f0-40be-9f9f-db124cf4901a","ios":"levelo://app?vid=72feed50-e4f0-40be-9f9f-db124cf4901a"},"vehicle_type_id":"4","last_reported":1740885581,"current_range_meters":14800,"station_id":"ce4bgt92rcd13ifvqcf0","pricing_plan_id":"cebpf4jnsgd1na2vs0mg"},{"bike_id":"8c528749-43df-40d6-b9b4-e80d7e8bda23","system_id":"levelo_inurba_marseille","lat":43.2655,"lon":5.37292,"is_reserved":false,"is_disabled":false,"rental_uris":{"android":"levelo://app?vid=8c528749-43df-40d6-b9b4-e80d7e8bda23","ios":"levelo://app?vid=8c528749-43df-40d6-b9b4-e80d7e8bda23"},"vehicle_type_id":"4","last_reported":1740885581,"current_range_meters":14800,"station_id":"ce4bhg12rcd13ifvqf70","pricing_plan_id":"cebpf4jnsgd1na2vs0mg"},{"bike_id":"5e54c5aa-feeb-4f5a-9c9b-69c5ab842bb9","system_id":"levelo_inurba_marseille","lat":43.27662,"lon":5.38904,"is_reserved":false,"is_disabled":false,"rental_uris":{"android":"levelo://app?vid=5e54c5aa-feeb-4f5a-9c9b-69c5ab842bb9","ios":"levelo://app?vid=5e54c5aa-feeb-4f5a-9c9b-69c5ab842bb9"},"vehicle_type_id":"4","last_reported":1740885581,"current_range_meters":14800,"station_id":"ce4bhi12rcd13ifvqfo0","pricing_plan_id":"cebpf4jnsgd1na2vs0mg"},{"bike_id":"04374387-317f-463f-bfc7-2e3d3c3c7b98","system_id":"levelo_inurba_marseille","lat":43.24164,"lon":5.39732,"is_reserved":false,"is_disabled":false,"rental_uris":{"android":"levelo://app?vid=04374387-317f-463f-bfc7-2e3d3c3c7b98","ios":"levelo://app?vid=04374387-317f-463f-bfc7-2e3d3c3c7b98"},"vehicle_type_id":"4","last_reported":1740885581,"current_range_meters":14800,"station_id":"ce4bhn12rcd13ifvqgpg","pricing_plan_id":"cebpf4jnsgd1na2vs0mg"},{"bike_id":"848e1728-4a39-474c-b550-8bc497cd3e33","system_id":"levelo_inurba_marseille","lat":43.32358,"lon":5.36752,"is_reserved":false,"is_disabled":false,"rental_uris":{"android":"levelo://app?vid=848e1728-4a39-474c-b550-8bc497cd3e33","ios":"levelo://app?vid=848e1728-4a39-474c-b550-8bc497cd3e33"},"vehicle_type_id":"4","last_reported":1740885581,"current_range_meters":14800,"station_id":"ce4bhsh2rcd13ifvqi2g","pricing_plan_id":"cebpf4jnsgd1na2vs0mg"},{"bike_id":"97ff343c-390f-423e-bd26-8a63b2f741c4","system_id":"levelo_inurba_marseille","lat":43.301014,"lon":5.373666,"is_reserved":false,"is_disabled":false,"rental_uris":{"android":"levelo://app?vid=97ff343c-390f-423e-bd26-8a63b2f741c4","ios":"levelo://app?vid=97ff343c-390f-423e-bd26-8a63b2f741c4"},"vehicle_type_id":"4","last_reported":1740885581,"current_range_meters":15200,"station_id":"ce4bgs92rcd13ifvqcc0","pricing_plan_id":"cebpf4jnsgd1na2vs0mg"},{"bike_id":"298b9c6f-efc6-4afd-adcc-46c832b63bfb","system_id":"levelo_inurba_marseille","lat":43.30138,"lon":5.39871,"is_reserved":false,"is_disabled":false,"rental_uris":{"android":"levelo://app?vid=298b9c6f-efc6-4afd-adcc-46c832b63bfb","ios":"levelo://app?vid=298b9c6f-efc6-4afd-adcc-46c832b63bfb"},"vehicle_type_id":"4","last_reported":1740885581,"current_range_meters":15200,"station_id":"ce4bh0h2rcd13ifvqd40","pricing_plan_id":"cebpf4jnsgd1na2vs0mg"},{"bike_id":"6cc05a45-a10a-49b2-a166-b59b2b1e229e","system_id":"levelo_inurba_marseille","lat":43.286611,"lon":5.363466,"is_reserved":false,"is_disabled":false,"rental_uris":{"android":"levelo://app?vid=6cc05a45-a10a-49b2-a166-b59b2b1e229e","ios":"levelo://app?vid=6cc05a45-a10a-49b2-a166-b59b2b1e229e"},"vehicle_type_id":"4","last_reported":1740885581,"current_range_meters":15200,"station_id":"ce4bhah2rcd13ifvqej0","pricing_plan_id":"cebpf4jnsgd1na2vs0mg"},{"bike_id":"3f1c5b0e-6cb1-4bd0-b31c-4fcbb4650943","system_id":"levelo_inurba_marseille","lat":43.288505,"lon":5.358485,"is_reserved":false,"is_disabled":false,"rental_uris":{"android":"levelo://app?vid=3f1c5b0e-6cb1-4bd0-b31c-4fcbb4650943","ios":"levelo://app?vid=3f1c5b0e-6cb1-4bd0-b31c-4fcbb4650943"},"vehicle_type_id":"4","last_reported":1740885581,"current_range_meters":15200,"station_id":"ce4bhb12rcd13ifvqem0","pricing_plan_id":"cebpf4jnsgd1na2vs0mg"},{"bike_id":"6641d379-f97c-46bc-9a0d-767526e51f5d","system_id":"levelo_inurba_marseille","lat":43.251197,"lon":5.403163,"is_reserved":false,"is_disabled":false,"rental_uris":{"android":"levelo://app?vid=6641d379-f97c-46bc-9a0d-767526e51f5d","ios":"levelo://app?vid=6641d379-f97c-46bc-9a0d-767526e51f5d"},"vehicle_type_id":"4","last_reported":1740885581,"current_range_meters":15200,"station_id":"ce4bhlh2rcd13ifvqgig","pricing_plan_id":"cebpf4jnsgd1na2vs0mg"},{"bike_id":"b89b9e97-65c4-4473-a19f-c73995b54f7e","system_id":"levelo_inurba_marseille","lat":43.23051,"lon":5.35482,"is_reserved":false,"is_disabled":false,"rental_uris":{"android":"levelo://app?vid=b89b9e97-65c4-4473-a19f-c73995b54f7e","ios":"levelo://app?vid=b89b9e97-65c4-4473-a19f-c73995b54f7e"},"vehicle_type_id":"4","last_reported":1740885581,"current_range_meters":15200,"station_id":"cpo3342slgdg3j2ifvpg","pricing_plan_id":"cebpf4jnsgd1na2vs0mg"},{"bike_id":"2e9c27d3-7345-4cf1-8b14-d9496e0e96ab","system_id":"levelo_inurba_marseille","lat":43.30885,"lon":5.39641,"is_reserved":false,"is_disabled":false,"rental_uris":{"android":"levelo://app?vid=2e9c27d3-7345-4cf1-8b14-d9496e0e96ab","ios":"levelo://app?vid=2e9c27d3-7345-4cf1-8b14-d9496e0e96ab"},"vehicle_type_id":"4","last_reported":1740885581,"current_range_meters":16000,"station_id":"ce4bh012rcd13ifvqcv0","pricing_plan_id":"cebpf4jnsgd1na2vs0mg"},{"bike_id":"8e886d15-f7c9-408d-8ce6-c26a75e0d003","system_id":"levelo_inurba_marseille","lat":43.31721,"lon":5.40458,"is_reserved":false,"is_disabled":false,"rental_uris":{"android":"levelo://app?vid=8e886d15-f7c9-408d-8ce6-c26a75e0d003","ios":"levelo://app?vid=8e886d15-f7c9-408d-8ce6-c26a75e0d003"},"vehicle_type_id":"4","last_reported":1740885581,"current_range_meters":16000,"station_id":"ce4bh012rcd13ifvqd00","pricing_plan_id":"cebpf4jnsgd1na2vs0mg"},{"bike_id":"4d321666-40c9-4048-9095-2f47f91af4f4","system_id":"levelo_inurba_marseille","lat":43.26197,"lon":5.374452,"is_reserved":false,"is_disabled":false,"rental_uris":{"android":"levelo://app?vid=4d321666-40c9-4048-9095-2f47f91af4f4","ios":"levelo://app?vid=4d321666-40c9-4048-9095-2f47f91af4f4"},"vehicle_type_id":"4","last_reported":1740885581,"current_range_meters":16000,"station_id":"ce4bhgp2rcd13ifvqfc0","pricing_plan_id":"cebpf4jnsgd1na2vs0mg"},{"bike_id":"d77bb8e4-a9b4-4507-b334-f19a9671fd03","system_id":"levelo_inurba_marseille","lat":43.23965,"lon":5.36631,"is_reserved":false,"is_disabled":false,"rental_uris":{"android":"levelo://app?vid=d77bb8e4-a9b4-4507-b334-f19a9671fd03","ios":"levelo://app?vid=d77bb8e4-a9b4-4507-b334-f19a9671fd03"},"vehicle_type_id":"4","last_reported":1740885581,"current_range_meters":16000,"station_id":"ce4bhi12rcd13ifvqfp0","pricing_plan_id":"cebpf4jnsgd1na2vs0mg"},{"bike_id":"bff943d6-157c-4fde-8a62-68c660481aa5","system_id":"levelo_inurba_marseille","lat":43.25116,"lon":5.40326,"is_reserved":false,"is_disabled":false,"rental_uris":{"android":"levelo://app?vid=bff943d6-157c-4fde-8a62-68c660481aa5","ios":"levelo://app?vid=bff943d6-157c-4fde-8a62-68c660481aa5"},"vehicle_type_id":"4","last_reported":1740885581,"current_range_meters":16000,"station_id":"ce4bhlh2rcd13ifvqgig","pricing_plan_id":"cebpf4jnsgd1na2vs0mg"},{"bike_id":"1b2a055e-ea37-482f-853e-c714e4fa336c","system_id":"levelo_inurba_marseille","lat":43.28081,"lon":5.396549,"is_reserved":false,"is_disabled":false,"rental_uris":{"android":"levelo://app?vid=1b2a055e-ea37-482f-853e-c714e4fa336c","ios":"levelo://app?vid=1b2a055e-ea37-482f-853e-c714e4fa336c"},"vehicle_type_id":"4","last_reported":1740885581,"current_range_meters":16000,"station_id":"ce4bho12rcd13ifvqh2g","pricing_plan_id":"cebpf4jnsgd1na2vs0mg"},{"bike_id":"96090500-e92b-4618-a8ce-3e71815df01c","system_id":"levelo_inurba_marseille","lat":43.31076,"lon":5.38236,"is_reserved":false,"is_disabled":false,"rental_uris":{"android":"levelo://app?vid=96090500-e92b-4618-a8ce-3e71815df01c","ios":"levelo://app?vid=96090500-e92b-4618-a8ce-3e71815df01c"},"vehicle_type_id":"4","last_reported":1740885581,"current_range_meters":16400,"station_id":"","pricing_plan_id":"cebpf4jnsgd1na2vs0mg"},{"bike_id":"945ca114-2135-4f34-b82f-3bc182265213","system_id":"levelo_inurba_marseille","lat":43.3095,"lon":5.39028,"is_reserved":false,"is_disabled":false,"rental_uris":{"android":"levelo://app?vid=945ca114-2135-4f34-b82f-3bc182265213","ios":"levelo://app?vid=945ca114-2135-4f34-b82f-3bc182265213"},"vehicle_type_id":"4","last_reported":1740885581,"current_range_meters":16400,"station_id":"ce4bgup2rcd13ifvqco0","pricing_plan_id":"cebpf4jnsgd1na2vs0mg"},{"bike_id":"ce65d6bd-a604-4431-8ded-0f122584d950","system_id":"levelo_inurba_marseille","lat":43.3089,"lon":5.39653,"is_reserved":false,"is_disabled":false,"rental_uris":{"android":"levelo://app?vid=ce65d6bd-a604-4431-8ded-0f122584d950","ios":"levelo://app?vid=ce65d6bd-a604-4431-8ded-0f122584d950"},"vehicle_type_id":"4","last_reported":1740885581,"current_range_meters":16400,"station_id":"ce4bh012rcd13ifvqcv0","pricing_plan_id":"cebpf4jnsgd1na2vs0mg"},{"bike_id":"f88c1ab2-9a0a-4d80-98da-bc4df9a62c49","system_id":"levelo_inurba_marseille","lat":43.30591,"lon":5.39344,"is_reserved":false,"is_disabled":false,"rental_uris":{"android":"levelo://app?vid=f88c1ab2-9a0a-4d80-98da-bc4df9a62c49","ios":"levelo://app?vid=f88c1ab2-9a0a-4d80-98da-bc4df9a62c49"},"vehicle_type_id":"4","last_reported":1740885581,"current_range_meters":16400,"station_id":"ce4bh0p2rcd13ifvqd80","pricing_plan_id":"cebpf4jnsgd1na2vs0mg"},{"bike_id":"50e686f9-c8dc-4e11-9ad9-f77b6dc8bacd","system_id":"levelo_inurba_marseille","lat":43.28111,"lon":5.37846,"is_reserved":false,"is_disabled":false,"rental_uris":{"android":"levelo://app?vid=50e686f9-c8dc-4e11-9ad9-f77b6dc8bacd","ios":"levelo://app?vid=50e686f9-c8dc-4e11-9ad9-f77b6dc8bacd"},"vehicle_type_id":"4","last_reported":1740885581,"current_range_meters":16400,"station_id":"ce4bha12rcd13ifvqee0","pricing_plan_id":"cebpf4jnsgd1na2vs0mg"},{"bike_id":"0f05a555-e598-43c7-bb27-5b9b48daab9f","system_id":"levelo_inurba_marseille","lat":43.243864,"lon":5.370564,"is_reserved":false,"is_disabled":false,"rental_uris":{"android":"levelo://app?vid=0f05a555-e598-43c7-bb27-5b9b48daab9f","ios":"levelo://app?vid=0f05a555-e598-43c7-bb27-5b9b48daab9f"},"vehicle_type_id":"4","last_reported":1740885581,"current_range_meters":16400,"station_id":"ce4bhhh2rcd13ifvqfk0","pricing_plan_id":"cebpf4jnsgd1na2vs0mg"},{"bike_id":"7a2dc981-8a85-486c-920c-c6247ab857fd","system_id":"levelo_inurba_marseille","lat":43.2317,"lon":5.43706,"is_reserved":false,"is_disabled":false,"rental_uris":{"android":"levelo://app?vid=7a2dc981-8a85-486c-920c-c6247ab857fd","ios":"levelo://app?vid=7a2dc981-8a85-486c-920c-c6247ab857fd"},"vehicle_type_id":"4","last_reported":1740885581,"current_range_meters":16400,"station_id":"ce4bhmp2rcd13ifvqgog","pricing_plan_id":"cebpf4jnsgd1na2vs0mg"},{"bike_id":"61a68250-08f6-4c4d-b5cd-c6750baf57e5","system_id":"levelo_inurba_marseille","lat":43.2418,"lon":5.39728,"is_reserved":false,"is_disabled":false,"rental_uris":{"android":"levelo://app?vid=61a68250-08f6-4c4d-b5cd-c6750baf57e5","ios":"levelo://app?vid=61a68250-08f6-4c4d-b5cd-c6750baf57e5"},"vehicle_type_id":"4","last_reported":1740885581,"current_range_meters":16400,"station_id":"ce4bhn12rcd13ifvqgpg","pricing_plan_id":"cebpf4jnsgd1na2vs0mg"},{"bike_id":"d582d420-ad76-4943-9aaa-ec3ad66c7cfa","system_id":"levelo_inurba_marseille","lat":43.24065,"lon":5.37754,"is_reserved":false,"is_disabled":false,"rental_uris":{"android":"levelo://app?vid=d582d420-ad76-4943-9aaa-ec3ad66c7cfa","ios":"levelo://app?vid=d582d420-ad76-4943-9aaa-ec3ad66c7cfa"},"vehicle_type_id":"4","last_reported":1740885581,"current_range_meters":16400,"station_id":"ce4bhnp2rcd13ifvqgvg","pricing_plan_id":"cebpf4jnsgd1na2vs0mg"},{"bike_id":"7aee8f5d-2d14-456e-9b70-39df79503130","system_id":"levelo_inurba_marseille","lat":43.30314,"lon":5.36907,"is_reserved":false,"is_disabled":false,"rental_uris":{"android":"levelo://app?vid=7aee8f5d-2d14-456e-9b70-39df79503130","ios":"levelo://app?vid=7aee8f5d-2d14-456e-9b70-39df79503130"},"vehicle_type_id":"4","last_reported":1740885581,"current_range_meters":16800,"station_id":"ce4bgqh2rcd13ifvqc5g","pricing_plan_id":"cebpf4jnsgd1na2vs0mg"},{"bike_id":"021024b2-d7f2-4303-ad4b-64d047e1cf29","system_id":"levelo_inurba_marseille","lat":43.30941,"lon":5.40145,"is_reserved":false,"is_disabled":false,"rental_uris":{"android":"levelo://app?vid=021024b2-d7f2-4303-ad4b-64d047e1cf29","ios":"levelo://app?vid=021024b2-d7f2-4303-ad4b-64d047e1cf29"},"vehicle_type_id":"4","last_reported":1740885581,"current_range_meters":16800,"station_id":"ce4bgvp2rcd13ifvqct0","pricing_plan_id":"cebpf4jnsgd1na2vs0mg"},{"bike_id":"0c788d9b-5b7c-4b48-bc04-9039dc5ee0b5","system_id":"levelo_inurba_marseille","lat":43.27561,"lon":5.38394,"is_reserved":false,"is_disabled":false,"rental_uris":{"android":"levelo://app?vid=0c788d9b-5b7c-4b48-bc04-9039dc5ee0b5","ios":"levelo://app?vid=0c788d9b-5b7c-4b48-bc04-9039dc5ee0b5"},"vehicle_type_id":"4","last_reported":1740885581,"current_range_meters":16800,"station_id":"ce4bhh92rcd13ifvqfi0","pricing_plan_id":"cebpf4jnsgd1na2vs0mg"},{"bike_id":"18ed809a-93be-4ceb-a90d-b4661309b51d","system_id":"levelo_inurba_marseille","lat":43.309451,"lon":5.374409,"is_reserved":false,"is_disabled":false,"rental_uris":{"android":"levelo://app?vid=18ed809a-93be-4ceb-a90d-b4661309b51d","ios":"levelo://app?vid=18ed809a-93be-4ceb-a90d-b4661309b51d"},"vehicle_type_id":"4","last_reported":1740885581,"current_range_meters":17200,"station_id":"","pricing_plan_id":"cebpf4jnsgd1na2vs0mg"},{"bike_id":"d66b749a-0808-469e-b143-0787b08d816b","system_id":"levelo_inurba_marseille","lat":43.26223,"lon":5.37445,"is_reserved":false,"is_disabled":false,"rental_uris":{"android":"levelo://app?vid=d66b749a-0808-469e-b143-0787b08d816b","ios":"levelo://app?vid=d66b749a-0808-469e-b143-0787b08d816b"},"vehicle_type_id":"4","last_reported":1740885581,"current_range_meters":17200,"station_id":"","pricing_plan_id":"cebpf4jnsgd1na2vs0mg"},{"bike_id":"2c61996a-507a-4480-822d-eacdcb7cade2","system_id":"levelo_inurba_marseille","lat":43.31302,"lon":5.37321,"is_reserved":false,"is_disabled":false,"rental_uris":{"android":"levelo://app?vid=2c61996a-507a-4480-822d-eacdcb7cade2","ios":"levelo://app?vid=2c61996a-507a-4480-822d-eacdcb7cade2"},"vehicle_type_id":"4","last_reported":1740885581,"current_range_meters":17200,"station_id":"","pricing_plan_id":"cebpf4jnsgd1na2vs0mg"},{"bike_id":"fd2a23d4-87bf-4c92-a29f-6fc7c6c5fc9b","system_id":"levelo_inurba_marseille","lat":43.29922,"lon":5.37453,"is_reserved":false,"is_disabled":false,"rental_uris":{"android":"levelo://app?vid=fd2a23d4-87bf-4c92-a29f-6fc7c6c5fc9b","ios":"levelo://app?vid=fd2a23d4-87bf-4c92-a29f-6fc7c6c5fc9b"},"vehicle_type_id":"4","last_reported":1740885581,"current_range_meters":17200,"station_id":"ce4bgjh2rcd13ifvqbg0","pricing_plan_id":"cebpf4jnsgd1na2vs0mg"},{"bike_id":"8f81292b-4c65-4fed-ba63-f852718c911a","system_id":"levelo_inurba_marseille","lat":43.3149,"lon":5.37294,"is_reserved":false,"is_disabled":false,"rental_uris":{"android":"levelo://app?vid=8f81292b-4c65-4fed-ba63-f852718c911a","ios":"levelo://app?vid=8f81292b-4c65-4fed-ba63-f852718c911a"},"vehicle_type_id":"4","last_reported":1740885581,"current_range_meters":17200,"station_id":"ce4bgt12rcd13ifvqcd0","pricing_plan_id":"cebpf4jnsgd1na2vs0mg"},{"bike_id":"f74b8b26-1cd7-4baf-bb77-96ed6c914855","system_id":"levelo_inurba_marseille","lat":43.30804,"lon":5.38128,"is_reserved":false,"is_disabled":false,"rental_uris":{"android":"levelo://app?vid=f74b8b26-1cd7-4baf-bb77-96ed6c914855","ios":"levelo://app?vid=f74b8b26-1cd7-4baf-bb77-96ed6c914855"},"vehicle_type_id":"4","last_reported":1740885581,"current_range_meters":17200,"station_id":"ce4bgt12rcd13ifvqce0","pricing_plan_id":"cebpf4jnsgd1na2vs0mg"},{"bike_id":"3435514d-ac1e-4be3-a87f-54af706bc07c","system_id":"levelo_inurba_marseille","lat":43.30466,"lon":5.37906,"is_reserved":false,"is_disabled":false,"rental_uris":{"android":"levelo://app?vid=3435514d-ac1e-4be3-a87f-54af706bc07c","ios":"levelo://app?vid=3435514d-ac1e-4be3-a87f-54af706bc07c"},"vehicle_type_id":"4","last_reported":1740885581,"current_range_meters":17200,"station_id":"ce4bgup2rcd13ifvqcn0","pricing_plan_id":"cebpf4jnsgd1na2vs0mg"},{"bike_id":"86eaf335-11b7-40e5-aeb8-dc4ff2cf4e40","system_id":"levelo_inurba_marseille","lat":43.28038,"lon":5.36956,"is_reserved":false,"is_disabled":false,"rental_uris":{"android":"levelo://app?vid=86eaf335-11b7-40e5-aeb8-dc4ff2cf4e40","ios":"levelo://app?vid=86eaf335-11b7-40e5-aeb8-dc4ff2cf4e40"},"vehicle_type_id":"4","last_reported":1740885581,"current_range_meters":17200,"station_id":"ce4bha12rcd13ifvqef0","pricing_plan_id":"cebpf4jnsgd1na2vs0mg"},{"bike_id":"6cb0c14c-baad-4de6-a521-4b158924ba91","system_id":"levelo_inurba_marseille","lat":43.28663,"lon":5.363554,"is_reserved":false,"is_disabled":false,"rental_uris":{"android":"levelo://app?vid=6cb0c14c-baad-4de6-a521-4b158924ba91","ios":"levelo://app?vid=6cb0c14c-baad-4de6-a521-4b158924ba91"},"vehicle_type_id":"4","last_reported":1740885581,"current_range_meters":17200,"station_id":"ce4bhah2rcd13ifvqej0","pricing_plan_id":"cebpf4jnsgd1na2vs0mg"},{"bike_id":"9181a5ec-449b-4ace-941b-8b0c1362c76f","system_id":"levelo_inurba_marseille","lat":43.26549,"lon":5.37302,"is_reserved":false,"is_disabled":false,"rental_uris":{"android":"levelo://app?vid=9181a5ec-449b-4ace-941b-8b0c1362c76f","ios":"levelo://app?vid=9181a5ec-449b-4ace-941b-8b0c1362c76f"},"vehicle_type_id":"4","last_reported":1740885581,"current_range_meters":17200,"station_id":"ce4bhg12rcd13ifvqf70","pricing_plan_id":"cebpf4jnsgd1na2vs0mg"},{"bike_id":"6d13a634-3969-4704-8104-ef55e819d437","system_id":"levelo_inurba_marseille","lat":43.27499,"lon":5.42444,"is_reserved":false,"is_disabled":false,"rental_uris":{"android":"levelo://app?vid=6d13a634-3969-4704-8104-ef55e819d437","ios":"levelo://app?vid=6d13a634-3969-4704-8104-ef55e819d437"},"vehicle_type_id":"4","last_reported":1740885581,"current_range_meters":17200,"station_id":"ce4bhn92rcd13ifvqgrg","pricing_plan_id":"cebpf4jnsgd1na2vs0mg"},{"bike_id":"c5b35fc3-133b-4fcd-9bc1-000b1b46221f","system_id":"levelo_inurba_marseille","lat":43.241652,"lon":5.363973,"is_reserved":false,"is_disabled":false,"rental_uris":{"android":"levelo://app?vid=c5b35fc3-133b-4fcd-9bc1-000b1b46221f","ios":"levelo://app?vid=c5b35fc3-133b-4fcd-9bc1-000b1b46221f"},"vehicle_type_id":"4","last_reported":1740885581,"current_range_meters":17200,"station_id":"cpo36qri1sfpv3e86is0","pricing_plan_id":"cebpf4jnsgd1na2vs0mg"},{"bike_id":"cc836fe0-3cfd-4fe9-beb4-1fec15d76872","system_id":"levelo_inurba_marseille","lat":43.30424,"lon":5.37335,"is_reserved":false,"is_disabled":false,"rental_uris":{"android":"levelo://app?vid=cc836fe0-3cfd-4fe9-beb4-1fec15d76872","ios":"levelo://app?vid=cc836fe0-3cfd-4fe9-beb4-1fec15d76872"},"vehicle_type_id":"4","last_reported":1740885581,"current_range_meters":17600,"station_id":"","pricing_plan_id":"cebpf4jnsgd1na2vs0mg"},{"bike_id":"e69260b5-1711-443e-b6f4-5183d73c03cb","system_id":"levelo_inurba_marseille","lat":43.31364,"lon":5.38496,"is_reserved":false,"is_disabled":false,"rental_uris":{"android":"levelo://app?vid=e69260b5-1711-443e-b6f4-5183d73c03cb","ios":"levelo://app?vid=e69260b5-1711-443e-b6f4-5183d73c03cb"},"vehicle_type_id":"4","last_reported":1740885581,"current_range_meters":17600,"station_id":"ce4bgt92rcd13ifvqcf0","pricing_plan_id":"cebpf4jnsgd1na2vs0mg"},{"bike_id":"319abd2e-fb1d-4d18-9162-7ce610338051","system_id":"levelo_inurba_marseille","lat":43.31071,"lon":5.38345,"is_reserved":false,"is_disabled":false,"rental_uris":{"android":"levelo://app?vid=319abd2e-fb1d-4d18-9162-7ce610338051","ios":"levelo://app?vid=319abd2e-fb1d-4d18-9162-7ce610338051"},"vehicle_type_id":"4","last_reported":1740885581,"current_range_meters":17600,"station_id":"ce4bgv92rcd13ifvqcr0","pricing_plan_id":"cebpf4jnsgd1na2vs0mg"},{"bike_id":"35de5d9e-453d-4b6e-a49a-d72de279088a","system_id":"levelo_inurba_marseille","lat":43.261923,"lon":5.374483,"is_reserved":false,"is_disabled":false,"rental_uris":{"android":"levelo://app?vid=35de5d9e-453d-4b6e-a49a-d72de279088a","ios":"levelo://app?vid=35de5d9e-453d-4b6e-a49a-d72de279088a"},"vehicle_type_id":"4","last_reported":1740885581,"current_range_meters":17600,"station_id":"ce4bhgp2rcd13ifvqfc0","pricing_plan_id":"cebpf4jnsgd1na2vs0mg"},{"bike_id":"d29e82e5-442b-4177-903e-3742ab7d0a8c","system_id":"levelo_inurba_marseille","lat":43.30026,"lon":5.37421,"is_reserved":false,"is_disabled":false,"rental_uris":{"android":"levelo://app?vid=d29e82e5-442b-4177-903e-3742ab7d0a8c","ios":"levelo://app?vid=d29e82e5-442b-4177-903e-3742ab7d0a8c"},"vehicle_type_id":"4","last_reported":1740885581,"current_range_meters":18000,"station_id":"","pricing_plan_id":"cebpf4jnsgd1na2vs0mg"},{"bike_id":"bc916fbe-3905-4d9c-b367-4f1dbc4aac09","system_id":"levelo_inurba_marseille","lat":43.27329,"lon":5.39072,"is_reserved":false,"is_disabled":false,"rental_uris":{"android":"levelo://app?vid=bc916fbe-3905-4d9c-b367-4f1dbc4aac09","ios":"levelo://app?vid=bc916fbe-3905-4d9c-b367-4f1dbc4aac09"},"vehicle_type_id":"4","last_reported":1740885581,"current_range_meters":18000,"station_id":"ce4bhgp2rcd13ifvqfe0","pricing_plan_id":"cebpf4jnsgd1na2vs0mg"},{"bike_id":"46b42730-9dd3-44c5-91a9-d6d931f385c3","system_id":"levelo_inurba_marseille","lat":43.25463,"lon":5.37655,"is_reserved":false,"is_disabled":false,"rental_uris":{"android":"levelo://app?vid=46b42730-9dd3-44c5-91a9-d6d931f385c3","ios":"levelo://app?vid=46b42730-9dd3-44c5-91a9-d6d931f385c3"},"vehicle_type_id":"4","last_reported":1740885581,"current_range_meters":18000,"station_id":"ce4bhh12rcd13ifvqff0","pricing_plan_id":"cebpf4jnsgd1na2vs0mg"},{"bike_id":"670122a3-157a-4ef1-82d1-a5574649dac0","system_id":"levelo_inurba_marseille","lat":43.239564,"lon":5.366301,"is_reserved":false,"is_disabled":false,"rental_uris":{"android":"levelo://app?vid=670122a3-157a-4ef1-82d1-a5574649dac0","ios":"levelo://app?vid=670122a3-157a-4ef1-82d1-a5574649dac0"},"vehicle_type_id":"4","last_reported":1740885581,"current_range_meters":18000,"station_id":"ce4bhi12rcd13ifvqfp0","pricing_plan_id":"cebpf4jnsgd1na2vs0mg"},{"bike_id":"83c87a3f-f875-4ca6-b287-fd750606da22","system_id":"levelo_inurba_marseille","lat":43.23198,"lon":5.39982,"is_reserved":false,"is_disabled":false,"rental_uris":{"android":"levelo://app?vid=83c87a3f-f875-4ca6-b287-fd750606da22","ios":"levelo://app?vid=83c87a3f-f875-4ca6-b287-fd750606da22"},"vehicle_type_id":"4","last_reported":1740885581,"current_range_meters":18000,"station_id":"ce4bhn12rcd13ifvqgqg","pricing_plan_id":"cebpf4jnsgd1na2vs0mg"},{"bike_id":"d741aaf3-6062-460e-b109-b5b0486e37ac","system_id":"levelo_inurba_marseille","lat":43.2955,"lon":5.42276,"is_reserved":false,"is_disabled":false,"rental_uris":{"android":"levelo://app?vid=d741aaf3-6062-460e-b109-b5b0486e37ac","ios":"levelo://app?vid=d741aaf3-6062-460e-b109-b5b0486e37ac"},"vehicle_type_id":"4","last_reported":1740885581,"current_range_meters":18000,"station_id":"ce4bhph2rcd13ifvqhdg","pricing_plan_id":"cebpf4jnsgd1na2vs0mg"},{"bike_id":"b30004cc-fcf2-4209-9032-c1b9b157b35a","system_id":"levelo_inurba_marseille","lat":43.29555,"lon":5.42288,"is_reserved":false,"is_disabled":false,"rental_uris":{"android":"levelo://app?vid=b30004cc-fcf2-4209-9032-c1b9b157b35a","ios":"levelo://app?vid=b30004cc-fcf2-4209-9032-c1b9b157b35a"},"vehicle_type_id":"4","last_reported":1740885581,"current_range_meters":18000,"station_id":"ce4bhph2rcd13ifvqhdg","pricing_plan_id":"cebpf4jnsgd1na2vs0mg"},{"bike_id":"f923de7e-7d99-4396-ad77-2cf485bcbfe5","system_id":"levelo_inurba_marseille","lat":43.32368,"lon":5.388835,"is_reserved":false,"is_disabled":false,"rental_uris":{"android":"levelo://app?vid=f923de7e-7d99-4396-ad77-2cf485bcbfe5","ios":"levelo://app?vid=f923de7e-7d99-4396-ad77-2cf485bcbfe5"},"vehicle_type_id":"4","last_reported":1740885581,"current_range_meters":18000,"station_id":"ce4bhqp2rcd13ifvqhog","pricing_plan_id":"cebpf4jnsgd1na2vs0mg"},{"bike_id":"982a6c2e-2f14-45e6-81c3-569abb57b097","system_id":"levelo_inurba_marseille","lat":43.23054,"lon":5.35499,"is_reserved":false,"is_disabled":false,"rental_uris":{"android":"levelo://app?vid=982a6c2e-2f14-45e6-81c3-569abb57b097","ios":"levelo://app?vid=982a6c2e-2f14-45e6-81c3-569abb57b097"},"vehicle_type_id":"4","last_reported":1740885581,"current_range_meters":18000,"station_id":"cpo3342slgdg3j2ifvpg","pricing_plan_id":"cebpf4jnsgd1na2vs0mg"},{"bike_id":"0b85d778-5f42-41f6-99e6-93c2062ce94d","system_id":"levelo_inurba_marseille","lat":43.31677,"lon":5.43774,"is_reserved":false,"is_disabled":false,"rental_uris":{"android":"levelo://app?vid=0b85d778-5f42-41f6-99e6-93c2062ce94d","ios":"levelo://app?vid=0b85d778-5f42-41f6-99e6-93c2062ce94d"},"vehicle_type_id":"4","last_reported":1740885581,"current_range_meters":18800,"station_id":"","pricing_plan_id":"cebpf4jnsgd1na2vs0mg"},{"bike_id":"23418860-f591-46dc-a2d5-0cc5111bf86a","system_id":"levelo_inurba_marseille","lat":43.26191,"lon":5.42065,"is_reserved":false,"is_disabled":false,"rental_uris":{"android":"levelo://app?vid=23418860-f591-46dc-a2d5-0cc5111bf86a","ios":"levelo://app?vid=23418860-f591-46dc-a2d5-0cc5111bf86a"},"vehicle_type_id":"4","last_reported":1740885581,"current_range_meters":18800,"station_id":"","pricing_plan_id":"cebpf4jnsgd1na2vs0mg"},{"bike_id":"acaf3858-0f6d-4546-b015-09b042b761ed","system_id":"levelo_inurba_marseille","lat":43.28493,"lon":5.384165,"is_reserved":false,"is_disabled":false,"rental_uris":{"android":"levelo://app?vid=acaf3858-0f6d-4546-b015-09b042b761ed","ios":"levelo://app?vid=acaf3858-0f6d-4546-b015-09b042b761ed"},"vehicle_type_id":"4","last_reported":1740885581,"current_range_meters":18800,"station_id":"ce4bh512rcd13ifvqe3g","pricing_plan_id":"cebpf4jnsgd1na2vs0mg"},{"bike_id":"417fbd7d-d6d8-4c3a-98dd-ce0156edb9f1","system_id":"levelo_inurba_marseille","lat":43.28413,"lon":5.34984,"is_reserved":false,"is_disabled":false,"rental_uris":{"android":"levelo://app?vid=417fbd7d-d6d8-4c3a-98dd-ce0156edb9f1","ios":"levelo://app?vid=417fbd7d-d6d8-4c3a-98dd-ce0156edb9f1"},"vehicle_type_id":"4","last_reported":1740885581,"current_range_meters":18800,"station_id":"ce4bhbh2rcd13ifvqepg","pricing_plan_id":"cebpf4jnsgd1na2vs0mg"},{"bike_id":"718bbe9e-c0ee-48c2-b1aa-660318e63793","system_id":"levelo_inurba_marseille","lat":43.3117,"lon":5.38719,"is_reserved":false,"is_disabled":false,"rental_uris":{"android":"levelo://app?vid=718bbe9e-c0ee-48c2-b1aa-660318e63793","ios":"levelo://app?vid=718bbe9e-c0ee-48c2-b1aa-660318e63793"},"vehicle_type_id":"4","last_reported":1740885581,"current_range_meters":18800,"station_id":"ce4bhc92rcd13ifvqetg","pricing_plan_id":"cebpf4jnsgd1na2vs0mg"},{"bike_id":"aa6a3d6e-55a5-4093-b598-d24e4a99a410","system_id":"levelo_inurba_marseille","lat":43.275601,"lon":5.384309,"is_reserved":false,"is_disabled":false,"rental_uris":{"android":"levelo://app?vid=aa6a3d6e-55a5-4093-b598-d24e4a99a410","ios":"levelo://app?vid=aa6a3d6e-55a5-4093-b598-d24e4a99a410"},"vehicle_type_id":"4","last_reported":1740885581,"current_range_meters":18800,"station_id":"ce4bhh92rcd13ifvqfi0","pricing_plan_id":"cebpf4jnsgd1na2vs0mg"},{"bike_id":"ad3f9331-e2cd-4bf0-845a-bfb8a08a858f","system_id":"levelo_inurba_marseille","lat":43.30189,"lon":5.39771,"is_reserved":false,"is_disabled":false,"rental_uris":{"android":"levelo://app?vid=ad3f9331-e2cd-4bf0-845a-bfb8a08a858f","ios":"levelo://app?vid=ad3f9331-e2cd-4bf0-845a-bfb8a08a858f"},"vehicle_type_id":"4","last_reported":1740885581,"current_range_meters":19200,"station_id":"","pricing_plan_id":"cebpf4jnsgd1na2vs0mg"},{"bike_id":"d7455ef1-0ce2-47d7-a2ab-1379fc9a165f","system_id":"levelo_inurba_marseille","lat":43.27615,"lon":5.36113,"is_reserved":false,"is_disabled":false,"rental_uris":{"android":"levelo://app?vid=d7455ef1-0ce2-47d7-a2ab-1379fc9a165f","ios":"levelo://app?vid=d7455ef1-0ce2-47d7-a2ab-1379fc9a165f"},"vehicle_type_id":"4","last_reported":1740885581,"current_range_meters":19200,"station_id":"ce4bgj92rcd13ifvqbe0","pricing_plan_id":"cebpf4jnsgd1na2vs0mg"},{"bike_id":"ed3fdd04-4f01-4dec-bae0-dc817c8e7da9","system_id":"levelo_inurba_marseille","lat":43.306331,"lon":5.372021,"is_reserved":false,"is_disabled":false,"rental_uris":{"android":"levelo://app?vid=ed3fdd04-4f01-4dec-bae0-dc817c8e7da9","ios":"levelo://app?vid=ed3fdd04-4f01-4dec-bae0-dc817c8e7da9"},"vehicle_type_id":"4","last_reported":1740885581,"current_range_meters":19200,"station_id":"ce4bgqh2rcd13ifvqc4g","pricing_plan_id":"cebpf4jnsgd1na2vs0mg"},{"bike_id":"ae8b146d-daad-47c5-8235-24ea2da30b35","system_id":"levelo_inurba_marseille","lat":43.31121,"lon":5.3778,"is_reserved":false,"is_disabled":false,"rental_uris":{"android":"levelo://app?vid=ae8b146d-daad-47c5-8235-24ea2da30b35","ios":"levelo://app?vid=ae8b146d-daad-47c5-8235-24ea2da30b35"},"vehicle_type_id":"4","last_reported":1740885581,"current_range_meters":19200,"station_id":"ce4bgt92rcd13ifvqcg0","pricing_plan_id":"cebpf4jnsgd1na2vs0mg"},{"bike_id":"eaa57fee-06ba-46a7-9e6a-dc1c754f60a1","system_id":"levelo_inurba_marseille","lat":43.306426,"lon":5.400829,"is_reserved":false,"is_disabled":false,"rental_uris":{"android":"levelo://app?vid=eaa57fee-06ba-46a7-9e6a-dc1c754f60a1","ios":"levelo://app?vid=eaa57fee-06ba-46a7-9e6a-dc1c754f60a1"},"vehicle_type_id":"4","last_reported":1740885581,"current_range_meters":19200,"station_id":"ce4bh112rcd13ifvqda0","pricing_plan_id":"cebpf4jnsgd1na2vs0mg"},{"bike_id":"be1bca98-7eff-44bc-9edb-a3c2a34e7f9a","system_id":"levelo_inurba_marseille","lat":43.26558,"lon":5.39003,"is_reserved":false,"is_disabled":false,"rental_uris":{"android":"levelo://app?vid=be1bca98-7eff-44bc-9edb-a3c2a34e7f9a","ios":"levelo://app?vid=be1bca98-7eff-44bc-9edb-a3c2a34e7f9a"},"vehicle_type_id":"4","last_reported":1740885581,"current_range_meters":19200,"station_id":"ce4bhe12rcd13ifvqf30","pricing_plan_id":"cebpf4jnsgd1na2vs0mg"},{"bike_id":"7677f52e-c269-4ae6-9a4d-a36f51bf4aea","system_id":"levelo_inurba_marseille","lat":43.27951,"lon":5.38725,"is_reserved":false,"is_disabled":false,"rental_uris":{"android":"levelo://app?vid=7677f52e-c269-4ae6-9a4d-a36f51bf4aea","ios":"levelo://app?vid=7677f52e-c269-4ae6-9a4d-a36f51bf4aea"},"vehicle_type_id":"4","last_reported":1740885581,"current_range_meters":19200,"station_id":"ce4bhg12rcd13ifvqf80","pricing_plan_id":"cebpf4jnsgd1na2vs0mg"},{"bike_id":"8c418afa-4a43-45d0-83c2-1c17c420fa81","system_id":"levelo_inurba_marseille","lat":43.262094,"lon":5.374507,"is_reserved":false,"is_disabled":false,"rental_uris":{"android":"levelo://app?vid=8c418afa-4a43-45d0-83c2-1c17c420fa81","ios":"levelo://app?vid=8c418afa-4a43-45d0-83c2-1c17c420fa81"},"vehicle_type_id":"4","last_reported":1740885581,"current_range_meters":19200,"station_id":"ce4bhgp2rcd13ifvqfc0","pricing_plan_id":"cebpf4jnsgd1na2vs0mg"},{"bike_id":"426a327e-17c2-4196-b926-96fb1c073c2b","system_id":"levelo_inurba_marseille","lat":43.27324,"lon":5.391,"is_reserved":false,"is_disabled":false,"rental_uris":{"android":"levelo://app?vid=426a327e-17c2-4196-b926-96fb1c073c2b","ios":"levelo://app?vid=426a327e-17c2-4196-b926-96fb1c073c2b"},"vehicle_type_id":"4","last_reported":1740885581,"current_range_meters":19200,"station_id":"ce4bhgp2rcd13ifvqfe0","pricing_plan_id":"cebpf4jnsgd1na2vs0mg"},{"bike_id":"e060039f-bbd9-42ae-8c39-601117440931","system_id":"levelo_inurba_marseille","lat":43.24677,"lon":5.38155,"is_reserved":false,"is_disabled":false,"rental_uris":{"android":"levelo://app?vid=e060039f-bbd9-42ae-8c39-601117440931","ios":"levelo://app?vid=e060039f-bbd9-42ae-8c39-601117440931"},"vehicle_type_id":"4","last_reported":1740885581,"current_range_meters":19200,"station_id":"ce4bhih2rcd13ifvqfr0","pricing_plan_id":"cebpf4jnsgd1na2vs0mg"},{"bike_id":"b4233956-fb00-4274-8756-75157ee6105b","system_id":"levelo_inurba_marseille","lat":43.25819,"lon":5.39436,"is_reserved":false,"is_disabled":false,"rental_uris":{"android":"levelo://app?vid=b4233956-fb00-4274-8756-75157ee6105b","ios":"levelo://app?vid=b4233956-fb00-4274-8756-75157ee6105b"},"vehicle_type_id":"4","last_reported":1740885581,"current_range_meters":19200,"station_id":"ce4bhip2rcd13ifvqft0","pricing_plan_id":"cebpf4jnsgd1na2vs0mg"},{"bike_id":"59cc738c-021b-45a9-8981-dff8c811c822","system_id":"levelo_inurba_marseille","lat":43.26236,"lon":5.40454,"is_reserved":false,"is_disabled":false,"rental_uris":{"android":"levelo://app?vid=59cc738c-021b-45a9-8981-dff8c811c822","ios":"levelo://app?vid=59cc738c-021b-45a9-8981-dff8c811c822"},"vehicle_type_id":"4","last_reported":1740885581,"current_range_meters":19200,"station_id":"ce4bhmh2rcd13ifvqgmg","pricing_plan_id":"cebpf4jnsgd1na2vs0mg"},{"bike_id":"c0c23cc5-000e-4265-b94f-531119dd1fa1","system_id":"levelo_inurba_marseille","lat":43.23192,"lon":5.39982,"is_reserved":false,"is_disabled":false,"rental_uris":{"android":"levelo://app?vid=c0c23cc5-000e-4265-b94f-531119dd1fa1","ios":"levelo://app?vid=c0c23cc5-000e-4265-b94f-531119dd1fa1"},"vehicle_type_id":"4","last_reported":1740885581,"current_range_meters":19200,"station_id":"ce4bhn12rcd13ifvqgqg","pricing_plan_id":"cebpf4jnsgd1na2vs0mg"},{"bike_id":"52c30768-823c-4f29-9a33-bf074f73acb0","system_id":"levelo_inurba_marseille","lat":43.280824,"lon":5.396639,"is_reserved":false,"is_disabled":false,"rental_uris":{"android":"levelo://app?vid=52c30768-823c-4f29-9a33-bf074f73acb0","ios":"levelo://app?vid=52c30768-823c-4f29-9a33-bf074f73acb0"},"vehicle_type_id":"4","last_reported":1740885581,"current_range_meters":19200,"station_id":"ce4bho12rcd13ifvqh2g","pricing_plan_id":"cebpf4jnsgd1na2vs0mg"},{"bike_id":"6b61ef7d-737e-4e74-98db-d7fa6ef618b9","system_id":"levelo_inurba_marseille","lat":43.29604,"lon":5.38098,"is_reserved":false,"is_disabled":false,"rental_uris":{"android":"levelo://app?vid=6b61ef7d-737e-4e74-98db-d7fa6ef618b9","ios":"levelo://app?vid=6b61ef7d-737e-4e74-98db-d7fa6ef618b9"},"vehicle_type_id":"4","last_reported":1740885581,"current_range_meters":19600,"station_id":"ce4bgl12rcd13ifvqbo0","pricing_plan_id":"cebpf4jnsgd1na2vs0mg"},{"bike_id":"6a388000-204d-4e81-99c8-7cc60771df49","system_id":"levelo_inurba_marseille","lat":43.30463,"lon":5.379,"is_reserved":false,"is_disabled":false,"rental_uris":{"android":"levelo://app?vid=6a388000-204d-4e81-99c8-7cc60771df49","ios":"levelo://app?vid=6a388000-204d-4e81-99c8-7cc60771df49"},"vehicle_type_id":"4","last_reported":1740885581,"current_range_meters":19600,"station_id":"ce4bgup2rcd13ifvqcn0","pricing_plan_id":"cebpf4jnsgd1na2vs0mg"},{"bike_id":"f272d3eb-5b50-4b03-a07b-597d54e42bc1","system_id":"levelo_inurba_marseille","lat":43.31157,"lon":5.3869,"is_reserved":false,"is_disabled":false,"rental_uris":{"android":"levelo://app?vid=f272d3eb-5b50-4b03-a07b-597d54e42bc1","ios":"levelo://app?vid=f272d3eb-5b50-4b03-a07b-597d54e42bc1"},"vehicle_type_id":"4","last_reported":1740885581,"current_range_meters":19600,"station_id":"ce4bgv12rcd13ifvqcp0","pricing_plan_id":"cebpf4jnsgd1na2vs0mg"},{"bike_id":"b58db059-3276-43ce-bdfe-55757589d75b","system_id":"levelo_inurba_marseille","lat":43.31163,"lon":5.38701,"is_reserved":false,"is_disabled":false,"rental_uris":{"android":"levelo://app?vid=b58db059-3276-43ce-bdfe-55757589d75b","ios":"levelo://app?vid=b58db059-3276-43ce-bdfe-55757589d75b"},"vehicle_type_id":"4","last_reported":1740885581,"current_range_meters":19600,"station_id":"ce4bgv12rcd13ifvqcp0","pricing_plan_id":"cebpf4jnsgd1na2vs0mg"},{"bike_id":"5a8a2ffd-b2a2-4cf4-bf14-09d41e27ba8b","system_id":"levelo_inurba_marseille","lat":43.28468,"lon":5.35873,"is_reserved":false,"is_disabled":false,"rental_uris":{"android":"levelo://app?vid=5a8a2ffd-b2a2-4cf4-bf14-09d41e27ba8b","ios":"levelo://app?vid=5a8a2ffd-b2a2-4cf4-bf14-09d41e27ba8b"},"vehicle_type_id":"4","last_reported":1740885581,"current_range_meters":19600,"station_id":"ce4bhah2rcd13ifvqei0","pricing_plan_id":"cebpf4jnsgd1na2vs0mg"},{"bike_id":"ed8ac494-f794-44ad-ba84-6d1405df367e","system_id":"levelo_inurba_marseille","lat":43.286576,"lon":5.363511,"is_reserved":false,"is_disabled":false,"rental_uris":{"android":"levelo://app?vid=ed8ac494-f794-44ad-ba84-6d1405df367e","ios":"levelo://app?vid=ed8ac494-f794-44ad-ba84-6d1405df367e"},"vehicle_type_id":"4","last_reported":1740885581,"current_range_meters":19600,"station_id":"ce4bhah2rcd13ifvqej0","pricing_plan_id":"cebpf4jnsgd1na2vs0mg"},{"bike_id":"d7d5621a-531b-4f63-99b0-ea5b09b24407","system_id":"levelo_inurba_marseille","lat":43.24654,"lon":5.38872,"is_reserved":false,"is_disabled":false,"rental_uris":{"android":"levelo://app?vid=d7d5621a-531b-4f63-99b0-ea5b09b24407","ios":"levelo://app?vid=d7d5621a-531b-4f63-99b0-ea5b09b24407"},"vehicle_type_id":"4","last_reported":1740885581,"current_range_meters":19600,"station_id":"ce4bhg12rcd13ifvqf60","pricing_plan_id":"cebpf4jnsgd1na2vs0mg"},{"bike_id":"ffdcdbfc-09a4-45b1-9bf2-534681bcb080","system_id":"levelo_inurba_marseille","lat":43.261894,"lon":5.374512,"is_reserved":false,"is_disabled":false,"rental_uris":{"android":"levelo://app?vid=ffdcdbfc-09a4-45b1-9bf2-534681bcb080","ios":"levelo://app?vid=ffdcdbfc-09a4-45b1-9bf2-534681bcb080"},"vehicle_type_id":"4","last_reported":1740885581,"current_range_meters":19600,"station_id":"ce4bhgp2rcd13ifvqfc0","pricing_plan_id":"cebpf4jnsgd1na2vs0mg"},{"bike_id":"40cdd99c-f61c-4933-8cb0-cee186ec3ab1","system_id":"levelo_inurba_marseille","lat":43.24064,"lon":5.37743,"is_reserved":false,"is_disabled":false,"rental_uris":{"android":"levelo://app?vid=40cdd99c-f61c-4933-8cb0-cee186ec3ab1","ios":"levelo://app?vid=40cdd99c-f61c-4933-8cb0-cee186ec3ab1"},"vehicle_type_id":"4","last_reported":1740885581,"current_range_meters":19600,"station_id":"ce4bhnp2rcd13ifvqgvg","pricing_plan_id":"cebpf4jnsgd1na2vs0mg"},{"bike_id":"f56e7994-6710-417d-bccf-005d7f12f8b8","system_id":"levelo_inurba_marseille","lat":43.276269,"lon":5.361116,"is_reserved":false,"is_disabled":false,"rental_uris":{"android":"levelo://app?vid=f56e7994-6710-417d-bccf-005d7f12f8b8","ios":"levelo://app?vid=f56e7994-6710-417d-bccf-005d7f12f8b8"},"vehicle_type_id":"4","last_reported":1740885581,"current_range_meters":20000,"station_id":"ce4bgj92rcd13ifvqbe0","pricing_plan_id":"cebpf4jnsgd1na2vs0mg"},{"bike_id":"737d8166-73c5-45fd-835b-2fe6cb66d4a6","system_id":"levelo_inurba_marseille","lat":43.28266,"lon":5.35067,"is_reserved":false,"is_disabled":false,"rental_uris":{"android":"levelo://app?vid=737d8166-73c5-45fd-835b-2fe6cb66d4a6","ios":"levelo://app?vid=737d8166-73c5-45fd-835b-2fe6cb66d4a6"},"vehicle_type_id":"4","last_reported":1740885581,"current_range_meters":20000,"station_id":"ce4bhbp2rcd13ifvqerg","pricing_plan_id":"cebpf4jnsgd1na2vs0mg"},{"bike_id":"aabda6de-dba4-4ae0-a2bb-26dfcdaee988","system_id":"levelo_inurba_marseille","lat":43.26562,"lon":5.37319,"is_reserved":false,"is_disabled":false,"rental_uris":{"android":"levelo://app?vid=aabda6de-dba4-4ae0-a2bb-26dfcdaee988","ios":"levelo://app?vid=aabda6de-dba4-4ae0-a2bb-26dfcdaee988"},"vehicle_type_id":"4","last_reported":1740885581,"current_range_meters":20000,"station_id":"ce4bhg12rcd13ifvqf70","pricing_plan_id":"cebpf4jnsgd1na2vs0mg"},{"bike_id":"32fae168-5de4-475a-bd55-4a77931437e4","system_id":"levelo_inurba_marseille","lat":43.24537,"lon":5.39521,"is_reserved":false,"is_disabled":false,"rental_uris":{"android":"levelo://app?vid=32fae168-5de4-475a-bd55-4a77931437e4","ios":"levelo://app?vid=32fae168-5de4-475a-bd55-4a77931437e4"},"vehicle_type_id":"4","last_reported":1740885581,"current_range_meters":20000,"station_id":"ce4bhlp2rcd13ifvqgjg","pricing_plan_id":"cebpf4jnsgd1na2vs0mg"},{"bike_id":"2247b60e-c043-4341-afd8-1b5ba083a6ee","system_id":"levelo_inurba_marseille","lat":43.30417,"lon":5.41274,"is_reserved":false,"is_disabled":false,"rental_uris":{"android":"levelo://app?vid=2247b60e-c043-4341-afd8-1b5ba083a6ee","ios":"levelo://app?vid=2247b60e-c043-4341-afd8-1b5ba083a6ee"},"vehicle_type_id":"4","last_reported":1740885581,"current_range_meters":20000,"station_id":"ce4bhop2rcd13ifvqh8g","pricing_plan_id":"cebpf4jnsgd1na2vs0mg"},{"bike_id":"069c1166-5158-41b3-9977-e5085ec6d73e","system_id":"levelo_inurba_marseille","lat":43.30461,"lon":5.38904,"is_reserved":false,"is_disabled":false,"rental_uris":{"android":"levelo://app?vid=069c1166-5158-41b3-9977-e5085ec6d73e","ios":"levelo://app?vid=069c1166-5158-41b3-9977-e5085ec6d73e"},"vehicle_type_id":"4","last_reported":1740885581,"current_range_meters":20400,"station_id":"ce4bgk12rcd13ifvqbi0","pricing_plan_id":"cebpf4jnsgd1na2vs0mg"},{"bike_id":"453068aa-c17d-43bf-9cdd-03e2ddd93a1e","system_id":"levelo_inurba_marseille","lat":43.309024,"lon":5.368469,"is_reserved":false,"is_disabled":false,"rental_uris":{"android":"levelo://app?vid=453068aa-c17d-43bf-9cdd-03e2ddd93a1e","ios":"levelo://app?vid=453068aa-c17d-43bf-9cdd-03e2ddd93a1e"},"vehicle_type_id":"4","last_reported":1740885581,"current_range_meters":20400,"station_id":"ce4bgn92rcd13ifvqbvg","pricing_plan_id":"cebpf4jnsgd1na2vs0mg"},{"bike_id":"3b77ce11-c991-41c5-aaeb-e13aac4b5826","system_id":"levelo_inurba_marseille","lat":43.31714,"lon":5.40447,"is_reserved":false,"is_disabled":false,"rental_uris":{"android":"levelo://app?vid=3b77ce11-c991-41c5-aaeb-e13aac4b5826","ios":"levelo://app?vid=3b77ce11-c991-41c5-aaeb-e13aac4b5826"},"vehicle_type_id":"4","last_reported":1740885581,"current_range_meters":20400,"station_id":"ce4bh012rcd13ifvqd00","pricing_plan_id":"cebpf4jnsgd1na2vs0mg"},{"bike_id":"d1c0e715-6329-4d33-8e66-23065f23123c","system_id":"levelo_inurba_marseille","lat":43.284,"lon":5.34982,"is_reserved":false,"is_disabled":false,"rental_uris":{"android":"levelo://app?vid=d1c0e715-6329-4d33-8e66-23065f23123c","ios":"levelo://app?vid=d1c0e715-6329-4d33-8e66-23065f23123c"},"vehicle_type_id":"4","last_reported":1740885581,"current_range_meters":20400,"station_id":"ce4bhbh2rcd13ifvqepg","pricing_plan_id":"cebpf4jnsgd1na2vs0mg"},{"bike_id":"b080e109-1fbc-4db1-9898-19b40ea227fb","system_id":"levelo_inurba_marseille","lat":43.25447,"lon":5.37699,"is_reserved":false,"is_disabled":false,"rental_uris":{"android":"levelo://app?vid=b080e109-1fbc-4db1-9898-19b40ea227fb","ios":"levelo://app?vid=b080e109-1fbc-4db1-9898-19b40ea227fb"},"vehicle_type_id":"4","last_reported":1740885581,"current_range_meters":20400,"station_id":"ce4bhh12rcd13ifvqff0","pricing_plan_id":"cebpf4jnsgd1na2vs0mg"},{"bike_id":"c998d71d-70fb-4a65-865b-053b01eba41f","system_id":"levelo_inurba_marseille","lat":43.27499,"lon":5.42441,"is_reserved":false,"is_disabled":false,"rental_uris":{"android":"levelo://app?vid=c998d71d-70fb-4a65-865b-053b01eba41f","ios":"levelo://app?vid=c998d71d-70fb-4a65-865b-053b01eba41f"},"vehicle_type_id":"4","last_reported":1740885581,"current_range_meters":20400,"station_id":"ce4bhn92rcd13ifvqgrg","pricing_plan_id":"cebpf4jnsgd1na2vs0mg"},{"bike_id":"76394e5b-b5d3-409a-954a-e09b2559a295","system_id":"levelo_inurba_marseille","lat":43.23169,"lon":5.35555,"is_reserved":false,"is_disabled":false,"rental_uris":{"android":"levelo://app?vid=76394e5b-b5d3-409a-954a-e09b2559a295","ios":"levelo://app?vid=76394e5b-b5d3-409a-954a-e09b2559a295"},"vehicle_type_id":"4","last_reported":1740885581,"current_range_meters":20400,"station_id":"ce4bhu92rcd13ifvqi70","pricing_plan_id":"cebpf4jnsgd1na2vs0mg"},{"bike_id":"ee64b076-db53-4a07-8a61-f790fb3d7f18","system_id":"levelo_inurba_marseille","lat":43.29598,"lon":5.37335,"is_reserved":false,"is_disabled":false,"rental_uris":{"android":"levelo://app?vid=ee64b076-db53-4a07-8a61-f790fb3d7f18","ios":"levelo://app?vid=ee64b076-db53-4a07-8a61-f790fb3d7f18"},"vehicle_type_id":"4","last_reported":1740885581,"current_range_meters":20800,"station_id":"","pricing_plan_id":"cebpf4jnsgd1na2vs0mg"},{"bike_id":"7e0501d3-a090-404d-8baf-1d3f3d59bb05","system_id":"levelo_inurba_marseille","lat":43.3096,"lon":5.39036,"is_reserved":false,"is_disabled":false,"rental_uris":{"android":"levelo://app?vid=7e0501d3-a090-404d-8baf-1d3f3d59bb05","ios":"levelo://app?vid=7e0501d3-a090-404d-8baf-1d3f3d59bb05"},"vehicle_type_id":"4","last_reported":1740885581,"current_range_meters":20800,"station_id":"ce4bgup2rcd13ifvqco0","pricing_plan_id":"cebpf4jnsgd1na2vs0mg"},{"bike_id":"5a71e13e-40a0-47fd-8e3c-cc516c9f5be6","system_id":"levelo_inurba_marseille","lat":43.29252,"lon":5.40914,"is_reserved":false,"is_disabled":false,"rental_uris":{"android":"levelo://app?vid=5a71e13e-40a0-47fd-8e3c-cc516c9f5be6","ios":"levelo://app?vid=5a71e13e-40a0-47fd-8e3c-cc516c9f5be6"},"vehicle_type_id":"4","last_reported":1740885581,"current_range_meters":20800,"station_id":"ce4bh192rcd13ifvqdc0","pricing_plan_id":"cebpf4jnsgd1na2vs0mg"},{"bike_id":"40ec19cc-551a-4ab5-85ad-b4a02749974b","system_id":"levelo_inurba_marseille","lat":43.28476,"lon":5.38427,"is_reserved":false,"is_disabled":false,"rental_uris":{"android":"levelo://app?vid=40ec19cc-551a-4ab5-85ad-b4a02749974b","ios":"levelo://app?vid=40ec19cc-551a-4ab5-85ad-b4a02749974b"},"vehicle_type_id":"4","last_reported":1740885581,"current_range_meters":20800,"station_id":"ce4bh512rcd13ifvqe3g","pricing_plan_id":"cebpf4jnsgd1na2vs0mg"},{"bike_id":"76f0ecc2-74d2-4458-9089-c4bdf8553e65","system_id":"levelo_inurba_marseille","lat":43.27163,"lon":5.41873,"is_reserved":false,"is_disabled":false,"rental_uris":{"android":"levelo://app?vid=76f0ecc2-74d2-4458-9089-c4bdf8553e65","ios":"levelo://app?vid=76f0ecc2-74d2-4458-9089-c4bdf8553e65"},"vehicle_type_id":"4","last_reported":1740885581,"current_range_meters":21600,"station_id":"","pricing_plan_id":"cebpf4jnsgd1na2vs0mg"},{"bike_id":"fd536311-30f8-4d73-bff3-37ebbf7121e5","system_id":"levelo_inurba_marseille","lat":43.31391,"lon":5.38521,"is_reserved":false,"is_disabled":false,"rental_uris":{"android":"levelo://app?vid=fd536311-30f8-4d73-bff3-37ebbf7121e5","ios":"levelo://app?vid=fd536311-30f8-4d73-bff3-37ebbf7121e5"},"vehicle_type_id":"4","last_reported":1740885581,"current_range_meters":21600,"station_id":"ce4bgt92rcd13ifvqcf0","pricing_plan_id":"cebpf4jnsgd1na2vs0mg"},{"bike_id":"724aa8a6-9860-420a-85a8-0833ed500836","system_id":"levelo_inurba_marseille","lat":43.31125,"lon":5.37762,"is_reserved":false,"is_disabled":false,"rental_uris":{"android":"levelo://app?vid=724aa8a6-9860-420a-85a8-0833ed500836","ios":"levelo://app?vid=724aa8a6-9860-420a-85a8-0833ed500836"},"vehicle_type_id":"4","last_reported":1740885581,"current_range_meters":21600,"station_id":"ce4bgt92rcd13ifvqcg0","pricing_plan_id":"cebpf4jnsgd1na2vs0mg"},{"bike_id":"6bb507ed-81ef-4820-85a8-c7226219068f","system_id":"levelo_inurba_marseille","lat":43.302847,"lon":5.377066,"is_reserved":false,"is_disabled":false,"rental_uris":{"android":"levelo://app?vid=6bb507ed-81ef-4820-85a8-c7226219068f","ios":"levelo://app?vid=6bb507ed-81ef-4820-85a8-c7226219068f"},"vehicle_type_id":"4","last_reported":1740885581,"current_range_meters":21600,"station_id":"ce4bguh2rcd13ifvqcj0","pricing_plan_id":"cebpf4jnsgd1na2vs0mg"},{"bike_id":"f259daad-c89f-444d-aefc-c4cdbeff563d","system_id":"levelo_inurba_marseille","lat":43.30639,"lon":5.40075,"is_reserved":false,"is_disabled":false,"rental_uris":{"android":"levelo://app?vid=f259daad-c89f-444d-aefc-c4cdbeff563d","ios":"levelo://app?vid=f259daad-c89f-444d-aefc-c4cdbeff563d"},"vehicle_type_id":"4","last_reported":1740885581,"current_range_meters":21600,"station_id":"ce4bh112rcd13ifvqda0","pricing_plan_id":"cebpf4jnsgd1na2vs0mg"},{"bike_id":"a06ffb0f-b127-4dfb-b837-a459af22c2c9","system_id":"levelo_inurba_marseille","lat":43.28492,"lon":5.3857,"is_reserved":false,"is_disabled":false,"rental_uris":{"android":"levelo://app?vid=a06ffb0f-b127-4dfb-b837-a459af22c2c9","ios":"levelo://app?vid=a06ffb0f-b127-4dfb-b837-a459af22c2c9"},"vehicle_type_id":"4","last_reported":1740885581,"current_range_meters":21600,"station_id":"ce4bh8p2rcd13ifvqeb0","pricing_plan_id":"cebpf4jnsgd1na2vs0mg"},{"bike_id":"5830cc6e-a7dc-483d-9aa2-51039e8ce5f6","system_id":"levelo_inurba_marseille","lat":43.279,"lon":5.38,"is_reserved":false,"is_disabled":false,"rental_uris":{"android":"levelo://app?vid=5830cc6e-a7dc-483d-9aa2-51039e8ce5f6","ios":"levelo://app?vid=5830cc6e-a7dc-483d-9aa2-51039e8ce5f6"},"vehicle_type_id":"4","last_reported":1740885581,"current_range_meters":21600,"station_id":"ce4bhf92rcd13ifvqf50","pricing_plan_id":"cebpf4jnsgd1na2vs0mg"},{"bike_id":"0426b467-687f-4f85-94ac-c3a52f78d7ff","system_id":"levelo_inurba_marseille","lat":43.26676,"lon":5.38253,"is_reserved":false,"is_disabled":false,"rental_uris":{"android":"levelo://app?vid=0426b467-687f-4f85-94ac-c3a52f78d7ff","ios":"levelo://app?vid=0426b467-687f-4f85-94ac-c3a52f78d7ff"},"vehicle_type_id":"4","last_reported":1740885581,"current_range_meters":21600,"station_id":"ce4bhg92rcd13ifvqf90","pricing_plan_id":"cebpf4jnsgd1na2vs0mg"},{"bike_id":"8b8dac59-5a32-461f-b294-2e7dfb0d9559","system_id":"levelo_inurba_marseille","lat":43.24806,"lon":5.37451,"is_reserved":false,"is_disabled":false,"rental_uris":{"android":"levelo://app?vid=8b8dac59-5a32-461f-b294-2e7dfb0d9559","ios":"levelo://app?vid=8b8dac59-5a32-461f-b294-2e7dfb0d9559"},"vehicle_type_id":"4","last_reported":1740885581,"current_range_meters":21600,"station_id":"ce4bhgh2rcd13ifvqfb0","pricing_plan_id":"cebpf4jnsgd1na2vs0mg"},{"bike_id":"af96de68-672c-4869-9dea-d06f90b00b70","system_id":"levelo_inurba_marseille","lat":43.26222,"lon":5.40441,"is_reserved":false,"is_disabled":false,"rental_uris":{"android":"levelo://app?vid=af96de68-672c-4869-9dea-d06f90b00b70","ios":"levelo://app?vid=af96de68-672c-4869-9dea-d06f90b00b70"},"vehicle_type_id":"4","last_reported":1740885581,"current_range_meters":21600,"station_id":"ce4bhmh2rcd13ifvqgmg","pricing_plan_id":"cebpf4jnsgd1na2vs0mg"},{"bike_id":"bdcb3a76-1fb1-4027-8ea9-2f7950d1e77a","system_id":"levelo_inurba_marseille","lat":43.23178,"lon":5.39973,"is_reserved":false,"is_disabled":false,"rental_uris":{"android":"levelo://app?vid=bdcb3a76-1fb1-4027-8ea9-2f7950d1e77a","ios":"levelo://app?vid=bdcb3a76-1fb1-4027-8ea9-2f7950d1e77a"},"vehicle_type_id":"4","last_reported":1740885581,"current_range_meters":21600,"station_id":"ce4bhn12rcd13ifvqgqg","pricing_plan_id":"cebpf4jnsgd1na2vs0mg"},{"bike_id":"ed491b15-6729-4f2a-a719-7dd0cae3ca78","system_id":"levelo_inurba_marseille","lat":43.306,"lon":5.37221,"is_reserved":false,"is_disabled":false,"rental_uris":{"android":"levelo://app?vid=ed491b15-6729-4f2a-a719-7dd0cae3ca78","ios":"levelo://app?vid=ed491b15-6729-4f2a-a719-7dd0cae3ca78"},"vehicle_type_id":"4","last_reported":1740885581,"current_range_meters":22000,"station_id":"ce4bgqh2rcd13ifvqc4g","pricing_plan_id":"cebpf4jnsgd1na2vs0mg"},{"bike_id":"fc340232-711b-42bd-877d-07c90d091e4a","system_id":"levelo_inurba_marseille","lat":43.30554,"lon":5.36516,"is_reserved":false,"is_disabled":false,"rental_uris":{"android":"levelo://app?vid=fc340232-711b-42bd-877d-07c90d091e4a","ios":"levelo://app?vid=fc340232-711b-42bd-877d-07c90d091e4a"},"vehicle_type_id":"4","last_reported":1740885581,"current_range_meters":22000,"station_id":"ce4bgs12rcd13ifvqcag","pricing_plan_id":"cebpf4jnsgd1na2vs0mg"},{"bike_id":"360cb8fb-ae2d-4942-a777-0b20fe1843ea","system_id":"levelo_inurba_marseille","lat":43.26563,"lon":5.37309,"is_reserved":false,"is_disabled":false,"rental_uris":{"android":"levelo://app?vid=360cb8fb-ae2d-4942-a777-0b20fe1843ea","ios":"levelo://app?vid=360cb8fb-ae2d-4942-a777-0b20fe1843ea"},"vehicle_type_id":"4","last_reported":1740885581,"current_range_meters":22000,"station_id":"ce4bhg12rcd13ifvqf70","pricing_plan_id":"cebpf4jnsgd1na2vs0mg"},{"bike_id":"fd351392-8b14-4c01-8023-5ff7d23da5cf","system_id":"levelo_inurba_marseille","lat":43.26558,"lon":5.37298,"is_reserved":false,"is_disabled":false,"rental_uris":{"android":"levelo://app?vid=fd351392-8b14-4c01-8023-5ff7d23da5cf","ios":"levelo://app?vid=fd351392-8b14-4c01-8023-5ff7d23da5cf"},"vehicle_type_id":"4","last_reported":1740885581,"current_range_meters":22000,"station_id":"ce4bhg12rcd13ifvqf70","pricing_plan_id":"cebpf4jnsgd1na2vs0mg"},{"bike_id":"e0f1ca5c-551f-4d15-b901-627ce4482eed","system_id":"levelo_inurba_marseille","lat":43.28728,"lon":5.36084,"is_reserved":false,"is_disabled":false,"rental_uris":{"android":"levelo://app?vid=e0f1ca5c-551f-4d15-b901-627ce4482eed","ios":"levelo://app?vid=e0f1ca5c-551f-4d15-b901-627ce4482eed"},