{"last_updated":1758744657,"ttl":60,"version":"2.2","data":{"bikes":[{"bike_id":"cb6bf7d2-2ed1-47c4-b0a7-9c935f0ebf1a","system_id":"levelo_inurba_marseille","lat":43.26848,"lon":5.40673,"is_reserved":false,"is_disabled":false,"rental_uris":{"android":"levelo://app?vid=cb6bf7d2-2ed1-47c4-b0a7-9c935f0ebf1a","ios":"levelo://app?vid=cb6bf7d2-2ed1-47c4-b0a7-9c935f0ebf1a"},"vehicle_type_id":"4","last_reported":1758744657,"current_range_meters":3200,"station_id":"","pricing_plan_id":"cebpf4jnsgd1na2vs0mg"},{"bike_id":"2148876e-7d74-4e4f-a053-dabe58773f97","system_id":"levelo_inurba_marseille","lat":43.29003,"lon":5.35618,"is_reserved":false,"is_disabled":false,"rental_uris":{"android":"levelo://app?vid=2148876e-7d74-4e4f-a053-dabe58773f97","ios":"levelo://app?vid=2148876e-7d74-4e4f-a053-dabe58773f97"},"vehicle_type_id":"4","last_reported":1758744657,"current_range_meters":3200,"station_id":"ce4bhb92rcd13ifvqen0","pricing_plan_id":"cebpf4jnsgd1na2vs0mg"},{"bike_id":"7d96a3a6-717d-4808-aefc-e192845cfc20","system_id":"levelo_inurba_marseille","lat":43.290741,"lon":5.371613,"is_reserved":false,"is_disabled":false,"rental_uris":{"android":"levelo://app?vid=7d96a3a6-717d-4808-aefc-e192845cfc20","ios":"levelo://app?vid=7d96a3a6-717d-4808-aefc-e192845cfc20"},"vehicle_type_id":"4","last_reported":1758744657,"current_range_meters":3200,"station_id":"ce4bh5p2rcd13ifvqe4g","pricing_plan_id":"cebpf4jnsgd1na2vs0mg"},{"bike_id":"cac889cb-42f6-46ba-8604-9a52d251ed42","system_id":"levelo_inurba_marseille","lat":43.3272,"lon":5.39242,"is_reserved":false,"is_disabled":false,"rental_uris":{"android":"levelo://app?vid=cac889cb-42f6-46ba-8604-9a52d251ed42","ios":"levelo://app?vid=cac889cb-42f6-46ba-8604-9a52d251ed42"},"vehicle_type_id":"4","last_reported":1758744657,"current_range_meters":3600,"station_id":"","pricing_plan_id":"cebpf4jnsgd1na2vs0mg"},{"bike_id":"1efddf8d-578f-4e4c-8c3f-e3a8bd592ba4","system_id":"levelo_inurba_marseille","lat":43.29965,"lon":5.37401,"is_reserved":false,"is_disabled":false,"rental_uris":{"android":"levelo://app?vid=1efddf8d-578f-4e4c-8c3f-e3a8bd592ba4","ios":"levelo://app?vid=1efddf8d-578f-4e4c-8c3f-e3a8bd592ba4"},"vehicle_type_id":"4","last_reported":1758744657,"current_range_meters":4400,"station_id":"","pricing_plan_id":"cebpf4jnsgd1na2vs0mg"},{"bike_id":"29153d59-03f7-4833-9294-39ccd7fb1fcc","system_id":"levelo_inurba_marseille","lat":43.29253,"lon":5.38438,"is_reserved":false,"is_disabled":false,"rental_uris":{"android":"levelo://app?vid=29153d59-03f7-4833-9294-39ccd7fb1fcc","ios":"levelo://app?vid=29153d59-03f7-4833-9294-39ccd7fb1fcc"},"vehicle_type_id":"4","last_reported":1758744657,"current_range_meters":4400,"station_id":"ce4bh692rcd13ifvqea0","pricing_plan_id":"cebpf4jnsgd1na2vs0mg"},{"bike_id":"b4d06773-deee-4efc-94d6-aab78fe3e478","system_id":"levelo_inurba_marseille","lat":43.32091,"lon":5.41535,"is_reserved":false,"is_disabled":false,"rental_uris":{"android":"levelo://app?vid=b4d06773-deee-4efc-94d6-aab78fe3e478","ios":"levelo://app?vid=b4d06773-deee-4efc-94d6-aab78fe3e478"},"vehicle_type_id":"4","last_reported":1758744657,"current_range_meters":4400,"station_id":"","pricing_plan_id":"cebpf4jnsgd1na2vs0mg"},{"bike_id":"6f9086ed-9d5c-4c63-b5e8-d11d7a6cd960","system_id":"levelo_inurba_marseille","lat":43.2871,"lon":5.39985,"is_reserved":false,"is_disabled":false,"rental_uris":{"android":"levelo://app?vid=6f9086ed-9d5c-4c63-b5e8-d11d7a6cd960","ios":"levelo://app?vid=6f9086ed-9d5c-4c63-b5e8-d11d7a6cd960"},"vehicle_type_id":"4","last_reported":1758744657,"current_range_meters":4400,"station_id":"ce4bho92rcd13ifvqh3g","pricing_plan_id":"cebpf4jnsgd1na2vs0mg"},{"bike_id":"a4085167-2474-4579-bf3f-4cb219e4bcd0","system_id":"levelo_inurba_marseille","lat":43.30419,"lon":5.39754,"is_reserved":false,"is_disabled":false,"rental_uris":{"android":"levelo://app?vid=a4085167-2474-4579-bf3f-4cb219e4bcd0","ios":"levelo://app?vid=a4085167-2474-4579-bf3f-4cb219e4bcd0"},"vehicle_type_id":"4","last_reported":1758744657,"current_range_meters":4400,"station_id":"ce4bh092rcd13ifvqd20","pricing_plan_id":"cebpf4jnsgd1na2vs0mg"},{"bike_id":"962b15bf-a341-4469-9450-c0428eb337e2","system_id":"levelo_inurba_marseille","lat":43.231634,"lon":5.437027,"is_reserved":false,"is_disabled":true,"rental_uris":{"android":"levelo://app?vid=962b15bf-a341-4469-9450-c0428eb337e2","ios":"levelo://app?vid=962b15bf-a341-4469-9450-c0428eb337e2"},"vehicle_type_id":"4","last_reported":1758744657,"current_range_meters":4800,"station_id":"ce4bhmp2rcd13ifvqgog","pricing_plan_id":"cebpf4jnsgd1na2vs0mg"},{"bike_id":"9615b0cc-320a-4aeb-8906-90f8e0d2d533","system_id":"levelo_inurba_marseille","lat":43.27917,"lon":5.39584,"is_reserved":false,"is_disabled":false,"rental_uris":{"android":"levelo://app?vid=9615b0cc-320a-4aeb-8906-90f8e0d2d533","ios":"levelo://app?vid=9615b0cc-320a-4aeb-8906-90f8e0d2d533"},"vehicle_type_id":"4","last_reported":1758744657,"current_range_meters":4800,"station_id":"ce4bhf92rcd13ifvqf40","pricing_plan_id":"cebpf4jnsgd1na2vs0mg"},{"bike_id":"c95e0c05-dd94-491f-8092-9c7978400114","system_id":"levelo_inurba_marseille","lat":43.33471,"lon":5.36275,"is_reserved":false,"is_disabled":false,"rental_uris":{"android":"levelo://app?vid=c95e0c05-dd94-491f-8092-9c7978400114","ios":"levelo://app?vid=c95e0c05-dd94-491f-8092-9c7978400114"},"vehicle_type_id":"4","last_reported":1758744657,"current_range_meters":5600,"station_id":"ce4bhs12rcd13ifvqhvg","pricing_plan_id":"cebpf4jnsgd1na2vs0mg"},{"bike_id":"939538dc-20bd-4d94-8a10-8e1e0a179bc7","system_id":"levelo_inurba_marseille","lat":43.3315,"lon":5.37797,"is_reserved":false,"is_disabled":false,"rental_uris":{"android":"levelo://app?vid=939538dc-20bd-4d94-8a10-8e1e0a179bc7","ios":"levelo://app?vid=939538dc-20bd-4d94-8a10-8e1e0a179bc7"},"vehicle_type_id":"4","last_reported":1758744657,"current_range_meters":5600,"station_id":"","pricing_plan_id":"cebpf4jnsgd1na2vs0mg"},{"bike_id":"83df9a14-2ba9-4e57-bc41-7c7b28d97285","system_id":"levelo_inurba_marseille","lat":43.29287,"lon":5.4012,"is_reserved":false,"is_disabled":false,"rental_uris":{"android":"levelo://app?vid=83df9a14-2ba9-4e57-bc41-7c7b28d97285","ios":"levelo://app?vid=83df9a14-2ba9-4e57-bc41-7c7b28d97285"},"vehicle_type_id":"4","last_reported":1758744657,"current_range_meters":5600,"station_id":"ce4bh312rcd13ifvqdk0","pricing_plan_id":"cebpf4jnsgd1na2vs0mg"},{"bike_id":"355e741c-878f-4775-9222-3a4d87cf17a7","system_id":"levelo_inurba_marseille","lat":43.246725,"lon":5.381719,"is_reserved":false,"is_disabled":true,"rental_uris":{"android":"levelo://app?vid=355e741c-878f-4775-9222-3a4d87cf17a7","ios":"levelo://app?vid=355e741c-878f-4775-9222-3a4d87cf17a7"},"vehicle_type_id":"4","last_reported":1758744657,"current_range_meters":5600,"station_id":"ce4bhih2rcd13ifvqfr0","pricing_plan_id":"cebpf4jnsgd1na2vs0mg"},{"bike_id":"73bcc8f4-731f-4e8e-9920-273db52460dd","system_id":"levelo_inurba_marseille","lat":43.22567,"lon":5.41625,"is_reserved":false,"is_disabled":false,"rental_uris":{"android":"levelo://app?vid=73bcc8f4-731f-4e8e-9920-273db52460dd","ios":"levelo://app?vid=73bcc8f4-731f-4e8e-9920-273db52460dd"},"vehicle_type_id":"4","last_reported":1758744657,"current_range_meters":6000,"station_id":"st_d2o4gvlbi1j2169b742g","pricing_plan_id":"cebpf4jnsgd1na2vs0mg"},{"bike_id":"340f81c2-8c1a-4159-a905-7d6dd0adf59a","system_id":"levelo_inurba_marseille","lat":43.25115,"lon":5.40329,"is_reserved":false,"is_disabled":false,"rental_uris":{"android":"levelo://app?vid=340f81c2-8c1a-4159-a905-7d6dd0adf59a","ios":"levelo://app?vid=340f81c2-8c1a-4159-a905-7d6dd0adf59a"},"vehicle_type_id":"4","last_reported":1758744657,"current_range_meters":6000,"station_id":"ce4bhlh2rcd13ifvqgig","pricing_plan_id":"cebpf4jnsgd1na2vs0mg"},{"bike_id":"1d7db0bd-760f-4287-9951-d86c494be6cc","system_id":"levelo_inurba_marseille","lat":43.29781,"lon":5.3812,"is_reserved":false,"is_disabled":false,"rental_uris":{"android":"levelo://app?vid=1d7db0bd-760f-4287-9951-d86c494be6cc","ios":"levelo://app?vid=1d7db0bd-760f-4287-9951-d86c494be6cc"},"vehicle_type_id":"4","last_reported":1758744657,"current_range_meters":6400,"station_id":"ce4bgip2rcd13ifvqbb0","pricing_plan_id":"cebpf4jnsgd1na2vs0mg"},{"bike_id":"cc4853e4-daf2-4d66-b4f7-4288340a6cae","system_id":"levelo_inurba_marseille","lat":43.29026,"lon":5.35924,"is_reserved":false,"is_disabled":false,"rental_uris":{"android":"levelo://app?vid=cc4853e4-daf2-4d66-b4f7-4288340a6cae","ios":"levelo://app?vid=cc4853e4-daf2-4d66-b4f7-4288340a6cae"},"vehicle_type_id":"4","last_reported":1758744657,"current_range_meters":6800,"station_id":"ce4bha92rcd13ifvqeg0","pricing_plan_id":"cebpf4jnsgd1na2vs0mg"},{"bike_id":"c0e09fcd-6eb3-4487-95c6-c6f132f39de3","system_id":"levelo_inurba_marseille","lat":43.22547,"lon":5.3484,"is_reserved":false,"is_disabled":false,"rental_uris":{"android":"levelo://app?vid=c0e09fcd-6eb3-4487-95c6-c6f132f39de3","ios":"levelo://app?vid=c0e09fcd-6eb3-4487-95c6-c6f132f39de3"},"vehicle_type_id":"4","last_reported":1758744657,"current_range_meters":6800,"station_id":"","pricing_plan_id":"cebpf4jnsgd1na2vs0mg"},{"bike_id":"110c9642-fe02-4c47-b9e5-a3182e067039","system_id":"levelo_inurba_marseille","lat":43.27809,"lon":5.40713,"is_reserved":false,"is_disabled":false,"rental_uris":{"android":"levelo://app?vid=110c9642-fe02-4c47-b9e5-a3182e067039","ios":"levelo://app?vid=110c9642-fe02-4c47-b9e5-a3182e067039"},"vehicle_type_id":"4","last_reported":1758744657,"current_range_meters":6400,"station_id":"ce4bhnh2rcd13ifvqgtg","pricing_plan_id":"cebpf4jnsgd1na2vs0mg"},{"bike_id":"207f992a-acfe-4c0b-82d1-0f7fcf61aa0c","system_id":"levelo_inurba_marseille","lat":43.241756,"lon":5.397189,"is_reserved":false,"is_disabled":true,"rental_uris":{"android":"levelo://app?vid=207f992a-acfe-4c0b-82d1-0f7fcf61aa0c","ios":"levelo://app?vid=207f992a-acfe-4c0b-82d1-0f7fcf61aa0c"},"vehicle_type_id":"4","last_reported":1758744657,"current_range_meters":6800,"station_id":"ce4bhn12rcd13ifvqgpg","pricing_plan_id":"cebpf4jnsgd1na2vs0mg"},{"bike_id":"1cdfcadd-68e0-454b-bca4-5a5fd76c0056","system_id":"levelo_inurba_marseille","lat":43.314881,"lon":5.373075,"is_reserved":false,"is_disabled":false,"rental_uris":{"android":"levelo://app?vid=1cdfcadd-68e0-454b-bca4-5a5fd76c0056","ios":"levelo://app?vid=1cdfcadd-68e0-454b-bca4-5a5fd76c0056"},"vehicle_type_id":"4","last_reported":1758744657,"current_range_meters":6800,"station_id":"ce4bgt12rcd13ifvqcd0","pricing_plan_id":"cebpf4jnsgd1na2vs0mg"},{"bike_id":"e0b50bc4-d719-41bf-9f9e-df03eedc28c4","system_id":"levelo_inurba_marseille","lat":43.28661,"lon":5.36366,"is_reserved":false,"is_disabled":false,"rental_uris":{"android":"levelo://app?vid=e0b50bc4-d719-41bf-9f9e-df03eedc28c4","ios":"levelo://app?vid=e0b50bc4-d719-41bf-9f9e-df03eedc28c4"},"vehicle_type_id":"4","last_reported":1758744657,"current_range_meters":7200,"station_id":"ce4bhah2rcd13ifvqej0","pricing_plan_id":"cebpf4jnsgd1na2vs0mg"},{"bike_id":"da968367-d236-4fd8-b208-427680a1eadf","system_id":"levelo_inurba_marseille","lat":43.29935,"lon":5.36529,"is_reserved":false,"is_disabled":false,"rental_uris":{"android":"levelo://app?vid=da968367-d236-4fd8-b208-427680a1eadf","ios":"levelo://app?vid=da968367-d236-4fd8-b208-427680a1eadf"},"vehicle_type_id":"4","last_reported":1758744657,"current_range_meters":7200,"station_id":"ce4bgm92rcd13ifvqbr0","pricing_plan_id":"cebpf4jnsgd1na2vs0mg"},{"bike_id":"6765fb53-f230-4b9a-9587-f0ec689c6027","system_id":"levelo_inurba_marseille","lat":43.28074,"lon":5.39658,"is_reserved":false,"is_disabled":false,"rental_uris":{"android":"levelo://app?vid=6765fb53-f230-4b9a-9587-f0ec689c6027","ios":"levelo://app?vid=6765fb53-f230-4b9a-9587-f0ec689c6027"},"vehicle_type_id":"4","last_reported":1758744657,"current_range_meters":7200,"station_id":"ce4bho12rcd13ifvqh2g","pricing_plan_id":"cebpf4jnsgd1na2vs0mg"},{"bike_id":"d6c0e3d3-87e1-4a29-83c6-b068f2e1dc6c","system_id":"levelo_inurba_marseille","lat":43.24386,"lon":5.37065,"is_reserved":false,"is_disabled":false,"rental_uris":{"android":"levelo://app?vid=d6c0e3d3-87e1-4a29-83c6-b068f2e1dc6c","ios":"levelo://app?vid=d6c0e3d3-87e1-4a29-83c6-b068f2e1dc6c"},"vehicle_type_id":"4","last_reported":1758744657,"current_range_meters":7200,"station_id":"ce4bhhh2rcd13ifvqfk0","pricing_plan_id":"cebpf4jnsgd1na2vs0mg"},{"bike_id":"9cd01b61-043e-4df5-9cf0-b73eddc1ce57","system_id":"levelo_inurba_marseille","lat":43.24661,"lon":5.38161,"is_reserved":false,"is_disabled":false,"rental_uris":{"android":"levelo://app?vid=9cd01b61-043e-4df5-9cf0-b73eddc1ce57","ios":"levelo://app?vid=9cd01b61-043e-4df5-9cf0-b73eddc1ce57"},"vehicle_type_id":"4","last_reported":1758744657,"current_range_meters":7200,"station_id":"ce4bhih2rcd13ifvqfr0","pricing_plan_id":"cebpf4jnsgd1na2vs0mg"},{"bike_id":"ef25b7f5-39c6-4d67-bbf7-c65cbad0c0d8","system_id":"levelo_inurba_marseille","lat":43.27976,"lon":5.41658,"is_reserved":false,"is_disabled":false,"rental_uris":{"android":"levelo://app?vid=ef25b7f5-39c6-4d67-bbf7-c65cbad0c0d8","ios":"levelo://app?vid=ef25b7f5-39c6-4d67-bbf7-c65cbad0c0d8"},"vehicle_type_id":"4","last_reported":1758744657,"current_range_meters":8000,"station_id":"ce4bho12rcd13ifvqh1g","pricing_plan_id":"cebpf4jnsgd1na2vs0mg"},{"bike_id":"625bc598-4f14-4186-b761-a553126f88a7","system_id":"levelo_inurba_marseille","lat":43.22552,"lon":5.41629,"is_reserved":false,"is_disabled":false,"rental_uris":{"android":"levelo://app?vid=625bc598-4f14-4186-b761-a553126f88a7","ios":"levelo://app?vid=625bc598-4f14-4186-b761-a553126f88a7"},"vehicle_type_id":"4","last_reported":1758744657,"current_range_meters":8000,"station_id":"st_d2o4gvlbi1j2169b742g","pricing_plan_id":"cebpf4jnsgd1na2vs0mg"},{"bike_id":"7607ea5d-a57b-45f7-9aba-a45d83c2e289","system_id":"levelo_inurba_marseille","lat":43.29716,"lon":5.36614,"is_reserved":false,"is_disabled":false,"rental_uris":{"android":"levelo://app?vid=7607ea5d-a57b-45f7-9aba-a45d83c2e289","ios":"levelo://app?vid=7607ea5d-a57b-45f7-9aba-a45d83c2e289"},"vehicle_type_id":"4","last_reported":1758744657,"current_range_meters":0,"station_id":"ce4bgn12rcd13ifvqbt0","pricing_plan_id":"cebpf4jnsgd1na2vs0mg"},{"bike_id":"ea93c4e7-0906-4128-b4fc-1b4c74a5c843","system_id":"levelo_inurba_marseille","lat":43.24812,"lon":5.37457,"is_reserved":false,"is_disabled":true,"rental_uris":{"android":"levelo://app?vid=ea93c4e7-0906-4128-b4fc-1b4c74a5c843","ios":"levelo://app?vid=ea93c4e7-0906-4128-b4fc-1b4c74a5c843"},"vehicle_type_id":"4","last_reported":1758744657,"current_range_meters":8400,"station_id":"ce4bhgh2rcd13ifvqfb0","pricing_plan_id":"cebpf4jnsgd1na2vs0mg"},{"bike_id":"4ce67155-9f15-4130-9400-f86685d8ecda","system_id":"levelo_inurba_marseille","lat":43.29765,"lon":5.36532,"is_reserved":false,"is_disabled":false,"rental_uris":{"android":"levelo://app?vid=4ce67155-9f15-4130-9400-f86685d8ecda","ios":"levelo://app?vid=4ce67155-9f15-4130-9400-f86685d8ecda"},"vehicle_type_id":"4","last_reported":1758744657,"current_range_meters":8400,"station_id":"","pricing_plan_id":"cebpf4jnsgd1na2vs0mg"},{"bike_id":"775eef17-75f5-4088-9ebb-23eb3ff8093e","system_id":"levelo_inurba_marseille","lat":43.26543,"lon":5.37306,"is_reserved":false,"is_disabled":false,"rental_uris":{"android":"levelo://app?vid=775eef17-75f5-4088-9ebb-23eb3ff8093e","ios":"levelo://app?vid=775eef17-75f5-4088-9ebb-23eb3ff8093e"},"vehicle_type_id":"4","last_reported":1758744657,"current_range_meters":8400,"station_id":"ce4bhg12rcd13ifvqf70","pricing_plan_id":"cebpf4jnsgd1na2vs0mg"},{"bike_id":"a4644197-2cbe-4db6-b1fb-8197670c015f","system_id":"levelo_inurba_marseille","lat":43.26229,"lon":5.40458,"is_reserved":false,"is_disabled":false,"rental_uris":{"android":"levelo://app?vid=a4644197-2cbe-4db6-b1fb-8197670c015f","ios":"levelo://app?vid=a4644197-2cbe-4db6-b1fb-8197670c015f"},"vehicle_type_id":"4","last_reported":1758744657,"current_range_meters":8400,"station_id":"ce4bhmh2rcd13ifvqgmg","pricing_plan_id":"cebpf4jnsgd1na2vs0mg"},{"bike_id":"f4c0456a-c976-498e-865c-e8aae0c0f9e0","system_id":"levelo_inurba_marseille","lat":43.28458,"lon":5.35892,"is_reserved":false,"is_disabled":false,"rental_uris":{"android":"levelo://app?vid=f4c0456a-c976-498e-865c-e8aae0c0f9e0","ios":"levelo://app?vid=f4c0456a-c976-498e-865c-e8aae0c0f9e0"},"vehicle_type_id":"4","last_reported":1758744657,"current_range_meters":8800,"station_id":"ce4bhah2rcd13ifvqei0","pricing_plan_id":"cebpf4jnsgd1na2vs0mg"},{"bike_id":"5f7a5080-e77c-4892-a096-c578510b27d0","system_id":"levelo_inurba_marseille","lat":43.27939,"lon":5.41039,"is_reserved":false,"is_disabled":true,"rental_uris":{"android":"levelo://app?vid=5f7a5080-e77c-4892-a096-c578510b27d0","ios":"levelo://app?vid=5f7a5080-e77c-4892-a096-c578510b27d0"},"vehicle_type_id":"4","last_reported":1758744657,"current_range_meters":8800,"station_id":"ce4bhnp2rcd13ifvqh0g","pricing_plan_id":"cebpf4jnsgd1na2vs0mg"},{"bike_id":"7c0482c3-9253-4d1b-b4f3-be55cdb7721d","system_id":"levelo_inurba_marseille","lat":43.33757,"lon":5.37466,"is_reserved":false,"is_disabled":false,"rental_uris":{"android":"levelo://app?vid=7c0482c3-9253-4d1b-b4f3-be55cdb7721d","ios":"levelo://app?vid=7c0482c3-9253-4d1b-b4f3-be55cdb7721d"},"vehicle_type_id":"4","last_reported":1758744657,"current_range_meters":8800,"station_id":"","pricing_plan_id":"cebpf4jnsgd1na2vs0mg"},{"bike_id":"9c4a7bdb-c552-4dfd-8efb-40b9e0b0b147","system_id":"levelo_inurba_marseille","lat":43.30899,"lon":5.36718,"is_reserved":false,"is_disabled":false,"rental_uris":{"android":"levelo://app?vid=9c4a7bdb-c552-4dfd-8efb-40b9e0b0b147","ios":"levelo://app?vid=9c4a7bdb-c552-4dfd-8efb-40b9e0b0b147"},"vehicle_type_id":"4","last_reported":1758744657,"current_range_meters":8800,"station_id":"","pricing_plan_id":"cebpf4jnsgd1na2vs0mg"},{"bike_id":"1846e412-a89b-48c3-8a86-f911e8ea2c2e","system_id":"levelo_inurba_marseille","lat":43.21193,"lon":5.35074,"is_reserved":false,"is_disabled":false,"rental_uris":{"android":"levelo://app?vid=1846e412-a89b-48c3-8a86-f911e8ea2c2e","ios":"levelo://app?vid=1846e412-a89b-48c3-8a86-f911e8ea2c2e"},"vehicle_type_id":"4","last_reported":1758744657,"current_range_meters":8800,"station_id":"st_cvj6sg6p6f1abm77japg","pricing_plan_id":"cebpf4jnsgd1na2vs0mg"},{"bike_id":"ba55f789-7bae-42b6-a066-bdb4dcafeb7e","system_id":"levelo_inurba_marseille","lat":43.29252,"lon":5.3844,"is_reserved":false,"is_disabled":false,"rental_uris":{"android":"levelo://app?vid=ba55f789-7bae-42b6-a066-bdb4dcafeb7e","ios":"levelo://app?vid=ba55f789-7bae-42b6-a066-bdb4dcafeb7e"},"vehicle_type_id":"4","last_reported":1758744657,"current_range_meters":8800,"station_id":"ce4bh692rcd13ifvqea0","pricing_plan_id":"cebpf4jnsgd1na2vs0mg"},{"bike_id":"43d57fd4-047e-4ac8-97e5-ec9b96239472","system_id":"levelo_inurba_marseille","lat":43.33231,"lon":5.39821,"is_reserved":false,"is_disabled":false,"rental_uris":{"android":"levelo://app?vid=43d57fd4-047e-4ac8-97e5-ec9b96239472","ios":"levelo://app?vid=43d57fd4-047e-4ac8-97e5-ec9b96239472"},"vehicle_type_id":"4","last_reported":1758744657,"current_range_meters":8800,"station_id":"","pricing_plan_id":"cebpf4jnsgd1na2vs0mg"},{"bike_id":"c2b71bd9-ff3a-4179-903e-7c4dc13cbf49","system_id":"levelo_inurba_marseille","lat":43.26494,"lon":5.39551,"is_reserved":false,"is_disabled":false,"rental_uris":{"android":"levelo://app?vid=c2b71bd9-ff3a-4179-903e-7c4dc13cbf49","ios":"levelo://app?vid=c2b71bd9-ff3a-4179-903e-7c4dc13cbf49"},"vehicle_type_id":"4","last_reported":1758744657,"current_range_meters":8800,"station_id":"ce4bhi12rcd13ifvqfq0","pricing_plan_id":"cebpf4jnsgd1na2vs0mg"},{"bike_id":"555e470f-2abc-4949-83c6-390731012e3e","system_id":"levelo_inurba_marseille","lat":43.34029,"lon":5.36127,"is_reserved":false,"is_disabled":false,"rental_uris":{"android":"levelo://app?vid=555e470f-2abc-4949-83c6-390731012e3e","ios":"levelo://app?vid=555e470f-2abc-4949-83c6-390731012e3e"},"vehicle_type_id":"4","last_reported":1758744657,"current_range_meters":8800,"station_id":"","pricing_plan_id":"cebpf4jnsgd1na2vs0mg"},{"bike_id":"e132e1db-2083-47f6-87a0-8903007208fc","system_id":"levelo_inurba_marseille","lat":43.24641,"lon":5.4316,"is_reserved":false,"is_disabled":false,"rental_uris":{"android":"levelo://app?vid=e132e1db-2083-47f6-87a0-8903007208fc","ios":"levelo://app?vid=e132e1db-2083-47f6-87a0-8903007208fc"},"vehicle_type_id":"4","last_reported":1758744657,"current_range_meters":9200,"station_id":"st_d2m6c4gdas8pm72e190g","pricing_plan_id":"cebpf4jnsgd1na2vs0mg"},{"bike_id":"2242fe94-f398-4879-be24-9b045fe05941","system_id":"levelo_inurba_marseille","lat":43.30922,"lon":5.40134,"is_reserved":false,"is_disabled":false,"rental_uris":{"android":"levelo://app?vid=2242fe94-f398-4879-be24-9b045fe05941","ios":"levelo://app?vid=2242fe94-f398-4879-be24-9b045fe05941"},"vehicle_type_id":"4","last_reported":1758744657,"current_range_meters":9200,"station_id":"ce4bgvp2rcd13ifvqct0","pricing_plan_id":"cebpf4jnsgd1na2vs0mg"},{"bike_id":"b2a1e5ba-8a76-45db-9a24-e979e6cb0171","system_id":"levelo_inurba_marseille","lat":43.27995,"lon":5.41673,"is_reserved":false,"is_disabled":false,"rental_uris":{"android":"levelo://app?vid=b2a1e5ba-8a76-45db-9a24-e979e6cb0171","ios":"levelo://app?vid=b2a1e5ba-8a76-45db-9a24-e979e6cb0171"},"vehicle_type_id":"4","last_reported":1758744657,"current_range_meters":9200,"station_id":"ce4bho12rcd13ifvqh1g","pricing_plan_id":"cebpf4jnsgd1na2vs0mg"},{"bike_id":"e35dc3d8-0dfe-4bd4-87f7-5d3ca8bee4e5","system_id":"levelo_inurba_marseille","lat":43.250814,"lon":5.425774,"is_reserved":false,"is_disabled":false,"rental_uris":{"android":"levelo://app?vid=e35dc3d8-0dfe-4bd4-87f7-5d3ca8bee4e5","ios":"levelo://app?vid=e35dc3d8-0dfe-4bd4-87f7-5d3ca8bee4e5"},"vehicle_type_id":"4","last_reported":1758744657,"current_range_meters":9200,"station_id":"","pricing_plan_id":"cebpf4jnsgd1na2vs0mg"},{"bike_id":"65cedec6-902f-4531-bea9-a316b22a6383","system_id":"levelo_inurba_marseille","lat":43.292774,"lon":5.401365,"is_reserved":false,"is_disabled":false,"rental_uris":{"android":"levelo://app?vid=65cedec6-902f-4531-bea9-a316b22a6383","ios":"levelo://app?vid=65cedec6-902f-4531-bea9-a316b22a6383"},"vehicle_type_id":"4","last_reported":1758744657,"current_range_meters":9600,"station_id":"ce4bh312rcd13ifvqdk0","pricing_plan_id":"cebpf4jnsgd1na2vs0mg"},{"bike_id":"6bca8a1a-def3-481f-9bd1-545243e3ff03","system_id":"levelo_inurba_marseille","lat":43.308,"lon":5.3816,"is_reserved":false,"is_disabled":false,"rental_uris":{"android":"levelo://app?vid=6bca8a1a-def3-481f-9bd1-545243e3ff03","ios":"levelo://app?vid=6bca8a1a-def3-481f-9bd1-545243e3ff03"},"vehicle_type_id":"4","last_reported":1758744657,"current_range_meters":9600,"station_id":"ce4bgt12rcd13ifvqce0","pricing_plan_id":"cebpf4jnsgd1na2vs0mg"},{"bike_id":"0df75e72-c8b2-4ed4-bb38-339f4f3a1611","system_id":"levelo_inurba_marseille","lat":43.27688,"lon":5.38971,"is_reserved":false,"is_disabled":true,"rental_uris":{"android":"levelo://app?vid=0df75e72-c8b2-4ed4-bb38-339f4f3a1611","ios":"levelo://app?vid=0df75e72-c8b2-4ed4-bb38-339f4f3a1611"},"vehicle_type_id":"4","last_reported":1758744657,"current_range_meters":9600,"station_id":"ce4bhi12rcd13ifvqfo0","pricing_plan_id":"cebpf4jnsgd1na2vs0mg"},{"bike_id":"835e662b-b33c-402f-a6b1-f536681d6490","system_id":"levelo_inurba_marseille","lat":43.28418,"lon":5.34991,"is_reserved":false,"is_disabled":false,"rental_uris":{"android":"levelo://app?vid=835e662b-b33c-402f-a6b1-f536681d6490","ios":"levelo://app?vid=835e662b-b33c-402f-a6b1-f536681d6490"},"vehicle_type_id":"4","last_reported":1758744657,"current_range_meters":9600,"station_id":"ce4bhbh2rcd13ifvqepg","pricing_plan_id":"cebpf4jnsgd1na2vs0mg"},{"bike_id":"a60abba9-f9b8-477b-8786-175fc2b6218b","system_id":"levelo_inurba_marseille","lat":43.30877,"lon":5.37168,"is_reserved":false,"is_disabled":false,"rental_uris":{"android":"levelo://app?vid=a60abba9-f9b8-477b-8786-175fc2b6218b","ios":"levelo://app?vid=a60abba9-f9b8-477b-8786-175fc2b6218b"},"vehicle_type_id":"4","last_reported":1758744657,"current_range_meters":10000,"station_id":"ce4bguh2rcd13ifvqckg","pricing_plan_id":"cebpf4jnsgd1na2vs0mg"},{"bike_id":"50220bcd-7598-49dd-8e55-cf70e0c0ef0f","system_id":"levelo_inurba_marseille","lat":43.307469,"lon":5.376161,"is_reserved":false,"is_disabled":false,"rental_uris":{"android":"levelo://app?vid=50220bcd-7598-49dd-8e55-cf70e0c0ef0f","ios":"levelo://app?vid=50220bcd-7598-49dd-8e55-cf70e0c0ef0f"},"vehicle_type_id":"4","last_reported":1758744657,"current_range_meters":10000,"station_id":"ce4bgv92rcd13ifvqcq0","pricing_plan_id":"cebpf4jnsgd1na2vs0mg"},{"bike_id":"d2eba78e-7354-4820-b95b-cd153b884d26","system_id":"levelo_inurba_marseille","lat":43.27817,"lon":5.40722,"is_reserved":false,"is_disabled":false,"rental_uris":{"android":"levelo://app?vid=d2eba78e-7354-4820-b95b-cd153b884d26","ios":"levelo://app?vid=d2eba78e-7354-4820-b95b-cd153b884d26"},"vehicle_type_id":"4","last_reported":1758744657,"current_range_meters":10000,"station_id":"ce4bhnh2rcd13ifvqgtg","pricing_plan_id":"cebpf4jnsgd1na2vs0mg"},{"bike_id":"e4ea70ff-e6f8-4d87-afa2-75015ab3fd96","system_id":"levelo_inurba_marseille","lat":43.25834,"lon":5.39894,"is_reserved":false,"is_disabled":false,"rental_uris":{"android":"levelo://app?vid=e4ea70ff-e6f8-4d87-afa2-75015ab3fd96","ios":"levelo://app?vid=e4ea70ff-e6f8-4d87-afa2-75015ab3fd96"},"vehicle_type_id":"4","last_reported":1758744657,"current_range_meters":10000,"station_id":"ce4bhl92rcd13ifvqghg","pricing_plan_id":"cebpf4jnsgd1na2vs0mg"},{"bike_id":"514b5fdb-f81d-41c3-afe2-e88866964916","system_id":"levelo_inurba_marseille","lat":43.25082,"lon":5.39514,"is_reserved":false,"is_disabled":true,"rental_uris":{"android":"levelo://app?vid=514b5fdb-f81d-41c3-afe2-e88866964916","ios":"levelo://app?vid=514b5fdb-f81d-41c3-afe2-e88866964916"},"vehicle_type_id":"4","last_reported":1758744657,"current_range_meters":10000,"station_id":"ce4bhm12rcd13ifvqgkg","pricing_plan_id":"cebpf4jnsgd1na2vs0mg"},{"bike_id":"3cfe090f-8908-469e-af9b-d364f2d44b74","system_id":"levelo_inurba_marseille","lat":43.28702,"lon":5.39982,"is_reserved":false,"is_disabled":false,"rental_uris":{"android":"levelo://app?vid=3cfe090f-8908-469e-af9b-d364f2d44b74","ios":"levelo://app?vid=3cfe090f-8908-469e-af9b-d364f2d44b74"},"vehicle_type_id":"4","last_reported":1758744657,"current_range_meters":8400,"station_id":"ce4bho92rcd13ifvqh3g","pricing_plan_id":"cebpf4jnsgd1na2vs0mg"},{"bike_id":"35b29339-dba8-4e1a-a84b-b2cb4cbeab88","system_id":"levelo_inurba_marseille","lat":43.31063,"lon":5.40077,"is_reserved":false,"is_disabled":false,"rental_uris":{"android":"levelo://app?vid=35b29339-dba8-4e1a-a84b-b2cb4cbeab88","ios":"levelo://app?vid=35b29339-dba8-4e1a-a84b-b2cb4cbeab88"},"vehicle_type_id":"4","last_reported":1758744657,"current_range_meters":10800,"station_id":"","pricing_plan_id":"cebpf4jnsgd1na2vs0mg"},{"bike_id":"f7700745-7f14-4c5a-9770-b59db7372a4c","system_id":"levelo_inurba_marseille","lat":43.23184,"lon":5.39973,"is_reserved":false,"is_disabled":false,"rental_uris":{"android":"levelo://app?vid=f7700745-7f14-4c5a-9770-b59db7372a4c","ios":"levelo://app?vid=f7700745-7f14-4c5a-9770-b59db7372a4c"},"vehicle_type_id":"4","last_reported":1758744657,"current_range_meters":10800,"station_id":"ce4bhn12rcd13ifvqgqg","pricing_plan_id":"cebpf4jnsgd1na2vs0mg"},{"bike_id":"54f1c92b-94a0-4513-88e2-cfe0e09ba6ac","system_id":"levelo_inurba_marseille","lat":43.3302,"lon":5.39044,"is_reserved":false,"is_disabled":false,"rental_uris":{"android":"levelo://app?vid=54f1c92b-94a0-4513-88e2-cfe0e09ba6ac","ios":"levelo://app?vid=54f1c92b-94a0-4513-88e2-cfe0e09ba6ac"},"vehicle_type_id":"4","last_reported":1758744657,"current_range_meters":10800,"station_id":"ce4bhr92rcd13ifvqhrg","pricing_plan_id":"cebpf4jnsgd1na2vs0mg"},{"bike_id":"65ade5ec-d9c1-4823-a403-187c1df8cd0e","system_id":"levelo_inurba_marseille","lat":43.30124,"lon":5.39064,"is_reserved":false,"is_disabled":false,"rental_uris":{"android":"levelo://app?vid=65ade5ec-d9c1-4823-a403-187c1df8cd0e","ios":"levelo://app?vid=65ade5ec-d9c1-4823-a403-187c1df8cd0e"},"vehicle_type_id":"4","last_reported":1758744657,"current_range_meters":10800,"station_id":"ce4bh192rcd13ifvqdb0","pricing_plan_id":"cebpf4jnsgd1na2vs0mg"},{"bike_id":"9feb0e0f-24fa-4463-b0f3-30472830c043","system_id":"levelo_inurba_marseille","lat":43.31757,"lon":5.39002,"is_reserved":false,"is_disabled":true,"rental_uris":{"android":"levelo://app?vid=9feb0e0f-24fa-4463-b0f3-30472830c043","ios":"levelo://app?vid=9feb0e0f-24fa-4463-b0f3-30472830c043"},"vehicle_type_id":"4","last_reported":1758744657,"current_range_meters":11200,"station_id":"ce4bhqp2rcd13ifvqhng","pricing_plan_id":"cebpf4jnsgd1na2vs0mg"},{"bike_id":"93065a29-75f0-4904-8d38-b05835b60a21","system_id":"levelo_inurba_marseille","lat":43.3403,"lon":5.36126,"is_reserved":false,"is_disabled":false,"rental_uris":{"android":"levelo://app?vid=93065a29-75f0-4904-8d38-b05835b60a21","ios":"levelo://app?vid=93065a29-75f0-4904-8d38-b05835b60a21"},"vehicle_type_id":"4","last_reported":1758744657,"current_range_meters":11200,"station_id":"ce4bhs12rcd13ifvqhvg","pricing_plan_id":"cebpf4jnsgd1na2vs0mg"},{"bike_id":"3b27d21d-0fc6-47e0-bc28-7c75372790b2","system_id":"levelo_inurba_marseille","lat":43.24944,"lon":5.4049,"is_reserved":false,"is_disabled":false,"rental_uris":{"android":"levelo://app?vid=3b27d21d-0fc6-47e0-bc28-7c75372790b2","ios":"levelo://app?vid=3b27d21d-0fc6-47e0-bc28-7c75372790b2"},"vehicle_type_id":"4","last_reported":1758744657,"current_range_meters":11200,"station_id":"st_d2ngiaodas8pm72gd1h0","pricing_plan_id":"cebpf4jnsgd1na2vs0mg"},{"bike_id":"b5097eea-9912-4be2-9cf9-14c224c5fab6","system_id":"levelo_inurba_marseille","lat":43.23188,"lon":5.35546,"is_reserved":false,"is_disabled":false,"rental_uris":{"android":"levelo://app?vid=b5097eea-9912-4be2-9cf9-14c224c5fab6","ios":"levelo://app?vid=b5097eea-9912-4be2-9cf9-14c224c5fab6"},"vehicle_type_id":"4","last_reported":1758744657,"current_range_meters":11200,"station_id":"ce4bhu92rcd13ifvqi70","pricing_plan_id":"cebpf4jnsgd1na2vs0mg"},{"bike_id":"2b142924-375d-48cb-93a3-16a1b9bf5e94","system_id":"levelo_inurba_marseille","lat":43.2861,"lon":5.35101,"is_reserved":false,"is_disabled":false,"rental_uris":{"android":"levelo://app?vid=2b142924-375d-48cb-93a3-16a1b9bf5e94","ios":"levelo://app?vid=2b142924-375d-48cb-93a3-16a1b9bf5e94"},"vehicle_type_id":"4","last_reported":1758744657,"current_range_meters":11200,"station_id":"ce4bhch2rcd13ifvqeug","pricing_plan_id":"cebpf4jnsgd1na2vs0mg"},{"bike_id":"438ead59-de14-4fa0-a61d-03a70a4122ae","system_id":"levelo_inurba_marseille","lat":43.97269,"lon":4.89111,"is_reserved":false,"is_disabled":true,"rental_uris":{"android":"levelo://app?vid=438ead59-de14-4fa0-a61d-03a70a4122ae","ios":"levelo://app?vid=438ead59-de14-4fa0-a61d-03a70a4122ae"},"vehicle_type_id":"4","last_reported":1758744657,"current_range_meters":11200,"station_id":"","pricing_plan_id":"cebpf4jnsgd1na2vs0mg"},{"bike_id":"8c7fb638-aa89-4dc5-b652-77ceb015b905","system_id":"levelo_inurba_marseille","lat":43.24941,"lon":5.40507,"is_reserved":false,"is_disabled":false,"rental_uris":{"android":"levelo://app?vid=8c7fb638-aa89-4dc5-b652-77ceb015b905","ios":"levelo://app?vid=8c7fb638-aa89-4dc5-b652-77ceb015b905"},"vehicle_type_id":"4","last_reported":1758744657,"current_range_meters":11600,"station_id":"st_d2ngiaodas8pm72gd1h0","pricing_plan_id":"cebpf4jnsgd1na2vs0mg"},{"bike_id":"c89e96e6-c0b7-49ff-b8e6-77a8927b2a39","system_id":"levelo_inurba_marseille","lat":43.26556,"lon":5.37286,"is_reserved":false,"is_disabled":false,"rental_uris":{"android":"levelo://app?vid=c89e96e6-c0b7-49ff-b8e6-77a8927b2a39","ios":"levelo://app?vid=c89e96e6-c0b7-49ff-b8e6-77a8927b2a39"},"vehicle_type_id":"4","last_reported":1758744657,"current_range_meters":11600,"station_id":"ce4bhg12rcd13ifvqf70","pricing_plan_id":"cebpf4jnsgd1na2vs0mg"},{"bike_id":"06c10839-75c7-457b-804b-f341157fb4f3","system_id":"levelo_inurba_marseille","lat":43.25063,"lon":5.40462,"is_reserved":false,"is_disabled":false,"rental_uris":{"android":"levelo://app?vid=06c10839-75c7-457b-804b-f341157fb4f3","ios":"levelo://app?vid=06c10839-75c7-457b-804b-f341157fb4f3"},"vehicle_type_id":"4","last_reported":1758744657,"current_range_meters":11600,"station_id":"","pricing_plan_id":"cebpf4jnsgd1na2vs0mg"},{"bike_id":"ce68ef78-e20f-432d-ac64-3e064c3acadf","system_id":"levelo_inurba_marseille","lat":43.29199,"lon":5.35806,"is_reserved":false,"is_disabled":false,"rental_uris":{"android":"levelo://app?vid=ce68ef78-e20f-432d-ac64-3e064c3acadf","ios":"levelo://app?vid=ce68ef78-e20f-432d-ac64-3e064c3acadf"},"vehicle_type_id":"4","last_reported":1758744657,"current_range_meters":11600,"station_id":"ce4bhb12rcd13ifvqel0","pricing_plan_id":"cebpf4jnsgd1na2vs0mg"},{"bike_id":"c9284693-63ed-4352-842d-6e271237206f","system_id":"levelo_inurba_marseille","lat":43.29532,"lon":5.38549,"is_reserved":false,"is_disabled":false,"rental_uris":{"android":"levelo://app?vid=c9284693-63ed-4352-842d-6e271237206f","ios":"levelo://app?vid=c9284693-63ed-4352-842d-6e271237206f"},"vehicle_type_id":"4","last_reported":1758744657,"current_range_meters":11600,"station_id":"ce4bgih2rcd13ifvqba0","pricing_plan_id":"cebpf4jnsgd1na2vs0mg"},{"bike_id":"719ea5c7-c127-4c2e-bb85-3b5f46a408f7","system_id":"levelo_inurba_marseille","lat":43.30604,"lon":5.37224,"is_reserved":false,"is_disabled":false,"rental_uris":{"android":"levelo://app?vid=719ea5c7-c127-4c2e-bb85-3b5f46a408f7","ios":"levelo://app?vid=719ea5c7-c127-4c2e-bb85-3b5f46a408f7"},"vehicle_type_id":"4","last_reported":1758744657,"current_range_meters":11600,"station_id":"ce4bgqh2rcd13ifvqc4g","pricing_plan_id":"cebpf4jnsgd1na2vs0mg"},{"bike_id":"8dbb87b8-430c-4752-abef-9b6c00f58012","system_id":"levelo_inurba_marseille","lat":43.30884,"lon":5.37195,"is_reserved":false,"is_disabled":false,"rental_uris":{"android":"levelo://app?vid=8dbb87b8-430c-4752-abef-9b6c00f58012","ios":"levelo://app?vid=8dbb87b8-430c-4752-abef-9b6c00f58012"},"vehicle_type_id":"4","last_reported":1758744657,"current_range_meters":11600,"station_id":"ce4bguh2rcd13ifvqckg","pricing_plan_id":"cebpf4jnsgd1na2vs0mg"},{"bike_id":"943f4a81-0a8c-43a3-b65e-eb7ef547a72c","system_id":"levelo_inurba_marseille","lat":43.28489,"lon":5.3844,"is_reserved":false,"is_disabled":true,"rental_uris":{"android":"levelo://app?vid=943f4a81-0a8c-43a3-b65e-eb7ef547a72c","ios":"levelo://app?vid=943f4a81-0a8c-43a3-b65e-eb7ef547a72c"},"vehicle_type_id":"4","last_reported":1758744657,"current_range_meters":11600,"station_id":"ce4bh512rcd13ifvqe3g","pricing_plan_id":"cebpf4jnsgd1na2vs0mg"},{"bike_id":"7981bd57-1a91-436b-8601-50130d20e8be","system_id":"levelo_inurba_marseille","lat":43.21197,"lon":5.35083,"is_reserved":false,"is_disabled":false,"rental_uris":{"android":"levelo://app?vid=7981bd57-1a91-436b-8601-50130d20e8be","ios":"levelo://app?vid=7981bd57-1a91-436b-8601-50130d20e8be"},"vehicle_type_id":"4","last_reported":1758744657,"current_range_meters":12000,"station_id":"st_cvj6sg6p6f1abm77japg","pricing_plan_id":"cebpf4jnsgd1na2vs0mg"},{"bike_id":"316d9fa9-075b-4aaa-87a1-e658e24e23e9","system_id":"levelo_inurba_marseille","lat":43.29209,"lon":5.36074,"is_reserved":false,"is_disabled":false,"rental_uris":{"android":"levelo://app?vid=316d9fa9-075b-4aaa-87a1-e658e24e23e9","ios":"levelo://app?vid=316d9fa9-075b-4aaa-87a1-e658e24e23e9"},"vehicle_type_id":"4","last_reported":1758744657,"current_range_meters":12000,"station_id":"ce4bhbh2rcd13ifvqeqg","pricing_plan_id":"cebpf4jnsgd1na2vs0mg"},{"bike_id":"b047061a-80fe-4f53-a37f-a97017dc2f10","system_id":"levelo_inurba_marseille","lat":43.29258,"lon":5.40921,"is_reserved":false,"is_disabled":true,"rental_uris":{"android":"levelo://app?vid=b047061a-80fe-4f53-a37f-a97017dc2f10","ios":"levelo://app?vid=b047061a-80fe-4f53-a37f-a97017dc2f10"},"vehicle_type_id":"4","last_reported":1758744657,"current_range_meters":12000,"station_id":"ce4bh192rcd13ifvqdc0","pricing_plan_id":"cebpf4jnsgd1na2vs0mg"},{"bike_id":"eea06504-9feb-43aa-83f4-208ae98879c4","system_id":"levelo_inurba_marseille","lat":43.30884,"lon":5.372,"is_reserved":false,"is_disabled":false,"rental_uris":{"android":"levelo://app?vid=eea06504-9feb-43aa-83f4-208ae98879c4","ios":"levelo://app?vid=eea06504-9feb-43aa-83f4-208ae98879c4"},"vehicle_type_id":"4","last_reported":1758744657,"current_range_meters":12000,"station_id":"ce4bguh2rcd13ifvqckg","pricing_plan_id":"cebpf4jnsgd1na2vs0mg"},{"bike_id":"450844ba-2fc2-47be-9959-8fee61f07fb6","system_id":"levelo_inurba_marseille","lat":43.31741,"lon":5.39024,"is_reserved":false,"is_disabled":false,"rental_uris":{"android":"levelo://app?vid=450844ba-2fc2-47be-9959-8fee61f07fb6","ios":"levelo://app?vid=450844ba-2fc2-47be-9959-8fee61f07fb6"},"vehicle_type_id":"4","last_reported":1758744657,"current_range_meters":12400,"station_id":"ce4bhqp2rcd13ifvqhng","pricing_plan_id":"cebpf4jnsgd1na2vs0mg"},{"bike_id":"ec43a39b-a997-4213-90a4-0df24a430b1b","system_id":"levelo_inurba_marseille","lat":43.33659,"lon":5.36312,"is_reserved":false,"is_disabled":false,"rental_uris":{"android":"levelo://app?vid=ec43a39b-a997-4213-90a4-0df24a430b1b","ios":"levelo://app?vid=ec43a39b-a997-4213-90a4-0df24a430b1b"},"vehicle_type_id":"4","last_reported":1758744657,"current_range_meters":12400,"station_id":"","pricing_plan_id":"cebpf4jnsgd1na2vs0mg"},{"bike_id":"a851cae0-b395-441e-9dd1-21300baf3396","system_id":"levelo_inurba_marseille","lat":43.3152,"lon":5.38682,"is_reserved":false,"is_disabled":false,"rental_uris":{"android":"levelo://app?vid=a851cae0-b395-441e-9dd1-21300baf3396","ios":"levelo://app?vid=a851cae0-b395-441e-9dd1-21300baf3396"},"vehicle_type_id":"4","last_reported":1758744657,"current_range_meters":12400,"station_id":"","pricing_plan_id":"cebpf4jnsgd1na2vs0mg"},{"bike_id":"3a319be7-fef3-40df-96fe-6bdc37dc7081","system_id":"levelo_inurba_marseille","lat":43.28077,"lon":5.37892,"is_reserved":false,"is_disabled":false,"rental_uris":{"android":"levelo://app?vid=3a319be7-fef3-40df-96fe-6bdc37dc7081","ios":"levelo://app?vid=3a319be7-fef3-40df-96fe-6bdc37dc7081"},"vehicle_type_id":"4","last_reported":1758744657,"current_range_meters":12400,"station_id":"","pricing_plan_id":"cebpf4jnsgd1na2vs0mg"},{"bike_id":"5b7adb98-c360-42e0-8f06-648e8437eceb","system_id":"levelo_inurba_marseille","lat":43.27934,"lon":5.41052,"is_reserved":false,"is_disabled":false,"rental_uris":{"android":"levelo://app?vid=5b7adb98-c360-42e0-8f06-648e8437eceb","ios":"levelo://app?vid=5b7adb98-c360-42e0-8f06-648e8437eceb"},"vehicle_type_id":"4","last_reported":1758744657,"current_range_meters":12400,"station_id":"ce4bhnp2rcd13ifvqh0g","pricing_plan_id":"cebpf4jnsgd1na2vs0mg"},{"bike_id":"fca2cd76-1e31-47dc-b6ce-18776c40295a","system_id":"levelo_inurba_marseille","lat":43.27373,"lon":5.36263,"is_reserved":false,"is_disabled":false,"rental_uris":{"android":"levelo://app?vid=fca2cd76-1e31-47dc-b6ce-18776c40295a","ios":"levelo://app?vid=fca2cd76-1e31-47dc-b6ce-18776c40295a"},"vehicle_type_id":"4","last_reported":1758744657,"current_range_meters":12400,"station_id":"ce4bhbh2rcd13ifvqeo0","pricing_plan_id":"cebpf4jnsgd1na2vs0mg"},{"bike_id":"36b070bb-df09-4433-b99c-aab79ada22d5","system_id":"levelo_inurba_marseille","lat":43.29287,"lon":5.3744,"is_reserved":false,"is_disabled":false,"rental_uris":{"android":"levelo://app?vid=36b070bb-df09-4433-b99c-aab79ada22d5","ios":"levelo://app?vid=36b070bb-df09-4433-b99c-aab79ada22d5"},"vehicle_type_id":"4","last_reported":1758744657,"current_range_meters":12400,"station_id":"","pricing_plan_id":"cebpf4jnsgd1na2vs0mg"},{"bike_id":"f9af076b-c426-46f0-97f6-f6a5a530c8e2","system_id":"levelo_inurba_marseille","lat":43.329796,"lon":5.397936,"is_reserved":false,"is_disabled":false,"rental_uris":{"android":"levelo://app?vid=f9af076b-c426-46f0-97f6-f6a5a530c8e2","ios":"levelo://app?vid=f9af076b-c426-46f0-97f6-f6a5a530c8e2"},"vehicle_type_id":"4","last_reported":1758744657,"current_range_meters":12400,"station_id":"","pricing_plan_id":"cebpf4jnsgd1na2vs0mg"},{"bike_id":"5fbe240b-53fb-428d-978a-e46e6a2551ae","system_id":"levelo_inurba_marseille","lat":43.25582,"lon":5.38236,"is_reserved":false,"is_disabled":false,"rental_uris":{"android":"levelo://app?vid=5fbe240b-53fb-428d-978a-e46e6a2551ae","ios":"levelo://app?vid=5fbe240b-53fb-428d-978a-e46e6a2551ae"},"vehicle_type_id":"4","last_reported":1758744657,"current_range_meters":12400,"station_id":"ce4bhih2rcd13ifvqfs0","pricing_plan_id":"cebpf4jnsgd1na2vs0mg"},{"bike_id":"1221f52f-da48-4205-afc8-b6dd9d4b3e5e","system_id":"levelo_inurba_marseille","lat":43.25708,"lon":5.41094,"is_reserved":false,"is_disabled":true,"rental_uris":{"android":"levelo://app?vid=1221f52f-da48-4205-afc8-b6dd9d4b3e5e","ios":"levelo://app?vid=1221f52f-da48-4205-afc8-b6dd9d4b3e5e"},"vehicle_type_id":"4","last_reported":1758744657,"current_range_meters":12800,"station_id":"ce4bhkp2rcd13ifvqgd0","pricing_plan_id":"cebpf4jnsgd1na2vs0mg"},{"bike_id":"ef00c611-56e3-4d87-83a8-6fad9627913a","system_id":"levelo_inurba_marseille","lat":43.308894,"lon":5.371943,"is_reserved":false,"is_disabled":false,"rental_uris":{"android":"levelo://app?vid=ef00c611-56e3-4d87-83a8-6fad9627913a","ios":"levelo://app?vid=ef00c611-56e3-4d87-83a8-6fad9627913a"},"vehicle_type_id":"4","last_reported":1758744657,"current_range_meters":12800,"station_id":"ce4bguh2rcd13ifvqckg","pricing_plan_id":"cebpf4jnsgd1na2vs0mg"},{"bike_id":"36b7e1fd-60cc-41f1-8cc1-34f8e369ef8a","system_id":"levelo_inurba_marseille","lat":43.29371,"lon":5.37842,"is_reserved":false,"is_disabled":false,"rental_uris":{"android":"levelo://app?vid=36b7e1fd-60cc-41f1-8cc1-34f8e369ef8a","ios":"levelo://app?vid=36b7e1fd-60cc-41f1-8cc1-34f8e369ef8a"},"vehicle_type_id":"4","last_reported":1758744657,"current_range_meters":14000,"station_id":"ce4bgjh2rcd13ifvqbf0","pricing_plan_id":"cebpf4jnsgd1na2vs0mg"},{"bike_id":"71c11d91-a929-47a4-9d23-ca3894d5888b","system_id":"levelo_inurba_marseille","lat":43.258241,"lon":5.39439,"is_reserved":false,"is_disabled":false,"rental_uris":{"android":"levelo://app?vid=71c11d91-a929-47a4-9d23-ca3894d5888b","ios":"levelo://app?vid=71c11d91-a929-47a4-9d23-ca3894d5888b"},"vehicle_type_id":"4","last_reported":1758744657,"current_range_meters":12800,"station_id":"ce4bhip2rcd13ifvqft0","pricing_plan_id":"cebpf4jnsgd1na2vs0mg"},{"bike_id":"dfc6616d-fac8-446b-b270-4ca8177f4872","system_id":"levelo_inurba_marseille","lat":43.24063,"lon":5.37748,"is_reserved":false,"is_disabled":false,"rental_uris":{"android":"levelo://app?vid=dfc6616d-fac8-446b-b270-4ca8177f4872","ios":"levelo://app?vid=dfc6616d-fac8-446b-b270-4ca8177f4872"},"vehicle_type_id":"4","last_reported":1758744657,"current_range_meters":13600,"station_id":"ce4bhnp2rcd13ifvqgvg","pricing_plan_id":"cebpf4jnsgd1na2vs0mg"},{"bike_id":"ae4d123c-65ee-4c52-8933-f4b14d3f9582","system_id":"levelo_inurba_marseille","lat":43.22563,"lon":5.41634,"is_reserved":false,"is_disabled":false,"rental_uris":{"android":"levelo://app?vid=ae4d123c-65ee-4c52-8933-f4b14d3f9582","ios":"levelo://app?vid=ae4d123c-65ee-4c52-8933-f4b14d3f9582"},"vehicle_type_id":"4","last_reported":1758744657,"current_range_meters":13600,"station_id":"st_d2o4gvlbi1j2169b742g","pricing_plan_id":"cebpf4jnsgd1na2vs0mg"},{"bike_id":"fc59135d-10f7-4ace-822b-43a76961cf8d","system_id":"levelo_inurba_marseille","lat":43.2872,"lon":5.37935,"is_reserved":false,"is_disabled":false,"rental_uris":{"android":"levelo://app?vid=fc59135d-10f7-4ace-822b-43a76961cf8d","ios":"levelo://app?vid=fc59135d-10f7-4ace-822b-43a76961cf8d"},"vehicle_type_id":"4","last_reported":1758744657,"current_range_meters":12800,"station_id":"ce4bh9p2rcd13ifvqec0","pricing_plan_id":"cebpf4jnsgd1na2vs0mg"},{"bike_id":"806549db-06a3-4e2c-9e84-901febf26220","system_id":"levelo_inurba_marseille","lat":43.30308,"lon":5.39205,"is_reserved":false,"is_disabled":false,"rental_uris":{"android":"levelo://app?vid=806549db-06a3-4e2c-9e84-901febf26220","ios":"levelo://app?vid=806549db-06a3-4e2c-9e84-901febf26220"},"vehicle_type_id":"4","last_reported":1758744657,"current_range_meters":12800,"station_id":"ce4bgkh2rcd13ifvqbk0","pricing_plan_id":"cebpf4jnsgd1na2vs0mg"},{"bike_id":"3517baf2-ec5e-42ad-bfc5-8982701e0b55","system_id":"levelo_inurba_marseille","lat":43.28942,"lon":5.36638,"is_reserved":false,"is_disabled":false,"rental_uris":{"android":"levelo://app?vid=3517baf2-ec5e-42ad-bfc5-8982701e0b55","ios":"levelo://app?vid=3517baf2-ec5e-42ad-bfc5-8982701e0b55"},"vehicle_type_id":"4","last_reported":1758744657,"current_range_meters":12800,"station_id":"ce4bhap2rcd13ifvqek0","pricing_plan_id":"cebpf4jnsgd1na2vs0mg"},{"bike_id":"9df6bf50-d886-4162-8c9a-51a0e4855128","system_id":"levelo_inurba_marseille","lat":43.26679,"lon":5.38275,"is_reserved":false,"is_disabled":false,"rental_uris":{"android":"levelo://app?vid=9df6bf50-d886-4162-8c9a-51a0e4855128","ios":"levelo://app?vid=9df6bf50-d886-4162-8c9a-51a0e4855128"},"vehicle_type_id":"4","last_reported":1758744657,"current_range_meters":13600,"station_id":"ce4bhg92rcd13ifvqf90","pricing_plan_id":"cebpf4jnsgd1na2vs0mg"},{"bike_id":"21a23fb5-d051-4ee2-9c58-8985930c04d5","system_id":"levelo_inurba_marseille","lat":43.28419,"lon":5.37527,"is_reserved":false,"is_disabled":false,"rental_uris":{"android":"levelo://app?vid=21a23fb5-d051-4ee2-9c58-8985930c04d5","ios":"levelo://app?vid=21a23fb5-d051-4ee2-9c58-8985930c04d5"},"vehicle_type_id":"4","last_reported":1758744657,"current_range_meters":13600,"station_id":"ce4bh412rcd13ifvqds0","pricing_plan_id":"cebpf4jnsgd1na2vs0mg"},{"bike_id":"b3e95158-1f24-4a27-a73a-d79e0a465478","system_id":"levelo_inurba_marseille","lat":43.24072,"lon":5.37761,"is_reserved":false,"is_disabled":false,"rental_uris":{"android":"levelo://app?vid=b3e95158-1f24-4a27-a73a-d79e0a465478","ios":"levelo://app?vid=b3e95158-1f24-4a27-a73a-d79e0a465478"},"vehicle_type_id":"4","last_reported":1758744657,"current_range_meters":14000,"station_id":"ce4bhnp2rcd13ifvqgvg","pricing_plan_id":"cebpf4jnsgd1na2vs0mg"},{"bike_id":"3cb1dae7-6bcd-41e5-b1b7-c1d25c751a99","system_id":"levelo_inurba_marseille","lat":43.337594,"lon":5.374419,"is_reserved":false,"is_disabled":false,"rental_uris":{"android":"levelo://app?vid=3cb1dae7-6bcd-41e5-b1b7-c1d25c751a99","ios":"levelo://app?vid=3cb1dae7-6bcd-41e5-b1b7-c1d25c751a99"},"vehicle_type_id":"4","last_reported":1758744657,"current_range_meters":14000,"station_id":"","pricing_plan_id":"cebpf4jnsgd1na2vs0mg"},{"bike_id":"57b14c92-2a17-45b3-beb1-cbb460ef441b","system_id":"levelo_inurba_marseille","lat":43.231858,"lon":5.399974,"is_reserved":false,"is_disabled":false,"rental_uris":{"android":"levelo://app?vid=57b14c92-2a17-45b3-beb1-cbb460ef441b","ios":"levelo://app?vid=57b14c92-2a17-45b3-beb1-cbb460ef441b"},"vehicle_type_id":"4","last_reported":1758744657,"current_range_meters":14000,"station_id":"ce4bhn12rcd13ifvqgqg","pricing_plan_id":"cebpf4jnsgd1na2vs0mg"},{"bike_id":"bf1244d3-d7e7-45bd-8580-d0cbc34b36e3","system_id":"levelo_inurba_marseille","lat":43.22562,"lon":5.41635,"is_reserved":false,"is_disabled":false,"rental_uris":{"android":"levelo://app?vid=bf1244d3-d7e7-45bd-8580-d0cbc34b36e3","ios":"levelo://app?vid=bf1244d3-d7e7-45bd-8580-d0cbc34b36e3"},"vehicle_type_id":"4","last_reported":1758744657,"current_range_meters":14000,"station_id":"st_d2o4gvlbi1j2169b742g","pricing_plan_id":"cebpf4jnsgd1na2vs0mg"},{"bike_id":"e1f6ea02-3dcd-4760-958d-a4be47a2bc76","system_id":"levelo_inurba_marseille","lat":43.2465,"lon":5.38924,"is_reserved":false,"is_disabled":false,"rental_uris":{"android":"levelo://app?vid=e1f6ea02-3dcd-4760-958d-a4be47a2bc76","ios":"levelo://app?vid=e1f6ea02-3dcd-4760-958d-a4be47a2bc76"},"vehicle_type_id":"4","last_reported":1758744657,"current_range_meters":14000,"station_id":"ce4bhg12rcd13ifvqf60","pricing_plan_id":"cebpf4jnsgd1na2vs0mg"},{"bike_id":"e19472f1-87e0-4943-97f3-e785d2a10054","system_id":"levelo_inurba_marseille","lat":43.288571,"lon":5.425315,"is_reserved":false,"is_disabled":false,"rental_uris":{"android":"levelo://app?vid=e19472f1-87e0-4943-97f3-e785d2a10054","ios":"levelo://app?vid=e19472f1-87e0-4943-97f3-e785d2a10054"},"vehicle_type_id":"4","last_reported":1758744657,"current_range_meters":14000,"station_id":"","pricing_plan_id":"cebpf4jnsgd1na2vs0mg"},{"bike_id":"3a83ddcd-ce03-4ed4-a7fa-b273c2464f02","system_id":"levelo_inurba_marseille","lat":43.27945,"lon":5.36328,"is_reserved":false,"is_disabled":false,"rental_uris":{"android":"levelo://app?vid=3a83ddcd-ce03-4ed4-a7fa-b273c2464f02","ios":"levelo://app?vid=3a83ddcd-ce03-4ed4-a7fa-b273c2464f02"},"vehicle_type_id":"4","last_reported":1758744657,"current_range_meters":14000,"station_id":"","pricing_plan_id":"cebpf4jnsgd1na2vs0mg"},{"bike_id":"16cee2f9-0604-4f00-85ee-c5690b0410f0","system_id":"levelo_inurba_marseille","lat":43.286191,"lon":5.351014,"is_reserved":false,"is_disabled":false,"rental_uris":{"android":"levelo://app?vid=16cee2f9-0604-4f00-85ee-c5690b0410f0","ios":"levelo://app?vid=16cee2f9-0604-4f00-85ee-c5690b0410f0"},"vehicle_type_id":"4","last_reported":1758744657,"current_range_meters":14000,"station_id":"ce4bhch2rcd13ifvqeug","pricing_plan_id":"cebpf4jnsgd1na2vs0mg"},{"bike_id":"edd2084b-6e0f-409e-9809-67787dc471db","system_id":"levelo_inurba_marseille","lat":43.26687,"lon":5.38272,"is_reserved":false,"is_disabled":false,"rental_uris":{"android":"levelo://app?vid=edd2084b-6e0f-409e-9809-67787dc471db","ios":"levelo://app?vid=edd2084b-6e0f-409e-9809-67787dc471db"},"vehicle_type_id":"4","last_reported":1758744657,"current_range_meters":14400,"station_id":"ce4bhg92rcd13ifvqf90","pricing_plan_id":"cebpf4jnsgd1na2vs0mg"},{"bike_id":"8eae954c-dab6-4303-94f5-569e1c483f62","system_id":"levelo_inurba_marseille","lat":43.29456,"lon":5.40734,"is_reserved":false,"is_disabled":false,"rental_uris":{"android":"levelo://app?vid=8eae954c-dab6-4303-94f5-569e1c483f62","ios":"levelo://app?vid=8eae954c-dab6-4303-94f5-569e1c483f62"},"vehicle_type_id":"4","last_reported":1758744657,"current_range_meters":14800,"station_id":"","pricing_plan_id":"cebpf4jnsgd1na2vs0mg"},{"bike_id":"002673c7-e49b-40c2-82da-6cf2f4393eb8","system_id":"levelo_inurba_marseille","lat":43.30459,"lon":5.37902,"is_reserved":false,"is_disabled":true,"rental_uris":{"android":"levelo://app?vid=002673c7-e49b-40c2-82da-6cf2f4393eb8","ios":"levelo://app?vid=002673c7-e49b-40c2-82da-6cf2f4393eb8"},"vehicle_type_id":"4","last_reported":1758744657,"current_range_meters":14800,"station_id":"ce4bgup2rcd13ifvqcn0","pricing_plan_id":"cebpf4jnsgd1na2vs0mg"},{"bike_id":"50c03ce7-6089-4ca2-9f23-f4c8c568a597","system_id":"levelo_inurba_marseille","lat":43.33767,"lon":5.37431,"is_reserved":false,"is_disabled":false,"rental_uris":{"android":"levelo://app?vid=50c03ce7-6089-4ca2-9f23-f4c8c568a597","ios":"levelo://app?vid=50c03ce7-6089-4ca2-9f23-f4c8c568a597"},"vehicle_type_id":"4","last_reported":1758744657,"current_range_meters":14800,"station_id":"","pricing_plan_id":"cebpf4jnsgd1na2vs0mg"},{"bike_id":"dd4388e4-dc74-41d1-a78b-9f88375a07d2","system_id":"levelo_inurba_marseille","lat":43.26698,"lon":5.38267,"is_reserved":false,"is_disabled":false,"rental_uris":{"android":"levelo://app?vid=dd4388e4-dc74-41d1-a78b-9f88375a07d2","ios":"levelo://app?vid=dd4388e4-dc74-41d1-a78b-9f88375a07d2"},"vehicle_type_id":"4","last_reported":1758744657,"current_range_meters":14800,"station_id":"ce4bhg92rcd13ifvqf90","pricing_plan_id":"cebpf4jnsgd1na2vs0mg"},{"bike_id":"7397700c-179e-4f75-aa70-09c8b716c146","system_id":"levelo_inurba_marseille","lat":43.28942,"lon":5.39658,"is_reserved":false,"is_disabled":false,"rental_uris":{"android":"levelo://app?vid=7397700c-179e-4f75-aa70-09c8b716c146","ios":"levelo://app?vid=7397700c-179e-4f75-aa70-09c8b716c146"},"vehicle_type_id":"4","last_reported":1758744657,"current_range_meters":14800,"station_id":"ce4bh3h2rcd13ifvqdn0","pricing_plan_id":"cebpf4jnsgd1na2vs0mg"},{"bike_id":"c7f6a08b-c655-4213-b2ba-7d02e7f382fe","system_id":"levelo_inurba_marseille","lat":43.27988,"lon":5.39483,"is_reserved":false,"is_disabled":false,"rental_uris":{"android":"levelo://app?vid=c7f6a08b-c655-4213-b2ba-7d02e7f382fe","ios":"levelo://app?vid=c7f6a08b-c655-4213-b2ba-7d02e7f382fe"},"vehicle_type_id":"4","last_reported":1758744657,"current_range_meters":14800,"station_id":"","pricing_plan_id":"cebpf4jnsgd1na2vs0mg"},{"bike_id":"c48b68a7-4bb0-4cce-80c1-342b1070ee71","system_id":"levelo_inurba_marseille","lat":43.29559,"lon":5.39956,"is_reserved":false,"is_disabled":false,"rental_uris":{"android":"levelo://app?vid=c48b68a7-4bb0-4cce-80c1-342b1070ee71","ios":"levelo://app?vid=c48b68a7-4bb0-4cce-80c1-342b1070ee71"},"vehicle_type_id":"4","last_reported":1758744657,"current_range_meters":14800,"station_id":"ce4bh312rcd13ifvqdj0","pricing_plan_id":"cebpf4jnsgd1na2vs0mg"},{"bike_id":"2edaff00-298a-43bb-9b1b-fbee07f158c1","system_id":"levelo_inurba_marseille","lat":43.32107,"lon":5.36772,"is_reserved":false,"is_disabled":false,"rental_uris":{"android":"levelo://app?vid=2edaff00-298a-43bb-9b1b-fbee07f158c1","ios":"levelo://app?vid=2edaff00-298a-43bb-9b1b-fbee07f158c1"},"vehicle_type_id":"4","last_reported":1758744657,"current_range_meters":14800,"station_id":"ce4bhrh2rcd13ifvqhug","pricing_plan_id":"cebpf4jnsgd1na2vs0mg"},{"bike_id":"486abade-dd76-4cb8-828f-1a286c8b56d7","system_id":"levelo_inurba_marseille","lat":43.295772,"lon":5.367429,"is_reserved":false,"is_disabled":false,"rental_uris":{"android":"levelo://app?vid=486abade-dd76-4cb8-828f-1a286c8b56d7","ios":"levelo://app?vid=486abade-dd76-4cb8-828f-1a286c8b56d7"},"vehicle_type_id":"4","last_reported":1758744657,"current_range_meters":15200,"station_id":"","pricing_plan_id":"cebpf4jnsgd1na2vs0mg"},{"bike_id":"023ee22e-363d-4688-800c-ab4b215e4623","system_id":"levelo_inurba_marseille","lat":43.27671,"lon":5.38938,"is_reserved":false,"is_disabled":true,"rental_uris":{"android":"levelo://app?vid=023ee22e-363d-4688-800c-ab4b215e4623","ios":"levelo://app?vid=023ee22e-363d-4688-800c-ab4b215e4623"},"vehicle_type_id":"4","last_reported":1758744657,"current_range_meters":15200,"station_id":"ce4bhi12rcd13ifvqfo0","pricing_plan_id":"cebpf4jnsgd1na2vs0mg"},{"bike_id":"b6842a0b-8ac8-4de8-9374-356f1dbbba44","system_id":"levelo_inurba_marseille","lat":43.29173,"lon":5.39314,"is_reserved":false,"is_disabled":false,"rental_uris":{"android":"levelo://app?vid=b6842a0b-8ac8-4de8-9374-356f1dbbba44","ios":"levelo://app?vid=b6842a0b-8ac8-4de8-9374-356f1dbbba44"},"vehicle_type_id":"4","last_reported":1758744657,"current_range_meters":15200,"station_id":"ce4bh192rcd13ifvqdd0","pricing_plan_id":"cebpf4jnsgd1na2vs0mg"},{"bike_id":"0e9ca394-4351-4bf8-a641-f4e5215baf20","system_id":"levelo_inurba_marseille","lat":43.28281,"lon":5.35077,"is_reserved":false,"is_disabled":false,"rental_uris":{"android":"levelo://app?vid=0e9ca394-4351-4bf8-a641-f4e5215baf20","ios":"levelo://app?vid=0e9ca394-4351-4bf8-a641-f4e5215baf20"},"vehicle_type_id":"4","last_reported":1758744657,"current_range_meters":15200,"station_id":"ce4bhbp2rcd13ifvqerg","pricing_plan_id":"cebpf4jnsgd1na2vs0mg"},{"bike_id":"129c8450-4cca-4e9f-b9f6-538b0080ad49","system_id":"levelo_inurba_marseille","lat":43.32543,"lon":5.38907,"is_reserved":false,"is_disabled":false,"rental_uris":{"android":"levelo://app?vid=129c8450-4cca-4e9f-b9f6-538b0080ad49","ios":"levelo://app?vid=129c8450-4cca-4e9f-b9f6-538b0080ad49"},"vehicle_type_id":"4","last_reported":1758744657,"current_range_meters":15200,"station_id":"","pricing_plan_id":"cebpf4jnsgd1na2vs0mg"},{"bike_id":"072df216-54bf-4c27-b5ba-ef1384733e8b","system_id":"levelo_inurba_marseille","lat":43.25839,"lon":5.39443,"is_reserved":false,"is_disabled":false,"rental_uris":{"android":"levelo://app?vid=072df216-54bf-4c27-b5ba-ef1384733e8b","ios":"levelo://app?vid=072df216-54bf-4c27-b5ba-ef1384733e8b"},"vehicle_type_id":"4","last_reported":1758744657,"current_range_meters":16000,"station_id":"ce4bhip2rcd13ifvqft0","pricing_plan_id":"cebpf4jnsgd1na2vs0mg"},{"bike_id":"53005a33-c6fe-4901-8299-f2ed9710d945","system_id":"levelo_inurba_marseille","lat":43.28929,"lon":5.38389,"is_reserved":false,"is_disabled":false,"rental_uris":{"android":"levelo://app?vid=53005a33-c6fe-4901-8299-f2ed9710d945","ios":"levelo://app?vid=53005a33-c6fe-4901-8299-f2ed9710d945"},"vehicle_type_id":"4","last_reported":1758744657,"current_range_meters":16000,"station_id":"ce4bh612rcd13ifvqe6g","pricing_plan_id":"cebpf4jnsgd1na2vs0mg"},{"bike_id":"0334c664-c853-4f38-a46f-30751b2874a4","system_id":"levelo_inurba_marseille","lat":43.290329,"lon":5.359181,"is_reserved":false,"is_disabled":true,"rental_uris":{"android":"levelo://app?vid=0334c664-c853-4f38-a46f-30751b2874a4","ios":"levelo://app?vid=0334c664-c853-4f38-a46f-30751b2874a4"},"vehicle_type_id":"4","last_reported":1758744657,"current_range_meters":16000,"station_id":"ce4bha92rcd13ifvqeg0","pricing_plan_id":"cebpf4jnsgd1na2vs0mg"},{"bike_id":"6ce97256-6e29-4ee4-b817-ac92bdd5aea1","system_id":"levelo_inurba_marseille","lat":43.22534,"lon":5.34835,"is_reserved":false,"is_disabled":false,"rental_uris":{"android":"levelo://app?vid=6ce97256-6e29-4ee4-b817-ac92bdd5aea1","ios":"levelo://app?vid=6ce97256-6e29-4ee4-b817-ac92bdd5aea1"},"vehicle_type_id":"4","last_reported":1758744657,"current_range_meters":16000,"station_id":"","pricing_plan_id":"cebpf4jnsgd1na2vs0mg"},{"bike_id":"f5c852b2-548c-4ba5-a23e-58341d1949a6","system_id":"levelo_inurba_marseille","lat":43.21758,"lon":5.34604,"is_reserved":false,"is_disabled":false,"rental_uris":{"android":"levelo://app?vid=f5c852b2-548c-4ba5-a23e-58341d1949a6","ios":"levelo://app?vid=f5c852b2-548c-4ba5-a23e-58341d1949a6"},"vehicle_type_id":"4","last_reported":1758744657,"current_range_meters":16000,"station_id":"st_cvj6r9ubvosntc0bgbag","pricing_plan_id":"cebpf4jnsgd1na2vs0mg"},{"bike_id":"f4e9d420-f70c-46eb-acdc-7c067334e200","system_id":"levelo_inurba_marseille","lat":43.29255,"lon":5.38438,"is_reserved":false,"is_disabled":false,"rental_uris":{"android":"levelo://app?vid=f4e9d420-f70c-46eb-acdc-7c067334e200","ios":"levelo://app?vid=f4e9d420-f70c-46eb-acdc-7c067334e200"},"vehicle_type_id":"4","last_reported":1758744657,"current_range_meters":16000,"station_id":"ce4bh692rcd13ifvqea0","pricing_plan_id":"cebpf4jnsgd1na2vs0mg"},{"bike_id":"ad9a6248-1b43-4fc5-bfba-44f7d3067aab","system_id":"levelo_inurba_marseille","lat":43.21197,"lon":5.35074,"is_reserved":false,"is_disabled":false,"rental_uris":{"android":"levelo://app?vid=ad9a6248-1b43-4fc5-bfba-44f7d3067aab","ios":"levelo://app?vid=ad9a6248-1b43-4fc5-bfba-44f7d3067aab"},"vehicle_type_id":"4","last_reported":1758744657,"current_range_meters":16000,"station_id":"st_cvj6sg6p6f1abm77japg","pricing_plan_id":"cebpf4jnsgd1na2vs0mg"},{"bike_id":"a6ad0c6c-868d-42f3-ba54-573e1a175a36","system_id":"levelo_inurba_marseille","lat":43.26262,"lon":5.41263,"is_reserved":false,"is_disabled":false,"rental_uris":{"android":"levelo://app?vid=a6ad0c6c-868d-42f3-ba54-573e1a175a36","ios":"levelo://app?vid=a6ad0c6c-868d-42f3-ba54-573e1a175a36"},"vehicle_type_id":"4","last_reported":1758744657,"current_range_meters":16000,"station_id":"","pricing_plan_id":"cebpf4jnsgd1na2vs0mg"},{"bike_id":"f0c5386a-9938-4d6a-81e8-14ec0c5e2580","system_id":"levelo_inurba_marseille","lat":43.32226,"lon":5.38558,"is_reserved":false,"is_disabled":false,"rental_uris":{"android":"levelo://app?vid=f0c5386a-9938-4d6a-81e8-14ec0c5e2580","ios":"levelo://app?vid=f0c5386a-9938-4d6a-81e8-14ec0c5e2580"},"vehicle_type_id":"4","last_reported":1758744657,"current_range_meters":16000,"station_id":"","pricing_plan_id":"cebpf4jnsgd1na2vs0mg"},{"bike_id":"7ab01b52-acb1-4c63-963d-8157eea5300e","system_id":"levelo_inurba_marseille","lat":43.30648,"lon":5.40071,"is_reserved":false,"is_disabled":false,"rental_uris":{"android":"levelo://app?vid=7ab01b52-acb1-4c63-963d-8157eea5300e","ios":"levelo://app?vid=7ab01b52-acb1-4c63-963d-8157eea5300e"},"vehicle_type_id":"4","last_reported":1758744657,"current_range_meters":16000,"station_id":"ce4bh112rcd13ifvqda0","pricing_plan_id":"cebpf4jnsgd1na2vs0mg"},{"bike_id":"9f3bb953-5d0a-4096-9454-9704d14b8b87","system_id":"levelo_inurba_marseille","lat":43.25854,"lon":5.383852,"is_reserved":false,"is_disabled":false,"rental_uris":{"android":"levelo://app?vid=9f3bb953-5d0a-4096-9454-9704d14b8b87","ios":"levelo://app?vid=9f3bb953-5d0a-4096-9454-9704d14b8b87"},"vehicle_type_id":"4","last_reported":1758744657,"current_range_meters":16000,"station_id":"ce4bhih2rcd13ifvqfs0","pricing_plan_id":"cebpf4jnsgd1na2vs0mg"},{"bike_id":"d8d6f31a-c510-424a-9731-839758fd1c1d","system_id":"levelo_inurba_marseille","lat":43.24646,"lon":5.38919,"is_reserved":false,"is_disabled":false,"rental_uris":{"android":"levelo://app?vid=d8d6f31a-c510-424a-9731-839758fd1c1d","ios":"levelo://app?vid=d8d6f31a-c510-424a-9731-839758fd1c1d"},"vehicle_type_id":"4","last_reported":1758744657,"current_range_meters":16400,"station_id":"ce4bhg12rcd13ifvqf60","pricing_plan_id":"cebpf4jnsgd1na2vs0mg"},{"bike_id":"003515e8-8117-44bb-979d-5f47e8d50fda","system_id":"levelo_inurba_marseille","lat":43.30615,"lon":5.37576,"is_reserved":false,"is_disabled":false,"rental_uris":{"android":"levelo://app?vid=003515e8-8117-44bb-979d-5f47e8d50fda","ios":"levelo://app?vid=003515e8-8117-44bb-979d-5f47e8d50fda"},"vehicle_type_id":"4","last_reported":1758744657,"current_range_meters":16400,"station_id":"","pricing_plan_id":"cebpf4jnsgd1na2vs0mg"},{"bike_id":"2bd2a176-8590-4e06-8b8c-a96b49b7b36a","system_id":"levelo_inurba_marseille","lat":43.262237,"lon":5.404538,"is_reserved":false,"is_disabled":false,"rental_uris":{"android":"levelo://app?vid=2bd2a176-8590-4e06-8b8c-a96b49b7b36a","ios":"levelo://app?vid=2bd2a176-8590-4e06-8b8c-a96b49b7b36a"},"vehicle_type_id":"4","last_reported":1758744657,"current_range_meters":16400,"station_id":"","pricing_plan_id":"cebpf4jnsgd1na2vs0mg"},{"bike_id":"02494f43-44d2-412a-99ed-6e9d0efd245a","system_id":"levelo_inurba_marseille","lat":43.29023,"lon":5.38125,"is_reserved":false,"is_disabled":false,"rental_uris":{"android":"levelo://app?vid=02494f43-44d2-412a-99ed-6e9d0efd245a","ios":"levelo://app?vid=02494f43-44d2-412a-99ed-6e9d0efd245a"},"vehicle_type_id":"4","last_reported":1758744657,"current_range_meters":16400,"station_id":"ce4bh4p2rcd13ifvqe1g","pricing_plan_id":"cebpf4jnsgd1na2vs0mg"},{"bike_id":"d2be082e-bd73-4203-addb-18871b3a9587","system_id":"levelo_inurba_marseille","lat":43.29431,"lon":5.37471,"is_reserved":false,"is_disabled":false,"rental_uris":{"android":"levelo://app?vid=d2be082e-bd73-4203-addb-18871b3a9587","ios":"levelo://app?vid=d2be082e-bd73-4203-addb-18871b3a9587"},"vehicle_type_id":"4","last_reported":1758744657,"current_range_meters":16400,"station_id":"","pricing_plan_id":"cebpf4jnsgd1na2vs0mg"},{"bike_id":"6caa89c6-2658-4ac8-8d83-c6001f5f980c","system_id":"levelo_inurba_marseille","lat":43.255781,"lon":5.382373,"is_reserved":false,"is_disabled":false,"rental_uris":{"android":"levelo://app?vid=6caa89c6-2658-4ac8-8d83-c6001f5f980c","ios":"levelo://app?vid=6caa89c6-2658-4ac8-8d83-c6001f5f980c"},"vehicle_type_id":"4","last_reported":1758744657,"current_range_meters":16400,"station_id":"ce4bhih2rcd13ifvqfs0","pricing_plan_id":"cebpf4jnsgd1na2vs0mg"},{"bike_id":"8f68b7ad-c96a-48a8-9f6e-33e7e1084763","system_id":"levelo_inurba_marseille","lat":43.26024,"lon":5.41751,"is_reserved":false,"is_disabled":false,"rental_uris":{"android":"levelo://app?vid=8f68b7ad-c96a-48a8-9f6e-33e7e1084763","ios":"levelo://app?vid=8f68b7ad-c96a-48a8-9f6e-33e7e1084763"},"vehicle_type_id":"4","last_reported":1758744657,"current_range_meters":16400,"station_id":"","pricing_plan_id":"cebpf4jnsgd1na2vs0mg"},{"bike_id":"f4f0917e-2d0e-4a9d-ba56-c08b5acf7ce8","system_id":"levelo_inurba_marseille","lat":43.29191,"lon":5.39316,"is_reserved":false,"is_disabled":false,"rental_uris":{"android":"levelo://app?vid=f4f0917e-2d0e-4a9d-ba56-c08b5acf7ce8","ios":"levelo://app?vid=f4f0917e-2d0e-4a9d-ba56-c08b5acf7ce8"},"vehicle_type_id":"4","last_reported":1758744657,"current_range_meters":16400,"station_id":"ce4bh192rcd13ifvqdd0","pricing_plan_id":"cebpf4jnsgd1na2vs0mg"},{"bike_id":"a3383983-1a81-4f66-8f19-2363b98e3729","system_id":"levelo_inurba_marseille","lat":43.26557,"lon":5.39054,"is_reserved":false,"is_disabled":true,"rental_uris":{"android":"levelo://app?vid=a3383983-1a81-4f66-8f19-2363b98e3729","ios":"levelo://app?vid=a3383983-1a81-4f66-8f19-2363b98e3729"},"vehicle_type_id":"4","last_reported":1758744657,"current_range_meters":16400,"station_id":"ce4bhe12rcd13ifvqf30","pricing_plan_id":"cebpf4jnsgd1na2vs0mg"},{"bike_id":"dbf51525-a70f-4e14-8ef3-657e20887d0d","system_id":"levelo_inurba_marseille","lat":43.3136,"lon":5.38511,"is_reserved":false,"is_disabled":false,"rental_uris":{"android":"levelo://app?vid=dbf51525-a70f-4e14-8ef3-657e20887d0d","ios":"levelo://app?vid=dbf51525-a70f-4e14-8ef3-657e20887d0d"},"vehicle_type_id":"4","last_reported":1758744657,"current_range_meters":16800,"station_id":"ce4bgt92rcd13ifvqcf0","pricing_plan_id":"cebpf4jnsgd1na2vs0mg"},{"bike_id":"4c7b9e30-7e90-4789-b086-4bc55eddc677","system_id":"levelo_inurba_marseille","lat":43.29376,"lon":5.37835,"is_reserved":false,"is_disabled":false,"rental_uris":{"android":"levelo://app?vid=4c7b9e30-7e90-4789-b086-4bc55eddc677","ios":"levelo://app?vid=4c7b9e30-7e90-4789-b086-4bc55eddc677"},"vehicle_type_id":"4","last_reported":1758744657,"current_range_meters":16800,"station_id":"ce4bgjh2rcd13ifvqbf0","pricing_plan_id":"cebpf4jnsgd1na2vs0mg"},{"bike_id":"429b97eb-f7cc-4d35-b219-e8e26e3f47e0","system_id":"levelo_inurba_marseille","lat":43.27372,"lon":5.36254,"is_reserved":false,"is_disabled":false,"rental_uris":{"android":"levelo://app?vid=429b97eb-f7cc-4d35-b219-e8e26e3f47e0","ios":"levelo://app?vid=429b97eb-f7cc-4d35-b219-e8e26e3f47e0"},"vehicle_type_id":"4","last_reported":1758744657,"current_range_meters":16800,"station_id":"ce4bhbh2rcd13ifvqeo0","pricing_plan_id":"cebpf4jnsgd1na2vs0mg"},{"bike_id":"7490d0f9-a3b1-4e32-8e4b-05d367f07d8a","system_id":"levelo_inurba_marseille","lat":43.30116,"lon":5.39885,"is_reserved":false,"is_disabled":true,"rental_uris":{"android":"levelo://app?vid=7490d0f9-a3b1-4e32-8e4b-05d367f07d8a","ios":"levelo://app?vid=7490d0f9-a3b1-4e32-8e4b-05d367f07d8a"},"vehicle_type_id":"4","last_reported":1758744657,"current_range_meters":16800,"station_id":"ce4bh0h2rcd13ifvqd40","pricing_plan_id":"cebpf4jnsgd1na2vs0mg"},{"bike_id":"7f26efef-5bca-4964-9649-a135cb9baf4f","system_id":"levelo_inurba_marseille","lat":43.25089,"lon":5.3952,"is_reserved":false,"is_disabled":false,"rental_uris":{"android":"levelo://app?vid=7f26efef-5bca-4964-9649-a135cb9baf4f","ios":"levelo://app?vid=7f26efef-5bca-4964-9649-a135cb9baf4f"},"vehicle_type_id":"4","last_reported":1758744657,"current_range_meters":16800,"station_id":"ce4bhm12rcd13ifvqgkg","pricing_plan_id":"cebpf4jnsgd1na2vs0mg"},{"bike_id":"d6d2b751-767f-4d34-8b88-ebc97e2bbad2","system_id":"levelo_inurba_marseille","lat":43.288559,"lon":5.358455,"is_reserved":false,"is_disabled":false,"rental_uris":{"android":"levelo://app?vid=d6d2b751-767f-4d34-8b88-ebc97e2bbad2","ios":"levelo://app?vid=d6d2b751-767f-4d34-8b88-ebc97e2bbad2"},"vehicle_type_id":"4","last_reported":1758744657,"current_range_meters":16800,"station_id":"ce4bhb12rcd13ifvqem0","pricing_plan_id":"cebpf4jnsgd1na2vs0mg"},{"bike_id":"29237101-5788-433a-a817-fd7db1732b5b","system_id":"levelo_inurba_marseille","lat":43.28417,"lon":5.37527,"is_reserved":false,"is_disabled":false,"rental_uris":{"android":"levelo://app?vid=29237101-5788-433a-a817-fd7db1732b5b","ios":"levelo://app?vid=29237101-5788-433a-a817-fd7db1732b5b"},"vehicle_type_id":"4","last_reported":1758744657,"current_range_meters":16800,"station_id":"ce4bh412rcd13ifvqds0","pricing_plan_id":"cebpf4jnsgd1na2vs0mg"},{"bike_id":"63b3daeb-cf1c-4aa8-97b1-d5b690f0ac49","system_id":"levelo_inurba_marseille","lat":43.28114,"lon":5.43216,"is_reserved":false,"is_disabled":false,"rental_uris":{"android":"levelo://app?vid=63b3daeb-cf1c-4aa8-97b1-d5b690f0ac49","ios":"levelo://app?vid=63b3daeb-cf1c-4aa8-97b1-d5b690f0ac49"},"vehicle_type_id":"4","last_reported":1758744657,"current_range_meters":16800,"station_id":"","pricing_plan_id":"cebpf4jnsgd1na2vs0mg"},{"bike_id":"46923300-e0d3-40c1-8c76-7dadc761100f","system_id":"levelo_inurba_marseille","lat":43.28968,"lon":5.355878,"is_reserved":false,"is_disabled":false,"rental_uris":{"android":"levelo://app?vid=46923300-e0d3-40c1-8c76-7dadc761100f","ios":"levelo://app?vid=46923300-e0d3-40c1-8c76-7dadc761100f"},"vehicle_type_id":"4","last_reported":1758744657,"current_range_meters":16800,"station_id":"ce4bhb92rcd13ifvqen0","pricing_plan_id":"cebpf4jnsgd1na2vs0mg"},{"bike_id":"d3207f81-01a1-429a-832a-552720f64cb8","system_id":"levelo_inurba_marseille","lat":43.25109,"lon":5.40321,"is_reserved":false,"is_disabled":false,"rental_uris":{"android":"levelo://app?vid=d3207f81-01a1-429a-832a-552720f64cb8","ios":"levelo://app?vid=d3207f81-01a1-429a-832a-552720f64cb8"},"vehicle_type_id":"4","last_reported":1758744657,"current_range_meters":16800,"station_id":"ce4bhlh2rcd13ifvqgig","pricing_plan_id":"cebpf4jnsgd1na2vs0mg"},{"bike_id":"212de2eb-8bbc-413c-b204-9fe1facd76e8","system_id":"levelo_inurba_marseille","lat":43.31289,"lon":5.37835,"is_reserved":false,"is_disabled":false,"rental_uris":{"android":"levelo://app?vid=212de2eb-8bbc-413c-b204-9fe1facd76e8","ios":"levelo://app?vid=212de2eb-8bbc-413c-b204-9fe1facd76e8"},"vehicle_type_id":"4","last_reported":1758744657,"current_range_meters":16800,"station_id":"","pricing_plan_id":"cebpf4jnsgd1na2vs0mg"},{"bike_id":"d492fa29-4072-4929-8af9-ffc5ae600ec3","system_id":"levelo_inurba_marseille","lat":43.27058,"lon":5.40259,"is_reserved":false,"is_disabled":false,"rental_uris":{"android":"levelo://app?vid=d492fa29-4072-4929-8af9-ffc5ae600ec3","ios":"levelo://app?vid=d492fa29-4072-4929-8af9-ffc5ae600ec3"},"vehicle_type_id":"4","last_reported":1758744657,"current_range_meters":17200,"station_id":"ce4bhk92rcd13ifvqgc0","pricing_plan_id":"cebpf4jnsgd1na2vs0mg"},{"bike_id":"2ac23a64-1b3f-47a9-9b15-e124400b880c","system_id":"levelo_inurba_marseille","lat":43.29212,"lon":5.39151,"is_reserved":false,"is_disabled":false,"rental_uris":{"android":"levelo://app?vid=2ac23a64-1b3f-47a9-9b15-e124400b880c","ios":"levelo://app?vid=2ac23a64-1b3f-47a9-9b15-e124400b880c"},"vehicle_type_id":"4","last_reported":1758744657,"current_range_meters":17200,"station_id":"","pricing_plan_id":"cebpf4jnsgd1na2vs0mg"},{"bike_id":"4f3eac28-3960-42b2-9a7f-65e76c3daab8","system_id":"levelo_inurba_marseille","lat":43.2465,"lon":5.38912,"is_reserved":false,"is_disabled":false,"rental_uris":{"android":"levelo://app?vid=4f3eac28-3960-42b2-9a7f-65e76c3daab8","ios":"levelo://app?vid=4f3eac28-3960-42b2-9a7f-65e76c3daab8"},"vehicle_type_id":"4","last_reported":1758744657,"current_range_meters":17200,"station_id":"ce4bhg12rcd13ifvqf60","pricing_plan_id":"cebpf4jnsgd1na2vs0mg"},{"bike_id":"28b9b766-0635-4bbd-ad7a-126f6a3a62a5","system_id":"levelo_inurba_marseille","lat":43.26806,"lon":5.40274,"is_reserved":false,"is_disabled":false,"rental_uris":{"android":"levelo://app?vid=28b9b766-0635-4bbd-ad7a-126f6a3a62a5","ios":"levelo://app?vid=28b9b766-0635-4bbd-ad7a-126f6a3a62a5"},"vehicle_type_id":"4","last_reported":1758744657,"current_range_meters":17200,"station_id":"ce501612rcd8frsf0b60","pricing_plan_id":"cebpf4jnsgd1na2vs0mg"},{"bike_id":"2bb20c41-13af-4622-9be7-dea81a71c435","system_id":"levelo_inurba_marseille","lat":43.28947,"lon":5.38393,"is_reserved":false,"is_disabled":false,"rental_uris":{"android":"levelo://app?vid=2bb20c41-13af-4622-9be7-dea81a71c435","ios":"levelo://app?vid=2bb20c41-13af-4622-9be7-dea81a71c435"},"vehicle_type_id":"4","last_reported":1758744657,"current_range_meters":17200,"station_id":"ce4bh612rcd13ifvqe6g","pricing_plan_id":"cebpf4jnsgd1na2vs0mg"},{"bike_id":"18dab0ca-63bd-48d1-80b0-425311c02994","system_id":"levelo_inurba_marseille","lat":43.29371,"lon":5.37856,"is_reserved":false,"is_disabled":false,"rental_uris":{"android":"levelo://app?vid=18dab0ca-63bd-48d1-80b0-425311c02994","ios":"levelo://app?vid=18dab0ca-63bd-48d1-80b0-425311c02994"},"vehicle_type_id":"4","last_reported":1758744657,"current_range_meters":16400,"station_id":"ce4bgjh2rcd13ifvqbf0","pricing_plan_id":"cebpf4jnsgd1na2vs0mg"},{"bike_id":"103e10e1-cdd3-4156-bd46-638f81477b45","system_id":"levelo_inurba_marseille","lat":43.25822,"lon":5.39444,"is_reserved":false,"is_disabled":false,"rental_uris":{"android":"levelo://app?vid=103e10e1-cdd3-4156-bd46-638f81477b45","ios":"levelo://app?vid=103e10e1-cdd3-4156-bd46-638f81477b45"},"vehicle_type_id":"4","last_reported":1758744657,"current_range_meters":17200,"station_id":"ce4bhip2rcd13ifvqft0","pricing_plan_id":"cebpf4jnsgd1na2vs0mg"},{"bike_id":"09246469-7d4f-4c3b-834b-82484362627a","system_id":"levelo_inurba_marseille","lat":43.31326,"lon":5.39696,"is_reserved":false,"is_disabled":false,"rental_uris":{"android":"levelo://app?vid=09246469-7d4f-4c3b-834b-82484362627a","ios":"levelo://app?vid=09246469-7d4f-4c3b-834b-82484362627a"},"vehicle_type_id":"4","last_reported":1758744657,"current_range_meters":17200,"station_id":"ce4bgvp2rcd13ifvqcu0","pricing_plan_id":"cebpf4jnsgd1na2vs0mg"},{"bike_id":"5b4db061-9d56-47f7-91cb-6fac30c33de1","system_id":"levelo_inurba_marseille","lat":43.31306,"lon":5.39735,"is_reserved":false,"is_disabled":false,"rental_uris":{"android":"levelo://app?vid=5b4db061-9d56-47f7-91cb-6fac30c33de1","ios":"levelo://app?vid=5b4db061-9d56-47f7-91cb-6fac30c33de1"},"vehicle_type_id":"4","last_reported":1758744657,"current_range_meters":17200,"station_id":"ce4bgvp2rcd13ifvqcu0","pricing_plan_id":"cebpf4jnsgd1na2vs0mg"},{"bike_id":"403f770a-7e8f-4315-8646-8d8d91c68a75","system_id":"levelo_inurba_marseille","lat":43.30597,"lon":5.39338,"is_reserved":false,"is_disabled":false,"rental_uris":{"android":"levelo://app?vid=403f770a-7e8f-4315-8646-8d8d91c68a75","ios":"levelo://app?vid=403f770a-7e8f-4315-8646-8d8d91c68a75"},"vehicle_type_id":"4","last_reported":1758744657,"current_range_meters":17200,"station_id":"ce4bh0p2rcd13ifvqd80","pricing_plan_id":"cebpf4jnsgd1na2vs0mg"},{"bike_id":"b07a8b64-7730-4378-ae1a-d1d35ceda192","system_id":"levelo_inurba_marseille","lat":43.28702,"lon":5.39985,"is_reserved":false,"is_disabled":false,"rental_uris":{"android":"levelo://app?vid=b07a8b64-7730-4378-ae1a-d1d35ceda192","ios":"levelo://app?vid=b07a8b64-7730-4378-ae1a-d1d35ceda192"},"vehicle_type_id":"4","last_reported":1758744657,"current_range_meters":17200,"station_id":"ce4bho92rcd13ifvqh3g","pricing_plan_id":"cebpf4jnsgd1na2vs0mg"},{"bike_id":"3cff57a9-0297-4c38-90c2-c8e480a601b4","system_id":"levelo_inurba_marseille","lat":43.30931,"lon":5.40144,"is_reserved":false,"is_disabled":false,"rental_uris":{"android":"levelo://app?vid=3cff57a9-0297-4c38-90c2-c8e480a601b4","ios":"levelo://app?vid=3cff57a9-0297-4c38-90c2-c8e480a601b4"},"vehicle_type_id":"4","last_reported":1758744657,"current_range_meters":17200,"station_id":"ce4bgvp2rcd13ifvqct0","pricing_plan_id":"cebpf4jnsgd1na2vs0mg"},{"bike_id":"327c041e-5c9e-4b0d-a97c-a2dbaab036ae","system_id":"levelo_inurba_marseille","lat":43.3282,"lon":5.41135,"is_reserved":false,"is_disabled":false,"rental_uris":{"android":"levelo://app?vid=327c041e-5c9e-4b0d-a97c-a2dbaab036ae","ios":"levelo://app?vid=327c041e-5c9e-4b0d-a97c-a2dbaab036ae"},"vehicle_type_id":"4","last_reported":1758744657,"current_range_meters":17600,"station_id":"","pricing_plan_id":"cebpf4jnsgd1na2vs0mg"},{"bike_id":"50e50ce9-ae57-4870-80a4-dbb918849641","system_id":"levelo_inurba_marseille","lat":43.28029,"lon":5.36939,"is_reserved":false,"is_disabled":false,"rental_uris":{"android":"levelo://app?vid=50e50ce9-ae57-4870-80a4-dbb918849641","ios":"levelo://app?vid=50e50ce9-ae57-4870-80a4-dbb918849641"},"vehicle_type_id":"4","last_reported":1758744657,"current_range_meters":17600,"station_id":"ce4bha12rcd13ifvqef0","pricing_plan_id":"cebpf4jnsgd1na2vs0mg"},{"bike_id":"6aaeaed1-0974-4810-9f04-56b23f8fd865","system_id":"levelo_inurba_marseille","lat":43.3127,"lon":5.40168,"is_reserved":false,"is_disabled":false,"rental_uris":{"android":"levelo://app?vid=6aaeaed1-0974-4810-9f04-56b23f8fd865","ios":"levelo://app?vid=6aaeaed1-0974-4810-9f04-56b23f8fd865"},"vehicle_type_id":"4","last_reported":1758744657,"current_range_meters":17600,"station_id":"ce4bh092rcd13ifvqd30","pricing_plan_id":"cebpf4jnsgd1na2vs0mg"},{"bike_id":"725b1ff1-3894-44f1-a38e-91bc39cbab7e","system_id":"levelo_inurba_marseille","lat":43.24629,"lon":5.43154,"is_reserved":false,"is_disabled":false,"rental_uris":{"android":"levelo://app?vid=725b1ff1-3894-44f1-a38e-91bc39cbab7e","ios":"levelo://app?vid=725b1ff1-3894-44f1-a38e-91bc39cbab7e"},"vehicle_type_id":"4","last_reported":1758744657,"current_range_meters":17600,"station_id":"st_d2m6c4gdas8pm72e190g","pricing_plan_id":"cebpf4jnsgd1na2vs0mg"},{"bike_id":"c65b7e44-d645-4483-a796-483c71850089","system_id":"levelo_inurba_marseille","lat":43.29178,"lon":5.39318,"is_reserved":false,"is_disabled":false,"rental_uris":{"android":"levelo://app?vid=c65b7e44-d645-4483-a796-483c71850089","ios":"levelo://app?vid=c65b7e44-d645-4483-a796-483c71850089"},"vehicle_type_id":"4","last_reported":1758744657,"current_range_meters":17600,"station_id":"ce4bh192rcd13ifvqdd0","pricing_plan_id":"cebpf4jnsgd1na2vs0mg"},{"bike_id":"cb2aa886-f837-4cb3-93f0-d22afb1aa5a2","system_id":"levelo_inurba_marseille","lat":43.32662,"lon":5.40995,"is_reserved":false,"is_disabled":false,"rental_uris":{"android":"levelo://app?vid=cb2aa886-f837-4cb3-93f0-d22afb1aa5a2","ios":"levelo://app?vid=cb2aa886-f837-4cb3-93f0-d22afb1aa5a2"},"vehicle_type_id":"4","last_reported":1758744657,"current_range_meters":17200,"station_id":"ce4bhpp2rcd13ifvqhgg","pricing_plan_id":"cebpf4jnsgd1na2vs0mg"},{"bike_id":"0c16ac8a-a536-4d89-a0b4-2803631fd83e","system_id":"levelo_inurba_marseille","lat":43.24988,"lon":5.38935,"is_reserved":false,"is_disabled":false,"rental_uris":{"android":"levelo://app?vid=0c16ac8a-a536-4d89-a0b4-2803631fd83e","ios":"levelo://app?vid=0c16ac8a-a536-4d89-a0b4-2803631fd83e"},"vehicle_type_id":"4","last_reported":1758744657,"current_range_meters":17600,"station_id":"ce4bhgp2rcd13ifvqfd0","pricing_plan_id":"cebpf4jnsgd1na2vs0mg"},{"bike_id":"7291f26c-4df3-4b94-863a-36ab55dd7149","system_id":"levelo_inurba_marseille","lat":43.29962,"lon":5.37566,"is_reserved":false,"is_disabled":false,"rental_uris":{"android":"levelo://app?vid=7291f26c-4df3-4b94-863a-36ab55dd7149","ios":"levelo://app?vid=7291f26c-4df3-4b94-863a-36ab55dd7149"},"vehicle_type_id":"4","last_reported":1758744657,"current_range_meters":17600,"station_id":"","pricing_plan_id":"cebpf4jnsgd1na2vs0mg"},{"bike_id":"26a85a7a-988b-423a-8e31-39030895c32a","system_id":"levelo_inurba_marseille","lat":43.28258,"lon":5.35078,"is_reserved":false,"is_disabled":false,"rental_uris":{"android":"levelo://app?vid=26a85a7a-988b-423a-8e31-39030895c32a","ios":"levelo://app?vid=26a85a7a-988b-423a-8e31-39030895c32a"},"vehicle_type_id":"4","last_reported":1758744657,"current_range_meters":17600,"station_id":"ce4bhbp2rcd13ifvqerg","pricing_plan_id":"cebpf4jnsgd1na2vs0mg"},{"bike_id":"d31d856a-933d-49cf-948f-ce03657dfc74","system_id":"levelo_inurba_marseille","lat":43.284179,"lon":5.349855,"is_reserved":false,"is_disabled":false,"rental_uris":{"android":"levelo://app?vid=d31d856a-933d-49cf-948f-ce03657dfc74","ios":"levelo://app?vid=d31d856a-933d-49cf-948f-ce03657dfc74"},"vehicle_type_id":"4","last_reported":1758744657,"current_range_meters":17600,"station_id":"ce4bhbh2rcd13ifvqepg","pricing_plan_id":"cebpf4jnsgd1na2vs0mg"},{"bike_id":"a1f431c1-b808-4c7f-9f3f-8320fc45f923","system_id":"levelo_inurba_marseille","lat":43.29441,"lon":5.39751,"is_reserved":false,"is_disabled":false,"rental_uris":{"android":"levelo://app?vid=a1f431c1-b808-4c7f-9f3f-8320fc45f923","ios":"levelo://app?vid=a1f431c1-b808-4c7f-9f3f-8320fc45f923"},"vehicle_type_id":"4","last_reported":1758744657,"current_range_meters":17600,"station_id":"ce4bh3h2rcd13ifvqdo0","pricing_plan_id":"cebpf4jnsgd1na2vs0mg"},{"bike_id":"fd4b0929-5dae-4f92-bfeb-801c6778a0f5","system_id":"levelo_inurba_marseille","lat":43.26549,"lon":5.37295,"is_reserved":false,"is_disabled":true,"rental_uris":{"android":"levelo://app?vid=fd4b0929-5dae-4f92-bfeb-801c6778a0f5","ios":"levelo://app?vid=fd4b0929-5dae-4f92-bfeb-801c6778a0f5"},"vehicle_type_id":"4","last_reported":1758744657,"current_range_meters":17600,"station_id":"ce4bhg12rcd13ifvqf70","pricing_plan_id":"cebpf4jnsgd1na2vs0mg"},{"bike_id":"e5303607-da03-4ac7-b81e-b332ede84cf7","system_id":"levelo_inurba_marseille","lat":43.31311,"lon":5.37823,"is_reserved":false,"is_disabled":false,"rental_uris":{"android":"levelo://app?vid=e5303607-da03-4ac7-b81e-b332ede84cf7","ios":"levelo://app?vid=e5303607-da03-4ac7-b81e-b332ede84cf7"},"vehicle_type_id":"4","last_reported":1758744657,"current_range_meters":17600,"station_id":"","pricing_plan_id":"cebpf4jnsgd1na2vs0mg"},{"bike_id":"1ec3f682-f068-4472-8329-000c712f0903","system_id":"levelo_inurba_marseille","lat":43.31087,"lon":5.4242,"is_reserved":false,"is_disabled":false,"rental_uris":{"android":"levelo://app?vid=1ec3f682-f068-4472-8329-000c712f0903","ios":"levelo://app?vid=1ec3f682-f068-4472-8329-000c712f0903"},"vehicle_type_id":"4","last_reported":1758744657,"current_range_meters":17600,"station_id":"","pricing_plan_id":"cebpf4jnsgd1na2vs0mg"},{"bike_id":"e34ec8e9-5f50-4028-8dbc-90dbed600fed","system_id":"levelo_inurba_marseille","lat":43.29093,"lon":5.38153,"is_reserved":false,"is_disabled":false,"rental_uris":{"android":"levelo://app?vid=e34ec8e9-5f50-4028-8dbc-90dbed600fed","ios":"levelo://app?vid=e34ec8e9-5f50-4028-8dbc-90dbed600fed"},"vehicle_type_id":"4","last_reported":1758744657,"current_range_meters":17600,"station_id":"ce4bh512rcd13ifvqe2g","pricing_plan_id":"cebpf4jnsgd1na2vs0mg"},{"bike_id":"ac4b2135-ac2b-485e-810c-8c848dfa977c","system_id":"levelo_inurba_marseille","lat":43.284789,"lon":5.384094,"is_reserved":false,"is_disabled":false,"rental_uris":{"android":"levelo://app?vid=ac4b2135-ac2b-485e-810c-8c848dfa977c","ios":"levelo://app?vid=ac4b2135-ac2b-485e-810c-8c848dfa977c"},"vehicle_type_id":"4","last_reported":1758744657,"current_range_meters":18000,"station_id":"ce4bh512rcd13ifvqe3g","pricing_plan_id":"cebpf4jnsgd1na2vs0mg"},{"bike_id":"9f46ca3b-1d53-4726-a49e-a04de25af404","system_id":"levelo_inurba_marseille","lat":43.32367,"lon":5.38905,"is_reserved":false,"is_disabled":false,"rental_uris":{"android":"levelo://app?vid=9f46ca3b-1d53-4726-a49e-a04de25af404","ios":"levelo://app?vid=9f46ca3b-1d53-4726-a49e-a04de25af404"},"vehicle_type_id":"4","last_reported":1758744657,"current_range_meters":18000,"station_id":"ce4bhqp2rcd13ifvqhog","pricing_plan_id":"cebpf4jnsgd1na2vs0mg"},{"bike_id":"d55f7cff-ce18-4107-992e-8cb8fb12b05f","system_id":"levelo_inurba_marseille","lat":43.231977,"lon":5.355628,"is_reserved":false,"is_disabled":false,"rental_uris":{"android":"levelo://app?vid=d55f7cff-ce18-4107-992e-8cb8fb12b05f","ios":"levelo://app?vid=d55f7cff-ce18-4107-992e-8cb8fb12b05f"},"vehicle_type_id":"4","last_reported":1758744657,"current_range_meters":18000,"station_id":"ce4bhu92rcd13ifvqi70","pricing_plan_id":"cebpf4jnsgd1na2vs0mg"},{"bike_id":"f897d300-643c-4c7a-951b-f56d70ef23ca","system_id":"levelo_inurba_marseille","lat":43.30306,"lon":5.39076,"is_reserved":false,"is_disabled":false,"rental_uris":{"android":"levelo://app?vid=f897d300-643c-4c7a-951b-f56d70ef23ca","ios":"levelo://app?vid=f897d300-643c-4c7a-951b-f56d70ef23ca"},"vehicle_type_id":"4","last_reported":1758744657,"current_range_meters":18000,"station_id":"","pricing_plan_id":"cebpf4jnsgd1na2vs0mg"},{"bike_id":"f799cfee-8db6-47d0-9211-1dd04a3e1a27","system_id":"levelo_inurba_marseille","lat":43.24157,"lon":5.39665,"is_reserved":false,"is_disabled":true,"rental_uris":{"android":"levelo://app?vid=f799cfee-8db6-47d0-9211-1dd04a3e1a27","ios":"levelo://app?vid=f799cfee-8db6-47d0-9211-1dd04a3e1a27"},"vehicle_type_id":"4","last_reported":1758744657,"current_range_meters":18000,"station_id":"ce4bhn12rcd13ifvqgpg","pricing_plan_id":"cebpf4jnsgd1na2vs0mg"},{"bike_id":"f3557076-508d-4f04-8eb6-883d65d6828f","system_id":"levelo_inurba_marseille","lat":43.25093,"lon":5.39511,"is_reserved":false,"is_disabled":false,"rental_uris":{"android":"levelo://app?vid=f3557076-508d-4f04-8eb6-883d65d6828f","ios":"levelo://app?vid=f3557076-508d-4f04-8eb6-883d65d6828f"},"vehicle_type_id":"4","last_reported":1758744657,"current_range_meters":18000,"station_id":"ce4bhm12rcd13ifvqgkg","pricing_plan_id":"cebpf4jnsgd1na2vs0mg"},{"bike_id":"7c1d6ad8-1433-4313-993d-9e2f6659904a","system_id":"levelo_inurba_marseille","lat":43.31374,"lon":5.38495,"is_reserved":false,"is_disabled":false,"rental_uris":{"android":"levelo://app?vid=7c1d6ad8-1433-4313-993d-9e2f6659904a","ios":"levelo://app?vid=7c1d6ad8-1433-4313-993d-9e2f6659904a"},"vehicle_type_id":"4","last_reported":1758744657,"current_range_meters":18000,"station_id":"ce4bgt92rcd13ifvqcf0","pricing_plan_id":"cebpf4jnsgd1na2vs0mg"},{"bike_id":"672318fb-b324-4664-a26b-1698c1ff1885","system_id":"levelo_inurba_marseille","lat":43.30927,"lon":5.40142,"is_reserved":false,"is_disabled":false,"rental_uris":{"android":"levelo://app?vid=672318fb-b324-4664-a26b-1698c1ff1885","ios":"levelo://app?vid=672318fb-b324-4664-a26b-1698c1ff1885"},"vehicle_type_id":"4","last_reported":1758744657,"current_range_meters":18000,"station_id":"ce4bgvp2rcd13ifvqct0","pricing_plan_id":"cebpf4jnsgd1na2vs0mg"},{"bike_id":"64211e92-ecd5-4428-a86b-6e8946c6a668","system_id":"levelo_inurba_marseille","lat":43.24646,"lon":5.38917,"is_reserved":false,"is_disabled":false,"rental_uris":{"android":"levelo://app?vid=64211e92-ecd5-4428-a86b-6e8946c6a668","ios":"levelo://app?vid=64211e92-ecd5-4428-a86b-6e8946c6a668"},"vehicle_type_id":"4","last_reported":1758744657,"current_range_meters":18800,"station_id":"ce4bhg12rcd13ifvqf60","pricing_plan_id":"cebpf4jnsgd1na2vs0mg"},{"bike_id":"8bceee3e-dc63-488a-a8b7-d05f76221940","system_id":"levelo_inurba_marseille","lat":43.29181,"lon":5.35808,"is_reserved":false,"is_disabled":false,"rental_uris":{"android":"levelo://app?vid=8bceee3e-dc63-488a-a8b7-d05f76221940","ios":"levelo://app?vid=8bceee3e-dc63-488a-a8b7-d05f76221940"},"vehicle_type_id":"4","last_reported":1758744657,"current_range_meters":18800,"station_id":"ce4bhb12rcd13ifvqel0","pricing_plan_id":"cebpf4jnsgd1na2vs0mg"},{"bike_id":"31b1b0c7-3d56-41a7-ab57-c07015fe932d","system_id":"levelo_inurba_marseille","lat":43.29862,"lon":5.39739,"is_reserved":false,"is_disabled":false,"rental_uris":{"android":"levelo://app?vid=31b1b0c7-3d56-41a7-ab57-c07015fe932d","ios":"levelo://app?vid=31b1b0c7-3d56-41a7-ab57-c07015fe932d"},"vehicle_type_id":"4","last_reported":1758744657,"current_range_meters":18000,"station_id":"ce4bh0h2rcd13ifvqd50","pricing_plan_id":"cebpf4jnsgd1na2vs0mg"},{"bike_id":"70318c82-7ace-4d55-991f-f6d93948f025","system_id":"levelo_inurba_marseille","lat":43.28727,"lon":5.36081,"is_reserved":false,"is_disabled":false,"rental_uris":{"android":"levelo://app?vid=70318c82-7ace-4d55-991f-f6d93948f025","ios":"levelo://app?vid=70318c82-7ace-4d55-991f-f6d93948f025"},"vehicle_type_id":"4","last_reported":1758744657,"current_range_meters":18800,"station_id":"cki0cbj6b192h4jlfktg","pricing_plan_id":"cebpf4jnsgd1na2vs0mg"},{"bike_id":"041cd397-24ab-4e04-af23-07b961e161f4","system_id":"levelo_inurba_marseille","lat":43.337444,"lon":5.374475,"is_reserved":false,"is_disabled":false,"rental_uris":{"android":"levelo://app?vid=041cd397-24ab-4e04-af23-07b961e161f4","ios":"levelo://app?vid=041cd397-24ab-4e04-af23-07b961e161f4"},"vehicle_type_id":"4","last_reported":1758744657,"current_range_meters":18800,"station_id":"","pricing_plan_id":"cebpf4jnsgd1na2vs0mg"},{"bike_id":"b6ff3672-4e7c-404c-ab2a-bd902cf95e14","system_id":"levelo_inurba_marseille","lat":43.26838,"lon":5.40669,"is_reserved":false,"is_disabled":false,"rental_uris":{"android":"levelo://app?vid=b6ff3672-4e7c-404c-ab2a-bd902cf95e14","ios":"levelo://app?vid=b6ff3672-4e7c-404c-ab2a-bd902cf95e14"},"vehicle_type_id":"4","last_reported":1758744657,"current_range_meters":18800,"station_id":"","pricing_plan_id":"cebpf4jnsgd1na2vs0mg"},{"bike_id":"4381822b-e4a8-41c2-a189-9d550bf65381","system_id":"levelo_inurba_marseille","lat":43.23176,"lon":5.39989,"is_reserved":false,"is_disabled":false,"rental_uris":{"android":"levelo://app?vid=4381822b-e4a8-41c2-a189-9d550bf65381","ios":"levelo://app?vid=4381822b-e4a8-41c2-a189-9d550bf65381"},"vehicle_type_id":"4","last_reported":1758744657,"current_range_meters":18800,"station_id":"ce4bhn12rcd13ifvqgqg","pricing_plan_id":"cebpf4jnsgd1na2vs0mg"},{"bike_id":"459199d4-a1d0-404f-b542-8737a00444e2","system_id":"levelo_inurba_marseille","lat":43.29566,"lon":5.39973,"is_reserved":false,"is_disabled":false,"rental_uris":{"android":"levelo://app?vid=459199d4-a1d0-404f-b542-8737a00444e2","ios":"levelo://app?vid=459199d4-a1d0-404f-b542-8737a00444e2"},"vehicle_type_id":"4","last_reported":1758744657,"current_range_meters":18800,"station_id":"ce4bh312rcd13ifvqdj0","pricing_plan_id":"cebpf4jnsgd1na2vs0mg"},{"bike_id":"429bed0d-db4e-4f8e-ae82-2110b6942dd1","system_id":"levelo_inurba_marseille","lat":43.25719,"lon":5.41114,"is_reserved":false,"is_disabled":false,"rental_uris":{"android":"levelo://app?vid=429bed0d-db4e-4f8e-ae82-2110b6942dd1","ios":"levelo://app?vid=429bed0d-db4e-4f8e-ae82-2110b6942dd1"},"vehicle_type_id":"4","last_reported":1758744657,"current_range_meters":19200,"station_id":"ce4bhkp2rcd13ifvqgd0","pricing_plan_id":"cebpf4jnsgd1na2vs0mg"},{"bike_id":"bdff1536-f36c-4917-9aef-b9364dd074f4","system_id":"levelo_inurba_marseille","lat":43.258675,"lon":5.398907,"is_reserved":false,"is_disabled":false,"rental_uris":{"android":"levelo://app?vid=bdff1536-f36c-4917-9aef-b9364dd074f4","ios":"levelo://app?vid=bdff1536-f36c-4917-9aef-b9364dd074f4"},"vehicle_type_id":"4","last_reported":1758744657,"current_range_meters":19200,"station_id":"","pricing_plan_id":"cebpf4jnsgd1na2vs0mg"},{"bike_id":"e272de5d-c37b-4836-8081-748ba206ef88","system_id":"levelo_inurba_marseille","lat":43.279873,"lon":5.416623,"is_reserved":false,"is_disabled":false,"rental_uris":{"android":"levelo://app?vid=e272de5d-c37b-4836-8081-748ba206ef88","ios":"levelo://app?vid=e272de5d-c37b-4836-8081-748ba206ef88"},"vehicle_type_id":"4","last_reported":1758744657,"current_range_meters":19200,"station_id":"ce4bho12rcd13ifvqh1g","pricing_plan_id":"cebpf4jnsgd1na2vs0mg"},{"bike_id":"87861c0f-c8e0-4430-932e-e07bd9cf63c5","system_id":"levelo_inurba_marseille","lat":43.29873,"lon":5.39731,"is_reserved":false,"is_disabled":false,"rental_uris":{"android":"levelo://app?vid=87861c0f-c8e0-4430-932e-e07bd9cf63c5","ios":"levelo://app?vid=87861c0f-c8e0-4430-932e-e07bd9cf63c5"},"vehicle_type_id":"4","last_reported":1758744657,"current_range_meters":19200,"station_id":"ce4bh0h2rcd13ifvqd50","pricing_plan_id":"cebpf4jnsgd1na2vs0mg"},{"bike_id":"cf64f5a1-85bb-4012-acd5-309d066b1fe7","system_id":"levelo_inurba_marseille","lat":43.24144,"lon":5.39734,"is_reserved":false,"is_disabled":true,"rental_uris":{"android":"levelo://app?vid=cf64f5a1-85bb-4012-acd5-309d066b1fe7","ios":"levelo://app?vid=cf64f5a1-85bb-4012-acd5-309d066b1fe7"},"vehicle_type_id":"4","last_reported":1758744657,"current_range_meters":19200,"station_id":"ce4bhn12rcd13ifvqgpg","pricing_plan_id":"cebpf4jnsgd1na2vs0mg"},{"bike_id":"dec5e3d0-16cf-4f61-8905-2078866bf757","system_id":"levelo_inurba_marseille","lat":43.25082,"lon":5.39551,"is_reserved":false,"is_disabled":false,"rental_uris":{"android":"levelo://app?vid=dec5e3d0-16cf-4f61-8905-2078866bf757","ios":"levelo://app?vid=dec5e3d0-16cf-4f61-8905-2078866bf757"},"vehicle_type_id":"4","last_reported":1758744657,"current_range_meters":19200,"station_id":"ce4bhm12rcd13ifvqgkg","pricing_plan_id":"cebpf4jnsgd1na2vs0mg"},{"bike_id":"70eabb4b-d133-4803-8e51-cad71a3dd145","system_id":"levelo_inurba_marseille","lat":43.29867,"lon":5.3974,"is_reserved":false,"is_disabled":false,"rental_uris":{"android":"levelo://app?vid=70eabb4b-d133-4803-8e51-cad71a3dd145","ios":"levelo://app?vid=70eabb4b-d133-4803-8e51-cad71a3dd145"},"vehicle_type_id":"4","last_reported":1758744657,"current_range_meters":19600,"station_id":"ce4bh0h2rcd13ifvqd50","pricing_plan_id":"cebpf4jnsgd1na2vs0mg"},{"bike_id":"d7cc7fd6-faf9-4286-9461-4d6e4791e1b5","system_id":"levelo_inurba_marseille","lat":43.29359,"lon":5.37851,"is_reserved":false,"is_disabled":false,"rental_uris":{"android":"levelo://app?vid=d7cc7fd6-faf9-4286-9461-4d6e4791e1b5","ios":"levelo://app?vid=d7cc7fd6-faf9-4286-9461-4d6e4791e1b5"},"vehicle_type_id":"4","last_reported":1758744657,"current_range_meters":19200,"station_id":"ce4bgjh2rcd13ifvqbf0","pricing_plan_id":"cebpf4jnsgd1na2vs0mg"},{"bike_id":"8e4d93ed-d24c-438d-94c2-4e040142fb9b","system_id":"levelo_inurba_marseille","lat":43.24095,"lon":5.37773,"is_reserved":false,"is_disabled":false,"rental_uris":{"android":"levelo://app?vid=8e4d93ed-d24c-438d-94c2-4e040142fb9b","ios":"levelo://app?vid=8e4d93ed-d24c-438d-94c2-4e040142fb9b"},"vehicle_type_id":"4","last_reported":1758744657,"current_range_meters":19600,"station_id":"ce4bhnp2rcd13ifvqgvg","pricing_plan_id":"cebpf4jnsgd1na2vs0mg"},{"bike_id":"8a814355-0928-4ff3-a45b-7143d8f6343c","system_id":"levelo_inurba_marseille","lat":43.27917,"lon":5.39584,"is_reserved":false,"is_disabled":false,"rental_uris":{"android":"levelo://app?vid=8a814355-0928-4ff3-a45b-7143d8f6343c","ios":"levelo://app?vid=8a814355-0928-4ff3-a45b-7143d8f6343c"},"vehicle_type_id":"4","last_reported":1758744657,"current_range_meters":19600,"station_id":"ce4bhf92rcd13ifvqf40","pricing_plan_id":"cebpf4jnsgd1na2vs0mg"},{"bike_id":"a00b258b-edcd-4c76-89d0-c26cce99668a","system_id":"levelo_inurba_marseille","lat":43.28842,"lon":5.35851,"is_reserved":false,"is_disabled":false,"rental_uris":{"android":"levelo://app?vid=a00b258b-edcd-4c76-89d0-c26cce99668a","ios":"levelo://app?vid=a00b258b-edcd-4c76-89d0-c26cce99668a"},"vehicle_type_id":"4","last_reported":1758744657,"current_range_meters":19600,"station_id":"ce4bhb12rcd13ifvqem0","pricing_plan_id":"cebpf4jnsgd1na2vs0mg"},{"bike_id":"798e130f-3fa3-4c7f-9d50-1593ee52bcc6","system_id":"levelo_inurba_marseille","lat":43.25331,"lon":5.42177,"is_reserved":false,"is_disabled":false,"rental_uris":{"android":"levelo://app?vid=798e130f-3fa3-4c7f-9d50-1593ee52bcc6","ios":"levelo://app?vid=798e130f-3fa3-4c7f-9d50-1593ee52bcc6"},"vehicle_type_id":"4","last_reported":1758744657,"current_range_meters":19600,"station_id":"st_d2m65c5bi1j21697t3ng","pricing_plan_id":"cebpf4jnsgd1na2vs0mg"},{"bike_id":"aa3f470c-e532-4647-9bf9-3cefea98971a","system_id":"levelo_inurba_marseille","lat":43.28937,"lon":5.36635,"is_reserved":false,"is_disabled":false,"rental_uris":{"android":"levelo://app?vid=aa3f470c-e532-4647-9bf9-3cefea98971a","ios":"levelo://app?vid=aa3f470c-e532-4647-9bf9-3cefea98971a"},"vehicle_type_id":"4","last_reported":1758744657,"current_range_meters":19600,"station_id":"ce4bhap2rcd13ifvqek0","pricing_plan_id":"cebpf4jnsgd1na2vs0mg"},{"bike_id":"89e704f3-7726-41a4-a968-565b622bb0d7","system_id":"levelo_inurba_marseille","lat":43.31758,"lon":5.39024,"is_reserved":false,"is_disabled":false,"rental_uris":{"android":"levelo://app?vid=89e704f3-7726-41a4-a968-565b622bb0d7","ios":"levelo://app?vid=89e704f3-7726-41a4-a968-565b622bb0d7"},"vehicle_type_id":"4","last_reported":1758744657,"current_range_meters":19600,"station_id":"ce4bhqp2rcd13ifvqhng","pricing_plan_id":"cebpf4jnsgd1na2vs0mg"},{"bike_id":"e057ed06-7726-49c5-b64e-a5c5c1b5c579","system_id":"levelo_inurba_marseille","lat":43.29505,"lon":5.39053,"is_reserved":false,"is_disabled":false,"rental_uris":{"android":"levelo://app?vid=e057ed06-7726-49c5-b64e-a5c5c1b5c579","ios":"levelo://app?vid=e057ed06-7726-49c5-b64e-a5c5c1b5c579"},"vehicle_type_id":"4","last_reported":1758744657,"current_range_meters":19600,"station_id":"ce4bh3p2rcd13ifvqdp0","pricing_plan_id":"cebpf4jnsgd1na2vs0mg"},{"bike_id":"587e6649-3fa3-4278-a7f2-1f47acb1ccb9","system_id":"levelo_inurba_marseille","lat":43.30546,"lon":5.38426,"is_reserved":false,"is_disabled":false,"rental_uris":{"android":"levelo://app?vid=587e6649-3fa3-4278-a7f2-1f47acb1ccb9","ios":"levelo://app?vid=587e6649-3fa3-4278-a7f2-1f47acb1ccb9"},"vehicle_type_id":"4","last_reported":1758744657,"current_range_meters":19200,"station_id":"ce4bgg92rcd13ifvqb30","pricing_plan_id":"cebpf4jnsgd1na2vs0mg"},{"bike_id":"0e7b2911-bdcb-4428-81e8-895837a179e9","system_id":"levelo_inurba_marseille","lat":43.24959,"lon":5.40503,"is_reserved":false,"is_disabled":false,"rental_uris":{"android":"levelo://app?vid=0e7b2911-bdcb-4428-81e8-895837a179e9","ios":"levelo://app?vid=0e7b2911-bdcb-4428-81e8-895837a179e9"},"vehicle_type_id":"4","last_reported":1758744657,"current_range_meters":19600,"station_id":"st_d2ngiaodas8pm72gd1h0","pricing_plan_id":"cebpf4jnsgd1na2vs0mg"},{"bike_id":"237d670d-1d71-4e5a-9874-9ef01d2c1669","system_id":"levelo_inurba_marseille","lat":43.23059,"lon":5.3549,"is_reserved":false,"is_disabled":false,"rental_uris":{"android":"levelo://app?vid=237d670d-1d71-4e5a-9874-9ef01d2c1669","ios":"levelo://app?vid=237d670d-1d71-4e5a-9874-9ef01d2c1669"},"vehicle_type_id":"4","last_reported":1758744657,"current_range_meters":19600,"station_id":"cpo3342slgdg3j2ifvpg","pricing_plan_id":"cebpf4jnsgd1na2vs0mg"},{"bike_id":"d2c32aa4-eb6d-4037-b4bc-16b296387f88","system_id":"levelo_inurba_marseille","lat":43.246508,"lon":5.388915,"is_reserved":false,"is_disabled":false,"rental_uris":{"android":"levelo://app?vid=d2c32aa4-eb6d-4037-b4bc-16b296387f88","ios":"levelo://app?vid=d2c32aa4-eb6d-4037-b4bc-16b296387f88"},"vehicle_type_id":"4","last_reported":1758744657,"current_range_meters":19600,"station_id":"ce4bhg12rcd13ifvqf60","pricing_plan_id":"cebpf4jnsgd1na2vs0mg"},{"bike_id":"06e631d2-51c1-4739-8bf4-eca33f8356a7","system_id":"levelo_inurba_marseille","lat":43.33726,"lon":5.39182,"is_reserved":false,"is_disabled":false,"rental_uris":{"android":"levelo://app?vid=06e631d2-51c1-4739-8bf4-eca33f8356a7","ios":"levelo://app?vid=06e631d2-51c1-4739-8bf4-eca33f8356a7"},"vehicle_type_id":"4","last_reported":1758744657,"current_range_meters":20000,"station_id":"ce4bhr92rcd13ifvqhsg","pricing_plan_id":"cebpf4jnsgd1na2vs0mg"},{"bike_id":"047cbadf-61f3-4710-bf13-d3db7d81e87a","system_id":"levelo_inurba_marseille","lat":43.30121,"lon":5.38787,"is_reserved":false,"is_disabled":true,"rental_uris":{"android":"levelo://app?vid=047cbadf-61f3-4710-bf13-d3db7d81e87a","ios":"levelo://app?vid=047cbadf-61f3-4710-bf13-d3db7d81e87a"},"vehicle_type_id":"4","last_reported":1758744657,"current_range_meters":20000,"station_id":"ce4bghh2rcd13ifvqb60","pricing_plan_id":"cebpf4jnsgd1na2vs0mg"},{"bike_id":"5a784696-a352-4d49-990f-c3744b4f57e3","system_id":"levelo_inurba_marseille","lat":43.33733,"lon":5.39185,"is_reserved":false,"is_disabled":false,"rental_uris":{"android":"levelo://app?vid=5a784696-a352-4d49-990f-c3744b4f57e3","ios":"levelo://app?vid=5a784696-a352-4d49-990f-c3744b4f57e3"},"vehicle_type_id":"4","last_reported":1758744657,"current_range_meters":19600,"station_id":"ce4bhr92rcd13ifvqhsg","pricing_plan_id":"cebpf4jnsgd1na2vs0mg"},{"bike_id":"99cf83af-e2f0-49ee-8b98-a95ec7f6d31c","system_id":"levelo_inurba_marseille","lat":43.24995,"lon":5.38934,"is_reserved":false,"is_disabled":false,"rental_uris":{"android":"levelo://app?vid=99cf83af-e2f0-49ee-8b98-a95ec7f6d31c","ios":"levelo://app?vid=99cf83af-e2f0-49ee-8b98-a95ec7f6d31c"},"vehicle_type_id":"4","last_reported":1758744657,"current_range_meters":20000,"station_id":"ce4bhgp2rcd13ifvqfd0","pricing_plan_id":"cebpf4jnsgd1na2vs0mg"},{"bike_id":"731b6809-5b3d-4e6d-913d-4032f5f6f552","system_id":"levelo_inurba_marseille","lat":43.29734,"lon":5.36599,"is_reserved":false,"is_disabled":false,"rental_uris":{"android":"levelo://app?vid=731b6809-5b3d-4e6d-913d-4032f5f6f552","ios":"levelo://app?vid=731b6809-5b3d-4e6d-913d-4032f5f6f552"},"vehicle_type_id":"4","last_reported":1758744657,"current_range_meters":20000,"station_id":"ce4bgn12rcd13ifvqbt0","pricing_plan_id":"cebpf4jnsgd1na2vs0mg"},{"bike_id":"7d54fad1-06e2-416e-b1ef-ec4876f954a4","system_id":"levelo_inurba_marseille","lat":43.311277,"lon":5.377797,"is_reserved":false,"is_disabled":false,"rental_uris":{"android":"levelo://app?vid=7d54fad1-06e2-416e-b1ef-ec4876f954a4","ios":"levelo://app?vid=7d54fad1-06e2-416e-b1ef-ec4876f954a4"},