{"last_updated":1753536216,"ttl":60,"version":"2.2","data":{"bikes":[{"bike_id":"fc382a7d-0f54-4f25-9933-224bae749afd","system_id":"levelo_inurba_marseille","lat":43.30945,"lon":5.39039,"is_reserved":false,"is_disabled":false,"rental_uris":{"android":"levelo://app?vid=fc382a7d-0f54-4f25-9933-224bae749afd","ios":"levelo://app?vid=fc382a7d-0f54-4f25-9933-224bae749afd"},"vehicle_type_id":"4","last_reported":1753536216,"current_range_meters":2800,"station_id":"ce4bgup2rcd13ifvqco0","pricing_plan_id":"cebpf4jnsgd1na2vs0mg"},{"bike_id":"4a9dc146-d796-433f-9dda-56cd7c0e2ec3","system_id":"levelo_inurba_marseille","lat":43.27323,"lon":5.39081,"is_reserved":false,"is_disabled":false,"rental_uris":{"android":"levelo://app?vid=4a9dc146-d796-433f-9dda-56cd7c0e2ec3","ios":"levelo://app?vid=4a9dc146-d796-433f-9dda-56cd7c0e2ec3"},"vehicle_type_id":"4","last_reported":1753536216,"current_range_meters":2800,"station_id":"ce4bhgp2rcd13ifvqfe0","pricing_plan_id":"cebpf4jnsgd1na2vs0mg"},{"bike_id":"0f80fd5d-6e0f-478b-ac50-47cc49181482","system_id":"levelo_inurba_marseille","lat":43.305099,"lon":5.366286,"is_reserved":false,"is_disabled":true,"rental_uris":{"android":"levelo://app?vid=0f80fd5d-6e0f-478b-ac50-47cc49181482","ios":"levelo://app?vid=0f80fd5d-6e0f-478b-ac50-47cc49181482"},"vehicle_type_id":"4","last_reported":1753536216,"current_range_meters":3200,"station_id":"ce4bhi12rcd13ifvqfo0","pricing_plan_id":"cebpf4jnsgd1na2vs0mg"},{"bike_id":"fe8f6184-5900-47ed-8682-bef5b17dcd59","system_id":"levelo_inurba_marseille","lat":43.21757,"lon":5.34597,"is_reserved":false,"is_disabled":false,"rental_uris":{"android":"levelo://app?vid=fe8f6184-5900-47ed-8682-bef5b17dcd59","ios":"levelo://app?vid=fe8f6184-5900-47ed-8682-bef5b17dcd59"},"vehicle_type_id":"4","last_reported":1753536216,"current_range_meters":3200,"station_id":"st_cvj6r9ubvosntc0bgbag","pricing_plan_id":"cebpf4jnsgd1na2vs0mg"},{"bike_id":"12ec72e3-48df-4b75-baf9-18b4b8e5a1c2","system_id":"levelo_inurba_marseille","lat":43.3122,"lon":5.36868,"is_reserved":false,"is_disabled":false,"rental_uris":{"android":"levelo://app?vid=12ec72e3-48df-4b75-baf9-18b4b8e5a1c2","ios":"levelo://app?vid=12ec72e3-48df-4b75-baf9-18b4b8e5a1c2"},"vehicle_type_id":"4","last_reported":1753536216,"current_range_meters":3600,"station_id":"ce4bgl92rcd13ifvqbq0","pricing_plan_id":"cebpf4jnsgd1na2vs0mg"},{"bike_id":"e19cd9bd-8f1f-4909-a624-5af678243303","system_id":"levelo_inurba_marseille","lat":43.290566,"lon":5.399027,"is_reserved":false,"is_disabled":false,"rental_uris":{"android":"levelo://app?vid=e19cd9bd-8f1f-4909-a624-5af678243303","ios":"levelo://app?vid=e19cd9bd-8f1f-4909-a624-5af678243303"},"vehicle_type_id":"4","last_reported":1753536216,"current_range_meters":3600,"station_id":"","pricing_plan_id":"cebpf4jnsgd1na2vs0mg"},{"bike_id":"fd2ef2be-455e-4104-addc-200ac5487ec7","system_id":"levelo_inurba_marseille","lat":43.29894,"lon":5.36248,"is_reserved":false,"is_disabled":false,"rental_uris":{"android":"levelo://app?vid=fd2ef2be-455e-4104-addc-200ac5487ec7","ios":"levelo://app?vid=fd2ef2be-455e-4104-addc-200ac5487ec7"},"vehicle_type_id":"4","last_reported":1753536216,"current_range_meters":3600,"station_id":"","pricing_plan_id":"cebpf4jnsgd1na2vs0mg"},{"bike_id":"38d94f99-ae22-49f7-b2ae-83e22dcaa946","system_id":"levelo_inurba_marseille","lat":43.29001,"lon":5.35613,"is_reserved":false,"is_disabled":false,"rental_uris":{"android":"levelo://app?vid=38d94f99-ae22-49f7-b2ae-83e22dcaa946","ios":"levelo://app?vid=38d94f99-ae22-49f7-b2ae-83e22dcaa946"},"vehicle_type_id":"4","last_reported":1753536216,"current_range_meters":3200,"station_id":"ce4bhb92rcd13ifvqen0","pricing_plan_id":"cebpf4jnsgd1na2vs0mg"},{"bike_id":"d475ddec-7c47-4450-9d07-ef4747b56e1d","system_id":"levelo_inurba_marseille","lat":43.28625,"lon":5.35097,"is_reserved":false,"is_disabled":false,"rental_uris":{"android":"levelo://app?vid=d475ddec-7c47-4450-9d07-ef4747b56e1d","ios":"levelo://app?vid=d475ddec-7c47-4450-9d07-ef4747b56e1d"},"vehicle_type_id":"4","last_reported":1753536216,"current_range_meters":3600,"station_id":"ce4bhch2rcd13ifvqeug","pricing_plan_id":"cebpf4jnsgd1na2vs0mg"},{"bike_id":"eca9915c-53e8-4e27-8111-190b8a581e54","system_id":"levelo_inurba_marseille","lat":43.26783,"lon":5.39418,"is_reserved":false,"is_disabled":false,"rental_uris":{"android":"levelo://app?vid=eca9915c-53e8-4e27-8111-190b8a581e54","ios":"levelo://app?vid=eca9915c-53e8-4e27-8111-190b8a581e54"},"vehicle_type_id":"4","last_reported":1753536216,"current_range_meters":4400,"station_id":"ce4bhh12rcd13ifvqfg0","pricing_plan_id":"cebpf4jnsgd1na2vs0mg"},{"bike_id":"b3324d45-11cd-4165-8f99-01756553426f","system_id":"levelo_inurba_marseille","lat":43.28656,"lon":5.36365,"is_reserved":false,"is_disabled":false,"rental_uris":{"android":"levelo://app?vid=b3324d45-11cd-4165-8f99-01756553426f","ios":"levelo://app?vid=b3324d45-11cd-4165-8f99-01756553426f"},"vehicle_type_id":"4","last_reported":1753536216,"current_range_meters":4800,"station_id":"ce4bhah2rcd13ifvqej0","pricing_plan_id":"cebpf4jnsgd1na2vs0mg"},{"bike_id":"7b56f4ab-521b-49cb-8264-24fed899f6eb","system_id":"levelo_inurba_marseille","lat":43.3122,"lon":5.36835,"is_reserved":false,"is_disabled":false,"rental_uris":{"android":"levelo://app?vid=7b56f4ab-521b-49cb-8264-24fed899f6eb","ios":"levelo://app?vid=7b56f4ab-521b-49cb-8264-24fed899f6eb"},"vehicle_type_id":"4","last_reported":1753536216,"current_range_meters":4800,"station_id":"ce4bgl92rcd13ifvqbq0","pricing_plan_id":"cebpf4jnsgd1na2vs0mg"},{"bike_id":"8658f836-e872-44e7-867e-e000b4ccd09b","system_id":"levelo_inurba_marseille","lat":43.31479,"lon":5.37304,"is_reserved":false,"is_disabled":false,"rental_uris":{"android":"levelo://app?vid=8658f836-e872-44e7-867e-e000b4ccd09b","ios":"levelo://app?vid=8658f836-e872-44e7-867e-e000b4ccd09b"},"vehicle_type_id":"4","last_reported":1753536216,"current_range_meters":4800,"station_id":"ce4bgt12rcd13ifvqcd0","pricing_plan_id":"cebpf4jnsgd1na2vs0mg"},{"bike_id":"2cca0591-c5d2-484a-b888-5a25f57e180a","system_id":"levelo_inurba_marseille","lat":43.29293,"lon":5.36846,"is_reserved":false,"is_disabled":false,"rental_uris":{"android":"levelo://app?vid=2cca0591-c5d2-484a-b888-5a25f57e180a","ios":"levelo://app?vid=2cca0591-c5d2-484a-b888-5a25f57e180a"},"vehicle_type_id":"4","last_reported":1753536216,"current_range_meters":4800,"station_id":"ce4bhbp2rcd13ifvqesg","pricing_plan_id":"cebpf4jnsgd1na2vs0mg"},{"bike_id":"f28d2bb9-4217-4196-a573-ba6f4c172497","system_id":"levelo_inurba_marseille","lat":43.281579,"lon":5.361159,"is_reserved":false,"is_disabled":false,"rental_uris":{"android":"levelo://app?vid=f28d2bb9-4217-4196-a573-ba6f4c172497","ios":"levelo://app?vid=f28d2bb9-4217-4196-a573-ba6f4c172497"},"vehicle_type_id":"4","last_reported":1753536216,"current_range_meters":5600,"station_id":"","pricing_plan_id":"cebpf4jnsgd1na2vs0mg"},{"bike_id":"df422bca-39de-4cba-99b7-ce40406be431","system_id":"levelo_inurba_marseille","lat":43.28345,"lon":5.38107,"is_reserved":false,"is_disabled":false,"rental_uris":{"android":"levelo://app?vid=df422bca-39de-4cba-99b7-ce40406be431","ios":"levelo://app?vid=df422bca-39de-4cba-99b7-ce40406be431"},"vehicle_type_id":"4","last_reported":1753536216,"current_range_meters":4800,"station_id":"ce4bh412rcd13ifvqdr0","pricing_plan_id":"cebpf4jnsgd1na2vs0mg"},{"bike_id":"418bd571-f894-4fd5-8182-f0960aa4a3a9","system_id":"levelo_inurba_marseille","lat":43.289712,"lon":5.378559,"is_reserved":false,"is_disabled":false,"rental_uris":{"android":"levelo://app?vid=418bd571-f894-4fd5-8182-f0960aa4a3a9","ios":"levelo://app?vid=418bd571-f894-4fd5-8182-f0960aa4a3a9"},"vehicle_type_id":"4","last_reported":1753536216,"current_range_meters":6000,"station_id":"ce4bh9p2rcd13ifvqed0","pricing_plan_id":"cebpf4jnsgd1na2vs0mg"},{"bike_id":"d8c34c21-afdf-4785-b03c-07bcdd9c51ef","system_id":"levelo_inurba_marseille","lat":43.284244,"lon":5.349762,"is_reserved":false,"is_disabled":false,"rental_uris":{"android":"levelo://app?vid=d8c34c21-afdf-4785-b03c-07bcdd9c51ef","ios":"levelo://app?vid=d8c34c21-afdf-4785-b03c-07bcdd9c51ef"},"vehicle_type_id":"4","last_reported":1753536216,"current_range_meters":6000,"station_id":"ce4bhbh2rcd13ifvqepg","pricing_plan_id":"cebpf4jnsgd1na2vs0mg"},{"bike_id":"33759d96-bfb8-4051-bb92-a5bfcd0faac3","system_id":"levelo_inurba_marseille","lat":43.311742,"lon":5.387205,"is_reserved":false,"is_disabled":false,"rental_uris":{"android":"levelo://app?vid=33759d96-bfb8-4051-bb92-a5bfcd0faac3","ios":"levelo://app?vid=33759d96-bfb8-4051-bb92-a5bfcd0faac3"},"vehicle_type_id":"4","last_reported":1753536216,"current_range_meters":6000,"station_id":"ce4bgv12rcd13ifvqcp0","pricing_plan_id":"cebpf4jnsgd1na2vs0mg"},{"bike_id":"435e74ec-7bd7-4e44-becb-167b519cd60c","system_id":"levelo_inurba_marseille","lat":43.29511,"lon":5.3903,"is_reserved":false,"is_disabled":false,"rental_uris":{"android":"levelo://app?vid=435e74ec-7bd7-4e44-becb-167b519cd60c","ios":"levelo://app?vid=435e74ec-7bd7-4e44-becb-167b519cd60c"},"vehicle_type_id":"4","last_reported":1753536216,"current_range_meters":6000,"station_id":"ce4bh3p2rcd13ifvqdp0","pricing_plan_id":"cebpf4jnsgd1na2vs0mg"},{"bike_id":"3b2c0053-f3c9-4e2a-abee-0f8e3edbbc2d","system_id":"levelo_inurba_marseille","lat":43.232,"lon":5.35547,"is_reserved":false,"is_disabled":false,"rental_uris":{"android":"levelo://app?vid=3b2c0053-f3c9-4e2a-abee-0f8e3edbbc2d","ios":"levelo://app?vid=3b2c0053-f3c9-4e2a-abee-0f8e3edbbc2d"},"vehicle_type_id":"4","last_reported":1753536216,"current_range_meters":6000,"station_id":"ce4bhu92rcd13ifvqi70","pricing_plan_id":"cebpf4jnsgd1na2vs0mg"},{"bike_id":"867adbf8-e769-4002-b460-2e1f67835216","system_id":"levelo_inurba_marseille","lat":43.28663,"lon":5.36356,"is_reserved":false,"is_disabled":false,"rental_uris":{"android":"levelo://app?vid=867adbf8-e769-4002-b460-2e1f67835216","ios":"levelo://app?vid=867adbf8-e769-4002-b460-2e1f67835216"},"vehicle_type_id":"4","last_reported":1753536216,"current_range_meters":6400,"station_id":"ce4bhah2rcd13ifvqej0","pricing_plan_id":"cebpf4jnsgd1na2vs0mg"},{"bike_id":"1450a95c-2425-4cc3-8e17-e953896098db","system_id":"levelo_inurba_marseille","lat":43.26075,"lon":5.39391,"is_reserved":false,"is_disabled":false,"rental_uris":{"android":"levelo://app?vid=1450a95c-2425-4cc3-8e17-e953896098db","ios":"levelo://app?vid=1450a95c-2425-4cc3-8e17-e953896098db"},"vehicle_type_id":"4","last_reported":1753536216,"current_range_meters":6400,"station_id":"ce4bhh92rcd13ifvqfj0","pricing_plan_id":"cebpf4jnsgd1na2vs0mg"},{"bike_id":"8568733d-c5a4-410d-9337-c9c4adc99ef1","system_id":"levelo_inurba_marseille","lat":43.30899,"lon":5.37186,"is_reserved":false,"is_disabled":false,"rental_uris":{"android":"levelo://app?vid=8568733d-c5a4-410d-9337-c9c4adc99ef1","ios":"levelo://app?vid=8568733d-c5a4-410d-9337-c9c4adc99ef1"},"vehicle_type_id":"4","last_reported":1753536216,"current_range_meters":7200,"station_id":"ce4bguh2rcd13ifvqckg","pricing_plan_id":"cebpf4jnsgd1na2vs0mg"},{"bike_id":"e0f60f25-bcf5-4f46-8178-4367121a7b08","system_id":"levelo_inurba_marseille","lat":43.290061,"lon":5.367602,"is_reserved":false,"is_disabled":false,"rental_uris":{"android":"levelo://app?vid=e0f60f25-bcf5-4f46-8178-4367121a7b08","ios":"levelo://app?vid=e0f60f25-bcf5-4f46-8178-4367121a7b08"},"vehicle_type_id":"4","last_reported":1753536216,"current_range_meters":6400,"station_id":"ce4bhap2rcd13ifvqek0","pricing_plan_id":"cebpf4jnsgd1na2vs0mg"},{"bike_id":"6af7a72a-189c-4dbc-9282-a956426542ba","system_id":"levelo_inurba_marseille","lat":43.22498,"lon":5.34777,"is_reserved":false,"is_disabled":false,"rental_uris":{"android":"levelo://app?vid=6af7a72a-189c-4dbc-9282-a956426542ba","ios":"levelo://app?vid=6af7a72a-189c-4dbc-9282-a956426542ba"},"vehicle_type_id":"4","last_reported":1753536216,"current_range_meters":6800,"station_id":"","pricing_plan_id":"cebpf4jnsgd1na2vs0mg"},{"bike_id":"ff30a5ee-0e9d-4bfa-a593-c7beaf9df463","system_id":"levelo_inurba_marseille","lat":43.33529,"lon":5.36215,"is_reserved":false,"is_disabled":false,"rental_uris":{"android":"levelo://app?vid=ff30a5ee-0e9d-4bfa-a593-c7beaf9df463","ios":"levelo://app?vid=ff30a5ee-0e9d-4bfa-a593-c7beaf9df463"},"vehicle_type_id":"4","last_reported":1753536216,"current_range_meters":6800,"station_id":"","pricing_plan_id":"cebpf4jnsgd1na2vs0mg"},{"bike_id":"472065c0-15f0-4f44-abd9-0e020f804e53","system_id":"levelo_inurba_marseille","lat":43.27775,"lon":5.3994,"is_reserved":false,"is_disabled":false,"rental_uris":{"android":"levelo://app?vid=472065c0-15f0-4f44-abd9-0e020f804e53","ios":"levelo://app?vid=472065c0-15f0-4f44-abd9-0e020f804e53"},"vehicle_type_id":"4","last_reported":1753536216,"current_range_meters":6800,"station_id":"","pricing_plan_id":"cebpf4jnsgd1na2vs0mg"},{"bike_id":"ff0acff9-9271-47d7-876b-ffbb4b345534","system_id":"levelo_inurba_marseille","lat":43.29189,"lon":5.358,"is_reserved":false,"is_disabled":false,"rental_uris":{"android":"levelo://app?vid=ff0acff9-9271-47d7-876b-ffbb4b345534","ios":"levelo://app?vid=ff0acff9-9271-47d7-876b-ffbb4b345534"},"vehicle_type_id":"4","last_reported":1753536216,"current_range_meters":7200,"station_id":"ce4bhb12rcd13ifvqel0","pricing_plan_id":"cebpf4jnsgd1na2vs0mg"},{"bike_id":"1c31f24b-2b9e-48c3-b103-bffd32b92420","system_id":"levelo_inurba_marseille","lat":43.335058,"lon":5.408679,"is_reserved":false,"is_disabled":false,"rental_uris":{"android":"levelo://app?vid=1c31f24b-2b9e-48c3-b103-bffd32b92420","ios":"levelo://app?vid=1c31f24b-2b9e-48c3-b103-bffd32b92420"},"vehicle_type_id":"4","last_reported":1753536216,"current_range_meters":7200,"station_id":"","pricing_plan_id":"cebpf4jnsgd1na2vs0mg"},{"bike_id":"a3cb9794-e5c0-4d45-b2e0-bf3cb9889937","system_id":"levelo_inurba_marseille","lat":43.2827,"lon":5.35075,"is_reserved":false,"is_disabled":true,"rental_uris":{"android":"levelo://app?vid=a3cb9794-e5c0-4d45-b2e0-bf3cb9889937","ios":"levelo://app?vid=a3cb9794-e5c0-4d45-b2e0-bf3cb9889937"},"vehicle_type_id":"4","last_reported":1753536216,"current_range_meters":7200,"station_id":"ce4bhbp2rcd13ifvqerg","pricing_plan_id":"cebpf4jnsgd1na2vs0mg"},{"bike_id":"89dcea3a-f7f7-44b2-9d2c-a3300861829d","system_id":"levelo_inurba_marseille","lat":43.27879,"lon":5.39705,"is_reserved":false,"is_disabled":false,"rental_uris":{"android":"levelo://app?vid=89dcea3a-f7f7-44b2-9d2c-a3300861829d","ios":"levelo://app?vid=89dcea3a-f7f7-44b2-9d2c-a3300861829d"},"vehicle_type_id":"4","last_reported":1753536216,"current_range_meters":7200,"station_id":"","pricing_plan_id":"cebpf4jnsgd1na2vs0mg"},{"bike_id":"21877828-4e7d-41a0-ac16-cc7ad57420a0","system_id":"levelo_inurba_marseille","lat":43.273724,"lon":5.362561,"is_reserved":false,"is_disabled":false,"rental_uris":{"android":"levelo://app?vid=21877828-4e7d-41a0-ac16-cc7ad57420a0","ios":"levelo://app?vid=21877828-4e7d-41a0-ac16-cc7ad57420a0"},"vehicle_type_id":"4","last_reported":1753536216,"current_range_meters":7200,"station_id":"ce4bhbh2rcd13ifvqeo0","pricing_plan_id":"cebpf4jnsgd1na2vs0mg"},{"bike_id":"99f29f5b-0b45-4fa3-af3f-1bbbf0d00330","system_id":"levelo_inurba_marseille","lat":43.32342,"lon":5.40591,"is_reserved":false,"is_disabled":false,"rental_uris":{"android":"levelo://app?vid=99f29f5b-0b45-4fa3-af3f-1bbbf0d00330","ios":"levelo://app?vid=99f29f5b-0b45-4fa3-af3f-1bbbf0d00330"},"vehicle_type_id":"4","last_reported":1753536216,"current_range_meters":7200,"station_id":"ce4bhq92rcd13ifvqhjg","pricing_plan_id":"cebpf4jnsgd1na2vs0mg"},{"bike_id":"5e996369-86ae-4816-8750-239b0e998170","system_id":"levelo_inurba_marseille","lat":43.21757,"lon":5.34624,"is_reserved":false,"is_disabled":false,"rental_uris":{"android":"levelo://app?vid=5e996369-86ae-4816-8750-239b0e998170","ios":"levelo://app?vid=5e996369-86ae-4816-8750-239b0e998170"},"vehicle_type_id":"4","last_reported":1753536216,"current_range_meters":8000,"station_id":"st_cvj6r9ubvosntc0bgbag","pricing_plan_id":"cebpf4jnsgd1na2vs0mg"},{"bike_id":"6cc819f0-80ec-4139-8268-7fb29498d8fd","system_id":"levelo_inurba_marseille","lat":43.26198,"lon":5.37931,"is_reserved":false,"is_disabled":false,"rental_uris":{"android":"levelo://app?vid=6cc819f0-80ec-4139-8268-7fb29498d8fd","ios":"levelo://app?vid=6cc819f0-80ec-4139-8268-7fb29498d8fd"},"vehicle_type_id":"4","last_reported":1753536216,"current_range_meters":8000,"station_id":"ce4bhjp2rcd13ifvqg90","pricing_plan_id":"cebpf4jnsgd1na2vs0mg"},{"bike_id":"6c47ab0d-c6ff-48b9-b24e-e9cd6f9080c0","system_id":"levelo_inurba_marseille","lat":43.29564,"lon":5.39974,"is_reserved":false,"is_disabled":false,"rental_uris":{"android":"levelo://app?vid=6c47ab0d-c6ff-48b9-b24e-e9cd6f9080c0","ios":"levelo://app?vid=6c47ab0d-c6ff-48b9-b24e-e9cd6f9080c0"},"vehicle_type_id":"4","last_reported":1753536216,"current_range_meters":8000,"station_id":"ce4bh312rcd13ifvqdj0","pricing_plan_id":"cebpf4jnsgd1na2vs0mg"},{"bike_id":"a67d261b-01f1-4e50-8e9f-4cabb7079edb","system_id":"levelo_inurba_marseille","lat":43.28418,"lon":5.34974,"is_reserved":false,"is_disabled":false,"rental_uris":{"android":"levelo://app?vid=a67d261b-01f1-4e50-8e9f-4cabb7079edb","ios":"levelo://app?vid=a67d261b-01f1-4e50-8e9f-4cabb7079edb"},"vehicle_type_id":"4","last_reported":1753536216,"current_range_meters":8400,"station_id":"ce4bhbh2rcd13ifvqepg","pricing_plan_id":"cebpf4jnsgd1na2vs0mg"},{"bike_id":"078febbd-6d49-4abf-8b46-d33f87f8da46","system_id":"levelo_inurba_marseille","lat":43.25452,"lon":5.38007,"is_reserved":false,"is_disabled":false,"rental_uris":{"android":"levelo://app?vid=078febbd-6d49-4abf-8b46-d33f87f8da46","ios":"levelo://app?vid=078febbd-6d49-4abf-8b46-d33f87f8da46"},"vehicle_type_id":"4","last_reported":1753536216,"current_range_meters":8800,"station_id":"","pricing_plan_id":"cebpf4jnsgd1na2vs0mg"},{"bike_id":"dfc13d34-d3d9-4597-a0ed-173ca0e857b9","system_id":"levelo_inurba_marseille","lat":43.2721,"lon":5.39176,"is_reserved":false,"is_disabled":false,"rental_uris":{"android":"levelo://app?vid=dfc13d34-d3d9-4597-a0ed-173ca0e857b9","ios":"levelo://app?vid=dfc13d34-d3d9-4597-a0ed-173ca0e857b9"},"vehicle_type_id":"4","last_reported":1753536216,"current_range_meters":8400,"station_id":"ce4bhhp2rcd13ifvqfm0","pricing_plan_id":"cebpf4jnsgd1na2vs0mg"},{"bike_id":"18a7510f-c12f-41d8-bcf5-d3ba65ff1703","system_id":"levelo_inurba_marseille","lat":43.284142,"lon":5.37499,"is_reserved":false,"is_disabled":false,"rental_uris":{"android":"levelo://app?vid=18a7510f-c12f-41d8-bcf5-d3ba65ff1703","ios":"levelo://app?vid=18a7510f-c12f-41d8-bcf5-d3ba65ff1703"},"vehicle_type_id":"4","last_reported":1753536216,"current_range_meters":9200,"station_id":"ce4bh412rcd13ifvqds0","pricing_plan_id":"cebpf4jnsgd1na2vs0mg"},{"bike_id":"cd5561c9-1cf8-4017-b7e0-c99a926bc380","system_id":"levelo_inurba_marseille","lat":43.32289,"lon":5.38273,"is_reserved":false,"is_disabled":false,"rental_uris":{"android":"levelo://app?vid=cd5561c9-1cf8-4017-b7e0-c99a926bc380","ios":"levelo://app?vid=cd5561c9-1cf8-4017-b7e0-c99a926bc380"},"vehicle_type_id":"4","last_reported":1753536216,"current_range_meters":9200,"station_id":"ce4bhr12rcd13ifvqhqg","pricing_plan_id":"cebpf4jnsgd1na2vs0mg"},{"bike_id":"ccca3042-9358-40fc-ac03-e327e01c225f","system_id":"levelo_inurba_marseille","lat":43.23316,"lon":5.36109,"is_reserved":false,"is_disabled":false,"rental_uris":{"android":"levelo://app?vid=ccca3042-9358-40fc-ac03-e327e01c225f","ios":"levelo://app?vid=ccca3042-9358-40fc-ac03-e327e01c225f"},"vehicle_type_id":"4","last_reported":1753536216,"current_range_meters":9200,"station_id":"","pricing_plan_id":"cebpf4jnsgd1na2vs0mg"},{"bike_id":"13c4991c-3e29-4005-9c0f-381d2d699abf","system_id":"levelo_inurba_marseille","lat":43.28894,"lon":5.36055,"is_reserved":false,"is_disabled":false,"rental_uris":{"android":"levelo://app?vid=13c4991c-3e29-4005-9c0f-381d2d699abf","ios":"levelo://app?vid=13c4991c-3e29-4005-9c0f-381d2d699abf"},"vehicle_type_id":"4","last_reported":1753536216,"current_range_meters":9200,"station_id":"","pricing_plan_id":"cebpf4jnsgd1na2vs0mg"},{"bike_id":"c1dcf064-7633-4f3e-9c7d-cf25342fb85f","system_id":"levelo_inurba_marseille","lat":43.27194,"lon":5.39221,"is_reserved":false,"is_disabled":true,"rental_uris":{"android":"levelo://app?vid=c1dcf064-7633-4f3e-9c7d-cf25342fb85f","ios":"levelo://app?vid=c1dcf064-7633-4f3e-9c7d-cf25342fb85f"},"vehicle_type_id":"4","last_reported":1753536216,"current_range_meters":9200,"station_id":"ce4bhhp2rcd13ifvqfm0","pricing_plan_id":"cebpf4jnsgd1na2vs0mg"},{"bike_id":"425cef19-2726-448e-9776-f03f24dd95da","system_id":"levelo_inurba_marseille","lat":43.24663,"lon":5.38161,"is_reserved":false,"is_disabled":false,"rental_uris":{"android":"levelo://app?vid=425cef19-2726-448e-9776-f03f24dd95da","ios":"levelo://app?vid=425cef19-2726-448e-9776-f03f24dd95da"},"vehicle_type_id":"4","last_reported":1753536216,"current_range_meters":9200,"station_id":"ce4bhih2rcd13ifvqfr0","pricing_plan_id":"cebpf4jnsgd1na2vs0mg"},{"bike_id":"773b48d4-858e-46f9-8819-6029f415d049","system_id":"levelo_inurba_marseille","lat":43.31162,"lon":5.36847,"is_reserved":false,"is_disabled":false,"rental_uris":{"android":"levelo://app?vid=773b48d4-858e-46f9-8819-6029f415d049","ios":"levelo://app?vid=773b48d4-858e-46f9-8819-6029f415d049"},"vehicle_type_id":"4","last_reported":1753536216,"current_range_meters":9600,"station_id":"ce4bgl92rcd13ifvqbq0","pricing_plan_id":"cebpf4jnsgd1na2vs0mg"},{"bike_id":"0e06cf48-6f0b-4cc0-ac0f-b9dad0f3368b","system_id":"levelo_inurba_marseille","lat":43.21744,"lon":5.34602,"is_reserved":false,"is_disabled":false,"rental_uris":{"android":"levelo://app?vid=0e06cf48-6f0b-4cc0-ac0f-b9dad0f3368b","ios":"levelo://app?vid=0e06cf48-6f0b-4cc0-ac0f-b9dad0f3368b"},"vehicle_type_id":"4","last_reported":1753536216,"current_range_meters":9600,"station_id":"st_cvj6r9ubvosntc0bgbag","pricing_plan_id":"cebpf4jnsgd1na2vs0mg"},{"bike_id":"28d2987a-af49-47c1-af2d-8871171acd7d","system_id":"levelo_inurba_marseille","lat":43.30368,"lon":5.42484,"is_reserved":false,"is_disabled":false,"rental_uris":{"android":"levelo://app?vid=28d2987a-af49-47c1-af2d-8871171acd7d","ios":"levelo://app?vid=28d2987a-af49-47c1-af2d-8871171acd7d"},"vehicle_type_id":"4","last_reported":1753536216,"current_range_meters":9600,"station_id":"ce4bhoh2rcd13ifvqh6g","pricing_plan_id":"cebpf4jnsgd1na2vs0mg"},{"bike_id":"f00d6cc9-417e-4154-8ced-573e333e5128","system_id":"levelo_inurba_marseille","lat":43.21753,"lon":5.34604,"is_reserved":false,"is_disabled":false,"rental_uris":{"android":"levelo://app?vid=f00d6cc9-417e-4154-8ced-573e333e5128","ios":"levelo://app?vid=f00d6cc9-417e-4154-8ced-573e333e5128"},"vehicle_type_id":"4","last_reported":1753536216,"current_range_meters":9600,"station_id":"st_cvj6r9ubvosntc0bgbag","pricing_plan_id":"cebpf4jnsgd1na2vs0mg"},{"bike_id":"9e45d4a7-845f-49ff-add4-deb743109a56","system_id":"levelo_inurba_marseille","lat":43.21745,"lon":5.34603,"is_reserved":false,"is_disabled":false,"rental_uris":{"android":"levelo://app?vid=9e45d4a7-845f-49ff-add4-deb743109a56","ios":"levelo://app?vid=9e45d4a7-845f-49ff-add4-deb743109a56"},"vehicle_type_id":"4","last_reported":1753536216,"current_range_meters":10000,"station_id":"","pricing_plan_id":"cebpf4jnsgd1na2vs0mg"},{"bike_id":"2aaf9e53-3f16-42db-8c23-6f1eb4773524","system_id":"levelo_inurba_marseille","lat":43.28383,"lon":5.34984,"is_reserved":false,"is_disabled":false,"rental_uris":{"android":"levelo://app?vid=2aaf9e53-3f16-42db-8c23-6f1eb4773524","ios":"levelo://app?vid=2aaf9e53-3f16-42db-8c23-6f1eb4773524"},"vehicle_type_id":"4","last_reported":1753536216,"current_range_meters":10000,"station_id":"ce4bhbh2rcd13ifvqepg","pricing_plan_id":"cebpf4jnsgd1na2vs0mg"},{"bike_id":"d79b409f-ca1b-43df-9348-1c6665f1fc25","system_id":"levelo_inurba_marseille","lat":43.22503,"lon":5.3477,"is_reserved":false,"is_disabled":false,"rental_uris":{"android":"levelo://app?vid=d79b409f-ca1b-43df-9348-1c6665f1fc25","ios":"levelo://app?vid=d79b409f-ca1b-43df-9348-1c6665f1fc25"},"vehicle_type_id":"4","last_reported":1753536216,"current_range_meters":10000,"station_id":"st_cvj5dfep6f1abm77gieg","pricing_plan_id":"cebpf4jnsgd1na2vs0mg"},{"bike_id":"47e46af2-83c5-4e53-9a51-0d5e867fdc71","system_id":"levelo_inurba_marseille","lat":43.28632,"lon":5.35088,"is_reserved":false,"is_disabled":false,"rental_uris":{"android":"levelo://app?vid=47e46af2-83c5-4e53-9a51-0d5e867fdc71","ios":"levelo://app?vid=47e46af2-83c5-4e53-9a51-0d5e867fdc71"},"vehicle_type_id":"4","last_reported":1753536216,"current_range_meters":10000,"station_id":"ce4bhch2rcd13ifvqeug","pricing_plan_id":"cebpf4jnsgd1na2vs0mg"},{"bike_id":"43cf4049-15dd-4e8c-88a8-61cd8dc10bf5","system_id":"levelo_inurba_marseille","lat":43.332333,"lon":5.378938,"is_reserved":false,"is_disabled":false,"rental_uris":{"android":"levelo://app?vid=43cf4049-15dd-4e8c-88a8-61cd8dc10bf5","ios":"levelo://app?vid=43cf4049-15dd-4e8c-88a8-61cd8dc10bf5"},"vehicle_type_id":"4","last_reported":1753536216,"current_range_meters":10000,"station_id":"","pricing_plan_id":"cebpf4jnsgd1na2vs0mg"},{"bike_id":"923669fe-a72e-4300-a1b1-7a36d5d8edc6","system_id":"levelo_inurba_marseille","lat":43.21197,"lon":5.35067,"is_reserved":false,"is_disabled":false,"rental_uris":{"android":"levelo://app?vid=923669fe-a72e-4300-a1b1-7a36d5d8edc6","ios":"levelo://app?vid=923669fe-a72e-4300-a1b1-7a36d5d8edc6"},"vehicle_type_id":"4","last_reported":1753536216,"current_range_meters":10000,"station_id":"st_cvj6sg6p6f1abm77japg","pricing_plan_id":"cebpf4jnsgd1na2vs0mg"},{"bike_id":"a3fe9995-2e3e-423b-9540-429a92fa997e","system_id":"levelo_inurba_marseille","lat":43.301897,"lon":5.371578,"is_reserved":false,"is_disabled":false,"rental_uris":{"android":"levelo://app?vid=a3fe9995-2e3e-423b-9540-429a92fa997e","ios":"levelo://app?vid=a3fe9995-2e3e-423b-9540-429a92fa997e"},"vehicle_type_id":"4","last_reported":1753536216,"current_range_meters":10000,"station_id":"","pricing_plan_id":"cebpf4jnsgd1na2vs0mg"},{"bike_id":"4d85cffb-de96-4d4a-9ac3-9ded8f2fc788","system_id":"levelo_inurba_marseille","lat":43.28028,"lon":5.36942,"is_reserved":false,"is_disabled":false,"rental_uris":{"android":"levelo://app?vid=4d85cffb-de96-4d4a-9ac3-9ded8f2fc788","ios":"levelo://app?vid=4d85cffb-de96-4d4a-9ac3-9ded8f2fc788"},"vehicle_type_id":"4","last_reported":1753536216,"current_range_meters":10000,"station_id":"ce4bha12rcd13ifvqef0","pricing_plan_id":"cebpf4jnsgd1na2vs0mg"},{"bike_id":"310b2400-dd2e-4320-8ec4-6b74e028c0c7","system_id":"levelo_inurba_marseille","lat":43.225043,"lon":5.347773,"is_reserved":false,"is_disabled":false,"rental_uris":{"android":"levelo://app?vid=310b2400-dd2e-4320-8ec4-6b74e028c0c7","ios":"levelo://app?vid=310b2400-dd2e-4320-8ec4-6b74e028c0c7"},"vehicle_type_id":"4","last_reported":1753536216,"current_range_meters":10000,"station_id":"","pricing_plan_id":"cebpf4jnsgd1na2vs0mg"},{"bike_id":"54a79cc7-f8ce-43b4-8615-041e9d587998","system_id":"levelo_inurba_marseille","lat":43.21742,"lon":5.34604,"is_reserved":false,"is_disabled":false,"rental_uris":{"android":"levelo://app?vid=54a79cc7-f8ce-43b4-8615-041e9d587998","ios":"levelo://app?vid=54a79cc7-f8ce-43b4-8615-041e9d587998"},"vehicle_type_id":"4","last_reported":1753536216,"current_range_meters":10800,"station_id":"st_cvj6r9ubvosntc0bgbag","pricing_plan_id":"cebpf4jnsgd1na2vs0mg"},{"bike_id":"278456e5-9cbd-46db-a60e-4ebd222e53fb","system_id":"levelo_inurba_marseille","lat":43.21741,"lon":5.34625,"is_reserved":false,"is_disabled":false,"rental_uris":{"android":"levelo://app?vid=278456e5-9cbd-46db-a60e-4ebd222e53fb","ios":"levelo://app?vid=278456e5-9cbd-46db-a60e-4ebd222e53fb"},"vehicle_type_id":"4","last_reported":1753536216,"current_range_meters":10800,"station_id":"st_cvj6r9ubvosntc0bgbag","pricing_plan_id":"cebpf4jnsgd1na2vs0mg"},{"bike_id":"21a22bc7-65fe-4b97-a005-517b211a0b98","system_id":"levelo_inurba_marseille","lat":43.23056,"lon":5.35487,"is_reserved":false,"is_disabled":false,"rental_uris":{"android":"levelo://app?vid=21a22bc7-65fe-4b97-a005-517b211a0b98","ios":"levelo://app?vid=21a22bc7-65fe-4b97-a005-517b211a0b98"},"vehicle_type_id":"4","last_reported":1753536216,"current_range_meters":10800,"station_id":"cpo3342slgdg3j2ifvpg","pricing_plan_id":"cebpf4jnsgd1na2vs0mg"},{"bike_id":"85979988-7a79-4c07-9659-edf62973cb36","system_id":"levelo_inurba_marseille","lat":43.255,"lon":5.37649,"is_reserved":false,"is_disabled":false,"rental_uris":{"android":"levelo://app?vid=85979988-7a79-4c07-9659-edf62973cb36","ios":"levelo://app?vid=85979988-7a79-4c07-9659-edf62973cb36"},"vehicle_type_id":"4","last_reported":1753536216,"current_range_meters":10800,"station_id":"ce4bhh12rcd13ifvqff0","pricing_plan_id":"cebpf4jnsgd1na2vs0mg"},{"bike_id":"4878cf6d-5d8c-46c7-9c7f-8504713d84db","system_id":"levelo_inurba_marseille","lat":43.31039,"lon":5.3837,"is_reserved":false,"is_disabled":false,"rental_uris":{"android":"levelo://app?vid=4878cf6d-5d8c-46c7-9c7f-8504713d84db","ios":"levelo://app?vid=4878cf6d-5d8c-46c7-9c7f-8504713d84db"},"vehicle_type_id":"4","last_reported":1753536216,"current_range_meters":10800,"station_id":"ce4bgv92rcd13ifvqcr0","pricing_plan_id":"cebpf4jnsgd1na2vs0mg"},{"bike_id":"0d7ff517-6c8f-456f-a741-3107bc697573","system_id":"levelo_inurba_marseille","lat":43.23192,"lon":5.3556,"is_reserved":false,"is_disabled":false,"rental_uris":{"android":"levelo://app?vid=0d7ff517-6c8f-456f-a741-3107bc697573","ios":"levelo://app?vid=0d7ff517-6c8f-456f-a741-3107bc697573"},"vehicle_type_id":"4","last_reported":1753536216,"current_range_meters":10800,"station_id":"ce4bhu92rcd13ifvqi70","pricing_plan_id":"cebpf4jnsgd1na2vs0mg"},{"bike_id":"3fbb154f-211c-415c-8fb8-99236a0ac36a","system_id":"levelo_inurba_marseille","lat":43.2808,"lon":5.39665,"is_reserved":false,"is_disabled":false,"rental_uris":{"android":"levelo://app?vid=3fbb154f-211c-415c-8fb8-99236a0ac36a","ios":"levelo://app?vid=3fbb154f-211c-415c-8fb8-99236a0ac36a"},"vehicle_type_id":"4","last_reported":1753536216,"current_range_meters":12800,"station_id":"ce4bho12rcd13ifvqh2g","pricing_plan_id":"cebpf4jnsgd1na2vs0mg"},{"bike_id":"935acb51-036f-448b-9cae-8f0ff5d785e1","system_id":"levelo_inurba_marseille","lat":43.28422,"lon":5.349762,"is_reserved":false,"is_disabled":false,"rental_uris":{"android":"levelo://app?vid=935acb51-036f-448b-9cae-8f0ff5d785e1","ios":"levelo://app?vid=935acb51-036f-448b-9cae-8f0ff5d785e1"},"vehicle_type_id":"4","last_reported":1753536216,"current_range_meters":11200,"station_id":"ce4bhbh2rcd13ifvqepg","pricing_plan_id":"cebpf4jnsgd1na2vs0mg"},{"bike_id":"22dca147-1260-44d8-822d-d9d1d50cce31","system_id":"levelo_inurba_marseille","lat":43.27432,"lon":5.39546,"is_reserved":false,"is_disabled":false,"rental_uris":{"android":"levelo://app?vid=22dca147-1260-44d8-822d-d9d1d50cce31","ios":"levelo://app?vid=22dca147-1260-44d8-822d-d9d1d50cce31"},"vehicle_type_id":"4","last_reported":1753536216,"current_range_meters":11200,"station_id":"","pricing_plan_id":"cebpf4jnsgd1na2vs0mg"},{"bike_id":"e70596fa-48c5-46a9-bcc0-4cdb9abb3d47","system_id":"levelo_inurba_marseille","lat":43.28712,"lon":5.399717,"is_reserved":false,"is_disabled":false,"rental_uris":{"android":"levelo://app?vid=e70596fa-48c5-46a9-bcc0-4cdb9abb3d47","ios":"levelo://app?vid=e70596fa-48c5-46a9-bcc0-4cdb9abb3d47"},"vehicle_type_id":"4","last_reported":1753536216,"current_range_meters":11200,"station_id":"ce4bho92rcd13ifvqh3g","pricing_plan_id":"cebpf4jnsgd1na2vs0mg"},{"bike_id":"75a52d90-a84e-49e8-9197-7fd3f8d0259a","system_id":"levelo_inurba_marseille","lat":43.26188,"lon":5.37491,"is_reserved":false,"is_disabled":true,"rental_uris":{"android":"levelo://app?vid=75a52d90-a84e-49e8-9197-7fd3f8d0259a","ios":"levelo://app?vid=75a52d90-a84e-49e8-9197-7fd3f8d0259a"},"vehicle_type_id":"4","last_reported":1753536216,"current_range_meters":11200,"station_id":"ce4bhgp2rcd13ifvqfc0","pricing_plan_id":"cebpf4jnsgd1na2vs0mg"},{"bike_id":"9bf50f85-8949-4801-9ad2-89784d6514ae","system_id":"levelo_inurba_marseille","lat":43.217462,"lon":5.346016,"is_reserved":false,"is_disabled":false,"rental_uris":{"android":"levelo://app?vid=9bf50f85-8949-4801-9ad2-89784d6514ae","ios":"levelo://app?vid=9bf50f85-8949-4801-9ad2-89784d6514ae"},"vehicle_type_id":"4","last_reported":1753536216,"current_range_meters":11200,"station_id":"st_cvj6r9ubvosntc0bgbag","pricing_plan_id":"cebpf4jnsgd1na2vs0mg"},{"bike_id":"9544e4af-ddbb-40e5-8c0e-4a2eb5fe872c","system_id":"levelo_inurba_marseille","lat":43.28171,"lon":5.42624,"is_reserved":false,"is_disabled":false,"rental_uris":{"android":"levelo://app?vid=9544e4af-ddbb-40e5-8c0e-4a2eb5fe872c","ios":"levelo://app?vid=9544e4af-ddbb-40e5-8c0e-4a2eb5fe872c"},"vehicle_type_id":"4","last_reported":1753536216,"current_range_meters":11200,"station_id":"ce4bhnh2rcd13ifvqgug","pricing_plan_id":"cebpf4jnsgd1na2vs0mg"},{"bike_id":"4e0475f8-4ae4-4415-b32c-17edb02bf31b","system_id":"levelo_inurba_marseille","lat":43.29598,"lon":5.38106,"is_reserved":false,"is_disabled":false,"rental_uris":{"android":"levelo://app?vid=4e0475f8-4ae4-4415-b32c-17edb02bf31b","ios":"levelo://app?vid=4e0475f8-4ae4-4415-b32c-17edb02bf31b"},"vehicle_type_id":"4","last_reported":1753536216,"current_range_meters":11200,"station_id":"ce4bgl12rcd13ifvqbo0","pricing_plan_id":"cebpf4jnsgd1na2vs0mg"},{"bike_id":"d71256af-7c49-4efe-8c31-b72aad937c55","system_id":"levelo_inurba_marseille","lat":43.2694,"lon":5.38916,"is_reserved":false,"is_disabled":false,"rental_uris":{"android":"levelo://app?vid=d71256af-7c49-4efe-8c31-b72aad937c55","ios":"levelo://app?vid=d71256af-7c49-4efe-8c31-b72aad937c55"},"vehicle_type_id":"4","last_reported":1753536216,"current_range_meters":11200,"station_id":"ce4bhhh2rcd13ifvqfl0","pricing_plan_id":"cebpf4jnsgd1na2vs0mg"},{"bike_id":"e41acfd2-50dd-41a7-861d-9c8fa0d05479","system_id":"levelo_inurba_marseille","lat":43.23197,"lon":5.35546,"is_reserved":false,"is_disabled":false,"rental_uris":{"android":"levelo://app?vid=e41acfd2-50dd-41a7-861d-9c8fa0d05479","ios":"levelo://app?vid=e41acfd2-50dd-41a7-861d-9c8fa0d05479"},"vehicle_type_id":"4","last_reported":1753536216,"current_range_meters":11600,"station_id":"ce4bhu92rcd13ifvqi70","pricing_plan_id":"cebpf4jnsgd1na2vs0mg"},{"bike_id":"ec74f06a-40dc-4c39-a0cb-57d6f568a4e5","system_id":"levelo_inurba_marseille","lat":43.22922,"lon":5.35377,"is_reserved":false,"is_disabled":false,"rental_uris":{"android":"levelo://app?vid=ec74f06a-40dc-4c39-a0cb-57d6f568a4e5","ios":"levelo://app?vid=ec74f06a-40dc-4c39-a0cb-57d6f568a4e5"},"vehicle_type_id":"4","last_reported":1753536216,"current_range_meters":11600,"station_id":"cpo3532slgdg3j2ikp40","pricing_plan_id":"cebpf4jnsgd1na2vs0mg"},{"bike_id":"7f3f69ba-79ce-4c79-91ca-b8b9716f757e","system_id":"levelo_inurba_marseille","lat":43.23189,"lon":5.35553,"is_reserved":false,"is_disabled":false,"rental_uris":{"android":"levelo://app?vid=7f3f69ba-79ce-4c79-91ca-b8b9716f757e","ios":"levelo://app?vid=7f3f69ba-79ce-4c79-91ca-b8b9716f757e"},"vehicle_type_id":"4","last_reported":1753536216,"current_range_meters":12000,"station_id":"ce4bhu92rcd13ifvqi70","pricing_plan_id":"cebpf4jnsgd1na2vs0mg"},{"bike_id":"2551aeb9-d478-4559-97a6-036ce08c7df0","system_id":"levelo_inurba_marseille","lat":43.284187,"lon":5.349946,"is_reserved":false,"is_disabled":false,"rental_uris":{"android":"levelo://app?vid=2551aeb9-d478-4559-97a6-036ce08c7df0","ios":"levelo://app?vid=2551aeb9-d478-4559-97a6-036ce08c7df0"},"vehicle_type_id":"4","last_reported":1753536216,"current_range_meters":12000,"station_id":"ce4bhbh2rcd13ifvqepg","pricing_plan_id":"cebpf4jnsgd1na2vs0mg"},{"bike_id":"54e08407-c063-4919-a683-35991220deaf","system_id":"levelo_inurba_marseille","lat":43.26557,"lon":5.37277,"is_reserved":false,"is_disabled":false,"rental_uris":{"android":"levelo://app?vid=54e08407-c063-4919-a683-35991220deaf","ios":"levelo://app?vid=54e08407-c063-4919-a683-35991220deaf"},"vehicle_type_id":"4","last_reported":1753536216,"current_range_meters":12000,"station_id":"ce4bhg12rcd13ifvqf70","pricing_plan_id":"cebpf4jnsgd1na2vs0mg"},{"bike_id":"6a5be0da-2bbd-443f-9885-a9d470c4f603","system_id":"levelo_inurba_marseille","lat":43.24167,"lon":5.36402,"is_reserved":false,"is_disabled":false,"rental_uris":{"android":"levelo://app?vid=6a5be0da-2bbd-443f-9885-a9d470c4f603","ios":"levelo://app?vid=6a5be0da-2bbd-443f-9885-a9d470c4f603"},"vehicle_type_id":"4","last_reported":1753536216,"current_range_meters":12000,"station_id":"cpo36qri1sfpv3e86is0","pricing_plan_id":"cebpf4jnsgd1na2vs0mg"},{"bike_id":"680df436-f3be-43ec-b0e0-c5dd85768a73","system_id":"levelo_inurba_marseille","lat":43.286584,"lon":5.363435,"is_reserved":false,"is_disabled":false,"rental_uris":{"android":"levelo://app?vid=680df436-f3be-43ec-b0e0-c5dd85768a73","ios":"levelo://app?vid=680df436-f3be-43ec-b0e0-c5dd85768a73"},"vehicle_type_id":"4","last_reported":1753536216,"current_range_meters":12000,"station_id":"ce4bhah2rcd13ifvqej0","pricing_plan_id":"cebpf4jnsgd1na2vs0mg"},{"bike_id":"6ab0b13c-2ff1-417a-acfd-489d6800d4c9","system_id":"levelo_inurba_marseille","lat":43.273768,"lon":5.362488,"is_reserved":false,"is_disabled":true,"rental_uris":{"android":"levelo://app?vid=6ab0b13c-2ff1-417a-acfd-489d6800d4c9","ios":"levelo://app?vid=6ab0b13c-2ff1-417a-acfd-489d6800d4c9"},"vehicle_type_id":"4","last_reported":1753536216,"current_range_meters":12000,"station_id":"ce4bhbh2rcd13ifvqeo0","pricing_plan_id":"cebpf4jnsgd1na2vs0mg"},{"bike_id":"847b44c9-efab-4746-8937-dcebf1206fff","system_id":"levelo_inurba_marseille","lat":43.26201,"lon":5.37437,"is_reserved":false,"is_disabled":false,"rental_uris":{"android":"levelo://app?vid=847b44c9-efab-4746-8937-dcebf1206fff","ios":"levelo://app?vid=847b44c9-efab-4746-8937-dcebf1206fff"},"vehicle_type_id":"4","last_reported":1753536216,"current_range_meters":12400,"station_id":"ce4bhgp2rcd13ifvqfc0","pricing_plan_id":"cebpf4jnsgd1na2vs0mg"},{"bike_id":"de99b14c-9afd-4bdd-bc56-50354c110c3d","system_id":"levelo_inurba_marseille","lat":43.25467,"lon":5.37687,"is_reserved":false,"is_disabled":false,"rental_uris":{"android":"levelo://app?vid=de99b14c-9afd-4bdd-bc56-50354c110c3d","ios":"levelo://app?vid=de99b14c-9afd-4bdd-bc56-50354c110c3d"},"vehicle_type_id":"4","last_reported":1753536216,"current_range_meters":12400,"station_id":"","pricing_plan_id":"cebpf4jnsgd1na2vs0mg"},{"bike_id":"dc3a4d4f-0ca4-4de4-9346-d5393a940ecb","system_id":"levelo_inurba_marseille","lat":43.278134,"lon":5.40711,"is_reserved":false,"is_disabled":false,"rental_uris":{"android":"levelo://app?vid=dc3a4d4f-0ca4-4de4-9346-d5393a940ecb","ios":"levelo://app?vid=dc3a4d4f-0ca4-4de4-9346-d5393a940ecb"},"vehicle_type_id":"4","last_reported":1753536216,"current_range_meters":12400,"station_id":"ce4bhnh2rcd13ifvqgtg","pricing_plan_id":"cebpf4jnsgd1na2vs0mg"},{"bike_id":"74bf7fc0-faa6-4f2d-8068-0b2ee47a2198","system_id":"levelo_inurba_marseille","lat":43.2731,"lon":5.39082,"is_reserved":false,"is_disabled":false,"rental_uris":{"android":"levelo://app?vid=74bf7fc0-faa6-4f2d-8068-0b2ee47a2198","ios":"levelo://app?vid=74bf7fc0-faa6-4f2d-8068-0b2ee47a2198"},"vehicle_type_id":"4","last_reported":1753536216,"current_range_meters":12000,"station_id":"ce4bhgp2rcd13ifvqfe0","pricing_plan_id":"cebpf4jnsgd1na2vs0mg"},{"bike_id":"dfd15e87-c93b-44ef-ba3f-cfefb16f7932","system_id":"levelo_inurba_marseille","lat":43.25114,"lon":5.40319,"is_reserved":false,"is_disabled":false,"rental_uris":{"android":"levelo://app?vid=dfd15e87-c93b-44ef-ba3f-cfefb16f7932","ios":"levelo://app?vid=dfd15e87-c93b-44ef-ba3f-cfefb16f7932"},"vehicle_type_id":"4","last_reported":1753536216,"current_range_meters":12000,"station_id":"ce4bhlh2rcd13ifvqgig","pricing_plan_id":"cebpf4jnsgd1na2vs0mg"},{"bike_id":"6070b287-ba72-4b04-8e31-29269d5dd36d","system_id":"levelo_inurba_marseille","lat":43.24082,"lon":5.37749,"is_reserved":false,"is_disabled":false,"rental_uris":{"android":"levelo://app?vid=6070b287-ba72-4b04-8e31-29269d5dd36d","ios":"levelo://app?vid=6070b287-ba72-4b04-8e31-29269d5dd36d"},"vehicle_type_id":"4","last_reported":1753536216,"current_range_meters":12400,"station_id":"ce4bhnp2rcd13ifvqgvg","pricing_plan_id":"cebpf4jnsgd1na2vs0mg"},{"bike_id":"52ab5c39-672c-46f9-9a93-deba3d438e8e","system_id":"levelo_inurba_marseille","lat":43.28397,"lon":5.35013,"is_reserved":false,"is_disabled":false,"rental_uris":{"android":"levelo://app?vid=52ab5c39-672c-46f9-9a93-deba3d438e8e","ios":"levelo://app?vid=52ab5c39-672c-46f9-9a93-deba3d438e8e"},"vehicle_type_id":"4","last_reported":1753536216,"current_range_meters":12400,"station_id":"ce4bhbh2rcd13ifvqepg","pricing_plan_id":"cebpf4jnsgd1na2vs0mg"},{"bike_id":"04ce80ca-6b2d-4c09-9d0c-6d8f91911ee6","system_id":"levelo_inurba_marseille","lat":43.21749,"lon":5.34606,"is_reserved":false,"is_disabled":false,"rental_uris":{"android":"levelo://app?vid=04ce80ca-6b2d-4c09-9d0c-6d8f91911ee6","ios":"levelo://app?vid=04ce80ca-6b2d-4c09-9d0c-6d8f91911ee6"},"vehicle_type_id":"4","last_reported":1753536216,"current_range_meters":12400,"station_id":"st_cvj6r9ubvosntc0bgbag","pricing_plan_id":"cebpf4jnsgd1na2vs0mg"},{"bike_id":"57755280-973c-4ff3-9c25-8f15e2c5b510","system_id":"levelo_inurba_marseille","lat":43.31872,"lon":5.37373,"is_reserved":false,"is_disabled":false,"rental_uris":{"android":"levelo://app?vid=57755280-973c-4ff3-9c25-8f15e2c5b510","ios":"levelo://app?vid=57755280-973c-4ff3-9c25-8f15e2c5b510"},"vehicle_type_id":"4","last_reported":1753536216,"current_range_meters":12400,"station_id":"","pricing_plan_id":"cebpf4jnsgd1na2vs0mg"},{"bike_id":"4bf3130e-fa2e-4204-821a-903bdea92ef3","system_id":"levelo_inurba_marseille","lat":43.2841,"lon":5.34981,"is_reserved":false,"is_disabled":false,"rental_uris":{"android":"levelo://app?vid=4bf3130e-fa2e-4204-821a-903bdea92ef3","ios":"levelo://app?vid=4bf3130e-fa2e-4204-821a-903bdea92ef3"},"vehicle_type_id":"4","last_reported":1753536216,"current_range_meters":12400,"station_id":"ce4bhbh2rcd13ifvqepg","pricing_plan_id":"cebpf4jnsgd1na2vs0mg"},{"bike_id":"7937f471-dcc0-4727-896c-b6f4f4a0c96e","system_id":"levelo_inurba_marseille","lat":43.27542,"lon":5.38443,"is_reserved":false,"is_disabled":false,"rental_uris":{"android":"levelo://app?vid=7937f471-dcc0-4727-896c-b6f4f4a0c96e","ios":"levelo://app?vid=7937f471-dcc0-4727-896c-b6f4f4a0c96e"},"vehicle_type_id":"4","last_reported":1753536216,"current_range_meters":12400,"station_id":"ce4bhh92rcd13ifvqfi0","pricing_plan_id":"cebpf4jnsgd1na2vs0mg"},{"bike_id":"f2c0d178-a474-46a0-b002-379a7a30c411","system_id":"levelo_inurba_marseille","lat":43.29406,"lon":5.37619,"is_reserved":false,"is_disabled":false,"rental_uris":{"android":"levelo://app?vid=f2c0d178-a474-46a0-b002-379a7a30c411","ios":"levelo://app?vid=f2c0d178-a474-46a0-b002-379a7a30c411"},"vehicle_type_id":"4","last_reported":1753536216,"current_range_meters":12800,"station_id":"","pricing_plan_id":"cebpf4jnsgd1na2vs0mg"},{"bike_id":"09b7f600-cb1e-4ea0-adc2-9c3dcb778794","system_id":"levelo_inurba_marseille","lat":43.225025,"lon":5.347913,"is_reserved":false,"is_disabled":false,"rental_uris":{"android":"levelo://app?vid=09b7f600-cb1e-4ea0-adc2-9c3dcb778794","ios":"levelo://app?vid=09b7f600-cb1e-4ea0-adc2-9c3dcb778794"},"vehicle_type_id":"4","last_reported":1753536216,"current_range_meters":12800,"station_id":"st_cvj5dfep6f1abm77gieg","pricing_plan_id":"cebpf4jnsgd1na2vs0mg"},{"bike_id":"7f7a4770-cb44-4cbe-afee-f7531a238fa9","system_id":"levelo_inurba_marseille","lat":43.225024,"lon":5.347911,"is_reserved":false,"is_disabled":false,"rental_uris":{"android":"levelo://app?vid=7f7a4770-cb44-4cbe-afee-f7531a238fa9","ios":"levelo://app?vid=7f7a4770-cb44-4cbe-afee-f7531a238fa9"},"vehicle_type_id":"4","last_reported":1753536216,"current_range_meters":12800,"station_id":"st_cvj5dfep6f1abm77gieg","pricing_plan_id":"cebpf4jnsgd1na2vs0mg"},{"bike_id":"b5aab1b5-818a-4dfd-b7ae-70df5639e329","system_id":"levelo_inurba_marseille","lat":43.27059,"lon":5.42286,"is_reserved":false,"is_disabled":false,"rental_uris":{"android":"levelo://app?vid=b5aab1b5-818a-4dfd-b7ae-70df5639e329","ios":"levelo://app?vid=b5aab1b5-818a-4dfd-b7ae-70df5639e329"},"vehicle_type_id":"4","last_reported":1753536216,"current_range_meters":12800,"station_id":"ce4bhk92rcd13ifvqgb0","pricing_plan_id":"cebpf4jnsgd1na2vs0mg"},{"bike_id":"33db6d5b-a81c-4e98-9f09-b2c61c9ef915","system_id":"levelo_inurba_marseille","lat":43.27312,"lon":5.39076,"is_reserved":false,"is_disabled":false,"rental_uris":{"android":"levelo://app?vid=33db6d5b-a81c-4e98-9f09-b2c61c9ef915","ios":"levelo://app?vid=33db6d5b-a81c-4e98-9f09-b2c61c9ef915"},"vehicle_type_id":"4","last_reported":1753536216,"current_range_meters":12800,"station_id":"ce4bhgp2rcd13ifvqfe0","pricing_plan_id":"cebpf4jnsgd1na2vs0mg"},{"bike_id":"9bff4c30-7d52-4173-88ba-afd3702b54f6","system_id":"levelo_inurba_marseille","lat":43.27984,"lon":5.41653,"is_reserved":false,"is_disabled":false,"rental_uris":{"android":"levelo://app?vid=9bff4c30-7d52-4173-88ba-afd3702b54f6","ios":"levelo://app?vid=9bff4c30-7d52-4173-88ba-afd3702b54f6"},"vehicle_type_id":"4","last_reported":1753536216,"current_range_meters":12800,"station_id":"ce4bho12rcd13ifvqh1g","pricing_plan_id":"cebpf4jnsgd1na2vs0mg"},{"bike_id":"1855cbe1-5a05-480e-9057-6e9b3976dbbe","system_id":"levelo_inurba_marseille","lat":43.33735,"lon":5.39183,"is_reserved":false,"is_disabled":false,"rental_uris":{"android":"levelo://app?vid=1855cbe1-5a05-480e-9057-6e9b3976dbbe","ios":"levelo://app?vid=1855cbe1-5a05-480e-9057-6e9b3976dbbe"},"vehicle_type_id":"4","last_reported":1753536216,"current_range_meters":12800,"station_id":"ce4bhr92rcd13ifvqhsg","pricing_plan_id":"cebpf4jnsgd1na2vs0mg"},{"bike_id":"38ab9f3b-fe76-4f47-bf05-e3ca256156a4","system_id":"levelo_inurba_marseille","lat":43.28413,"lon":5.34999,"is_reserved":false,"is_disabled":false,"rental_uris":{"android":"levelo://app?vid=38ab9f3b-fe76-4f47-bf05-e3ca256156a4","ios":"levelo://app?vid=38ab9f3b-fe76-4f47-bf05-e3ca256156a4"},"vehicle_type_id":"4","last_reported":1753536216,"current_range_meters":12800,"station_id":"ce4bhbh2rcd13ifvqepg","pricing_plan_id":"cebpf4jnsgd1na2vs0mg"},{"bike_id":"194328fb-5be0-4693-b29b-d2d0d0db34a7","system_id":"levelo_inurba_marseille","lat":43.305476,"lon":5.366924,"is_reserved":false,"is_disabled":false,"rental_uris":{"android":"levelo://app?vid=194328fb-5be0-4693-b29b-d2d0d0db34a7","ios":"levelo://app?vid=194328fb-5be0-4693-b29b-d2d0d0db34a7"},"vehicle_type_id":"4","last_reported":1753536216,"current_range_meters":12400,"station_id":"ce4bgrp2rcd13ifvqc9g","pricing_plan_id":"cebpf4jnsgd1na2vs0mg"},{"bike_id":"c66c8bd6-aa27-4959-9437-34522b8c498b","system_id":"levelo_inurba_marseille","lat":43.284051,"lon":5.349761,"is_reserved":false,"is_disabled":false,"rental_uris":{"android":"levelo://app?vid=c66c8bd6-aa27-4959-9437-34522b8c498b","ios":"levelo://app?vid=c66c8bd6-aa27-4959-9437-34522b8c498b"},"vehicle_type_id":"4","last_reported":1753536216,"current_range_meters":12800,"station_id":"ce4bhbh2rcd13ifvqepg","pricing_plan_id":"cebpf4jnsgd1na2vs0mg"},{"bike_id":"b7375410-01ab-45f9-a65f-6e214e4ed86d","system_id":"levelo_inurba_marseille","lat":43.2842,"lon":5.34973,"is_reserved":false,"is_disabled":false,"rental_uris":{"android":"levelo://app?vid=b7375410-01ab-45f9-a65f-6e214e4ed86d","ios":"levelo://app?vid=b7375410-01ab-45f9-a65f-6e214e4ed86d"},"vehicle_type_id":"4","last_reported":1753536216,"current_range_meters":12800,"station_id":"ce4bhbh2rcd13ifvqepg","pricing_plan_id":"cebpf4jnsgd1na2vs0mg"},{"bike_id":"09447d92-0522-480e-b6b5-24959949ccf9","system_id":"levelo_inurba_marseille","lat":43.32411,"lon":5.36816,"is_reserved":false,"is_disabled":false,"rental_uris":{"android":"levelo://app?vid=09447d92-0522-480e-b6b5-24959949ccf9","ios":"levelo://app?vid=09447d92-0522-480e-b6b5-24959949ccf9"},"vehicle_type_id":"4","last_reported":1753536216,"current_range_meters":13600,"station_id":"","pricing_plan_id":"cebpf4jnsgd1na2vs0mg"},{"bike_id":"766301c8-b8c9-4bae-857c-71597b317848","system_id":"levelo_inurba_marseille","lat":43.260181,"lon":5.375502,"is_reserved":false,"is_disabled":false,"rental_uris":{"android":"levelo://app?vid=766301c8-b8c9-4bae-857c-71597b317848","ios":"levelo://app?vid=766301c8-b8c9-4bae-857c-71597b317848"},"vehicle_type_id":"4","last_reported":1753536216,"current_range_meters":13600,"station_id":"ce4bhgh2rcd13ifvqfa0","pricing_plan_id":"cebpf4jnsgd1na2vs0mg"},{"bike_id":"2ade6873-7b07-44c8-8ff1-b13bb680187f","system_id":"levelo_inurba_marseille","lat":43.217417,"lon":5.345968,"is_reserved":false,"is_disabled":false,"rental_uris":{"android":"levelo://app?vid=2ade6873-7b07-44c8-8ff1-b13bb680187f","ios":"levelo://app?vid=2ade6873-7b07-44c8-8ff1-b13bb680187f"},"vehicle_type_id":"4","last_reported":1753536216,"current_range_meters":13600,"station_id":"st_cvj6r9ubvosntc0bgbag","pricing_plan_id":"cebpf4jnsgd1na2vs0mg"},{"bike_id":"f9132ae1-6ae2-4272-b24a-43c4aace7eb6","system_id":"levelo_inurba_marseille","lat":43.31231,"lon":5.40187,"is_reserved":false,"is_disabled":false,"rental_uris":{"android":"levelo://app?vid=f9132ae1-6ae2-4272-b24a-43c4aace7eb6","ios":"levelo://app?vid=f9132ae1-6ae2-4272-b24a-43c4aace7eb6"},"vehicle_type_id":"4","last_reported":1753536216,"current_range_meters":13600,"station_id":"ce4bh092rcd13ifvqd30","pricing_plan_id":"cebpf4jnsgd1na2vs0mg"},{"bike_id":"f812d335-5f13-4955-b1a9-1690a0225f31","system_id":"levelo_inurba_marseille","lat":43.22506,"lon":5.34781,"is_reserved":false,"is_disabled":false,"rental_uris":{"android":"levelo://app?vid=f812d335-5f13-4955-b1a9-1690a0225f31","ios":"levelo://app?vid=f812d335-5f13-4955-b1a9-1690a0225f31"},"vehicle_type_id":"4","last_reported":1753536216,"current_range_meters":14000,"station_id":"st_cvj5dfep6f1abm77gieg","pricing_plan_id":"cebpf4jnsgd1na2vs0mg"},{"bike_id":"267abc53-7023-4eb0-85c9-680aefb0812a","system_id":"levelo_inurba_marseille","lat":43.23056,"lon":5.3549,"is_reserved":false,"is_disabled":false,"rental_uris":{"android":"levelo://app?vid=267abc53-7023-4eb0-85c9-680aefb0812a","ios":"levelo://app?vid=267abc53-7023-4eb0-85c9-680aefb0812a"},"vehicle_type_id":"4","last_reported":1753536216,"current_range_meters":13600,"station_id":"cpo3342slgdg3j2ifvpg","pricing_plan_id":"cebpf4jnsgd1na2vs0mg"},{"bike_id":"9d449864-25e6-43e9-9180-fe84d0eacf29","system_id":"levelo_inurba_marseille","lat":43.26226,"lon":5.4045,"is_reserved":false,"is_disabled":false,"rental_uris":{"android":"levelo://app?vid=9d449864-25e6-43e9-9180-fe84d0eacf29","ios":"levelo://app?vid=9d449864-25e6-43e9-9180-fe84d0eacf29"},"vehicle_type_id":"4","last_reported":1753536216,"current_range_meters":14000,"station_id":"ce4bhmh2rcd13ifvqgmg","pricing_plan_id":"cebpf4jnsgd1na2vs0mg"},{"bike_id":"46d980cb-fc0a-46b1-9313-fb55ce198a89","system_id":"levelo_inurba_marseille","lat":43.28414,"lon":5.3499,"is_reserved":false,"is_disabled":false,"rental_uris":{"android":"levelo://app?vid=46d980cb-fc0a-46b1-9313-fb55ce198a89","ios":"levelo://app?vid=46d980cb-fc0a-46b1-9313-fb55ce198a89"},"vehicle_type_id":"4","last_reported":1753536216,"current_range_meters":14000,"station_id":"ce4bhbh2rcd13ifvqepg","pricing_plan_id":"cebpf4jnsgd1na2vs0mg"},{"bike_id":"1b38e58d-b2c1-48ba-932b-6d56678617cf","system_id":"levelo_inurba_marseille","lat":43.29175,"lon":5.36653,"is_reserved":false,"is_disabled":false,"rental_uris":{"android":"levelo://app?vid=1b38e58d-b2c1-48ba-932b-6d56678617cf","ios":"levelo://app?vid=1b38e58d-b2c1-48ba-932b-6d56678617cf"},"vehicle_type_id":"4","last_reported":1753536216,"current_range_meters":14000,"station_id":"","pricing_plan_id":"cebpf4jnsgd1na2vs0mg"},{"bike_id":"328c7dc3-0b6d-49b6-84dd-def78f21d364","system_id":"levelo_inurba_marseille","lat":43.21743,"lon":5.34606,"is_reserved":false,"is_disabled":false,"rental_uris":{"android":"levelo://app?vid=328c7dc3-0b6d-49b6-84dd-def78f21d364","ios":"levelo://app?vid=328c7dc3-0b6d-49b6-84dd-def78f21d364"},"vehicle_type_id":"4","last_reported":1753536216,"current_range_meters":14000,"station_id":"st_cvj6r9ubvosntc0bgbag","pricing_plan_id":"cebpf4jnsgd1na2vs0mg"},{"bike_id":"dc9e1c82-30cc-40d0-b96b-43aa21b80cfe","system_id":"levelo_inurba_marseille","lat":43.225162,"lon":5.347807,"is_reserved":false,"is_disabled":false,"rental_uris":{"android":"levelo://app?vid=dc9e1c82-30cc-40d0-b96b-43aa21b80cfe","ios":"levelo://app?vid=dc9e1c82-30cc-40d0-b96b-43aa21b80cfe"},"vehicle_type_id":"4","last_reported":1753536216,"current_range_meters":14000,"station_id":"st_cvj5dfep6f1abm77gieg","pricing_plan_id":"cebpf4jnsgd1na2vs0mg"},{"bike_id":"93e433f5-e603-4786-a8c0-0491a648975b","system_id":"levelo_inurba_marseille","lat":43.296,"lon":5.37727,"is_reserved":false,"is_disabled":false,"rental_uris":{"android":"levelo://app?vid=93e433f5-e603-4786-a8c0-0491a648975b","ios":"levelo://app?vid=93e433f5-e603-4786-a8c0-0491a648975b"},"vehicle_type_id":"4","last_reported":1753536216,"current_range_meters":14000,"station_id":"ce4bgi92rcd13ifvqb90","pricing_plan_id":"cebpf4jnsgd1na2vs0mg"},{"bike_id":"7f38d1c8-97bb-4e0c-94ad-7914bc611118","system_id":"levelo_inurba_marseille","lat":43.28981,"lon":5.37836,"is_reserved":false,"is_disabled":false,"rental_uris":{"android":"levelo://app?vid=7f38d1c8-97bb-4e0c-94ad-7914bc611118","ios":"levelo://app?vid=7f38d1c8-97bb-4e0c-94ad-7914bc611118"},"vehicle_type_id":"4","last_reported":1753536216,"current_range_meters":14400,"station_id":"ce4bh9p2rcd13ifvqed0","pricing_plan_id":"cebpf4jnsgd1na2vs0mg"},{"bike_id":"bcecfa91-8dbc-47f6-9414-641338845034","system_id":"levelo_inurba_marseille","lat":43.27385,"lon":5.36262,"is_reserved":false,"is_disabled":false,"rental_uris":{"android":"levelo://app?vid=bcecfa91-8dbc-47f6-9414-641338845034","ios":"levelo://app?vid=bcecfa91-8dbc-47f6-9414-641338845034"},"vehicle_type_id":"4","last_reported":1753536216,"current_range_meters":14400,"station_id":"ce4bhbh2rcd13ifvqeo0","pricing_plan_id":"cebpf4jnsgd1na2vs0mg"},{"bike_id":"c3c2652b-f2d7-4ed4-89ec-9559feb01451","system_id":"levelo_inurba_marseille","lat":43.29226,"lon":5.360481,"is_reserved":false,"is_disabled":true,"rental_uris":{"android":"levelo://app?vid=c3c2652b-f2d7-4ed4-89ec-9559feb01451","ios":"levelo://app?vid=c3c2652b-f2d7-4ed4-89ec-9559feb01451"},"vehicle_type_id":"4","last_reported":1753536216,"current_range_meters":14400,"station_id":"ce4bhbh2rcd13ifvqeqg","pricing_plan_id":"cebpf4jnsgd1na2vs0mg"},{"bike_id":"c6915c61-c527-41d7-94a1-fe033235465a","system_id":"levelo_inurba_marseille","lat":43.28002,"lon":5.40007,"is_reserved":false,"is_disabled":false,"rental_uris":{"android":"levelo://app?vid=c6915c61-c527-41d7-94a1-fe033235465a","ios":"levelo://app?vid=c6915c61-c527-41d7-94a1-fe033235465a"},"vehicle_type_id":"4","last_reported":1753536216,"current_range_meters":14400,"station_id":"ce4bho92rcd13ifvqh4g","pricing_plan_id":"cebpf4jnsgd1na2vs0mg"},{"bike_id":"ce9bc326-53f7-413d-a2f9-a2b1ec0eb612","system_id":"levelo_inurba_marseille","lat":43.30777,"lon":5.37651,"is_reserved":false,"is_disabled":false,"rental_uris":{"android":"levelo://app?vid=ce9bc326-53f7-413d-a2f9-a2b1ec0eb612","ios":"levelo://app?vid=ce9bc326-53f7-413d-a2f9-a2b1ec0eb612"},"vehicle_type_id":"4","last_reported":1753536216,"current_range_meters":14400,"station_id":"ce4bgv92rcd13ifvqcq0","pricing_plan_id":"cebpf4jnsgd1na2vs0mg"},{"bike_id":"6094ec11-6f2d-46bd-9ffa-7bbcdeec7b16","system_id":"levelo_inurba_marseille","lat":43.30935,"lon":5.40138,"is_reserved":false,"is_disabled":false,"rental_uris":{"android":"levelo://app?vid=6094ec11-6f2d-46bd-9ffa-7bbcdeec7b16","ios":"levelo://app?vid=6094ec11-6f2d-46bd-9ffa-7bbcdeec7b16"},"vehicle_type_id":"4","last_reported":1753536216,"current_range_meters":14400,"station_id":"","pricing_plan_id":"cebpf4jnsgd1na2vs0mg"},{"bike_id":"47538a8a-4241-450e-9f5d-ab1be9c2b26b","system_id":"levelo_inurba_marseille","lat":43.29282,"lon":5.36843,"is_reserved":false,"is_disabled":false,"rental_uris":{"android":"levelo://app?vid=47538a8a-4241-450e-9f5d-ab1be9c2b26b","ios":"levelo://app?vid=47538a8a-4241-450e-9f5d-ab1be9c2b26b"},"vehicle_type_id":"4","last_reported":1753536216,"current_range_meters":14800,"station_id":"ce4bhbp2rcd13ifvqesg","pricing_plan_id":"cebpf4jnsgd1na2vs0mg"},{"bike_id":"32a1c71b-3855-4f92-b74d-223f7ab96955","system_id":"levelo_inurba_marseille","lat":43.305325,"lon":5.365455,"is_reserved":false,"is_disabled":false,"rental_uris":{"android":"levelo://app?vid=32a1c71b-3855-4f92-b74d-223f7ab96955","ios":"levelo://app?vid=32a1c71b-3855-4f92-b74d-223f7ab96955"},"vehicle_type_id":"4","last_reported":1753536216,"current_range_meters":14800,"station_id":"ce4bgs12rcd13ifvqcag","pricing_plan_id":"cebpf4jnsgd1na2vs0mg"},{"bike_id":"e8dde99c-6ecf-4e63-9ffc-47ebe879a97f","system_id":"levelo_inurba_marseille","lat":43.290311,"lon":5.399895,"is_reserved":false,"is_disabled":false,"rental_uris":{"android":"levelo://app?vid=e8dde99c-6ecf-4e63-9ffc-47ebe879a97f","ios":"levelo://app?vid=e8dde99c-6ecf-4e63-9ffc-47ebe879a97f"},"vehicle_type_id":"4","last_reported":1753536216,"current_range_meters":14800,"station_id":"ce4bh392rcd13ifvqdm0","pricing_plan_id":"cebpf4jnsgd1na2vs0mg"},{"bike_id":"ff2bd6cf-31b0-4eec-b291-6d5b6a717e0f","system_id":"levelo_inurba_marseille","lat":43.21754,"lon":5.34594,"is_reserved":false,"is_disabled":false,"rental_uris":{"android":"levelo://app?vid=ff2bd6cf-31b0-4eec-b291-6d5b6a717e0f","ios":"levelo://app?vid=ff2bd6cf-31b0-4eec-b291-6d5b6a717e0f"},"vehicle_type_id":"4","last_reported":1753536216,"current_range_meters":14800,"station_id":"st_cvj6r9ubvosntc0bgbag","pricing_plan_id":"cebpf4jnsgd1na2vs0mg"},{"bike_id":"bdc8ef21-146d-46ff-9c91-249dba0037c7","system_id":"levelo_inurba_marseille","lat":43.22927,"lon":5.35373,"is_reserved":false,"is_disabled":false,"rental_uris":{"android":"levelo://app?vid=bdc8ef21-146d-46ff-9c91-249dba0037c7","ios":"levelo://app?vid=bdc8ef21-146d-46ff-9c91-249dba0037c7"},"vehicle_type_id":"4","last_reported":1753536216,"current_range_meters":15200,"station_id":"cpo3532slgdg3j2ikp40","pricing_plan_id":"cebpf4jnsgd1na2vs0mg"},{"bike_id":"7d222e0c-2249-4ecc-a29a-2718146ba132","system_id":"levelo_inurba_marseille","lat":43.27374,"lon":5.36258,"is_reserved":false,"is_disabled":false,"rental_uris":{"android":"levelo://app?vid=7d222e0c-2249-4ecc-a29a-2718146ba132","ios":"levelo://app?vid=7d222e0c-2249-4ecc-a29a-2718146ba132"},"vehicle_type_id":"4","last_reported":1753536216,"current_range_meters":15200,"station_id":"ce4bhbh2rcd13ifvqeo0","pricing_plan_id":"cebpf4jnsgd1na2vs0mg"},{"bike_id":"5682cfa4-8758-483b-acb6-83d447f43896","system_id":"levelo_inurba_marseille","lat":43.29001,"lon":5.35616,"is_reserved":false,"is_disabled":false,"rental_uris":{"android":"levelo://app?vid=5682cfa4-8758-483b-acb6-83d447f43896","ios":"levelo://app?vid=5682cfa4-8758-483b-acb6-83d447f43896"},"vehicle_type_id":"4","last_reported":1753536216,"current_range_meters":15200,"station_id":"ce4bhb92rcd13ifvqen0","pricing_plan_id":"cebpf4jnsgd1na2vs0mg"},{"bike_id":"df2d85b2-8956-48c3-a002-dd2097f251e5","system_id":"levelo_inurba_marseille","lat":43.24072,"lon":5.3776,"is_reserved":false,"is_disabled":false,"rental_uris":{"android":"levelo://app?vid=df2d85b2-8956-48c3-a002-dd2097f251e5","ios":"levelo://app?vid=df2d85b2-8956-48c3-a002-dd2097f251e5"},"vehicle_type_id":"4","last_reported":1753536216,"current_range_meters":15200,"station_id":"ce4bhnp2rcd13ifvqgvg","pricing_plan_id":"cebpf4jnsgd1na2vs0mg"},{"bike_id":"7254aad9-4b7a-44b4-89bb-4f6b7cb10520","system_id":"levelo_inurba_marseille","lat":43.26065,"lon":5.39393,"is_reserved":false,"is_disabled":false,"rental_uris":{"android":"levelo://app?vid=7254aad9-4b7a-44b4-89bb-4f6b7cb10520","ios":"levelo://app?vid=7254aad9-4b7a-44b4-89bb-4f6b7cb10520"},"vehicle_type_id":"4","last_reported":1753536216,"current_range_meters":15200,"station_id":"ce4bhh92rcd13ifvqfj0","pricing_plan_id":"cebpf4jnsgd1na2vs0mg"},{"bike_id":"d69fc9eb-982e-4f4a-a726-62070bbb3232","system_id":"levelo_inurba_marseille","lat":43.25863,"lon":5.39888,"is_reserved":false,"is_disabled":false,"rental_uris":{"android":"levelo://app?vid=d69fc9eb-982e-4f4a-a726-62070bbb3232","ios":"levelo://app?vid=d69fc9eb-982e-4f4a-a726-62070bbb3232"},"vehicle_type_id":"4","last_reported":1753536216,"current_range_meters":15200,"station_id":"ce4bhl92rcd13ifvqghg","pricing_plan_id":"cebpf4jnsgd1na2vs0mg"},{"bike_id":"2703e0a4-7218-4353-b33c-9609c06a5516","system_id":"levelo_inurba_marseille","lat":43.27501,"lon":5.42455,"is_reserved":false,"is_disabled":false,"rental_uris":{"android":"levelo://app?vid=2703e0a4-7218-4353-b33c-9609c06a5516","ios":"levelo://app?vid=2703e0a4-7218-4353-b33c-9609c06a5516"},"vehicle_type_id":"4","last_reported":1753536216,"current_range_meters":16000,"station_id":"ce4bhn92rcd13ifvqgrg","pricing_plan_id":"cebpf4jnsgd1na2vs0mg"},{"bike_id":"8cb3cdfe-341c-4219-9fb7-adf0c31075d3","system_id":"levelo_inurba_marseille","lat":43.22488,"lon":5.34796,"is_reserved":false,"is_disabled":false,"rental_uris":{"android":"levelo://app?vid=8cb3cdfe-341c-4219-9fb7-adf0c31075d3","ios":"levelo://app?vid=8cb3cdfe-341c-4219-9fb7-adf0c31075d3"},"vehicle_type_id":"4","last_reported":1753536216,"current_range_meters":16000,"station_id":"st_cvj5dfep6f1abm77gieg","pricing_plan_id":"cebpf4jnsgd1na2vs0mg"},{"bike_id":"a05343f6-5345-451e-92c9-8d14b4ec04eb","system_id":"levelo_inurba_marseille","lat":43.314919,"lon":5.373082,"is_reserved":false,"is_disabled":false,"rental_uris":{"android":"levelo://app?vid=a05343f6-5345-451e-92c9-8d14b4ec04eb","ios":"levelo://app?vid=a05343f6-5345-451e-92c9-8d14b4ec04eb"},"vehicle_type_id":"4","last_reported":1753536216,"current_range_meters":16000,"station_id":"","pricing_plan_id":"cebpf4jnsgd1na2vs0mg"},{"bike_id":"febfb0dd-62aa-4333-8aa6-5a2dfd2c5e17","system_id":"levelo_inurba_marseille","lat":43.33156,"lon":5.35975,"is_reserved":false,"is_disabled":false,"rental_uris":{"android":"levelo://app?vid=febfb0dd-62aa-4333-8aa6-5a2dfd2c5e17","ios":"levelo://app?vid=febfb0dd-62aa-4333-8aa6-5a2dfd2c5e17"},"vehicle_type_id":"4","last_reported":1753536216,"current_range_meters":16000,"station_id":"","pricing_plan_id":"cebpf4jnsgd1na2vs0mg"},{"bike_id":"50cbbc69-3d9e-4fdd-b246-b20da0004571","system_id":"levelo_inurba_marseille","lat":43.30312,"lon":5.369051,"is_reserved":false,"is_disabled":false,"rental_uris":{"android":"levelo://app?vid=50cbbc69-3d9e-4fdd-b246-b20da0004571","ios":"levelo://app?vid=50cbbc69-3d9e-4fdd-b246-b20da0004571"},"vehicle_type_id":"4","last_reported":1753536216,"current_range_meters":16000,"station_id":"","pricing_plan_id":"cebpf4jnsgd1na2vs0mg"},{"bike_id":"9452822a-04f5-40b6-ac68-82844e0c7fdd","system_id":"levelo_inurba_marseille","lat":43.2655,"lon":5.37286,"is_reserved":false,"is_disabled":false,"rental_uris":{"android":"levelo://app?vid=9452822a-04f5-40b6-ac68-82844e0c7fdd","ios":"levelo://app?vid=9452822a-04f5-40b6-ac68-82844e0c7fdd"},"vehicle_type_id":"4","last_reported":1753536216,"current_range_meters":16000,"station_id":"ce4bhg12rcd13ifvqf70","pricing_plan_id":"cebpf4jnsgd1na2vs0mg"},{"bike_id":"4f069cb2-e85f-44ab-8659-b3444c19b657","system_id":"levelo_inurba_marseille","lat":43.23185,"lon":5.35571,"is_reserved":false,"is_disabled":false,"rental_uris":{"android":"levelo://app?vid=4f069cb2-e85f-44ab-8659-b3444c19b657","ios":"levelo://app?vid=4f069cb2-e85f-44ab-8659-b3444c19b657"},"vehicle_type_id":"4","last_reported":1753536216,"current_range_meters":16000,"station_id":"ce4bhu92rcd13ifvqi70","pricing_plan_id":"cebpf4jnsgd1na2vs0mg"},{"bike_id":"61cd7fe3-237f-4708-afc7-dd8a81b4454c","system_id":"levelo_inurba_marseille","lat":43.22926,"lon":5.35375,"is_reserved":false,"is_disabled":false,"rental_uris":{"android":"levelo://app?vid=61cd7fe3-237f-4708-afc7-dd8a81b4454c","ios":"levelo://app?vid=61cd7fe3-237f-4708-afc7-dd8a81b4454c"},"vehicle_type_id":"4","last_reported":1753536216,"current_range_meters":16000,"station_id":"cpo3532slgdg3j2ikp40","pricing_plan_id":"cebpf4jnsgd1na2vs0mg"},{"bike_id":"1e5c96a6-9d0f-4d5f-85ef-5a5f8ac0317a","system_id":"levelo_inurba_marseille","lat":43.334552,"lon":5.391346,"is_reserved":false,"is_disabled":false,"rental_uris":{"android":"levelo://app?vid=1e5c96a6-9d0f-4d5f-85ef-5a5f8ac0317a","ios":"levelo://app?vid=1e5c96a6-9d0f-4d5f-85ef-5a5f8ac0317a"},"vehicle_type_id":"4","last_reported":1753536216,"current_range_meters":16000,"station_id":"","pricing_plan_id":"cebpf4jnsgd1na2vs0mg"},{"bike_id":"adc99020-a046-4247-b3bb-abb9aabfb167","system_id":"levelo_inurba_marseille","lat":43.24423,"lon":5.37041,"is_reserved":false,"is_disabled":false,"rental_uris":{"android":"levelo://app?vid=adc99020-a046-4247-b3bb-abb9aabfb167","ios":"levelo://app?vid=adc99020-a046-4247-b3bb-abb9aabfb167"},"vehicle_type_id":"4","last_reported":1753536216,"current_range_meters":16000,"station_id":"ce4bhhh2rcd13ifvqfk0","pricing_plan_id":"cebpf4jnsgd1na2vs0mg"},{"bike_id":"25e07804-327d-451e-af4e-6a6e09b5f052","system_id":"levelo_inurba_marseille","lat":43.26555,"lon":5.37284,"is_reserved":false,"is_disabled":false,"rental_uris":{"android":"levelo://app?vid=25e07804-327d-451e-af4e-6a6e09b5f052","ios":"levelo://app?vid=25e07804-327d-451e-af4e-6a6e09b5f052"},"vehicle_type_id":"4","last_reported":1753536216,"current_range_meters":16000,"station_id":"ce4bhg12rcd13ifvqf70","pricing_plan_id":"cebpf4jnsgd1na2vs0mg"},{"bike_id":"a1d5115b-997f-44a5-8b4b-21cb29757407","system_id":"levelo_inurba_marseille","lat":43.31209,"lon":5.37319,"is_reserved":false,"is_disabled":false,"rental_uris":{"android":"levelo://app?vid=a1d5115b-997f-44a5-8b4b-21cb29757407","ios":"levelo://app?vid=a1d5115b-997f-44a5-8b4b-21cb29757407"},"vehicle_type_id":"4","last_reported":1753536216,"current_range_meters":16000,"station_id":"","pricing_plan_id":"cebpf4jnsgd1na2vs0mg"},{"bike_id":"c34587a8-a019-4b34-8b52-b2a04d65fdd5","system_id":"levelo_inurba_marseille","lat":43.26039,"lon":5.37544,"is_reserved":false,"is_disabled":false,"rental_uris":{"android":"levelo://app?vid=c34587a8-a019-4b34-8b52-b2a04d65fdd5","ios":"levelo://app?vid=c34587a8-a019-4b34-8b52-b2a04d65fdd5"},"vehicle_type_id":"4","last_reported":1753536216,"current_range_meters":16000,"station_id":"ce4bhgh2rcd13ifvqfa0","pricing_plan_id":"cebpf4jnsgd1na2vs0mg"},{"bike_id":"36e6bf97-6485-443c-94bf-9c9cb3f33000","system_id":"levelo_inurba_marseille","lat":43.29269,"lon":5.3844,"is_reserved":false,"is_disabled":true,"rental_uris":{"android":"levelo://app?vid=36e6bf97-6485-443c-94bf-9c9cb3f33000","ios":"levelo://app?vid=36e6bf97-6485-443c-94bf-9c9cb3f33000"},"vehicle_type_id":"4","last_reported":1753536216,"current_range_meters":16000,"station_id":"ce4bh692rcd13ifvqea0","pricing_plan_id":"cebpf4jnsgd1na2vs0mg"},{"bike_id":"04e69e58-59f5-4e1d-b3be-bf4966a98560","system_id":"levelo_inurba_marseille","lat":43.28854,"lon":5.35842,"is_reserved":false,"is_disabled":false,"rental_uris":{"android":"levelo://app?vid=04e69e58-59f5-4e1d-b3be-bf4966a98560","ios":"levelo://app?vid=04e69e58-59f5-4e1d-b3be-bf4966a98560"},"vehicle_type_id":"4","last_reported":1753536216,"current_range_meters":16000,"station_id":"ce4bhb12rcd13ifvqem0","pricing_plan_id":"cebpf4jnsgd1na2vs0mg"},{"bike_id":"e3ea7b8c-ec2b-4e90-9fb8-78bd951aed6d","system_id":"levelo_inurba_marseille","lat":43.21743,"lon":5.34607,"is_reserved":false,"is_disabled":false,"rental_uris":{"android":"levelo://app?vid=e3ea7b8c-ec2b-4e90-9fb8-78bd951aed6d","ios":"levelo://app?vid=e3ea7b8c-ec2b-4e90-9fb8-78bd951aed6d"},"vehicle_type_id":"4","last_reported":1753536216,"current_range_meters":16000,"station_id":"st_cvj6r9ubvosntc0bgbag","pricing_plan_id":"cebpf4jnsgd1na2vs0mg"},{"bike_id":"7e65c5ea-0429-45f5-a396-bd32e67f0744","system_id":"levelo_inurba_marseille","lat":43.334648,"lon":5.400356,"is_reserved":false,"is_disabled":false,"rental_uris":{"android":"levelo://app?vid=7e65c5ea-0429-45f5-a396-bd32e67f0744","ios":"levelo://app?vid=7e65c5ea-0429-45f5-a396-bd32e67f0744"},"vehicle_type_id":"4","last_reported":1753536216,"current_range_meters":16000,"station_id":"","pricing_plan_id":"cebpf4jnsgd1na2vs0mg"},{"bike_id":"725317c6-351b-43e5-b68d-45c3db010ac3","system_id":"levelo_inurba_marseille","lat":43.28153,"lon":5.42647,"is_reserved":false,"is_disabled":false,"rental_uris":{"android":"levelo://app?vid=725317c6-351b-43e5-b68d-45c3db010ac3","ios":"levelo://app?vid=725317c6-351b-43e5-b68d-45c3db010ac3"},"vehicle_type_id":"4","last_reported":1753536216,"current_range_meters":16400,"station_id":"ce4bhnh2rcd13ifvqgug","pricing_plan_id":"cebpf4jnsgd1na2vs0mg"},{"bike_id":"0c11f6c1-8064-42f4-a9d5-3b25c443f052","system_id":"levelo_inurba_marseille","lat":43.229281,"lon":5.353737,"is_reserved":false,"is_disabled":false,"rental_uris":{"android":"levelo://app?vid=0c11f6c1-8064-42f4-a9d5-3b25c443f052","ios":"levelo://app?vid=0c11f6c1-8064-42f4-a9d5-3b25c443f052"},"vehicle_type_id":"4","last_reported":1753536216,"current_range_meters":16400,"station_id":"cpo3532slgdg3j2ikp40","pricing_plan_id":"cebpf4jnsgd1na2vs0mg"},{"bike_id":"238390e8-3a2f-43aa-ae07-18b7138ab742","system_id":"levelo_inurba_marseille","lat":43.239649,"lon":5.366633,"is_reserved":false,"is_disabled":false,"rental_uris":{"android":"levelo://app?vid=238390e8-3a2f-43aa-ae07-18b7138ab742","ios":"levelo://app?vid=238390e8-3a2f-43aa-ae07-18b7138ab742"},"vehicle_type_id":"4","last_reported":1753536216,"current_range_meters":16400,"station_id":"ce4bhi12rcd13ifvqfp0","pricing_plan_id":"cebpf4jnsgd1na2vs0mg"},{"bike_id":"1444dafd-5008-4b1a-9a9f-e08b1176637d","system_id":"levelo_inurba_marseille","lat":43.27318,"lon":5.39077,"is_reserved":false,"is_disabled":false,"rental_uris":{"android":"levelo://app?vid=1444dafd-5008-4b1a-9a9f-e08b1176637d","ios":"levelo://app?vid=1444dafd-5008-4b1a-9a9f-e08b1176637d"},"vehicle_type_id":"4","last_reported":1753536216,"current_range_meters":16400,"station_id":"ce4bhgp2rcd13ifvqfe0","pricing_plan_id":"cebpf4jnsgd1na2vs0mg"},{"bike_id":"d74d43d8-7061-47d6-ac6f-f11fa89027dd","system_id":"levelo_inurba_marseille","lat":43.23195,"lon":5.35555,"is_reserved":false,"is_disabled":false,"rental_uris":{"android":"levelo://app?vid=d74d43d8-7061-47d6-ac6f-f11fa89027dd","ios":"levelo://app?vid=d74d43d8-7061-47d6-ac6f-f11fa89027dd"},"vehicle_type_id":"4","last_reported":1753536216,"current_range_meters":16400,"station_id":"ce4bhu92rcd13ifvqi70","pricing_plan_id":"cebpf4jnsgd1na2vs0mg"},{"bike_id":"04b7ba23-9d3e-49e9-b458-d4985e4e8b88","system_id":"levelo_inurba_marseille","lat":43.286072,"lon":5.351023,"is_reserved":false,"is_disabled":false,"rental_uris":{"android":"levelo://app?vid=04b7ba23-9d3e-49e9-b458-d4985e4e8b88","ios":"levelo://app?vid=04b7ba23-9d3e-49e9-b458-d4985e4e8b88"},"vehicle_type_id":"4","last_reported":1753536216,"current_range_meters":16400,"station_id":"","pricing_plan_id":"cebpf4jnsgd1na2vs0mg"},{"bike_id":"43dbc09e-d0e4-4ddb-bafe-4f55874d23a9","system_id":"levelo_inurba_marseille","lat":43.30238,"lon":5.38231,"is_reserved":false,"is_disabled":false,"rental_uris":{"android":"levelo://app?vid=43dbc09e-d0e4-4ddb-bafe-4f55874d23a9","ios":"levelo://app?vid=43dbc09e-d0e4-4ddb-bafe-4f55874d23a9"},"vehicle_type_id":"4","last_reported":1753536216,"current_range_meters":16400,"station_id":"","pricing_plan_id":"cebpf4jnsgd1na2vs0mg"},{"bike_id":"5fc666d4-7509-40b3-b359-a141ffaa9f74","system_id":"levelo_inurba_marseille","lat":43.27467,"lon":5.42465,"is_reserved":false,"is_disabled":false,"rental_uris":{"android":"levelo://app?vid=5fc666d4-7509-40b3-b359-a141ffaa9f74","ios":"levelo://app?vid=5fc666d4-7509-40b3-b359-a141ffaa9f74"},"vehicle_type_id":"4","last_reported":1753536216,"current_range_meters":16800,"station_id":"ce4bhn92rcd13ifvqgrg","pricing_plan_id":"cebpf4jnsgd1na2vs0mg"},{"bike_id":"b4b83b82-6d1c-4b44-ab9f-111b5c8d40a5","system_id":"levelo_inurba_marseille","lat":43.27057,"lon":5.402573,"is_reserved":false,"is_disabled":false,"rental_uris":{"android":"levelo://app?vid=b4b83b82-6d1c-4b44-ab9f-111b5c8d40a5","ios":"levelo://app?vid=b4b83b82-6d1c-4b44-ab9f-111b5c8d40a5"},"vehicle_type_id":"4","last_reported":1753536216,"current_range_meters":16800,"station_id":"ce4bhk92rcd13ifvqgc0","pricing_plan_id":"cebpf4jnsgd1na2vs0mg"},{"bike_id":"04579f34-748d-4774-acd8-061f61361a17","system_id":"levelo_inurba_marseille","lat":43.28426,"lon":5.34991,"is_reserved":false,"is_disabled":false,"rental_uris":{"android":"levelo://app?vid=04579f34-748d-4774-acd8-061f61361a17","ios":"levelo://app?vid=04579f34-748d-4774-acd8-061f61361a17"},"vehicle_type_id":"4","last_reported":1753536216,"current_range_meters":16800,"station_id":"ce4bhbh2rcd13ifvqepg","pricing_plan_id":"cebpf4jnsgd1na2vs0mg"},{"bike_id":"4ca91b2f-eee9-4073-81df-e159e17c03ca","system_id":"levelo_inurba_marseille","lat":43.24079,"lon":5.37746,"is_reserved":false,"is_disabled":false,"rental_uris":{"android":"levelo://app?vid=4ca91b2f-eee9-4073-81df-e159e17c03ca","ios":"levelo://app?vid=4ca91b2f-eee9-4073-81df-e159e17c03ca"},"vehicle_type_id":"4","last_reported":1753536216,"current_range_meters":16800,"station_id":"ce4bhnp2rcd13ifvqgvg","pricing_plan_id":"cebpf4jnsgd1na2vs0mg"},{"bike_id":"224d26c2-939d-4cbe-a747-a86a4b78bd4e","system_id":"levelo_inurba_marseille","lat":43.28902,"lon":5.35814,"is_reserved":false,"is_disabled":false,"rental_uris":{"android":"levelo://app?vid=224d26c2-939d-4cbe-a747-a86a4b78bd4e","ios":"levelo://app?vid=224d26c2-939d-4cbe-a747-a86a4b78bd4e"},"vehicle_type_id":"4","last_reported":1753536216,"current_range_meters":16800,"station_id":"ce4bhb12rcd13ifvqem0","pricing_plan_id":"cebpf4jnsgd1na2vs0mg"},{"bike_id":"c5794c7a-bb35-409f-9175-7d8933c8fd68","system_id":"levelo_inurba_marseille","lat":43.31118,"lon":5.39617,"is_reserved":false,"is_disabled":false,"rental_uris":{"android":"levelo://app?vid=c5794c7a-bb35-409f-9175-7d8933c8fd68","ios":"levelo://app?vid=c5794c7a-bb35-409f-9175-7d8933c8fd68"},"vehicle_type_id":"4","last_reported":1753536216,"current_range_meters":16800,"station_id":"","pricing_plan_id":"cebpf4jnsgd1na2vs0mg"},{"bike_id":"25f3e258-0c7a-499b-b187-4c4dddf45bcd","system_id":"levelo_inurba_marseille","lat":43.29286,"lon":5.36843,"is_reserved":false,"is_disabled":true,"rental_uris":{"android":"levelo://app?vid=25f3e258-0c7a-499b-b187-4c4dddf45bcd","ios":"levelo://app?vid=25f3e258-0c7a-499b-b187-4c4dddf45bcd"},"vehicle_type_id":"4","last_reported":1753536216,"current_range_meters":16800,"station_id":"ce4bhbp2rcd13ifvqesg","pricing_plan_id":"cebpf4jnsgd1na2vs0mg"},{"bike_id":"048dcbd0-ab4d-4755-8498-72989c8229c0","system_id":"levelo_inurba_marseille","lat":43.243896,"lon":5.370777,"is_reserved":false,"is_disabled":false,"rental_uris":{"android":"levelo://app?vid=048dcbd0-ab4d-4755-8498-72989c8229c0","ios":"levelo://app?vid=048dcbd0-ab4d-4755-8498-72989c8229c0"},"vehicle_type_id":"4","last_reported":1753536216,"current_range_meters":16800,"station_id":"ce4bhhh2rcd13ifvqfk0","pricing_plan_id":"cebpf4jnsgd1na2vs0mg"},{"bike_id":"4af0e3d2-3908-4ccb-92be-4239dac0aae4","system_id":"levelo_inurba_marseille","lat":43.284263,"lon":5.349776,"is_reserved":false,"is_disabled":false,"rental_uris":{"android":"levelo://app?vid=4af0e3d2-3908-4ccb-92be-4239dac0aae4","ios":"levelo://app?vid=4af0e3d2-3908-4ccb-92be-4239dac0aae4"},"vehicle_type_id":"4","last_reported":1753536216,"current_range_meters":17200,"station_id":"ce4bhbh2rcd13ifvqepg","pricing_plan_id":"cebpf4jnsgd1na2vs0mg"},{"bike_id":"5583ef68-80f1-4acd-8840-4f4e0359e8c7","system_id":"levelo_inurba_marseille","lat":43.224999,"lon":5.347563,"is_reserved":false,"is_disabled":false,"rental_uris":{"android":"levelo://app?vid=5583ef68-80f1-4acd-8840-4f4e0359e8c7","ios":"levelo://app?vid=5583ef68-80f1-4acd-8840-4f4e0359e8c7"},"vehicle_type_id":"4","last_reported":1753536216,"current_range_meters":17200,"station_id":"st_cvj5dfep6f1abm77gieg","pricing_plan_id":"cebpf4jnsgd1na2vs0mg"},{"bike_id":"2ab19721-b0c8-4077-bdbb-1710c0bc7e18","system_id":"levelo_inurba_marseille","lat":43.29001,"lon":5.35617,"is_reserved":false,"is_disabled":false,"rental_uris":{"android":"levelo://app?vid=2ab19721-b0c8-4077-bdbb-1710c0bc7e18","ios":"levelo://app?vid=2ab19721-b0c8-4077-bdbb-1710c0bc7e18"},"vehicle_type_id":"4","last_reported":1753536216,"current_range_meters":17200,"station_id":"ce4bhb92rcd13ifvqen0","pricing_plan_id":"cebpf4jnsgd1na2vs0mg"},{"bike_id":"5807cbdd-25cb-4d16-b9bc-ae0cd7616274","system_id":"levelo_inurba_marseille","lat":43.24539,"lon":5.39521,"is_reserved":false,"is_disabled":false,"rental_uris":{"android":"levelo://app?vid=5807cbdd-25cb-4d16-b9bc-ae0cd7616274","ios":"levelo://app?vid=5807cbdd-25cb-4d16-b9bc-ae0cd7616274"},"vehicle_type_id":"4","last_reported":1753536216,"current_range_meters":17200,"station_id":"ce4bhlp2rcd13ifvqgjg","pricing_plan_id":"cebpf4jnsgd1na2vs0mg"},{"bike_id":"ff56be71-e4c5-4af0-806b-72b0f5a38efc","system_id":"levelo_inurba_marseille","lat":43.2868,"lon":5.36329,"is_reserved":false,"is_disabled":false,"rental_uris":{"android":"levelo://app?vid=ff56be71-e4c5-4af0-806b-72b0f5a38efc","ios":"levelo://app?vid=ff56be71-e4c5-4af0-806b-72b0f5a38efc"},"vehicle_type_id":"4","last_reported":1753536216,"current_range_meters":17200,"station_id":"ce4bhah2rcd13ifvqej0","pricing_plan_id":"cebpf4jnsgd1na2vs0mg"},{"bike_id":"8ac83c10-1774-4144-9880-dfef0570bec1","system_id":"levelo_inurba_marseille","lat":43.26553,"lon":5.37284,"is_reserved":false,"is_disabled":false,"rental_uris":{"android":"levelo://app?vid=8ac83c10-1774-4144-9880-dfef0570bec1","ios":"levelo://app?vid=8ac83c10-1774-4144-9880-dfef0570bec1"},"vehicle_type_id":"4","last_reported":1753536216,"current_range_meters":17200,"station_id":"ce4bhg12rcd13ifvqf70","pricing_plan_id":"cebpf4jnsgd1na2vs0mg"},{"bike_id":"f8622cd6-d131-484c-a7c2-e6e39bb8b906","system_id":"levelo_inurba_marseille","lat":43.21737,"lon":5.34602,"is_reserved":false,"is_disabled":false,"rental_uris":{"android":"levelo://app?vid=f8622cd6-d131-484c-a7c2-e6e39bb8b906","ios":"levelo://app?vid=f8622cd6-d131-484c-a7c2-e6e39bb8b906"},"vehicle_type_id":"4","last_reported":1753536216,"current_range_meters":17200,"station_id":"st_cvj6r9ubvosntc0bgbag","pricing_plan_id":"cebpf4jnsgd1na2vs0mg"},{"bike_id":"8362c329-d292-4c5c-95e6-bd7045291b1e","system_id":"levelo_inurba_marseille","lat":43.296733,"lon":5.37286,"is_reserved":false,"is_disabled":false,"rental_uris":{"android":"levelo://app?vid=8362c329-d292-4c5c-95e6-bd7045291b1e","ios":"levelo://app?vid=8362c329-d292-4c5c-95e6-bd7045291b1e"},"vehicle_type_id":"4","last_reported":1753536216,"current_range_meters":17200,"station_id":"ce4bgk12rcd13ifvqbj0","pricing_plan_id":"cebpf4jnsgd1na2vs0mg"},{"bike_id":"efef1777-a87b-4787-aa1b-741f0e33908a","system_id":"levelo_inurba_marseille","lat":43.28973,"lon":5.37845,"is_reserved":false,"is_disabled":false,"rental_uris":{"android":"levelo://app?vid=efef1777-a87b-4787-aa1b-741f0e33908a","ios":"levelo://app?vid=efef1777-a87b-4787-aa1b-741f0e33908a"},"vehicle_type_id":"4","last_reported":1753536216,"current_range_meters":17200,"station_id":"ce4bh9p2rcd13ifvqed0","pricing_plan_id":"cebpf4jnsgd1na2vs0mg"},{"bike_id":"97e03b86-3d42-448c-ac76-0b5a2719eea4","system_id":"levelo_inurba_marseille","lat":43.28858,"lon":5.35845,"is_reserved":false,"is_disabled":false,"rental_uris":{"android":"levelo://app?vid=97e03b86-3d42-448c-ac76-0b5a2719eea4","ios":"levelo://app?vid=97e03b86-3d42-448c-ac76-0b5a2719eea4"},"vehicle_type_id":"4","last_reported":1753536216,"current_range_meters":17200,"station_id":"ce4bhb12rcd13ifvqem0","pricing_plan_id":"cebpf4jnsgd1na2vs0mg"},{"bike_id":"f009d58e-f038-4933-90bc-720e1cd4407f","system_id":"levelo_inurba_marseille","lat":43.24166,"lon":5.36386,"is_reserved":false,"is_disabled":false,"rental_uris":{"android":"levelo://app?vid=f009d58e-f038-4933-90bc-720e1cd4407f","ios":"levelo://app?vid=f009d58e-f038-4933-90bc-720e1cd4407f"},"vehicle_type_id":"4","last_reported":1753536216,"current_range_meters":17200,"station_id":"cpo36qri1sfpv3e86is0","pricing_plan_id":"cebpf4jnsgd1na2vs0mg"},{"bike_id":"02cab979-ccb2-40ce-bd89-cd624415fc04","system_id":"levelo_inurba_marseille","lat":43.27779,"lon":5.39941,"is_reserved":false,"is_disabled":false,"rental_uris":{"android":"levelo://app?vid=02cab979-ccb2-40ce-bd89-cd624415fc04","ios":"levelo://app?vid=02cab979-ccb2-40ce-bd89-cd624415fc04"},"vehicle_type_id":"4","last_reported":1753536216,"current_range_meters":17200,"station_id":"","pricing_plan_id":"cebpf4jnsgd1na2vs0mg"},{"bike_id":"c0cd141e-968c-4be4-a9f1-b8aece5dd0ff","system_id":"levelo_inurba_marseille","lat":43.21762,"lon":5.34589,"is_reserved":false,"is_disabled":false,"rental_uris":{"android":"levelo://app?vid=c0cd141e-968c-4be4-a9f1-b8aece5dd0ff","ios":"levelo://app?vid=c0cd141e-968c-4be4-a9f1-b8aece5dd0ff"},"vehicle_type_id":"4","last_reported":1753536216,"current_range_meters":17200,"station_id":"st_cvj6r9ubvosntc0bgbag","pricing_plan_id":"cebpf4jnsgd1na2vs0mg"},{"bike_id":"3dcd3c56-cdba-4f8c-8ff7-bb42fd214f6d","system_id":"levelo_inurba_marseille","lat":43.29372,"lon":5.37845,"is_reserved":false,"is_disabled":false,"rental_uris":{"android":"levelo://app?vid=3dcd3c56-cdba-4f8c-8ff7-bb42fd214f6d","ios":"levelo://app?vid=3dcd3c56-cdba-4f8c-8ff7-bb42fd214f6d"},"vehicle_type_id":"4","last_reported":1753536216,"current_range_meters":17200,"station_id":"ce4bgjh2rcd13ifvqbf0","pricing_plan_id":"cebpf4jnsgd1na2vs0mg"},{"bike_id":"16e8151a-d2b5-4158-8291-760d56a5b178","system_id":"levelo_inurba_marseille","lat":43.29933,"lon":5.36555,"is_reserved":false,"is_disabled":false,"rental_uris":{"android":"levelo://app?vid=16e8151a-d2b5-4158-8291-760d56a5b178","ios":"levelo://app?vid=16e8151a-d2b5-4158-8291-760d56a5b178"},"vehicle_type_id":"4","last_reported":1753536216,"current_range_meters":17600,"station_id":"ce4bgm92rcd13ifvqbr0","pricing_plan_id":"cebpf4jnsgd1na2vs0mg"},{"bike_id":"54405b04-0f04-4c64-af8f-9ccbb34ae9ba","system_id":"levelo_inurba_marseille","lat":43.28032,"lon":5.36944,"is_reserved":false,"is_disabled":false,"rental_uris":{"android":"levelo://app?vid=54405b04-0f04-4c64-af8f-9ccbb34ae9ba","ios":"levelo://app?vid=54405b04-0f04-4c64-af8f-9ccbb34ae9ba"},"vehicle_type_id":"4","last_reported":1753536216,"current_range_meters":17600,"station_id":"ce4bha12rcd13ifvqef0","pricing_plan_id":"cebpf4jnsgd1na2vs0mg"},{"bike_id":"7c54d526-093d-4745-bb83-66c0101e4482","system_id":"levelo_inurba_marseille","lat":43.27377,"lon":5.36262,"is_reserved":false,"is_disabled":false,"rental_uris":{"android":"levelo://app?vid=7c54d526-093d-4745-bb83-66c0101e4482","ios":"levelo://app?vid=7c54d526-093d-4745-bb83-66c0101e4482"},"vehicle_type_id":"4","last_reported":1753536216,"current_range_meters":17600,"station_id":"ce4bhbh2rcd13ifvqeo0","pricing_plan_id":"cebpf4jnsgd1na2vs0mg"},{"bike_id":"4fc563e5-5af3-4e66-b309-4f545577a0a4","system_id":"levelo_inurba_marseille","lat":43.217445,"lon":5.346039,"is_reserved":false,"is_disabled":false,"rental_uris":{"android":"levelo://app?vid=4fc563e5-5af3-4e66-b309-4f545577a0a4","ios":"levelo://app?vid=4fc563e5-5af3-4e66-b309-4f545577a0a4"},"vehicle_type_id":"4","last_reported":1753536216,"current_range_meters":17600,"station_id":"","pricing_plan_id":"cebpf4jnsgd1na2vs0mg"},{"bike_id":"41a6c670-85a4-4b59-982f-d825fac5dee7","system_id":"levelo_inurba_marseille","lat":43.24087,"lon":5.37751,"is_reserved":false,"is_disabled":false,"rental_uris":{"android":"levelo://app?vid=41a6c670-85a4-4b59-982f-d825fac5dee7","ios":"levelo://app?vid=41a6c670-85a4-4b59-982f-d825fac5dee7"},"vehicle_type_id":"4","last_reported":1753536216,"current_range_meters":17600,"station_id":"ce4bhnp2rcd13ifvqgvg","pricing_plan_id":"cebpf4jnsgd1na2vs0mg"},{"bike_id":"ddc71cff-a54b-4821-b577-35926c1b4a46","system_id":"levelo_inurba_marseille","lat":43.29222,"lon":5.36079,"is_reserved":false,"is_disabled":false,"rental_uris":{"android":"levelo://app?vid=ddc71cff-a54b-4821-b577-35926c1b4a46","ios":"levelo://app?vid=ddc71cff-a54b-4821-b577-35926c1b4a46"},"vehicle_type_id":"4","last_reported":1753536216,"current_range_meters":17600,"station_id":"ce4bhbh2rcd13ifvqeqg","pricing_plan_id":"cebpf4jnsgd1na2vs0mg"},{"bike_id":"69eb2053-6469-4f9b-869a-7285bd1bf1c0","system_id":"levelo_inurba_marseille","lat":43.22511,"lon":5.34787,"is_reserved":false,"is_disabled":false,"rental_uris":{"android":"levelo://app?vid=69eb2053-6469-4f9b-869a-7285bd1bf1c0","ios":"levelo://app?vid=69eb2053-6469-4f9b-869a-7285bd1bf1c0"},"vehicle_type_id":"4","last_reported":1753536216,"current_range_meters":17600,"station_id":"st_cvj5dfep6f1abm77gieg","pricing_plan_id":"cebpf4jnsgd1na2vs0mg"},{"bike_id":"4e678153-ca2f-4806-a32c-35483d5415a8","system_id":"levelo_inurba_marseille","lat":43.28964,"lon":5.37856,"is_reserved":false,"is_disabled":false,"rental_uris":{"android":"levelo://app?vid=4e678153-ca2f-4806-a32c-35483d5415a8","ios":"levelo://app?vid=4e678153-ca2f-4806-a32c-35483d5415a8"},"vehicle_type_id":"4","last_reported":1753536216,"current_range_meters":17600,"station_id":"ce4bh9p2rcd13ifvqed0","pricing_plan_id":"cebpf4jnsgd1na2vs0mg"},{"bike_id":"03d4250b-69f9-4399-a884-7539b2b7ba8d","system_id":"levelo_inurba_marseille","lat":43.28604,"lon":5.35109,"is_reserved":false,"is_disabled":false,"rental_uris":{"android":"levelo://app?vid=03d4250b-69f9-4399-a884-7539b2b7ba8d","ios":"levelo://app?vid=03d4250b-69f9-4399-a884-7539b2b7ba8d"},"vehicle_type_id":"4","last_reported":1753536216,"current_range_meters":17600,"station_id":"ce4bhch2rcd13ifvqeug","pricing_plan_id":"cebpf4jnsgd1na2vs0mg"},{"bike_id":"1a749bd6-d81f-4d79-86b3-e3569cb037eb","system_id":"levelo_inurba_marseille","lat":43.28258,"lon":5.35076,"is_reserved":false,"is_disabled":false,"rental_uris":{"android":"levelo://app?vid=1a749bd6-d81f-4d79-86b3-e3569cb037eb","ios":"levelo://app?vid=1a749bd6-d81f-4d79-86b3-e3569cb037eb"},"vehicle_type_id":"4","last_reported":1753536216,"current_range_meters":17600,"station_id":"ce4bhbp2rcd13ifvqerg","pricing_plan_id":"cebpf4jnsgd1na2vs0mg"},{"bike_id":"b7154c90-af06-4d67-ab8e-61a3b40e36d3","system_id":"levelo_inurba_marseille","lat":43.2866,"lon":5.36345,"is_reserved":false,"is_disabled":false,"rental_uris":{"android":"levelo://app?vid=b7154c90-af06-4d67-ab8e-61a3b40e36d3","ios":"levelo://app?vid=b7154c90-af06-4d67-ab8e-61a3b40e36d3"},"vehicle_type_id":"4","last_reported":1753536216,"current_range_meters":17600,"station_id":"ce4bhah2rcd13ifvqej0","pricing_plan_id":"cebpf4jnsgd1na2vs0mg"},{"bike_id":"9ffb1d55-327f-4cf5-9e91-2e8084473b27","system_id":"levelo_inurba_marseille","lat":43.248089,"lon":5.374529,"is_reserved":false,"is_disabled":false,"rental_uris":{"android":"levelo://app?vid=9ffb1d55-327f-4cf5-9e91-2e8084473b27","ios":"levelo://app?vid=9ffb1d55-327f-4cf5-9e91-2e8084473b27"},"vehicle_type_id":"4","last_reported":1753536216,"current_range_meters":17600,"station_id":"ce4bhgh2rcd13ifvqfb0","pricing_plan_id":"cebpf4jnsgd1na2vs0mg"},{"bike_id":"02227cc4-e464-4a3c-8baa-48809e2776f9","system_id":"levelo_inurba_marseille","lat":43.26238,"lon":5.37862,"is_reserved":false,"is_disabled":false,"rental_uris":{"android":"levelo://app?vid=02227cc4-e464-4a3c-8baa-48809e2776f9","ios":"levelo://app?vid=02227cc4-e464-4a3c-8baa-48809e2776f9"},"vehicle_type_id":"4","last_reported":1753536216,"current_range_meters":18000,"station_id":"ce4bhjp2rcd13ifvqg90","pricing_plan_id":"cebpf4jnsgd1na2vs0mg"},{"bike_id":"d8ede7a6-2370-4585-9b4e-834634539090","system_id":"levelo_inurba_marseille","lat":43.2249,"lon":5.34775,"is_reserved":false,"is_disabled":false,"rental_uris":{"android":"levelo://app?vid=d8ede7a6-2370-4585-9b4e-834634539090","ios":"levelo://app?vid=d8ede7a6-2370-4585-9b4e-834634539090"},"vehicle_type_id":"4","last_reported":1753536216,"current_range_meters":18000,"station_id":"st_cvj5dfep6f1abm77gieg","pricing_plan_id":"cebpf4jnsgd1na2vs0mg"},{"bike_id":"8e9a70e8-b347-4022-8b67-05e54bffdf31","system_id":"levelo_inurba_marseille","lat":43.31229,"lon":5.36849,"is_reserved":false,"is_disabled":false,"rental_uris":{"android":"levelo://app?vid=8e9a70e8-b347-4022-8b67-05e54bffdf31","ios":"levelo://app?vid=8e9a70e8-b347-4022-8b67-05e54bffdf31"},"vehicle_type_id":"4","last_reported":1753536216,"current_range_meters":18000,"station_id":"ce4bgl92rcd13ifvqbq0","pricing_plan_id":"cebpf4jnsgd1na2vs0mg"},{"bike_id":"37562319-1ab7-4052-84cd-19474c696578","system_id":"levelo_inurba_marseille","lat":43.27626,"lon":5.36093,"is_reserved":false,"is_disabled":false,"rental_uris":{"android":"levelo://app?vid=37562319-1ab7-4052-84cd-19474c696578","ios":"levelo://app?vid=37562319-1ab7-4052-84cd-19474c696578"},"vehicle_type_id":"4","last_reported":1753536216,"current_range_meters":18000,"station_id":"ce4bgj92rcd13ifvqbe0","pricing_plan_id":"cebpf4jnsgd1na2vs0mg"},{"bike_id":"f5d35bb9-022f-4b33-ab96-4c8a7845427f","system_id":"levelo_inurba_marseille","lat":43.30376,"lon":5.41848,"is_reserved":false,"is_disabled":false,"rental_uris":{"android":"levelo://app?vid=f5d35bb9-022f-4b33-ab96-4c8a7845427f","ios":"levelo://app?vid=f5d35bb9-022f-4b33-ab96-4c8a7845427f"},"vehicle_type_id":"4","last_reported":1753536216,"current_range_meters":18000,"station_id":"ce4bhop2rcd13ifvqh7g","pricing_plan_id":"cebpf4jnsgd1na2vs0mg"},{"bike_id":"dfc4e85c-408c-4d4d-9439-281cf527abe9","system_id":"levelo_inurba_marseille","lat":43.27967,"lon":5.38754,"is_reserved":false,"is_disabled":false,"rental_uris":{"android":"levelo://app?vid=dfc4e85c-408c-4d4d-9439-281cf527abe9","ios":"levelo://app?vid=dfc4e85c-408c-4d4d-9439-281cf527abe9"},"vehicle_type_id":"4","last_reported":1753536216,"current_range_meters":18000,"station_id":"ce4bhg12rcd13ifvqf80","pricing_plan_id":"cebpf4jnsgd1na2vs0mg"},{"bike_id":"d59853e4-f563-455d-89bf-6cd578f33b01","system_id":"levelo_inurba_marseille","lat":43.27374,"lon":5.36258,"is_reserved":false,"is_disabled":false,"rental_uris":{"android":"levelo://app?vid=d59853e4-f563-455d-89bf-6cd578f33b01","ios":"levelo://app?vid=d59853e4-f563-455d-89bf-6cd578f33b01"},"vehicle_type_id":"4","last_reported":1753536216,"current_range_meters":18000,"station_id":"ce4bhbh2rcd13ifvqeo0","pricing_plan_id":"cebpf4jnsgd1na2vs0mg"},{"bike_id":"4be4d698-c50c-4746-8eec-7e25ffbf7ec3","system_id":"levelo_inurba_marseille","lat":43.231964,"lon":5.355483,"is_reserved":false,"is_disabled":false,"rental_uris":{"android":"levelo://app?vid=4be4d698-c50c-4746-8eec-7e25ffbf7ec3","ios":"levelo://app?vid=4be4d698-c50c-4746-8eec-7e25ffbf7ec3"},"vehicle_type_id":"4","last_reported":1753536216,"current_range_meters":18000,"station_id":"ce4bhu92rcd13ifvqi70","pricing_plan_id":"cebpf4jnsgd1na2vs0mg"},{"bike_id":"75cdd6a7-85d7-4724-936e-50b9d98ab47c","system_id":"levelo_inurba_marseille","lat":43.21195,"lon":5.35074,"is_reserved":false,"is_disabled":false,"rental_uris":{"android":"levelo://app?vid=75cdd6a7-85d7-4724-936e-50b9d98ab47c","ios":"levelo://app?vid=75cdd6a7-85d7-4724-936e-50b9d98ab47c"},"vehicle_type_id":"4","last_reported":1753536216,"current_range_meters":18000,"station_id":"st_cvj6sg6p6f1abm77japg","pricing_plan_id":"cebpf4jnsgd1na2vs0mg"},{"bike_id":"bbd86c7e-d307-4e0d-b170-7a8eb703d3fa","system_id":"levelo_inurba_marseille","lat":43.21732,"lon":5.34596,"is_reserved":false,"is_disabled":false,"rental_uris":{"android":"levelo://app?vid=bbd86c7e-d307-4e0d-b170-7a8eb703d3fa","ios":"levelo://app?vid=bbd86c7e-d307-4e0d-b170-7a8eb703d3fa"},"vehicle_type_id":"4","last_reported":1753536216,"current_range_meters":18800,"station_id":"st_cvj6r9ubvosntc0bgbag","pricing_plan_id":"cebpf4jnsgd1na2vs0mg"},{"bike_id":"adbc006e-c51d-4434-863c-610344ea30cd","system_id":"levelo_inurba_marseille","lat":43.21747,"lon":5.346,"is_reserved":false,"is_disabled":true,"rental_uris":{"android":"levelo://app?vid=adbc006e-c51d-4434-863c-610344ea30cd","ios":"levelo://app?vid=adbc006e-c51d-4434-863c-610344ea30cd"},"vehicle_type_id":"4","last_reported":1753536216,"current_range_meters":18800,"station_id":"st_cvj6r9ubvosntc0bgbag","pricing_plan_id":"cebpf4jnsgd1na2vs0mg"},{"bike_id":"47980abc-a508-49d0-ad72-0d53771e9c9d","system_id":"levelo_inurba_marseille","lat":43.284149,"lon":5.349771,"is_reserved":false,"is_disabled":false,"rental_uris":{"android":"levelo://app?vid=47980abc-a508-49d0-ad72-0d53771e9c9d","ios":"levelo://app?vid=47980abc-a508-49d0-ad72-0d53771e9c9d"},"vehicle_type_id":"4","last_reported":1753536216,"current_range_meters":18800,"station_id":"ce4bhbh2rcd13ifvqepg","pricing_plan_id":"cebpf4jnsgd1na2vs0mg"},{"bike_id":"06f960f6-736b-4813-8793-252e7945d834","system_id":"levelo_inurba_marseille","lat":43.29321,"lon":5.37421,"is_reserved":false,"is_disabled":false,"rental_uris":{"android":"levelo://app?vid=06f960f6-736b-4813-8793-252e7945d834","ios":"levelo://app?vid=06f960f6-736b-4813-8793-252e7945d834"},"vehicle_type_id":"4","last_reported":1753536216,"current_range_meters":18800,"station_id":"ce4bgi12rcd13ifvqb70","pricing_plan_id":"cebpf4jnsgd1na2vs0mg"},{"bike_id":"bc667fa7-88be-4d9b-9317-6163182d7112","system_id":"levelo_inurba_marseille","lat":43.29614,"lon":5.37716,"is_reserved":false,"is_disabled":false,"rental_uris":{"android":"levelo://app?vid=bc667fa7-88be-4d9b-9317-6163182d7112","ios":"levelo://app?vid=bc667fa7-88be-4d9b-9317-6163182d7112"},"vehicle_type_id":"4","last_reported":1753536216,"current_range_meters":18800,"station_id":"","pricing_plan_id":"cebpf4jnsgd1na2vs0mg"},{"bike_id":"606ca6ed-e5a0-403d-8bd2-479152996a03","system_id":"levelo_inurba_marseille","lat":43.290507,"lon":5.359148,"is_reserved":false,"is_disabled":false,"rental_uris":{"android":"levelo://app?vid=606ca6ed-e5a0-403d-8bd2-479152996a03","ios":"levelo://app?vid=606ca6ed-e5a0-403d-8bd2-479152996a03"},"vehicle_type_id":"4","last_reported":1753536216,"current_range_meters":18800,"station_id":"ce4bha92rcd13ifvqeg0","pricing_plan_id":"cebpf4jnsgd1na2vs0mg"},{"bike_id":"a85d0d7b-3731-4b06-b13e-849916f6749f","system_id":"levelo_inurba_marseille","lat":43.28268,"lon":5.35074,"is_reserved":false,"is_disabled":false,"rental_uris":{"android":"levelo://app?vid=a85d0d7b-3731-4b06-b13e-849916f6749f","ios":"levelo://app?vid=a85d0d7b-3731-4b06-b13e-849916f6749f"},"vehicle_type_id":"4","last_reported":1753536216,"current_range_meters":18800,"station_id":"ce4bhbp2rcd13ifvqerg","pricing_plan_id":"cebpf4jnsgd1na2vs0mg"},{"bike_id":"00024086-0be5-4065-9b09-db5089a157ae","system_id":"levelo_inurba_marseille","lat":43.25583,"lon":5.38233,"is_reserved":false,"is_disabled":false,"rental_uris":{"android":"levelo://app?vid=00024086-0be5-4065-9b09-db5089a157ae","ios":"levelo://app?vid=00024086-0be5-4065-9b09-db5089a157ae"},"vehicle_type_id":"4","last_reported":1753536216,"current_range_meters":18000,"station_id":"ce4bhih2rcd13ifvqfs0","pricing_plan_id":"cebpf4jnsgd1na2vs0mg"},{"bike_id":"4f1b2aef-6e02-4a3c-ad1c-f375f00f9c7b","system_id":"levelo_inurba_marseille","lat":43.217512,"lon":5.345994,"is_reserved":false,"is_disabled":false,"rental_uris":{"android":"levelo://app?vid=4f1b2aef-6e02-4a3c-ad1c-f375f00f9c7b","ios":"levelo://app?vid=4f1b2aef-6e02-4a3c-ad1c-f375f00f9c7b"},"vehicle_type_id":"4","last_reported":1753536216,"current_range_meters":19200,"station_id":"","pricing_plan_id":"cebpf4jnsgd1na2vs0mg"},{"bike_id":"484ce80f-12be-41fa-9586-784b84db2ffe","system_id":"levelo_inurba_marseille","lat":43.2481,"lon":5.37455,"is_reserved":false,"is_disabled":false,"rental_uris":{"android":"levelo://app?vid=484ce80f-12be-41fa-9586-784b84db2ffe","ios":"levelo://app?vid=484ce80f-12be-41fa-9586-784b84db2ffe"},"vehicle_type_id":"4","last_reported":1753536216,"current_range_meters":19200,"station_id":"ce4bhgh2rcd13ifvqfb0","pricing_plan_id":"cebpf4jnsgd1na2vs0mg"},{"bike_id":"93692abf-b3eb-4bd5-b4cb-c509e5d16502","system_id":"levelo_inurba_marseille","lat":43.299683,"lon":5.386239,"is_reserved":false,"is_disabled":false,"rental_uris":{"android":"levelo://app?vid=93692abf-b3eb-4bd5-b4cb-c509e5d16502","ios":"levelo://app?vid=93692abf-b3eb-4bd5-b4cb-c509e5d16502"},"vehicle_type_id":"4","last_reported":1753536216,"current_range_meters":19200,"station_id":"","pricing_plan_id":"cebpf4jnsgd1na2vs0mg"},{"bike_id":"10aa7cfd-97a8-40d9-a069-e3a0cfc6d0b9","system_id":"levelo_inurba_marseille","lat":43.28625,"lon":5.35087,"is_reserved":false,"is_disabled":false,"rental_uris":{"android":"levelo://app?vid=10aa7cfd-97a8-40d9-a069-e3a0cfc6d0b9","ios":"levelo://app?vid=10aa7cfd-97a8-40d9-a069-e3a0cfc6d0b9"},"vehicle_type_id":"4","last_reported":1753536216,"current_range_meters":19200,"station_id":"ce4bhch2rcd13ifvqeug","pricing_plan_id":"cebpf4jnsgd1na2vs0mg"},{"bike_id":"b64dad25-8e0d-4258-bfd2-304c64c6d313","system_id":"levelo_inurba_marseille","lat":43.31727,"lon":5.37794,"is_reserved":false,"is_disabled":false,"rental_uris":{"android":"levelo://app?vid=b64dad25-8e0d-4258-bfd2-304c64c6d313","ios":"levelo://app?vid=b64dad25-8e0d-4258-bfd2-304c64c6d313"},"vehicle_type_id":"4","last_reported":1753536216,"current_range_meters":19200,"station_id":"","pricing_plan_id":"cebpf4jnsgd1na2vs0mg"},{"bike_id":"25886276-7bf4-4822-a5aa-3fbd734b02a7","system_id":"levelo_inurba_marseille","lat":43.287,"lon":5.37386,"is_reserved":false,"is_disabled":false,"rental_uris":{"android":"levelo://app?vid=25886276-7bf4-4822-a5aa-3fbd734b02a7","ios":"levelo://app?vid=25886276-7bf4-4822-a5aa-3fbd734b02a7"},"vehicle_type_id":"4","last_reported":1753536216,"current_range_meters":19200,"station_id":"ce4bh3p2rcd13ifvqdq0","pricing_plan_id":"cebpf4jnsgd1na2vs0mg"},{"bike_id":"55661540-733b-4bd0-ad5d-bb688398f06e","system_id":"levelo_inurba_marseille","lat":43.22511,"lon":5.34783,"is_reserved":false,"is_disabled":false,"rental_uris":{"android":"levelo://app?vid=55661540-733b-4bd0-ad5d-bb688398f06e","ios":"levelo://app?vid=55661540-733b-4bd0-ad5d-bb688398f06e"},"vehicle_type_id":"4","last_reported":1753536216,"current_range_meters":19200,"station_id":"st_cvj5dfep6f1abm77gieg","pricing_plan_id":"cebpf4jnsgd1na2vs0mg"},{"bike_id":"22256e74-ee3e-44a8-804d-7317fbca0724","system_id":"levelo_inurba_marseille","lat":43.273712,"lon":5.362611,"is_reserved":false,"is_disabled":false,"rental_uris":{"android":"levelo://app?vid=22256e74-ee3e-44a8-804d-7317fbca0724","ios":"levelo://app?vid=22256e74-ee3e-44a8-804d-7317fbca0724"},"vehicle_type_id":"4","last_reported":1753536216,"current_range_meters":19200,"station_id":"","pricing_plan_id":"cebpf4jnsgd1na2vs0mg"},{"bike_id":"ce9eab99-22dc-4fd9-a464-be63e9848a82","system_id":"levelo_inurba_marseille","lat":43.30146,"lon":5.38106,"is_reserved":false,"is_disabled":false,"rental_uris":{"android":"levelo://app?vid=ce9eab99-22dc-4fd9-a464-be63e9848a82","ios":"levelo://app?vid=ce9eab99-22dc-4fd9-a464-be63e9848a82"},"vehicle_type_id":"4","last_reported":1753536216,"current_range_meters":19600,"station_id":"ce4bgjp2rcd13ifvqbh0","pricing_plan_id":"cebpf4jnsgd1na2vs0mg"},{"bike_id":"ac070bbf-3906-47e2-b9c4-db1f36dabab3","system_id":"levelo_inurba_marseille","lat":43.2827,"lon":5.35065,"is_reserved":false,"is_disabled":false,"rental_uris":{"android":"levelo://app?vid=ac070bbf-3906-47e2-b9c4-db1f36dabab3","ios":"levelo://app?vid=ac070bbf-3906-47e2-b9c4-db1f36dabab3"},"vehicle_type_id":"4","last_reported":1753536216,"current_range_meters":19600,"station_id":"ce4bhbp2rcd13ifvqerg","pricing_plan_id":"cebpf4jnsgd1na2vs0mg"},{"bike_id":"f0a5bf42-f644-4ab5-9855-d6ce6714832d","system_id":"levelo_inurba_marseille","lat":43.30551,"lon":5.36542,"is_reserved":false,"is_disabled":false,"rental_uris":{"android":"levelo://app?vid=f0a5bf42-f644-4ab5-9855-d6ce6714832d","ios":"levelo://app?vid=f0a5bf42-f644-4ab5-9855-d6ce6714832d"},"vehicle_type_id":"4","last_reported":1753536216,"current_range_meters":19600,"station_id":"ce4bgs12rcd13ifvqcag","pricing_plan_id":"cebpf4jnsgd1na2vs0mg"},{"bike_id":"37ec236f-77e5-4cf6-80a5-87bf9f01b183","system_id":"levelo_inurba_marseille","lat":43.235284,"lon":5.36062,"is_reserved":false,"is_disabled":false,"rental_uris":{"android":"levelo://app?vid=37ec236f-77e5-4cf6-80a5-87bf9f01b183","ios":"levelo://app?vid=37ec236f-77e5-4cf6-80a5-87bf9f01b183"},"vehicle_type_id":"4","last_reported":1753536216,"current_range_meters":19600,"station_id":"","pricing_plan_id":"cebpf4jnsgd1na2vs0mg"},{"bike_id":"b1463633-4725-479e-b4c9-10ebded39199","system_id":"levelo_inurba_marseille","lat":43.24175,"lon":5.364,"is_reserved":false,"is_disabled":false,"rental_uris":{"android":"levelo://app?vid=b1463633-4725-479e-b4c9-10ebded39199","ios":"levelo://app?vid=b1463633-4725-479e-b4c9-10ebded39199"},"vehicle_type_id":"4","last_reported":1753536216,"current_range_meters":19600,"station_id":"cpo36qri1sfpv3e86is0","pricing_plan_id":"cebpf4jnsgd1na2vs0mg"},