{"last_updated":1685221521,"ttl":30,"version":"2.2","data":{"bikes":[{"bike_id":"775f2bd0-c0e4-4d12-b90c-d7f79c7878a2","system_id":"levelo_inurba_marseille","lat":43.313391,"lon":5.36706,"is_reserved":false,"is_disabled":false,"rental_uris":{"android":"levelo://app?vid=775f2bd0-c0e4-4d12-b90c-d7f79c7878a2","ios":"levelo://app?vid=775f2bd0-c0e4-4d12-b90c-d7f79c7878a2"},"vehicle_type_id":"4","last_reported":1685221522,"current_range_meters":31600,"station_id":"ce4bgr92rcd13ifvqc6g","pricing_plan_id":"free"},{"bike_id":"0d8f5188-e404-426b-8594-c753d71ed31e","system_id":"levelo_inurba_marseille","lat":43.312239,"lon":5.368562,"is_reserved":false,"is_disabled":false,"rental_uris":{"android":"levelo://app?vid=0d8f5188-e404-426b-8594-c753d71ed31e","ios":"levelo://app?vid=0d8f5188-e404-426b-8594-c753d71ed31e"},"vehicle_type_id":"4","last_reported":1685221522,"current_range_meters":31600,"station_id":"ce4bgl92rcd13ifvqbq0","pricing_plan_id":"free"},{"bike_id":"54716154-8db0-4266-ab8e-a58a594b5020","system_id":"levelo_inurba_marseille","lat":43.312239,"lon":5.368562,"is_reserved":false,"is_disabled":false,"rental_uris":{"android":"levelo://app?vid=54716154-8db0-4266-ab8e-a58a594b5020","ios":"levelo://app?vid=54716154-8db0-4266-ab8e-a58a594b5020"},"vehicle_type_id":"4","last_reported":1685221522,"current_range_meters":0,"station_id":"ce4bgl92rcd13ifvqbq0","pricing_plan_id":"free"},{"bike_id":"79e42267-e5f2-44c4-97a2-1ea50a3ad8ac","system_id":"levelo_inurba_marseille","lat":43.31224,"lon":5.36866,"is_reserved":false,"is_disabled":false,"rental_uris":{"android":"levelo://app?vid=79e42267-e5f2-44c4-97a2-1ea50a3ad8ac","ios":"levelo://app?vid=79e42267-e5f2-44c4-97a2-1ea50a3ad8ac"},"vehicle_type_id":"4","last_reported":1685221522,"current_range_meters":31200,"station_id":"ce4bgl92rcd13ifvqbq0","pricing_plan_id":"free"},{"bike_id":"57469489-9058-4306-86b2-d63d9adfce16","system_id":"levelo_inurba_marseille","lat":43.312239,"lon":5.368562,"is_reserved":false,"is_disabled":false,"rental_uris":{"android":"levelo://app?vid=57469489-9058-4306-86b2-d63d9adfce16","ios":"levelo://app?vid=57469489-9058-4306-86b2-d63d9adfce16"},"vehicle_type_id":"4","last_reported":1685221522,"current_range_meters":29200,"station_id":"ce4bgl92rcd13ifvqbq0","pricing_plan_id":"free"},{"bike_id":"03599b92-07a4-4470-ae7d-d44cbdcad97f","system_id":"levelo_inurba_marseille","lat":43.312239,"lon":5.368562,"is_reserved":false,"is_disabled":false,"rental_uris":{"android":"levelo://app?vid=03599b92-07a4-4470-ae7d-d44cbdcad97f","ios":"levelo://app?vid=03599b92-07a4-4470-ae7d-d44cbdcad97f"},"vehicle_type_id":"4","last_reported":1685221522,"current_range_meters":30400,"station_id":"ce4bgl92rcd13ifvqbq0","pricing_plan_id":"free"},{"bike_id":"471d83d1-63e2-402b-b20d-ca67c7953e79","system_id":"levelo_inurba_marseille","lat":43.31478,"lon":5.37308,"is_reserved":false,"is_disabled":false,"rental_uris":{"android":"levelo://app?vid=471d83d1-63e2-402b-b20d-ca67c7953e79","ios":"levelo://app?vid=471d83d1-63e2-402b-b20d-ca67c7953e79"},"vehicle_type_id":"4","last_reported":1685221522,"current_range_meters":2400,"station_id":"ce4bgt12rcd13ifvqcd0","pricing_plan_id":"free"},{"bike_id":"252b632d-b2f1-4bd2-8cae-da9c7d095f0f","system_id":"levelo_inurba_marseille","lat":43.314811,"lon":5.373103,"is_reserved":false,"is_disabled":false,"rental_uris":{"android":"levelo://app?vid=252b632d-b2f1-4bd2-8cae-da9c7d095f0f","ios":"levelo://app?vid=252b632d-b2f1-4bd2-8cae-da9c7d095f0f"},"vehicle_type_id":"4","last_reported":1685221522,"current_range_meters":3600,"station_id":"ce4bgt12rcd13ifvqcd0","pricing_plan_id":"free"},{"bike_id":"bded2dc6-8ed9-483b-9ac8-66c21ac17c9e","system_id":"levelo_inurba_marseille","lat":43.311131,"lon":5.377651,"is_reserved":false,"is_disabled":false,"rental_uris":{"android":"levelo://app?vid=bded2dc6-8ed9-483b-9ac8-66c21ac17c9e","ios":"levelo://app?vid=bded2dc6-8ed9-483b-9ac8-66c21ac17c9e"},"vehicle_type_id":"4","last_reported":1685221522,"current_range_meters":0,"station_id":"ce4bgt92rcd13ifvqcg0","pricing_plan_id":"free"},{"bike_id":"5b477c80-42e3-4b58-b10c-69df32f43c97","system_id":"levelo_inurba_marseille","lat":43.303046,"lon":5.368981,"is_reserved":false,"is_disabled":false,"rental_uris":{"android":"levelo://app?vid=5b477c80-42e3-4b58-b10c-69df32f43c97","ios":"levelo://app?vid=5b477c80-42e3-4b58-b10c-69df32f43c97"},"vehicle_type_id":"4","last_reported":1685221522,"current_range_meters":0,"station_id":"ce4bgqh2rcd13ifvqc5g","pricing_plan_id":"free"},{"bike_id":"043b8837-d974-4e8a-824b-87c48710aa6e","system_id":"levelo_inurba_marseille","lat":43.319935,"lon":5.381699,"is_reserved":false,"is_disabled":false,"rental_uris":{"android":"levelo://app?vid=043b8837-d974-4e8a-824b-87c48710aa6e","ios":"levelo://app?vid=043b8837-d974-4e8a-824b-87c48710aa6e"},"vehicle_type_id":"4","last_reported":1685221522,"current_range_meters":10000,"station_id":"ce4bhr12rcd13ifvqhpg","pricing_plan_id":"free"},{"bike_id":"6bee5066-104b-471d-aa34-e3cd488a62e0","system_id":"levelo_inurba_marseille","lat":43.319935,"lon":5.381699,"is_reserved":false,"is_disabled":false,"rental_uris":{"android":"levelo://app?vid=6bee5066-104b-471d-aa34-e3cd488a62e0","ios":"levelo://app?vid=6bee5066-104b-471d-aa34-e3cd488a62e0"},"vehicle_type_id":"4","last_reported":1685221522,"current_range_meters":13200,"station_id":"ce4bhr12rcd13ifvqhpg","pricing_plan_id":"free"},{"bike_id":"38d4bbd0-5382-4389-b7c6-01583866625c","system_id":"levelo_inurba_marseille","lat":43.313571,"lon":5.384829,"is_reserved":false,"is_disabled":false,"rental_uris":{"android":"levelo://app?vid=38d4bbd0-5382-4389-b7c6-01583866625c","ios":"levelo://app?vid=38d4bbd0-5382-4389-b7c6-01583866625c"},"vehicle_type_id":"4","last_reported":1685221522,"current_range_meters":7200,"station_id":"ce4bgt92rcd13ifvqcf0","pricing_plan_id":"free"},{"bike_id":"4dad386b-91b9-4d97-8806-171b8abbe14e","system_id":"levelo_inurba_marseille","lat":43.313571,"lon":5.384829,"is_reserved":false,"is_disabled":false,"rental_uris":{"android":"levelo://app?vid=4dad386b-91b9-4d97-8806-171b8abbe14e","ios":"levelo://app?vid=4dad386b-91b9-4d97-8806-171b8abbe14e"},"vehicle_type_id":"4","last_reported":1685221522,"current_range_meters":7600,"station_id":"ce4bgt92rcd13ifvqcf0","pricing_plan_id":"free"},{"bike_id":"e4c19211-01df-4b4d-a36e-a7b986639261","system_id":"levelo_inurba_marseille","lat":43.313571,"lon":5.384829,"is_reserved":false,"is_disabled":false,"rental_uris":{"android":"levelo://app?vid=e4c19211-01df-4b4d-a36e-a7b986639261","ios":"levelo://app?vid=e4c19211-01df-4b4d-a36e-a7b986639261"},"vehicle_type_id":"4","last_reported":1685221522,"current_range_meters":9200,"station_id":"ce4bgt92rcd13ifvqcf0","pricing_plan_id":"free"},{"bike_id":"1306a918-2cbf-4407-b0bc-ec71b82da84f","system_id":"levelo_inurba_marseille","lat":43.299222,"lon":5.365554,"is_reserved":false,"is_disabled":false,"rental_uris":{"android":"levelo://app?vid=1306a918-2cbf-4407-b0bc-ec71b82da84f","ios":"levelo://app?vid=1306a918-2cbf-4407-b0bc-ec71b82da84f"},"vehicle_type_id":"4","last_reported":1685221522,"current_range_meters":14000,"station_id":"ce4bgm92rcd13ifvqbr0","pricing_plan_id":"free"},{"bike_id":"3cfd1b5f-86db-4c1e-9fd2-40555f34297f","system_id":"levelo_inurba_marseille","lat":43.29919,"lon":5.36533,"is_reserved":false,"is_disabled":false,"rental_uris":{"android":"levelo://app?vid=3cfd1b5f-86db-4c1e-9fd2-40555f34297f","ios":"levelo://app?vid=3cfd1b5f-86db-4c1e-9fd2-40555f34297f"},"vehicle_type_id":"4","last_reported":1685221522,"current_range_meters":26400,"station_id":"","pricing_plan_id":"free"},{"bike_id":"e197b317-2e82-4b6d-a34b-36adf7f842d6","system_id":"levelo_inurba_marseille","lat":43.311722,"lon":5.387247,"is_reserved":false,"is_disabled":false,"rental_uris":{"android":"levelo://app?vid=e197b317-2e82-4b6d-a34b-36adf7f842d6","ios":"levelo://app?vid=e197b317-2e82-4b6d-a34b-36adf7f842d6"},"vehicle_type_id":"4","last_reported":1685221522,"current_range_meters":6400,"station_id":"ce4bgv12rcd13ifvqcp0","pricing_plan_id":"free"},{"bike_id":"3e2180d3-fd94-4a1f-82dc-1a6ab4376402","system_id":"levelo_inurba_marseille","lat":43.311722,"lon":5.387247,"is_reserved":false,"is_disabled":false,"rental_uris":{"android":"levelo://app?vid=3e2180d3-fd94-4a1f-82dc-1a6ab4376402","ios":"levelo://app?vid=3e2180d3-fd94-4a1f-82dc-1a6ab4376402"},"vehicle_type_id":"4","last_reported":1685221522,"current_range_meters":6000,"station_id":"ce4bgv12rcd13ifvqcp0","pricing_plan_id":"free"},{"bike_id":"f2cb7529-e7ff-4990-ad6c-0ee033b83005","system_id":"levelo_inurba_marseille","lat":43.311472,"lon":5.387617,"is_reserved":false,"is_disabled":false,"rental_uris":{"android":"levelo://app?vid=f2cb7529-e7ff-4990-ad6c-0ee033b83005","ios":"levelo://app?vid=f2cb7529-e7ff-4990-ad6c-0ee033b83005"},"vehicle_type_id":"4","last_reported":1685221522,"current_range_meters":3200,"station_id":"","pricing_plan_id":"free"},{"bike_id":"fcbed497-d2a8-482c-92d1-ee59547f63b3","system_id":"levelo_inurba_marseille","lat":43.32825,"lon":5.36685,"is_reserved":false,"is_disabled":false,"rental_uris":{"android":"levelo://app?vid=fcbed497-d2a8-482c-92d1-ee59547f63b3","ios":"levelo://app?vid=fcbed497-d2a8-482c-92d1-ee59547f63b3"},"vehicle_type_id":"4","last_reported":1685221522,"current_range_meters":31200,"station_id":"ce4bhs92rcd13ifvqi0g","pricing_plan_id":"free"},{"bike_id":"43d041a6-cdcf-4897-8665-6ed61b2c409c","system_id":"levelo_inurba_marseille","lat":43.328371,"lon":5.366909,"is_reserved":false,"is_disabled":false,"rental_uris":{"android":"levelo://app?vid=43d041a6-cdcf-4897-8665-6ed61b2c409c","ios":"levelo://app?vid=43d041a6-cdcf-4897-8665-6ed61b2c409c"},"vehicle_type_id":"4","last_reported":1685221522,"current_range_meters":31200,"station_id":"ce4bhs92rcd13ifvqi0g","pricing_plan_id":"free"},{"bike_id":"ec00ef44-24fd-4afb-8bb4-3cf75fde794f","system_id":"levelo_inurba_marseille","lat":43.328371,"lon":5.366909,"is_reserved":false,"is_disabled":false,"rental_uris":{"android":"levelo://app?vid=ec00ef44-24fd-4afb-8bb4-3cf75fde794f","ios":"levelo://app?vid=ec00ef44-24fd-4afb-8bb4-3cf75fde794f"},"vehicle_type_id":"4","last_reported":1685221522,"current_range_meters":31200,"station_id":"ce4bhs92rcd13ifvqi0g","pricing_plan_id":"free"},{"bike_id":"2c5638b6-851d-49d7-8386-350e599f6248","system_id":"levelo_inurba_marseille","lat":43.328371,"lon":5.366912,"is_reserved":false,"is_disabled":false,"rental_uris":{"android":"levelo://app?vid=2c5638b6-851d-49d7-8386-350e599f6248","ios":"levelo://app?vid=2c5638b6-851d-49d7-8386-350e599f6248"},"vehicle_type_id":"4","last_reported":1685221522,"current_range_meters":19200,"station_id":"ce4bhs92rcd13ifvqi0g","pricing_plan_id":"free"},{"bike_id":"e56cb228-bb4d-4c0c-918c-5fb17ff8d7c3","system_id":"levelo_inurba_marseille","lat":43.32829,"lon":5.36687,"is_reserved":false,"is_disabled":false,"rental_uris":{"android":"levelo://app?vid=e56cb228-bb4d-4c0c-918c-5fb17ff8d7c3","ios":"levelo://app?vid=e56cb228-bb4d-4c0c-918c-5fb17ff8d7c3"},"vehicle_type_id":"4","last_reported":1685221522,"current_range_meters":27600,"station_id":"","pricing_plan_id":"free"},{"bike_id":"3232ef33-5859-4816-89f8-ba13659ad816","system_id":"levelo_inurba_marseille","lat":43.3283,"lon":5.36686,"is_reserved":false,"is_disabled":false,"rental_uris":{"android":"levelo://app?vid=3232ef33-5859-4816-89f8-ba13659ad816","ios":"levelo://app?vid=3232ef33-5859-4816-89f8-ba13659ad816"},"vehicle_type_id":"4","last_reported":1685221522,"current_range_meters":0,"station_id":"ce4bhs92rcd13ifvqi0g","pricing_plan_id":"free"},{"bike_id":"6aadd20f-ee22-42f7-9c69-f3066c5dfcf1","system_id":"levelo_inurba_marseille","lat":43.328371,"lon":5.366909,"is_reserved":false,"is_disabled":false,"rental_uris":{"android":"levelo://app?vid=6aadd20f-ee22-42f7-9c69-f3066c5dfcf1","ios":"levelo://app?vid=6aadd20f-ee22-42f7-9c69-f3066c5dfcf1"},"vehicle_type_id":"4","last_reported":1685221522,"current_range_meters":14000,"station_id":"ce4bhs92rcd13ifvqi0g","pricing_plan_id":"free"},{"bike_id":"a83b73cc-71af-4049-8863-614fb9abda16","system_id":"levelo_inurba_marseille","lat":43.2971,"lon":5.36605,"is_reserved":false,"is_disabled":false,"rental_uris":{"android":"levelo://app?vid=a83b73cc-71af-4049-8863-614fb9abda16","ios":"levelo://app?vid=a83b73cc-71af-4049-8863-614fb9abda16"},"vehicle_type_id":"4","last_reported":1685221522,"current_range_meters":0,"station_id":"","pricing_plan_id":"free"},{"bike_id":"794f0de2-ca9c-47ee-a77a-3f1b232a3e18","system_id":"levelo_inurba_marseille","lat":43.32343,"lon":5.38497,"is_reserved":false,"is_disabled":false,"rental_uris":{"android":"levelo://app?vid=794f0de2-ca9c-47ee-a77a-3f1b232a3e18","ios":"levelo://app?vid=794f0de2-ca9c-47ee-a77a-3f1b232a3e18"},"vehicle_type_id":"4","last_reported":1685221522,"current_range_meters":18000,"station_id":"","pricing_plan_id":"free"},{"bike_id":"3e8a7d41-dc39-47c4-931c-b2b523a20199","system_id":"levelo_inurba_marseille","lat":43.309589,"lon":5.390258,"is_reserved":false,"is_disabled":false,"rental_uris":{"android":"levelo://app?vid=3e8a7d41-dc39-47c4-931c-b2b523a20199","ios":"levelo://app?vid=3e8a7d41-dc39-47c4-931c-b2b523a20199"},"vehicle_type_id":"4","last_reported":1685221522,"current_range_meters":30000,"station_id":"ce4bgup2rcd13ifvqco0","pricing_plan_id":"free"},{"bike_id":"83de5f3e-5acb-4ca1-b78a-b0ba531546ee","system_id":"levelo_inurba_marseille","lat":43.309589,"lon":5.390258,"is_reserved":false,"is_disabled":false,"rental_uris":{"android":"levelo://app?vid=83de5f3e-5acb-4ca1-b78a-b0ba531546ee","ios":"levelo://app?vid=83de5f3e-5acb-4ca1-b78a-b0ba531546ee"},"vehicle_type_id":"4","last_reported":1685221522,"current_range_meters":30400,"station_id":"ce4bgup2rcd13ifvqco0","pricing_plan_id":"free"},{"bike_id":"7891d59c-88f7-43ce-99d7-78c68e14719b","system_id":"levelo_inurba_marseille","lat":43.309589,"lon":5.390258,"is_reserved":false,"is_disabled":false,"rental_uris":{"android":"levelo://app?vid=7891d59c-88f7-43ce-99d7-78c68e14719b","ios":"levelo://app?vid=7891d59c-88f7-43ce-99d7-78c68e14719b"},"vehicle_type_id":"4","last_reported":1685221522,"current_range_meters":1200,"station_id":"ce4bgup2rcd13ifvqco0","pricing_plan_id":"free"},{"bike_id":"2261bff3-93e9-47cf-8574-19555d425f9f","system_id":"levelo_inurba_marseille","lat":43.309589,"lon":5.390258,"is_reserved":false,"is_disabled":false,"rental_uris":{"android":"levelo://app?vid=2261bff3-93e9-47cf-8574-19555d425f9f","ios":"levelo://app?vid=2261bff3-93e9-47cf-8574-19555d425f9f"},"vehicle_type_id":"4","last_reported":1685221522,"current_range_meters":9200,"station_id":"ce4bgup2rcd13ifvqco0","pricing_plan_id":"free"},{"bike_id":"5685e6eb-ffef-460d-a67c-2db4393dd1cf","system_id":"levelo_inurba_marseille","lat":43.309589,"lon":5.390258,"is_reserved":false,"is_disabled":false,"rental_uris":{"android":"levelo://app?vid=5685e6eb-ffef-460d-a67c-2db4393dd1cf","ios":"levelo://app?vid=5685e6eb-ffef-460d-a67c-2db4393dd1cf"},"vehicle_type_id":"4","last_reported":1685221522,"current_range_meters":2000,"station_id":"ce4bgup2rcd13ifvqco0","pricing_plan_id":"free"},{"bike_id":"985e119f-d4de-4988-bf16-0b95ea1b61d5","system_id":"levelo_inurba_marseille","lat":43.309589,"lon":5.390258,"is_reserved":false,"is_disabled":false,"rental_uris":{"android":"levelo://app?vid=985e119f-d4de-4988-bf16-0b95ea1b61d5","ios":"levelo://app?vid=985e119f-d4de-4988-bf16-0b95ea1b61d5"},"vehicle_type_id":"4","last_reported":1685221522,"current_range_meters":0,"station_id":"ce4bgup2rcd13ifvqco0","pricing_plan_id":"free"},{"bike_id":"55f4fa09-749c-43a4-9483-2329a69a8e3a","system_id":"levelo_inurba_marseille","lat":43.309589,"lon":5.390258,"is_reserved":false,"is_disabled":false,"rental_uris":{"android":"levelo://app?vid=55f4fa09-749c-43a4-9483-2329a69a8e3a","ios":"levelo://app?vid=55f4fa09-749c-43a4-9483-2329a69a8e3a"},"vehicle_type_id":"4","last_reported":1685221522,"current_range_meters":6800,"station_id":"ce4bgup2rcd13ifvqco0","pricing_plan_id":"free"},{"bike_id":"62482ec1-8af5-4bc3-89ae-fc0055de8934","system_id":"levelo_inurba_marseille","lat":43.309589,"lon":5.390258,"is_reserved":false,"is_disabled":false,"rental_uris":{"android":"levelo://app?vid=62482ec1-8af5-4bc3-89ae-fc0055de8934","ios":"levelo://app?vid=62482ec1-8af5-4bc3-89ae-fc0055de8934"},"vehicle_type_id":"4","last_reported":1685221522,"current_range_meters":2800,"station_id":"ce4bgup2rcd13ifvqco0","pricing_plan_id":"free"},{"bike_id":"030aad06-7178-47f9-9a38-ccf25190a144","system_id":"levelo_inurba_marseille","lat":43.309589,"lon":5.390258,"is_reserved":false,"is_disabled":false,"rental_uris":{"android":"levelo://app?vid=030aad06-7178-47f9-9a38-ccf25190a144","ios":"levelo://app?vid=030aad06-7178-47f9-9a38-ccf25190a144"},"vehicle_type_id":"4","last_reported":1685221522,"current_range_meters":18400,"station_id":"ce4bgup2rcd13ifvqco0","pricing_plan_id":"free"},{"bike_id":"04f6883d-fac2-49cf-876c-0d231a0edf40","system_id":"levelo_inurba_marseille","lat":43.317557,"lon":5.390173,"is_reserved":false,"is_disabled":false,"rental_uris":{"android":"levelo://app?vid=04f6883d-fac2-49cf-876c-0d231a0edf40","ios":"levelo://app?vid=04f6883d-fac2-49cf-876c-0d231a0edf40"},"vehicle_type_id":"4","last_reported":1685221522,"current_range_meters":30000,"station_id":"ce4bhqp2rcd13ifvqhng","pricing_plan_id":"free"},{"bike_id":"fde838ed-4f10-4019-b3eb-3817206057a5","system_id":"levelo_inurba_marseille","lat":43.304278,"lon":5.388868,"is_reserved":false,"is_disabled":false,"rental_uris":{"android":"levelo://app?vid=fde838ed-4f10-4019-b3eb-3817206057a5","ios":"levelo://app?vid=fde838ed-4f10-4019-b3eb-3817206057a5"},"vehicle_type_id":"4","last_reported":1685221522,"current_range_meters":20800,"station_id":"ce4bgk12rcd13ifvqbi0","pricing_plan_id":"free"},{"bike_id":"35e4fc5b-f17d-4129-a8bb-37d433e7481d","system_id":"levelo_inurba_marseille","lat":43.299717,"lon":5.384845,"is_reserved":false,"is_disabled":false,"rental_uris":{"android":"levelo://app?vid=35e4fc5b-f17d-4129-a8bb-37d433e7481d","ios":"levelo://app?vid=35e4fc5b-f17d-4129-a8bb-37d433e7481d"},"vehicle_type_id":"4","last_reported":1685221522,"current_range_meters":0,"station_id":"ce4bgj92rcd13ifvqbd0","pricing_plan_id":"free"},{"bike_id":"7f49ef87-7fc7-45b0-8263-747245d48ec0","system_id":"levelo_inurba_marseille","lat":43.32365,"lon":5.3888,"is_reserved":false,"is_disabled":false,"rental_uris":{"android":"levelo://app?vid=7f49ef87-7fc7-45b0-8263-747245d48ec0","ios":"levelo://app?vid=7f49ef87-7fc7-45b0-8263-747245d48ec0"},"vehicle_type_id":"4","last_reported":1685221522,"current_range_meters":6400,"station_id":"ce4bhqp2rcd13ifvqhog","pricing_plan_id":"free"},{"bike_id":"949bb0f6-7d71-41c2-b198-e538c94a20cf","system_id":"levelo_inurba_marseille","lat":43.29601,"lon":5.381084,"is_reserved":false,"is_disabled":false,"rental_uris":{"android":"levelo://app?vid=949bb0f6-7d71-41c2-b198-e538c94a20cf","ios":"levelo://app?vid=949bb0f6-7d71-41c2-b198-e538c94a20cf"},"vehicle_type_id":"4","last_reported":1685221522,"current_range_meters":2000,"station_id":"ce4bgl12rcd13ifvqbo0","pricing_plan_id":"free"},{"bike_id":"38e0f2fc-564b-4a8c-93e4-ab45054357ae","system_id":"levelo_inurba_marseille","lat":43.29602,"lon":5.381084,"is_reserved":false,"is_disabled":false,"rental_uris":{"android":"levelo://app?vid=38e0f2fc-564b-4a8c-93e4-ab45054357ae","ios":"levelo://app?vid=38e0f2fc-564b-4a8c-93e4-ab45054357ae"},"vehicle_type_id":"4","last_reported":1685221522,"current_range_meters":4800,"station_id":"ce4bgl12rcd13ifvqbo0","pricing_plan_id":"free"},{"bike_id":"9f925e50-90dc-4874-a20b-641f760e0e75","system_id":"levelo_inurba_marseille","lat":43.29602,"lon":5.381084,"is_reserved":false,"is_disabled":false,"rental_uris":{"android":"levelo://app?vid=9f925e50-90dc-4874-a20b-641f760e0e75","ios":"levelo://app?vid=9f925e50-90dc-4874-a20b-641f760e0e75"},"vehicle_type_id":"4","last_reported":1685221522,"current_range_meters":20400,"station_id":"ce4bgl12rcd13ifvqbo0","pricing_plan_id":"free"},{"bike_id":"544c9fe6-21eb-4f41-9a8d-0df2c1c3ec5f","system_id":"levelo_inurba_marseille","lat":43.293751,"lon":5.378405,"is_reserved":false,"is_disabled":false,"rental_uris":{"android":"levelo://app?vid=544c9fe6-21eb-4f41-9a8d-0df2c1c3ec5f","ios":"levelo://app?vid=544c9fe6-21eb-4f41-9a8d-0df2c1c3ec5f"},"vehicle_type_id":"4","last_reported":1685221522,"current_range_meters":13600,"station_id":"ce4bh012rcd13ifvqd00","pricing_plan_id":"free"},{"bike_id":"13d2ee16-154f-4ceb-8b85-b987692e4b36","system_id":"levelo_inurba_marseille","lat":43.292282,"lon":5.360624,"is_reserved":false,"is_disabled":false,"rental_uris":{"android":"levelo://app?vid=13d2ee16-154f-4ceb-8b85-b987692e4b36","ios":"levelo://app?vid=13d2ee16-154f-4ceb-8b85-b987692e4b36"},"vehicle_type_id":"4","last_reported":1685221522,"current_range_meters":28800,"station_id":"ce4bh4p2rcd13ifvqe0g","pricing_plan_id":"free"},{"bike_id":"225a21d9-8d45-4db8-b793-58dba6b3f08d","system_id":"levelo_inurba_marseille","lat":43.292311,"lon":5.360731,"is_reserved":false,"is_disabled":false,"rental_uris":{"android":"levelo://app?vid=225a21d9-8d45-4db8-b793-58dba6b3f08d","ios":"levelo://app?vid=225a21d9-8d45-4db8-b793-58dba6b3f08d"},"vehicle_type_id":"4","last_reported":1685221522,"current_range_meters":4400,"station_id":"ce4bhbh2rcd13ifvqeqg","pricing_plan_id":"free"},{"bike_id":"d7097bd2-b142-49d1-a7dc-6b3a42071ca1","system_id":"levelo_inurba_marseille","lat":43.291597,"lon":5.371555,"is_reserved":false,"is_disabled":false,"rental_uris":{"android":"levelo://app?vid=d7097bd2-b142-49d1-a7dc-6b3a42071ca1","ios":"levelo://app?vid=d7097bd2-b142-49d1-a7dc-6b3a42071ca1"},"vehicle_type_id":"4","last_reported":1685221522,"current_range_meters":3600,"station_id":"ce4bha92rcd13ifvqeh0","pricing_plan_id":"free"},{"bike_id":"45294972-8a6d-4cf8-b9b9-19be9a9f5f9c","system_id":"levelo_inurba_marseille","lat":43.313255,"lon":5.396908,"is_reserved":false,"is_disabled":false,"rental_uris":{"android":"levelo://app?vid=45294972-8a6d-4cf8-b9b9-19be9a9f5f9c","ios":"levelo://app?vid=45294972-8a6d-4cf8-b9b9-19be9a9f5f9c"},"vehicle_type_id":"4","last_reported":1685221522,"current_range_meters":18000,"station_id":"ce4bgvp2rcd13ifvqcu0","pricing_plan_id":"free"},{"bike_id":"f5fc4a2d-92ff-4e04-9791-4d12c727d017","system_id":"levelo_inurba_marseille","lat":43.31324,"lon":5.39694,"is_reserved":false,"is_disabled":false,"rental_uris":{"android":"levelo://app?vid=f5fc4a2d-92ff-4e04-9791-4d12c727d017","ios":"levelo://app?vid=f5fc4a2d-92ff-4e04-9791-4d12c727d017"},"vehicle_type_id":"4","last_reported":1685221522,"current_range_meters":5600,"station_id":"","pricing_plan_id":"free"},{"bike_id":"570b0851-74ba-4204-8dcb-3b8eb057d7a0","system_id":"levelo_inurba_marseille","lat":43.29181,"lon":5.35808,"is_reserved":false,"is_disabled":false,"rental_uris":{"android":"levelo://app?vid=570b0851-74ba-4204-8dcb-3b8eb057d7a0","ios":"levelo://app?vid=570b0851-74ba-4204-8dcb-3b8eb057d7a0"},"vehicle_type_id":"4","last_reported":1685221522,"current_range_meters":30400,"station_id":"ce4bhb12rcd13ifvqel0","pricing_plan_id":"free"},{"bike_id":"f98de95f-cc19-4e5e-8c3d-65113151db66","system_id":"levelo_inurba_marseille","lat":43.29529,"lon":5.385581,"is_reserved":false,"is_disabled":false,"rental_uris":{"android":"levelo://app?vid=f98de95f-cc19-4e5e-8c3d-65113151db66","ios":"levelo://app?vid=f98de95f-cc19-4e5e-8c3d-65113151db66"},"vehicle_type_id":"4","last_reported":1685221522,"current_range_meters":31600,"station_id":"ce4bgih2rcd13ifvqba0","pricing_plan_id":"free"},{"bike_id":"aef29f26-f637-4c1d-846d-0777c7d36c6b","system_id":"levelo_inurba_marseille","lat":43.290779,"lon":5.371482,"is_reserved":false,"is_disabled":false,"rental_uris":{"android":"levelo://app?vid=aef29f26-f637-4c1d-846d-0777c7d36c6b","ios":"levelo://app?vid=aef29f26-f637-4c1d-846d-0777c7d36c6b"},"vehicle_type_id":"4","last_reported":1685221522,"current_range_meters":17600,"station_id":"ce4bh5p2rcd13ifvqe4g","pricing_plan_id":"free"},{"bike_id":"483924ce-007f-4e50-b8fb-56d2882f1d1f","system_id":"levelo_inurba_marseille","lat":43.290631,"lon":5.359244,"is_reserved":false,"is_disabled":false,"rental_uris":{"android":"levelo://app?vid=483924ce-007f-4e50-b8fb-56d2882f1d1f","ios":"levelo://app?vid=483924ce-007f-4e50-b8fb-56d2882f1d1f"},"vehicle_type_id":"4","last_reported":1685221522,"current_range_meters":25600,"station_id":"ce4bha92rcd13ifvqeg0","pricing_plan_id":"free"},{"bike_id":"c1f61c05-e561-4413-8c39-f8c3feb6cc27","system_id":"levelo_inurba_marseille","lat":43.289468,"lon":5.363719,"is_reserved":false,"is_disabled":false,"rental_uris":{"android":"levelo://app?vid=c1f61c05-e561-4413-8c39-f8c3feb6cc27","ios":"levelo://app?vid=c1f61c05-e561-4413-8c39-f8c3feb6cc27"},"vehicle_type_id":"4","last_reported":1685221522,"current_range_meters":1200,"station_id":"ce4bhc92rcd13ifvqetg","pricing_plan_id":"free"},{"bike_id":"11d82583-b083-4f1c-91a2-8df0b6d84919","system_id":"levelo_inurba_marseille","lat":43.2894,"lon":5.36398,"is_reserved":false,"is_disabled":false,"rental_uris":{"android":"levelo://app?vid=11d82583-b083-4f1c-91a2-8df0b6d84919","ios":"levelo://app?vid=11d82583-b083-4f1c-91a2-8df0b6d84919"},"vehicle_type_id":"4","last_reported":1685221522,"current_range_meters":9200,"station_id":"","pricing_plan_id":"free"},{"bike_id":"4a92ad37-6ee0-4d0e-9e65-4718b0bc69e5","system_id":"levelo_inurba_marseille","lat":43.290104,"lon":5.356111,"is_reserved":false,"is_disabled":false,"rental_uris":{"android":"levelo://app?vid=4a92ad37-6ee0-4d0e-9e65-4718b0bc69e5","ios":"levelo://app?vid=4a92ad37-6ee0-4d0e-9e65-4718b0bc69e5"},"vehicle_type_id":"4","last_reported":1685221522,"current_range_meters":17600,"station_id":"ce4bhb92rcd13ifvqen0","pricing_plan_id":"free"},{"bike_id":"1419b0e3-00dd-45fa-a560-269d6fa3e4dd","system_id":"levelo_inurba_marseille","lat":43.290104,"lon":5.356111,"is_reserved":false,"is_disabled":false,"rental_uris":{"android":"levelo://app?vid=1419b0e3-00dd-45fa-a560-269d6fa3e4dd","ios":"levelo://app?vid=1419b0e3-00dd-45fa-a560-269d6fa3e4dd"},"vehicle_type_id":"4","last_reported":1685221522,"current_range_meters":31600,"station_id":"ce4bhb92rcd13ifvqen0","pricing_plan_id":"free"},{"bike_id":"2bc83f56-3254-49c5-a545-00352a3f6d21","system_id":"levelo_inurba_marseille","lat":43.290103,"lon":5.356114,"is_reserved":false,"is_disabled":false,"rental_uris":{"android":"levelo://app?vid=2bc83f56-3254-49c5-a545-00352a3f6d21","ios":"levelo://app?vid=2bc83f56-3254-49c5-a545-00352a3f6d21"},"vehicle_type_id":"4","last_reported":1685221522,"current_range_meters":7200,"station_id":"ce4bhb92rcd13ifvqen0","pricing_plan_id":"free"},{"bike_id":"4b8c2f38-c582-497b-8473-6b86729b041d","system_id":"levelo_inurba_marseille","lat":43.290103,"lon":5.356114,"is_reserved":false,"is_disabled":false,"rental_uris":{"android":"levelo://app?vid=4b8c2f38-c582-497b-8473-6b86729b041d","ios":"levelo://app?vid=4b8c2f38-c582-497b-8473-6b86729b041d"},"vehicle_type_id":"4","last_reported":1685221522,"current_range_meters":14400,"station_id":"ce4bhb92rcd13ifvqen0","pricing_plan_id":"free"},{"bike_id":"8930b632-7d4c-4620-9c65-8af05b5bc6a6","system_id":"levelo_inurba_marseille","lat":43.290104,"lon":5.356111,"is_reserved":false,"is_disabled":false,"rental_uris":{"android":"levelo://app?vid=8930b632-7d4c-4620-9c65-8af05b5bc6a6","ios":"levelo://app?vid=8930b632-7d4c-4620-9c65-8af05b5bc6a6"},"vehicle_type_id":"4","last_reported":1685221522,"current_range_meters":31200,"station_id":"ce4bhb92rcd13ifvqen0","pricing_plan_id":"free"},{"bike_id":"192cb7e2-bdc4-426c-be10-714c68183e39","system_id":"levelo_inurba_marseille","lat":43.290103,"lon":5.356114,"is_reserved":false,"is_disabled":false,"rental_uris":{"android":"levelo://app?vid=192cb7e2-bdc4-426c-be10-714c68183e39","ios":"levelo://app?vid=192cb7e2-bdc4-426c-be10-714c68183e39"},"vehicle_type_id":"4","last_reported":1685221522,"current_range_meters":30400,"station_id":"ce4bhb92rcd13ifvqen0","pricing_plan_id":"free"},{"bike_id":"fb533998-0aeb-4b97-847d-968c10a2c05f","system_id":"levelo_inurba_marseille","lat":43.290104,"lon":5.356111,"is_reserved":false,"is_disabled":false,"rental_uris":{"android":"levelo://app?vid=fb533998-0aeb-4b97-847d-968c10a2c05f","ios":"levelo://app?vid=fb533998-0aeb-4b97-847d-968c10a2c05f"},"vehicle_type_id":"4","last_reported":1685221522,"current_range_meters":31600,"station_id":"ce4bhb92rcd13ifvqen0","pricing_plan_id":"free"},{"bike_id":"1b826af6-e8ae-4786-bb79-89a672e09a3e","system_id":"levelo_inurba_marseille","lat":43.290104,"lon":5.356111,"is_reserved":false,"is_disabled":false,"rental_uris":{"android":"levelo://app?vid=1b826af6-e8ae-4786-bb79-89a672e09a3e","ios":"levelo://app?vid=1b826af6-e8ae-4786-bb79-89a672e09a3e"},"vehicle_type_id":"4","last_reported":1685221522,"current_range_meters":28400,"station_id":"ce4bhb92rcd13ifvqen0","pricing_plan_id":"free"},{"bike_id":"51c00415-cd7f-4670-b82e-cdb6a073ae00","system_id":"levelo_inurba_marseille","lat":43.290104,"lon":5.356111,"is_reserved":false,"is_disabled":false,"rental_uris":{"android":"levelo://app?vid=51c00415-cd7f-4670-b82e-cdb6a073ae00","ios":"levelo://app?vid=51c00415-cd7f-4670-b82e-cdb6a073ae00"},"vehicle_type_id":"4","last_reported":1685221522,"current_range_meters":30400,"station_id":"ce4bhb92rcd13ifvqen0","pricing_plan_id":"free"},{"bike_id":"8306ba31-1089-4aa2-a5b6-920c1cbcf786","system_id":"levelo_inurba_marseille","lat":43.290103,"lon":5.356114,"is_reserved":false,"is_disabled":false,"rental_uris":{"android":"levelo://app?vid=8306ba31-1089-4aa2-a5b6-920c1cbcf786","ios":"levelo://app?vid=8306ba31-1089-4aa2-a5b6-920c1cbcf786"},"vehicle_type_id":"4","last_reported":1685221522,"current_range_meters":31600,"station_id":"ce4bhb92rcd13ifvqen0","pricing_plan_id":"free"},{"bike_id":"45ad3201-3aab-40b3-adf2-f4f47bfc7de2","system_id":"levelo_inurba_marseille","lat":43.290103,"lon":5.356114,"is_reserved":false,"is_disabled":false,"rental_uris":{"android":"levelo://app?vid=45ad3201-3aab-40b3-adf2-f4f47bfc7de2","ios":"levelo://app?vid=45ad3201-3aab-40b3-adf2-f4f47bfc7de2"},"vehicle_type_id":"4","last_reported":1685221522,"current_range_meters":27200,"station_id":"ce4bhb92rcd13ifvqen0","pricing_plan_id":"free"},{"bike_id":"538a7ca9-7d68-4e4e-8da7-e8962a4eae05","system_id":"levelo_inurba_marseille","lat":43.297814,"lon":5.393513,"is_reserved":false,"is_disabled":false,"rental_uris":{"android":"levelo://app?vid=538a7ca9-7d68-4e4e-8da7-e8962a4eae05","ios":"levelo://app?vid=538a7ca9-7d68-4e4e-8da7-e8962a4eae05"},"vehicle_type_id":"4","last_reported":1685221522,"current_range_meters":0,"station_id":"chh1huq6cuj3fo74tm60","pricing_plan_id":"free"},{"bike_id":"4c429ab3-3486-4e2b-9937-ebd6d0ec370c","system_id":"levelo_inurba_marseille","lat":43.28987,"lon":5.37828,"is_reserved":false,"is_disabled":false,"rental_uris":{"android":"levelo://app?vid=4c429ab3-3486-4e2b-9937-ebd6d0ec370c","ios":"levelo://app?vid=4c429ab3-3486-4e2b-9937-ebd6d0ec370c"},"vehicle_type_id":"4","last_reported":1685221522,"current_range_meters":28000,"station_id":"ce4bh9p2rcd13ifvqed0","pricing_plan_id":"free"},{"bike_id":"ef82667d-c3b3-4741-9a1c-f11384eb7dab","system_id":"levelo_inurba_marseille","lat":43.28985,"lon":5.37832,"is_reserved":false,"is_disabled":false,"rental_uris":{"android":"levelo://app?vid=ef82667d-c3b3-4741-9a1c-f11384eb7dab","ios":"levelo://app?vid=ef82667d-c3b3-4741-9a1c-f11384eb7dab"},"vehicle_type_id":"4","last_reported":1685221522,"current_range_meters":0,"station_id":"ce4bh9p2rcd13ifvqed0","pricing_plan_id":"free"},{"bike_id":"c5533e9c-ed7f-4aa6-96fb-4dae0da963c7","system_id":"levelo_inurba_marseille","lat":43.295169,"lon":5.390426,"is_reserved":false,"is_disabled":false,"rental_uris":{"android":"levelo://app?vid=c5533e9c-ed7f-4aa6-96fb-4dae0da963c7","ios":"levelo://app?vid=c5533e9c-ed7f-4aa6-96fb-4dae0da963c7"},"vehicle_type_id":"4","last_reported":1685221522,"current_range_meters":20800,"station_id":"ce4bh3p2rcd13ifvqdp0","pricing_plan_id":"free"},{"bike_id":"b3c7a6dc-146f-420b-8389-1eb79136fb7f","system_id":"levelo_inurba_marseille","lat":43.2897,"lon":5.37841,"is_reserved":false,"is_disabled":false,"rental_uris":{"android":"levelo://app?vid=b3c7a6dc-146f-420b-8389-1eb79136fb7f","ios":"levelo://app?vid=b3c7a6dc-146f-420b-8389-1eb79136fb7f"},"vehicle_type_id":"4","last_reported":1685221522,"current_range_meters":0,"station_id":"ce4bh9p2rcd13ifvqed0","pricing_plan_id":"free"},{"bike_id":"735168a7-8d40-437a-bedd-92b0cc3ab3fb","system_id":"levelo_inurba_marseille","lat":43.289741,"lon":5.378306,"is_reserved":false,"is_disabled":false,"rental_uris":{"android":"levelo://app?vid=735168a7-8d40-437a-bedd-92b0cc3ab3fb","ios":"levelo://app?vid=735168a7-8d40-437a-bedd-92b0cc3ab3fb"},"vehicle_type_id":"4","last_reported":1685221522,"current_range_meters":18400,"station_id":"ce4bh9p2rcd13ifvqed0","pricing_plan_id":"free"},{"bike_id":"7cba9057-10ca-4788-8677-ae41cd2d7b88","system_id":"levelo_inurba_marseille","lat":43.294153,"lon":5.386305,"is_reserved":false,"is_disabled":false,"rental_uris":{"android":"levelo://app?vid=7cba9057-10ca-4788-8677-ae41cd2d7b88","ios":"levelo://app?vid=7cba9057-10ca-4788-8677-ae41cd2d7b88"},"vehicle_type_id":"4","last_reported":1685221522,"current_range_meters":10000,"station_id":"ce4bh2h2rcd13ifvqdh0","pricing_plan_id":"free"},{"bike_id":"8989788c-fbdd-4a61-9ad8-1be5c95bdfd4","system_id":"levelo_inurba_marseille","lat":43.28856,"lon":5.358371,"is_reserved":false,"is_disabled":false,"rental_uris":{"android":"levelo://app?vid=8989788c-fbdd-4a61-9ad8-1be5c95bdfd4","ios":"levelo://app?vid=8989788c-fbdd-4a61-9ad8-1be5c95bdfd4"},"vehicle_type_id":"4","last_reported":1685221522,"current_range_meters":0,"station_id":"ce4bhb12rcd13ifvqem0","pricing_plan_id":"free"},{"bike_id":"493860ce-e063-4684-ab33-c360eaf64153","system_id":"levelo_inurba_marseille","lat":43.33744,"lon":5.37451,"is_reserved":false,"is_disabled":false,"rental_uris":{"android":"levelo://app?vid=493860ce-e063-4684-ab33-c360eaf64153","ios":"levelo://app?vid=493860ce-e063-4684-ab33-c360eaf64153"},"vehicle_type_id":"4","last_reported":1685221522,"current_range_meters":20800,"station_id":"","pricing_plan_id":"free"},{"bike_id":"c67b547c-3fcb-4384-8614-e15f558fec55","system_id":"levelo_inurba_marseille","lat":43.33744,"lon":5.37451,"is_reserved":false,"is_disabled":false,"rental_uris":{"android":"levelo://app?vid=c67b547c-3fcb-4384-8614-e15f558fec55","ios":"levelo://app?vid=c67b547c-3fcb-4384-8614-e15f558fec55"},"vehicle_type_id":"4","last_reported":1685221522,"current_range_meters":30000,"station_id":"","pricing_plan_id":"free"},{"bike_id":"141c14ea-594b-43ee-894e-8c44af1dcd73","system_id":"levelo_inurba_marseille","lat":43.33749,"lon":5.37433,"is_reserved":false,"is_disabled":false,"rental_uris":{"android":"levelo://app?vid=141c14ea-594b-43ee-894e-8c44af1dcd73","ios":"levelo://app?vid=141c14ea-594b-43ee-894e-8c44af1dcd73"},"vehicle_type_id":"4","last_reported":1685221522,"current_range_meters":10400,"station_id":"","pricing_plan_id":"free"},{"bike_id":"5aaf445f-f097-4041-99e9-0b2edc8a39b1","system_id":"levelo_inurba_marseille","lat":43.33749,"lon":5.37435,"is_reserved":false,"is_disabled":false,"rental_uris":{"android":"levelo://app?vid=5aaf445f-f097-4041-99e9-0b2edc8a39b1","ios":"levelo://app?vid=5aaf445f-f097-4041-99e9-0b2edc8a39b1"},"vehicle_type_id":"4","last_reported":1685221522,"current_range_meters":23600,"station_id":"","pricing_plan_id":"free"},{"bike_id":"21bebb90-bd37-4351-9ead-f26273aea005","system_id":"levelo_inurba_marseille","lat":43.33752,"lon":5.37431,"is_reserved":false,"is_disabled":false,"rental_uris":{"android":"levelo://app?vid=21bebb90-bd37-4351-9ead-f26273aea005","ios":"levelo://app?vid=21bebb90-bd37-4351-9ead-f26273aea005"},"vehicle_type_id":"4","last_reported":1685221522,"current_range_meters":14400,"station_id":"","pricing_plan_id":"free"},{"bike_id":"556c6db1-2600-4c2b-9521-aae8453517c1","system_id":"levelo_inurba_marseille","lat":43.33756,"lon":5.37429,"is_reserved":false,"is_disabled":false,"rental_uris":{"android":"levelo://app?vid=556c6db1-2600-4c2b-9521-aae8453517c1","ios":"levelo://app?vid=556c6db1-2600-4c2b-9521-aae8453517c1"},"vehicle_type_id":"4","last_reported":1685221522,"current_range_meters":16800,"station_id":"","pricing_plan_id":"free"},{"bike_id":"c622c08e-a260-4027-b92a-839107253eb5","system_id":"levelo_inurba_marseille","lat":43.33755,"lon":5.37453,"is_reserved":false,"is_disabled":false,"rental_uris":{"android":"levelo://app?vid=c622c08e-a260-4027-b92a-839107253eb5","ios":"levelo://app?vid=c622c08e-a260-4027-b92a-839107253eb5"},"vehicle_type_id":"4","last_reported":1685221522,"current_range_meters":28800,"station_id":"","pricing_plan_id":"free"},{"bike_id":"9e8ba907-b276-46b3-a0d4-643791b8cf62","system_id":"levelo_inurba_marseille","lat":43.33756,"lon":5.37449,"is_reserved":false,"is_disabled":false,"rental_uris":{"android":"levelo://app?vid=9e8ba907-b276-46b3-a0d4-643791b8cf62","ios":"levelo://app?vid=9e8ba907-b276-46b3-a0d4-643791b8cf62"},"vehicle_type_id":"4","last_reported":1685221522,"current_range_meters":30400,"station_id":"","pricing_plan_id":"free"},{"bike_id":"ff2ddaef-dea9-4d94-83bb-9a0eca758972","system_id":"levelo_inurba_marseille","lat":43.301117,"lon":5.398795,"is_reserved":false,"is_disabled":false,"rental_uris":{"android":"levelo://app?vid=ff2ddaef-dea9-4d94-83bb-9a0eca758972","ios":"levelo://app?vid=ff2ddaef-dea9-4d94-83bb-9a0eca758972"},"vehicle_type_id":"4","last_reported":1685221522,"current_range_meters":3600,"station_id":"ce4bh0h2rcd13ifvqd40","pricing_plan_id":"free"},{"bike_id":"91ed6729-8baa-4b8d-9f66-8216716fe5a1","system_id":"levelo_inurba_marseille","lat":43.301117,"lon":5.398795,"is_reserved":false,"is_disabled":false,"rental_uris":{"android":"levelo://app?vid=91ed6729-8baa-4b8d-9f66-8216716fe5a1","ios":"levelo://app?vid=91ed6729-8baa-4b8d-9f66-8216716fe5a1"},"vehicle_type_id":"4","last_reported":1685221522,"current_range_meters":3600,"station_id":"ce4bh0h2rcd13ifvqd40","pricing_plan_id":"free"},{"bike_id":"9b75e935-bf83-43c4-8e21-dadac5ecfa58","system_id":"levelo_inurba_marseille","lat":43.29874,"lon":5.39735,"is_reserved":false,"is_disabled":false,"rental_uris":{"android":"levelo://app?vid=9b75e935-bf83-43c4-8e21-dadac5ecfa58","ios":"levelo://app?vid=9b75e935-bf83-43c4-8e21-dadac5ecfa58"},"vehicle_type_id":"4","last_reported":1685221522,"current_range_meters":18000,"station_id":"ce4bh0h2rcd13ifvqd50","pricing_plan_id":"free"},{"bike_id":"b829aba6-cdc8-4be6-b941-bc59bc9afb17","system_id":"levelo_inurba_marseille","lat":43.28665,"lon":5.36353,"is_reserved":false,"is_disabled":false,"rental_uris":{"android":"levelo://app?vid=b829aba6-cdc8-4be6-b941-bc59bc9afb17","ios":"levelo://app?vid=b829aba6-cdc8-4be6-b941-bc59bc9afb17"},"vehicle_type_id":"4","last_reported":1685221522,"current_range_meters":4800,"station_id":"ce4bhah2rcd13ifvqej0","pricing_plan_id":"free"},{"bike_id":"f1351e13-0715-4b51-b339-8b43264d41a6","system_id":"levelo_inurba_marseille","lat":43.29873,"lon":5.39738,"is_reserved":false,"is_disabled":false,"rental_uris":{"android":"levelo://app?vid=f1351e13-0715-4b51-b339-8b43264d41a6","ios":"levelo://app?vid=f1351e13-0715-4b51-b339-8b43264d41a6"},"vehicle_type_id":"4","last_reported":1685221522,"current_range_meters":1600,"station_id":"ce4bh0h2rcd13ifvqd50","pricing_plan_id":"free"},{"bike_id":"9371ea94-cd46-4457-8f8f-0bd4a78a1cf0","system_id":"levelo_inurba_marseille","lat":43.28691,"lon":5.37404,"is_reserved":false,"is_disabled":false,"rental_uris":{"android":"levelo://app?vid=9371ea94-cd46-4457-8f8f-0bd4a78a1cf0","ios":"levelo://app?vid=9371ea94-cd46-4457-8f8f-0bd4a78a1cf0"},"vehicle_type_id":"4","last_reported":1685221522,"current_range_meters":4000,"station_id":"","pricing_plan_id":"free"},{"bike_id":"efe726ee-35ee-4b03-b060-4391914b8498","system_id":"levelo_inurba_marseille","lat":43.302759,"lon":5.400793,"is_reserved":false,"is_disabled":false,"rental_uris":{"android":"levelo://app?vid=efe726ee-35ee-4b03-b060-4391914b8498","ios":"levelo://app?vid=efe726ee-35ee-4b03-b060-4391914b8498"},"vehicle_type_id":"4","last_reported":1685221522,"current_range_meters":1200,"station_id":"ce4bgvh2rcd13ifvqcs0","pricing_plan_id":"free"},{"bike_id":"11a83a28-ae84-4dae-8f25-2b3bbaf8349c","system_id":"levelo_inurba_marseille","lat":43.302759,"lon":5.400793,"is_reserved":false,"is_disabled":false,"rental_uris":{"android":"levelo://app?vid=11a83a28-ae84-4dae-8f25-2b3bbaf8349c","ios":"levelo://app?vid=11a83a28-ae84-4dae-8f25-2b3bbaf8349c"},"vehicle_type_id":"4","last_reported":1685221522,"current_range_meters":31200,"station_id":"ce4bgvh2rcd13ifvqcs0","pricing_plan_id":"free"},{"bike_id":"c08b8b6b-c5bd-4682-bc8f-0110cbeba54e","system_id":"levelo_inurba_marseille","lat":43.290345,"lon":5.38646,"is_reserved":false,"is_disabled":false,"rental_uris":{"android":"levelo://app?vid=c08b8b6b-c5bd-4682-bc8f-0110cbeba54e","ios":"levelo://app?vid=c08b8b6b-c5bd-4682-bc8f-0110cbeba54e"},"vehicle_type_id":"4","last_reported":1685221522,"current_range_meters":4800,"station_id":"ce4bh4p2rcd13ifvqe0g","pricing_plan_id":"free"},{"bike_id":"b93818ab-5f46-4515-abb0-b9516fc685a8","system_id":"levelo_inurba_marseille","lat":43.290336,"lon":5.386425,"is_reserved":false,"is_disabled":false,"rental_uris":{"android":"levelo://app?vid=b93818ab-5f46-4515-abb0-b9516fc685a8","ios":"levelo://app?vid=b93818ab-5f46-4515-abb0-b9516fc685a8"},"vehicle_type_id":"4","last_reported":1685221522,"current_range_meters":10000,"station_id":"ce4bh4p2rcd13ifvqe0g","pricing_plan_id":"free"},{"bike_id":"d81d72e8-3dcd-4d7b-96db-b17873282924","system_id":"levelo_inurba_marseille","lat":43.290336,"lon":5.386425,"is_reserved":false,"is_disabled":false,"rental_uris":{"android":"levelo://app?vid=d81d72e8-3dcd-4d7b-96db-b17873282924","ios":"levelo://app?vid=d81d72e8-3dcd-4d7b-96db-b17873282924"},"vehicle_type_id":"4","last_reported":1685221522,"current_range_meters":800,"station_id":"ce4bh4p2rcd13ifvqe0g","pricing_plan_id":"free"},{"bike_id":"d5c19560-1384-41d7-9837-1735a6c86434","system_id":"levelo_inurba_marseille","lat":43.290336,"lon":5.386425,"is_reserved":false,"is_disabled":false,"rental_uris":{"android":"levelo://app?vid=d5c19560-1384-41d7-9837-1735a6c86434","ios":"levelo://app?vid=d5c19560-1384-41d7-9837-1735a6c86434"},"vehicle_type_id":"4","last_reported":1685221522,"current_range_meters":5600,"station_id":"ce4bh4p2rcd13ifvqe0g","pricing_plan_id":"free"},{"bike_id":"d16e8435-bfd0-4dbc-ae58-730ad14628e9","system_id":"levelo_inurba_marseille","lat":43.28613,"lon":5.37061,"is_reserved":false,"is_disabled":false,"rental_uris":{"android":"levelo://app?vid=d16e8435-bfd0-4dbc-ae58-730ad14628e9","ios":"levelo://app?vid=d16e8435-bfd0-4dbc-ae58-730ad14628e9"},"vehicle_type_id":"4","last_reported":1685221522,"current_range_meters":24400,"station_id":"ce4bht12rcd13ifvqi60","pricing_plan_id":"free"},{"bike_id":"22396d94-7c76-4caa-b48e-1226fbc8d46e","system_id":"levelo_inurba_marseille","lat":43.287185,"lon":5.379373,"is_reserved":false,"is_disabled":false,"rental_uris":{"android":"levelo://app?vid=22396d94-7c76-4caa-b48e-1226fbc8d46e","ios":"levelo://app?vid=22396d94-7c76-4caa-b48e-1226fbc8d46e"},"vehicle_type_id":"4","last_reported":1685221522,"current_range_meters":12800,"station_id":"ce4bh9p2rcd13ifvqec0","pricing_plan_id":"free"},{"bike_id":"4ebe09ea-bbd9-477a-ad27-805daef49ec1","system_id":"levelo_inurba_marseille","lat":43.31649,"lon":5.40437,"is_reserved":false,"is_disabled":false,"rental_uris":{"android":"levelo://app?vid=4ebe09ea-bbd9-477a-ad27-805daef49ec1","ios":"levelo://app?vid=4ebe09ea-bbd9-477a-ad27-805daef49ec1"},"vehicle_type_id":"4","last_reported":1685221522,"current_range_meters":0,"station_id":"ce4bh012rcd13ifvqd00","pricing_plan_id":"free"},{"bike_id":"97eb69d9-45fe-4268-8eb3-b2a7425a5bb8","system_id":"levelo_inurba_marseille","lat":43.29569,"lon":5.39988,"is_reserved":false,"is_disabled":false,"rental_uris":{"android":"levelo://app?vid=97eb69d9-45fe-4268-8eb3-b2a7425a5bb8","ios":"levelo://app?vid=97eb69d9-45fe-4268-8eb3-b2a7425a5bb8"},"vehicle_type_id":"4","last_reported":1685221522,"current_range_meters":13600,"station_id":"ce4bh312rcd13ifvqdj0","pricing_plan_id":"free"},{"bike_id":"a305f1c3-079c-4875-a560-cc83c54e1a7b","system_id":"levelo_inurba_marseille","lat":43.295713,"lon":5.399639,"is_reserved":false,"is_disabled":false,"rental_uris":{"android":"levelo://app?vid=a305f1c3-079c-4875-a560-cc83c54e1a7b","ios":"levelo://app?vid=a305f1c3-079c-4875-a560-cc83c54e1a7b"},"vehicle_type_id":"4","last_reported":1685221522,"current_range_meters":2800,"station_id":"ce4bh312rcd13ifvqdj0","pricing_plan_id":"free"},{"bike_id":"b0b074d0-a572-438d-a71e-245e3de45d19","system_id":"levelo_inurba_marseille","lat":43.288497,"lon":5.393089,"is_reserved":false,"is_disabled":false,"rental_uris":{"android":"levelo://app?vid=b0b074d0-a572-438d-a71e-245e3de45d19","ios":"levelo://app?vid=b0b074d0-a572-438d-a71e-245e3de45d19"},"vehicle_type_id":"4","last_reported":1685221522,"current_range_meters":6000,"station_id":"ce4bh2p2rcd13ifvqdi0","pricing_plan_id":"free"},{"bike_id":"0329baa9-7bc5-4fc4-aecd-48b56e4671f2","system_id":"levelo_inurba_marseille","lat":43.283498,"lon":5.380948,"is_reserved":false,"is_disabled":false,"rental_uris":{"android":"levelo://app?vid=0329baa9-7bc5-4fc4-aecd-48b56e4671f2","ios":"levelo://app?vid=0329baa9-7bc5-4fc4-aecd-48b56e4671f2"},"vehicle_type_id":"4","last_reported":1685221522,"current_range_meters":400,"station_id":"ce4bh412rcd13ifvqdr0","pricing_plan_id":"free"},{"bike_id":"4ee092f4-bbbf-4cbd-88af-bd88fc5959b6","system_id":"levelo_inurba_marseille","lat":43.28337,"lon":5.38113,"is_reserved":false,"is_disabled":false,"rental_uris":{"android":"levelo://app?vid=4ee092f4-bbbf-4cbd-88af-bd88fc5959b6","ios":"levelo://app?vid=4ee092f4-bbbf-4cbd-88af-bd88fc5959b6"},"vehicle_type_id":"4","last_reported":1685221522,"current_range_meters":0,"station_id":"ce4bh412rcd13ifvqdr0","pricing_plan_id":"free"},{"bike_id":"a7d56c75-e262-4abf-bd3a-a21c784c17ce","system_id":"levelo_inurba_marseille","lat":43.29284,"lon":5.40115,"is_reserved":false,"is_disabled":false,"rental_uris":{"android":"levelo://app?vid=a7d56c75-e262-4abf-bd3a-a21c784c17ce","ios":"levelo://app?vid=a7d56c75-e262-4abf-bd3a-a21c784c17ce"},"vehicle_type_id":"4","last_reported":1685221522,"current_range_meters":7200,"station_id":"ce4bh312rcd13ifvqdk0","pricing_plan_id":"free"},{"bike_id":"56310ce4-ebb5-4380-be61-e242d7d2432d","system_id":"levelo_inurba_marseille","lat":43.283502,"lon":5.386471,"is_reserved":false,"is_disabled":false,"rental_uris":{"android":"levelo://app?vid=56310ce4-ebb5-4380-be61-e242d7d2432d","ios":"levelo://app?vid=56310ce4-ebb5-4380-be61-e242d7d2432d"},"vehicle_type_id":"4","last_reported":1685221522,"current_range_meters":8000,"station_id":"ce4bh492rcd13ifvqdvg","pricing_plan_id":"free"},{"bike_id":"b2119253-5e25-4f9e-811b-dc8502abdef3","system_id":"levelo_inurba_marseille","lat":43.28039,"lon":5.369297,"is_reserved":false,"is_disabled":false,"rental_uris":{"android":"levelo://app?vid=b2119253-5e25-4f9e-811b-dc8502abdef3","ios":"levelo://app?vid=b2119253-5e25-4f9e-811b-dc8502abdef3"},"vehicle_type_id":"4","last_reported":1685221522,"current_range_meters":0,"station_id":"ce4bha12rcd13ifvqef0","pricing_plan_id":"free"},{"bike_id":"7a40110c-e19d-4bc6-a907-970e110cfb0f","system_id":"levelo_inurba_marseille","lat":43.28039,"lon":5.369297,"is_reserved":false,"is_disabled":false,"rental_uris":{"android":"levelo://app?vid=7a40110c-e19d-4bc6-a907-970e110cfb0f","ios":"levelo://app?vid=7a40110c-e19d-4bc6-a907-970e110cfb0f"},"vehicle_type_id":"4","last_reported":1685221522,"current_range_meters":23200,"station_id":"ce4bha12rcd13ifvqef0","pricing_plan_id":"free"},{"bike_id":"031e88f5-e66b-4b4b-ade0-9f563103b8bf","system_id":"levelo_inurba_marseille","lat":43.28034,"lon":5.36953,"is_reserved":false,"is_disabled":false,"rental_uris":{"android":"levelo://app?vid=031e88f5-e66b-4b4b-ade0-9f563103b8bf","ios":"levelo://app?vid=031e88f5-e66b-4b4b-ade0-9f563103b8bf"},"vehicle_type_id":"4","last_reported":1685221522,"current_range_meters":800,"station_id":"ce4bha12rcd13ifvqef0","pricing_plan_id":"free"},{"bike_id":"4e714206-f604-4bc2-9215-bb3aeccde328","system_id":"levelo_inurba_marseille","lat":43.2803,"lon":5.36943,"is_reserved":false,"is_disabled":false,"rental_uris":{"android":"levelo://app?vid=4e714206-f604-4bc2-9215-bb3aeccde328","ios":"levelo://app?vid=4e714206-f604-4bc2-9215-bb3aeccde328"},"vehicle_type_id":"4","last_reported":1685221522,"current_range_meters":400,"station_id":"ce4bha12rcd13ifvqef0","pricing_plan_id":"free"},{"bike_id":"4d86ce40-e406-44d0-9e2e-59dcfae65e59","system_id":"levelo_inurba_marseille","lat":43.29041,"lon":5.39947,"is_reserved":false,"is_disabled":false,"rental_uris":{"android":"levelo://app?vid=4d86ce40-e406-44d0-9e2e-59dcfae65e59","ios":"levelo://app?vid=4d86ce40-e406-44d0-9e2e-59dcfae65e59"},"vehicle_type_id":"4","last_reported":1685221522,"current_range_meters":0,"station_id":"ce4bh392rcd13ifvqdm0","pricing_plan_id":"free"},{"bike_id":"73cec002-13f1-4357-abbb-23ba5aaa7919","system_id":"levelo_inurba_marseille","lat":43.29041,"lon":5.399634,"is_reserved":false,"is_disabled":false,"rental_uris":{"android":"levelo://app?vid=73cec002-13f1-4357-abbb-23ba5aaa7919","ios":"levelo://app?vid=73cec002-13f1-4357-abbb-23ba5aaa7919"},"vehicle_type_id":"4","last_reported":1685221522,"current_range_meters":14000,"station_id":"ce4bh392rcd13ifvqdm0","pricing_plan_id":"free"},{"bike_id":"67da2218-6c14-48bc-a253-fdd2486b15ba","system_id":"levelo_inurba_marseille","lat":43.29628,"lon":5.4058,"is_reserved":false,"is_disabled":false,"rental_uris":{"android":"levelo://app?vid=67da2218-6c14-48bc-a253-fdd2486b15ba","ios":"levelo://app?vid=67da2218-6c14-48bc-a253-fdd2486b15ba"},"vehicle_type_id":"4","last_reported":1685221522,"current_range_meters":2800,"station_id":"ce4bh0h2rcd13ifvqd60","pricing_plan_id":"free"},{"bike_id":"60756bdc-6144-47bb-b3b5-23e9ca6a742f","system_id":"levelo_inurba_marseille","lat":43.281044,"lon":5.378308,"is_reserved":false,"is_disabled":false,"rental_uris":{"android":"levelo://app?vid=60756bdc-6144-47bb-b3b5-23e9ca6a742f","ios":"levelo://app?vid=60756bdc-6144-47bb-b3b5-23e9ca6a742f"},"vehicle_type_id":"4","last_reported":1685221522,"current_range_meters":28000,"station_id":"ce4bha12rcd13ifvqee0","pricing_plan_id":"free"},{"bike_id":"4f689337-8d4b-45bd-b7a1-81618f712aa4","system_id":"levelo_inurba_marseille","lat":43.28573,"lon":5.394992,"is_reserved":false,"is_disabled":false,"rental_uris":{"android":"levelo://app?vid=4f689337-8d4b-45bd-b7a1-81618f712aa4","ios":"levelo://app?vid=4f689337-8d4b-45bd-b7a1-81618f712aa4"},"vehicle_type_id":"4","last_reported":1685221522,"current_range_meters":21200,"station_id":"ce4bh292rcd13ifvqdg0","pricing_plan_id":"free"},{"bike_id":"aef1c5cf-91ba-445b-ae88-1d8b072abf33","system_id":"levelo_inurba_marseille","lat":43.28573,"lon":5.394992,"is_reserved":false,"is_disabled":false,"rental_uris":{"android":"levelo://app?vid=aef1c5cf-91ba-445b-ae88-1d8b072abf33","ios":"levelo://app?vid=aef1c5cf-91ba-445b-ae88-1d8b072abf33"},"vehicle_type_id":"4","last_reported":1685221522,"current_range_meters":8000,"station_id":"ce4bh292rcd13ifvqdg0","pricing_plan_id":"free"},{"bike_id":"ae933baa-3619-464c-b7a3-182f361b7fb4","system_id":"levelo_inurba_marseille","lat":43.30414,"lon":5.41275,"is_reserved":false,"is_disabled":false,"rental_uris":{"android":"levelo://app?vid=ae933baa-3619-464c-b7a3-182f361b7fb4","ios":"levelo://app?vid=ae933baa-3619-464c-b7a3-182f361b7fb4"},"vehicle_type_id":"4","last_reported":1685221522,"current_range_meters":3600,"station_id":"ce4bhop2rcd13ifvqh8g","pricing_plan_id":"free"},{"bike_id":"35b95d42-fceb-4fd3-9837-98831b6a5e14","system_id":"levelo_inurba_marseille","lat":43.304188,"lon":5.412904,"is_reserved":false,"is_disabled":false,"rental_uris":{"android":"levelo://app?vid=35b95d42-fceb-4fd3-9837-98831b6a5e14","ios":"levelo://app?vid=35b95d42-fceb-4fd3-9837-98831b6a5e14"},"vehicle_type_id":"4","last_reported":1685221522,"current_range_meters":0,"station_id":"ce4bhop2rcd13ifvqh8g","pricing_plan_id":"free"},{"bike_id":"72955f6c-7da2-4149-a2ff-f068449222e2","system_id":"levelo_inurba_marseille","lat":43.304188,"lon":5.412904,"is_reserved":false,"is_disabled":false,"rental_uris":{"android":"levelo://app?vid=72955f6c-7da2-4149-a2ff-f068449222e2","ios":"levelo://app?vid=72955f6c-7da2-4149-a2ff-f068449222e2"},"vehicle_type_id":"4","last_reported":1685221522,"current_range_meters":13600,"station_id":"ce4bhop2rcd13ifvqh8g","pricing_plan_id":"free"},{"bike_id":"5eaae89c-8a65-40c0-aa11-d7aa70e8f564","system_id":"levelo_inurba_marseille","lat":43.30398,"lon":5.41306,"is_reserved":false,"is_disabled":false,"rental_uris":{"android":"levelo://app?vid=5eaae89c-8a65-40c0-aa11-d7aa70e8f564","ios":"levelo://app?vid=5eaae89c-8a65-40c0-aa11-d7aa70e8f564"},"vehicle_type_id":"4","last_reported":1685221522,"current_range_meters":10000,"station_id":"ce4bhop2rcd13ifvqh8g","pricing_plan_id":"free"},{"bike_id":"7bdae8c0-7920-41d0-ae1b-21404029104c","system_id":"levelo_inurba_marseille","lat":43.287154,"lon":5.399979,"is_reserved":false,"is_disabled":false,"rental_uris":{"android":"levelo://app?vid=7bdae8c0-7920-41d0-ae1b-21404029104c","ios":"levelo://app?vid=7bdae8c0-7920-41d0-ae1b-21404029104c"},"vehicle_type_id":"4","last_reported":1685221522,"current_range_meters":26800,"station_id":"ce4bho92rcd13ifvqh3g","pricing_plan_id":"free"},{"bike_id":"96acc234-0e56-47ac-99cc-2f91e388147b","system_id":"levelo_inurba_marseille","lat":43.287154,"lon":5.399979,"is_reserved":false,"is_disabled":false,"rental_uris":{"android":"levelo://app?vid=96acc234-0e56-47ac-99cc-2f91e388147b","ios":"levelo://app?vid=96acc234-0e56-47ac-99cc-2f91e388147b"},"vehicle_type_id":"4","last_reported":1685221522,"current_range_meters":0,"station_id":"ce4bho92rcd13ifvqh3g","pricing_plan_id":"free"},{"bike_id":"475ef7bc-611a-4b0a-ba4b-c36d3a737e43","system_id":"levelo_inurba_marseille","lat":43.287154,"lon":5.399979,"is_reserved":false,"is_disabled":false,"rental_uris":{"android":"levelo://app?vid=475ef7bc-611a-4b0a-ba4b-c36d3a737e43","ios":"levelo://app?vid=475ef7bc-611a-4b0a-ba4b-c36d3a737e43"},"vehicle_type_id":"4","last_reported":1685221522,"current_range_meters":2400,"station_id":"ce4bho92rcd13ifvqh3g","pricing_plan_id":"free"},{"bike_id":"5fe8ad5d-fa83-40fa-9950-a329fa31ada5","system_id":"levelo_inurba_marseille","lat":43.292571,"lon":5.409107,"is_reserved":false,"is_disabled":false,"rental_uris":{"android":"levelo://app?vid=5fe8ad5d-fa83-40fa-9950-a329fa31ada5","ios":"levelo://app?vid=5fe8ad5d-fa83-40fa-9950-a329fa31ada5"},"vehicle_type_id":"4","last_reported":1685221522,"current_range_meters":24400,"station_id":"ce4bh192rcd13ifvqdc0","pricing_plan_id":"free"},{"bike_id":"9e2b2c72-ecd1-4a7b-ad44-45bcb3b783ab","system_id":"levelo_inurba_marseille","lat":43.292569,"lon":5.409107,"is_reserved":false,"is_disabled":false,"rental_uris":{"android":"levelo://app?vid=9e2b2c72-ecd1-4a7b-ad44-45bcb3b783ab","ios":"levelo://app?vid=9e2b2c72-ecd1-4a7b-ad44-45bcb3b783ab"},"vehicle_type_id":"4","last_reported":1685221522,"current_range_meters":12800,"station_id":"ce4bh192rcd13ifvqdc0","pricing_plan_id":"free"},{"bike_id":"0c421a2e-727d-49dc-acae-09cdc7e66bc3","system_id":"levelo_inurba_marseille","lat":43.292569,"lon":5.409107,"is_reserved":false,"is_disabled":false,"rental_uris":{"android":"levelo://app?vid=0c421a2e-727d-49dc-acae-09cdc7e66bc3","ios":"levelo://app?vid=0c421a2e-727d-49dc-acae-09cdc7e66bc3"},"vehicle_type_id":"4","last_reported":1685221522,"current_range_meters":18000,"station_id":"ce4bh192rcd13ifvqdc0","pricing_plan_id":"free"},{"bike_id":"69dac3e7-1871-4967-9fdf-388e0a1c4948","system_id":"levelo_inurba_marseille","lat":43.292569,"lon":5.409107,"is_reserved":false,"is_disabled":false,"rental_uris":{"android":"levelo://app?vid=69dac3e7-1871-4967-9fdf-388e0a1c4948","ios":"levelo://app?vid=69dac3e7-1871-4967-9fdf-388e0a1c4948"},"vehicle_type_id":"4","last_reported":1685221522,"current_range_meters":31200,"station_id":"ce4bh192rcd13ifvqdc0","pricing_plan_id":"free"},{"bike_id":"9895a28e-d7a5-4ba6-9216-237e8ef36dab","system_id":"levelo_inurba_marseille","lat":43.292569,"lon":5.409107,"is_reserved":false,"is_disabled":false,"rental_uris":{"android":"levelo://app?vid=9895a28e-d7a5-4ba6-9216-237e8ef36dab","ios":"levelo://app?vid=9895a28e-d7a5-4ba6-9216-237e8ef36dab"},"vehicle_type_id":"4","last_reported":1685221522,"current_range_meters":16000,"station_id":"ce4bh192rcd13ifvqdc0","pricing_plan_id":"free"},{"bike_id":"e16eacdb-b071-4431-aa9c-b584a03691c1","system_id":"levelo_inurba_marseille","lat":43.273609,"lon":5.362708,"is_reserved":false,"is_disabled":false,"rental_uris":{"android":"levelo://app?vid=e16eacdb-b071-4431-aa9c-b584a03691c1","ios":"levelo://app?vid=e16eacdb-b071-4431-aa9c-b584a03691c1"},"vehicle_type_id":"4","last_reported":1685221522,"current_range_meters":4400,"station_id":"ce4bhbh2rcd13ifvqeo0","pricing_plan_id":"free"},{"bike_id":"c3a79b22-3f6d-4b6c-a400-3248c2e83e11","system_id":"levelo_inurba_marseille","lat":43.27372,"lon":5.36264,"is_reserved":false,"is_disabled":false,"rental_uris":{"android":"levelo://app?vid=c3a79b22-3f6d-4b6c-a400-3248c2e83e11","ios":"levelo://app?vid=c3a79b22-3f6d-4b6c-a400-3248c2e83e11"},"vehicle_type_id":"4","last_reported":1685221522,"current_range_meters":4400,"station_id":"ce4bhbh2rcd13ifvqeo0","pricing_plan_id":"free"},{"bike_id":"b956e50e-6d3e-4427-98c4-7b993242370c","system_id":"levelo_inurba_marseille","lat":43.273609,"lon":5.362708,"is_reserved":false,"is_disabled":false,"rental_uris":{"android":"levelo://app?vid=b956e50e-6d3e-4427-98c4-7b993242370c","ios":"levelo://app?vid=b956e50e-6d3e-4427-98c4-7b993242370c"},"vehicle_type_id":"4","last_reported":1685221522,"current_range_meters":1600,"station_id":"ce4bhbh2rcd13ifvqeo0","pricing_plan_id":"free"},{"bike_id":"4ffd87e3-21d7-41d5-9b84-b19f9a8efa16","system_id":"levelo_inurba_marseille","lat":43.336134,"lon":5.410341,"is_reserved":false,"is_disabled":false,"rental_uris":{"android":"levelo://app?vid=4ffd87e3-21d7-41d5-9b84-b19f9a8efa16","ios":"levelo://app?vid=4ffd87e3-21d7-41d5-9b84-b19f9a8efa16"},"vehicle_type_id":"4","last_reported":1685221522,"current_range_meters":1600,"station_id":"ce4bhqh2rcd13ifvqhmg","pricing_plan_id":"free"},{"bike_id":"edcca834-2039-41c7-bc01-edad32f661e7","system_id":"levelo_inurba_marseille","lat":43.33607,"lon":5.41036,"is_reserved":false,"is_disabled":false,"rental_uris":{"android":"levelo://app?vid=edcca834-2039-41c7-bc01-edad32f661e7","ios":"levelo://app?vid=edcca834-2039-41c7-bc01-edad32f661e7"},"vehicle_type_id":"4","last_reported":1685221522,"current_range_meters":400,"station_id":"ce4bhqh2rcd13ifvqhmg","pricing_plan_id":"free"},{"bike_id":"91b49189-18df-431a-bbbf-f0b2350181de","system_id":"levelo_inurba_marseille","lat":43.28414,"lon":5.40779,"is_reserved":false,"is_disabled":false,"rental_uris":{"android":"levelo://app?vid=91b49189-18df-431a-bbbf-f0b2350181de","ios":"levelo://app?vid=91b49189-18df-431a-bbbf-f0b2350181de"},"vehicle_type_id":"4","last_reported":1685221522,"current_range_meters":9600,"station_id":"","pricing_plan_id":"free"},{"bike_id":"a3330151-125e-4b46-804e-4be2c6bda199","system_id":"levelo_inurba_marseille","lat":43.27322,"lon":5.39065,"is_reserved":false,"is_disabled":false,"rental_uris":{"android":"levelo://app?vid=a3330151-125e-4b46-804e-4be2c6bda199","ios":"levelo://app?vid=a3330151-125e-4b46-804e-4be2c6bda199"},"vehicle_type_id":"4","last_reported":1685221522,"current_range_meters":6400,"station_id":"ce4bhgp2rcd13ifvqfe0","pricing_plan_id":"free"},{"bike_id":"b858ad10-13de-44b8-b3bd-a7bb51ffe5eb","system_id":"levelo_inurba_marseille","lat":43.27417,"lon":5.39414,"is_reserved":false,"is_disabled":false,"rental_uris":{"android":"levelo://app?vid=b858ad10-13de-44b8-b3bd-a7bb51ffe5eb","ios":"levelo://app?vid=b858ad10-13de-44b8-b3bd-a7bb51ffe5eb"},"vehicle_type_id":"4","last_reported":1685221522,"current_range_meters":5200,"station_id":"","pricing_plan_id":"free"},{"bike_id":"db261743-395e-4cce-8258-9ed6f6aadb11","system_id":"levelo_inurba_marseille","lat":43.295523,"lon":5.422926,"is_reserved":false,"is_disabled":false,"rental_uris":{"android":"levelo://app?vid=db261743-395e-4cce-8258-9ed6f6aadb11","ios":"levelo://app?vid=db261743-395e-4cce-8258-9ed6f6aadb11"},"vehicle_type_id":"4","last_reported":1685221522,"current_range_meters":6800,"station_id":"ce4bhph2rcd13ifvqhdg","pricing_plan_id":"free"},{"bike_id":"8123f3a1-05dc-4fe7-a0e0-0e1d2ab74f14","system_id":"levelo_inurba_marseille","lat":43.2781,"lon":5.40711,"is_reserved":false,"is_disabled":false,"rental_uris":{"android":"levelo://app?vid=8123f3a1-05dc-4fe7-a0e0-0e1d2ab74f14","ios":"levelo://app?vid=8123f3a1-05dc-4fe7-a0e0-0e1d2ab74f14"},"vehicle_type_id":"4","last_reported":1685221522,"current_range_meters":20800,"station_id":"ce4bhnh2rcd13ifvqgtg","pricing_plan_id":"free"},{"bike_id":"df0d29bd-9342-46f9-9635-49a4fe6e6d67","system_id":"levelo_inurba_marseille","lat":43.309589,"lon":5.390258,"is_reserved":false,"is_disabled":false,"rental_uris":{"android":"levelo://app?vid=df0d29bd-9342-46f9-9635-49a4fe6e6d67","ios":"levelo://app?vid=df0d29bd-9342-46f9-9635-49a4fe6e6d67"},"vehicle_type_id":"4","last_reported":1685221522,"current_range_meters":800,"station_id":"ce4bgup2rcd13ifvqco0","pricing_plan_id":"free"},{"bike_id":"0bf6fea9-fc1f-4ff1-bb10-0908f5f5e737","system_id":"levelo_inurba_marseille","lat":43.26681,"lon":5.382694,"is_reserved":false,"is_disabled":false,"rental_uris":{"android":"levelo://app?vid=0bf6fea9-fc1f-4ff1-bb10-0908f5f5e737","ios":"levelo://app?vid=0bf6fea9-fc1f-4ff1-bb10-0908f5f5e737"},"vehicle_type_id":"4","last_reported":1685221522,"current_range_meters":26400,"station_id":"ce4bhg92rcd13ifvqf90","pricing_plan_id":"free"},{"bike_id":"b774af7a-89f4-4f6e-b250-1d9b1d844522","system_id":"levelo_inurba_marseille","lat":43.26683,"lon":5.38275,"is_reserved":false,"is_disabled":false,"rental_uris":{"android":"levelo://app?vid=b774af7a-89f4-4f6e-b250-1d9b1d844522","ios":"levelo://app?vid=b774af7a-89f4-4f6e-b250-1d9b1d844522"},"vehicle_type_id":"4","last_reported":1685221522,"current_range_meters":20400,"station_id":"ce4bhg92rcd13ifvqf90","pricing_plan_id":"free"},{"bike_id":"97f92444-dc7f-4ac8-885e-43ac50454dc0","system_id":"levelo_inurba_marseille","lat":43.31698,"lon":5.43289,"is_reserved":false,"is_disabled":false,"rental_uris":{"android":"levelo://app?vid=97f92444-dc7f-4ac8-885e-43ac50454dc0","ios":"levelo://app?vid=97f92444-dc7f-4ac8-885e-43ac50454dc0"},"vehicle_type_id":"4","last_reported":1685221522,"current_range_meters":0,"station_id":"","pricing_plan_id":"free"},{"bike_id":"73ce3d80-1d40-4335-839e-d43d15dc55d4","system_id":"levelo_inurba_marseille","lat":43.27996,"lon":5.416624,"is_reserved":false,"is_disabled":false,"rental_uris":{"android":"levelo://app?vid=73ce3d80-1d40-4335-839e-d43d15dc55d4","ios":"levelo://app?vid=73ce3d80-1d40-4335-839e-d43d15dc55d4"},"vehicle_type_id":"4","last_reported":1685221522,"current_range_meters":31200,"station_id":"ce4bho12rcd13ifvqh1g","pricing_plan_id":"free"},{"bike_id":"356d65f0-90df-4bd1-8cf0-06ccf8c52633","system_id":"levelo_inurba_marseille","lat":43.27996,"lon":5.416624,"is_reserved":false,"is_disabled":false,"rental_uris":{"android":"levelo://app?vid=356d65f0-90df-4bd1-8cf0-06ccf8c52633","ios":"levelo://app?vid=356d65f0-90df-4bd1-8cf0-06ccf8c52633"},"vehicle_type_id":"4","last_reported":1685221522,"current_range_meters":31200,"station_id":"ce4bho12rcd13ifvqh1g","pricing_plan_id":"free"},{"bike_id":"a25d0900-5d28-490c-b788-d51bbac17aa9","system_id":"levelo_inurba_marseille","lat":43.27996,"lon":5.416624,"is_reserved":false,"is_disabled":false,"rental_uris":{"android":"levelo://app?vid=a25d0900-5d28-490c-b788-d51bbac17aa9","ios":"levelo://app?vid=a25d0900-5d28-490c-b788-d51bbac17aa9"},"vehicle_type_id":"4","last_reported":1685221522,"current_range_meters":31200,"station_id":"ce4bho12rcd13ifvqh1g","pricing_plan_id":"free"},{"bike_id":"f162192a-bed1-4658-b495-ca241453799e","system_id":"levelo_inurba_marseille","lat":43.27996,"lon":5.416624,"is_reserved":false,"is_disabled":false,"rental_uris":{"android":"levelo://app?vid=f162192a-bed1-4658-b495-ca241453799e","ios":"levelo://app?vid=f162192a-bed1-4658-b495-ca241453799e"},"vehicle_type_id":"4","last_reported":1685221522,"current_range_meters":31200,"station_id":"ce4bho12rcd13ifvqh1g","pricing_plan_id":"free"},{"bike_id":"792bc3e6-710a-454c-a0b5-f84c06823d43","system_id":"levelo_inurba_marseille","lat":43.27996,"lon":5.416624,"is_reserved":false,"is_disabled":false,"rental_uris":{"android":"levelo://app?vid=792bc3e6-710a-454c-a0b5-f84c06823d43","ios":"levelo://app?vid=792bc3e6-710a-454c-a0b5-f84c06823d43"},"vehicle_type_id":"4","last_reported":1685221522,"current_range_meters":31200,"station_id":"ce4bho12rcd13ifvqh1g","pricing_plan_id":"free"},{"bike_id":"af4ec9ba-03d9-44e6-a6a6-77ad217c2cd1","system_id":"levelo_inurba_marseille","lat":43.267966,"lon":5.393976,"is_reserved":false,"is_disabled":false,"rental_uris":{"android":"levelo://app?vid=af4ec9ba-03d9-44e6-a6a6-77ad217c2cd1","ios":"levelo://app?vid=af4ec9ba-03d9-44e6-a6a6-77ad217c2cd1"},"vehicle_type_id":"4","last_reported":1685221522,"current_range_meters":24000,"station_id":"ce4bhh12rcd13ifvqfg0","pricing_plan_id":"free"},{"bike_id":"69aae392-e505-4da2-aae6-da211ea23eae","system_id":"levelo_inurba_marseille","lat":43.267806,"lon":5.394159,"is_reserved":false,"is_disabled":false,"rental_uris":{"android":"levelo://app?vid=69aae392-e505-4da2-aae6-da211ea23eae","ios":"levelo://app?vid=69aae392-e505-4da2-aae6-da211ea23eae"},"vehicle_type_id":"4","last_reported":1685221522,"current_range_meters":0,"station_id":"ce4bhh12rcd13ifvqfg0","pricing_plan_id":"free"},{"bike_id":"2d160bfa-cf4e-4726-814c-4950079d52cd","system_id":"levelo_inurba_marseille","lat":43.30802,"lon":5.43525,"is_reserved":false,"is_disabled":false,"rental_uris":{"android":"levelo://app?vid=2d160bfa-cf4e-4726-814c-4950079d52cd","ios":"levelo://app?vid=2d160bfa-cf4e-4726-814c-4950079d52cd"},"vehicle_type_id":"4","last_reported":1685221522,"current_range_meters":19600,"station_id":"","pricing_plan_id":"free"},{"bike_id":"a703deb0-7c18-4797-9a49-57b709d1d1b1","system_id":"levelo_inurba_marseille","lat":43.30796,"lon":5.43525,"is_reserved":false,"is_disabled":false,"rental_uris":{"android":"levelo://app?vid=a703deb0-7c18-4797-9a49-57b709d1d1b1","ios":"levelo://app?vid=a703deb0-7c18-4797-9a49-57b709d1d1b1"},"vehicle_type_id":"4","last_reported":1685221522,"current_range_meters":7200,"station_id":"","pricing_plan_id":"free"},{"bike_id":"f92e17da-5622-4d8c-afbe-5fe61d016d76","system_id":"levelo_inurba_marseille","lat":43.265569,"lon":5.390047,"is_reserved":false,"is_disabled":false,"rental_uris":{"android":"levelo://app?vid=f92e17da-5622-4d8c-afbe-5fe61d016d76","ios":"levelo://app?vid=f92e17da-5622-4d8c-afbe-5fe61d016d76"},"vehicle_type_id":"4","last_reported":1685221522,"current_range_meters":5200,"station_id":"ce4bhe12rcd13ifvqf30","pricing_plan_id":"free"},{"bike_id":"e7005f27-f4b9-4b19-9fc1-7a5bd27ee540","system_id":"levelo_inurba_marseille","lat":43.261782,"lon":5.374515,"is_reserved":false,"is_disabled":false,"rental_uris":{"android":"levelo://app?vid=e7005f27-f4b9-4b19-9fc1-7a5bd27ee540","ios":"levelo://app?vid=e7005f27-f4b9-4b19-9fc1-7a5bd27ee540"},"vehicle_type_id":"4","last_reported":1685221522,"current_range_meters":1200,"station_id":"ce4bhgp2rcd13ifvqfc0","pricing_plan_id":"free"},{"bike_id":"cd50605d-8c87-4a43-9408-3b01ef2db383","system_id":"levelo_inurba_marseille","lat":43.261782,"lon":5.374515,"is_reserved":false,"is_disabled":false,"rental_uris":{"android":"levelo://app?vid=cd50605d-8c87-4a43-9408-3b01ef2db383","ios":"levelo://app?vid=cd50605d-8c87-4a43-9408-3b01ef2db383"},"vehicle_type_id":"4","last_reported":1685221522,"current_range_meters":26400,"station_id":"ce4bhgp2rcd13ifvqfc0","pricing_plan_id":"free"},{"bike_id":"9040e08d-2791-42f9-8c08-bd176b3c76d8","system_id":"levelo_inurba_marseille","lat":43.261782,"lon":5.374515,"is_reserved":false,"is_disabled":false,"rental_uris":{"android":"levelo://app?vid=9040e08d-2791-42f9-8c08-bd176b3c76d8","ios":"levelo://app?vid=9040e08d-2791-42f9-8c08-bd176b3c76d8"},"vehicle_type_id":"4","last_reported":1685221522,"current_range_meters":0,"station_id":"ce4bhgp2rcd13ifvqfc0","pricing_plan_id":"free"},{"bike_id":"af4be6c4-caec-45c2-996a-0fb82a775916","system_id":"levelo_inurba_marseille","lat":43.271388,"lon":5.409269,"is_reserved":false,"is_disabled":false,"rental_uris":{"android":"levelo://app?vid=af4be6c4-caec-45c2-996a-0fb82a775916","ios":"levelo://app?vid=af4be6c4-caec-45c2-996a-0fb82a775916"},"vehicle_type_id":"4","last_reported":1685221522,"current_range_meters":4800,"station_id":"ce4bhl12rcd13ifvqgf0","pricing_plan_id":"free"},{"bike_id":"28232a8e-07e9-486e-89a7-93ff76eacb29","system_id":"levelo_inurba_marseille","lat":43.271368,"lon":5.40928,"is_reserved":false,"is_disabled":false,"rental_uris":{"android":"levelo://app?vid=28232a8e-07e9-486e-89a7-93ff76eacb29","ios":"levelo://app?vid=28232a8e-07e9-486e-89a7-93ff76eacb29"},"vehicle_type_id":"4","last_reported":1685221522,"current_range_meters":12800,"station_id":"ce4bhl12rcd13ifvqgf0","pricing_plan_id":"free"},{"bike_id":"4e1b86b6-b12c-441f-b5c1-ba0a90fca197","system_id":"levelo_inurba_marseille","lat":43.298768,"lon":5.43643,"is_reserved":false,"is_disabled":false,"rental_uris":{"android":"levelo://app?vid=4e1b86b6-b12c-441f-b5c1-ba0a90fca197","ios":"levelo://app?vid=4e1b86b6-b12c-441f-b5c1-ba0a90fca197"},"vehicle_type_id":"4","last_reported":1685221522,"current_range_meters":31200,"station_id":"ce4bhpp2rcd13ifvqhfg","pricing_plan_id":"free"},{"bike_id":"1522e6fe-e66c-4a0c-a606-391cd3d5a93b","system_id":"levelo_inurba_marseille","lat":43.298768,"lon":5.43643,"is_reserved":false,"is_disabled":false,"rental_uris":{"android":"levelo://app?vid=1522e6fe-e66c-4a0c-a606-391cd3d5a93b","ios":"levelo://app?vid=1522e6fe-e66c-4a0c-a606-391cd3d5a93b"},"vehicle_type_id":"4","last_reported":1685221522,"current_range_meters":31200,"station_id":"ce4bhpp2rcd13ifvqhfg","pricing_plan_id":"free"},{"bike_id":"393fb8d7-9c3a-4c26-adde-9c67bba0a82d","system_id":"levelo_inurba_marseille","lat":43.298768,"lon":5.43643,"is_reserved":false,"is_disabled":false,"rental_uris":{"android":"levelo://app?vid=393fb8d7-9c3a-4c26-adde-9c67bba0a82d","ios":"levelo://app?vid=393fb8d7-9c3a-4c26-adde-9c67bba0a82d"},"vehicle_type_id":"4","last_reported":1685221522,"current_range_meters":16800,"station_id":"ce4bhpp2rcd13ifvqhfg","pricing_plan_id":"free"},{"bike_id":"a01b8269-cd6f-432a-9c44-37513ea96cd0","system_id":"levelo_inurba_marseille","lat":43.298768,"lon":5.43643,"is_reserved":false,"is_disabled":false,"rental_uris":{"android":"levelo://app?vid=a01b8269-cd6f-432a-9c44-37513ea96cd0","ios":"levelo://app?vid=a01b8269-cd6f-432a-9c44-37513ea96cd0"},"vehicle_type_id":"4","last_reported":1685221522,"current_range_meters":29600,"station_id":"ce4bhpp2rcd13ifvqhfg","pricing_plan_id":"free"},{"bike_id":"6b404443-757b-4b8d-9a78-a03ca59013fb","system_id":"levelo_inurba_marseille","lat":43.2592,"lon":5.37283,"is_reserved":false,"is_disabled":false,"rental_uris":{"android":"levelo://app?vid=6b404443-757b-4b8d-9a78-a03ca59013fb","ios":"levelo://app?vid=6b404443-757b-4b8d-9a78-a03ca59013fb"},"vehicle_type_id":"4","last_reported":1685221522,"current_range_meters":12800,"station_id":"","pricing_plan_id":"free"},{"bike_id":"7564f368-d9b9-4ff1-ab4f-33994ef08f0d","system_id":"levelo_inurba_marseille","lat":43.26069,"lon":5.39392,"is_reserved":false,"is_disabled":false,"rental_uris":{"android":"levelo://app?vid=7564f368-d9b9-4ff1-ab4f-33994ef08f0d","ios":"levelo://app?vid=7564f368-d9b9-4ff1-ab4f-33994ef08f0d"},"vehicle_type_id":"4","last_reported":1685221522,"current_range_meters":800,"station_id":"ce4bhh92rcd13ifvqfj0","pricing_plan_id":"free"},{"bike_id":"a026d077-4fb7-44a1-bff8-b18000194fda","system_id":"levelo_inurba_marseille","lat":43.2607,"lon":5.393983,"is_reserved":false,"is_disabled":false,"rental_uris":{"android":"levelo://app?vid=a026d077-4fb7-44a1-bff8-b18000194fda","ios":"levelo://app?vid=a026d077-4fb7-44a1-bff8-b18000194fda"},"vehicle_type_id":"4","last_reported":1685221522,"current_range_meters":13600,"station_id":"ce4bhh92rcd13ifvqfj0","pricing_plan_id":"free"},{"bike_id":"f072cd81-3b89-40b1-a023-ab01c8f89174","system_id":"levelo_inurba_marseille","lat":43.26076,"lon":5.3976,"is_reserved":false,"is_disabled":false,"rental_uris":{"android":"levelo://app?vid=f072cd81-3b89-40b1-a023-ab01c8f89174","ios":"levelo://app?vid=f072cd81-3b89-40b1-a023-ab01c8f89174"},"vehicle_type_id":"4","last_reported":1685221522,"current_range_meters":13200,"station_id":"ce4bhi12rcd13ifvqfq0","pricing_plan_id":"free"},{"bike_id":"21a94e83-2bcf-4902-8a6a-85407ac0d3c9","system_id":"levelo_inurba_marseille","lat":43.254952,"lon":5.376471,"is_reserved":false,"is_disabled":false,"rental_uris":{"android":"levelo://app?vid=21a94e83-2bcf-4902-8a6a-85407ac0d3c9","ios":"levelo://app?vid=21a94e83-2bcf-4902-8a6a-85407ac0d3c9"},"vehicle_type_id":"4","last_reported":1685221522,"current_range_meters":3200,"station_id":"","pricing_plan_id":"free"},{"bike_id":"18edbe93-4380-462e-8d33-ec21badd31f0","system_id":"levelo_inurba_marseille","lat":43.25491,"lon":5.37645,"is_reserved":false,"is_disabled":false,"rental_uris":{"android":"levelo://app?vid=18edbe93-4380-462e-8d33-ec21badd31f0","ios":"levelo://app?vid=18edbe93-4380-462e-8d33-ec21badd31f0"},"vehicle_type_id":"4","last_reported":1685221522,"current_range_meters":29600,"station_id":"ce4bhh12rcd13ifvqff0","pricing_plan_id":"free"},{"bike_id":"8705c1f3-7fdd-44d2-9e28-7d4f5178e7f4","system_id":"levelo_inurba_marseille","lat":43.259013,"lon":5.409301,"is_reserved":false,"is_disabled":false,"rental_uris":{"android":"levelo://app?vid=8705c1f3-7fdd-44d2-9e28-7d4f5178e7f4","ios":"levelo://app?vid=8705c1f3-7fdd-44d2-9e28-7d4f5178e7f4"},"vehicle_type_id":"4","last_reported":1685221522,"current_range_meters":6400,"station_id":"ce4bhm92rcd13ifvqglg","pricing_plan_id":"free"},{"bike_id":"ef2a23f0-66f5-438f-a2fe-060a08a8c266","system_id":"levelo_inurba_marseille","lat":43.24807,"lon":5.3746,"is_reserved":false,"is_disabled":false,"rental_uris":{"android":"levelo://app?vid=ef2a23f0-66f5-438f-a2fe-060a08a8c266","ios":"levelo://app?vid=ef2a23f0-66f5-438f-a2fe-060a08a8c266"},"vehicle_type_id":"4","last_reported":1685221522,"current_range_meters":0,"station_id":"ce4bhgh2rcd13ifvqfb0","pricing_plan_id":"free"},{"bike_id":"315f5e0a-a652-486f-858a-3e20bcad95c9","system_id":"levelo_inurba_marseille","lat":43.25087,"lon":5.39508,"is_reserved":false,"is_disabled":false,"rental_uris":{"android":"levelo://app?vid=315f5e0a-a652-486f-858a-3e20bcad95c9","ios":"levelo://app?vid=315f5e0a-a652-486f-858a-3e20bcad95c9"},"vehicle_type_id":"4","last_reported":1685221522,"current_range_meters":0,"station_id":"ce4bhm12rcd13ifvqgkg","pricing_plan_id":"free"},{"bike_id":"65994491-39fe-4e59-b553-acdf89d2203c","system_id":"levelo_inurba_marseille","lat":43.24667,"lon":5.38171,"is_reserved":false,"is_disabled":false,"rental_uris":{"android":"levelo://app?vid=65994491-39fe-4e59-b553-acdf89d2203c","ios":"levelo://app?vid=65994491-39fe-4e59-b553-acdf89d2203c"},"vehicle_type_id":"4","last_reported":1685221522,"current_range_meters":8800,"station_id":"","pricing_plan_id":"free"},{"bike_id":"28d2c968-67e6-43b3-9211-1441728ae497","system_id":"levelo_inurba_marseille","lat":43.246571,"lon":5.381585,"is_reserved":false,"is_disabled":false,"rental_uris":{"android":"levelo://app?vid=28d2c968-67e6-43b3-9211-1441728ae497","ios":"levelo://app?vid=28d2c968-67e6-43b3-9211-1441728ae497"},"vehicle_type_id":"4","last_reported":1685221522,"current_range_meters":18000,"station_id":"ce4bhih2rcd13ifvqfr0","pricing_plan_id":"free"},{"bike_id":"233087bd-92c4-45a9-b0f2-5d281c39d21d","system_id":"levelo_inurba_marseille","lat":43.24693,"lon":5.382096,"is_reserved":false,"is_disabled":false,"rental_uris":{"android":"levelo://app?vid=233087bd-92c4-45a9-b0f2-5d281c39d21d","ios":"levelo://app?vid=233087bd-92c4-45a9-b0f2-5d281c39d21d"},"vehicle_type_id":"4","last_reported":1685221522,"current_range_meters":28800,"station_id":"ce4bhih2rcd13ifvqfr0","pricing_plan_id":"free"},{"bike_id":"9c285887-54ed-4108-a6fb-167fa2724bd2","system_id":"levelo_inurba_marseille","lat":43.245581,"lon":5.395069,"is_reserved":false,"is_disabled":false,"rental_uris":{"android":"levelo://app?vid=9c285887-54ed-4108-a6fb-167fa2724bd2","ios":"levelo://app?vid=9c285887-54ed-4108-a6fb-167fa2724bd2"},"vehicle_type_id":"4","last_reported":1685221522,"current_range_meters":3200,"station_id":"ce4bhlp2rcd13ifvqgjg","pricing_plan_id":"free"},{"bike_id":"a893c667-8e8f-4cc9-abf4-3f805ce81d89","system_id":"levelo_inurba_marseille","lat":43.245581,"lon":5.395069,"is_reserved":false,"is_disabled":false,"rental_uris":{"android":"levelo://app?vid=a893c667-8e8f-4cc9-abf4-3f805ce81d89","ios":"levelo://app?vid=a893c667-8e8f-4cc9-abf4-3f805ce81d89"},"vehicle_type_id":"4","last_reported":1685221522,"current_range_meters":22000,"station_id":"ce4bhlp2rcd13ifvqgjg","pricing_plan_id":"free"},{"bike_id":"3b89a6e7-6c86-4137-9361-ec158f50377a","system_id":"levelo_inurba_marseille","lat":43.245581,"lon":5.395069,"is_reserved":false,"is_disabled":false,"rental_uris":{"android":"levelo://app?vid=3b89a6e7-6c86-4137-9361-ec158f50377a","ios":"levelo://app?vid=3b89a6e7-6c86-4137-9361-ec158f50377a"},"vehicle_type_id":"4","last_reported":1685221522,"current_range_meters":8800,"station_id":"ce4bhlp2rcd13ifvqgjg","pricing_plan_id":"free"},{"bike_id":"ce35cd0c-3412-42d2-bc81-38a30e81ce2d","system_id":"levelo_inurba_marseille","lat":43.245581,"lon":5.395069,"is_reserved":false,"is_disabled":false,"rental_uris":{"android":"levelo://app?vid=ce35cd0c-3412-42d2-bc81-38a30e81ce2d","ios":"levelo://app?vid=ce35cd0c-3412-42d2-bc81-38a30e81ce2d"},"vehicle_type_id":"4","last_reported":1685221522,"current_range_meters":31600,"station_id":"ce4bhlp2rcd13ifvqgjg","pricing_plan_id":"free"},{"bike_id":"4cec0365-f91b-44c0-9ceb-efa3852333ae","system_id":"levelo_inurba_marseille","lat":43.245581,"lon":5.395069,"is_reserved":false,"is_disabled":false,"rental_uris":{"android":"levelo://app?vid=4cec0365-f91b-44c0-9ceb-efa3852333ae","ios":"levelo://app?vid=4cec0365-f91b-44c0-9ceb-efa3852333ae"},"vehicle_type_id":"4","last_reported":1685221522,"current_range_meters":4800,"station_id":"ce4bhlp2rcd13ifvqgjg","pricing_plan_id":"free"},{"bike_id":"65c9d813-f717-43b6-a0c3-55f47a8bccea","system_id":"levelo_inurba_marseille","lat":43.24082,"lon":5.37749,"is_reserved":false,"is_disabled":false,"rental_uris":{"android":"levelo://app?vid=65c9d813-f717-43b6-a0c3-55f47a8bccea","ios":"levelo://app?vid=65c9d813-f717-43b6-a0c3-55f47a8bccea"},"vehicle_type_id":"4","last_reported":1685221522,"current_range_meters":20800,"station_id":"","pricing_plan_id":"free"},{"bike_id":"a995a09b-a8b4-4ce5-9905-d99c39147c5e","system_id":"levelo_inurba_marseille","lat":43.242008,"lon":5.392992,"is_reserved":false,"is_disabled":false,"rental_uris":{"android":"levelo://app?vid=a995a09b-a8b4-4ce5-9905-d99c39147c5e","ios":"levelo://app?vid=a995a09b-a8b4-4ce5-9905-d99c39147c5e"},"vehicle_type_id":"4","last_reported":1685221522,"current_range_meters":16800,"station_id":"","pricing_plan_id":"free"},{"bike_id":"2efba59c-2c4d-4071-8a72-2e54c6726ac2","system_id":"levelo_inurba_marseille","lat":43.241782,"lon":5.397261,"is_reserved":false,"is_disabled":false,"rental_uris":{"android":"levelo://app?vid=2efba59c-2c4d-4071-8a72-2e54c6726ac2","ios":"levelo://app?vid=2efba59c-2c4d-4071-8a72-2e54c6726ac2"},"vehicle_type_id":"4","last_reported":1685221522,"current_range_meters":27600,"station_id":"ce4bhn12rcd13ifvqgpg","pricing_plan_id":"free"},{"bike_id":"a57b8abb-5b93-49e2-afa2-168c81dbc629","system_id":"levelo_inurba_marseille","lat":43.241782,"lon":5.397261,"is_reserved":false,"is_disabled":false,"rental_uris":{"android":"levelo://app?vid=a57b8abb-5b93-49e2-afa2-168c81dbc629","ios":"levelo://app?vid=a57b8abb-5b93-49e2-afa2-168c81dbc629"},"vehicle_type_id":"4","last_reported":1685221522,"current_range_meters":18400,"station_id":"ce4bhn12rcd13ifvqgpg","pricing_plan_id":"free"},{"bike_id":"081a581b-2a60-44a9-a09d-152adad4823a","system_id":"levelo_inurba_marseille","lat":43.24174,"lon":5.39731,"is_reserved":false,"is_disabled":false,"rental_uris":{"android":"levelo://app?vid=081a581b-2a60-44a9-a09d-152adad4823a","ios":"levelo://app?vid=081a581b-2a60-44a9-a09d-152adad4823a"},"vehicle_type_id":"4","last_reported":1685221522,"current_range_meters":7600,"station_id":"ce4bhn12rcd13ifvqgpg","pricing_plan_id":"free"},{"bike_id":"4a21b177-002f-426d-93af-f3f349cd2e59","system_id":"levelo_inurba_marseille","lat":43.231923,"lon":5.355545,"is_reserved":false,"is_disabled":false,"rental_uris":{"android":"levelo://app?vid=4a21b177-002f-426d-93af-f3f349cd2e59","ios":"levelo://app?vid=4a21b177-002f-426d-93af-f3f349cd2e59"},"vehicle_type_id":"4","last_reported":1685221522,"current_range_meters":6800,"station_id":"ce4bhu92rcd13ifvqi70","pricing_plan_id":"free"},{"bike_id":"5f98f86a-5c83-4cc2-bbb0-8a2bc20a8a83","system_id":"levelo_inurba_marseille","lat":43.231919,"lon":5.355532,"is_reserved":false,"is_disabled":false,"rental_uris":{"android":"levelo://app?vid=5f98f86a-5c83-4cc2-bbb0-8a2bc20a8a83","ios":"levelo://app?vid=5f98f86a-5c83-4cc2-bbb0-8a2bc20a8a83"},"vehicle_type_id":"4","last_reported":1685221522,"current_range_meters":26000,"station_id":"ce4bhu92rcd13ifvqi70","pricing_plan_id":"free"},{"bike_id":"31b40f63-0aef-459d-9a61-5faed4be6f30","system_id":"levelo_inurba_marseille","lat":43.231919,"lon":5.355532,"is_reserved":false,"is_disabled":false,"rental_uris":{"android":"levelo://app?vid=31b40f63-0aef-459d-9a61-5faed4be6f30","ios":"levelo://app?vid=31b40f63-0aef-459d-9a61-5faed4be6f30"},"vehicle_type_id":"4","last_reported":1685221522,"current_range_meters":0,"station_id":"ce4bhu92rcd13ifvqi70","pricing_plan_id":"free"},{"bike_id":"92f20019-942e-4840-863c-c7f82f11ea36","system_id":"levelo_inurba_marseille","lat":43.231923,"lon":5.355545,"is_reserved":false,"is_disabled":false,"rental_uris":{"android":"levelo://app?vid=92f20019-942e-4840-863c-c7f82f11ea36","ios":"levelo://app?vid=92f20019-942e-4840-863c-c7f82f11ea36"},"vehicle_type_id":"4","last_reported":1685221522,"current_range_meters":13200,"station_id":"ce4bhu92rcd13ifvqi70","pricing_plan_id":"free"},{"bike_id":"6bf87b3f-2e5e-484d-9f73-d12a90c06e2e","system_id":"levelo_inurba_marseille","lat":43.231794,"lon":5.400052,"is_reserved":false,"is_disabled":false,"rental_uris":{"android":"levelo://app?vid=6bf87b3f-2e5e-484d-9f73-d12a90c06e2e","ios":"levelo://app?vid=6bf87b3f-2e5e-484d-9f73-d12a90c06e2e"},"vehicle_type_id":"4","last_reported":1685221522,"current_range_meters":31600,"station_id":"ce4bhn12rcd13ifvqgqg","pricing_plan_id":"free"},{"bike_id":"279132f9-fc26-4eef-a41e-65b19a1b60ea","system_id":"levelo_inurba_marseille","lat":43.231794,"lon":5.400052,"is_reserved":false,"is_disabled":false,"rental_uris":{"android":"levelo://app?vid=279132f9-fc26-4eef-a41e-65b19a1b60ea","ios":"levelo://app?vid=279132f9-fc26-4eef-a41e-65b19a1b60ea"},"vehicle_type_id":"4","last_reported":1685221522,"current_range_meters":28400,"station_id":"ce4bhn12rcd13ifvqgqg","pricing_plan_id":"free"},{"bike_id":"1420567d-5493-4112-adec-f09973b532e9","system_id":"levelo_inurba_marseille","lat":43.231793,"lon":5.400044,"is_reserved":false,"is_disabled":false,"rental_uris":{"android":"levelo://app?vid=1420567d-5493-4112-adec-f09973b532e9","ios":"levelo://app?vid=1420567d-5493-4112-adec-f09973b532e9"},"vehicle_type_id":"4","last_reported":1685221522,"current_range_meters":20800,"station_id":"ce4bhn12rcd13ifvqgqg","pricing_plan_id":"free"},{"bike_id":"67b77559-a903-49c5-9f37-4b2143617b52","system_id":"levelo_inurba_marseille","lat":43.231794,"lon":5.400052,"is_reserved":false,"is_disabled":false,"rental_uris":{"android":"levelo://app?vid=67b77559-a903-49c5-9f37-4b2143617b52","ios":"levelo://app?vid=67b77559-a903-49c5-9f37-4b2143617b52"},"vehicle_type_id":"4","last_reported":1685221522,"current_range_meters":31600,"station_id":"ce4bhn12rcd13ifvqgqg","pricing_plan_id":"free"},{"bike_id":"a7fbfb05-3a72-4dea-b5c9-12ad7997a8ad","system_id":"levelo_inurba_marseille","lat":43.231794,"lon":5.400052,"is_reserved":false,"is_disabled":false,"rental_uris":{"android":"levelo://app?vid=a7fbfb05-3a72-4dea-b5c9-12ad7997a8ad","ios":"levelo://app?vid=a7fbfb05-3a72-4dea-b5c9-12ad7997a8ad"},"vehicle_type_id":"4","last_reported":1685221522,"current_range_meters":30000,"station_id":"ce4bhn12rcd13ifvqgqg","pricing_plan_id":"free"},{"bike_id":"e39c0672-1b6c-4e48-943d-c79fd5ce8d4a","system_id":"levelo_inurba_marseille","lat":43.23183,"lon":5.39993,"is_reserved":false,"is_disabled":false,"rental_uris":{"android":"levelo://app?vid=e39c0672-1b6c-4e48-943d-c79fd5ce8d4a","ios":"levelo://app?vid=e39c0672-1b6c-4e48-943d-c79fd5ce8d4a"},"vehicle_type_id":"4","last_reported":1685221522,"current_range_meters":12000,"station_id":"ce4bhn12rcd13ifvqgqg","pricing_plan_id":"free"},{"bike_id":"a9afbc4d-e95b-487f-9d6c-175b2546a34b","system_id":"levelo_inurba_marseille","lat":43.231794,"lon":5.400052,"is_reserved":false,"is_disabled":false,"rental_uris":{"android":"levelo://app?vid=a9afbc4d-e95b-487f-9d6c-175b2546a34b","ios":"levelo://app?vid=a9afbc4d-e95b-487f-9d6c-175b2546a34b"},"vehicle_type_id":"4","last_reported":1685221522,"current_range_meters":24000,"station_id":"ce4bhn12rcd13ifvqgqg","pricing_plan_id":"free"},{"bike_id":"fa025f6b-9b72-4047-81a2-78b1accb1a5e","system_id":"levelo_inurba_marseille","lat":43.231793,"lon":5.400044,"is_reserved":false,"is_disabled":false,"rental_uris":{"android":"levelo://app?vid=fa025f6b-9b72-4047-81a2-78b1accb1a5e","ios":"levelo://app?vid=fa025f6b-9b72-4047-81a2-78b1accb1a5e"},"vehicle_type_id":"4","last_reported":1685221522,"current_range_meters":10400,"station_id":"ce4bhn12rcd13ifvqgqg","pricing_plan_id":"free"}]}}