{"last_updated":1742580755,"ttl":60,"version":"2.2","data":{"bikes":[{"bike_id":"eb07cccd-6b98-44fe-8fc4-0bbed4d8eb71","system_id":"levelo_inurba_marseille","lat":43.30148,"lon":5.38086,"is_reserved":false,"is_disabled":false,"rental_uris":{"android":"levelo://app?vid=eb07cccd-6b98-44fe-8fc4-0bbed4d8eb71","ios":"levelo://app?vid=eb07cccd-6b98-44fe-8fc4-0bbed4d8eb71"},"vehicle_type_id":"4","last_reported":1742580756,"current_range_meters":2800,"station_id":"ce4bgjp2rcd13ifvqbh0","pricing_plan_id":"cebpf4jnsgd1na2vs0mg"},{"bike_id":"5b7031cc-2eb5-4504-b8a2-6e31d4bafdbf","system_id":"levelo_inurba_marseille","lat":43.27949,"lon":5.41043,"is_reserved":false,"is_disabled":true,"rental_uris":{"android":"levelo://app?vid=5b7031cc-2eb5-4504-b8a2-6e31d4bafdbf","ios":"levelo://app?vid=5b7031cc-2eb5-4504-b8a2-6e31d4bafdbf"},"vehicle_type_id":"4","last_reported":1742580756,"current_range_meters":2800,"station_id":"ce4bhnp2rcd13ifvqh0g","pricing_plan_id":"cebpf4jnsgd1na2vs0mg"},{"bike_id":"1b9ba81c-d359-4d20-a18a-2809d166d07f","system_id":"levelo_inurba_marseille","lat":43.265658,"lon":5.390112,"is_reserved":false,"is_disabled":false,"rental_uris":{"android":"levelo://app?vid=1b9ba81c-d359-4d20-a18a-2809d166d07f","ios":"levelo://app?vid=1b9ba81c-d359-4d20-a18a-2809d166d07f"},"vehicle_type_id":"4","last_reported":1742580756,"current_range_meters":2800,"station_id":"ce4bhe12rcd13ifvqf30","pricing_plan_id":"cebpf4jnsgd1na2vs0mg"},{"bike_id":"61c4e134-e69a-4610-8b72-d085dfbd1b5b","system_id":"levelo_inurba_marseille","lat":43.29554,"lon":5.42288,"is_reserved":false,"is_disabled":false,"rental_uris":{"android":"levelo://app?vid=61c4e134-e69a-4610-8b72-d085dfbd1b5b","ios":"levelo://app?vid=61c4e134-e69a-4610-8b72-d085dfbd1b5b"},"vehicle_type_id":"4","last_reported":1742580756,"current_range_meters":3200,"station_id":"ce4bhph2rcd13ifvqhdg","pricing_plan_id":"cebpf4jnsgd1na2vs0mg"},{"bike_id":"5fa43231-e63c-4e20-9b69-e53f24eed317","system_id":"levelo_inurba_marseille","lat":43.24643,"lon":5.38893,"is_reserved":false,"is_disabled":true,"rental_uris":{"android":"levelo://app?vid=5fa43231-e63c-4e20-9b69-e53f24eed317","ios":"levelo://app?vid=5fa43231-e63c-4e20-9b69-e53f24eed317"},"vehicle_type_id":"4","last_reported":1742580756,"current_range_meters":3200,"station_id":"ce4bhg12rcd13ifvqf60","pricing_plan_id":"cebpf4jnsgd1na2vs0mg"},{"bike_id":"5d28bce7-ab1a-4e8b-ae70-12e427a81793","system_id":"levelo_inurba_marseille","lat":43.24162,"lon":5.36398,"is_reserved":false,"is_disabled":true,"rental_uris":{"android":"levelo://app?vid=5d28bce7-ab1a-4e8b-ae70-12e427a81793","ios":"levelo://app?vid=5d28bce7-ab1a-4e8b-ae70-12e427a81793"},"vehicle_type_id":"4","last_reported":1742580756,"current_range_meters":3200,"station_id":"cpo36qri1sfpv3e86is0","pricing_plan_id":"cebpf4jnsgd1na2vs0mg"},{"bike_id":"2ab33236-3726-4752-a87e-deaacd5c8d54","system_id":"levelo_inurba_marseille","lat":43.25005,"lon":5.38928,"is_reserved":false,"is_disabled":false,"rental_uris":{"android":"levelo://app?vid=2ab33236-3726-4752-a87e-deaacd5c8d54","ios":"levelo://app?vid=2ab33236-3726-4752-a87e-deaacd5c8d54"},"vehicle_type_id":"4","last_reported":1742580756,"current_range_meters":3600,"station_id":"ce4bhgp2rcd13ifvqfd0","pricing_plan_id":"cebpf4jnsgd1na2vs0mg"},{"bike_id":"9367e17d-f7c3-44f4-b52c-c5a51bc6f00d","system_id":"levelo_inurba_marseille","lat":43.28664,"lon":5.38671,"is_reserved":false,"is_disabled":false,"rental_uris":{"android":"levelo://app?vid=9367e17d-f7c3-44f4-b52c-c5a51bc6f00d","ios":"levelo://app?vid=9367e17d-f7c3-44f4-b52c-c5a51bc6f00d"},"vehicle_type_id":"4","last_reported":1742580756,"current_range_meters":3600,"station_id":"ce4bh492rcd13ifvqdug","pricing_plan_id":"cebpf4jnsgd1na2vs0mg"},{"bike_id":"1ee00db3-a2de-405b-b75a-708fda0b556a","system_id":"levelo_inurba_marseille","lat":43.30928,"lon":5.40143,"is_reserved":false,"is_disabled":false,"rental_uris":{"android":"levelo://app?vid=1ee00db3-a2de-405b-b75a-708fda0b556a","ios":"levelo://app?vid=1ee00db3-a2de-405b-b75a-708fda0b556a"},"vehicle_type_id":"4","last_reported":1742580756,"current_range_meters":3600,"station_id":"ce4bgvp2rcd13ifvqct0","pricing_plan_id":"cebpf4jnsgd1na2vs0mg"},{"bike_id":"e63f8744-b5bd-404b-99c9-6114d4491fe7","system_id":"levelo_inurba_marseille","lat":43.29261,"lon":5.38442,"is_reserved":false,"is_disabled":false,"rental_uris":{"android":"levelo://app?vid=e63f8744-b5bd-404b-99c9-6114d4491fe7","ios":"levelo://app?vid=e63f8744-b5bd-404b-99c9-6114d4491fe7"},"vehicle_type_id":"4","last_reported":1742580756,"current_range_meters":3600,"station_id":"ce4bh692rcd13ifvqea0","pricing_plan_id":"cebpf4jnsgd1na2vs0mg"},{"bike_id":"75fa40c7-0d94-4171-996f-4ad4d4d70845","system_id":"levelo_inurba_marseille","lat":43.29279,"lon":5.36848,"is_reserved":false,"is_disabled":false,"rental_uris":{"android":"levelo://app?vid=75fa40c7-0d94-4171-996f-4ad4d4d70845","ios":"levelo://app?vid=75fa40c7-0d94-4171-996f-4ad4d4d70845"},"vehicle_type_id":"4","last_reported":1742580756,"current_range_meters":4000,"station_id":"ce4bhbp2rcd13ifvqesg","pricing_plan_id":"cebpf4jnsgd1na2vs0mg"},{"bike_id":"38fa863a-91a2-44eb-b718-19af02253b65","system_id":"levelo_inurba_marseille","lat":43.26892,"lon":5.40344,"is_reserved":false,"is_disabled":true,"rental_uris":{"android":"levelo://app?vid=38fa863a-91a2-44eb-b718-19af02253b65","ios":"levelo://app?vid=38fa863a-91a2-44eb-b718-19af02253b65"},"vehicle_type_id":"4","last_reported":1742580756,"current_range_meters":4000,"station_id":"cjm6bp8fraef2m0cb0m0","pricing_plan_id":"cebpf4jnsgd1na2vs0mg"},{"bike_id":"a315ec65-89e0-422e-a5c8-090f67ca65bf","system_id":"levelo_inurba_marseille","lat":43.28972,"lon":5.37837,"is_reserved":false,"is_disabled":false,"rental_uris":{"android":"levelo://app?vid=a315ec65-89e0-422e-a5c8-090f67ca65bf","ios":"levelo://app?vid=a315ec65-89e0-422e-a5c8-090f67ca65bf"},"vehicle_type_id":"4","last_reported":1742580756,"current_range_meters":4400,"station_id":"ce4bh9p2rcd13ifvqed0","pricing_plan_id":"cebpf4jnsgd1na2vs0mg"},{"bike_id":"9f16658b-d938-488a-893a-175c51ff539b","system_id":"levelo_inurba_marseille","lat":43.29552,"lon":5.42271,"is_reserved":false,"is_disabled":false,"rental_uris":{"android":"levelo://app?vid=9f16658b-d938-488a-893a-175c51ff539b","ios":"levelo://app?vid=9f16658b-d938-488a-893a-175c51ff539b"},"vehicle_type_id":"4","last_reported":1742580756,"current_range_meters":4400,"station_id":"ce4bhph2rcd13ifvqhdg","pricing_plan_id":"cebpf4jnsgd1na2vs0mg"},{"bike_id":"77ab1a48-1c97-4613-9952-5de79f7c529d","system_id":"levelo_inurba_marseille","lat":43.292615,"lon":5.409089,"is_reserved":false,"is_disabled":false,"rental_uris":{"android":"levelo://app?vid=77ab1a48-1c97-4613-9952-5de79f7c529d","ios":"levelo://app?vid=77ab1a48-1c97-4613-9952-5de79f7c529d"},"vehicle_type_id":"4","last_reported":1742580756,"current_range_meters":4400,"station_id":"ce4bh292rcd13ifvqdg0","pricing_plan_id":"cebpf4jnsgd1na2vs0mg"},{"bike_id":"b2ec2a85-85b0-450e-8cd2-73479b5d5114","system_id":"levelo_inurba_marseille","lat":43.28267,"lon":5.35066,"is_reserved":false,"is_disabled":false,"rental_uris":{"android":"levelo://app?vid=b2ec2a85-85b0-450e-8cd2-73479b5d5114","ios":"levelo://app?vid=b2ec2a85-85b0-450e-8cd2-73479b5d5114"},"vehicle_type_id":"4","last_reported":1742580756,"current_range_meters":5600,"station_id":"ce4bhbp2rcd13ifvqerg","pricing_plan_id":"cebpf4jnsgd1na2vs0mg"},{"bike_id":"06bb0567-9e9c-465f-abff-3840cd1587d5","system_id":"levelo_inurba_marseille","lat":43.26051,"lon":5.39393,"is_reserved":false,"is_disabled":false,"rental_uris":{"android":"levelo://app?vid=06bb0567-9e9c-465f-abff-3840cd1587d5","ios":"levelo://app?vid=06bb0567-9e9c-465f-abff-3840cd1587d5"},"vehicle_type_id":"4","last_reported":1742580756,"current_range_meters":5600,"station_id":"ce4bhh92rcd13ifvqfj0","pricing_plan_id":"cebpf4jnsgd1na2vs0mg"},{"bike_id":"eeb99589-e63d-4b9d-b015-af5ec36bd6cf","system_id":"levelo_inurba_marseille","lat":43.25729,"lon":5.41108,"is_reserved":false,"is_disabled":false,"rental_uris":{"android":"levelo://app?vid=eeb99589-e63d-4b9d-b015-af5ec36bd6cf","ios":"levelo://app?vid=eeb99589-e63d-4b9d-b015-af5ec36bd6cf"},"vehicle_type_id":"4","last_reported":1742580756,"current_range_meters":5600,"station_id":"ce4bhkp2rcd13ifvqgd0","pricing_plan_id":"cebpf4jnsgd1na2vs0mg"},{"bike_id":"a1d4474e-dc54-4e96-8359-81b099ba1a93","system_id":"levelo_inurba_marseille","lat":43.231874,"lon":5.399879,"is_reserved":false,"is_disabled":false,"rental_uris":{"android":"levelo://app?vid=a1d4474e-dc54-4e96-8359-81b099ba1a93","ios":"levelo://app?vid=a1d4474e-dc54-4e96-8359-81b099ba1a93"},"vehicle_type_id":"4","last_reported":1742580756,"current_range_meters":6000,"station_id":"ce4bhn12rcd13ifvqgqg","pricing_plan_id":"cebpf4jnsgd1na2vs0mg"},{"bike_id":"b266faba-4e26-4c50-b078-a54d17773ddd","system_id":"levelo_inurba_marseille","lat":43.2455,"lon":5.39527,"is_reserved":false,"is_disabled":false,"rental_uris":{"android":"levelo://app?vid=b266faba-4e26-4c50-b078-a54d17773ddd","ios":"levelo://app?vid=b266faba-4e26-4c50-b078-a54d17773ddd"},"vehicle_type_id":"4","last_reported":1742580756,"current_range_meters":6000,"station_id":"ce4bhlp2rcd13ifvqgjg","pricing_plan_id":"cebpf4jnsgd1na2vs0mg"},{"bike_id":"17cf9dff-5308-49d4-8479-c0b2be020768","system_id":"levelo_inurba_marseille","lat":43.27806,"lon":5.40719,"is_reserved":false,"is_disabled":false,"rental_uris":{"android":"levelo://app?vid=17cf9dff-5308-49d4-8479-c0b2be020768","ios":"levelo://app?vid=17cf9dff-5308-49d4-8479-c0b2be020768"},"vehicle_type_id":"4","last_reported":1742580756,"current_range_meters":6000,"station_id":"ce4bhnh2rcd13ifvqgtg","pricing_plan_id":"cebpf4jnsgd1na2vs0mg"},{"bike_id":"d22e7cb6-db7a-4572-b8a3-44cdf3733a9e","system_id":"levelo_inurba_marseille","lat":43.27055,"lon":5.40261,"is_reserved":false,"is_disabled":false,"rental_uris":{"android":"levelo://app?vid=d22e7cb6-db7a-4572-b8a3-44cdf3733a9e","ios":"levelo://app?vid=d22e7cb6-db7a-4572-b8a3-44cdf3733a9e"},"vehicle_type_id":"4","last_reported":1742580756,"current_range_meters":6000,"station_id":"ce4bhk92rcd13ifvqgc0","pricing_plan_id":"cebpf4jnsgd1na2vs0mg"},{"bike_id":"399b43de-a5c1-4bc6-9061-e12f52a9da37","system_id":"levelo_inurba_marseille","lat":43.26562,"lon":5.37296,"is_reserved":false,"is_disabled":false,"rental_uris":{"android":"levelo://app?vid=399b43de-a5c1-4bc6-9061-e12f52a9da37","ios":"levelo://app?vid=399b43de-a5c1-4bc6-9061-e12f52a9da37"},"vehicle_type_id":"4","last_reported":1742580756,"current_range_meters":6000,"station_id":"ce4bhg12rcd13ifvqf70","pricing_plan_id":"cebpf4jnsgd1na2vs0mg"},{"bike_id":"a290e572-c2c5-409a-927b-45c41c2e75dd","system_id":"levelo_inurba_marseille","lat":43.251,"lon":5.40329,"is_reserved":false,"is_disabled":false,"rental_uris":{"android":"levelo://app?vid=a290e572-c2c5-409a-927b-45c41c2e75dd","ios":"levelo://app?vid=a290e572-c2c5-409a-927b-45c41c2e75dd"},"vehicle_type_id":"4","last_reported":1742580756,"current_range_meters":6000,"station_id":"ce4bhlh2rcd13ifvqgig","pricing_plan_id":"cebpf4jnsgd1na2vs0mg"},{"bike_id":"69b4ccf3-ad47-48a3-9254-3b9b6a577ca0","system_id":"levelo_inurba_marseille","lat":43.2791,"lon":5.39588,"is_reserved":false,"is_disabled":false,"rental_uris":{"android":"levelo://app?vid=69b4ccf3-ad47-48a3-9254-3b9b6a577ca0","ios":"levelo://app?vid=69b4ccf3-ad47-48a3-9254-3b9b6a577ca0"},"vehicle_type_id":"4","last_reported":1742580756,"current_range_meters":6400,"station_id":"ce4bhf92rcd13ifvqf40","pricing_plan_id":"cebpf4jnsgd1na2vs0mg"},{"bike_id":"3347b3b5-5021-4048-a5c7-44173ddb1a3b","system_id":"levelo_inurba_marseille","lat":43.30905,"lon":5.39601,"is_reserved":false,"is_disabled":false,"rental_uris":{"android":"levelo://app?vid=3347b3b5-5021-4048-a5c7-44173ddb1a3b","ios":"levelo://app?vid=3347b3b5-5021-4048-a5c7-44173ddb1a3b"},"vehicle_type_id":"4","last_reported":1742580756,"current_range_meters":6400,"station_id":"ce4bh012rcd13ifvqcv0","pricing_plan_id":"cebpf4jnsgd1na2vs0mg"},{"bike_id":"1464a903-a11a-448a-9a87-e10526b28969","system_id":"levelo_inurba_marseille","lat":43.30544,"lon":5.36535,"is_reserved":false,"is_disabled":false,"rental_uris":{"android":"levelo://app?vid=1464a903-a11a-448a-9a87-e10526b28969","ios":"levelo://app?vid=1464a903-a11a-448a-9a87-e10526b28969"},"vehicle_type_id":"4","last_reported":1742580756,"current_range_meters":6400,"station_id":"","pricing_plan_id":"cebpf4jnsgd1na2vs0mg"},{"bike_id":"b9e4bdd0-024c-4547-9a94-39d0c7923642","system_id":"levelo_inurba_marseille","lat":43.24167,"lon":5.36418,"is_reserved":false,"is_disabled":false,"rental_uris":{"android":"levelo://app?vid=b9e4bdd0-024c-4547-9a94-39d0c7923642","ios":"levelo://app?vid=b9e4bdd0-024c-4547-9a94-39d0c7923642"},"vehicle_type_id":"4","last_reported":1742580756,"current_range_meters":6400,"station_id":"cpo36qri1sfpv3e86is0","pricing_plan_id":"cebpf4jnsgd1na2vs0mg"},{"bike_id":"c5bb5dca-1dc9-450e-9a3d-9fa737cf345d","system_id":"levelo_inurba_marseille","lat":43.24635,"lon":5.38934,"is_reserved":false,"is_disabled":false,"rental_uris":{"android":"levelo://app?vid=c5bb5dca-1dc9-450e-9a3d-9fa737cf345d","ios":"levelo://app?vid=c5bb5dca-1dc9-450e-9a3d-9fa737cf345d"},"vehicle_type_id":"4","last_reported":1742580756,"current_range_meters":6400,"station_id":"ce4bhg12rcd13ifvqf60","pricing_plan_id":"cebpf4jnsgd1na2vs0mg"},{"bike_id":"a856970b-f5a7-401c-bd2c-89bb5536b9ac","system_id":"levelo_inurba_marseille","lat":43.31298,"lon":5.366409,"is_reserved":false,"is_disabled":false,"rental_uris":{"android":"levelo://app?vid=a856970b-f5a7-401c-bd2c-89bb5536b9ac","ios":"levelo://app?vid=a856970b-f5a7-401c-bd2c-89bb5536b9ac"},"vehicle_type_id":"4","last_reported":1742580756,"current_range_meters":6400,"station_id":"ce4bgh92rcd13ifvqb40","pricing_plan_id":"cebpf4jnsgd1na2vs0mg"},{"bike_id":"8682048b-22d3-4d81-b8c1-fb4c78459528","system_id":"levelo_inurba_marseille","lat":43.32656,"lon":5.40996,"is_reserved":false,"is_disabled":false,"rental_uris":{"android":"levelo://app?vid=8682048b-22d3-4d81-b8c1-fb4c78459528","ios":"levelo://app?vid=8682048b-22d3-4d81-b8c1-fb4c78459528"},"vehicle_type_id":"4","last_reported":1742580756,"current_range_meters":6800,"station_id":"ce4bhpp2rcd13ifvqhgg","pricing_plan_id":"cebpf4jnsgd1na2vs0mg"},{"bike_id":"8c9fa4ba-3022-472d-a524-2b34aef0abf8","system_id":"levelo_inurba_marseille","lat":43.29984,"lon":5.37187,"is_reserved":false,"is_disabled":true,"rental_uris":{"android":"levelo://app?vid=8c9fa4ba-3022-472d-a524-2b34aef0abf8","ios":"levelo://app?vid=8c9fa4ba-3022-472d-a524-2b34aef0abf8"},"vehicle_type_id":"4","last_reported":1742580756,"current_range_meters":6800,"station_id":"ce4bgr92rcd13ifvqc7g","pricing_plan_id":"cebpf4jnsgd1na2vs0mg"},{"bike_id":"4cbc815f-81cb-4b3f-a536-29e8befb1fe3","system_id":"levelo_inurba_marseille","lat":43.25003,"lon":5.38928,"is_reserved":false,"is_disabled":false,"rental_uris":{"android":"levelo://app?vid=4cbc815f-81cb-4b3f-a536-29e8befb1fe3","ios":"levelo://app?vid=4cbc815f-81cb-4b3f-a536-29e8befb1fe3"},"vehicle_type_id":"4","last_reported":1742580756,"current_range_meters":6800,"station_id":"ce4bhgp2rcd13ifvqfd0","pricing_plan_id":"cebpf4jnsgd1na2vs0mg"},{"bike_id":"94d49ee4-0619-4fb0-8ebf-a8ce315c5ef6","system_id":"levelo_inurba_marseille","lat":43.28484,"lon":5.38425,"is_reserved":false,"is_disabled":false,"rental_uris":{"android":"levelo://app?vid=94d49ee4-0619-4fb0-8ebf-a8ce315c5ef6","ios":"levelo://app?vid=94d49ee4-0619-4fb0-8ebf-a8ce315c5ef6"},"vehicle_type_id":"4","last_reported":1742580756,"current_range_meters":6800,"station_id":"ce4bh512rcd13ifvqe3g","pricing_plan_id":"cebpf4jnsgd1na2vs0mg"},{"bike_id":"7f1fd183-097e-4d98-b4e5-8bd0d5eb0c2c","system_id":"levelo_inurba_marseille","lat":43.31346,"lon":5.38507,"is_reserved":false,"is_disabled":false,"rental_uris":{"android":"levelo://app?vid=7f1fd183-097e-4d98-b4e5-8bd0d5eb0c2c","ios":"levelo://app?vid=7f1fd183-097e-4d98-b4e5-8bd0d5eb0c2c"},"vehicle_type_id":"4","last_reported":1742580756,"current_range_meters":6800,"station_id":"ce4bgt92rcd13ifvqcf0","pricing_plan_id":"cebpf4jnsgd1na2vs0mg"},{"bike_id":"ce7799d4-0a53-4002-973d-80a70c8d7a79","system_id":"levelo_inurba_marseille","lat":43.28615,"lon":5.35085,"is_reserved":false,"is_disabled":false,"rental_uris":{"android":"levelo://app?vid=ce7799d4-0a53-4002-973d-80a70c8d7a79","ios":"levelo://app?vid=ce7799d4-0a53-4002-973d-80a70c8d7a79"},"vehicle_type_id":"4","last_reported":1742580756,"current_range_meters":6800,"station_id":"ce4bhch2rcd13ifvqeug","pricing_plan_id":"cebpf4jnsgd1na2vs0mg"},{"bike_id":"567f5838-4833-48b0-bbfa-57d06c08fc8f","system_id":"levelo_inurba_marseille","lat":43.31115,"lon":5.37773,"is_reserved":false,"is_disabled":false,"rental_uris":{"android":"levelo://app?vid=567f5838-4833-48b0-bbfa-57d06c08fc8f","ios":"levelo://app?vid=567f5838-4833-48b0-bbfa-57d06c08fc8f"},"vehicle_type_id":"4","last_reported":1742580756,"current_range_meters":6800,"station_id":"ce4bgt92rcd13ifvqcg0","pricing_plan_id":"cebpf4jnsgd1na2vs0mg"},{"bike_id":"fd87eab3-6dd6-4660-91cd-04d2e7effdd0","system_id":"levelo_inurba_marseille","lat":43.279403,"lon":5.410473,"is_reserved":false,"is_disabled":false,"rental_uris":{"android":"levelo://app?vid=fd87eab3-6dd6-4660-91cd-04d2e7effdd0","ios":"levelo://app?vid=fd87eab3-6dd6-4660-91cd-04d2e7effdd0"},"vehicle_type_id":"4","last_reported":1742580756,"current_range_meters":6800,"station_id":"ce4bhnp2rcd13ifvqh0g","pricing_plan_id":"cebpf4jnsgd1na2vs0mg"},{"bike_id":"ec68725c-1235-4849-ba57-4e84e8253ec0","system_id":"levelo_inurba_marseille","lat":43.29011,"lon":5.38142,"is_reserved":false,"is_disabled":false,"rental_uris":{"android":"levelo://app?vid=ec68725c-1235-4849-ba57-4e84e8253ec0","ios":"levelo://app?vid=ec68725c-1235-4849-ba57-4e84e8253ec0"},"vehicle_type_id":"4","last_reported":1742580756,"current_range_meters":7200,"station_id":"ce4bh4p2rcd13ifvqe1g","pricing_plan_id":"cebpf4jnsgd1na2vs0mg"},{"bike_id":"1d8daad7-9bb4-40dd-adfc-e589f483368c","system_id":"levelo_inurba_marseille","lat":43.25823,"lon":5.39436,"is_reserved":false,"is_disabled":false,"rental_uris":{"android":"levelo://app?vid=1d8daad7-9bb4-40dd-adfc-e589f483368c","ios":"levelo://app?vid=1d8daad7-9bb4-40dd-adfc-e589f483368c"},"vehicle_type_id":"4","last_reported":1742580756,"current_range_meters":7200,"station_id":"ce4bhip2rcd13ifvqft0","pricing_plan_id":"cebpf4jnsgd1na2vs0mg"},{"bike_id":"7038600d-2ea3-458a-a378-9b8b0acc1942","system_id":"levelo_inurba_marseille","lat":43.29609,"lon":5.38114,"is_reserved":false,"is_disabled":false,"rental_uris":{"android":"levelo://app?vid=7038600d-2ea3-458a-a378-9b8b0acc1942","ios":"levelo://app?vid=7038600d-2ea3-458a-a378-9b8b0acc1942"},"vehicle_type_id":"4","last_reported":1742580756,"current_range_meters":7200,"station_id":"ce4bgl12rcd13ifvqbo0","pricing_plan_id":"cebpf4jnsgd1na2vs0mg"},{"bike_id":"ed7fe2fd-3ad8-4a78-82b9-c736fd396baa","system_id":"levelo_inurba_marseille","lat":43.2836,"lon":5.38621,"is_reserved":false,"is_disabled":false,"rental_uris":{"android":"levelo://app?vid=ed7fe2fd-3ad8-4a78-82b9-c736fd396baa","ios":"levelo://app?vid=ed7fe2fd-3ad8-4a78-82b9-c736fd396baa"},"vehicle_type_id":"4","last_reported":1742580756,"current_range_meters":7200,"station_id":"ce4bh492rcd13ifvqdvg","pricing_plan_id":"cebpf4jnsgd1na2vs0mg"},{"bike_id":"af0dd9ac-7466-4151-a052-abde29cf9b49","system_id":"levelo_inurba_marseille","lat":43.23187,"lon":5.35562,"is_reserved":false,"is_disabled":false,"rental_uris":{"android":"levelo://app?vid=af0dd9ac-7466-4151-a052-abde29cf9b49","ios":"levelo://app?vid=af0dd9ac-7466-4151-a052-abde29cf9b49"},"vehicle_type_id":"4","last_reported":1742580756,"current_range_meters":7200,"station_id":"ce4bhu92rcd13ifvqi70","pricing_plan_id":"cebpf4jnsgd1na2vs0mg"},{"bike_id":"46e325e1-4b70-4630-bfdc-9758fa69893c","system_id":"levelo_inurba_marseille","lat":43.28155,"lon":5.426396,"is_reserved":false,"is_disabled":false,"rental_uris":{"android":"levelo://app?vid=46e325e1-4b70-4630-bfdc-9758fa69893c","ios":"levelo://app?vid=46e325e1-4b70-4630-bfdc-9758fa69893c"},"vehicle_type_id":"4","last_reported":1742580756,"current_range_meters":7200,"station_id":"ce4bhnh2rcd13ifvqgug","pricing_plan_id":"cebpf4jnsgd1na2vs0mg"},{"bike_id":"9c14fb4f-316f-47fe-813a-8bc435dea8f9","system_id":"levelo_inurba_marseille","lat":43.3026,"lon":5.40057,"is_reserved":false,"is_disabled":false,"rental_uris":{"android":"levelo://app?vid=9c14fb4f-316f-47fe-813a-8bc435dea8f9","ios":"levelo://app?vid=9c14fb4f-316f-47fe-813a-8bc435dea8f9"},"vehicle_type_id":"4","last_reported":1742580756,"current_range_meters":7200,"station_id":"ce4bgvh2rcd13ifvqcs0","pricing_plan_id":"cebpf4jnsgd1na2vs0mg"},{"bike_id":"62bf2f5c-9819-4816-afad-4a268d7a76b8","system_id":"levelo_inurba_marseille","lat":43.2417,"lon":5.364,"is_reserved":false,"is_disabled":false,"rental_uris":{"android":"levelo://app?vid=62bf2f5c-9819-4816-afad-4a268d7a76b8","ios":"levelo://app?vid=62bf2f5c-9819-4816-afad-4a268d7a76b8"},"vehicle_type_id":"4","last_reported":1742580756,"current_range_meters":8000,"station_id":"cpo36qri1sfpv3e86is0","pricing_plan_id":"cebpf4jnsgd1na2vs0mg"},{"bike_id":"2678929a-312d-4089-b116-1e816de7db90","system_id":"levelo_inurba_marseille","lat":43.32169,"lon":5.36702,"is_reserved":false,"is_disabled":false,"rental_uris":{"android":"levelo://app?vid=2678929a-312d-4089-b116-1e816de7db90","ios":"levelo://app?vid=2678929a-312d-4089-b116-1e816de7db90"},"vehicle_type_id":"4","last_reported":1742580756,"current_range_meters":8000,"station_id":"","pricing_plan_id":"cebpf4jnsgd1na2vs0mg"},{"bike_id":"5df00c12-ddc7-4915-b602-2b6dd58f5f86","system_id":"levelo_inurba_marseille","lat":43.320404,"lon":5.41557,"is_reserved":false,"is_disabled":false,"rental_uris":{"android":"levelo://app?vid=5df00c12-ddc7-4915-b602-2b6dd58f5f86","ios":"levelo://app?vid=5df00c12-ddc7-4915-b602-2b6dd58f5f86"},"vehicle_type_id":"4","last_reported":1742580756,"current_range_meters":8000,"station_id":"ce4bhq92rcd13ifvqhkg","pricing_plan_id":"cebpf4jnsgd1na2vs0mg"},{"bike_id":"d665e4ec-f62d-49f9-8bde-6867061d14b2","system_id":"levelo_inurba_marseille","lat":43.30144,"lon":5.38068,"is_reserved":false,"is_disabled":false,"rental_uris":{"android":"levelo://app?vid=d665e4ec-f62d-49f9-8bde-6867061d14b2","ios":"levelo://app?vid=d665e4ec-f62d-49f9-8bde-6867061d14b2"},"vehicle_type_id":"4","last_reported":1742580756,"current_range_meters":8000,"station_id":"ce4bgjp2rcd13ifvqbh0","pricing_plan_id":"cebpf4jnsgd1na2vs0mg"},{"bike_id":"2d86cf0c-8220-4a0c-a77e-5b4210ae7f59","system_id":"levelo_inurba_marseille","lat":43.30473,"lon":5.37045,"is_reserved":false,"is_disabled":false,"rental_uris":{"android":"levelo://app?vid=2d86cf0c-8220-4a0c-a77e-5b4210ae7f59","ios":"levelo://app?vid=2d86cf0c-8220-4a0c-a77e-5b4210ae7f59"},"vehicle_type_id":"4","last_reported":1742580756,"current_range_meters":8000,"station_id":"","pricing_plan_id":"cebpf4jnsgd1na2vs0mg"},{"bike_id":"1c3b5361-695c-4ccc-94f9-aca7f37b6d45","system_id":"levelo_inurba_marseille","lat":43.2319,"lon":5.35565,"is_reserved":false,"is_disabled":false,"rental_uris":{"android":"levelo://app?vid=1c3b5361-695c-4ccc-94f9-aca7f37b6d45","ios":"levelo://app?vid=1c3b5361-695c-4ccc-94f9-aca7f37b6d45"},"vehicle_type_id":"4","last_reported":1742580756,"current_range_meters":8400,"station_id":"ce4bhu92rcd13ifvqi70","pricing_plan_id":"cebpf4jnsgd1na2vs0mg"},{"bike_id":"1c4034bf-01f3-461c-886c-378fcd960c34","system_id":"levelo_inurba_marseille","lat":43.29933,"lon":5.36558,"is_reserved":false,"is_disabled":false,"rental_uris":{"android":"levelo://app?vid=1c4034bf-01f3-461c-886c-378fcd960c34","ios":"levelo://app?vid=1c4034bf-01f3-461c-886c-378fcd960c34"},"vehicle_type_id":"4","last_reported":1742580756,"current_range_meters":8400,"station_id":"ce4bgm92rcd13ifvqbr0","pricing_plan_id":"cebpf4jnsgd1na2vs0mg"},{"bike_id":"c7690d8f-d650-495b-82f0-2abd9a4308b7","system_id":"levelo_inurba_marseille","lat":43.25581,"lon":5.38229,"is_reserved":false,"is_disabled":false,"rental_uris":{"android":"levelo://app?vid=c7690d8f-d650-495b-82f0-2abd9a4308b7","ios":"levelo://app?vid=c7690d8f-d650-495b-82f0-2abd9a4308b7"},"vehicle_type_id":"4","last_reported":1742580756,"current_range_meters":8400,"station_id":"ce4bhih2rcd13ifvqfs0","pricing_plan_id":"cebpf4jnsgd1na2vs0mg"},{"bike_id":"a67c54b6-5ce9-4632-8070-5ca7d5b7fc9e","system_id":"levelo_inurba_marseille","lat":43.23053,"lon":5.35502,"is_reserved":false,"is_disabled":false,"rental_uris":{"android":"levelo://app?vid=a67c54b6-5ce9-4632-8070-5ca7d5b7fc9e","ios":"levelo://app?vid=a67c54b6-5ce9-4632-8070-5ca7d5b7fc9e"},"vehicle_type_id":"4","last_reported":1742580756,"current_range_meters":8400,"station_id":"cpo3342slgdg3j2ifvpg","pricing_plan_id":"cebpf4jnsgd1na2vs0mg"},{"bike_id":"e2a96eda-5d48-4ff7-bf55-15388c78a2fc","system_id":"levelo_inurba_marseille","lat":43.29606,"lon":5.38096,"is_reserved":false,"is_disabled":false,"rental_uris":{"android":"levelo://app?vid=e2a96eda-5d48-4ff7-bf55-15388c78a2fc","ios":"levelo://app?vid=e2a96eda-5d48-4ff7-bf55-15388c78a2fc"},"vehicle_type_id":"4","last_reported":1742580756,"current_range_meters":8400,"station_id":"ce4bgl12rcd13ifvqbo0","pricing_plan_id":"cebpf4jnsgd1na2vs0mg"},{"bike_id":"07b88f4f-1312-4f37-adb2-413142aa5a7c","system_id":"levelo_inurba_marseille","lat":43.24393,"lon":5.3706,"is_reserved":false,"is_disabled":false,"rental_uris":{"android":"levelo://app?vid=07b88f4f-1312-4f37-adb2-413142aa5a7c","ios":"levelo://app?vid=07b88f4f-1312-4f37-adb2-413142aa5a7c"},"vehicle_type_id":"4","last_reported":1742580756,"current_range_meters":8400,"station_id":"ce4bhhh2rcd13ifvqfk0","pricing_plan_id":"cebpf4jnsgd1na2vs0mg"},{"bike_id":"b932d33e-91a4-45e0-8ca0-dca14df5ba52","system_id":"levelo_inurba_marseille","lat":43.31117,"lon":5.37764,"is_reserved":false,"is_disabled":false,"rental_uris":{"android":"levelo://app?vid=b932d33e-91a4-45e0-8ca0-dca14df5ba52","ios":"levelo://app?vid=b932d33e-91a4-45e0-8ca0-dca14df5ba52"},"vehicle_type_id":"4","last_reported":1742580756,"current_range_meters":8400,"station_id":"ce4bgt92rcd13ifvqcg0","pricing_plan_id":"cebpf4jnsgd1na2vs0mg"},{"bike_id":"490f24fb-19fa-45d1-aeb1-cf2283f14534","system_id":"levelo_inurba_marseille","lat":43.30593,"lon":5.37237,"is_reserved":false,"is_disabled":false,"rental_uris":{"android":"levelo://app?vid=490f24fb-19fa-45d1-aeb1-cf2283f14534","ios":"levelo://app?vid=490f24fb-19fa-45d1-aeb1-cf2283f14534"},"vehicle_type_id":"4","last_reported":1742580756,"current_range_meters":8800,"station_id":"ce4bgqh2rcd13ifvqc4g","pricing_plan_id":"cebpf4jnsgd1na2vs0mg"},{"bike_id":"9fcb3f14-f368-4f79-aa70-01b27150c36b","system_id":"levelo_inurba_marseille","lat":43.30642,"lon":5.37263,"is_reserved":false,"is_disabled":false,"rental_uris":{"android":"levelo://app?vid=9fcb3f14-f368-4f79-aa70-01b27150c36b","ios":"levelo://app?vid=9fcb3f14-f368-4f79-aa70-01b27150c36b"},"vehicle_type_id":"4","last_reported":1742580756,"current_range_meters":8800,"station_id":"","pricing_plan_id":"cebpf4jnsgd1na2vs0mg"},{"bike_id":"01e6ee98-0ffd-49fd-a47f-49b6540f8a7f","system_id":"levelo_inurba_marseille","lat":43.3031,"lon":5.36898,"is_reserved":false,"is_disabled":false,"rental_uris":{"android":"levelo://app?vid=01e6ee98-0ffd-49fd-a47f-49b6540f8a7f","ios":"levelo://app?vid=01e6ee98-0ffd-49fd-a47f-49b6540f8a7f"},"vehicle_type_id":"4","last_reported":1742580756,"current_range_meters":8800,"station_id":"ce4bgqh2rcd13ifvqc5g","pricing_plan_id":"cebpf4jnsgd1na2vs0mg"},{"bike_id":"f589539d-d63d-45fb-bd41-4fe66d427517","system_id":"levelo_inurba_marseille","lat":43.31084,"lon":5.38377,"is_reserved":false,"is_disabled":false,"rental_uris":{"android":"levelo://app?vid=f589539d-d63d-45fb-bd41-4fe66d427517","ios":"levelo://app?vid=f589539d-d63d-45fb-bd41-4fe66d427517"},"vehicle_type_id":"4","last_reported":1742580756,"current_range_meters":8800,"station_id":"ce4bgv92rcd13ifvqcr0","pricing_plan_id":"cebpf4jnsgd1na2vs0mg"},{"bike_id":"de2b8656-9b7e-420b-a7e5-0945a3affb7c","system_id":"levelo_inurba_marseille","lat":43.29931,"lon":5.36555,"is_reserved":false,"is_disabled":false,"rental_uris":{"android":"levelo://app?vid=de2b8656-9b7e-420b-a7e5-0945a3affb7c","ios":"levelo://app?vid=de2b8656-9b7e-420b-a7e5-0945a3affb7c"},"vehicle_type_id":"4","last_reported":1742580756,"current_range_meters":8800,"station_id":"ce4bgm92rcd13ifvqbr0","pricing_plan_id":"cebpf4jnsgd1na2vs0mg"},{"bike_id":"28c070b6-831a-4ca4-96f5-53fd9f42bfa5","system_id":"levelo_inurba_marseille","lat":43.31075,"lon":5.38346,"is_reserved":false,"is_disabled":false,"rental_uris":{"android":"levelo://app?vid=28c070b6-831a-4ca4-96f5-53fd9f42bfa5","ios":"levelo://app?vid=28c070b6-831a-4ca4-96f5-53fd9f42bfa5"},"vehicle_type_id":"4","last_reported":1742580756,"current_range_meters":8800,"station_id":"ce4bgv92rcd13ifvqcr0","pricing_plan_id":"cebpf4jnsgd1na2vs0mg"},{"bike_id":"1ac43662-596f-4368-8af3-af24f5c6030d","system_id":"levelo_inurba_marseille","lat":43.32993,"lon":5.39107,"is_reserved":false,"is_disabled":false,"rental_uris":{"android":"levelo://app?vid=1ac43662-596f-4368-8af3-af24f5c6030d","ios":"levelo://app?vid=1ac43662-596f-4368-8af3-af24f5c6030d"},"vehicle_type_id":"4","last_reported":1742580756,"current_range_meters":8800,"station_id":"ce4bhr92rcd13ifvqhrg","pricing_plan_id":"cebpf4jnsgd1na2vs0mg"},{"bike_id":"9d7c5369-1fcf-49ba-a4e6-67a6d14bf19e","system_id":"levelo_inurba_marseille","lat":43.30416,"lon":5.39762,"is_reserved":false,"is_disabled":false,"rental_uris":{"android":"levelo://app?vid=9d7c5369-1fcf-49ba-a4e6-67a6d14bf19e","ios":"levelo://app?vid=9d7c5369-1fcf-49ba-a4e6-67a6d14bf19e"},"vehicle_type_id":"4","last_reported":1742580756,"current_range_meters":9200,"station_id":"ce4bh092rcd13ifvqd20","pricing_plan_id":"cebpf4jnsgd1na2vs0mg"},{"bike_id":"b672f335-47a8-4062-a575-6187d8508057","system_id":"levelo_inurba_marseille","lat":43.2606,"lon":5.39398,"is_reserved":false,"is_disabled":false,"rental_uris":{"android":"levelo://app?vid=b672f335-47a8-4062-a575-6187d8508057","ios":"levelo://app?vid=b672f335-47a8-4062-a575-6187d8508057"},"vehicle_type_id":"4","last_reported":1742580756,"current_range_meters":9200,"station_id":"ce4bhh92rcd13ifvqfj0","pricing_plan_id":"cebpf4jnsgd1na2vs0mg"},{"bike_id":"899ab87e-4ea4-40e5-9304-e09f83aad3d0","system_id":"levelo_inurba_marseille","lat":43.23954,"lon":5.36649,"is_reserved":false,"is_disabled":false,"rental_uris":{"android":"levelo://app?vid=899ab87e-4ea4-40e5-9304-e09f83aad3d0","ios":"levelo://app?vid=899ab87e-4ea4-40e5-9304-e09f83aad3d0"},"vehicle_type_id":"4","last_reported":1742580756,"current_range_meters":9200,"station_id":"ce4bhi12rcd13ifvqfp0","pricing_plan_id":"cebpf4jnsgd1na2vs0mg"},{"bike_id":"6b9f258c-1031-4975-9128-1ece84625cf6","system_id":"levelo_inurba_marseille","lat":43.31067,"lon":5.38362,"is_reserved":false,"is_disabled":false,"rental_uris":{"android":"levelo://app?vid=6b9f258c-1031-4975-9128-1ece84625cf6","ios":"levelo://app?vid=6b9f258c-1031-4975-9128-1ece84625cf6"},"vehicle_type_id":"4","last_reported":1742580756,"current_range_meters":9200,"station_id":"ce4bgv92rcd13ifvqcr0","pricing_plan_id":"cebpf4jnsgd1na2vs0mg"},{"bike_id":"bf5d7bdb-65a8-4310-b955-6a76e2cbd7fe","system_id":"levelo_inurba_marseille","lat":43.33734,"lon":5.3922,"is_reserved":false,"is_disabled":false,"rental_uris":{"android":"levelo://app?vid=bf5d7bdb-65a8-4310-b955-6a76e2cbd7fe","ios":"levelo://app?vid=bf5d7bdb-65a8-4310-b955-6a76e2cbd7fe"},"vehicle_type_id":"4","last_reported":1742580756,"current_range_meters":9200,"station_id":"ce4bhr92rcd13ifvqhsg","pricing_plan_id":"cebpf4jnsgd1na2vs0mg"},{"bike_id":"d6aff1ed-229c-4ff0-b6d9-674bc21c7e9b","system_id":"levelo_inurba_marseille","lat":43.30878,"lon":5.39661,"is_reserved":false,"is_disabled":false,"rental_uris":{"android":"levelo://app?vid=d6aff1ed-229c-4ff0-b6d9-674bc21c7e9b","ios":"levelo://app?vid=d6aff1ed-229c-4ff0-b6d9-674bc21c7e9b"},"vehicle_type_id":"4","last_reported":1742580756,"current_range_meters":9200,"station_id":"ce4bh012rcd13ifvqcv0","pricing_plan_id":"cebpf4jnsgd1na2vs0mg"},{"bike_id":"c247e2d9-bc0a-43fc-96f6-63366ce4549c","system_id":"levelo_inurba_marseille","lat":43.28443,"lon":5.39185,"is_reserved":false,"is_disabled":false,"rental_uris":{"android":"levelo://app?vid=c247e2d9-bc0a-43fc-96f6-63366ce4549c","ios":"levelo://app?vid=c247e2d9-bc0a-43fc-96f6-63366ce4549c"},"vehicle_type_id":"4","last_reported":1742580756,"current_range_meters":9200,"station_id":"ce4bhoh2rcd13ifvqh5g","pricing_plan_id":"cebpf4jnsgd1na2vs0mg"},{"bike_id":"4d2c7c19-30a8-4ecd-9a4d-9a6bd3bacdcf","system_id":"levelo_inurba_marseille","lat":43.2927,"lon":5.38436,"is_reserved":false,"is_disabled":false,"rental_uris":{"android":"levelo://app?vid=4d2c7c19-30a8-4ecd-9a4d-9a6bd3bacdcf","ios":"levelo://app?vid=4d2c7c19-30a8-4ecd-9a4d-9a6bd3bacdcf"},"vehicle_type_id":"4","last_reported":1742580756,"current_range_meters":8800,"station_id":"ce4bh692rcd13ifvqea0","pricing_plan_id":"cebpf4jnsgd1na2vs0mg"},{"bike_id":"dbeb4140-aada-4903-9abe-13f3c0f2daf9","system_id":"levelo_inurba_marseille","lat":43.29585,"lon":5.36747,"is_reserved":false,"is_disabled":false,"rental_uris":{"android":"levelo://app?vid=dbeb4140-aada-4903-9abe-13f3c0f2daf9","ios":"levelo://app?vid=dbeb4140-aada-4903-9abe-13f3c0f2daf9"},"vehicle_type_id":"4","last_reported":1742580756,"current_range_meters":9600,"station_id":"ce4bgph2rcd13ifvqc2g","pricing_plan_id":"cebpf4jnsgd1na2vs0mg"},{"bike_id":"45b64d53-5e74-433a-9861-b630bfd7ded2","system_id":"levelo_inurba_marseille","lat":43.27819,"lon":5.40703,"is_reserved":false,"is_disabled":false,"rental_uris":{"android":"levelo://app?vid=45b64d53-5e74-433a-9861-b630bfd7ded2","ios":"levelo://app?vid=45b64d53-5e74-433a-9861-b630bfd7ded2"},"vehicle_type_id":"4","last_reported":1742580756,"current_range_meters":9600,"station_id":"ce4bhnh2rcd13ifvqgtg","pricing_plan_id":"cebpf4jnsgd1na2vs0mg"},{"bike_id":"cf055f0d-64ca-4d3b-af73-bef858b3ca22","system_id":"levelo_inurba_marseille","lat":43.29595,"lon":5.38105,"is_reserved":false,"is_disabled":false,"rental_uris":{"android":"levelo://app?vid=cf055f0d-64ca-4d3b-af73-bef858b3ca22","ios":"levelo://app?vid=cf055f0d-64ca-4d3b-af73-bef858b3ca22"},"vehicle_type_id":"4","last_reported":1742580756,"current_range_meters":9600,"station_id":"ce4bgl12rcd13ifvqbo0","pricing_plan_id":"cebpf4jnsgd1na2vs0mg"},{"bike_id":"1323d2cd-c4e0-4783-b4f1-4daaeb41faef","system_id":"levelo_inurba_marseille","lat":43.23949,"lon":5.36642,"is_reserved":false,"is_disabled":false,"rental_uris":{"android":"levelo://app?vid=1323d2cd-c4e0-4783-b4f1-4daaeb41faef","ios":"levelo://app?vid=1323d2cd-c4e0-4783-b4f1-4daaeb41faef"},"vehicle_type_id":"4","last_reported":1742580756,"current_range_meters":9600,"station_id":"ce4bhi12rcd13ifvqfp0","pricing_plan_id":"cebpf4jnsgd1na2vs0mg"},{"bike_id":"20e2be53-78ac-4b24-8dad-96b43d72add2","system_id":"levelo_inurba_marseille","lat":43.31059,"lon":5.38361,"is_reserved":false,"is_disabled":false,"rental_uris":{"android":"levelo://app?vid=20e2be53-78ac-4b24-8dad-96b43d72add2","ios":"levelo://app?vid=20e2be53-78ac-4b24-8dad-96b43d72add2"},"vehicle_type_id":"4","last_reported":1742580756,"current_range_meters":9600,"station_id":"ce4bgv92rcd13ifvqcr0","pricing_plan_id":"cebpf4jnsgd1na2vs0mg"},{"bike_id":"cff5c5d7-b2c2-4661-bcba-b7a09aa5def1","system_id":"levelo_inurba_marseille","lat":43.30325,"lon":5.36924,"is_reserved":false,"is_disabled":false,"rental_uris":{"android":"levelo://app?vid=cff5c5d7-b2c2-4661-bcba-b7a09aa5def1","ios":"levelo://app?vid=cff5c5d7-b2c2-4661-bcba-b7a09aa5def1"},"vehicle_type_id":"4","last_reported":1742580756,"current_range_meters":9600,"station_id":"ce4bgqh2rcd13ifvqc5g","pricing_plan_id":"cebpf4jnsgd1na2vs0mg"},{"bike_id":"36122bc8-3d81-471a-ae65-d15e3475afd5","system_id":"levelo_inurba_marseille","lat":43.23968,"lon":5.36637,"is_reserved":false,"is_disabled":false,"rental_uris":{"android":"levelo://app?vid=36122bc8-3d81-471a-ae65-d15e3475afd5","ios":"levelo://app?vid=36122bc8-3d81-471a-ae65-d15e3475afd5"},"vehicle_type_id":"4","last_reported":1742580756,"current_range_meters":9600,"station_id":"ce4bhi12rcd13ifvqfp0","pricing_plan_id":"cebpf4jnsgd1na2vs0mg"},{"bike_id":"9b80c4db-51e1-4e4e-8ecd-a558d3a24fd7","system_id":"levelo_inurba_marseille","lat":43.33163,"lon":5.38199,"is_reserved":false,"is_disabled":false,"rental_uris":{"android":"levelo://app?vid=9b80c4db-51e1-4e4e-8ecd-a558d3a24fd7","ios":"levelo://app?vid=9b80c4db-51e1-4e4e-8ecd-a558d3a24fd7"},"vehicle_type_id":"4","last_reported":1742580756,"current_range_meters":9600,"station_id":"","pricing_plan_id":"cebpf4jnsgd1na2vs0mg"},{"bike_id":"1f4b5356-d265-454a-aa48-2f7dec9d4d2a","system_id":"levelo_inurba_marseille","lat":43.3372,"lon":5.39187,"is_reserved":false,"is_disabled":false,"rental_uris":{"android":"levelo://app?vid=1f4b5356-d265-454a-aa48-2f7dec9d4d2a","ios":"levelo://app?vid=1f4b5356-d265-454a-aa48-2f7dec9d4d2a"},"vehicle_type_id":"4","last_reported":1742580756,"current_range_meters":9600,"station_id":"ce4bhr92rcd13ifvqhsg","pricing_plan_id":"cebpf4jnsgd1na2vs0mg"},{"bike_id":"a06df953-ee24-4eee-acd9-cfb685fc1c62","system_id":"levelo_inurba_marseille","lat":43.31437,"lon":5.37448,"is_reserved":false,"is_disabled":false,"rental_uris":{"android":"levelo://app?vid=a06df953-ee24-4eee-acd9-cfb685fc1c62","ios":"levelo://app?vid=a06df953-ee24-4eee-acd9-cfb685fc1c62"},"vehicle_type_id":"4","last_reported":1742580756,"current_range_meters":10000,"station_id":"","pricing_plan_id":"cebpf4jnsgd1na2vs0mg"},{"bike_id":"1718411d-224e-40b0-8f66-d013bf6d6ff6","system_id":"levelo_inurba_marseille","lat":43.2871,"lon":5.37382,"is_reserved":false,"is_disabled":false,"rental_uris":{"android":"levelo://app?vid=1718411d-224e-40b0-8f66-d013bf6d6ff6","ios":"levelo://app?vid=1718411d-224e-40b0-8f66-d013bf6d6ff6"},"vehicle_type_id":"4","last_reported":1742580756,"current_range_meters":10000,"station_id":"ce4bh3p2rcd13ifvqdq0","pricing_plan_id":"cebpf4jnsgd1na2vs0mg"},{"bike_id":"41d3da07-8d1e-4567-82eb-0b99262ef26f","system_id":"levelo_inurba_marseille","lat":43.24546,"lon":5.3952,"is_reserved":false,"is_disabled":false,"rental_uris":{"android":"levelo://app?vid=41d3da07-8d1e-4567-82eb-0b99262ef26f","ios":"levelo://app?vid=41d3da07-8d1e-4567-82eb-0b99262ef26f"},"vehicle_type_id":"4","last_reported":1742580756,"current_range_meters":9600,"station_id":"ce4bhlp2rcd13ifvqgjg","pricing_plan_id":"cebpf4jnsgd1na2vs0mg"},{"bike_id":"52c16ac5-3447-4053-956c-78fc8bf0dc7c","system_id":"levelo_inurba_marseille","lat":43.32312,"lon":5.36578,"is_reserved":false,"is_disabled":false,"rental_uris":{"android":"levelo://app?vid=52c16ac5-3447-4053-956c-78fc8bf0dc7c","ios":"levelo://app?vid=52c16ac5-3447-4053-956c-78fc8bf0dc7c"},"vehicle_type_id":"4","last_reported":1742580756,"current_range_meters":10000,"station_id":"ce4bhsh2rcd13ifvqi2g","pricing_plan_id":"cebpf4jnsgd1na2vs0mg"},{"bike_id":"d000c8ac-0c96-4fc1-ac84-5f67409cab71","system_id":"levelo_inurba_marseille","lat":43.32489,"lon":5.36564,"is_reserved":false,"is_disabled":false,"rental_uris":{"android":"levelo://app?vid=d000c8ac-0c96-4fc1-ac84-5f67409cab71","ios":"levelo://app?vid=d000c8ac-0c96-4fc1-ac84-5f67409cab71"},"vehicle_type_id":"4","last_reported":1742580756,"current_range_meters":10000,"station_id":"ce4bhs12rcd13ifvqhvg","pricing_plan_id":"cebpf4jnsgd1na2vs0mg"},{"bike_id":"c00eb99b-b9d9-4eec-8729-a038daa1f827","system_id":"levelo_inurba_marseille","lat":43.32052,"lon":5.41551,"is_reserved":false,"is_disabled":false,"rental_uris":{"android":"levelo://app?vid=c00eb99b-b9d9-4eec-8729-a038daa1f827","ios":"levelo://app?vid=c00eb99b-b9d9-4eec-8729-a038daa1f827"},"vehicle_type_id":"4","last_reported":1742580756,"current_range_meters":10000,"station_id":"ce4bhq92rcd13ifvqhkg","pricing_plan_id":"cebpf4jnsgd1na2vs0mg"},{"bike_id":"37c8fdf5-6421-41e6-986c-33ac030fa386","system_id":"levelo_inurba_marseille","lat":43.29918,"lon":5.39739,"is_reserved":false,"is_disabled":false,"rental_uris":{"android":"levelo://app?vid=37c8fdf5-6421-41e6-986c-33ac030fa386","ios":"levelo://app?vid=37c8fdf5-6421-41e6-986c-33ac030fa386"},"vehicle_type_id":"4","last_reported":1742580756,"current_range_meters":10000,"station_id":"","pricing_plan_id":"cebpf4jnsgd1na2vs0mg"},{"bike_id":"7c92fa4a-9bc1-44b2-9208-97d3580ce3ec","system_id":"levelo_inurba_marseille","lat":43.25011,"lon":5.38936,"is_reserved":false,"is_disabled":false,"rental_uris":{"android":"levelo://app?vid=7c92fa4a-9bc1-44b2-9208-97d3580ce3ec","ios":"levelo://app?vid=7c92fa4a-9bc1-44b2-9208-97d3580ce3ec"},"vehicle_type_id":"4","last_reported":1742580756,"current_range_meters":10000,"station_id":"ce4bhgp2rcd13ifvqfd0","pricing_plan_id":"cebpf4jnsgd1na2vs0mg"},{"bike_id":"bd63a81b-f6d7-4efe-a9d6-e762a8b62783","system_id":"levelo_inurba_marseille","lat":43.28561,"lon":5.39526,"is_reserved":false,"is_disabled":false,"rental_uris":{"android":"levelo://app?vid=bd63a81b-f6d7-4efe-a9d6-e762a8b62783","ios":"levelo://app?vid=bd63a81b-f6d7-4efe-a9d6-e762a8b62783"},"vehicle_type_id":"4","last_reported":1742580756,"current_range_meters":10000,"station_id":"ce4bh292rcd13ifvqdg0","pricing_plan_id":"cebpf4jnsgd1na2vs0mg"},{"bike_id":"f6781b46-fe34-4ed9-847f-a8e901bb4eb8","system_id":"levelo_inurba_marseille","lat":43.27924,"lon":5.39592,"is_reserved":false,"is_disabled":false,"rental_uris":{"android":"levelo://app?vid=f6781b46-fe34-4ed9-847f-a8e901bb4eb8","ios":"levelo://app?vid=f6781b46-fe34-4ed9-847f-a8e901bb4eb8"},"vehicle_type_id":"4","last_reported":1742580756,"current_range_meters":10000,"station_id":"ce4bhf92rcd13ifvqf40","pricing_plan_id":"cebpf4jnsgd1na2vs0mg"},{"bike_id":"a52dfbd3-560f-4dad-8ae6-494d05ea4c89","system_id":"levelo_inurba_marseille","lat":43.32284,"lon":5.38296,"is_reserved":false,"is_disabled":false,"rental_uris":{"android":"levelo://app?vid=a52dfbd3-560f-4dad-8ae6-494d05ea4c89","ios":"levelo://app?vid=a52dfbd3-560f-4dad-8ae6-494d05ea4c89"},"vehicle_type_id":"4","last_reported":1742580756,"current_range_meters":10000,"station_id":"ce4bhr12rcd13ifvqhqg","pricing_plan_id":"cebpf4jnsgd1na2vs0mg"},{"bike_id":"f26047fe-e325-4cda-a7da-2e6f1320cab5","system_id":"levelo_inurba_marseille","lat":43.2652,"lon":5.3953,"is_reserved":false,"is_disabled":false,"rental_uris":{"android":"levelo://app?vid=f26047fe-e325-4cda-a7da-2e6f1320cab5","ios":"levelo://app?vid=f26047fe-e325-4cda-a7da-2e6f1320cab5"},"vehicle_type_id":"4","last_reported":1742580756,"current_range_meters":10000,"station_id":"ce4bhi12rcd13ifvqfq0","pricing_plan_id":"cebpf4jnsgd1na2vs0mg"},{"bike_id":"3ee69224-7c6a-448e-b5bc-935bb2df6bdf","system_id":"levelo_inurba_marseille","lat":43.28074,"lon":5.39656,"is_reserved":false,"is_disabled":false,"rental_uris":{"android":"levelo://app?vid=3ee69224-7c6a-448e-b5bc-935bb2df6bdf","ios":"levelo://app?vid=3ee69224-7c6a-448e-b5bc-935bb2df6bdf"},"vehicle_type_id":"4","last_reported":1742580756,"current_range_meters":10000,"station_id":"ce4bho12rcd13ifvqh2g","pricing_plan_id":"cebpf4jnsgd1na2vs0mg"},{"bike_id":"1c78c8dc-69da-4abe-8de1-c75c570b07ad","system_id":"levelo_inurba_marseille","lat":43.28619,"lon":5.35092,"is_reserved":false,"is_disabled":false,"rental_uris":{"android":"levelo://app?vid=1c78c8dc-69da-4abe-8de1-c75c570b07ad","ios":"levelo://app?vid=1c78c8dc-69da-4abe-8de1-c75c570b07ad"},"vehicle_type_id":"4","last_reported":1742580756,"current_range_meters":10000,"station_id":"ce4bhch2rcd13ifvqeug","pricing_plan_id":"cebpf4jnsgd1na2vs0mg"},{"bike_id":"27de0c76-7a26-4063-9191-61c6657b98eb","system_id":"levelo_inurba_marseille","lat":43.2942,"lon":5.38635,"is_reserved":false,"is_disabled":false,"rental_uris":{"android":"levelo://app?vid=27de0c76-7a26-4063-9191-61c6657b98eb","ios":"levelo://app?vid=27de0c76-7a26-4063-9191-61c6657b98eb"},"vehicle_type_id":"4","last_reported":1742580756,"current_range_meters":10000,"station_id":"ce4bh2h2rcd13ifvqdh0","pricing_plan_id":"cebpf4jnsgd1na2vs0mg"},{"bike_id":"9f1c3e5c-869d-4869-b7c6-0c926f2da6bf","system_id":"levelo_inurba_marseille","lat":43.28317,"lon":5.398,"is_reserved":false,"is_disabled":false,"rental_uris":{"android":"levelo://app?vid=9f1c3e5c-869d-4869-b7c6-0c926f2da6bf","ios":"levelo://app?vid=9f1c3e5c-869d-4869-b7c6-0c926f2da6bf"},"vehicle_type_id":"4","last_reported":1742580756,"current_range_meters":10800,"station_id":"","pricing_plan_id":"cebpf4jnsgd1na2vs0mg"},{"bike_id":"86ba3482-a270-4470-a749-a3b0c0e4e405","system_id":"levelo_inurba_marseille","lat":43.30135,"lon":5.39888,"is_reserved":false,"is_disabled":false,"rental_uris":{"android":"levelo://app?vid=86ba3482-a270-4470-a749-a3b0c0e4e405","ios":"levelo://app?vid=86ba3482-a270-4470-a749-a3b0c0e4e405"},"vehicle_type_id":"4","last_reported":1742580756,"current_range_meters":10800,"station_id":"ce4bh0h2rcd13ifvqd40","pricing_plan_id":"cebpf4jnsgd1na2vs0mg"},{"bike_id":"798b0616-faff-4d86-95fb-bae55574f3d5","system_id":"levelo_inurba_marseille","lat":43.30124,"lon":5.39862,"is_reserved":false,"is_disabled":false,"rental_uris":{"android":"levelo://app?vid=798b0616-faff-4d86-95fb-bae55574f3d5","ios":"levelo://app?vid=798b0616-faff-4d86-95fb-bae55574f3d5"},"vehicle_type_id":"4","last_reported":1742580756,"current_range_meters":10800,"station_id":"ce4bh0h2rcd13ifvqd40","pricing_plan_id":"cebpf4jnsgd1na2vs0mg"},{"bike_id":"fbbb3028-b15b-4750-98dc-ac90972ecc9b","system_id":"levelo_inurba_marseille","lat":43.321,"lon":5.36837,"is_reserved":false,"is_disabled":false,"rental_uris":{"android":"levelo://app?vid=fbbb3028-b15b-4750-98dc-ac90972ecc9b","ios":"levelo://app?vid=fbbb3028-b15b-4750-98dc-ac90972ecc9b"},"vehicle_type_id":"4","last_reported":1742580756,"current_range_meters":10800,"station_id":"","pricing_plan_id":"cebpf4jnsgd1na2vs0mg"},{"bike_id":"276613ec-3310-44d6-ae3f-44328dd4fd15","system_id":"levelo_inurba_marseille","lat":43.25816,"lon":5.39458,"is_reserved":false,"is_disabled":false,"rental_uris":{"android":"levelo://app?vid=276613ec-3310-44d6-ae3f-44328dd4fd15","ios":"levelo://app?vid=276613ec-3310-44d6-ae3f-44328dd4fd15"},"vehicle_type_id":"4","last_reported":1742580756,"current_range_meters":10800,"station_id":"ce4bhip2rcd13ifvqft0","pricing_plan_id":"cebpf4jnsgd1na2vs0mg"},{"bike_id":"2f3f460d-8482-4510-b951-d48bf18817c0","system_id":"levelo_inurba_marseille","lat":43.32538,"lon":5.41422,"is_reserved":false,"is_disabled":false,"rental_uris":{"android":"levelo://app?vid=2f3f460d-8482-4510-b951-d48bf18817c0","ios":"levelo://app?vid=2f3f460d-8482-4510-b951-d48bf18817c0"},"vehicle_type_id":"4","last_reported":1742580756,"current_range_meters":10800,"station_id":"ce4bhq12rcd13ifvqhhg","pricing_plan_id":"cebpf4jnsgd1na2vs0mg"},{"bike_id":"2c69b466-5688-4e6a-aa37-bf74dd1c8e76","system_id":"levelo_inurba_marseille","lat":43.26812,"lon":5.40281,"is_reserved":false,"is_disabled":false,"rental_uris":{"android":"levelo://app?vid=2c69b466-5688-4e6a-aa37-bf74dd1c8e76","ios":"levelo://app?vid=2c69b466-5688-4e6a-aa37-bf74dd1c8e76"},"vehicle_type_id":"4","last_reported":1742580756,"current_range_meters":10800,"station_id":"ce501612rcd8frsf0b60","pricing_plan_id":"cebpf4jnsgd1na2vs0mg"},{"bike_id":"1df2e6f6-63d4-4f34-92e1-d1b0e12ddb5a","system_id":"levelo_inurba_marseille","lat":43.23191,"lon":5.39981,"is_reserved":false,"is_disabled":false,"rental_uris":{"android":"levelo://app?vid=1df2e6f6-63d4-4f34-92e1-d1b0e12ddb5a","ios":"levelo://app?vid=1df2e6f6-63d4-4f34-92e1-d1b0e12ddb5a"},"vehicle_type_id":"4","last_reported":1742580756,"current_range_meters":10800,"station_id":"ce4bhn12rcd13ifvqgqg","pricing_plan_id":"cebpf4jnsgd1na2vs0mg"},{"bike_id":"1fad67af-8cdd-43a0-aba6-5326c8e26603","system_id":"levelo_inurba_marseille","lat":43.28359,"lon":5.38628,"is_reserved":false,"is_disabled":false,"rental_uris":{"android":"levelo://app?vid=1fad67af-8cdd-43a0-aba6-5326c8e26603","ios":"levelo://app?vid=1fad67af-8cdd-43a0-aba6-5326c8e26603"},"vehicle_type_id":"4","last_reported":1742580756,"current_range_meters":10800,"station_id":"ce4bh492rcd13ifvqdvg","pricing_plan_id":"cebpf4jnsgd1na2vs0mg"},{"bike_id":"257266cf-683b-4c8a-a350-70a5c3f41572","system_id":"levelo_inurba_marseille","lat":43.31156,"lon":5.38732,"is_reserved":false,"is_disabled":false,"rental_uris":{"android":"levelo://app?vid=257266cf-683b-4c8a-a350-70a5c3f41572","ios":"levelo://app?vid=257266cf-683b-4c8a-a350-70a5c3f41572"},"vehicle_type_id":"4","last_reported":1742580756,"current_range_meters":11200,"station_id":"ce4bgv12rcd13ifvqcp0","pricing_plan_id":"cebpf4jnsgd1na2vs0mg"},{"bike_id":"33063778-d13b-488d-a098-00d76ac265e1","system_id":"levelo_inurba_marseille","lat":43.3106,"lon":5.38366,"is_reserved":false,"is_disabled":false,"rental_uris":{"android":"levelo://app?vid=33063778-d13b-488d-a098-00d76ac265e1","ios":"levelo://app?vid=33063778-d13b-488d-a098-00d76ac265e1"},"vehicle_type_id":"4","last_reported":1742580756,"current_range_meters":11200,"station_id":"ce4bgv92rcd13ifvqcr0","pricing_plan_id":"cebpf4jnsgd1na2vs0mg"},{"bike_id":"1f2450bd-5d37-4d98-a50b-ea6795b7b300","system_id":"levelo_inurba_marseille","lat":43.30898,"lon":5.37186,"is_reserved":false,"is_disabled":false,"rental_uris":{"android":"levelo://app?vid=1f2450bd-5d37-4d98-a50b-ea6795b7b300","ios":"levelo://app?vid=1f2450bd-5d37-4d98-a50b-ea6795b7b300"},"vehicle_type_id":"4","last_reported":1742580756,"current_range_meters":11200,"station_id":"ce4bguh2rcd13ifvqckg","pricing_plan_id":"cebpf4jnsgd1na2vs0mg"},{"bike_id":"dc537980-6042-493d-8080-0667efb1d6ad","system_id":"levelo_inurba_marseille","lat":43.2455,"lon":5.39544,"is_reserved":false,"is_disabled":false,"rental_uris":{"android":"levelo://app?vid=dc537980-6042-493d-8080-0667efb1d6ad","ios":"levelo://app?vid=dc537980-6042-493d-8080-0667efb1d6ad"},"vehicle_type_id":"4","last_reported":1742580756,"current_range_meters":11200,"station_id":"ce4bhlp2rcd13ifvqgjg","pricing_plan_id":"cebpf4jnsgd1na2vs0mg"},{"bike_id":"94379bcf-993e-41f0-a5cc-2825411d0d5b","system_id":"levelo_inurba_marseille","lat":43.25821,"lon":5.39439,"is_reserved":false,"is_disabled":false,"rental_uris":{"android":"levelo://app?vid=94379bcf-993e-41f0-a5cc-2825411d0d5b","ios":"levelo://app?vid=94379bcf-993e-41f0-a5cc-2825411d0d5b"},"vehicle_type_id":"4","last_reported":1742580756,"current_range_meters":10800,"station_id":"ce4bhip2rcd13ifvqft0","pricing_plan_id":"cebpf4jnsgd1na2vs0mg"},{"bike_id":"aad8559b-e137-4459-b1c9-e668b0a1b60c","system_id":"levelo_inurba_marseille","lat":43.30145,"lon":5.39846,"is_reserved":false,"is_disabled":false,"rental_uris":{"android":"levelo://app?vid=aad8559b-e137-4459-b1c9-e668b0a1b60c","ios":"levelo://app?vid=aad8559b-e137-4459-b1c9-e668b0a1b60c"},"vehicle_type_id":"4","last_reported":1742580756,"current_range_meters":11200,"station_id":"ce4bh0h2rcd13ifvqd40","pricing_plan_id":"cebpf4jnsgd1na2vs0mg"},{"bike_id":"90fa66cc-402f-4164-a045-b1dda5636717","system_id":"levelo_inurba_marseille","lat":43.29421,"lon":5.38632,"is_reserved":false,"is_disabled":false,"rental_uris":{"android":"levelo://app?vid=90fa66cc-402f-4164-a045-b1dda5636717","ios":"levelo://app?vid=90fa66cc-402f-4164-a045-b1dda5636717"},"vehicle_type_id":"4","last_reported":1742580756,"current_range_meters":11200,"station_id":"ce4bh2h2rcd13ifvqdh0","pricing_plan_id":"cebpf4jnsgd1na2vs0mg"},{"bike_id":"48f2a215-7a63-4ee4-b8ca-a2ac971f9a74","system_id":"levelo_inurba_marseille","lat":43.30327,"lon":5.41922,"is_reserved":false,"is_disabled":false,"rental_uris":{"android":"levelo://app?vid=48f2a215-7a63-4ee4-b8ca-a2ac971f9a74","ios":"levelo://app?vid=48f2a215-7a63-4ee4-b8ca-a2ac971f9a74"},"vehicle_type_id":"4","last_reported":1742580756,"current_range_meters":11200,"station_id":"","pricing_plan_id":"cebpf4jnsgd1na2vs0mg"},{"bike_id":"ca61cb84-b066-4a04-aaa5-f4256f12cd87","system_id":"levelo_inurba_marseille","lat":43.29423,"lon":5.38638,"is_reserved":false,"is_disabled":false,"rental_uris":{"android":"levelo://app?vid=ca61cb84-b066-4a04-aaa5-f4256f12cd87","ios":"levelo://app?vid=ca61cb84-b066-4a04-aaa5-f4256f12cd87"},"vehicle_type_id":"4","last_reported":1742580756,"current_range_meters":11600,"station_id":"ce4bh2h2rcd13ifvqdh0","pricing_plan_id":"cebpf4jnsgd1na2vs0mg"},{"bike_id":"1e889e0a-8ce8-4077-92b2-88edec3b3125","system_id":"levelo_inurba_marseille","lat":43.29257,"lon":5.40913,"is_reserved":false,"is_disabled":false,"rental_uris":{"android":"levelo://app?vid=1e889e0a-8ce8-4077-92b2-88edec3b3125","ios":"levelo://app?vid=1e889e0a-8ce8-4077-92b2-88edec3b3125"},"vehicle_type_id":"4","last_reported":1742580756,"current_range_meters":11600,"station_id":"ce4bh192rcd13ifvqdc0","pricing_plan_id":"cebpf4jnsgd1na2vs0mg"},{"bike_id":"29c299a3-8deb-46e4-8cd6-c7a928ea34d7","system_id":"levelo_inurba_marseille","lat":43.2656,"lon":5.3728,"is_reserved":false,"is_disabled":false,"rental_uris":{"android":"levelo://app?vid=29c299a3-8deb-46e4-8cd6-c7a928ea34d7","ios":"levelo://app?vid=29c299a3-8deb-46e4-8cd6-c7a928ea34d7"},"vehicle_type_id":"4","last_reported":1742580756,"current_range_meters":11600,"station_id":"ce4bhg12rcd13ifvqf70","pricing_plan_id":"cebpf4jnsgd1na2vs0mg"},{"bike_id":"4ba195f2-4e06-4130-b7bc-1a40b3280063","system_id":"levelo_inurba_marseille","lat":43.27541,"lon":5.38435,"is_reserved":false,"is_disabled":false,"rental_uris":{"android":"levelo://app?vid=4ba195f2-4e06-4130-b7bc-1a40b3280063","ios":"levelo://app?vid=4ba195f2-4e06-4130-b7bc-1a40b3280063"},"vehicle_type_id":"4","last_reported":1742580756,"current_range_meters":11600,"station_id":"ce4bhh92rcd13ifvqfi0","pricing_plan_id":"cebpf4jnsgd1na2vs0mg"},{"bike_id":"f7b19721-c68b-4280-b653-43eff6dbb1fd","system_id":"levelo_inurba_marseille","lat":43.32078,"lon":5.36847,"is_reserved":false,"is_disabled":false,"rental_uris":{"android":"levelo://app?vid=f7b19721-c68b-4280-b653-43eff6dbb1fd","ios":"levelo://app?vid=f7b19721-c68b-4280-b653-43eff6dbb1fd"},"vehicle_type_id":"4","last_reported":1742580756,"current_range_meters":11600,"station_id":"ce4bhrh2rcd13ifvqhug","pricing_plan_id":"cebpf4jnsgd1na2vs0mg"},{"bike_id":"0dfb7246-4940-47d8-abaa-e2bf352d8448","system_id":"levelo_inurba_marseille","lat":43.28682,"lon":5.40002,"is_reserved":false,"is_disabled":false,"rental_uris":{"android":"levelo://app?vid=0dfb7246-4940-47d8-abaa-e2bf352d8448","ios":"levelo://app?vid=0dfb7246-4940-47d8-abaa-e2bf352d8448"},"vehicle_type_id":"4","last_reported":1742580756,"current_range_meters":11600,"station_id":"ce4bho92rcd13ifvqh3g","pricing_plan_id":"cebpf4jnsgd1na2vs0mg"},{"bike_id":"e0613052-ffa1-4a52-8b46-a5f978cfeb92","system_id":"levelo_inurba_marseille","lat":43.28938,"lon":5.36628,"is_reserved":false,"is_disabled":false,"rental_uris":{"android":"levelo://app?vid=e0613052-ffa1-4a52-8b46-a5f978cfeb92","ios":"levelo://app?vid=e0613052-ffa1-4a52-8b46-a5f978cfeb92"},"vehicle_type_id":"4","last_reported":1742580756,"current_range_meters":11600,"station_id":"ce4bhap2rcd13ifvqek0","pricing_plan_id":"cebpf4jnsgd1na2vs0mg"},{"bike_id":"e0999d38-8cd8-4daf-871f-986e6fd07db5","system_id":"levelo_inurba_marseille","lat":43.30804,"lon":5.38141,"is_reserved":false,"is_disabled":false,"rental_uris":{"android":"levelo://app?vid=e0999d38-8cd8-4daf-871f-986e6fd07db5","ios":"levelo://app?vid=e0999d38-8cd8-4daf-871f-986e6fd07db5"},"vehicle_type_id":"4","last_reported":1742580756,"current_range_meters":12000,"station_id":"ce4bgt12rcd13ifvqce0","pricing_plan_id":"cebpf4jnsgd1na2vs0mg"},{"bike_id":"d5008c42-98f6-4ef7-bc26-398f502db47d","system_id":"levelo_inurba_marseille","lat":43.28703,"lon":5.40026,"is_reserved":false,"is_disabled":false,"rental_uris":{"android":"levelo://app?vid=d5008c42-98f6-4ef7-bc26-398f502db47d","ios":"levelo://app?vid=d5008c42-98f6-4ef7-bc26-398f502db47d"},"vehicle_type_id":"4","last_reported":1742580756,"current_range_meters":12000,"station_id":"ce4bho92rcd13ifvqh3g","pricing_plan_id":"cebpf4jnsgd1na2vs0mg"},{"bike_id":"225f7fc2-2214-417a-94d8-573a71efde8e","system_id":"levelo_inurba_marseille","lat":43.29412,"lon":5.38636,"is_reserved":false,"is_disabled":false,"rental_uris":{"android":"levelo://app?vid=225f7fc2-2214-417a-94d8-573a71efde8e","ios":"levelo://app?vid=225f7fc2-2214-417a-94d8-573a71efde8e"},"vehicle_type_id":"4","last_reported":1742580756,"current_range_meters":12000,"station_id":"ce4bh2h2rcd13ifvqdh0","pricing_plan_id":"cebpf4jnsgd1na2vs0mg"},{"bike_id":"ed6f135e-2f9b-4a9b-bba2-537dea50408f","system_id":"levelo_inurba_marseille","lat":43.27975,"lon":5.38745,"is_reserved":false,"is_disabled":false,"rental_uris":{"android":"levelo://app?vid=ed6f135e-2f9b-4a9b-bba2-537dea50408f","ios":"levelo://app?vid=ed6f135e-2f9b-4a9b-bba2-537dea50408f"},"vehicle_type_id":"4","last_reported":1742580756,"current_range_meters":12000,"station_id":"ce4bhg12rcd13ifvqf80","pricing_plan_id":"cebpf4jnsgd1na2vs0mg"},{"bike_id":"aa2e7aca-9ac8-4eda-a34d-cc2ec7f7c83a","system_id":"levelo_inurba_marseille","lat":43.25007,"lon":5.38934,"is_reserved":false,"is_disabled":false,"rental_uris":{"android":"levelo://app?vid=aa2e7aca-9ac8-4eda-a34d-cc2ec7f7c83a","ios":"levelo://app?vid=aa2e7aca-9ac8-4eda-a34d-cc2ec7f7c83a"},"vehicle_type_id":"4","last_reported":1742580756,"current_range_meters":0,"station_id":"ce4bhgp2rcd13ifvqfd0","pricing_plan_id":"cebpf4jnsgd1na2vs0mg"},{"bike_id":"295b2b96-8a22-4b6f-a45b-df5a7ed58969","system_id":"levelo_inurba_marseille","lat":43.33733,"lon":5.39174,"is_reserved":false,"is_disabled":false,"rental_uris":{"android":"levelo://app?vid=295b2b96-8a22-4b6f-a45b-df5a7ed58969","ios":"levelo://app?vid=295b2b96-8a22-4b6f-a45b-df5a7ed58969"},"vehicle_type_id":"4","last_reported":1742580756,"current_range_meters":12400,"station_id":"ce4bhr92rcd13ifvqhsg","pricing_plan_id":"cebpf4jnsgd1na2vs0mg"},{"bike_id":"bb50aec5-585d-4cbf-a207-3caac857593c","system_id":"levelo_inurba_marseille","lat":43.29953,"lon":5.41325,"is_reserved":false,"is_disabled":false,"rental_uris":{"android":"levelo://app?vid=bb50aec5-585d-4cbf-a207-3caac857593c","ios":"levelo://app?vid=bb50aec5-585d-4cbf-a207-3caac857593c"},"vehicle_type_id":"4","last_reported":1742580756,"current_range_meters":12400,"station_id":"ce4bhp12rcd13ifvqh9g","pricing_plan_id":"cebpf4jnsgd1na2vs0mg"},{"bike_id":"e1e493b8-6ddd-477f-a5c7-ce583728c84a","system_id":"levelo_inurba_marseille","lat":43.29018,"lon":5.38144,"is_reserved":false,"is_disabled":false,"rental_uris":{"android":"levelo://app?vid=e1e493b8-6ddd-477f-a5c7-ce583728c84a","ios":"levelo://app?vid=e1e493b8-6ddd-477f-a5c7-ce583728c84a"},"vehicle_type_id":"4","last_reported":1742580756,"current_range_meters":12400,"station_id":"ce4bh4p2rcd13ifvqe1g","pricing_plan_id":"cebpf4jnsgd1na2vs0mg"},{"bike_id":"481b4c71-72b4-4bfd-9c42-f50d0a35d59e","system_id":"levelo_inurba_marseille","lat":43.31261,"lon":5.40187,"is_reserved":false,"is_disabled":false,"rental_uris":{"android":"levelo://app?vid=481b4c71-72b4-4bfd-9c42-f50d0a35d59e","ios":"levelo://app?vid=481b4c71-72b4-4bfd-9c42-f50d0a35d59e"},"vehicle_type_id":"4","last_reported":1742580756,"current_range_meters":12400,"station_id":"ce4bh092rcd13ifvqd30","pricing_plan_id":"cebpf4jnsgd1na2vs0mg"},{"bike_id":"4962fca6-93e1-4017-8c5e-2f1ca78c6070","system_id":"levelo_inurba_marseille","lat":43.29577,"lon":5.37508,"is_reserved":false,"is_disabled":false,"rental_uris":{"android":"levelo://app?vid=4962fca6-93e1-4017-8c5e-2f1ca78c6070","ios":"levelo://app?vid=4962fca6-93e1-4017-8c5e-2f1ca78c6070"},"vehicle_type_id":"4","last_reported":1742580756,"current_range_meters":12400,"station_id":"ce4bgh92rcd13ifvqb50","pricing_plan_id":"cebpf4jnsgd1na2vs0mg"},{"bike_id":"60884e2b-fd3b-44ea-b772-b4f999ab66d7","system_id":"levelo_inurba_marseille","lat":43.30933,"lon":5.40148,"is_reserved":false,"is_disabled":false,"rental_uris":{"android":"levelo://app?vid=60884e2b-fd3b-44ea-b772-b4f999ab66d7","ios":"levelo://app?vid=60884e2b-fd3b-44ea-b772-b4f999ab66d7"},"vehicle_type_id":"4","last_reported":1742580756,"current_range_meters":12400,"station_id":"ce4bgvp2rcd13ifvqct0","pricing_plan_id":"cebpf4jnsgd1na2vs0mg"},{"bike_id":"b5fcb98a-c8d5-4f1a-a9b4-b3362af2a9c7","system_id":"levelo_inurba_marseille","lat":43.23054,"lon":5.35509,"is_reserved":false,"is_disabled":false,"rental_uris":{"android":"levelo://app?vid=b5fcb98a-c8d5-4f1a-a9b4-b3362af2a9c7","ios":"levelo://app?vid=b5fcb98a-c8d5-4f1a-a9b4-b3362af2a9c7"},"vehicle_type_id":"4","last_reported":1742580756,"current_range_meters":12800,"station_id":"cpo3342slgdg3j2ifvpg","pricing_plan_id":"cebpf4jnsgd1na2vs0mg"},{"bike_id":"572a63c3-eba3-45a3-8743-0c1f57776b4f","system_id":"levelo_inurba_marseille","lat":43.30787,"lon":5.3765,"is_reserved":false,"is_disabled":false,"rental_uris":{"android":"levelo://app?vid=572a63c3-eba3-45a3-8743-0c1f57776b4f","ios":"levelo://app?vid=572a63c3-eba3-45a3-8743-0c1f57776b4f"},"vehicle_type_id":"4","last_reported":1742580756,"current_range_meters":12400,"station_id":"ce4bgv92rcd13ifvqcq0","pricing_plan_id":"cebpf4jnsgd1na2vs0mg"},{"bike_id":"bc04610b-5ef7-4928-b067-5e1c7883ab1d","system_id":"levelo_inurba_marseille","lat":43.26204,"lon":5.37932,"is_reserved":false,"is_disabled":false,"rental_uris":{"android":"levelo://app?vid=bc04610b-5ef7-4928-b067-5e1c7883ab1d","ios":"levelo://app?vid=bc04610b-5ef7-4928-b067-5e1c7883ab1d"},"vehicle_type_id":"4","last_reported":1742580756,"current_range_meters":12400,"station_id":"ce4bhjp2rcd13ifvqg90","pricing_plan_id":"cebpf4jnsgd1na2vs0mg"},{"bike_id":"50e66528-54fe-47cf-a84e-20e9bf19686c","system_id":"levelo_inurba_marseille","lat":43.3043,"lon":5.39747,"is_reserved":false,"is_disabled":false,"rental_uris":{"android":"levelo://app?vid=50e66528-54fe-47cf-a84e-20e9bf19686c","ios":"levelo://app?vid=50e66528-54fe-47cf-a84e-20e9bf19686c"},"vehicle_type_id":"4","last_reported":1742580756,"current_range_meters":12400,"station_id":"ce4bh092rcd13ifvqd20","pricing_plan_id":"cebpf4jnsgd1na2vs0mg"},{"bike_id":"3edb904b-ad5d-447e-ba08-4ac1801adea2","system_id":"levelo_inurba_marseille","lat":43.28074,"lon":5.39647,"is_reserved":false,"is_disabled":false,"rental_uris":{"android":"levelo://app?vid=3edb904b-ad5d-447e-ba08-4ac1801adea2","ios":"levelo://app?vid=3edb904b-ad5d-447e-ba08-4ac1801adea2"},"vehicle_type_id":"4","last_reported":1742580756,"current_range_meters":12400,"station_id":"ce4bho12rcd13ifvqh2g","pricing_plan_id":"cebpf4jnsgd1na2vs0mg"},{"bike_id":"b1f6ea93-7044-495f-a7d4-bf4950cd6269","system_id":"levelo_inurba_marseille","lat":43.28852,"lon":5.39319,"is_reserved":false,"is_disabled":false,"rental_uris":{"android":"levelo://app?vid=b1f6ea93-7044-495f-a7d4-bf4950cd6269","ios":"levelo://app?vid=b1f6ea93-7044-495f-a7d4-bf4950cd6269"},"vehicle_type_id":"4","last_reported":1742580756,"current_range_meters":12400,"station_id":"ce4bh2p2rcd13ifvqdi0","pricing_plan_id":"cebpf4jnsgd1na2vs0mg"},{"bike_id":"5b0fce43-3e12-4757-9de7-875968833c20","system_id":"levelo_inurba_marseille","lat":43.28856,"lon":5.35854,"is_reserved":false,"is_disabled":false,"rental_uris":{"android":"levelo://app?vid=5b0fce43-3e12-4757-9de7-875968833c20","ios":"levelo://app?vid=5b0fce43-3e12-4757-9de7-875968833c20"},"vehicle_type_id":"4","last_reported":1742580756,"current_range_meters":12800,"station_id":"ce4bhb12rcd13ifvqem0","pricing_plan_id":"cebpf4jnsgd1na2vs0mg"},{"bike_id":"2520f480-bb4c-4f3f-a3fe-887d76ee4739","system_id":"levelo_inurba_marseille","lat":43.3168,"lon":5.40468,"is_reserved":false,"is_disabled":false,"rental_uris":{"android":"levelo://app?vid=2520f480-bb4c-4f3f-a3fe-887d76ee4739","ios":"levelo://app?vid=2520f480-bb4c-4f3f-a3fe-887d76ee4739"},"vehicle_type_id":"4","last_reported":1742580756,"current_range_meters":12800,"station_id":"ce4bh012rcd13ifvqd00","pricing_plan_id":"cebpf4jnsgd1na2vs0mg"},{"bike_id":"5b338ea1-b469-45b6-b30f-51f51d44678b","system_id":"levelo_inurba_marseille","lat":43.30876,"lon":5.39656,"is_reserved":false,"is_disabled":false,"rental_uris":{"android":"levelo://app?vid=5b338ea1-b469-45b6-b30f-51f51d44678b","ios":"levelo://app?vid=5b338ea1-b469-45b6-b30f-51f51d44678b"},"vehicle_type_id":"4","last_reported":1742580756,"current_range_meters":12800,"station_id":"ce4bh012rcd13ifvqcv0","pricing_plan_id":"cebpf4jnsgd1na2vs0mg"},{"bike_id":"fe239f3d-5c83-42bd-8b99-e0b3f3784fb5","system_id":"levelo_inurba_marseille","lat":43.24614,"lon":5.38397,"is_reserved":false,"is_disabled":false,"rental_uris":{"android":"levelo://app?vid=fe239f3d-5c83-42bd-8b99-e0b3f3784fb5","ios":"levelo://app?vid=fe239f3d-5c83-42bd-8b99-e0b3f3784fb5"},"vehicle_type_id":"4","last_reported":1742580756,"current_range_meters":12800,"station_id":"","pricing_plan_id":"cebpf4jnsgd1na2vs0mg"},{"bike_id":"8ff6a3b5-d1d9-417b-86f0-6d0ace3538d0","system_id":"levelo_inurba_marseille","lat":43.25811,"lon":5.39441,"is_reserved":false,"is_disabled":false,"rental_uris":{"android":"levelo://app?vid=8ff6a3b5-d1d9-417b-86f0-6d0ace3538d0","ios":"levelo://app?vid=8ff6a3b5-d1d9-417b-86f0-6d0ace3538d0"},"vehicle_type_id":"4","last_reported":1742580756,"current_range_meters":13600,"station_id":"ce4bhip2rcd13ifvqft0","pricing_plan_id":"cebpf4jnsgd1na2vs0mg"},{"bike_id":"3ddc33bd-e1d4-464e-94f5-7bf7dc1512b3","system_id":"levelo_inurba_marseille","lat":43.32317,"lon":5.38241,"is_reserved":false,"is_disabled":false,"rental_uris":{"android":"levelo://app?vid=3ddc33bd-e1d4-464e-94f5-7bf7dc1512b3","ios":"levelo://app?vid=3ddc33bd-e1d4-464e-94f5-7bf7dc1512b3"},"vehicle_type_id":"4","last_reported":1742580756,"current_range_meters":13600,"station_id":"ce4bhr12rcd13ifvqhqg","pricing_plan_id":"cebpf4jnsgd1na2vs0mg"},{"bike_id":"62b0a367-eb82-4a27-b698-aa9d9391f8ef","system_id":"levelo_inurba_marseille","lat":43.29796,"lon":5.381,"is_reserved":false,"is_disabled":false,"rental_uris":{"android":"levelo://app?vid=62b0a367-eb82-4a27-b698-aa9d9391f8ef","ios":"levelo://app?vid=62b0a367-eb82-4a27-b698-aa9d9391f8ef"},"vehicle_type_id":"4","last_reported":1742580756,"current_range_meters":13600,"station_id":"ce4bgip2rcd13ifvqbb0","pricing_plan_id":"cebpf4jnsgd1na2vs0mg"},{"bike_id":"385a7c8f-1762-44e7-bc1b-afbb69957e81","system_id":"levelo_inurba_marseille","lat":43.31651,"lon":5.37184,"is_reserved":false,"is_disabled":false,"rental_uris":{"android":"levelo://app?vid=385a7c8f-1762-44e7-bc1b-afbb69957e81","ios":"levelo://app?vid=385a7c8f-1762-44e7-bc1b-afbb69957e81"},"vehicle_type_id":"4","last_reported":1742580756,"current_range_meters":13600,"station_id":"","pricing_plan_id":"cebpf4jnsgd1na2vs0mg"},{"bike_id":"a59d9fa3-dd5d-4d82-bd81-d577cd1919dd","system_id":"levelo_inurba_marseille","lat":43.29417,"lon":5.38636,"is_reserved":false,"is_disabled":false,"rental_uris":{"android":"levelo://app?vid=a59d9fa3-dd5d-4d82-bd81-d577cd1919dd","ios":"levelo://app?vid=a59d9fa3-dd5d-4d82-bd81-d577cd1919dd"},"vehicle_type_id":"4","last_reported":1742580756,"current_range_meters":13600,"station_id":"ce4bh2h2rcd13ifvqdh0","pricing_plan_id":"cebpf4jnsgd1na2vs0mg"},{"bike_id":"38044645-ece5-4bcd-8d4d-db0d7b3b13cd","system_id":"levelo_inurba_marseille","lat":43.24545,"lon":5.39542,"is_reserved":false,"is_disabled":false,"rental_uris":{"android":"levelo://app?vid=38044645-ece5-4bcd-8d4d-db0d7b3b13cd","ios":"levelo://app?vid=38044645-ece5-4bcd-8d4d-db0d7b3b13cd"},"vehicle_type_id":"4","last_reported":1742580756,"current_range_meters":13600,"station_id":"ce4bhlp2rcd13ifvqgjg","pricing_plan_id":"cebpf4jnsgd1na2vs0mg"},{"bike_id":"859bf2fb-4a45-41ec-9492-668fea7223b1","system_id":"levelo_inurba_marseille","lat":43.30425,"lon":5.39749,"is_reserved":false,"is_disabled":false,"rental_uris":{"android":"levelo://app?vid=859bf2fb-4a45-41ec-9492-668fea7223b1","ios":"levelo://app?vid=859bf2fb-4a45-41ec-9492-668fea7223b1"},"vehicle_type_id":"4","last_reported":1742580756,"current_range_meters":14400,"station_id":"ce4bh092rcd13ifvqd20","pricing_plan_id":"cebpf4jnsgd1na2vs0mg"},{"bike_id":"40e361bb-9a2e-49b9-91a4-f3cba50e2a73","system_id":"levelo_inurba_marseille","lat":43.3088,"lon":5.3964,"is_reserved":false,"is_disabled":false,"rental_uris":{"android":"levelo://app?vid=40e361bb-9a2e-49b9-91a4-f3cba50e2a73","ios":"levelo://app?vid=40e361bb-9a2e-49b9-91a4-f3cba50e2a73"},"vehicle_type_id":"4","last_reported":1742580756,"current_range_meters":14000,"station_id":"ce4bh012rcd13ifvqcv0","pricing_plan_id":"cebpf4jnsgd1na2vs0mg"},{"bike_id":"1941e1fe-aa74-4007-afde-fda9d78d046e","system_id":"levelo_inurba_marseille","lat":43.2927,"lon":5.37627,"is_reserved":false,"is_disabled":false,"rental_uris":{"android":"levelo://app?vid=1941e1fe-aa74-4007-afde-fda9d78d046e","ios":"levelo://app?vid=1941e1fe-aa74-4007-afde-fda9d78d046e"},"vehicle_type_id":"4","last_reported":1742580756,"current_range_meters":14400,"station_id":"ce4bgi12rcd13ifvqb80","pricing_plan_id":"cebpf4jnsgd1na2vs0mg"},{"bike_id":"2b75be19-d94e-4b6c-be88-04f2452ee0ca","system_id":"levelo_inurba_marseille","lat":43.29387,"lon":5.38697,"is_reserved":false,"is_disabled":false,"rental_uris":{"android":"levelo://app?vid=2b75be19-d94e-4b6c-be88-04f2452ee0ca","ios":"levelo://app?vid=2b75be19-d94e-4b6c-be88-04f2452ee0ca"},"vehicle_type_id":"4","last_reported":1742580756,"current_range_meters":14400,"station_id":"","pricing_plan_id":"cebpf4jnsgd1na2vs0mg"},{"bike_id":"9683555e-fe04-4de7-b706-7a9b0019a6a7","system_id":"levelo_inurba_marseille","lat":43.33753,"lon":5.37495,"is_reserved":false,"is_disabled":true,"rental_uris":{"android":"levelo://app?vid=9683555e-fe04-4de7-b706-7a9b0019a6a7","ios":"levelo://app?vid=9683555e-fe04-4de7-b706-7a9b0019a6a7"},"vehicle_type_id":"4","last_reported":1742580756,"current_range_meters":14400,"station_id":"ce4bh2h2rcd13ifvqdh0","pricing_plan_id":"cebpf4jnsgd1na2vs0mg"},{"bike_id":"171da512-f78f-40da-a99a-0817a272490c","system_id":"levelo_inurba_marseille","lat":43.28462,"lon":5.35886,"is_reserved":false,"is_disabled":false,"rental_uris":{"android":"levelo://app?vid=171da512-f78f-40da-a99a-0817a272490c","ios":"levelo://app?vid=171da512-f78f-40da-a99a-0817a272490c"},"vehicle_type_id":"4","last_reported":1742580756,"current_range_meters":14400,"station_id":"ce4bhah2rcd13ifvqei0","pricing_plan_id":"cebpf4jnsgd1na2vs0mg"},{"bike_id":"470ec9f2-60ec-45fa-8a31-5ed804395941","system_id":"levelo_inurba_marseille","lat":43.29569,"lon":5.39977,"is_reserved":false,"is_disabled":false,"rental_uris":{"android":"levelo://app?vid=470ec9f2-60ec-45fa-8a31-5ed804395941","ios":"levelo://app?vid=470ec9f2-60ec-45fa-8a31-5ed804395941"},"vehicle_type_id":"4","last_reported":1742580756,"current_range_meters":14400,"station_id":"ce4bh312rcd13ifvqdj0","pricing_plan_id":"cebpf4jnsgd1na2vs0mg"},{"bike_id":"cb4c5895-8803-4730-add7-65e3cafd4219","system_id":"levelo_inurba_marseille","lat":43.30144,"lon":5.3742,"is_reserved":false,"is_disabled":false,"rental_uris":{"android":"levelo://app?vid=cb4c5895-8803-4730-add7-65e3cafd4219","ios":"levelo://app?vid=cb4c5895-8803-4730-add7-65e3cafd4219"},"vehicle_type_id":"4","last_reported":1742580756,"current_range_meters":14800,"station_id":"ce4bgs92rcd13ifvqcc0","pricing_plan_id":"cebpf4jnsgd1na2vs0mg"},{"bike_id":"99d63961-9866-4650-bbc6-2180678acbc0","system_id":"levelo_inurba_marseille","lat":43.29252,"lon":5.40909,"is_reserved":false,"is_disabled":false,"rental_uris":{"android":"levelo://app?vid=99d63961-9866-4650-bbc6-2180678acbc0","ios":"levelo://app?vid=99d63961-9866-4650-bbc6-2180678acbc0"},"vehicle_type_id":"4","last_reported":1742580756,"current_range_meters":14800,"station_id":"ce4bh192rcd13ifvqdc0","pricing_plan_id":"cebpf4jnsgd1na2vs0mg"},{"bike_id":"a678209c-3d7e-4d66-bf7e-871f6c70d657","system_id":"levelo_inurba_marseille","lat":43.2572,"lon":5.41113,"is_reserved":false,"is_disabled":false,"rental_uris":{"android":"levelo://app?vid=a678209c-3d7e-4d66-bf7e-871f6c70d657","ios":"levelo://app?vid=a678209c-3d7e-4d66-bf7e-871f6c70d657"},"vehicle_type_id":"4","last_reported":1742580756,"current_range_meters":14800,"station_id":"ce4bhkp2rcd13ifvqgd0","pricing_plan_id":"cebpf4jnsgd1na2vs0mg"},{"bike_id":"f7d99d5b-5d03-43fe-a8b3-3f8f3b5b929d","system_id":"levelo_inurba_marseille","lat":43.29939,"lon":5.39769,"is_reserved":false,"is_disabled":false,"rental_uris":{"android":"levelo://app?vid=f7d99d5b-5d03-43fe-a8b3-3f8f3b5b929d","ios":"levelo://app?vid=f7d99d5b-5d03-43fe-a8b3-3f8f3b5b929d"},"vehicle_type_id":"4","last_reported":1742580756,"current_range_meters":14800,"station_id":"ce4bh0h2rcd13ifvqd50","pricing_plan_id":"cebpf4jnsgd1na2vs0mg"},{"bike_id":"9e50dcc8-6012-4d8a-9bcf-96fe9584053b","system_id":"levelo_inurba_marseille","lat":43.28364,"lon":5.38638,"is_reserved":false,"is_disabled":false,"rental_uris":{"android":"levelo://app?vid=9e50dcc8-6012-4d8a-9bcf-96fe9584053b","ios":"levelo://app?vid=9e50dcc8-6012-4d8a-9bcf-96fe9584053b"},"vehicle_type_id":"4","last_reported":1742580756,"current_range_meters":14800,"station_id":"ce4bh492rcd13ifvqdvg","pricing_plan_id":"cebpf4jnsgd1na2vs0mg"},{"bike_id":"0b49bdf5-e1e6-4881-ad0b-23dfc5b30bed","system_id":"levelo_inurba_marseille","lat":43.30788,"lon":5.37668,"is_reserved":false,"is_disabled":false,"rental_uris":{"android":"levelo://app?vid=0b49bdf5-e1e6-4881-ad0b-23dfc5b30bed","ios":"levelo://app?vid=0b49bdf5-e1e6-4881-ad0b-23dfc5b30bed"},"vehicle_type_id":"4","last_reported":1742580756,"current_range_meters":14800,"station_id":"ce4bgv92rcd13ifvqcq0","pricing_plan_id":"cebpf4jnsgd1na2vs0mg"},{"bike_id":"18e4405d-2604-43bc-90ca-13f900d8c858","system_id":"levelo_inurba_marseille","lat":43.29428,"lon":5.38639,"is_reserved":false,"is_disabled":false,"rental_uris":{"android":"levelo://app?vid=18e4405d-2604-43bc-90ca-13f900d8c858","ios":"levelo://app?vid=18e4405d-2604-43bc-90ca-13f900d8c858"},"vehicle_type_id":"4","last_reported":1742580756,"current_range_meters":14800,"station_id":"ce4bh2h2rcd13ifvqdh0","pricing_plan_id":"cebpf4jnsgd1na2vs0mg"},{"bike_id":"e65fdea6-45d3-423a-85b4-6347f360306a","system_id":"levelo_inurba_marseille","lat":43.33032,"lon":5.39038,"is_reserved":false,"is_disabled":false,"rental_uris":{"android":"levelo://app?vid=e65fdea6-45d3-423a-85b4-6347f360306a","ios":"levelo://app?vid=e65fdea6-45d3-423a-85b4-6347f360306a"},"vehicle_type_id":"4","last_reported":1742580756,"current_range_meters":15200,"station_id":"ce4bhr92rcd13ifvqhrg","pricing_plan_id":"cebpf4jnsgd1na2vs0mg"},{"bike_id":"6634fd3b-c0df-42df-b7d0-5f662b55b41c","system_id":"levelo_inurba_marseille","lat":43.28699,"lon":5.39991,"is_reserved":false,"is_disabled":false,"rental_uris":{"android":"levelo://app?vid=6634fd3b-c0df-42df-b7d0-5f662b55b41c","ios":"levelo://app?vid=6634fd3b-c0df-42df-b7d0-5f662b55b41c"},"vehicle_type_id":"4","last_reported":1742580756,"current_range_meters":15200,"station_id":"ce4bho92rcd13ifvqh3g","pricing_plan_id":"cebpf4jnsgd1na2vs0mg"},{"bike_id":"605cf234-f225-408c-83a8-89a9c941a273","system_id":"levelo_inurba_marseille","lat":43.30127,"lon":5.39857,"is_reserved":false,"is_disabled":false,"rental_uris":{"android":"levelo://app?vid=605cf234-f225-408c-83a8-89a9c941a273","ios":"levelo://app?vid=605cf234-f225-408c-83a8-89a9c941a273"},"vehicle_type_id":"4","last_reported":1742580756,"current_range_meters":15200,"station_id":"ce4bh0h2rcd13ifvqd40","pricing_plan_id":"cebpf4jnsgd1na2vs0mg"},{"bike_id":"47476f7a-6089-40f4-82cd-55d2acb8987b","system_id":"levelo_inurba_marseille","lat":43.23959,"lon":5.36634,"is_reserved":false,"is_disabled":false,"rental_uris":{"android":"levelo://app?vid=47476f7a-6089-40f4-82cd-55d2acb8987b","ios":"levelo://app?vid=47476f7a-6089-40f4-82cd-55d2acb8987b"},"vehicle_type_id":"4","last_reported":1742580756,"current_range_meters":15200,"station_id":"ce4bhi12rcd13ifvqfp0","pricing_plan_id":"cebpf4jnsgd1na2vs0mg"},{"bike_id":"a7eac3ec-9ef5-414e-898f-e39b20b4d5cc","system_id":"levelo_inurba_marseille","lat":43.25572,"lon":5.38211,"is_reserved":false,"is_disabled":false,"rental_uris":{"android":"levelo://app?vid=a7eac3ec-9ef5-414e-898f-e39b20b4d5cc","ios":"levelo://app?vid=a7eac3ec-9ef5-414e-898f-e39b20b4d5cc"},"vehicle_type_id":"4","last_reported":1742580756,"current_range_meters":16000,"station_id":"ce4bhih2rcd13ifvqfs0","pricing_plan_id":"cebpf4jnsgd1na2vs0mg"},{"bike_id":"561fad8c-6a3f-446e-9da5-f1e2acda183b","system_id":"levelo_inurba_marseille","lat":43.231506,"lon":5.43725,"is_reserved":false,"is_disabled":false,"rental_uris":{"android":"levelo://app?vid=561fad8c-6a3f-446e-9da5-f1e2acda183b","ios":"levelo://app?vid=561fad8c-6a3f-446e-9da5-f1e2acda183b"},"vehicle_type_id":"4","last_reported":1742580756,"current_range_meters":15200,"station_id":"ce4bhmp2rcd13ifvqgog","pricing_plan_id":"cebpf4jnsgd1na2vs0mg"},{"bike_id":"6e0b2987-7114-46b3-ba18-75a8af637801","system_id":"levelo_inurba_marseille","lat":43.30381,"lon":5.42492,"is_reserved":false,"is_disabled":false,"rental_uris":{"android":"levelo://app?vid=6e0b2987-7114-46b3-ba18-75a8af637801","ios":"levelo://app?vid=6e0b2987-7114-46b3-ba18-75a8af637801"},"vehicle_type_id":"4","last_reported":1742580756,"current_range_meters":16000,"station_id":"ce4bhoh2rcd13ifvqh6g","pricing_plan_id":"cebpf4jnsgd1na2vs0mg"},{"bike_id":"514035ca-4058-4010-81fa-5f74f554ce83","system_id":"levelo_inurba_marseille","lat":43.29983,"lon":5.38525,"is_reserved":false,"is_disabled":false,"rental_uris":{"android":"levelo://app?vid=514035ca-4058-4010-81fa-5f74f554ce83","ios":"levelo://app?vid=514035ca-4058-4010-81fa-5f74f554ce83"},"vehicle_type_id":"4","last_reported":1742580756,"current_range_meters":16000,"station_id":"ce4bgj92rcd13ifvqbd0","pricing_plan_id":"cebpf4jnsgd1na2vs0mg"},{"bike_id":"72503a27-a949-4a46-b139-c44d4f416a58","system_id":"levelo_inurba_marseille","lat":43.2319,"lon":5.35559,"is_reserved":false,"is_disabled":false,"rental_uris":{"android":"levelo://app?vid=72503a27-a949-4a46-b139-c44d4f416a58","ios":"levelo://app?vid=72503a27-a949-4a46-b139-c44d4f416a58"},"vehicle_type_id":"4","last_reported":1742580756,"current_range_meters":16000,"station_id":"ce4bhu92rcd13ifvqi70","pricing_plan_id":"cebpf4jnsgd1na2vs0mg"},{"bike_id":"049af6ba-b215-43da-aea8-951e47555d26","system_id":"levelo_inurba_marseille","lat":43.301,"lon":5.39073,"is_reserved":false,"is_disabled":false,"rental_uris":{"android":"levelo://app?vid=049af6ba-b215-43da-aea8-951e47555d26","ios":"levelo://app?vid=049af6ba-b215-43da-aea8-951e47555d26"},"vehicle_type_id":"4","last_reported":1742580756,"current_range_meters":16000,"station_id":"ce4bh192rcd13ifvqdb0","pricing_plan_id":"cebpf4jnsgd1na2vs0mg"},{"bike_id":"665b11ba-2a26-44f2-9607-7d184251d81e","system_id":"levelo_inurba_marseille","lat":43.27937,"lon":5.41041,"is_reserved":false,"is_disabled":false,"rental_uris":{"android":"levelo://app?vid=665b11ba-2a26-44f2-9607-7d184251d81e","ios":"levelo://app?vid=665b11ba-2a26-44f2-9607-7d184251d81e"},"vehicle_type_id":"4","last_reported":1742580756,"current_range_meters":16000,"station_id":"ce4bhnp2rcd13ifvqh0g","pricing_plan_id":"cebpf4jnsgd1na2vs0mg"},{"bike_id":"302bc0ae-8754-4be9-a133-02b14fa4c2a9","system_id":"levelo_inurba_marseille","lat":43.31119,"lon":5.37756,"is_reserved":false,"is_disabled":false,"rental_uris":{"android":"levelo://app?vid=302bc0ae-8754-4be9-a133-02b14fa4c2a9","ios":"levelo://app?vid=302bc0ae-8754-4be9-a133-02b14fa4c2a9"},"vehicle_type_id":"4","last_reported":1742580756,"current_range_meters":16000,"station_id":"ce4bgt92rcd13ifvqcg0","pricing_plan_id":"cebpf4jnsgd1na2vs0mg"},{"bike_id":"b8947409-508b-461c-b433-a1d5d02b6078","system_id":"levelo_inurba_marseille","lat":43.26557,"lon":5.37301,"is_reserved":false,"is_disabled":false,"rental_uris":{"android":"levelo://app?vid=b8947409-508b-461c-b433-a1d5d02b6078","ios":"levelo://app?vid=b8947409-508b-461c-b433-a1d5d02b6078"},"vehicle_type_id":"4","last_reported":1742580756,"current_range_meters":16000,"station_id":"ce4bhg12rcd13ifvqf70","pricing_plan_id":"cebpf4jnsgd1na2vs0mg"},{"bike_id":"04a4ef5e-741c-4109-b3e0-14a08cc7db10","system_id":"levelo_inurba_marseille","lat":43.33019,"lon":5.39056,"is_reserved":false,"is_disabled":false,"rental_uris":{"android":"levelo://app?vid=04a4ef5e-741c-4109-b3e0-14a08cc7db10","ios":"levelo://app?vid=04a4ef5e-741c-4109-b3e0-14a08cc7db10"},"vehicle_type_id":"4","last_reported":1742580756,"current_range_meters":16000,"station_id":"ce4bhr92rcd13ifvqhrg","pricing_plan_id":"cebpf4jnsgd1na2vs0mg"},{"bike_id":"779365de-9e7e-435f-9959-7e486fb3ab2d","system_id":"levelo_inurba_marseille","lat":43.29254,"lon":5.37624,"is_reserved":false,"is_disabled":false,"rental_uris":{"android":"levelo://app?vid=779365de-9e7e-435f-9959-7e486fb3ab2d","ios":"levelo://app?vid=779365de-9e7e-435f-9959-7e486fb3ab2d"},"vehicle_type_id":"4","last_reported":1742580756,"current_range_meters":16000,"station_id":"ce4bgi12rcd13ifvqb80","pricing_plan_id":"cebpf4jnsgd1na2vs0mg"},{"bike_id":"9e5fb07a-40f5-48a7-8576-b3add1049650","system_id":"levelo_inurba_marseille","lat":43.27618,"lon":5.36121,"is_reserved":false,"is_disabled":false,"rental_uris":{"android":"levelo://app?vid=9e5fb07a-40f5-48a7-8576-b3add1049650","ios":"levelo://app?vid=9e5fb07a-40f5-48a7-8576-b3add1049650"},"vehicle_type_id":"4","last_reported":1742580756,"current_range_meters":16000,"station_id":"ce4bgj92rcd13ifvqbe0","pricing_plan_id":"cebpf4jnsgd1na2vs0mg"},{"bike_id":"56155355-c257-4f22-952d-dfef8a2e0d76","system_id":"levelo_inurba_marseille","lat":43.29873,"lon":5.39723,"is_reserved":false,"is_disabled":false,"rental_uris":{"android":"levelo://app?vid=56155355-c257-4f22-952d-dfef8a2e0d76","ios":"levelo://app?vid=56155355-c257-4f22-952d-dfef8a2e0d76"},"vehicle_type_id":"4","last_reported":1742580756,"current_range_meters":16000,"station_id":"ce4bh0h2rcd13ifvqd50","pricing_plan_id":"cebpf4jnsgd1na2vs0mg"},{"bike_id":"f1c1254d-d9d6-4485-8910-4ae2a7c84bc0","system_id":"levelo_inurba_marseille","lat":43.23202,"lon":5.39989,"is_reserved":false,"is_disabled":false,"rental_uris":{"android":"levelo://app?vid=f1c1254d-d9d6-4485-8910-4ae2a7c84bc0","ios":"levelo://app?vid=f1c1254d-d9d6-4485-8910-4ae2a7c84bc0"},"vehicle_type_id":"4","last_reported":1742580756,"current_range_meters":16000,"station_id":"ce4bhn12rcd13ifvqgqg","pricing_plan_id":"cebpf4jnsgd1na2vs0mg"},{"bike_id":"a490f70e-3087-422b-974e-2c896f9f495c","system_id":"levelo_inurba_marseille","lat":43.33728,"lon":5.39182,"is_reserved":false,"is_disabled":false,"rental_uris":{"android":"levelo://app?vid=a490f70e-3087-422b-974e-2c896f9f495c","ios":"levelo://app?vid=a490f70e-3087-422b-974e-2c896f9f495c"},"vehicle_type_id":"4","last_reported":1742580756,"current_range_meters":16000,"station_id":"ce4bhr92rcd13ifvqhsg","pricing_plan_id":"cebpf4jnsgd1na2vs0mg"},{"bike_id":"fb45ad3c-928a-4b4f-8727-c717b800f1e2","system_id":"levelo_inurba_marseille","lat":43.29607,"lon":5.38103,"is_reserved":false,"is_disabled":false,"rental_uris":{"android":"levelo://app?vid=fb45ad3c-928a-4b4f-8727-c717b800f1e2","ios":"levelo://app?vid=fb45ad3c-928a-4b4f-8727-c717b800f1e2"},"vehicle_type_id":"4","last_reported":1742580756,"current_range_meters":16000,"station_id":"ce4bgl12rcd13ifvqbo0","pricing_plan_id":"cebpf4jnsgd1na2vs0mg"},{"bike_id":"fbb498fe-0420-4fc0-a001-6f20ac1d59dd","system_id":"levelo_inurba_marseille","lat":43.33616,"lon":5.41015,"is_reserved":false,"is_disabled":true,"rental_uris":{"android":"levelo://app?vid=fbb498fe-0420-4fc0-a001-6f20ac1d59dd","ios":"levelo://app?vid=fbb498fe-0420-4fc0-a001-6f20ac1d59dd"},"vehicle_type_id":"4","last_reported":1742580756,"current_range_meters":16400,"station_id":"ce4bhqh2rcd13ifvqhmg","pricing_plan_id":"cebpf4jnsgd1na2vs0mg"},{"bike_id":"fabef5ba-78bd-444f-8775-d6c21179e6f7","system_id":"levelo_inurba_marseille","lat":43.29408,"lon":5.38612,"is_reserved":false,"is_disabled":true,"rental_uris":{"android":"levelo://app?vid=fabef5ba-78bd-444f-8775-d6c21179e6f7","ios":"levelo://app?vid=fabef5ba-78bd-444f-8775-d6c21179e6f7"},"vehicle_type_id":"4","last_reported":1742580756,"current_range_meters":16400,"station_id":"ce4bh2h2rcd13ifvqdh0","pricing_plan_id":"cebpf4jnsgd1na2vs0mg"},{"bike_id":"f39eebaf-f4e1-4cce-8237-2c3fcbf1a21f","system_id":"levelo_inurba_marseille","lat":43.29046,"lon":5.35916,"is_reserved":false,"is_disabled":false,"rental_uris":{"android":"levelo://app?vid=f39eebaf-f4e1-4cce-8237-2c3fcbf1a21f","ios":"levelo://app?vid=f39eebaf-f4e1-4cce-8237-2c3fcbf1a21f"},"vehicle_type_id":"4","last_reported":1742580756,"current_range_meters":16400,"station_id":"ce4bha92rcd13ifvqeg0","pricing_plan_id":"cebpf4jnsgd1na2vs0mg"},{"bike_id":"1d051785-f31b-4db2-bd9a-b1f97811e834","system_id":"levelo_inurba_marseille","lat":43.26567,"lon":5.37287,"is_reserved":false,"is_disabled":false,"rental_uris":{"android":"levelo://app?vid=1d051785-f31b-4db2-bd9a-b1f97811e834","ios":"levelo://app?vid=1d051785-f31b-4db2-bd9a-b1f97811e834"},"vehicle_type_id":"4","last_reported":1742580756,"current_range_meters":16400,"station_id":"ce4bhg12rcd13ifvqf70","pricing_plan_id":"cebpf4jnsgd1na2vs0mg"},{"bike_id":"5afd4d56-5d3c-418a-838a-8ffdf44a1c36","system_id":"levelo_inurba_marseille","lat":43.32648,"lon":5.40995,"is_reserved":false,"is_disabled":false,"rental_uris":{"android":"levelo://app?vid=5afd4d56-5d3c-418a-838a-8ffdf44a1c36","ios":"levelo://app?vid=5afd4d56-5d3c-418a-838a-8ffdf44a1c36"},"vehicle_type_id":"4","last_reported":1742580756,"current_range_meters":16400,"station_id":"ce4bhpp2rcd13ifvqhgg","pricing_plan_id":"cebpf4jnsgd1na2vs0mg"},{"bike_id":"7d9bf2d2-5153-499c-a1fb-dcb365a9e566","system_id":"levelo_inurba_marseille","lat":43.24188,"lon":5.39725,"is_reserved":false,"is_disabled":false,"rental_uris":{"android":"levelo://app?vid=7d9bf2d2-5153-499c-a1fb-dcb365a9e566","ios":"levelo://app?vid=7d9bf2d2-5153-499c-a1fb-dcb365a9e566"},"vehicle_type_id":"4","last_reported":1742580756,"current_range_meters":16400,"station_id":"ce4bhn12rcd13ifvqgpg","pricing_plan_id":"cebpf4jnsgd1na2vs0mg"},{"bike_id":"76fb2b02-411c-4fc2-83ba-67b25181248f","system_id":"levelo_inurba_marseille","lat":43.28722,"lon":5.36096,"is_reserved":false,"is_disabled":false,"rental_uris":{"android":"levelo://app?vid=76fb2b02-411c-4fc2-83ba-67b25181248f","ios":"levelo://app?vid=76fb2b02-411c-4fc2-83ba-67b25181248f"},"vehicle_type_id":"4","last_reported":1742580756,"current_range_meters":16400,"station_id":"cki0cbj6b192h4jlfktg","pricing_plan_id":"cebpf4jnsgd1na2vs0mg"},{"bike_id":"3f3f99da-6673-441e-a5b3-6857219a400e","system_id":"levelo_inurba_marseille","lat":43.2501,"lon":5.38924,"is_reserved":false,"is_disabled":false,"rental_uris":{"android":"levelo://app?vid=3f3f99da-6673-441e-a5b3-6857219a400e","ios":"levelo://app?vid=3f3f99da-6673-441e-a5b3-6857219a400e"},"vehicle_type_id":"4","last_reported":1742580756,"current_range_meters":16400,"station_id":"ce4bhgp2rcd13ifvqfd0","pricing_plan_id":"cebpf4jnsgd1na2vs0mg"},{"bike_id":"eed41007-570d-4d7f-871a-7ed78fc319fd","system_id":"levelo_inurba_marseille","lat":43.29927,"lon":5.36557,"is_reserved":false,"is_disabled":false,"rental_uris":{"android":"levelo://app?vid=eed41007-570d-4d7f-871a-7ed78fc319fd","ios":"levelo://app?vid=eed41007-570d-4d7f-871a-7ed78fc319fd"},"vehicle_type_id":"4","last_reported":1742580756,"current_range_meters":16400,"station_id":"ce4bgm92rcd13ifvqbr0","pricing_plan_id":"cebpf4jnsgd1na2vs0mg"},{"bike_id":"d3ebde68-98d7-4a24-a835-e6ce3b34fc4b","system_id":"levelo_inurba_marseille","lat":43.26552,"lon":5.37306,"is_reserved":false,"is_disabled":false,"rental_uris":{"android":"levelo://app?vid=d3ebde68-98d7-4a24-a835-e6ce3b34fc4b","ios":"levelo://app?vid=d3ebde68-98d7-4a24-a835-e6ce3b34fc4b"},"vehicle_type_id":"4","last_reported":1742580756,"current_range_meters":16400,"station_id":"ce4bhg12rcd13ifvqf70","pricing_plan_id":"cebpf4jnsgd1na2vs0mg"},{"bike_id":"ff0b86f7-1349-4aed-8f97-17f96801d957","system_id":"levelo_inurba_marseille","lat":43.28431,"lon":5.39189,"is_reserved":false,"is_disabled":false,"rental_uris":{"android":"levelo://app?vid=ff0b86f7-1349-4aed-8f97-17f96801d957","ios":"levelo://app?vid=ff0b86f7-1349-4aed-8f97-17f96801d957"},"vehicle_type_id":"4","last_reported":1742580756,"current_range_meters":16800,"station_id":"ce4bhoh2rcd13ifvqh5g","pricing_plan_id":"cebpf4jnsgd1na2vs0mg"},{"bike_id":"d16d5ae2-a108-44f8-a226-14fecf4f3137","system_id":"levelo_inurba_marseille","lat":43.27993,"lon":5.40021,"is_reserved":false,"is_disabled":false,"rental_uris":{"android":"levelo://app?vid=d16d5ae2-a108-44f8-a226-14fecf4f3137","ios":"levelo://app?vid=d16d5ae2-a108-44f8-a226-14fecf4f3137"},"vehicle_type_id":"4","last_reported":1742580756,"current_range_meters":16800,"station_id":"ce4bho92rcd13ifvqh4g","pricing_plan_id":"cebpf4jnsgd1na2vs0mg"},{"bike_id":"2032e81a-8d24-4036-9cc6-bf67698b8322","system_id":"levelo_inurba_marseille","lat":43.24176,"lon":5.39751,"is_reserved":false,"is_disabled":false,"rental_uris":{"android":"levelo://app?vid=2032e81a-8d24-4036-9cc6-bf67698b8322","ios":"levelo://app?vid=2032e81a-8d24-4036-9cc6-bf67698b8322"},"vehicle_type_id":"4","last_reported":1742580756,"current_range_meters":16800,"station_id":"ce4bhn12rcd13ifvqgpg","pricing_plan_id":"cebpf4jnsgd1na2vs0mg"},{"bike_id":"2036c360-9eb5-4d01-baa8-338055e77b8f","system_id":"levelo_inurba_marseille","lat":43.29517,"lon":5.39396,"is_reserved":false,"is_disabled":false,"rental_uris":{"android":"levelo://app?vid=2036c360-9eb5-4d01-baa8-338055e77b8f","ios":"levelo://app?vid=2036c360-9eb5-4d01-baa8-338055e77b8f"},"vehicle_type_id":"4","last_reported":1742580756,"current_range_meters":16400,"station_id":"ce4bh292rcd13ifvqdf0","pricing_plan_id":"cebpf4jnsgd1na2vs0mg"},{"bike_id":"b6069b84-a07b-445d-a58c-8caad1641412","system_id":"levelo_inurba_marseille","lat":43.29315,"lon":5.37186,"is_reserved":false,"is_disabled":false,"rental_uris":{"android":"levelo://app?vid=b6069b84-a07b-445d-a58c-8caad1641412","ios":"levelo://app?vid=b6069b84-a07b-445d-a58c-8caad1641412"},"vehicle_type_id":"4","last_reported":1742580756,"current_range_meters":16800,"station_id":"ce4bgh92rcd13ifvqb40","pricing_plan_id":"cebpf4jnsgd1na2vs0mg"},{"bike_id":"06e458ca-7eea-4fd5-b230-d025275de5e9","system_id":"levelo_inurba_marseille","lat":43.29789,"lon":5.39349,"is_reserved":false,"is_disabled":false,"rental_uris":{"android":"levelo://app?vid=06e458ca-7eea-4fd5-b230-d025275de5e9","ios":"levelo://app?vid=06e458ca-7eea-4fd5-b230-d025275de5e9"},"vehicle_type_id":"4","last_reported":1742580756,"current_range_meters":16800,"station_id":"chh1huq6cuj3fo74tm60","pricing_plan_id":"cebpf4jnsgd1na2vs0mg"},{"bike_id":"3861bda8-dded-4064-8b14-eff211895b68","system_id":"levelo_inurba_marseille","lat":43.28627,"lon":5.35105,"is_reserved":false,"is_disabled":false,"rental_uris":{"android":"levelo://app?vid=3861bda8-dded-4064-8b14-eff211895b68","ios":"levelo://app?vid=3861bda8-dded-4064-8b14-eff211895b68"},"vehicle_type_id":"4","last_reported":1742580756,"current_range_meters":16800,"station_id":"ce4bhch2rcd13ifvqeug","pricing_plan_id":"cebpf4jnsgd1na2vs0mg"},{"bike_id":"f53c1d7f-7833-4512-8c8a-ce8bff328409","system_id":"levelo_inurba_marseille","lat":43.30928,"lon":5.4015,"is_reserved":false,"is_disabled":false,"rental_uris":{"android":"levelo://app?vid=f53c1d7f-7833-4512-8c8a-ce8bff328409","ios":"levelo://app?vid=f53c1d7f-7833-4512-8c8a-ce8bff328409"},"vehicle_type_id":"4","last_reported":1742580756,"current_range_meters":16800,"station_id":"ce4bgvp2rcd13ifvqct0","pricing_plan_id":"cebpf4jnsgd1na2vs0mg"},{"bike_id":"bd8863e7-be09-4106-9bc5-d0a8889b4c49","system_id":"levelo_inurba_marseille","lat":43.25719,"lon":5.41115,"is_reserved":false,"is_disabled":false,"rental_uris":{"android":"levelo://app?vid=bd8863e7-be09-4106-9bc5-d0a8889b4c49","ios":"levelo://app?vid=bd8863e7-be09-4106-9bc5-d0a8889b4c49"},"vehicle_type_id":"4","last_reported":1742580756,"current_range_meters":16800,"station_id":"ce4bhkp2rcd13ifvqgd0","pricing_plan_id":"cebpf4jnsgd1na2vs0mg"},{"bike_id":"684ed3c4-225b-4961-a000-ca6df8c328e0","system_id":"levelo_inurba_marseille","lat":43.29972,"lon":5.39767,"is_reserved":false,"is_disabled":false,"rental_uris":{"android":"levelo://app?vid=684ed3c4-225b-4961-a000-ca6df8c328e0","ios":"levelo://app?vid=684ed3c4-225b-4961-a000-ca6df8c328e0"},"vehicle_type_id":"4","last_reported":1742580756,"current_range_meters":17200,"station_id":"","pricing_plan_id":"cebpf4jnsgd1na2vs0mg"},{"bike_id":"5e3e35b3-6759-4954-a22e-0acf9fa523e5","system_id":"levelo_inurba_marseille","lat":43.3136,"lon":5.36727,"is_reserved":false,"is_disabled":false,"rental_uris":{"android":"levelo://app?vid=5e3e35b3-6759-4954-a22e-0acf9fa523e5","ios":"levelo://app?vid=5e3e35b3-6759-4954-a22e-0acf9fa523e5"},"vehicle_type_id":"4","last_reported":1742580756,"current_range_meters":17200,"station_id":"ce4bgr92rcd13ifvqc6g","pricing_plan_id":"cebpf4jnsgd1na2vs0mg"},{"bike_id":"87ce7374-c807-42de-9b9a-7b83a78b96ad","system_id":"levelo_inurba_marseille","lat":43.30434,"lon":5.39749,"is_reserved":false,"is_disabled":false,"rental_uris":{"android":"levelo://app?vid=87ce7374-c807-42de-9b9a-7b83a78b96ad","ios":"levelo://app?vid=87ce7374-c807-42de-9b9a-7b83a78b96ad"},"vehicle_type_id":"4","last_reported":1742580756,"current_range_meters":17200,"station_id":"ce4bh092rcd13ifvqd20","pricing_plan_id":"cebpf4jnsgd1na2vs0mg"},{"bike_id":"1fe0d1fd-21df-47b7-8841-ecff0edd7a5c","system_id":"levelo_inurba_marseille","lat":43.310979,"lon":5.400869,"is_reserved":false,"is_disabled":false,"rental_uris":{"android":"levelo://app?vid=1fe0d1fd-21df-47b7-8841-ecff0edd7a5c","ios":"levelo://app?vid=1fe0d1fd-21df-47b7-8841-ecff0edd7a5c"},"vehicle_type_id":"4","last_reported":1742580756,"current_range_meters":17200,"station_id":"ce4bh092rcd13ifvqd30","pricing_plan_id":"cebpf4jnsgd1na2vs0mg"},{"bike_id":"a1abd43d-b831-4aef-806b-2c87564102d5","system_id":"levelo_inurba_marseille","lat":43.30881,"lon":5.3723,"is_reserved":false,"is_disabled":false,"rental_uris":{"android":"levelo://app?vid=a1abd43d-b831-4aef-806b-2c87564102d5","ios":"levelo://app?vid=a1abd43d-b831-4aef-806b-2c87564102d5"},"vehicle_type_id":"4","last_reported":1742580756,"current_range_meters":17200,"station_id":"ce4bguh2rcd13ifvqckg","pricing_plan_id":"cebpf4jnsgd1na2vs0mg"},{"bike_id":"20319b38-0bb2-4cba-8151-8eb47e1235c3","system_id":"levelo_inurba_marseille","lat":43.26945,"lon":5.39225,"is_reserved":false,"is_disabled":false,"rental_uris":{"android":"levelo://app?vid=20319b38-0bb2-4cba-8151-8eb47e1235c3","ios":"levelo://app?vid=20319b38-0bb2-4cba-8151-8eb47e1235c3"},"vehicle_type_id":"4","last_reported":1742580756,"current_range_meters":17200,"station_id":"","pricing_plan_id":"cebpf4jnsgd1na2vs0mg"},{"bike_id":"11bfbbff-726c-4e95-a1f0-089f685bac68","system_id":"levelo_inurba_marseille","lat":43.24428,"lon":5.37031,"is_reserved":false,"is_disabled":false,"rental_uris":{"android":"levelo://app?vid=11bfbbff-726c-4e95-a1f0-089f685bac68","ios":"levelo://app?vid=11bfbbff-726c-4e95-a1f0-089f685bac68"},"vehicle_type_id":"4","last_reported":1742580756,"current_range_meters":17200,"station_id":"","pricing_plan_id":"cebpf4jnsgd1na2vs0mg"},{"bike_id":"85305eab-5f20-4361-a6db-2571e01f7d50","system_id":"levelo_inurba_marseille","lat":43.295318,"lon":5.390685,"is_reserved":false,"is_disabled":false,"rental_uris":{"android":"levelo://app?vid=85305eab-5f20-4361-a6db-2571e01f7d50","ios":"levelo://app?vid=85305eab-5f20-4361-a6db-2571e01f7d50"},"vehicle_type_id":"4","last_reported":1742580756,"current_range_meters":17200,"station_id":"ce4bh3h2rcd13ifvqdo0","pricing_plan_id":"cebpf4jnsgd1na2vs0mg"},{"bike_id":"302da745-dc3e-489e-b2c8-445dcb3c38b1","system_id":"levelo_inurba_marseille","lat":43.23055,"lon":5.35521,"is_reserved":false,"is_disabled":false,"rental_uris":{"android":"levelo://app?vid=302da745-dc3e-489e-b2c8-445dcb3c38b1","ios":"levelo://app?vid=302da745-dc3e-489e-b2c8-445dcb3c38b1"},"vehicle_type_id":"4","last_reported":1742580756,"current_range_meters":17200,"station_id":"cpo3342slgdg3j2ifvpg","pricing_plan_id":"cebpf4jnsgd1na2vs0mg"},{"bike_id":"d742c3ff-c1c9-4e36-b458-939313d82a16","system_id":"levelo_inurba_marseille","lat":43.31167,"lon":5.38718,"is_reserved":false,"is_disabled":false,"rental_uris":{"android":"levelo://app?vid=d742c3ff-c1c9-4e36-b458-939313d82a16","ios":"levelo://app?vid=d742c3ff-c1c9-4e36-b458-939313d82a16"},"vehicle_type_id":"4","last_reported":1742580756,"current_range_meters":17600,"station_id":"ce4bgv12rcd13ifvqcp0","pricing_plan_id":"cebpf4jnsgd1na2vs0mg"},{"bike_id":"041746e8-f612-4f02-ba2c-e784ef31f6c4","system_id":"levelo_inurba_marseille","lat":43.23159,"lon":5.43731,"is_reserved":false,"is_disabled":false,"rental_uris":{"android":"levelo://app?vid=041746e8-f612-4f02-ba2c-e784ef31f6c4","ios":"levelo://app?vid=041746e8-f612-4f02-ba2c-e784ef31f6c4"},"vehicle_type_id":"4","last_reported":1742580756,"current_range_meters":17600,"station_id":"ce4bhmp2rcd13ifvqgog","pricing_plan_id":"cebpf4jnsgd1na2vs0mg"},{"bike_id":"8cdf8d29-74a2-4670-84b1-b959ebb7c006","system_id":"levelo_inurba_marseille","lat":43.29418,"lon":5.38625,"is_reserved":false,"is_disabled":false,"rental_uris":{"android":"levelo://app?vid=8cdf8d29-74a2-4670-84b1-b959ebb7c006","ios":"levelo://app?vid=8cdf8d29-74a2-4670-84b1-b959ebb7c006"},"vehicle_type_id":"4","last_reported":1742580756,"current_range_meters":17600,"station_id":"ce4bh2h2rcd13ifvqdh0","pricing_plan_id":"cebpf4jnsgd1na2vs0mg"},{"bike_id":"4fcd5aa8-47a6-47e0-acf8-4669a5d049c7","system_id":"levelo_inurba_marseille","lat":43.32351,"lon":5.38928,"is_reserved":false,"is_disabled":false,"rental_uris":{"android":"levelo://app?vid=4fcd5aa8-47a6-47e0-acf8-4669a5d049c7","ios":"levelo://app?vid=4fcd5aa8-47a6-47e0-acf8-4669a5d049c7"},"vehicle_type_id":"4","last_reported":1742580756,"current_range_meters":17600,"station_id":"ce4bhqp2rcd13ifvqhog","pricing_plan_id":"cebpf4jnsgd1na2vs0mg"},{"bike_id":"e8f2c4d4-447f-4528-a7a8-7fb90a7245ac","system_id":"levelo_inurba_marseille","lat":43.25738,"lon":5.41097,"is_reserved":false,"is_disabled":false,"rental_uris":{"android":"levelo://app?vid=e8f2c4d4-447f-4528-a7a8-7fb90a7245ac","ios":"levelo://app?vid=e8f2c4d4-447f-4528-a7a8-7fb90a7245ac"},"vehicle_type_id":"4","last_reported":1742580756,"current_range_meters":17200,"station_id":"ce4bhkp2rcd13ifvqgd0","pricing_plan_id":"cebpf4jnsgd1na2vs0mg"},{"bike_id":"bbe18a63-3547-45c1-991c-472922ecddce","system_id":"levelo_inurba_marseille","lat":43.29541,"lon":5.38555,"is_reserved":false,"is_disabled":false,"rental_uris":{"android":"levelo://app?vid=bbe18a63-3547-45c1-991c-472922ecddce","ios":"levelo://app?vid=bbe18a63-3547-45c1-991c-472922ecddce"},"vehicle_type_id":"4","last_reported":1742580756,"current_range_meters":17600,"station_id":"ce4bgih2rcd13ifvqba0","pricing_plan_id":"cebpf4jnsgd1na2vs0mg"},{"bike_id":"0107fb56-bdbb-44ce-b451-bb48458bd3dd","system_id":"levelo_inurba_marseille","lat":43.26086,"lon":5.39417,"is_reserved":false,"is_disabled":false,"rental_uris":{"android":"levelo://app?vid=0107fb56-bdbb-44ce-b451-bb48458bd3dd","ios":"levelo://app?vid=0107fb56-bdbb-44ce-b451-bb48458bd3dd"},"vehicle_type_id":"4","last_reported":1742580756,"current_range_meters":17600,"station_id":"ce4bhh92rcd13ifvqfj0","pricing_plan_id":"cebpf4jnsgd1na2vs0mg"},{"bike_id":"d9d90e28-0cde-498e-9e49-e2278f18bc23","system_id":"levelo_inurba_marseille","lat":43.32367,"lon":5.389,"is_reserved":false,"is_disabled":false,"rental_uris":{"android":"levelo://app?vid=d9d90e28-0cde-498e-9e49-e2278f18bc23","ios":"levelo://app?vid=d9d90e28-0cde-498e-9e49-e2278f18bc23"},"vehicle_type_id":"4","last_reported":1742580756,"current_range_meters":17600,"station_id":"ce4bhqp2rcd13ifvqhog","pricing_plan_id":"cebpf4jnsgd1na2vs0mg"},{"bike_id":"b6313fbb-b1a6-4e17-9c9a-42f709067d5e","system_id":"levelo_inurba_marseille","lat":43.31228,"lon":5.36852,"is_reserved":false,"is_disabled":false,"rental_uris":{"android":"levelo://app?vid=b6313fbb-b1a6-4e17-9c9a-42f709067d5e","ios":"levelo://app?vid=b6313fbb-b1a6-4e17-9c9a-42f709067d5e"},"vehicle_type_id":"4","last_reported":1742580756,"current_range_meters":17600,"station_id":"ce4bgl92rcd13ifvqbq0","pricing_plan_id":"cebpf4jnsgd1na2vs0mg"},{"bike_id":"78cd54a8-898e-4fe5-89ee-a1c5bc42bd42","system_id":"levelo_inurba_marseille","lat":43.29517,"lon":5.37507,"is_reserved":false,"is_disabled":false,"rental_uris":{"android":"levelo://app?vid=78cd54a8-898e-4fe5-89ee-a1c5bc42bd42","ios":"levelo://app?vid=78cd54a8-898e-4fe5-89ee-a1c5bc42bd42"},"vehicle_type_id":"4","last_reported":1742580756,"current_range_meters":18000,"station_id":"ce4bgkp2rcd13ifvqbmg","pricing_plan_id":"cebpf4jnsgd1na2vs0mg"},