{"last_updated":1729664032,"ttl":60,"version":"2.2","data":{"bikes":[{"bike_id":"27cc9b75-cb7e-4967-8b8f-0b45c1553f40","system_id":"levelo_inurba_marseille","lat":43.265,"lon":5.3955,"is_reserved":false,"is_disabled":false,"rental_uris":{"android":"levelo://app?vid=27cc9b75-cb7e-4967-8b8f-0b45c1553f40","ios":"levelo://app?vid=27cc9b75-cb7e-4967-8b8f-0b45c1553f40"},"vehicle_type_id":"4","last_reported":1729664032,"current_range_meters":38000,"station_id":"ce4bhi12rcd13ifvqfq0","pricing_plan_id":"cebpf4jnsgd1na2vs0mg"},{"bike_id":"94505a83-b206-4db0-aff0-8f5678e8c521","system_id":"levelo_inurba_marseille","lat":43.24078,"lon":5.37752,"is_reserved":false,"is_disabled":false,"rental_uris":{"android":"levelo://app?vid=94505a83-b206-4db0-aff0-8f5678e8c521","ios":"levelo://app?vid=94505a83-b206-4db0-aff0-8f5678e8c521"},"vehicle_type_id":"4","last_reported":1729664032,"current_range_meters":18800,"station_id":"ce4bhnp2rcd13ifvqgvg","pricing_plan_id":"cebpf4jnsgd1na2vs0mg"},{"bike_id":"ae5e602a-152c-4121-9134-23e885a03a33","system_id":"levelo_inurba_marseille","lat":43.30541,"lon":5.36554,"is_reserved":false,"is_disabled":false,"rental_uris":{"android":"levelo://app?vid=ae5e602a-152c-4121-9134-23e885a03a33","ios":"levelo://app?vid=ae5e602a-152c-4121-9134-23e885a03a33"},"vehicle_type_id":"4","last_reported":1729664032,"current_range_meters":34000,"station_id":"ce4bgs12rcd13ifvqcag","pricing_plan_id":"cebpf4jnsgd1na2vs0mg"},{"bike_id":"5994a573-9be3-44fa-b34b-852648ccf703","system_id":"levelo_inurba_marseille","lat":43.30938,"lon":5.40142,"is_reserved":false,"is_disabled":false,"rental_uris":{"android":"levelo://app?vid=5994a573-9be3-44fa-b34b-852648ccf703","ios":"levelo://app?vid=5994a573-9be3-44fa-b34b-852648ccf703"},"vehicle_type_id":"4","last_reported":1729664032,"current_range_meters":35600,"station_id":"ce4bgvp2rcd13ifvqct0","pricing_plan_id":"cebpf4jnsgd1na2vs0mg"},{"bike_id":"1e912b40-cf78-4faf-8d8c-8c2a5afe1993","system_id":"levelo_inurba_marseille","lat":43.27067,"lon":5.4026,"is_reserved":false,"is_disabled":false,"rental_uris":{"android":"levelo://app?vid=1e912b40-cf78-4faf-8d8c-8c2a5afe1993","ios":"levelo://app?vid=1e912b40-cf78-4faf-8d8c-8c2a5afe1993"},"vehicle_type_id":"4","last_reported":1729664032,"current_range_meters":39200,"station_id":"ce4bhk92rcd13ifvqgc0","pricing_plan_id":"cebpf4jnsgd1na2vs0mg"},{"bike_id":"50f1ec05-4d59-4332-8aca-ecfd573a5bf5","system_id":"levelo_inurba_marseille","lat":43.27072,"lon":5.42278,"is_reserved":false,"is_disabled":false,"rental_uris":{"android":"levelo://app?vid=50f1ec05-4d59-4332-8aca-ecfd573a5bf5","ios":"levelo://app?vid=50f1ec05-4d59-4332-8aca-ecfd573a5bf5"},"vehicle_type_id":"4","last_reported":1729664032,"current_range_meters":38800,"station_id":"ce4bhk92rcd13ifvqgb0","pricing_plan_id":"cebpf4jnsgd1na2vs0mg"},{"bike_id":"e929bbf0-b67f-4d49-bb99-c9e174c9b8b0","system_id":"levelo_inurba_marseille","lat":43.30539,"lon":5.36546,"is_reserved":false,"is_disabled":false,"rental_uris":{"android":"levelo://app?vid=e929bbf0-b67f-4d49-bb99-c9e174c9b8b0","ios":"levelo://app?vid=e929bbf0-b67f-4d49-bb99-c9e174c9b8b0"},"vehicle_type_id":"4","last_reported":1729664032,"current_range_meters":38800,"station_id":"ce4bgs12rcd13ifvqcag","pricing_plan_id":"cebpf4jnsgd1na2vs0mg"},{"bike_id":"da2545c0-1aa1-4252-83b4-6c3657ee2a36","system_id":"levelo_inurba_marseille","lat":43.2956,"lon":5.42287,"is_reserved":false,"is_disabled":false,"rental_uris":{"android":"levelo://app?vid=da2545c0-1aa1-4252-83b4-6c3657ee2a36","ios":"levelo://app?vid=da2545c0-1aa1-4252-83b4-6c3657ee2a36"},"vehicle_type_id":"4","last_reported":1729664032,"current_range_meters":28800,"station_id":"ce4bhph2rcd13ifvqhdg","pricing_plan_id":"cebpf4jnsgd1na2vs0mg"},{"bike_id":"b149ce4e-51e1-44d1-a677-e09dc3311ba7","system_id":"levelo_inurba_marseille","lat":43.24389,"lon":5.37052,"is_reserved":false,"is_disabled":false,"rental_uris":{"android":"levelo://app?vid=b149ce4e-51e1-44d1-a677-e09dc3311ba7","ios":"levelo://app?vid=b149ce4e-51e1-44d1-a677-e09dc3311ba7"},"vehicle_type_id":"4","last_reported":1729664032,"current_range_meters":38800,"station_id":"ce4bhhh2rcd13ifvqfk0","pricing_plan_id":"cebpf4jnsgd1na2vs0mg"},{"bike_id":"b4cc9679-1889-4d52-9d59-6fc564d9e1c9","system_id":"levelo_inurba_marseille","lat":43.24386,"lon":5.37059,"is_reserved":false,"is_disabled":false,"rental_uris":{"android":"levelo://app?vid=b4cc9679-1889-4d52-9d59-6fc564d9e1c9","ios":"levelo://app?vid=b4cc9679-1889-4d52-9d59-6fc564d9e1c9"},"vehicle_type_id":"4","last_reported":1729664032,"current_range_meters":29600,"station_id":"ce4bhhh2rcd13ifvqfk0","pricing_plan_id":"cebpf4jnsgd1na2vs0mg"},{"bike_id":"a581c9ee-de6c-4ca2-adce-d873a10f1b7c","system_id":"levelo_inurba_marseille","lat":43.24079,"lon":5.37747,"is_reserved":false,"is_disabled":false,"rental_uris":{"android":"levelo://app?vid=a581c9ee-de6c-4ca2-adce-d873a10f1b7c","ios":"levelo://app?vid=a581c9ee-de6c-4ca2-adce-d873a10f1b7c"},"vehicle_type_id":"4","last_reported":1729664032,"current_range_meters":12000,"station_id":"ce4bhnp2rcd13ifvqgvg","pricing_plan_id":"cebpf4jnsgd1na2vs0mg"},{"bike_id":"33b2053d-bd1d-49f6-9dc6-9a0d8a900c29","system_id":"levelo_inurba_marseille","lat":43.24081,"lon":5.37756,"is_reserved":false,"is_disabled":false,"rental_uris":{"android":"levelo://app?vid=33b2053d-bd1d-49f6-9dc6-9a0d8a900c29","ios":"levelo://app?vid=33b2053d-bd1d-49f6-9dc6-9a0d8a900c29"},"vehicle_type_id":"4","last_reported":1729664032,"current_range_meters":20800,"station_id":"ce4bhnp2rcd13ifvqgvg","pricing_plan_id":"cebpf4jnsgd1na2vs0mg"},{"bike_id":"4d20483b-8839-40ef-b921-01cac92f652c","system_id":"levelo_inurba_marseille","lat":43.30151,"lon":5.37421,"is_reserved":false,"is_disabled":false,"rental_uris":{"android":"levelo://app?vid=4d20483b-8839-40ef-b921-01cac92f652c","ios":"levelo://app?vid=4d20483b-8839-40ef-b921-01cac92f652c"},"vehicle_type_id":"4","last_reported":1729664032,"current_range_meters":38400,"station_id":"ce4bgs92rcd13ifvqcc0","pricing_plan_id":"cebpf4jnsgd1na2vs0mg"},{"bike_id":"4208151c-a63a-46d0-96f9-e568ed52a834","system_id":"levelo_inurba_marseille","lat":43.30426,"lon":5.39761,"is_reserved":false,"is_disabled":false,"rental_uris":{"android":"levelo://app?vid=4208151c-a63a-46d0-96f9-e568ed52a834","ios":"levelo://app?vid=4208151c-a63a-46d0-96f9-e568ed52a834"},"vehicle_type_id":"4","last_reported":1729664032,"current_range_meters":36400,"station_id":"ce4bhqh2rcd13ifvqhmg","pricing_plan_id":"cebpf4jnsgd1na2vs0mg"},{"bike_id":"8fde699d-13e7-4d33-9d64-500f859c276b","system_id":"levelo_inurba_marseille","lat":43.30536,"lon":5.36712,"is_reserved":false,"is_disabled":false,"rental_uris":{"android":"levelo://app?vid=8fde699d-13e7-4d33-9d64-500f859c276b","ios":"levelo://app?vid=8fde699d-13e7-4d33-9d64-500f859c276b"},"vehicle_type_id":"4","last_reported":1729664032,"current_range_meters":35600,"station_id":"ce4bgrp2rcd13ifvqc9g","pricing_plan_id":"cebpf4jnsgd1na2vs0mg"},{"bike_id":"2fc21cbc-a2be-4758-bf3f-e09b3f763983","system_id":"levelo_inurba_marseille","lat":43.29976,"lon":5.37172,"is_reserved":false,"is_disabled":false,"rental_uris":{"android":"levelo://app?vid=2fc21cbc-a2be-4758-bf3f-e09b3f763983","ios":"levelo://app?vid=2fc21cbc-a2be-4758-bf3f-e09b3f763983"},"vehicle_type_id":"4","last_reported":1729664032,"current_range_meters":36000,"station_id":"ce4bgup2rcd13ifvqcn0","pricing_plan_id":"cebpf4jnsgd1na2vs0mg"},{"bike_id":"805f7d0d-54b0-4585-9ebc-67d417a713a5","system_id":"levelo_inurba_marseille","lat":43.286627,"lon":5.363446,"is_reserved":false,"is_disabled":false,"rental_uris":{"android":"levelo://app?vid=805f7d0d-54b0-4585-9ebc-67d417a713a5","ios":"levelo://app?vid=805f7d0d-54b0-4585-9ebc-67d417a713a5"},"vehicle_type_id":"4","last_reported":1729664032,"current_range_meters":30000,"station_id":"ce4bhah2rcd13ifvqej0","pricing_plan_id":"cebpf4jnsgd1na2vs0mg"},{"bike_id":"e212bfcb-4ff2-43ec-acdc-4f42f6d554ad","system_id":"levelo_inurba_marseille","lat":43.28153,"lon":5.42648,"is_reserved":false,"is_disabled":false,"rental_uris":{"android":"levelo://app?vid=e212bfcb-4ff2-43ec-acdc-4f42f6d554ad","ios":"levelo://app?vid=e212bfcb-4ff2-43ec-acdc-4f42f6d554ad"},"vehicle_type_id":"4","last_reported":1729664032,"current_range_meters":30800,"station_id":"ce4bhnh2rcd13ifvqgug","pricing_plan_id":"cebpf4jnsgd1na2vs0mg"},{"bike_id":"bf3cdac8-1828-4c5b-88c1-7d178598dc6a","system_id":"levelo_inurba_marseille","lat":43.300397,"lon":5.372959,"is_reserved":false,"is_disabled":false,"rental_uris":{"android":"levelo://app?vid=bf3cdac8-1828-4c5b-88c1-7d178598dc6a","ios":"levelo://app?vid=bf3cdac8-1828-4c5b-88c1-7d178598dc6a"},"vehicle_type_id":"4","last_reported":1729664032,"current_range_meters":14000,"station_id":"","pricing_plan_id":"cebpf4jnsgd1na2vs0mg"},{"bike_id":"dd063e6e-5a0e-4383-ae0e-0bb450cbba02","system_id":"levelo_inurba_marseille","lat":43.30474,"lon":5.37903,"is_reserved":false,"is_disabled":false,"rental_uris":{"android":"levelo://app?vid=dd063e6e-5a0e-4383-ae0e-0bb450cbba02","ios":"levelo://app?vid=dd063e6e-5a0e-4383-ae0e-0bb450cbba02"},"vehicle_type_id":"4","last_reported":1729664032,"current_range_meters":32400,"station_id":"ce4bgup2rcd13ifvqcn0","pricing_plan_id":"cebpf4jnsgd1na2vs0mg"},{"bike_id":"3d515801-f9c3-447d-90bf-7c7fb37db57a","system_id":"levelo_inurba_marseille","lat":43.3249,"lon":5.36583,"is_reserved":false,"is_disabled":false,"rental_uris":{"android":"levelo://app?vid=3d515801-f9c3-447d-90bf-7c7fb37db57a","ios":"levelo://app?vid=3d515801-f9c3-447d-90bf-7c7fb37db57a"},"vehicle_type_id":"4","last_reported":1729664032,"current_range_meters":13600,"station_id":"ce4bhs12rcd13ifvqhvg","pricing_plan_id":"cebpf4jnsgd1na2vs0mg"},{"bike_id":"8e9e4b7a-9ad2-4b96-acdb-689caab34241","system_id":"levelo_inurba_marseille","lat":43.287,"lon":5.39992,"is_reserved":false,"is_disabled":false,"rental_uris":{"android":"levelo://app?vid=8e9e4b7a-9ad2-4b96-acdb-689caab34241","ios":"levelo://app?vid=8e9e4b7a-9ad2-4b96-acdb-689caab34241"},"vehicle_type_id":"4","last_reported":1729664032,"current_range_meters":38800,"station_id":"ce4bho92rcd13ifvqh3g","pricing_plan_id":"cebpf4jnsgd1na2vs0mg"},{"bike_id":"5c449356-4ac4-4d08-a405-c433fbe21a80","system_id":"levelo_inurba_marseille","lat":43.33737,"lon":5.37458,"is_reserved":false,"is_disabled":false,"rental_uris":{"android":"levelo://app?vid=5c449356-4ac4-4d08-a405-c433fbe21a80","ios":"levelo://app?vid=5c449356-4ac4-4d08-a405-c433fbe21a80"},"vehicle_type_id":"4","last_reported":1729664032,"current_range_meters":30800,"station_id":"","pricing_plan_id":"cebpf4jnsgd1na2vs0mg"},{"bike_id":"3a92d8ff-54ff-443e-9b0a-a2fcb028aa18","system_id":"levelo_inurba_marseille","lat":43.30548,"lon":5.36701,"is_reserved":false,"is_disabled":false,"rental_uris":{"android":"levelo://app?vid=3a92d8ff-54ff-443e-9b0a-a2fcb028aa18","ios":"levelo://app?vid=3a92d8ff-54ff-443e-9b0a-a2fcb028aa18"},"vehicle_type_id":"4","last_reported":1729664032,"current_range_meters":38800,"station_id":"ce4bgrp2rcd13ifvqc9g","pricing_plan_id":"cebpf4jnsgd1na2vs0mg"},{"bike_id":"8e913b39-d4d7-48d4-8cfc-efe2601d298e","system_id":"levelo_inurba_marseille","lat":43.30148,"lon":5.38085,"is_reserved":false,"is_disabled":false,"rental_uris":{"android":"levelo://app?vid=8e913b39-d4d7-48d4-8cfc-efe2601d298e","ios":"levelo://app?vid=8e913b39-d4d7-48d4-8cfc-efe2601d298e"},"vehicle_type_id":"4","last_reported":1729664032,"current_range_meters":10800,"station_id":"ce4bgjp2rcd13ifvqbh0","pricing_plan_id":"cebpf4jnsgd1na2vs0mg"},{"bike_id":"309dad60-bb72-4d2d-b50c-28e8483b55b4","system_id":"levelo_inurba_marseille","lat":43.29559,"lon":5.42286,"is_reserved":false,"is_disabled":false,"rental_uris":{"android":"levelo://app?vid=309dad60-bb72-4d2d-b50c-28e8483b55b4","ios":"levelo://app?vid=309dad60-bb72-4d2d-b50c-28e8483b55b4"},"vehicle_type_id":"4","last_reported":1729664032,"current_range_meters":28000,"station_id":"ce4bhph2rcd13ifvqhdg","pricing_plan_id":"cebpf4jnsgd1na2vs0mg"},{"bike_id":"0029ee21-649e-4d16-a642-8d64d97589e4","system_id":"levelo_inurba_marseille","lat":43.24077,"lon":5.37763,"is_reserved":false,"is_disabled":false,"rental_uris":{"android":"levelo://app?vid=0029ee21-649e-4d16-a642-8d64d97589e4","ios":"levelo://app?vid=0029ee21-649e-4d16-a642-8d64d97589e4"},"vehicle_type_id":"4","last_reported":1729664032,"current_range_meters":16800,"station_id":"ce4bhnp2rcd13ifvqgvg","pricing_plan_id":"cebpf4jnsgd1na2vs0mg"},{"bike_id":"2fa1dc90-f762-4e81-bce8-6d4dab68d2a0","system_id":"levelo_inurba_marseille","lat":43.28515,"lon":5.38571,"is_reserved":false,"is_disabled":false,"rental_uris":{"android":"levelo://app?vid=2fa1dc90-f762-4e81-bce8-6d4dab68d2a0","ios":"levelo://app?vid=2fa1dc90-f762-4e81-bce8-6d4dab68d2a0"},"vehicle_type_id":"4","last_reported":1729664032,"current_range_meters":36000,"station_id":"ce4bh8p2rcd13ifvqeb0","pricing_plan_id":"cebpf4jnsgd1na2vs0mg"},{"bike_id":"80f01561-4f78-4d59-98de-f130f22341eb","system_id":"levelo_inurba_marseille","lat":43.28158,"lon":5.42643,"is_reserved":false,"is_disabled":false,"rental_uris":{"android":"levelo://app?vid=80f01561-4f78-4d59-98de-f130f22341eb","ios":"levelo://app?vid=80f01561-4f78-4d59-98de-f130f22341eb"},"vehicle_type_id":"4","last_reported":1729664032,"current_range_meters":4000,"station_id":"ce4bhnh2rcd13ifvqgug","pricing_plan_id":"cebpf4jnsgd1na2vs0mg"},{"bike_id":"0c6b11eb-50a7-4dc0-bff2-d8026011ec1d","system_id":"levelo_inurba_marseille","lat":43.24389,"lon":5.37057,"is_reserved":false,"is_disabled":false,"rental_uris":{"android":"levelo://app?vid=0c6b11eb-50a7-4dc0-bff2-d8026011ec1d","ios":"levelo://app?vid=0c6b11eb-50a7-4dc0-bff2-d8026011ec1d"},"vehicle_type_id":"4","last_reported":1729664032,"current_range_meters":38800,"station_id":"ce4bhhh2rcd13ifvqfk0","pricing_plan_id":"cebpf4jnsgd1na2vs0mg"},{"bike_id":"689667f0-7e77-4ac0-9ccd-47f3071af4dc","system_id":"levelo_inurba_marseille","lat":43.24162,"lon":5.36405,"is_reserved":false,"is_disabled":false,"rental_uris":{"android":"levelo://app?vid=689667f0-7e77-4ac0-9ccd-47f3071af4dc","ios":"levelo://app?vid=689667f0-7e77-4ac0-9ccd-47f3071af4dc"},"vehicle_type_id":"4","last_reported":1729664032,"current_range_meters":24000,"station_id":"cpo36qri1sfpv3e86is0","pricing_plan_id":"cebpf4jnsgd1na2vs0mg"},{"bike_id":"bff498d8-d979-413d-a89a-629443bc23a3","system_id":"levelo_inurba_marseille","lat":43.29906,"lon":5.38149,"is_reserved":false,"is_disabled":false,"rental_uris":{"android":"levelo://app?vid=bff498d8-d979-413d-a89a-629443bc23a3","ios":"levelo://app?vid=bff498d8-d979-413d-a89a-629443bc23a3"},"vehicle_type_id":"4","last_reported":1729664032,"current_range_meters":38800,"station_id":"ce4bgj12rcd13ifvqbc0","pricing_plan_id":"cebpf4jnsgd1na2vs0mg"},{"bike_id":"c769be1b-4262-45e1-ae17-91133a0a1d6c","system_id":"levelo_inurba_marseille","lat":43.3053,"lon":5.36659,"is_reserved":false,"is_disabled":false,"rental_uris":{"android":"levelo://app?vid=c769be1b-4262-45e1-ae17-91133a0a1d6c","ios":"levelo://app?vid=c769be1b-4262-45e1-ae17-91133a0a1d6c"},"vehicle_type_id":"4","last_reported":1729664032,"current_range_meters":12800,"station_id":"","pricing_plan_id":"cebpf4jnsgd1na2vs0mg"},{"bike_id":"4882a116-5452-4f97-bdbd-13df4cccb9d6","system_id":"levelo_inurba_marseille","lat":43.30603,"lon":5.37249,"is_reserved":false,"is_disabled":false,"rental_uris":{"android":"levelo://app?vid=4882a116-5452-4f97-bdbd-13df4cccb9d6","ios":"levelo://app?vid=4882a116-5452-4f97-bdbd-13df4cccb9d6"},"vehicle_type_id":"4","last_reported":1729664032,"current_range_meters":30800,"station_id":"ce4bgqh2rcd13ifvqc4g","pricing_plan_id":"cebpf4jnsgd1na2vs0mg"},{"bike_id":"148d9cbb-5880-4d7e-a73f-04c02ed3b48c","system_id":"levelo_inurba_marseille","lat":43.29035,"lon":5.37568,"is_reserved":false,"is_disabled":false,"rental_uris":{"android":"levelo://app?vid=148d9cbb-5880-4d7e-a73f-04c02ed3b48c","ios":"levelo://app?vid=148d9cbb-5880-4d7e-a73f-04c02ed3b48c"},"vehicle_type_id":"4","last_reported":1729664032,"current_range_meters":8000,"station_id":"ce4bh692rcd13ifvqe90","pricing_plan_id":"cebpf4jnsgd1na2vs0mg"},{"bike_id":"959cd13d-10d3-476c-9169-9e5025cf3b1f","system_id":"levelo_inurba_marseille","lat":43.27317,"lon":5.39091,"is_reserved":false,"is_disabled":false,"rental_uris":{"android":"levelo://app?vid=959cd13d-10d3-476c-9169-9e5025cf3b1f","ios":"levelo://app?vid=959cd13d-10d3-476c-9169-9e5025cf3b1f"},"vehicle_type_id":"4","last_reported":1729664032,"current_range_meters":38800,"station_id":"ce4bhgp2rcd13ifvqfe0","pricing_plan_id":"cebpf4jnsgd1na2vs0mg"},{"bike_id":"c06309b0-c1de-457f-b658-f76ff5bddc2d","system_id":"levelo_inurba_marseille","lat":43.30156,"lon":5.38076,"is_reserved":false,"is_disabled":false,"rental_uris":{"android":"levelo://app?vid=c06309b0-c1de-457f-b658-f76ff5bddc2d","ios":"levelo://app?vid=c06309b0-c1de-457f-b658-f76ff5bddc2d"},"vehicle_type_id":"4","last_reported":1729664032,"current_range_meters":18000,"station_id":"ce4bgjp2rcd13ifvqbh0","pricing_plan_id":"cebpf4jnsgd1na2vs0mg"},{"bike_id":"57633249-3b48-4b3f-9fc9-74faaaf52100","system_id":"levelo_inurba_marseille","lat":43.28407,"lon":5.37512,"is_reserved":false,"is_disabled":false,"rental_uris":{"android":"levelo://app?vid=57633249-3b48-4b3f-9fc9-74faaaf52100","ios":"levelo://app?vid=57633249-3b48-4b3f-9fc9-74faaaf52100"},"vehicle_type_id":"4","last_reported":1729664032,"current_range_meters":38800,"station_id":"ce4bh412rcd13ifvqds0","pricing_plan_id":"cebpf4jnsgd1na2vs0mg"},{"bike_id":"541b9662-9fd0-4beb-b2fc-99ab3531f104","system_id":"levelo_inurba_marseille","lat":43.29686,"lon":5.37298,"is_reserved":false,"is_disabled":false,"rental_uris":{"android":"levelo://app?vid=541b9662-9fd0-4beb-b2fc-99ab3531f104","ios":"levelo://app?vid=541b9662-9fd0-4beb-b2fc-99ab3531f104"},"vehicle_type_id":"4","last_reported":1729664032,"current_range_meters":38000,"station_id":"ce4bgk12rcd13ifvqbj0","pricing_plan_id":"cebpf4jnsgd1na2vs0mg"},{"bike_id":"42b34e18-affb-4aa0-b872-5fe3a8b7ec70","system_id":"levelo_inurba_marseille","lat":43.23193,"lon":5.35546,"is_reserved":false,"is_disabled":false,"rental_uris":{"android":"levelo://app?vid=42b34e18-affb-4aa0-b872-5fe3a8b7ec70","ios":"levelo://app?vid=42b34e18-affb-4aa0-b872-5fe3a8b7ec70"},"vehicle_type_id":"4","last_reported":1729664032,"current_range_meters":9200,"station_id":"ce4bhu92rcd13ifvqi70","pricing_plan_id":"cebpf4jnsgd1na2vs0mg"},{"bike_id":"f42b21e7-cbd4-432b-a865-7ed8d92ab2c5","system_id":"levelo_inurba_marseille","lat":43.30981,"lon":5.40056,"is_reserved":false,"is_disabled":false,"rental_uris":{"android":"levelo://app?vid=f42b21e7-cbd4-432b-a865-7ed8d92ab2c5","ios":"levelo://app?vid=f42b21e7-cbd4-432b-a865-7ed8d92ab2c5"},"vehicle_type_id":"4","last_reported":1729664032,"current_range_meters":37600,"station_id":"ce4bhq92rcd13ifvqhjg","pricing_plan_id":"cebpf4jnsgd1na2vs0mg"},{"bike_id":"3387eb52-79e6-4344-8cb3-f348d6145e01","system_id":"levelo_inurba_marseille","lat":43.30789,"lon":5.3816,"is_reserved":false,"is_disabled":false,"rental_uris":{"android":"levelo://app?vid=3387eb52-79e6-4344-8cb3-f348d6145e01","ios":"levelo://app?vid=3387eb52-79e6-4344-8cb3-f348d6145e01"},"vehicle_type_id":"4","last_reported":1729664032,"current_range_meters":36400,"station_id":"ce4bgt12rcd13ifvqce0","pricing_plan_id":"cebpf4jnsgd1na2vs0mg"},{"bike_id":"1f695c43-9b8f-406c-8751-eb34ab03df6c","system_id":"levelo_inurba_marseille","lat":43.29716,"lon":5.37714,"is_reserved":false,"is_disabled":false,"rental_uris":{"android":"levelo://app?vid=1f695c43-9b8f-406c-8751-eb34ab03df6c","ios":"levelo://app?vid=1f695c43-9b8f-406c-8751-eb34ab03df6c"},"vehicle_type_id":"4","last_reported":1729664032,"current_range_meters":36000,"station_id":"ce4bgkh2rcd13ifvqbl0","pricing_plan_id":"cebpf4jnsgd1na2vs0mg"},{"bike_id":"329727be-41c5-4404-8a34-4faa7b5d0b3d","system_id":"levelo_inurba_marseille","lat":43.29222,"lon":5.36058,"is_reserved":false,"is_disabled":false,"rental_uris":{"android":"levelo://app?vid=329727be-41c5-4404-8a34-4faa7b5d0b3d","ios":"levelo://app?vid=329727be-41c5-4404-8a34-4faa7b5d0b3d"},"vehicle_type_id":"4","last_reported":1729664032,"current_range_meters":27600,"station_id":"ce4bhbh2rcd13ifvqeqg","pricing_plan_id":"cebpf4jnsgd1na2vs0mg"},{"bike_id":"03e455ca-db19-4914-ba3f-fe3463aa8ffe","system_id":"levelo_inurba_marseille","lat":43.27208,"lon":5.39177,"is_reserved":false,"is_disabled":false,"rental_uris":{"android":"levelo://app?vid=03e455ca-db19-4914-ba3f-fe3463aa8ffe","ios":"levelo://app?vid=03e455ca-db19-4914-ba3f-fe3463aa8ffe"},"vehicle_type_id":"4","last_reported":1729664032,"current_range_meters":14000,"station_id":"ce4bhhp2rcd13ifvqfm0","pricing_plan_id":"cebpf4jnsgd1na2vs0mg"},{"bike_id":"20e0b48a-077f-45c8-b5a5-1f4dcb4203d2","system_id":"levelo_inurba_marseille","lat":43.28154,"lon":5.42638,"is_reserved":false,"is_disabled":false,"rental_uris":{"android":"levelo://app?vid=20e0b48a-077f-45c8-b5a5-1f4dcb4203d2","ios":"levelo://app?vid=20e0b48a-077f-45c8-b5a5-1f4dcb4203d2"},"vehicle_type_id":"4","last_reported":1729664032,"current_range_meters":38800,"station_id":"ce4bhnh2rcd13ifvqgug","pricing_plan_id":"cebpf4jnsgd1na2vs0mg"},{"bike_id":"ec27f554-4b18-49a0-8d1d-a9948b1b2ca9","system_id":"levelo_inurba_marseille","lat":43.25578,"lon":5.38241,"is_reserved":false,"is_disabled":false,"rental_uris":{"android":"levelo://app?vid=ec27f554-4b18-49a0-8d1d-a9948b1b2ca9","ios":"levelo://app?vid=ec27f554-4b18-49a0-8d1d-a9948b1b2ca9"},"vehicle_type_id":"4","last_reported":1729664032,"current_range_meters":38800,"station_id":"ce4bhih2rcd13ifvqfs0","pricing_plan_id":"cebpf4jnsgd1na2vs0mg"},{"bike_id":"ece9390d-9e3c-4fc7-abf5-86a62859ddff","system_id":"levelo_inurba_marseille","lat":43.32474,"lon":5.36577,"is_reserved":false,"is_disabled":false,"rental_uris":{"android":"levelo://app?vid=ece9390d-9e3c-4fc7-abf5-86a62859ddff","ios":"levelo://app?vid=ece9390d-9e3c-4fc7-abf5-86a62859ddff"},"vehicle_type_id":"4","last_reported":1729664032,"current_range_meters":27200,"station_id":"ce4bhs12rcd13ifvqhvg","pricing_plan_id":"cebpf4jnsgd1na2vs0mg"},{"bike_id":"a04ee60d-8e8d-435a-a7ee-19b23f6dbbb0","system_id":"levelo_inurba_marseille","lat":43.26215,"lon":5.37438,"is_reserved":false,"is_disabled":false,"rental_uris":{"android":"levelo://app?vid=a04ee60d-8e8d-435a-a7ee-19b23f6dbbb0","ios":"levelo://app?vid=a04ee60d-8e8d-435a-a7ee-19b23f6dbbb0"},"vehicle_type_id":"4","last_reported":1729664032,"current_range_meters":38800,"station_id":"ce4bhgp2rcd13ifvqfc0","pricing_plan_id":"cebpf4jnsgd1na2vs0mg"},{"bike_id":"474e8192-2c3d-4290-9dca-32a411415637","system_id":"levelo_inurba_marseille","lat":43.30468,"lon":5.37894,"is_reserved":false,"is_disabled":false,"rental_uris":{"android":"levelo://app?vid=474e8192-2c3d-4290-9dca-32a411415637","ios":"levelo://app?vid=474e8192-2c3d-4290-9dca-32a411415637"},"vehicle_type_id":"4","last_reported":1729664032,"current_range_meters":38800,"station_id":"ce4bgup2rcd13ifvqcn0","pricing_plan_id":"cebpf4jnsgd1na2vs0mg"},{"bike_id":"6e98ca6a-26e6-4813-a55a-aa08b62dbf54","system_id":"levelo_inurba_marseille","lat":43.23155,"lon":5.43718,"is_reserved":false,"is_disabled":false,"rental_uris":{"android":"levelo://app?vid=6e98ca6a-26e6-4813-a55a-aa08b62dbf54","ios":"levelo://app?vid=6e98ca6a-26e6-4813-a55a-aa08b62dbf54"},"vehicle_type_id":"4","last_reported":1729664032,"current_range_meters":30000,"station_id":"ce4bhmp2rcd13ifvqgog","pricing_plan_id":"cebpf4jnsgd1na2vs0mg"},{"bike_id":"bde5a3e1-2b27-4680-add5-25f6634f00df","system_id":"levelo_inurba_marseille","lat":43.28002,"lon":5.41679,"is_reserved":false,"is_disabled":false,"rental_uris":{"android":"levelo://app?vid=bde5a3e1-2b27-4680-add5-25f6634f00df","ios":"levelo://app?vid=bde5a3e1-2b27-4680-add5-25f6634f00df"},"vehicle_type_id":"4","last_reported":1729664032,"current_range_meters":7200,"station_id":"ce4bho12rcd13ifvqh1g","pricing_plan_id":"cebpf4jnsgd1na2vs0mg"},{"bike_id":"b16125f9-a5e5-4095-ba7f-893b43f7d2c2","system_id":"levelo_inurba_marseille","lat":43.27073,"lon":5.42282,"is_reserved":false,"is_disabled":false,"rental_uris":{"android":"levelo://app?vid=b16125f9-a5e5-4095-ba7f-893b43f7d2c2","ios":"levelo://app?vid=b16125f9-a5e5-4095-ba7f-893b43f7d2c2"},"vehicle_type_id":"4","last_reported":1729664032,"current_range_meters":38800,"station_id":"ce4bhk92rcd13ifvqgb0","pricing_plan_id":"cebpf4jnsgd1na2vs0mg"},{"bike_id":"22675db0-28b2-4ef9-a53f-b0764f3ea9dc","system_id":"levelo_inurba_marseille","lat":43.31995,"lon":5.38149,"is_reserved":false,"is_disabled":false,"rental_uris":{"android":"levelo://app?vid=22675db0-28b2-4ef9-a53f-b0764f3ea9dc","ios":"levelo://app?vid=22675db0-28b2-4ef9-a53f-b0764f3ea9dc"},"vehicle_type_id":"4","last_reported":1729664032,"current_range_meters":38800,"station_id":"ce4bhr12rcd13ifvqhpg","pricing_plan_id":"cebpf4jnsgd1na2vs0mg"},{"bike_id":"ab17151c-94ae-401a-8d44-abbdb15f9094","system_id":"levelo_inurba_marseille","lat":43.31538,"lon":5.38041,"is_reserved":false,"is_disabled":false,"rental_uris":{"android":"levelo://app?vid=ab17151c-94ae-401a-8d44-abbdb15f9094","ios":"levelo://app?vid=ab17151c-94ae-401a-8d44-abbdb15f9094"},"vehicle_type_id":"4","last_reported":1729664032,"current_range_meters":26800,"station_id":"ce4bhsp2rcd13ifvqi50","pricing_plan_id":"cebpf4jnsgd1na2vs0mg"},{"bike_id":"d08ac600-b85a-4a44-84b0-ee33725e24f7","system_id":"levelo_inurba_marseille","lat":43.32361,"lon":5.3888,"is_reserved":false,"is_disabled":false,"rental_uris":{"android":"levelo://app?vid=d08ac600-b85a-4a44-84b0-ee33725e24f7","ios":"levelo://app?vid=d08ac600-b85a-4a44-84b0-ee33725e24f7"},"vehicle_type_id":"4","last_reported":1729664032,"current_range_meters":31200,"station_id":"ce4bhqp2rcd13ifvqhog","pricing_plan_id":"cebpf4jnsgd1na2vs0mg"},{"bike_id":"6a3d026e-f423-4e19-905c-b73e2bbde2ea","system_id":"levelo_inurba_marseille","lat":43.27177,"lon":5.40988,"is_reserved":false,"is_disabled":false,"rental_uris":{"android":"levelo://app?vid=6a3d026e-f423-4e19-905c-b73e2bbde2ea","ios":"levelo://app?vid=6a3d026e-f423-4e19-905c-b73e2bbde2ea"},"vehicle_type_id":"4","last_reported":1729664032,"current_range_meters":38000,"station_id":"ce4bhl12rcd13ifvqgf0","pricing_plan_id":"cebpf4jnsgd1na2vs0mg"},{"bike_id":"48626366-6c4d-4e93-86eb-59d9c4e5dfba","system_id":"levelo_inurba_marseille","lat":43.28934,"lon":5.39617,"is_reserved":false,"is_disabled":false,"rental_uris":{"android":"levelo://app?vid=48626366-6c4d-4e93-86eb-59d9c4e5dfba","ios":"levelo://app?vid=48626366-6c4d-4e93-86eb-59d9c4e5dfba"},"vehicle_type_id":"4","last_reported":1729664032,"current_range_meters":38800,"station_id":"ce4bh3h2rcd13ifvqdn0","pricing_plan_id":"cebpf4jnsgd1na2vs0mg"},{"bike_id":"c0577493-6fdf-4288-93e2-1efb6212ffea","system_id":"levelo_inurba_marseille","lat":43.329675,"lon":5.389689,"is_reserved":false,"is_disabled":false,"rental_uris":{"android":"levelo://app?vid=c0577493-6fdf-4288-93e2-1efb6212ffea","ios":"levelo://app?vid=c0577493-6fdf-4288-93e2-1efb6212ffea"},"vehicle_type_id":"4","last_reported":1729664032,"current_range_meters":24800,"station_id":"ce4bhr92rcd13ifvqhrg","pricing_plan_id":"cebpf4jnsgd1na2vs0mg"},{"bike_id":"5d9d0336-c118-4784-b5fb-1fb6fe21db2c","system_id":"levelo_inurba_marseille","lat":43.30603,"lon":5.37227,"is_reserved":false,"is_disabled":false,"rental_uris":{"android":"levelo://app?vid=5d9d0336-c118-4784-b5fb-1fb6fe21db2c","ios":"levelo://app?vid=5d9d0336-c118-4784-b5fb-1fb6fe21db2c"},"vehicle_type_id":"4","last_reported":1729664032,"current_range_meters":34000,"station_id":"ce4bgqh2rcd13ifvqc4g","pricing_plan_id":"cebpf4jnsgd1na2vs0mg"},{"bike_id":"a4757616-c902-495a-993c-e6522db7f0c2","system_id":"levelo_inurba_marseille","lat":43.26558,"lon":5.37284,"is_reserved":false,"is_disabled":false,"rental_uris":{"android":"levelo://app?vid=a4757616-c902-495a-993c-e6522db7f0c2","ios":"levelo://app?vid=a4757616-c902-495a-993c-e6522db7f0c2"},"vehicle_type_id":"4","last_reported":1729664032,"current_range_meters":30400,"station_id":"ce4bhg12rcd13ifvqf70","pricing_plan_id":"cebpf4jnsgd1na2vs0mg"},{"bike_id":"abb07ea5-c8f9-4cdb-a573-408594a7459c","system_id":"levelo_inurba_marseille","lat":43.30156,"lon":5.3807,"is_reserved":false,"is_disabled":false,"rental_uris":{"android":"levelo://app?vid=abb07ea5-c8f9-4cdb-a573-408594a7459c","ios":"levelo://app?vid=abb07ea5-c8f9-4cdb-a573-408594a7459c"},"vehicle_type_id":"4","last_reported":1729664032,"current_range_meters":36800,"station_id":"ce4bgjp2rcd13ifvqbh0","pricing_plan_id":"cebpf4jnsgd1na2vs0mg"},{"bike_id":"38486ab0-efb0-4b05-bf58-d9ae2deab94d","system_id":"levelo_inurba_marseille","lat":43.25583,"lon":5.38238,"is_reserved":false,"is_disabled":false,"rental_uris":{"android":"levelo://app?vid=38486ab0-efb0-4b05-bf58-d9ae2deab94d","ios":"levelo://app?vid=38486ab0-efb0-4b05-bf58-d9ae2deab94d"},"vehicle_type_id":"4","last_reported":1729664032,"current_range_meters":38800,"station_id":"ce4bhih2rcd13ifvqfs0","pricing_plan_id":"cebpf4jnsgd1na2vs0mg"},{"bike_id":"cbe10c03-fb85-436f-9ae4-c9a8a717f05b","system_id":"levelo_inurba_marseille","lat":43.31213,"lon":5.36843,"is_reserved":false,"is_disabled":false,"rental_uris":{"android":"levelo://app?vid=cbe10c03-fb85-436f-9ae4-c9a8a717f05b","ios":"levelo://app?vid=cbe10c03-fb85-436f-9ae4-c9a8a717f05b"},"vehicle_type_id":"4","last_reported":1729664032,"current_range_meters":5600,"station_id":"ce4bgl92rcd13ifvqbq0","pricing_plan_id":"cebpf4jnsgd1na2vs0mg"},{"bike_id":"4200acaf-bcdf-4804-8881-9af9a6d83263","system_id":"levelo_inurba_marseille","lat":43.27313,"lon":5.391,"is_reserved":false,"is_disabled":false,"rental_uris":{"android":"levelo://app?vid=4200acaf-bcdf-4804-8881-9af9a6d83263","ios":"levelo://app?vid=4200acaf-bcdf-4804-8881-9af9a6d83263"},"vehicle_type_id":"4","last_reported":1729664032,"current_range_meters":16400,"station_id":"ce4bhgp2rcd13ifvqfe0","pricing_plan_id":"cebpf4jnsgd1na2vs0mg"},{"bike_id":"ab11a49b-4e37-47b8-89a9-ad458b5c8503","system_id":"levelo_inurba_marseille","lat":43.27212,"lon":5.39184,"is_reserved":false,"is_disabled":false,"rental_uris":{"android":"levelo://app?vid=ab11a49b-4e37-47b8-89a9-ad458b5c8503","ios":"levelo://app?vid=ab11a49b-4e37-47b8-89a9-ad458b5c8503"},"vehicle_type_id":"4","last_reported":1729664032,"current_range_meters":38000,"station_id":"ce4bhhp2rcd13ifvqfm0","pricing_plan_id":"cebpf4jnsgd1na2vs0mg"},{"bike_id":"20e7c36a-90bd-4572-8543-6491ffe2f43e","system_id":"levelo_inurba_marseille","lat":43.24087,"lon":5.37747,"is_reserved":false,"is_disabled":false,"rental_uris":{"android":"levelo://app?vid=20e7c36a-90bd-4572-8543-6491ffe2f43e","ios":"levelo://app?vid=20e7c36a-90bd-4572-8543-6491ffe2f43e"},"vehicle_type_id":"4","last_reported":1729664032,"current_range_meters":37600,"station_id":"ce4bhnp2rcd13ifvqgvg","pricing_plan_id":"cebpf4jnsgd1na2vs0mg"},{"bike_id":"9b87b773-e061-40be-b290-ce236cd5d49c","system_id":"levelo_inurba_marseille","lat":43.28406,"lon":5.3752,"is_reserved":false,"is_disabled":false,"rental_uris":{"android":"levelo://app?vid=9b87b773-e061-40be-b290-ce236cd5d49c","ios":"levelo://app?vid=9b87b773-e061-40be-b290-ce236cd5d49c"},"vehicle_type_id":"4","last_reported":1729664032,"current_range_meters":38800,"station_id":"ce4bh412rcd13ifvqds0","pricing_plan_id":"cebpf4jnsgd1na2vs0mg"},{"bike_id":"09f43649-59af-4bd3-b982-5fe0c64b82fe","system_id":"levelo_inurba_marseille","lat":43.23189,"lon":5.39977,"is_reserved":false,"is_disabled":false,"rental_uris":{"android":"levelo://app?vid=09f43649-59af-4bd3-b982-5fe0c64b82fe","ios":"levelo://app?vid=09f43649-59af-4bd3-b982-5fe0c64b82fe"},"vehicle_type_id":"4","last_reported":1729664032,"current_range_meters":38800,"station_id":"ce4bhn12rcd13ifvqgqg","pricing_plan_id":"cebpf4jnsgd1na2vs0mg"},{"bike_id":"f4f4cedb-ee30-4d0e-addd-0835963f6da5","system_id":"levelo_inurba_marseille","lat":43.2948,"lon":5.44396,"is_reserved":false,"is_disabled":false,"rental_uris":{"android":"levelo://app?vid=f4f4cedb-ee30-4d0e-addd-0835963f6da5","ios":"levelo://app?vid=f4f4cedb-ee30-4d0e-addd-0835963f6da5"},"vehicle_type_id":"4","last_reported":1729664032,"current_range_meters":3200,"station_id":"","pricing_plan_id":"cebpf4jnsgd1na2vs0mg"},{"bike_id":"59c0bf37-891b-4db8-8fe1-87e51af2fc26","system_id":"levelo_inurba_marseille","lat":43.31353,"lon":5.36734,"is_reserved":false,"is_disabled":false,"rental_uris":{"android":"levelo://app?vid=59c0bf37-891b-4db8-8fe1-87e51af2fc26","ios":"levelo://app?vid=59c0bf37-891b-4db8-8fe1-87e51af2fc26"},"vehicle_type_id":"4","last_reported":1729664032,"current_range_meters":16400,"station_id":"ce4bgr92rcd13ifvqc6g","pricing_plan_id":"cebpf4jnsgd1na2vs0mg"},{"bike_id":"59acee9b-46d5-47ee-b9e8-f9a15fa68f28","system_id":"levelo_inurba_marseille","lat":43.30926,"lon":5.40139,"is_reserved":false,"is_disabled":false,"rental_uris":{"android":"levelo://app?vid=59acee9b-46d5-47ee-b9e8-f9a15fa68f28","ios":"levelo://app?vid=59acee9b-46d5-47ee-b9e8-f9a15fa68f28"},"vehicle_type_id":"4","last_reported":1729664032,"current_range_meters":30400,"station_id":"ce4bgvp2rcd13ifvqct0","pricing_plan_id":"cebpf4jnsgd1na2vs0mg"},{"bike_id":"bc74935d-1660-44e5-bf16-e520e3b64275","system_id":"levelo_inurba_marseille","lat":43.29205,"lon":5.36896,"is_reserved":false,"is_disabled":false,"rental_uris":{"android":"levelo://app?vid=bc74935d-1660-44e5-bf16-e520e3b64275","ios":"levelo://app?vid=bc74935d-1660-44e5-bf16-e520e3b64275"},"vehicle_type_id":"4","last_reported":1729664032,"current_range_meters":12800,"station_id":"","pricing_plan_id":"cebpf4jnsgd1na2vs0mg"},{"bike_id":"74324d84-82ca-48ad-b8ea-8d9ecfb5cf19","system_id":"levelo_inurba_marseille","lat":43.32745,"lon":5.42404,"is_reserved":false,"is_disabled":false,"rental_uris":{"android":"levelo://app?vid=74324d84-82ca-48ad-b8ea-8d9ecfb5cf19","ios":"levelo://app?vid=74324d84-82ca-48ad-b8ea-8d9ecfb5cf19"},"vehicle_type_id":"4","last_reported":1729664032,"current_range_meters":30800,"station_id":"","pricing_plan_id":"cebpf4jnsgd1na2vs0mg"},{"bike_id":"ac16ead3-cd01-4d34-814a-2a0ce3747710","system_id":"levelo_inurba_marseille","lat":43.2594,"lon":5.4091,"is_reserved":false,"is_disabled":false,"rental_uris":{"android":"levelo://app?vid=ac16ead3-cd01-4d34-814a-2a0ce3747710","ios":"levelo://app?vid=ac16ead3-cd01-4d34-814a-2a0ce3747710"},"vehicle_type_id":"4","last_reported":1729664032,"current_range_meters":27600,"station_id":"ce4bhm92rcd13ifvqglg","pricing_plan_id":"cebpf4jnsgd1na2vs0mg"},{"bike_id":"4a4b0336-40d5-4ca4-8b0f-a93ccb1004f6","system_id":"levelo_inurba_marseille","lat":43.30161,"lon":5.38092,"is_reserved":false,"is_disabled":false,"rental_uris":{"android":"levelo://app?vid=4a4b0336-40d5-4ca4-8b0f-a93ccb1004f6","ios":"levelo://app?vid=4a4b0336-40d5-4ca4-8b0f-a93ccb1004f6"},"vehicle_type_id":"4","last_reported":1729664032,"current_range_meters":29600,"station_id":"ce4bgjp2rcd13ifvqbh0","pricing_plan_id":"cebpf4jnsgd1na2vs0mg"},{"bike_id":"4139e4d0-4bc2-45e4-b5c8-820648744460","system_id":"levelo_inurba_marseille","lat":43.32663,"lon":5.40986,"is_reserved":false,"is_disabled":false,"rental_uris":{"android":"levelo://app?vid=4139e4d0-4bc2-45e4-b5c8-820648744460","ios":"levelo://app?vid=4139e4d0-4bc2-45e4-b5c8-820648744460"},"vehicle_type_id":"4","last_reported":1729664032,"current_range_meters":27200,"station_id":"ce4bhpp2rcd13ifvqhgg","pricing_plan_id":"cebpf4jnsgd1na2vs0mg"},{"bike_id":"a991f615-8955-4f2a-a39b-561fde3684b5","system_id":"levelo_inurba_marseille","lat":43.31754,"lon":5.39021,"is_reserved":false,"is_disabled":false,"rental_uris":{"android":"levelo://app?vid=a991f615-8955-4f2a-a39b-561fde3684b5","ios":"levelo://app?vid=a991f615-8955-4f2a-a39b-561fde3684b5"},"vehicle_type_id":"4","last_reported":1729664032,"current_range_meters":38000,"station_id":"ce4bhqp2rcd13ifvqhng","pricing_plan_id":"cebpf4jnsgd1na2vs0mg"},{"bike_id":"ff51567e-8a66-45f2-9fe1-12a8225c280d","system_id":"levelo_inurba_marseille","lat":43.30152,"lon":5.3807,"is_reserved":false,"is_disabled":false,"rental_uris":{"android":"levelo://app?vid=ff51567e-8a66-45f2-9fe1-12a8225c280d","ios":"levelo://app?vid=ff51567e-8a66-45f2-9fe1-12a8225c280d"},"vehicle_type_id":"4","last_reported":1729664032,"current_range_meters":28000,"station_id":"ce4bgjp2rcd13ifvqbh0","pricing_plan_id":"cebpf4jnsgd1na2vs0mg"},{"bike_id":"346b4736-f50b-4148-86a3-e7e011d04e73","system_id":"levelo_inurba_marseille","lat":43.27493,"lon":5.42452,"is_reserved":false,"is_disabled":false,"rental_uris":{"android":"levelo://app?vid=346b4736-f50b-4148-86a3-e7e011d04e73","ios":"levelo://app?vid=346b4736-f50b-4148-86a3-e7e011d04e73"},"vehicle_type_id":"4","last_reported":1729664032,"current_range_meters":31200,"station_id":"ce4bhn92rcd13ifvqgrg","pricing_plan_id":"cebpf4jnsgd1na2vs0mg"},{"bike_id":"61c0467d-b366-4147-9710-05907f82d753","system_id":"levelo_inurba_marseille","lat":43.28547,"lon":5.39141,"is_reserved":false,"is_disabled":false,"rental_uris":{"android":"levelo://app?vid=61c0467d-b366-4147-9710-05907f82d753","ios":"levelo://app?vid=61c0467d-b366-4147-9710-05907f82d753"},"vehicle_type_id":"4","last_reported":1729664032,"current_range_meters":6800,"station_id":"ce4bhoh2rcd13ifvqh5g","pricing_plan_id":"cebpf4jnsgd1na2vs0mg"},{"bike_id":"2f79e225-006c-421c-bea6-976fe78b8358","system_id":"levelo_inurba_marseille","lat":43.28156,"lon":5.42645,"is_reserved":false,"is_disabled":false,"rental_uris":{"android":"levelo://app?vid=2f79e225-006c-421c-bea6-976fe78b8358","ios":"levelo://app?vid=2f79e225-006c-421c-bea6-976fe78b8358"},"vehicle_type_id":"4","last_reported":1729664032,"current_range_meters":38800,"station_id":"ce4bhnh2rcd13ifvqgug","pricing_plan_id":"cebpf4jnsgd1na2vs0mg"},{"bike_id":"12135bd2-d32b-400b-8854-bf0b9249966d","system_id":"levelo_inurba_marseille","lat":43.25932,"lon":5.40916,"is_reserved":false,"is_disabled":false,"rental_uris":{"android":"levelo://app?vid=12135bd2-d32b-400b-8854-bf0b9249966d","ios":"levelo://app?vid=12135bd2-d32b-400b-8854-bf0b9249966d"},"vehicle_type_id":"4","last_reported":1729664032,"current_range_meters":24800,"station_id":"ce4bhm92rcd13ifvqglg","pricing_plan_id":"cebpf4jnsgd1na2vs0mg"},{"bike_id":"a43686e3-0069-495e-bb66-f12ba02ee769","system_id":"levelo_inurba_marseille","lat":43.30363,"lon":5.41889,"is_reserved":false,"is_disabled":false,"rental_uris":{"android":"levelo://app?vid=a43686e3-0069-495e-bb66-f12ba02ee769","ios":"levelo://app?vid=a43686e3-0069-495e-bb66-f12ba02ee769"},"vehicle_type_id":"4","last_reported":1729664032,"current_range_meters":38800,"station_id":"ce4bhop2rcd13ifvqh7g","pricing_plan_id":"cebpf4jnsgd1na2vs0mg"},{"bike_id":"9639bebd-201e-4b55-9187-2633b106e19c","system_id":"levelo_inurba_marseille","lat":43.33028,"lon":5.3904,"is_reserved":false,"is_disabled":false,"rental_uris":{"android":"levelo://app?vid=9639bebd-201e-4b55-9187-2633b106e19c","ios":"levelo://app?vid=9639bebd-201e-4b55-9187-2633b106e19c"},"vehicle_type_id":"4","last_reported":1729664032,"current_range_meters":30000,"station_id":"ce4bhr92rcd13ifvqhrg","pricing_plan_id":"cebpf4jnsgd1na2vs0mg"},{"bike_id":"a6ef77b6-ccc9-41b0-8272-3478a6980024","system_id":"levelo_inurba_marseille","lat":43.31339,"lon":5.36716,"is_reserved":false,"is_disabled":false,"rental_uris":{"android":"levelo://app?vid=a6ef77b6-ccc9-41b0-8272-3478a6980024","ios":"levelo://app?vid=a6ef77b6-ccc9-41b0-8272-3478a6980024"},"vehicle_type_id":"4","last_reported":1729664032,"current_range_meters":30800,"station_id":"ce4bgr92rcd13ifvqc6g","pricing_plan_id":"cebpf4jnsgd1na2vs0mg"},{"bike_id":"a6bdef88-770e-4f37-8f5f-221f0cf85086","system_id":"levelo_inurba_marseille","lat":43.31538,"lon":5.38027,"is_reserved":false,"is_disabled":false,"rental_uris":{"android":"levelo://app?vid=a6bdef88-770e-4f37-8f5f-221f0cf85086","ios":"levelo://app?vid=a6bdef88-770e-4f37-8f5f-221f0cf85086"},"vehicle_type_id":"4","last_reported":1729664032,"current_range_meters":30400,"station_id":"ce4bhsp2rcd13ifvqi50","pricing_plan_id":"cebpf4jnsgd1na2vs0mg"},{"bike_id":"811191e5-cc25-4cbc-8223-3edb3c339d60","system_id":"levelo_inurba_marseille","lat":43.30468,"lon":5.379,"is_reserved":false,"is_disabled":false,"rental_uris":{"android":"levelo://app?vid=811191e5-cc25-4cbc-8223-3edb3c339d60","ios":"levelo://app?vid=811191e5-cc25-4cbc-8223-3edb3c339d60"},"vehicle_type_id":"4","last_reported":1729664032,"current_range_meters":36800,"station_id":"ce4bgup2rcd13ifvqcn0","pricing_plan_id":"cebpf4jnsgd1na2vs0mg"},{"bike_id":"c2ce141d-6e76-44dc-931b-253d09157587","system_id":"levelo_inurba_marseille","lat":43.25007,"lon":5.38934,"is_reserved":false,"is_disabled":false,"rental_uris":{"android":"levelo://app?vid=c2ce141d-6e76-44dc-931b-253d09157587","ios":"levelo://app?vid=c2ce141d-6e76-44dc-931b-253d09157587"},"vehicle_type_id":"4","last_reported":1729664032,"current_range_meters":38800,"station_id":"ce4bhgp2rcd13ifvqfd0","pricing_plan_id":"cebpf4jnsgd1na2vs0mg"},{"bike_id":"11256fd2-b537-43fb-8f2f-2312433c9979","system_id":"levelo_inurba_marseille","lat":43.28105,"lon":5.37842,"is_reserved":false,"is_disabled":false,"rental_uris":{"android":"levelo://app?vid=11256fd2-b537-43fb-8f2f-2312433c9979","ios":"levelo://app?vid=11256fd2-b537-43fb-8f2f-2312433c9979"},"vehicle_type_id":"4","last_reported":1729664032,"current_range_meters":6400,"station_id":"ce4bha12rcd13ifvqee0","pricing_plan_id":"cebpf4jnsgd1na2vs0mg"},{"bike_id":"3ddb0681-ec1a-4b55-a6b1-08a04d79207d","system_id":"levelo_inurba_marseille","lat":43.30305,"lon":5.36916,"is_reserved":false,"is_disabled":false,"rental_uris":{"android":"levelo://app?vid=3ddb0681-ec1a-4b55-a6b1-08a04d79207d","ios":"levelo://app?vid=3ddb0681-ec1a-4b55-a6b1-08a04d79207d"},"vehicle_type_id":"4","last_reported":1729664032,"current_range_meters":16400,"station_id":"ce4bgqh2rcd13ifvqc5g","pricing_plan_id":"cebpf4jnsgd1na2vs0mg"},{"bike_id":"408223fe-0604-4879-9b68-36acb12c66f7","system_id":"levelo_inurba_marseille","lat":43.2841,"lon":5.37515,"is_reserved":false,"is_disabled":false,"rental_uris":{"android":"levelo://app?vid=408223fe-0604-4879-9b68-36acb12c66f7","ios":"levelo://app?vid=408223fe-0604-4879-9b68-36acb12c66f7"},"vehicle_type_id":"4","last_reported":1729664032,"current_range_meters":38000,"station_id":"ce4bh412rcd13ifvqds0","pricing_plan_id":"cebpf4jnsgd1na2vs0mg"},{"bike_id":"8cc9b489-a2de-4b20-aa93-f1879e7ab37b","system_id":"levelo_inurba_marseille","lat":43.306447,"lon":5.400744,"is_reserved":false,"is_disabled":false,"rental_uris":{"android":"levelo://app?vid=8cc9b489-a2de-4b20-aa93-f1879e7ab37b","ios":"levelo://app?vid=8cc9b489-a2de-4b20-aa93-f1879e7ab37b"},"vehicle_type_id":"4","last_reported":1729664032,"current_range_meters":36000,"station_id":"ce4bh112rcd13ifvqda0","pricing_plan_id":"cebpf4jnsgd1na2vs0mg"},{"bike_id":"330c47a5-4df7-419f-83d2-1d8ef0b49212","system_id":"levelo_inurba_marseille","lat":43.28479,"lon":5.38409,"is_reserved":false,"is_disabled":false,"rental_uris":{"android":"levelo://app?vid=330c47a5-4df7-419f-83d2-1d8ef0b49212","ios":"levelo://app?vid=330c47a5-4df7-419f-83d2-1d8ef0b49212"},"vehicle_type_id":"4","last_reported":1729664032,"current_range_meters":28800,"station_id":"ce4bh512rcd13ifvqe3g","pricing_plan_id":"cebpf4jnsgd1na2vs0mg"},{"bike_id":"758c8815-d6d1-4eb0-87f2-4abe41c5d6cf","system_id":"levelo_inurba_marseille","lat":43.29555,"lon":5.42282,"is_reserved":false,"is_disabled":false,"rental_uris":{"android":"levelo://app?vid=758c8815-d6d1-4eb0-87f2-4abe41c5d6cf","ios":"levelo://app?vid=758c8815-d6d1-4eb0-87f2-4abe41c5d6cf"},"vehicle_type_id":"4","last_reported":1729664032,"current_range_meters":25600,"station_id":"ce4bhph2rcd13ifvqhdg","pricing_plan_id":"cebpf4jnsgd1na2vs0mg"},{"bike_id":"864575c1-85b8-4008-92ba-391073d4ed51","system_id":"levelo_inurba_marseille","lat":43.23194,"lon":5.35545,"is_reserved":false,"is_disabled":false,"rental_uris":{"android":"levelo://app?vid=864575c1-85b8-4008-92ba-391073d4ed51","ios":"levelo://app?vid=864575c1-85b8-4008-92ba-391073d4ed51"},"vehicle_type_id":"4","last_reported":1729664032,"current_range_meters":19600,"station_id":"ce4bhu92rcd13ifvqi70","pricing_plan_id":"cebpf4jnsgd1na2vs0mg"},{"bike_id":"23898820-4306-45f1-9da4-3bd6b163682b","system_id":"levelo_inurba_marseille","lat":43.27496,"lon":5.42451,"is_reserved":false,"is_disabled":false,"rental_uris":{"android":"levelo://app?vid=23898820-4306-45f1-9da4-3bd6b163682b","ios":"levelo://app?vid=23898820-4306-45f1-9da4-3bd6b163682b"},"vehicle_type_id":"4","last_reported":1729664032,"current_range_meters":33600,"station_id":"ce4bhn92rcd13ifvqgrg","pricing_plan_id":"cebpf4jnsgd1na2vs0mg"},{"bike_id":"2b6b36f0-918c-4869-bfa8-cd3d9c833656","system_id":"levelo_inurba_marseille","lat":43.24624,"lon":5.41948,"is_reserved":false,"is_disabled":false,"rental_uris":{"android":"levelo://app?vid=2b6b36f0-918c-4869-bfa8-cd3d9c833656","ios":"levelo://app?vid=2b6b36f0-918c-4869-bfa8-cd3d9c833656"},"vehicle_type_id":"4","last_reported":1729664032,"current_range_meters":30800,"station_id":"","pricing_plan_id":"cebpf4jnsgd1na2vs0mg"},{"bike_id":"f50406a4-c43e-4a8e-8d40-d2fe94382454","system_id":"levelo_inurba_marseille","lat":43.27995,"lon":5.40021,"is_reserved":false,"is_disabled":false,"rental_uris":{"android":"levelo://app?vid=f50406a4-c43e-4a8e-8d40-d2fe94382454","ios":"levelo://app?vid=f50406a4-c43e-4a8e-8d40-d2fe94382454"},"vehicle_type_id":"4","last_reported":1729664032,"current_range_meters":39200,"station_id":"ce4bho92rcd13ifvqh4g","pricing_plan_id":"cebpf4jnsgd1na2vs0mg"},{"bike_id":"1104643c-4b3a-4d82-83c1-b7fa66e5b21d","system_id":"levelo_inurba_marseille","lat":43.25936,"lon":5.40912,"is_reserved":false,"is_disabled":false,"rental_uris":{"android":"levelo://app?vid=1104643c-4b3a-4d82-83c1-b7fa66e5b21d","ios":"levelo://app?vid=1104643c-4b3a-4d82-83c1-b7fa66e5b21d"},"vehicle_type_id":"4","last_reported":1729664032,"current_range_meters":21600,"station_id":"ce4bhm92rcd13ifvqglg","pricing_plan_id":"cebpf4jnsgd1na2vs0mg"},{"bike_id":"5b58dcfb-5507-4a17-8cb8-8f66d7e06861","system_id":"levelo_inurba_marseille","lat":43.2319,"lon":5.39977,"is_reserved":false,"is_disabled":false,"rental_uris":{"android":"levelo://app?vid=5b58dcfb-5507-4a17-8cb8-8f66d7e06861","ios":"levelo://app?vid=5b58dcfb-5507-4a17-8cb8-8f66d7e06861"},"vehicle_type_id":"4","last_reported":1729664032,"current_range_meters":38800,"station_id":"ce4bhn12rcd13ifvqgqg","pricing_plan_id":"cebpf4jnsgd1na2vs0mg"},{"bike_id":"44e60a5f-30f6-4e2e-b454-0fb16fcb08fa","system_id":"levelo_inurba_marseille","lat":43.24075,"lon":5.37766,"is_reserved":false,"is_disabled":false,"rental_uris":{"android":"levelo://app?vid=44e60a5f-30f6-4e2e-b454-0fb16fcb08fa","ios":"levelo://app?vid=44e60a5f-30f6-4e2e-b454-0fb16fcb08fa"},"vehicle_type_id":"4","last_reported":1729664032,"current_range_meters":31200,"station_id":"ce4bhnp2rcd13ifvqgvg","pricing_plan_id":"cebpf4jnsgd1na2vs0mg"},{"bike_id":"b18fa4b6-f955-4010-adf6-58434c900536","system_id":"levelo_inurba_marseille","lat":43.31756,"lon":5.39014,"is_reserved":false,"is_disabled":false,"rental_uris":{"android":"levelo://app?vid=b18fa4b6-f955-4010-adf6-58434c900536","ios":"levelo://app?vid=b18fa4b6-f955-4010-adf6-58434c900536"},"vehicle_type_id":"4","last_reported":1729664032,"current_range_meters":23200,"station_id":"ce4bhqp2rcd13ifvqhng","pricing_plan_id":"cebpf4jnsgd1na2vs0mg"},{"bike_id":"b8e95859-8e18-4ff1-81a5-31750270a5ac","system_id":"levelo_inurba_marseille","lat":43.26209,"lon":5.37438,"is_reserved":false,"is_disabled":false,"rental_uris":{"android":"levelo://app?vid=b8e95859-8e18-4ff1-81a5-31750270a5ac","ios":"levelo://app?vid=b8e95859-8e18-4ff1-81a5-31750270a5ac"},"vehicle_type_id":"4","last_reported":1729664032,"current_range_meters":38400,"station_id":"ce4bhgp2rcd13ifvqfc0","pricing_plan_id":"cebpf4jnsgd1na2vs0mg"},{"bike_id":"c803187e-448f-4d8d-ad3a-ff36110a20d0","system_id":"levelo_inurba_marseille","lat":43.31365,"lon":5.36689,"is_reserved":false,"is_disabled":false,"rental_uris":{"android":"levelo://app?vid=c803187e-448f-4d8d-ad3a-ff36110a20d0","ios":"levelo://app?vid=c803187e-448f-4d8d-ad3a-ff36110a20d0"},"vehicle_type_id":"4","last_reported":1729664032,"current_range_meters":39200,"station_id":"ce4bgr92rcd13ifvqc6g","pricing_plan_id":"cebpf4jnsgd1na2vs0mg"},{"bike_id":"c413ad6c-cf46-4859-abe4-08b1dee491ed","system_id":"levelo_inurba_marseille","lat":43.29843,"lon":5.36269,"is_reserved":false,"is_disabled":false,"rental_uris":{"android":"levelo://app?vid=c413ad6c-cf46-4859-abe4-08b1dee491ed","ios":"levelo://app?vid=c413ad6c-cf46-4859-abe4-08b1dee491ed"},"vehicle_type_id":"4","last_reported":1729664032,"current_range_meters":24400,"station_id":"ce4bgpp2rcd13ifvqc3g","pricing_plan_id":"cebpf4jnsgd1na2vs0mg"},{"bike_id":"e64f917e-39a9-4324-8dd2-09ac776b9a36","system_id":"levelo_inurba_marseille","lat":43.278379,"lon":5.392088,"is_reserved":false,"is_disabled":false,"rental_uris":{"android":"levelo://app?vid=e64f917e-39a9-4324-8dd2-09ac776b9a36","ios":"levelo://app?vid=e64f917e-39a9-4324-8dd2-09ac776b9a36"},"vehicle_type_id":"4","last_reported":1729664032,"current_range_meters":34000,"station_id":"ce4bhjp2rcd13ifvqga0","pricing_plan_id":"cebpf4jnsgd1na2vs0mg"},{"bike_id":"078596b5-8f86-4cd1-92b7-cc131f7d8fa3","system_id":"levelo_inurba_marseille","lat":43.34138,"lon":5.40899,"is_reserved":false,"is_disabled":false,"rental_uris":{"android":"levelo://app?vid=078596b5-8f86-4cd1-92b7-cc131f7d8fa3","ios":"levelo://app?vid=078596b5-8f86-4cd1-92b7-cc131f7d8fa3"},"vehicle_type_id":"4","last_reported":1729664032,"current_range_meters":28800,"station_id":"ce4bhqh2rcd13ifvqhlg","pricing_plan_id":"cebpf4jnsgd1na2vs0mg"},{"bike_id":"b48f8c2d-a05e-4cee-bf57-4525735200ad","system_id":"levelo_inurba_marseille","lat":43.267155,"lon":5.381974,"is_reserved":false,"is_disabled":false,"rental_uris":{"android":"levelo://app?vid=b48f8c2d-a05e-4cee-bf57-4525735200ad","ios":"levelo://app?vid=b48f8c2d-a05e-4cee-bf57-4525735200ad"},"vehicle_type_id":"4","last_reported":1729664032,"current_range_meters":34800,"station_id":"ce4bhg92rcd13ifvqf90","pricing_plan_id":"cebpf4jnsgd1na2vs0mg"},{"bike_id":"7ab937c1-e2b6-4d72-9c4f-edb3fea9f916","system_id":"levelo_inurba_marseille","lat":43.2755,"lon":5.38423,"is_reserved":false,"is_disabled":false,"rental_uris":{"android":"levelo://app?vid=7ab937c1-e2b6-4d72-9c4f-edb3fea9f916","ios":"levelo://app?vid=7ab937c1-e2b6-4d72-9c4f-edb3fea9f916"},"vehicle_type_id":"4","last_reported":1729664032,"current_range_meters":11200,"station_id":"ce4bhh92rcd13ifvqfi0","pricing_plan_id":"cebpf4jnsgd1na2vs0mg"},{"bike_id":"e8a14ba7-1d21-4b6c-beaa-9bb23fafeb61","system_id":"levelo_inurba_marseille","lat":43.30549,"lon":5.36707,"is_reserved":false,"is_disabled":false,"rental_uris":{"android":"levelo://app?vid=e8a14ba7-1d21-4b6c-beaa-9bb23fafeb61","ios":"levelo://app?vid=e8a14ba7-1d21-4b6c-beaa-9bb23fafeb61"},"vehicle_type_id":"4","last_reported":1729664032,"current_range_meters":38800,"station_id":"ce4bgrp2rcd13ifvqc9g","pricing_plan_id":"cebpf4jnsgd1na2vs0mg"},{"bike_id":"303e4402-c78b-4934-b704-884416136125","system_id":"levelo_inurba_marseille","lat":43.27372,"lon":5.36252,"is_reserved":false,"is_disabled":false,"rental_uris":{"android":"levelo://app?vid=303e4402-c78b-4934-b704-884416136125","ios":"levelo://app?vid=303e4402-c78b-4934-b704-884416136125"},"vehicle_type_id":"4","last_reported":1729664032,"current_range_meters":38000,"station_id":"ce4bhbh2rcd13ifvqeo0","pricing_plan_id":"cebpf4jnsgd1na2vs0mg"},{"bike_id":"79a1e020-318b-42a1-a8c0-a424b1daf69e","system_id":"levelo_inurba_marseille","lat":43.296,"lon":5.36142,"is_reserved":false,"is_disabled":false,"rental_uris":{"android":"levelo://app?vid=79a1e020-318b-42a1-a8c0-a424b1daf69e","ios":"levelo://app?vid=79a1e020-318b-42a1-a8c0-a424b1daf69e"},"vehicle_type_id":"4","last_reported":1729664032,"current_range_meters":2800,"station_id":"","pricing_plan_id":"cebpf4jnsgd1na2vs0mg"},{"bike_id":"135cebe9-ffee-4a96-8e19-ff8188d72ddd","system_id":"levelo_inurba_marseille","lat":43.24392,"lon":5.37059,"is_reserved":false,"is_disabled":false,"rental_uris":{"android":"levelo://app?vid=135cebe9-ffee-4a96-8e19-ff8188d72ddd","ios":"levelo://app?vid=135cebe9-ffee-4a96-8e19-ff8188d72ddd"},"vehicle_type_id":"4","last_reported":1729664032,"current_range_meters":38400,"station_id":"ce4bhhh2rcd13ifvqfk0","pricing_plan_id":"cebpf4jnsgd1na2vs0mg"},{"bike_id":"acaa65b8-5945-4836-8149-16f22818cf43","system_id":"levelo_inurba_marseille","lat":43.30478,"lon":5.37897,"is_reserved":false,"is_disabled":false,"rental_uris":{"android":"levelo://app?vid=acaa65b8-5945-4836-8149-16f22818cf43","ios":"levelo://app?vid=acaa65b8-5945-4836-8149-16f22818cf43"},"vehicle_type_id":"4","last_reported":1729664032,"current_range_meters":35200,"station_id":"ce4bgup2rcd13ifvqcn0","pricing_plan_id":"cebpf4jnsgd1na2vs0mg"},{"bike_id":"b1e07d60-b1cf-498a-ae75-e31d4341ceeb","system_id":"levelo_inurba_marseille","lat":43.29302,"lon":5.3747,"is_reserved":false,"is_disabled":false,"rental_uris":{"android":"levelo://app?vid=b1e07d60-b1cf-498a-ae75-e31d4341ceeb","ios":"levelo://app?vid=b1e07d60-b1cf-498a-ae75-e31d4341ceeb"},"vehicle_type_id":"4","last_reported":1729664032,"current_range_meters":36000,"station_id":"ce4bgi12rcd13ifvqb70","pricing_plan_id":"cebpf4jnsgd1na2vs0mg"},{"bike_id":"886e5468-77e3-44e0-b46f-e5786a0eddac","system_id":"levelo_inurba_marseille","lat":43.26217,"lon":5.37443,"is_reserved":false,"is_disabled":false,"rental_uris":{"android":"levelo://app?vid=886e5468-77e3-44e0-b46f-e5786a0eddac","ios":"levelo://app?vid=886e5468-77e3-44e0-b46f-e5786a0eddac"},"vehicle_type_id":"4","last_reported":1729664032,"current_range_meters":38800,"station_id":"ce4bhgp2rcd13ifvqfc0","pricing_plan_id":"cebpf4jnsgd1na2vs0mg"},{"bike_id":"716edba0-6db1-4a49-8222-aa20771a7bb5","system_id":"levelo_inurba_marseille","lat":43.29314,"lon":5.37172,"is_reserved":false,"is_disabled":false,"rental_uris":{"android":"levelo://app?vid=716edba0-6db1-4a49-8222-aa20771a7bb5","ios":"levelo://app?vid=716edba0-6db1-4a49-8222-aa20771a7bb5"},"vehicle_type_id":"4","last_reported":1729664032,"current_range_meters":6000,"station_id":"ce4bgh92rcd13ifvqb40","pricing_plan_id":"cebpf4jnsgd1na2vs0mg"},{"bike_id":"e20eacab-28c4-4862-9c97-caa408edf48c","system_id":"levelo_inurba_marseille","lat":43.23188,"lon":5.39995,"is_reserved":false,"is_disabled":false,"rental_uris":{"android":"levelo://app?vid=e20eacab-28c4-4862-9c97-caa408edf48c","ios":"levelo://app?vid=e20eacab-28c4-4862-9c97-caa408edf48c"},"vehicle_type_id":"4","last_reported":1729664032,"current_range_meters":24800,"station_id":"ce4bhn12rcd13ifvqgqg","pricing_plan_id":"cebpf4jnsgd1na2vs0mg"},{"bike_id":"26dd2d29-ae2b-42db-8ac6-529a5fde5f78","system_id":"levelo_inurba_marseille","lat":43.306,"lon":5.37215,"is_reserved":false,"is_disabled":false,"rental_uris":{"android":"levelo://app?vid=26dd2d29-ae2b-42db-8ac6-529a5fde5f78","ios":"levelo://app?vid=26dd2d29-ae2b-42db-8ac6-529a5fde5f78"},"vehicle_type_id":"4","last_reported":1729664032,"current_range_meters":34800,"station_id":"ce4bgqh2rcd13ifvqc4g","pricing_plan_id":"cebpf4jnsgd1na2vs0mg"},{"bike_id":"c17f9f24-29ac-44f5-8f44-c019009eaeeb","system_id":"levelo_inurba_marseille","lat":43.24102,"lon":5.37385,"is_reserved":false,"is_disabled":false,"rental_uris":{"android":"levelo://app?vid=c17f9f24-29ac-44f5-8f44-c019009eaeeb","ios":"levelo://app?vid=c17f9f24-29ac-44f5-8f44-c019009eaeeb"},"vehicle_type_id":"4","last_reported":1729664032,"current_range_meters":4800,"station_id":"","pricing_plan_id":"cebpf4jnsgd1na2vs0mg"},{"bike_id":"208550b4-52eb-4410-8768-ea979fd82b92","system_id":"levelo_inurba_marseille","lat":43.30244,"lon":5.4005,"is_reserved":false,"is_disabled":false,"rental_uris":{"android":"levelo://app?vid=208550b4-52eb-4410-8768-ea979fd82b92","ios":"levelo://app?vid=208550b4-52eb-4410-8768-ea979fd82b92"},"vehicle_type_id":"4","last_reported":1729664032,"current_range_meters":34000,"station_id":"ce4bgvh2rcd13ifvqcs0","pricing_plan_id":"cebpf4jnsgd1na2vs0mg"},{"bike_id":"14cfd534-16e4-42fd-9ce8-3a01bdefbe4c","system_id":"levelo_inurba_marseille","lat":43.30647,"lon":5.40074,"is_reserved":false,"is_disabled":false,"rental_uris":{"android":"levelo://app?vid=14cfd534-16e4-42fd-9ce8-3a01bdefbe4c","ios":"levelo://app?vid=14cfd534-16e4-42fd-9ce8-3a01bdefbe4c"},"vehicle_type_id":"4","last_reported":1729664032,"current_range_meters":30800,"station_id":"ce4bh112rcd13ifvqda0","pricing_plan_id":"cebpf4jnsgd1na2vs0mg"},{"bike_id":"613aa6f4-aad3-41a9-9677-535c3649b029","system_id":"levelo_inurba_marseille","lat":43.300769,"lon":5.374358,"is_reserved":false,"is_disabled":false,"rental_uris":{"android":"levelo://app?vid=613aa6f4-aad3-41a9-9677-535c3649b029","ios":"levelo://app?vid=613aa6f4-aad3-41a9-9677-535c3649b029"},"vehicle_type_id":"4","last_reported":1729664032,"current_range_meters":36800,"station_id":"ce4bgt92rcd13ifvqcg0","pricing_plan_id":"cebpf4jnsgd1na2vs0mg"},{"bike_id":"f7436227-8593-4258-8d76-388d13547bae","system_id":"levelo_inurba_marseille","lat":43.3361,"lon":5.41039,"is_reserved":false,"is_disabled":false,"rental_uris":{"android":"levelo://app?vid=f7436227-8593-4258-8d76-388d13547bae","ios":"levelo://app?vid=f7436227-8593-4258-8d76-388d13547bae"},"vehicle_type_id":"4","last_reported":1729664032,"current_range_meters":16400,"station_id":"ce4bhqh2rcd13ifvqhmg","pricing_plan_id":"cebpf4jnsgd1na2vs0mg"},{"bike_id":"34be8e3a-eefe-496b-810d-162ce65754e0","system_id":"levelo_inurba_marseille","lat":43.23193,"lon":5.35552,"is_reserved":false,"is_disabled":false,"rental_uris":{"android":"levelo://app?vid=34be8e3a-eefe-496b-810d-162ce65754e0","ios":"levelo://app?vid=34be8e3a-eefe-496b-810d-162ce65754e0"},"vehicle_type_id":"4","last_reported":1729664032,"current_range_meters":38800,"station_id":"ce4bhu92rcd13ifvqi70","pricing_plan_id":"cebpf4jnsgd1na2vs0mg"},{"bike_id":"6f41eea1-82b9-4f57-9729-6d5b1a182422","system_id":"levelo_inurba_marseille","lat":43.31364,"lon":5.38495,"is_reserved":false,"is_disabled":false,"rental_uris":{"android":"levelo://app?vid=6f41eea1-82b9-4f57-9729-6d5b1a182422","ios":"levelo://app?vid=6f41eea1-82b9-4f57-9729-6d5b1a182422"},"vehicle_type_id":"4","last_reported":1729664032,"current_range_meters":15200,"station_id":"ce4bgt92rcd13ifvqcf0","pricing_plan_id":"cebpf4jnsgd1na2vs0mg"},{"bike_id":"90defe12-9ad0-4ed8-9049-013b77458a1d","system_id":"levelo_inurba_marseille","lat":43.29632,"lon":5.40598,"is_reserved":false,"is_disabled":false,"rental_uris":{"android":"levelo://app?vid=90defe12-9ad0-4ed8-9049-013b77458a1d","ios":"levelo://app?vid=90defe12-9ad0-4ed8-9049-013b77458a1d"},"vehicle_type_id":"4","last_reported":1729664032,"current_range_meters":39200,"station_id":"ce4bh0h2rcd13ifvqd60","pricing_plan_id":"cebpf4jnsgd1na2vs0mg"},{"bike_id":"0ac823a5-f565-4570-ae9b-5699dc09c7be","system_id":"levelo_inurba_marseille","lat":43.25503,"lon":5.3765,"is_reserved":false,"is_disabled":false,"rental_uris":{"android":"levelo://app?vid=0ac823a5-f565-4570-ae9b-5699dc09c7be","ios":"levelo://app?vid=0ac823a5-f565-4570-ae9b-5699dc09c7be"},"vehicle_type_id":"4","last_reported":1729664032,"current_range_meters":38800,"station_id":"ce4bhh12rcd13ifvqff0","pricing_plan_id":"cebpf4jnsgd1na2vs0mg"},{"bike_id":"e8c2a168-8bea-4b0a-a6f7-f69d491c925f","system_id":"levelo_inurba_marseille","lat":43.29977,"lon":5.38498,"is_reserved":false,"is_disabled":false,"rental_uris":{"android":"levelo://app?vid=e8c2a168-8bea-4b0a-a6f7-f69d491c925f","ios":"levelo://app?vid=e8c2a168-8bea-4b0a-a6f7-f69d491c925f"},"vehicle_type_id":"4","last_reported":1729664032,"current_range_meters":38000,"station_id":"ce4bgj92rcd13ifvqbd0","pricing_plan_id":"cebpf4jnsgd1na2vs0mg"},{"bike_id":"8e40ff46-40ee-4202-a615-be27d36b4e1d","system_id":"levelo_inurba_marseille","lat":43.33725,"lon":5.39178,"is_reserved":false,"is_disabled":false,"rental_uris":{"android":"levelo://app?vid=8e40ff46-40ee-4202-a615-be27d36b4e1d","ios":"levelo://app?vid=8e40ff46-40ee-4202-a615-be27d36b4e1d"},"vehicle_type_id":"4","last_reported":1729664032,"current_range_meters":37600,"station_id":"ce4bhr92rcd13ifvqhsg","pricing_plan_id":"cebpf4jnsgd1na2vs0mg"},{"bike_id":"0824ca51-dbbf-47f1-8a43-2612dbdf03a3","system_id":"levelo_inurba_marseille","lat":43.24077,"lon":5.37763,"is_reserved":false,"is_disabled":false,"rental_uris":{"android":"levelo://app?vid=0824ca51-dbbf-47f1-8a43-2612dbdf03a3","ios":"levelo://app?vid=0824ca51-dbbf-47f1-8a43-2612dbdf03a3"},"vehicle_type_id":"4","last_reported":1729664032,"current_range_meters":31200,"station_id":"ce4bhnp2rcd13ifvqgvg","pricing_plan_id":"cebpf4jnsgd1na2vs0mg"},{"bike_id":"cc2bf40a-c3a9-4fb3-8f4c-0570e51bda77","system_id":"levelo_inurba_marseille","lat":43.28409,"lon":5.37508,"is_reserved":false,"is_disabled":false,"rental_uris":{"android":"levelo://app?vid=cc2bf40a-c3a9-4fb3-8f4c-0570e51bda77","ios":"levelo://app?vid=cc2bf40a-c3a9-4fb3-8f4c-0570e51bda77"},"vehicle_type_id":"4","last_reported":1729664032,"current_range_meters":9200,"station_id":"ce4bh412rcd13ifvqds0","pricing_plan_id":"cebpf4jnsgd1na2vs0mg"},{"bike_id":"a8fd90e1-0f06-42a3-906b-c91cb727d214","system_id":"levelo_inurba_marseille","lat":43.26821,"lon":5.41107,"is_reserved":false,"is_disabled":false,"rental_uris":{"android":"levelo://app?vid=a8fd90e1-0f06-42a3-906b-c91cb727d214","ios":"levelo://app?vid=a8fd90e1-0f06-42a3-906b-c91cb727d214"},"vehicle_type_id":"4","last_reported":1729664032,"current_range_meters":9600,"station_id":"","pricing_plan_id":"cebpf4jnsgd1na2vs0mg"},{"bike_id":"1e4f408a-7823-4f21-aceb-d6709974f1c5","system_id":"levelo_inurba_marseille","lat":43.23196,"lon":5.35543,"is_reserved":false,"is_disabled":false,"rental_uris":{"android":"levelo://app?vid=1e4f408a-7823-4f21-aceb-d6709974f1c5","ios":"levelo://app?vid=1e4f408a-7823-4f21-aceb-d6709974f1c5"},"vehicle_type_id":"4","last_reported":1729664032,"current_range_meters":22800,"station_id":"ce4bhu92rcd13ifvqi70","pricing_plan_id":"cebpf4jnsgd1na2vs0mg"},{"bike_id":"a0749339-d409-4445-aa58-75b4673a0721","system_id":"levelo_inurba_marseille","lat":43.2558,"lon":5.38231,"is_reserved":false,"is_disabled":false,"rental_uris":{"android":"levelo://app?vid=a0749339-d409-4445-aa58-75b4673a0721","ios":"levelo://app?vid=a0749339-d409-4445-aa58-75b4673a0721"},"vehicle_type_id":"4","last_reported":1729664032,"current_range_meters":24800,"station_id":"ce4bhih2rcd13ifvqfs0","pricing_plan_id":"cebpf4jnsgd1na2vs0mg"},{"bike_id":"24c18e86-322d-4859-8f16-045cb881c275","system_id":"levelo_inurba_marseille","lat":43.30932,"lon":5.40141,"is_reserved":false,"is_disabled":false,"rental_uris":{"android":"levelo://app?vid=24c18e86-322d-4859-8f16-045cb881c275","ios":"levelo://app?vid=24c18e86-322d-4859-8f16-045cb881c275"},"vehicle_type_id":"4","last_reported":1729664032,"current_range_meters":33200,"station_id":"ce4bgvp2rcd13ifvqct0","pricing_plan_id":"cebpf4jnsgd1na2vs0mg"},{"bike_id":"29665abb-bb05-4470-bec8-a92af688bd5f","system_id":"levelo_inurba_marseille","lat":43.29564,"lon":5.42287,"is_reserved":false,"is_disabled":false,"rental_uris":{"android":"levelo://app?vid=29665abb-bb05-4470-bec8-a92af688bd5f","ios":"levelo://app?vid=29665abb-bb05-4470-bec8-a92af688bd5f"},"vehicle_type_id":"4","last_reported":1729664032,"current_range_meters":30400,"station_id":"ce4bhph2rcd13ifvqhdg","pricing_plan_id":"cebpf4jnsgd1na2vs0mg"},{"bike_id":"e90a0c7f-778f-4a16-9dac-6a8f1323b47e","system_id":"levelo_inurba_marseille","lat":43.30474,"lon":5.37922,"is_reserved":false,"is_disabled":false,"rental_uris":{"android":"levelo://app?vid=e90a0c7f-778f-4a16-9dac-6a8f1323b47e","ios":"levelo://app?vid=e90a0c7f-778f-4a16-9dac-6a8f1323b47e"},"vehicle_type_id":"4","last_reported":1729664032,"current_range_meters":28800,"station_id":"ce4bgup2rcd13ifvqcn0","pricing_plan_id":"cebpf4jnsgd1na2vs0mg"},{"bike_id":"89678c2c-8026-4258-a3b6-82c53d90da41","system_id":"levelo_inurba_marseille","lat":43.30152,"lon":5.38075,"is_reserved":false,"is_disabled":false,"rental_uris":{"android":"levelo://app?vid=89678c2c-8026-4258-a3b6-82c53d90da41","ios":"levelo://app?vid=89678c2c-8026-4258-a3b6-82c53d90da41"},"vehicle_type_id":"4","last_reported":1729664032,"current_range_meters":27200,"station_id":"ce4bgjp2rcd13ifvqbh0","pricing_plan_id":"cebpf4jnsgd1na2vs0mg"},{"bike_id":"c3945b60-e38d-4106-8f18-92c7f436cc4f","system_id":"levelo_inurba_marseille","lat":43.33757,"lon":5.37448,"is_reserved":false,"is_disabled":false,"rental_uris":{"android":"levelo://app?vid=c3945b60-e38d-4106-8f18-92c7f436cc4f","ios":"levelo://app?vid=c3945b60-e38d-4106-8f18-92c7f436cc4f"},"vehicle_type_id":"4","last_reported":1729664032,"current_range_meters":28400,"station_id":"","pricing_plan_id":"cebpf4jnsgd1na2vs0mg"},{"bike_id":"362dd47a-a0a2-4fcc-86ce-5b0a1c4cac31","system_id":"levelo_inurba_marseille","lat":43.27367,"lon":5.36256,"is_reserved":false,"is_disabled":false,"rental_uris":{"android":"levelo://app?vid=362dd47a-a0a2-4fcc-86ce-5b0a1c4cac31","ios":"levelo://app?vid=362dd47a-a0a2-4fcc-86ce-5b0a1c4cac31"},"vehicle_type_id":"4","last_reported":1729664032,"current_range_meters":39200,"station_id":"ce4bhbh2rcd13ifvqeo0","pricing_plan_id":"cebpf4jnsgd1na2vs0mg"},{"bike_id":"31970d09-95b4-4d87-8b63-b376dc9d3c03","system_id":"levelo_inurba_marseille","lat":43.29034,"lon":5.39978,"is_reserved":false,"is_disabled":false,"rental_uris":{"android":"levelo://app?vid=31970d09-95b4-4d87-8b63-b376dc9d3c03","ios":"levelo://app?vid=31970d09-95b4-4d87-8b63-b376dc9d3c03"},"vehicle_type_id":"4","last_reported":1729664032,"current_range_meters":32400,"station_id":"ce4bh392rcd13ifvqdm0","pricing_plan_id":"cebpf4jnsgd1na2vs0mg"},{"bike_id":"be3dda55-bc41-4f41-91f3-f753406854f7","system_id":"levelo_inurba_marseille","lat":43.27812,"lon":5.40706,"is_reserved":false,"is_disabled":false,"rental_uris":{"android":"levelo://app?vid=be3dda55-bc41-4f41-91f3-f753406854f7","ios":"levelo://app?vid=be3dda55-bc41-4f41-91f3-f753406854f7"},"vehicle_type_id":"4","last_reported":1729664032,"current_range_meters":38400,"station_id":"ce4bhnh2rcd13ifvqgtg","pricing_plan_id":"cebpf4jnsgd1na2vs0mg"},{"bike_id":"f051bb13-4f32-4cca-8dc4-454d94de2206","system_id":"levelo_inurba_marseille","lat":43.25105,"lon":5.40332,"is_reserved":false,"is_disabled":false,"rental_uris":{"android":"levelo://app?vid=f051bb13-4f32-4cca-8dc4-454d94de2206","ios":"levelo://app?vid=f051bb13-4f32-4cca-8dc4-454d94de2206"},"vehicle_type_id":"4","last_reported":1729664032,"current_range_meters":32400,"station_id":"ce4bhlh2rcd13ifvqgig","pricing_plan_id":"cebpf4jnsgd1na2vs0mg"},{"bike_id":"5304e6d2-a025-4504-9ff2-0054277e008d","system_id":"levelo_inurba_marseille","lat":43.27369,"lon":5.3626,"is_reserved":false,"is_disabled":false,"rental_uris":{"android":"levelo://app?vid=5304e6d2-a025-4504-9ff2-0054277e008d","ios":"levelo://app?vid=5304e6d2-a025-4504-9ff2-0054277e008d"},"vehicle_type_id":"4","last_reported":1729664032,"current_range_meters":38000,"station_id":"ce4bhbh2rcd13ifvqeo0","pricing_plan_id":"cebpf4jnsgd1na2vs0mg"},{"bike_id":"b7b5eb66-a856-4a84-82cc-7d49c1519abe","system_id":"levelo_inurba_marseille","lat":43.313408,"lon":5.367212,"is_reserved":false,"is_disabled":false,"rental_uris":{"android":"levelo://app?vid=b7b5eb66-a856-4a84-82cc-7d49c1519abe","ios":"levelo://app?vid=b7b5eb66-a856-4a84-82cc-7d49c1519abe"},"vehicle_type_id":"4","last_reported":1729664032,"current_range_meters":36400,"station_id":"ce4bgr92rcd13ifvqc6g","pricing_plan_id":"cebpf4jnsgd1na2vs0mg"},{"bike_id":"0ee38f66-ee8f-4341-8b97-438d0d625d0c","system_id":"levelo_inurba_marseille","lat":43.30273,"lon":5.37698,"is_reserved":false,"is_disabled":false,"rental_uris":{"android":"levelo://app?vid=0ee38f66-ee8f-4341-8b97-438d0d625d0c","ios":"levelo://app?vid=0ee38f66-ee8f-4341-8b97-438d0d625d0c"},"vehicle_type_id":"4","last_reported":1729664032,"current_range_meters":39200,"station_id":"ce4bguh2rcd13ifvqcj0","pricing_plan_id":"cebpf4jnsgd1na2vs0mg"},{"bike_id":"b970f848-ffd2-4907-bec4-9c1f054033d4","system_id":"levelo_inurba_marseille","lat":43.32339,"lon":5.40615,"is_reserved":false,"is_disabled":false,"rental_uris":{"android":"levelo://app?vid=b970f848-ffd2-4907-bec4-9c1f054033d4","ios":"levelo://app?vid=b970f848-ffd2-4907-bec4-9c1f054033d4"},"vehicle_type_id":"4","last_reported":1729664032,"current_range_meters":30400,"station_id":"ce4bhq92rcd13ifvqhjg","pricing_plan_id":"cebpf4jnsgd1na2vs0mg"},{"bike_id":"1135af4d-b7d7-4190-b0cb-6113c69ae2ea","system_id":"levelo_inurba_marseille","lat":43.27378,"lon":5.36255,"is_reserved":false,"is_disabled":false,"rental_uris":{"android":"levelo://app?vid=1135af4d-b7d7-4190-b0cb-6113c69ae2ea","ios":"levelo://app?vid=1135af4d-b7d7-4190-b0cb-6113c69ae2ea"},"vehicle_type_id":"4","last_reported":1729664032,"current_range_meters":38800,"station_id":"ce4bhbh2rcd13ifvqeo0","pricing_plan_id":"cebpf4jnsgd1na2vs0mg"},{"bike_id":"e42e5786-e1e5-4d1a-8aeb-2e2155877455","system_id":"levelo_inurba_marseille","lat":43.30462,"lon":5.37891,"is_reserved":false,"is_disabled":false,"rental_uris":{"android":"levelo://app?vid=e42e5786-e1e5-4d1a-8aeb-2e2155877455","ios":"levelo://app?vid=e42e5786-e1e5-4d1a-8aeb-2e2155877455"},"vehicle_type_id":"4","last_reported":1729664032,"current_range_meters":29600,"station_id":"ce4bgup2rcd13ifvqcn0","pricing_plan_id":"cebpf4jnsgd1na2vs0mg"},{"bike_id":"c763553b-c83c-450c-a8f1-7806bafe14a6","system_id":"levelo_inurba_marseille","lat":43.32495,"lon":5.3657,"is_reserved":false,"is_disabled":false,"rental_uris":{"android":"levelo://app?vid=c763553b-c83c-450c-a8f1-7806bafe14a6","ios":"levelo://app?vid=c763553b-c83c-450c-a8f1-7806bafe14a6"},"vehicle_type_id":"4","last_reported":1729664032,"current_range_meters":22400,"station_id":"ce4bhs12rcd13ifvqhvg","pricing_plan_id":"cebpf4jnsgd1na2vs0mg"},{"bike_id":"1d3c2354-bb06-46ef-82cb-7b20702826e7","system_id":"levelo_inurba_marseille","lat":43.31363,"lon":5.3669,"is_reserved":false,"is_disabled":false,"rental_uris":{"android":"levelo://app?vid=1d3c2354-bb06-46ef-82cb-7b20702826e7","ios":"levelo://app?vid=1d3c2354-bb06-46ef-82cb-7b20702826e7"},"vehicle_type_id":"4","last_reported":1729664032,"current_range_meters":39200,"station_id":"ce4bgr92rcd13ifvqc6g","pricing_plan_id":"cebpf4jnsgd1na2vs0mg"},{"bike_id":"db5ace12-daf6-423f-ae42-c8b56153cf6d","system_id":"levelo_inurba_marseille","lat":43.309313,"lon":5.401387,"is_reserved":false,"is_disabled":false,"rental_uris":{"android":"levelo://app?vid=db5ace12-daf6-423f-ae42-c8b56153cf6d","ios":"levelo://app?vid=db5ace12-daf6-423f-ae42-c8b56153cf6d"},"vehicle_type_id":"4","last_reported":1729664032,"current_range_meters":38800,"station_id":"ce4bgvp2rcd13ifvqct0","pricing_plan_id":"cebpf4jnsgd1na2vs0mg"},{"bike_id":"946611bd-808f-42aa-8d8e-3a209538d209","system_id":"levelo_inurba_marseille","lat":43.24081,"lon":5.37747,"is_reserved":false,"is_disabled":false,"rental_uris":{"android":"levelo://app?vid=946611bd-808f-42aa-8d8e-3a209538d209","ios":"levelo://app?vid=946611bd-808f-42aa-8d8e-3a209538d209"},"vehicle_type_id":"4","last_reported":1729664032,"current_range_meters":10000,"station_id":"ce4bhnp2rcd13ifvqgvg","pricing_plan_id":"cebpf4jnsgd1na2vs0mg"},{"bike_id":"78dd845c-fc34-4928-9892-3ff12866b800","system_id":"levelo_inurba_marseille","lat":43.31702,"lon":5.40456,"is_reserved":false,"is_disabled":false,"rental_uris":{"android":"levelo://app?vid=78dd845c-fc34-4928-9892-3ff12866b800","ios":"levelo://app?vid=78dd845c-fc34-4928-9892-3ff12866b800"},"vehicle_type_id":"4","last_reported":1729664032,"current_range_meters":28000,"station_id":"ce4bh012rcd13ifvqd00","pricing_plan_id":"cebpf4jnsgd1na2vs0mg"},{"bike_id":"5f1556bb-7ce9-47ab-b5fa-fa2119e042b8","system_id":"levelo_inurba_marseille","lat":43.29038,"lon":5.39965,"is_reserved":false,"is_disabled":false,"rental_uris":{"android":"levelo://app?vid=5f1556bb-7ce9-47ab-b5fa-fa2119e042b8","ios":"levelo://app?vid=5f1556bb-7ce9-47ab-b5fa-fa2119e042b8"},"vehicle_type_id":"4","last_reported":1729664032,"current_range_meters":39200,"station_id":"ce4bh392rcd13ifvqdm0","pricing_plan_id":"cebpf4jnsgd1na2vs0mg"},{"bike_id":"4a7abcc4-a1fa-417b-8ffa-a28e55985c43","system_id":"levelo_inurba_marseille","lat":43.24081,"lon":5.37758,"is_reserved":false,"is_disabled":false,"rental_uris":{"android":"levelo://app?vid=4a7abcc4-a1fa-417b-8ffa-a28e55985c43","ios":"levelo://app?vid=4a7abcc4-a1fa-417b-8ffa-a28e55985c43"},"vehicle_type_id":"4","last_reported":1729664032,"current_range_meters":38000,"station_id":"ce4bhnp2rcd13ifvqgvg","pricing_plan_id":"cebpf4jnsgd1na2vs0mg"},{"bike_id":"cdba8dd9-10d6-4358-97ce-fe5c3999d55d","system_id":"levelo_inurba_marseille","lat":43.30352,"lon":5.41875,"is_reserved":false,"is_disabled":false,"rental_uris":{"android":"levelo://app?vid=cdba8dd9-10d6-4358-97ce-fe5c3999d55d","ios":"levelo://app?vid=cdba8dd9-10d6-4358-97ce-fe5c3999d55d"},"vehicle_type_id":"4","last_reported":1729664032,"current_range_meters":38800,"station_id":"ce4bhop2rcd13ifvqh7g","pricing_plan_id":"cebpf4jnsgd1na2vs0mg"},{"bike_id":"80c6b7de-60b0-43fe-bb74-48437d248784","system_id":"levelo_inurba_marseille","lat":43.28938,"lon":5.39634,"is_reserved":false,"is_disabled":false,"rental_uris":{"android":"levelo://app?vid=80c6b7de-60b0-43fe-bb74-48437d248784","ios":"levelo://app?vid=80c6b7de-60b0-43fe-bb74-48437d248784"},"vehicle_type_id":"4","last_reported":1729664032,"current_range_meters":9200,"station_id":"ce4bh3h2rcd13ifvqdn0","pricing_plan_id":"cebpf4jnsgd1na2vs0mg"},{"bike_id":"fed29e3d-ded9-4536-b5e9-762e6c2a1343","system_id":"levelo_inurba_marseille","lat":43.29976,"lon":5.39178,"is_reserved":false,"is_disabled":false,"rental_uris":{"android":"levelo://app?vid=fed29e3d-ded9-4536-b5e9-762e6c2a1343","ios":"levelo://app?vid=fed29e3d-ded9-4536-b5e9-762e6c2a1343"},"vehicle_type_id":"4","last_reported":1729664032,"current_range_meters":14400,"station_id":"ce4bghh2rcd13ifvqb60","pricing_plan_id":"cebpf4jnsgd1na2vs0mg"},{"bike_id":"b58925f6-337b-429c-9000-e5384f207ad8","system_id":"levelo_inurba_marseille","lat":43.27056,"lon":5.40265,"is_reserved":false,"is_disabled":false,"rental_uris":{"android":"levelo://app?vid=b58925f6-337b-429c-9000-e5384f207ad8","ios":"levelo://app?vid=b58925f6-337b-429c-9000-e5384f207ad8"},"vehicle_type_id":"4","last_reported":1729664032,"current_range_meters":38000,"station_id":"ce4bhk92rcd13ifvqgc0","pricing_plan_id":"cebpf4jnsgd1na2vs0mg"},{"bike_id":"6f3c99f6-25c2-4dd4-ba80-ca7e8e0ba65e","system_id":"levelo_inurba_marseille","lat":43.28154,"lon":5.42655,"is_reserved":false,"is_disabled":false,"rental_uris":{"android":"levelo://app?vid=6f3c99f6-25c2-4dd4-ba80-ca7e8e0ba65e","ios":"levelo://app?vid=6f3c99f6-25c2-4dd4-ba80-ca7e8e0ba65e"},"vehicle_type_id":"4","last_reported":1729664032,"current_range_meters":8800,"station_id":"ce4bhnh2rcd13ifvqgug","pricing_plan_id":"cebpf4jnsgd1na2vs0mg"},{"bike_id":"4736ba4b-d8e6-4b24-91f1-da5bdb49d0c0","system_id":"levelo_inurba_marseille","lat":43.29307,"lon":5.37171,"is_reserved":false,"is_disabled":false,"rental_uris":{"android":"levelo://app?vid=4736ba4b-d8e6-4b24-91f1-da5bdb49d0c0","ios":"levelo://app?vid=4736ba4b-d8e6-4b24-91f1-da5bdb49d0c0"},"vehicle_type_id":"4","last_reported":1729664032,"current_range_meters":36400,"station_id":"ce4bgh92rcd13ifvqb40","pricing_plan_id":"cebpf4jnsgd1na2vs0mg"},{"bike_id":"01678755-0ad9-4bb7-8723-5a8d7c4420fc","system_id":"levelo_inurba_marseille","lat":43.28063,"lon":5.40983,"is_reserved":false,"is_disabled":false,"rental_uris":{"android":"levelo://app?vid=01678755-0ad9-4bb7-8723-5a8d7c4420fc","ios":"levelo://app?vid=01678755-0ad9-4bb7-8723-5a8d7c4420fc"},"vehicle_type_id":"4","last_reported":1729664032,"current_range_meters":16800,"station_id":"","pricing_plan_id":"cebpf4jnsgd1na2vs0mg"},{"bike_id":"4a17de49-0eb0-4f62-b4f3-5313bdc17ba8","system_id":"levelo_inurba_marseille","lat":43.30644,"lon":5.40075,"is_reserved":false,"is_disabled":false,"rental_uris":{"android":"levelo://app?vid=4a17de49-0eb0-4f62-b4f3-5313bdc17ba8","ios":"levelo://app?vid=4a17de49-0eb0-4f62-b4f3-5313bdc17ba8"},"vehicle_type_id":"4","last_reported":1729664032,"current_range_meters":36400,"station_id":"ce4bh112rcd13ifvqda0","pricing_plan_id":"cebpf4jnsgd1na2vs0mg"},{"bike_id":"6c605bec-2a82-42bd-ae48-af1c621b5b5c","system_id":"levelo_inurba_marseille","lat":43.29737,"lon":5.37715,"is_reserved":false,"is_disabled":false,"rental_uris":{"android":"levelo://app?vid=6c605bec-2a82-42bd-ae48-af1c621b5b5c","ios":"levelo://app?vid=6c605bec-2a82-42bd-ae48-af1c621b5b5c"},"vehicle_type_id":"4","last_reported":1729664032,"current_range_meters":19600,"station_id":"ce4bgkh2rcd13ifvqbl0","pricing_plan_id":"cebpf4jnsgd1na2vs0mg"},{"bike_id":"0d66885d-85c4-4297-beb3-a0057b8663cf","system_id":"levelo_inurba_marseille","lat":43.2439,"lon":5.37053,"is_reserved":false,"is_disabled":false,"rental_uris":{"android":"levelo://app?vid=0d66885d-85c4-4297-beb3-a0057b8663cf","ios":"levelo://app?vid=0d66885d-85c4-4297-beb3-a0057b8663cf"},"vehicle_type_id":"4","last_reported":1729664032,"current_range_meters":28400,"station_id":"ce4bhhh2rcd13ifvqfk0","pricing_plan_id":"cebpf4jnsgd1na2vs0mg"},{"bike_id":"45744527-696d-4cfd-bc2e-e4a94e9b8112","system_id":"levelo_inurba_marseille","lat":43.30476,"lon":5.37904,"is_reserved":false,"is_disabled":false,"rental_uris":{"android":"levelo://app?vid=45744527-696d-4cfd-bc2e-e4a94e9b8112","ios":"levelo://app?vid=45744527-696d-4cfd-bc2e-e4a94e9b8112"},"vehicle_type_id":"4","last_reported":1729664032,"current_range_meters":34800,"station_id":"ce4bgup2rcd13ifvqcn0","pricing_plan_id":"cebpf4jnsgd1na2vs0mg"},{"bike_id":"e68074ff-f5e2-424b-ac9b-aa2b95174368","system_id":"levelo_inurba_marseille","lat":43.281515,"lon":5.426453,"is_reserved":false,"is_disabled":false,"rental_uris":{"android":"levelo://app?vid=e68074ff-f5e2-424b-ac9b-aa2b95174368","ios":"levelo://app?vid=e68074ff-f5e2-424b-ac9b-aa2b95174368"},"vehicle_type_id":"4","last_reported":1729664032,"current_range_meters":28000,"station_id":"ce4bhnh2rcd13ifvqgug","pricing_plan_id":"cebpf4jnsgd1na2vs0mg"},{"bike_id":"735a2476-fda6-486b-84ef-88a4c55ff9ea","system_id":"levelo_inurba_marseille","lat":43.28664,"lon":5.3636,"is_reserved":false,"is_disabled":false,"rental_uris":{"android":"levelo://app?vid=735a2476-fda6-486b-84ef-88a4c55ff9ea","ios":"levelo://app?vid=735a2476-fda6-486b-84ef-88a4c55ff9ea"},"vehicle_type_id":"4","last_reported":1729664032,"current_range_meters":38400,"station_id":"ce4bhah2rcd13ifvqej0","pricing_plan_id":"cebpf4jnsgd1na2vs0mg"},{"bike_id":"815dd284-1bd2-4bb9-992a-b2116e2485bc","system_id":"levelo_inurba_marseille","lat":43.32883,"lon":5.3644,"is_reserved":false,"is_disabled":false,"rental_uris":{"android":"levelo://app?vid=815dd284-1bd2-4bb9-992a-b2116e2485bc","ios":"levelo://app?vid=815dd284-1bd2-4bb9-992a-b2116e2485bc"},"vehicle_type_id":"4","last_reported":1729664032,"current_range_meters":30400,"station_id":"","pricing_plan_id":"cebpf4jnsgd1na2vs0mg"},{"bike_id":"99447fcb-3355-4853-9798-3b9f4f451725","system_id":"levelo_inurba_marseille","lat":43.299591,"lon":5.38493,"is_reserved":false,"is_disabled":false,"rental_uris":{"android":"levelo://app?vid=99447fcb-3355-4853-9798-3b9f4f451725","ios":"levelo://app?vid=99447fcb-3355-4853-9798-3b9f4f451725"},"vehicle_type_id":"4","last_reported":1729664032,"current_range_meters":16800,"station_id":"ce4bgj92rcd13ifvqbd0","pricing_plan_id":"cebpf4jnsgd1na2vs0mg"},{"bike_id":"18dd70fc-d51a-4bcf-95bb-093e4188314c","system_id":"levelo_inurba_marseille","lat":43.288566,"lon":5.393304,"is_reserved":false,"is_disabled":false,"rental_uris":{"android":"levelo://app?vid=18dd70fc-d51a-4bcf-95bb-093e4188314c","ios":"levelo://app?vid=18dd70fc-d51a-4bcf-95bb-093e4188314c"},"vehicle_type_id":"4","last_reported":1729664032,"current_range_meters":38400,"station_id":"ce4bh2p2rcd13ifvqdi0","pricing_plan_id":"cebpf4jnsgd1na2vs0mg"},{"bike_id":"9ff64a80-fbeb-434b-b02d-660129a509df","system_id":"levelo_inurba_marseille","lat":43.28405,"lon":5.37516,"is_reserved":false,"is_disabled":false,"rental_uris":{"android":"levelo://app?vid=9ff64a80-fbeb-434b-b02d-660129a509df","ios":"levelo://app?vid=9ff64a80-fbeb-434b-b02d-660129a509df"},"vehicle_type_id":"4","last_reported":1729664032,"current_range_meters":19200,"station_id":"ce4bh412rcd13ifvqds0","pricing_plan_id":"cebpf4jnsgd1na2vs0mg"},{"bike_id":"b3b3aa1c-cd4d-4c72-b22c-122608d374e3","system_id":"levelo_inurba_marseille","lat":43.25103,"lon":5.4033,"is_reserved":false,"is_disabled":false,"rental_uris":{"android":"levelo://app?vid=b3b3aa1c-cd4d-4c72-b22c-122608d374e3","ios":"levelo://app?vid=b3b3aa1c-cd4d-4c72-b22c-122608d374e3"},"vehicle_type_id":"4","last_reported":1729664032,"current_range_meters":37600,"station_id":"ce4bhlh2rcd13ifvqgig","pricing_plan_id":"cebpf4jnsgd1na2vs0mg"},{"bike_id":"627811a9-4978-496f-972a-e45837dda420","system_id":"levelo_inurba_marseille","lat":43.27491,"lon":5.42461,"is_reserved":false,"is_disabled":false,"rental_uris":{"android":"levelo://app?vid=627811a9-4978-496f-972a-e45837dda420","ios":"levelo://app?vid=627811a9-4978-496f-972a-e45837dda420"},"vehicle_type_id":"4","last_reported":1729664032,"current_range_meters":7200,"station_id":"ce4bhn92rcd13ifvqgrg","pricing_plan_id":"cebpf4jnsgd1na2vs0mg"},{"bike_id":"07c2576b-607e-4887-b80e-36889f16876e","system_id":"levelo_inurba_marseille","lat":43.32475,"lon":5.36568,"is_reserved":false,"is_disabled":false,"rental_uris":{"android":"levelo://app?vid=07c2576b-607e-4887-b80e-36889f16876e","ios":"levelo://app?vid=07c2576b-607e-4887-b80e-36889f16876e"},"vehicle_type_id":"4","last_reported":1729664032,"current_range_meters":39200,"station_id":"ce4bhs12rcd13ifvqhvg","pricing_plan_id":"cebpf4jnsgd1na2vs0mg"},{"bike_id":"54826c14-92a0-4393-bdf9-87f4a2db6fca","system_id":"levelo_inurba_marseille","lat":43.29032,"lon":5.37564,"is_reserved":false,"is_disabled":false,"rental_uris":{"android":"levelo://app?vid=54826c14-92a0-4393-bdf9-87f4a2db6fca","ios":"levelo://app?vid=54826c14-92a0-4393-bdf9-87f4a2db6fca"},"vehicle_type_id":"4","last_reported":1729664032,"current_range_meters":37600,"station_id":"ce4bh692rcd13ifvqe90","pricing_plan_id":"cebpf4jnsgd1na2vs0mg"},{"bike_id":"1108c1d9-6ef1-42c6-a0c9-92dd8001ce10","system_id":"levelo_inurba_marseille","lat":43.25108,"lon":5.40329,"is_reserved":false,"is_disabled":false,"rental_uris":{"android":"levelo://app?vid=1108c1d9-6ef1-42c6-a0c9-92dd8001ce10","ios":"levelo://app?vid=1108c1d9-6ef1-42c6-a0c9-92dd8001ce10"},"vehicle_type_id":"4","last_reported":1729664032,"current_range_meters":38800,"station_id":"ce4bhlh2rcd13ifvqgig","pricing_plan_id":"cebpf4jnsgd1na2vs0mg"},{"bike_id":"7056681c-0498-4494-9b57-9087366050be","system_id":"levelo_inurba_marseille","lat":43.27064,"lon":5.40266,"is_reserved":false,"is_disabled":false,"rental_uris":{"android":"levelo://app?vid=7056681c-0498-4494-9b57-9087366050be","ios":"levelo://app?vid=7056681c-0498-4494-9b57-9087366050be"},"vehicle_type_id":"4","last_reported":1729664032,"current_range_meters":38800,"station_id":"ce4bhk92rcd13ifvqgc0","pricing_plan_id":"cebpf4jnsgd1na2vs0mg"},{"bike_id":"0e3c4388-07da-4bf0-b894-30ac8cf594bf","system_id":"levelo_inurba_marseille","lat":43.31699,"lon":5.37768,"is_reserved":false,"is_disabled":false,"rental_uris":{"android":"levelo://app?vid=0e3c4388-07da-4bf0-b894-30ac8cf594bf","ios":"levelo://app?vid=0e3c4388-07da-4bf0-b894-30ac8cf594bf"},"vehicle_type_id":"4","last_reported":1729664032,"current_range_meters":20000,"station_id":"ce4bgth2rcd13ifvqch0","pricing_plan_id":"cebpf4jnsgd1na2vs0mg"},{"bike_id":"db7d770d-4dd5-4cf7-a79e-df6a497e3a91","system_id":"levelo_inurba_marseille","lat":43.27209,"lon":5.39184,"is_reserved":false,"is_disabled":false,"rental_uris":{"android":"levelo://app?vid=db7d770d-4dd5-4cf7-a79e-df6a497e3a91","ios":"levelo://app?vid=db7d770d-4dd5-4cf7-a79e-df6a497e3a91"},"vehicle_type_id":"4","last_reported":1729664032,"current_range_meters":36800,"station_id":"ce4bhhp2rcd13ifvqfm0","pricing_plan_id":"cebpf4jnsgd1na2vs0mg"},{"bike_id":"71bdd358-5c78-4b3d-8532-94200fef0336","system_id":"levelo_inurba_marseille","lat":43.31503,"lon":5.37307,"is_reserved":false,"is_disabled":false,"rental_uris":{"android":"levelo://app?vid=71bdd358-5c78-4b3d-8532-94200fef0336","ios":"levelo://app?vid=71bdd358-5c78-4b3d-8532-94200fef0336"},"vehicle_type_id":"4","last_reported":1729664032,"current_range_meters":12000,"station_id":"ce4bgt12rcd13ifvqcd0","pricing_plan_id":"cebpf4jnsgd1na2vs0mg"},{"bike_id":"ce26414e-cf4f-4228-969f-0f32a95f8de8","system_id":"levelo_inurba_marseille","lat":43.28028,"lon":5.34985,"is_reserved":false,"is_disabled":false,"rental_uris":{"android":"levelo://app?vid=ce26414e-cf4f-4228-969f-0f32a95f8de8","ios":"levelo://app?vid=ce26414e-cf4f-4228-969f-0f32a95f8de8"},"vehicle_type_id":"4","last_reported":1729664032,"current_range_meters":23200,"station_id":"","pricing_plan_id":"cebpf4jnsgd1na2vs0mg"},{"bike_id":"d05678d2-dd4b-4eeb-824c-8d04133a0efa","system_id":"levelo_inurba_marseille","lat":43.27495,"lon":5.42454,"is_reserved":false,"is_disabled":false,"rental_uris":{"android":"levelo://app?vid=d05678d2-dd4b-4eeb-824c-8d04133a0efa","ios":"levelo://app?vid=d05678d2-dd4b-4eeb-824c-8d04133a0efa"},"vehicle_type_id":"4","last_reported":1729664032,"current_range_meters":38000,"station_id":"ce4bhn92rcd13ifvqgrg","pricing_plan_id":"cebpf4jnsgd1na2vs0mg"},{"bike_id":"7ae34a12-aa38-428e-ad29-d0aa81e2288d","system_id":"levelo_inurba_marseille","lat":43.29274,"lon":5.36837,"is_reserved":false,"is_disabled":false,"rental_uris":{"android":"levelo://app?vid=7ae34a12-aa38-428e-ad29-d0aa81e2288d","ios":"levelo://app?vid=7ae34a12-aa38-428e-ad29-d0aa81e2288d"},"vehicle_type_id":"4","last_reported":1729664032,"current_range_meters":37600,"station_id":"ce4bhbp2rcd13ifvqesg","pricing_plan_id":"cebpf4jnsgd1na2vs0mg"},{"bike_id":"be420acf-ae7e-45d1-986f-ff53b714a283","system_id":"levelo_inurba_marseille","lat":43.30315,"lon":5.36903,"is_reserved":false,"is_disabled":false,"rental_uris":{"android":"levelo://app?vid=be420acf-ae7e-45d1-986f-ff53b714a283","ios":"levelo://app?vid=be420acf-ae7e-45d1-986f-ff53b714a283"},"vehicle_type_id":"4","last_reported":1729664032,"current_range_meters":24800,"station_id":"ce4bgqh2rcd13ifvqc5g","pricing_plan_id":"cebpf4jnsgd1na2vs0mg"},{"bike_id":"7a3e5e15-a5a3-484b-a744-5da5ce323139","system_id":"levelo_inurba_marseille","lat":43.24073,"lon":5.37756,"is_reserved":false,"is_disabled":false,"rental_uris":{"android":"levelo://app?vid=7a3e5e15-a5a3-484b-a744-5da5ce323139","ios":"levelo://app?vid=7a3e5e15-a5a3-484b-a744-5da5ce323139"},"vehicle_type_id":"4","last_reported":1729664032,"current_range_meters":35200,"station_id":"ce4bhnp2rcd13ifvqgvg","pricing_plan_id":"cebpf4jnsgd1na2vs0mg"},{"bike_id":"aa0dab9c-3e38-4533-8c77-0ce880291f06","system_id":"levelo_inurba_marseille","lat":43.30469,"lon":5.37896,"is_reserved":false,"is_disabled":false,"rental_uris":{"android":"levelo://app?vid=aa0dab9c-3e38-4533-8c77-0ce880291f06","ios":"levelo://app?vid=aa0dab9c-3e38-4533-8c77-0ce880291f06"},"vehicle_type_id":"4","last_reported":1729664032,"current_range_meters":36400,"station_id":"ce4bgup2rcd13ifvqcn0","pricing_plan_id":"cebpf4jnsgd1na2vs0mg"},{"bike_id":"3b8daf76-8c3c-4f51-9650-ed177121cd8c","system_id":"levelo_inurba_marseille","lat":43.30479,"lon":5.37901,"is_reserved":false,"is_disabled":false,"rental_uris":{"android":"levelo://app?vid=3b8daf76-8c3c-4f51-9650-ed177121cd8c","ios":"levelo://app?vid=3b8daf76-8c3c-4f51-9650-ed177121cd8c"},"vehicle_type_id":"4","last_reported":1729664032,"current_range_meters":36000,"station_id":"ce4bgup2rcd13ifvqcn0","pricing_plan_id":"cebpf4jnsgd1na2vs0mg"},{"bike_id":"0653f3d6-a8b9-4089-a371-69eeb0f3ba99","system_id":"levelo_inurba_marseille","lat":43.30545,"lon":5.36694,"is_reserved":false,"is_disabled":false,"rental_uris":{"android":"levelo://app?vid=0653f3d6-a8b9-4089-a371-69eeb0f3ba99","ios":"levelo://app?vid=0653f3d6-a8b9-4089-a371-69eeb0f3ba99"},"vehicle_type_id":"4","last_reported":1729664032,"current_range_meters":36800,"station_id":"ce4bgrp2rcd13ifvqc9g","pricing_plan_id":"cebpf4jnsgd1na2vs0mg"},{"bike_id":"e31529b2-3523-42c7-a819-5c1d20ae7175","system_id":"levelo_inurba_marseille","lat":43.28944,"lon":5.36416,"is_reserved":false,"is_disabled":false,"rental_uris":{"android":"levelo://app?vid=e31529b2-3523-42c7-a819-5c1d20ae7175","ios":"levelo://app?vid=e31529b2-3523-42c7-a819-5c1d20ae7175"},"vehicle_type_id":"4","last_reported":1729664032,"current_range_meters":25600,"station_id":"ce4bhc92rcd13ifvqetg","pricing_plan_id":"cebpf4jnsgd1na2vs0mg"},{"bike_id":"b5bffb0e-d7d4-4afc-84f2-2b135bc0b1dc","system_id":"levelo_inurba_marseille","lat":43.27024,"lon":5.40107,"is_reserved":false,"is_disabled":false,"rental_uris":{"android":"levelo://app?vid=b5bffb0e-d7d4-4afc-84f2-2b135bc0b1dc","ios":"levelo://app?vid=b5bffb0e-d7d4-4afc-84f2-2b135bc0b1dc"},"vehicle_type_id":"4","last_reported":1729664032,"current_range_meters":34000,"station_id":"ce4bhk92rcd13ifvqgc0","pricing_plan_id":"cebpf4jnsgd1na2vs0mg"},{"bike_id":"7f6f3cf9-248c-44d8-9c0f-c7f5ebfc9478","system_id":"levelo_inurba_marseille","lat":43.30288,"lon":5.36882,"is_reserved":false,"is_disabled":false,"rental_uris":{"android":"levelo://app?vid=7f6f3cf9-248c-44d8-9c0f-c7f5ebfc9478","ios":"levelo://app?vid=7f6f3cf9-248c-44d8-9c0f-c7f5ebfc9478"},"vehicle_type_id":"4","last_reported":1729664032,"current_range_meters":25200,"station_id":"ce4bgqh2rcd13ifvqc5g","pricing_plan_id":"cebpf4jnsgd1na2vs0mg"},{"bike_id":"22fc431c-b57c-465f-994e-166d81585d45","system_id":"levelo_inurba_marseille","lat":43.239583,"lon":5.366385,"is_reserved":false,"is_disabled":false,"rental_uris":{"android":"levelo://app?vid=22fc431c-b57c-465f-994e-166d81585d45","ios":"levelo://app?vid=22fc431c-b57c-465f-994e-166d81585d45"},"vehicle_type_id":"4","last_reported":1729664032,"current_range_meters":38000,"station_id":"ce4bhi12rcd13ifvqfp0","pricing_plan_id":"cebpf4jnsgd1na2vs0mg"},{"bike_id":"86333dd2-8617-4f99-b601-9b02b791156a","system_id":"levelo_inurba_marseille","lat":43.31699,"lon":5.40463,"is_reserved":false,"is_disabled":false,"rental_uris":{"android":"levelo://app?vid=86333dd2-8617-4f99-b601-9b02b791156a","ios":"levelo://app?vid=86333dd2-8617-4f99-b601-9b02b791156a"},"vehicle_type_id":"4","last_reported":1729664032,"current_range_meters":33200,"station_id":"","pricing_plan_id":"cebpf4jnsgd1na2vs0mg"},{"bike_id":"f4aea8d2-64a2-4124-9304-7da77467e05f","system_id":"levelo_inurba_marseille","lat":43.34141,"lon":5.40901,"is_reserved":false,"is_disabled":false,"rental_uris":{"android":"levelo://app?vid=f4aea8d2-64a2-4124-9304-7da77467e05f","ios":"levelo://app?vid=f4aea8d2-64a2-4124-9304-7da77467e05f"},"vehicle_type_id":"4","last_reported":1729664032,"current_range_meters":6000,"station_id":"ce4bhqh2rcd13ifvqhlg","pricing_plan_id":"cebpf4jnsgd1na2vs0mg"},{"bike_id":"a8739f49-da60-41dd-855f-291a586b0c17","system_id":"levelo_inurba_marseille","lat":43.25004,"lon":5.38926,"is_reserved":false,"is_disabled":false,"rental_uris":{"android":"levelo://app?vid=a8739f49-da60-41dd-855f-291a586b0c17","ios":"levelo://app?vid=a8739f49-da60-41dd-855f-291a586b0c17"},"vehicle_type_id":"4","last_reported":1729664032,"current_range_meters":35200,"station_id":"ce4bhgp2rcd13ifvqfd0","pricing_plan_id":"cebpf4jnsgd1na2vs0mg"},{"bike_id":"f801a972-c648-424a-a7e1-9d8a4bf001b1","system_id":"levelo_inurba_marseille","lat":43.28039,"lon":5.36955,"is_reserved":false,"is_disabled":false,"rental_uris":{"android":"levelo://app?vid=f801a972-c648-424a-a7e1-9d8a4bf001b1","ios":"levelo://app?vid=f801a972-c648-424a-a7e1-9d8a4bf001b1"},"vehicle_type_id":"4","last_reported":1729664032,"current_range_meters":36400,"station_id":"ce4bha12rcd13ifvqef0","pricing_plan_id":"cebpf4jnsgd1na2vs0mg"},{"bike_id":"b4c17c83-feb2-4320-b8f2-f428bac7a5ec","system_id":"levelo_inurba_marseille","lat":43.3137,"lon":5.385,"is_reserved":false,"is_disabled":false,"rental_uris":{"android":"levelo://app?vid=b4c17c83-feb2-4320-b8f2-f428bac7a5ec","ios":"levelo://app?vid=b4c17c83-feb2-4320-b8f2-f428bac7a5ec"},"vehicle_type_id":"4","last_reported":1729664032,"current_range_meters":38800,"station_id":"ce4bgt92rcd13ifvqcf0","pricing_plan_id":"cebpf4jnsgd1na2vs0mg"},{"bike_id":"83dd2c6b-679c-4f62-a311-51f14c6cd316","system_id":"levelo_inurba_marseille","lat":43.28658,"lon":5.3636,"is_reserved":false,"is_disabled":false,"rental_uris":{"android":"levelo://app?vid=83dd2c6b-679c-4f62-a311-51f14c6cd316","ios":"levelo://app?vid=83dd2c6b-679c-4f62-a311-51f14c6cd316"},"vehicle_type_id":"4","last_reported":1729664032,"current_range_meters":22800,"station_id":"ce4bhah2rcd13ifvqej0","pricing_plan_id":"cebpf4jnsgd1na2vs0mg"},{"bike_id":"2cdf5722-0992-422b-b8c9-f0bdbeea1331","system_id":"levelo_inurba_marseille","lat":43.27068,"lon":5.42274,"is_reserved":false,"is_disabled":false,"rental_uris":{"android":"levelo://app?vid=2cdf5722-0992-422b-b8c9-f0bdbeea1331","ios":"levelo://app?vid=2cdf5722-0992-422b-b8c9-f0bdbeea1331"},"vehicle_type_id":"4","last_reported":1729664032,"current_range_meters":38800,"station_id":"ce4bhk92rcd13ifvqgb0","pricing_plan_id":"cebpf4jnsgd1na2vs0mg"},{"bike_id":"4072c5dd-fe83-46da-877b-3505b0b7a367","system_id":"levelo_inurba_marseille","lat":43.28081,"lon":5.39668,"is_reserved":false,"is_disabled":false,"rental_uris":{"android":"levelo://app?vid=4072c5dd-fe83-46da-877b-3505b0b7a367","ios":"levelo://app?vid=4072c5dd-fe83-46da-877b-3505b0b7a367"},"vehicle_type_id":"4","last_reported":1729664032,"current_range_meters":38400,"station_id":"ce4bho12rcd13ifvqh2g","pricing_plan_id":"cebpf4jnsgd1na2vs0mg"},{"bike_id":"9d1f1d57-94b3-4091-a34b-66ead7ec06a9","system_id":"levelo_inurba_marseille","lat":43.309497,"lon":5.390296,"is_reserved":false,"is_disabled":false,"rental_uris":{"android":"levelo://app?vid=9d1f1d57-94b3-4091-a34b-66ead7ec06a9","ios":"levelo://app?vid=9d1f1d57-94b3-4091-a34b-66ead7ec06a9"},"vehicle_type_id":"4","last_reported":1729664032,"current_range_meters":8000,"station_id":"ce4bgkh2rcd13ifvqbk0","pricing_plan_id":"cebpf4jnsgd1na2vs0mg"},{"bike_id":"0f8fcea2-a548-4eec-88b1-83ebcf53f1a8","system_id":"levelo_inurba_marseille","lat":43.32289,"lon":5.38275,"is_reserved":false,"is_disabled":false,"rental_uris":{"android":"levelo://app?vid=0f8fcea2-a548-4eec-88b1-83ebcf53f1a8","ios":"levelo://app?vid=0f8fcea2-a548-4eec-88b1-83ebcf53f1a8"},"vehicle_type_id":"4","last_reported":1729664032,"current_range_meters":40000,"station_id":"ce4bhr12rcd13ifvqhqg","pricing_plan_id":"cebpf4jnsgd1na2vs0mg"},{"bike_id":"4d30173e-07da-4c5c-8a5a-4024282b1e41","system_id":"levelo_inurba_marseille","lat":43.30147,"lon":5.38063,"is_reserved":false,"is_disabled":false,"rental_uris":{"android":"levelo://app?vid=4d30173e-07da-4c5c-8a5a-4024282b1e41","ios":"levelo://app?vid=4d30173e-07da-4c5c-8a5a-4024282b1e41"},"vehicle_type_id":"4","last_reported":1729664032,"current_range_meters":38800,"station_id":"ce4bgjp2rcd13ifvqbh0","pricing_plan_id":"cebpf4jnsgd1na2vs0mg"},{"bike_id":"4c60f293-20dc-49e0-96c4-51cda3c32138","system_id":"levelo_inurba_marseille","lat":43.30469,"lon":5.37904,"is_reserved":false,"is_disabled":false,"rental_uris":{"android":"levelo://app?vid=4c60f293-20dc-49e0-96c4-51cda3c32138","ios":"levelo://app?vid=4c60f293-20dc-49e0-96c4-51cda3c32138"},"vehicle_type_id":"4","last_reported":1729664032,"current_range_meters":37600,"station_id":"ce4bgup2rcd13ifvqcn0","pricing_plan_id":"cebpf4jnsgd1na2vs0mg"},{"bike_id":"d64eb642-e474-467d-9fcb-2fd4f7ec184a","system_id":"levelo_inurba_marseille","lat":43.27054,"lon":5.40263,"is_reserved":false,"is_disabled":false,"rental_uris":{"android":"levelo://app?vid=d64eb642-e474-467d-9fcb-2fd4f7ec184a","ios":"levelo://app?vid=d64eb642-e474-467d-9fcb-2fd4f7ec184a"},"vehicle_type_id":"4","last_reported":1729664032,"current_range_meters":29600,"station_id":"ce4bhk92rcd13ifvqgc0","pricing_plan_id":"cebpf4jnsgd1na2vs0mg"},{"bike_id":"14df2fab-9651-4705-b502-6d7825c4ba36","system_id":"levelo_inurba_marseille","lat":43.31697,"lon":5.37771,"is_reserved":false,"is_disabled":false,"rental_uris":{"android":"levelo://app?vid=14df2fab-9651-4705-b502-6d7825c4ba36","ios":"levelo://app?vid=14df2fab-9651-4705-b502-6d7825c4ba36"},"vehicle_type_id":"4","last_reported":1729664032,"current_range_meters":33200,"station_id":"ce4bgth2rcd13ifvqch0","pricing_plan_id":"cebpf4jnsgd1na2vs0mg"},{"bike_id":"6064ba38-3849-4c23-8c6f-3eb896267f69","system_id":"levelo_inurba_marseille","lat":43.25583,"lon":5.38242,"is_reserved":false,"is_disabled":false,"rental_uris":{"android":"levelo://app?vid=6064ba38-3849-4c23-8c6f-3eb896267f69","ios":"levelo://app?vid=6064ba38-3849-4c23-8c6f-3eb896267f69"},"vehicle_type_id":"4","last_reported":1729664032,"current_range_meters":27600,"station_id":"ce4bhih2rcd13ifvqfs0","pricing_plan_id":"cebpf4jnsgd1na2vs0mg"},{"bike_id":"c37f9d44-73fa-4306-9c1f-ffcd871c4600","system_id":"levelo_inurba_marseille","lat":43.30468,"lon":5.37897,"is_reserved":false,"is_disabled":false,"rental_uris":{"android":"levelo://app?vid=c37f9d44-73fa-4306-9c1f-ffcd871c4600","ios":"levelo://app?vid=c37f9d44-73fa-4306-9c1f-ffcd871c4600"},"vehicle_type_id":"4","last_reported":1729664032,"current_range_meters":22400,"station_id":"ce4bgup2rcd13ifvqcn0","pricing_plan_id":"cebpf4jnsgd1na2vs0mg"},{"bike_id":"85ab4ea7-4b51-4b34-b6d9-c39d3a2afad8","system_id":"levelo_inurba_marseille","lat":43.25583,"lon":5.38243,"is_reserved":false,"is_disabled":false,"rental_uris":{"android":"levelo://app?vid=85ab4ea7-4b51-4b34-b6d9-c39d3a2afad8","ios":"levelo://app?vid=85ab4ea7-4b51-4b34-b6d9-c39d3a2afad8"},"vehicle_type_id":"4","last_reported":1729664032,"current_range_meters":27600,"station_id":"ce4bhih2rcd13ifvqfs0","pricing_plan_id":"cebpf4jnsgd1na2vs0mg"},{"bike_id":"01d08235-a4e4-434f-8493-03de70774cab","system_id":"levelo_inurba_marseille","lat":43.32116,"lon":5.36771,"is_reserved":false,"is_disabled":false,"rental_uris":{"android":"levelo://app?vid=01d08235-a4e4-434f-8493-03de70774cab","ios":"levelo://app?vid=01d08235-a4e4-434f-8493-03de70774cab"},"vehicle_type_id":"4","last_reported":1729664032,"current_range_meters":38400,"station_id":"ce4bhrh2rcd13ifvqhug","pricing_plan_id":"cebpf4jnsgd1na2vs0mg"},{"bike_id":"2b80f943-bf35-49c7-9584-ea1845fd1d05","system_id":"levelo_inurba_marseille","lat":43.23195,"lon":5.35544,"is_reserved":false,"is_disabled":false,"rental_uris":{"android":"levelo://app?vid=2b80f943-bf35-49c7-9584-ea1845fd1d05","ios":"levelo://app?vid=2b80f943-bf35-49c7-9584-ea1845fd1d05"},"vehicle_type_id":"4","last_reported":1729664032,"current_range_meters":6800,"station_id":"ce4bhu92rcd13ifvqi70","pricing_plan_id":"cebpf4jnsgd1na2vs0mg"},{"bike_id":"2c121b80-27d3-49c3-a6b4-3ab555ef32c9","system_id":"levelo_inurba_marseille","lat":43.26567,"lon":5.39008,"is_reserved":false,"is_disabled":false,"rental_uris":{"android":"levelo://app?vid=2c121b80-27d3-49c3-a6b4-3ab555ef32c9","ios":"levelo://app?vid=2c121b80-27d3-49c3-a6b4-3ab555ef32c9"},"vehicle_type_id":"4","last_reported":1729664032,"current_range_meters":38800,"station_id":"ce4bhe12rcd13ifvqf30","pricing_plan_id":"cebpf4jnsgd1na2vs0mg"},{"bike_id":"d4be358b-41a1-4e5d-a11f-e010c6bddcd5","system_id":"levelo_inurba_marseille","lat":43.23191,"lon":5.3555,"is_reserved":false,"is_disabled":false,"rental_uris":{"android":"levelo://app?vid=d4be358b-41a1-4e5d-a11f-e010c6bddcd5","ios":"levelo://app?vid=d4be358b-41a1-4e5d-a11f-e010c6bddcd5"},"vehicle_type_id":"4","last_reported":1729664032,"current_range_meters":28800,"station_id":"ce4bhu92rcd13ifvqi70","pricing_plan_id":"cebpf4jnsgd1na2vs0mg"},{"bike_id":"ce116ad0-0fc3-4443-b8ba-bd6dcd42f02b","system_id":"levelo_inurba_marseille","lat":43.25941,"lon":5.40903,"is_reserved":false,"is_disabled":false,"rental_uris":{"android":"levelo://app?vid=ce116ad0-0fc3-4443-b8ba-bd6dcd42f02b","ios":"levelo://app?vid=ce116ad0-0fc3-4443-b8ba-bd6dcd42f02b"},"vehicle_type_id":"4","last_reported":1729664032,"current_range_meters":35600,"station_id":"ce4bhm92rcd13ifvqglg","pricing_plan_id":"cebpf4jnsgd1na2vs0mg"},{"bike_id":"fb626778-9c84-4781-8d57-370227e2bb9a","system_id":"levelo_inurba_marseille","lat":43.294129,"lon":5.386238,"is_reserved":false,"is_disabled":false,"rental_uris":{"android":"levelo://app?vid=fb626778-9c84-4781-8d57-370227e2bb9a","ios":"levelo://app?vid=fb626778-9c84-4781-8d57-370227e2bb9a"},"vehicle_type_id":"4","last_reported":1729664032,"current_range_meters":30400,"station_id":"","pricing_plan_id":"cebpf4jnsgd1na2vs0mg"},