{"last_updated":1752171338,"ttl":60,"version":"2.2","data":{"bikes":[{"bike_id":"cd20cfea-2f2f-444d-a882-a49b6cf370eb","system_id":"levelo_inurba_marseille","lat":43.337444,"lon":5.374475,"is_reserved":false,"is_disabled":true,"rental_uris":{"android":"levelo://app?vid=cd20cfea-2f2f-444d-a882-a49b6cf370eb","ios":"levelo://app?vid=cd20cfea-2f2f-444d-a882-a49b6cf370eb"},"vehicle_type_id":"4","last_reported":1752171338,"current_range_meters":0,"station_id":"","pricing_plan_id":"cebpf4jnsgd1na2vs0mg"},{"bike_id":"3da29fb8-fc97-44c6-b9ac-31dd456b2fd4","system_id":"levelo_inurba_marseille","lat":43.33771,"lon":5.37424,"is_reserved":false,"is_disabled":true,"rental_uris":{"android":"levelo://app?vid=3da29fb8-fc97-44c6-b9ac-31dd456b2fd4","ios":"levelo://app?vid=3da29fb8-fc97-44c6-b9ac-31dd456b2fd4"},"vehicle_type_id":"4","last_reported":1752171338,"current_range_meters":0,"station_id":"","pricing_plan_id":"cebpf4jnsgd1na2vs0mg"},{"bike_id":"01861ad8-a8d7-4be6-816e-651927c87584","system_id":"levelo_inurba_marseille","lat":43.33751,"lon":5.37456,"is_reserved":false,"is_disabled":true,"rental_uris":{"android":"levelo://app?vid=01861ad8-a8d7-4be6-816e-651927c87584","ios":"levelo://app?vid=01861ad8-a8d7-4be6-816e-651927c87584"},"vehicle_type_id":"4","last_reported":1752171338,"current_range_meters":0,"station_id":"","pricing_plan_id":"cebpf4jnsgd1na2vs0mg"},{"bike_id":"37f2becd-23f9-4f13-a711-38b8024eeec7","system_id":"levelo_inurba_marseille","lat":43.33768,"lon":5.37516,"is_reserved":false,"is_disabled":true,"rental_uris":{"android":"levelo://app?vid=37f2becd-23f9-4f13-a711-38b8024eeec7","ios":"levelo://app?vid=37f2becd-23f9-4f13-a711-38b8024eeec7"},"vehicle_type_id":"4","last_reported":1752171338,"current_range_meters":0,"station_id":"","pricing_plan_id":"cebpf4jnsgd1na2vs0mg"},{"bike_id":"53b1a31e-8ada-40c0-8d64-113a81233c84","system_id":"levelo_inurba_marseille","lat":43.36397,"lon":5.31927,"is_reserved":false,"is_disabled":true,"rental_uris":{"android":"levelo://app?vid=53b1a31e-8ada-40c0-8d64-113a81233c84","ios":"levelo://app?vid=53b1a31e-8ada-40c0-8d64-113a81233c84"},"vehicle_type_id":"4","last_reported":1752171338,"current_range_meters":0,"station_id":"","pricing_plan_id":"cebpf4jnsgd1na2vs0mg"},{"bike_id":"eff2f310-c5f1-4115-837f-cb37fadbe442","system_id":"levelo_inurba_marseille","lat":43.29529,"lon":5.38539,"is_reserved":false,"is_disabled":true,"rental_uris":{"android":"levelo://app?vid=eff2f310-c5f1-4115-837f-cb37fadbe442","ios":"levelo://app?vid=eff2f310-c5f1-4115-837f-cb37fadbe442"},"vehicle_type_id":"4","last_reported":1752171338,"current_range_meters":0,"station_id":"ce4bgih2rcd13ifvqba0","pricing_plan_id":"cebpf4jnsgd1na2vs0mg"},{"bike_id":"e33645aa-692a-400f-b366-9329edc86649","system_id":"levelo_inurba_marseille","lat":43.29785,"lon":5.37122,"is_reserved":false,"is_disabled":true,"rental_uris":{"android":"levelo://app?vid=e33645aa-692a-400f-b366-9329edc86649","ios":"levelo://app?vid=e33645aa-692a-400f-b366-9329edc86649"},"vehicle_type_id":"4","last_reported":1752171338,"current_range_meters":0,"station_id":"ce4bgop2rcd13ifvqc1g","pricing_plan_id":"cebpf4jnsgd1na2vs0mg"},{"bike_id":"63f1ca39-84e3-4d6f-a1ab-ee45851ed728","system_id":"levelo_inurba_marseille","lat":43.273785,"lon":5.362548,"is_reserved":false,"is_disabled":true,"rental_uris":{"android":"levelo://app?vid=63f1ca39-84e3-4d6f-a1ab-ee45851ed728","ios":"levelo://app?vid=63f1ca39-84e3-4d6f-a1ab-ee45851ed728"},"vehicle_type_id":"4","last_reported":1752171338,"current_range_meters":0,"station_id":"ce4bhbh2rcd13ifvqeo0","pricing_plan_id":"cebpf4jnsgd1na2vs0mg"},{"bike_id":"b1355d02-ab92-4802-841a-416a2052734a","system_id":"levelo_inurba_marseille","lat":43.26217,"lon":5.37445,"is_reserved":false,"is_disabled":true,"rental_uris":{"android":"levelo://app?vid=b1355d02-ab92-4802-841a-416a2052734a","ios":"levelo://app?vid=b1355d02-ab92-4802-841a-416a2052734a"},"vehicle_type_id":"4","last_reported":1752171338,"current_range_meters":0,"station_id":"ce4bhgp2rcd13ifvqfc0","pricing_plan_id":"cebpf4jnsgd1na2vs0mg"},{"bike_id":"fd253d23-20da-405b-9198-c84d57bedb11","system_id":"levelo_inurba_marseille","lat":43.26215,"lon":5.37923,"is_reserved":false,"is_disabled":true,"rental_uris":{"android":"levelo://app?vid=fd253d23-20da-405b-9198-c84d57bedb11","ios":"levelo://app?vid=fd253d23-20da-405b-9198-c84d57bedb11"},"vehicle_type_id":"4","last_reported":1752171338,"current_range_meters":0,"station_id":"ce4bhjp2rcd13ifvqg90","pricing_plan_id":"cebpf4jnsgd1na2vs0mg"},{"bike_id":"034eef8c-fcb7-4cb3-92b6-7eea55ec7fca","system_id":"levelo_inurba_marseille","lat":43.27079,"lon":5.42276,"is_reserved":false,"is_disabled":true,"rental_uris":{"android":"levelo://app?vid=034eef8c-fcb7-4cb3-92b6-7eea55ec7fca","ios":"levelo://app?vid=034eef8c-fcb7-4cb3-92b6-7eea55ec7fca"},"vehicle_type_id":"4","last_reported":1752171338,"current_range_meters":0,"station_id":"ce4bhk92rcd13ifvqgb0","pricing_plan_id":"cebpf4jnsgd1na2vs0mg"},{"bike_id":"50d29d87-be07-4be0-8b6b-4da41d4d3fab","system_id":"levelo_inurba_marseille","lat":43.31103,"lon":5.42379,"is_reserved":false,"is_disabled":true,"rental_uris":{"android":"levelo://app?vid=50d29d87-be07-4be0-8b6b-4da41d4d3fab","ios":"levelo://app?vid=50d29d87-be07-4be0-8b6b-4da41d4d3fab"},"vehicle_type_id":"4","last_reported":1752171338,"current_range_meters":0,"station_id":"ce4bhp92rcd13ifvqhag","pricing_plan_id":"cebpf4jnsgd1na2vs0mg"},{"bike_id":"fd9a3e06-f183-407a-b453-bc79c986c168","system_id":"levelo_inurba_marseille","lat":43.29852,"lon":5.36287,"is_reserved":false,"is_disabled":true,"rental_uris":{"android":"levelo://app?vid=fd9a3e06-f183-407a-b453-bc79c986c168","ios":"levelo://app?vid=fd9a3e06-f183-407a-b453-bc79c986c168"},"vehicle_type_id":"4","last_reported":1752171338,"current_range_meters":400,"station_id":"ce4bgpp2rcd13ifvqc3g","pricing_plan_id":"cebpf4jnsgd1na2vs0mg"},{"bike_id":"37daad98-9602-4572-b034-e060fdfef876","system_id":"levelo_inurba_marseille","lat":43.2844,"lon":5.37559,"is_reserved":false,"is_disabled":true,"rental_uris":{"android":"levelo://app?vid=37daad98-9602-4572-b034-e060fdfef876","ios":"levelo://app?vid=37daad98-9602-4572-b034-e060fdfef876"},"vehicle_type_id":"4","last_reported":1752171338,"current_range_meters":800,"station_id":"","pricing_plan_id":"cebpf4jnsgd1na2vs0mg"},{"bike_id":"4e5f8c0f-cb03-4b0b-b1d0-45dc6d378d46","system_id":"levelo_inurba_marseille","lat":43.286058,"lon":5.370617,"is_reserved":false,"is_disabled":true,"rental_uris":{"android":"levelo://app?vid=4e5f8c0f-cb03-4b0b-b1d0-45dc6d378d46","ios":"levelo://app?vid=4e5f8c0f-cb03-4b0b-b1d0-45dc6d378d46"},"vehicle_type_id":"4","last_reported":1752171338,"current_range_meters":800,"station_id":"ce4bht12rcd13ifvqi60","pricing_plan_id":"cebpf4jnsgd1na2vs0mg"},{"bike_id":"888522e3-39b6-4ff3-ad74-ff6c6f771157","system_id":"levelo_inurba_marseille","lat":43.294929,"lon":5.402611,"is_reserved":false,"is_disabled":true,"rental_uris":{"android":"levelo://app?vid=888522e3-39b6-4ff3-ad74-ff6c6f771157","ios":"levelo://app?vid=888522e3-39b6-4ff3-ad74-ff6c6f771157"},"vehicle_type_id":"4","last_reported":1752171338,"current_range_meters":1200,"station_id":"","pricing_plan_id":"cebpf4jnsgd1na2vs0mg"},{"bike_id":"b9c3de7c-46f0-4536-acca-3e40b73d80ee","system_id":"levelo_inurba_marseille","lat":43.241761,"lon":5.397319,"is_reserved":false,"is_disabled":true,"rental_uris":{"android":"levelo://app?vid=b9c3de7c-46f0-4536-acca-3e40b73d80ee","ios":"levelo://app?vid=b9c3de7c-46f0-4536-acca-3e40b73d80ee"},"vehicle_type_id":"4","last_reported":1752171338,"current_range_meters":1200,"station_id":"ce4bhn12rcd13ifvqgpg","pricing_plan_id":"cebpf4jnsgd1na2vs0mg"},{"bike_id":"fe557580-7d40-428c-bab9-732dac0da7f1","system_id":"levelo_inurba_marseille","lat":43.21208,"lon":5.35055,"is_reserved":false,"is_disabled":true,"rental_uris":{"android":"levelo://app?vid=fe557580-7d40-428c-bab9-732dac0da7f1","ios":"levelo://app?vid=fe557580-7d40-428c-bab9-732dac0da7f1"},"vehicle_type_id":"4","last_reported":1752171338,"current_range_meters":1200,"station_id":"st_cvj6sg6p6f1abm77japg","pricing_plan_id":"cebpf4jnsgd1na2vs0mg"},{"bike_id":"cd61fbf1-0ed0-4ba7-ac6c-cc787096333d","system_id":"levelo_inurba_marseille","lat":43.24659,"lon":5.38159,"is_reserved":false,"is_disabled":true,"rental_uris":{"android":"levelo://app?vid=cd61fbf1-0ed0-4ba7-ac6c-cc787096333d","ios":"levelo://app?vid=cd61fbf1-0ed0-4ba7-ac6c-cc787096333d"},"vehicle_type_id":"4","last_reported":1752171338,"current_range_meters":1600,"station_id":"ce4bhih2rcd13ifvqfr0","pricing_plan_id":"cebpf4jnsgd1na2vs0mg"},{"bike_id":"35a9a2f5-8b07-49ec-b956-27655e91cfcd","system_id":"levelo_inurba_marseille","lat":43.30427,"lon":5.38874,"is_reserved":false,"is_disabled":false,"rental_uris":{"android":"levelo://app?vid=35a9a2f5-8b07-49ec-b956-27655e91cfcd","ios":"levelo://app?vid=35a9a2f5-8b07-49ec-b956-27655e91cfcd"},"vehicle_type_id":"4","last_reported":1752171338,"current_range_meters":2000,"station_id":"ce4bgk12rcd13ifvqbi0","pricing_plan_id":"cebpf4jnsgd1na2vs0mg"},{"bike_id":"b062ec52-67ac-4b90-996a-616c35e2b030","system_id":"levelo_inurba_marseille","lat":43.3014,"lon":5.37405,"is_reserved":false,"is_disabled":false,"rental_uris":{"android":"levelo://app?vid=b062ec52-67ac-4b90-996a-616c35e2b030","ios":"levelo://app?vid=b062ec52-67ac-4b90-996a-616c35e2b030"},"vehicle_type_id":"4","last_reported":1752171338,"current_range_meters":2000,"station_id":"ce4bgs92rcd13ifvqcc0","pricing_plan_id":"cebpf4jnsgd1na2vs0mg"},{"bike_id":"483a23dc-298c-41c6-826a-8b83fa64fb46","system_id":"levelo_inurba_marseille","lat":43.29519,"lon":5.39041,"is_reserved":false,"is_disabled":false,"rental_uris":{"android":"levelo://app?vid=483a23dc-298c-41c6-826a-8b83fa64fb46","ios":"levelo://app?vid=483a23dc-298c-41c6-826a-8b83fa64fb46"},"vehicle_type_id":"4","last_reported":1752171338,"current_range_meters":2800,"station_id":"ce4bh3p2rcd13ifvqdp0","pricing_plan_id":"cebpf4jnsgd1na2vs0mg"},{"bike_id":"940445ec-b26f-453c-913d-ad2205d64a5e","system_id":"levelo_inurba_marseille","lat":43.28942,"lon":5.36637,"is_reserved":false,"is_disabled":false,"rental_uris":{"android":"levelo://app?vid=940445ec-b26f-453c-913d-ad2205d64a5e","ios":"levelo://app?vid=940445ec-b26f-453c-913d-ad2205d64a5e"},"vehicle_type_id":"4","last_reported":1752171338,"current_range_meters":2800,"station_id":"ce4bhap2rcd13ifvqek0","pricing_plan_id":"cebpf4jnsgd1na2vs0mg"},{"bike_id":"75a2d6f3-5c0b-45bc-aedf-b53cfd0084ca","system_id":"levelo_inurba_marseille","lat":43.28272,"lon":5.35098,"is_reserved":false,"is_disabled":false,"rental_uris":{"android":"levelo://app?vid=75a2d6f3-5c0b-45bc-aedf-b53cfd0084ca","ios":"levelo://app?vid=75a2d6f3-5c0b-45bc-aedf-b53cfd0084ca"},"vehicle_type_id":"4","last_reported":1752171338,"current_range_meters":2800,"station_id":"ce4bhbp2rcd13ifvqerg","pricing_plan_id":"cebpf4jnsgd1na2vs0mg"},{"bike_id":"52fc7b60-f3c9-46d1-b38a-6422f1338b28","system_id":"levelo_inurba_marseille","lat":43.27617,"lon":5.36101,"is_reserved":false,"is_disabled":false,"rental_uris":{"android":"levelo://app?vid=52fc7b60-f3c9-46d1-b38a-6422f1338b28","ios":"levelo://app?vid=52fc7b60-f3c9-46d1-b38a-6422f1338b28"},"vehicle_type_id":"4","last_reported":1752171338,"current_range_meters":3200,"station_id":"ce4bgj92rcd13ifvqbe0","pricing_plan_id":"cebpf4jnsgd1na2vs0mg"},{"bike_id":"a356106a-772e-46cf-ac6f-573acd89b7ef","system_id":"levelo_inurba_marseille","lat":43.29706,"lon":5.36608,"is_reserved":false,"is_disabled":false,"rental_uris":{"android":"levelo://app?vid=a356106a-772e-46cf-ac6f-573acd89b7ef","ios":"levelo://app?vid=a356106a-772e-46cf-ac6f-573acd89b7ef"},"vehicle_type_id":"4","last_reported":1752171338,"current_range_meters":3200,"station_id":"ce4bgn12rcd13ifvqbt0","pricing_plan_id":"cebpf4jnsgd1na2vs0mg"},{"bike_id":"75801f8a-c63f-4537-bea2-7e2c0674479f","system_id":"levelo_inurba_marseille","lat":43.3089,"lon":5.39656,"is_reserved":false,"is_disabled":false,"rental_uris":{"android":"levelo://app?vid=75801f8a-c63f-4537-bea2-7e2c0674479f","ios":"levelo://app?vid=75801f8a-c63f-4537-bea2-7e2c0674479f"},"vehicle_type_id":"4","last_reported":1752171338,"current_range_meters":3200,"station_id":"ce4bh012rcd13ifvqcv0","pricing_plan_id":"cebpf4jnsgd1na2vs0mg"},{"bike_id":"300d0f32-fafc-485a-95a3-86f9c12fe61c","system_id":"levelo_inurba_marseille","lat":43.28666,"lon":5.38661,"is_reserved":false,"is_disabled":false,"rental_uris":{"android":"levelo://app?vid=300d0f32-fafc-485a-95a3-86f9c12fe61c","ios":"levelo://app?vid=300d0f32-fafc-485a-95a3-86f9c12fe61c"},"vehicle_type_id":"4","last_reported":1752171338,"current_range_meters":3200,"station_id":"ce4bh492rcd13ifvqdug","pricing_plan_id":"cebpf4jnsgd1na2vs0mg"},{"bike_id":"e69bcf43-6d95-43e3-bdc6-bf45144b1f37","system_id":"levelo_inurba_marseille","lat":43.27811,"lon":5.40713,"is_reserved":false,"is_disabled":false,"rental_uris":{"android":"levelo://app?vid=e69bcf43-6d95-43e3-bdc6-bf45144b1f37","ios":"levelo://app?vid=e69bcf43-6d95-43e3-bdc6-bf45144b1f37"},"vehicle_type_id":"4","last_reported":1752171338,"current_range_meters":3200,"station_id":"ce4bhnh2rcd13ifvqgtg","pricing_plan_id":"cebpf4jnsgd1na2vs0mg"},{"bike_id":"6ffd8a14-443c-4b23-acef-ec86bb5acc76","system_id":"levelo_inurba_marseille","lat":43.29021,"lon":5.386672,"is_reserved":false,"is_disabled":false,"rental_uris":{"android":"levelo://app?vid=6ffd8a14-443c-4b23-acef-ec86bb5acc76","ios":"levelo://app?vid=6ffd8a14-443c-4b23-acef-ec86bb5acc76"},"vehicle_type_id":"4","last_reported":1752171338,"current_range_meters":3600,"station_id":"ce4bh4p2rcd13ifvqe0g","pricing_plan_id":"cebpf4jnsgd1na2vs0mg"},{"bike_id":"22cb6f1d-7d56-4334-8aed-796934c564c1","system_id":"levelo_inurba_marseille","lat":43.27377,"lon":5.36251,"is_reserved":false,"is_disabled":false,"rental_uris":{"android":"levelo://app?vid=22cb6f1d-7d56-4334-8aed-796934c564c1","ios":"levelo://app?vid=22cb6f1d-7d56-4334-8aed-796934c564c1"},"vehicle_type_id":"4","last_reported":1752171338,"current_range_meters":3600,"station_id":"ce4bhbh2rcd13ifvqeo0","pricing_plan_id":"cebpf4jnsgd1na2vs0mg"},{"bike_id":"507e1d0d-c995-4dce-9cda-e050da589bff","system_id":"levelo_inurba_marseille","lat":43.28905,"lon":5.3664,"is_reserved":false,"is_disabled":false,"rental_uris":{"android":"levelo://app?vid=507e1d0d-c995-4dce-9cda-e050da589bff","ios":"levelo://app?vid=507e1d0d-c995-4dce-9cda-e050da589bff"},"vehicle_type_id":"4","last_reported":1752171338,"current_range_meters":4400,"station_id":"","pricing_plan_id":"cebpf4jnsgd1na2vs0mg"},{"bike_id":"9546c102-d545-49c8-94ca-204d7592e518","system_id":"levelo_inurba_marseille","lat":43.29418,"lon":5.38607,"is_reserved":false,"is_disabled":false,"rental_uris":{"android":"levelo://app?vid=9546c102-d545-49c8-94ca-204d7592e518","ios":"levelo://app?vid=9546c102-d545-49c8-94ca-204d7592e518"},"vehicle_type_id":"4","last_reported":1752171338,"current_range_meters":4400,"station_id":"ce4bh2h2rcd13ifvqdh0","pricing_plan_id":"cebpf4jnsgd1na2vs0mg"},{"bike_id":"809fa2ac-42cf-4652-9284-32a936915350","system_id":"levelo_inurba_marseille","lat":43.30196,"lon":5.36621,"is_reserved":false,"is_disabled":false,"rental_uris":{"android":"levelo://app?vid=809fa2ac-42cf-4652-9284-32a936915350","ios":"levelo://app?vid=809fa2ac-42cf-4652-9284-32a936915350"},"vehicle_type_id":"4","last_reported":1752171338,"current_range_meters":4800,"station_id":"ce4bgrh2rcd13ifvqc8g","pricing_plan_id":"cebpf4jnsgd1na2vs0mg"},{"bike_id":"2f00ff57-6515-4d89-9ba8-e9061e4cd060","system_id":"levelo_inurba_marseille","lat":43.21744,"lon":5.34604,"is_reserved":false,"is_disabled":false,"rental_uris":{"android":"levelo://app?vid=2f00ff57-6515-4d89-9ba8-e9061e4cd060","ios":"levelo://app?vid=2f00ff57-6515-4d89-9ba8-e9061e4cd060"},"vehicle_type_id":"4","last_reported":1752171338,"current_range_meters":4800,"station_id":"st_cvj6r9ubvosntc0bgbag","pricing_plan_id":"cebpf4jnsgd1na2vs0mg"},{"bike_id":"159fe00e-1605-4a3a-a906-ef8dcd52b1db","system_id":"levelo_inurba_marseille","lat":43.30811,"lon":5.3737,"is_reserved":false,"is_disabled":false,"rental_uris":{"android":"levelo://app?vid=159fe00e-1605-4a3a-a906-ef8dcd52b1db","ios":"levelo://app?vid=159fe00e-1605-4a3a-a906-ef8dcd52b1db"},"vehicle_type_id":"4","last_reported":1752171338,"current_range_meters":5600,"station_id":"","pricing_plan_id":"cebpf4jnsgd1na2vs0mg"},{"bike_id":"3074f380-0166-438d-bf02-d1922bbf376c","system_id":"levelo_inurba_marseille","lat":43.29031,"lon":5.39971,"is_reserved":false,"is_disabled":false,"rental_uris":{"android":"levelo://app?vid=3074f380-0166-438d-bf02-d1922bbf376c","ios":"levelo://app?vid=3074f380-0166-438d-bf02-d1922bbf376c"},"vehicle_type_id":"4","last_reported":1752171338,"current_range_meters":5600,"station_id":"ce4bh392rcd13ifvqdm0","pricing_plan_id":"cebpf4jnsgd1na2vs0mg"},{"bike_id":"a9cb122c-cd5c-441d-94aa-7dc3c58b0007","system_id":"levelo_inurba_marseille","lat":43.27987,"lon":5.40017,"is_reserved":false,"is_disabled":false,"rental_uris":{"android":"levelo://app?vid=a9cb122c-cd5c-441d-94aa-7dc3c58b0007","ios":"levelo://app?vid=a9cb122c-cd5c-441d-94aa-7dc3c58b0007"},"vehicle_type_id":"4","last_reported":1752171338,"current_range_meters":5600,"station_id":"ce4bho92rcd13ifvqh4g","pricing_plan_id":"cebpf4jnsgd1na2vs0mg"},{"bike_id":"ba1d0918-a39d-438a-b4c5-f913bbe641bb","system_id":"levelo_inurba_marseille","lat":43.30643,"lon":5.40102,"is_reserved":false,"is_disabled":false,"rental_uris":{"android":"levelo://app?vid=ba1d0918-a39d-438a-b4c5-f913bbe641bb","ios":"levelo://app?vid=ba1d0918-a39d-438a-b4c5-f913bbe641bb"},"vehicle_type_id":"4","last_reported":1752171338,"current_range_meters":6000,"station_id":"ce4bh112rcd13ifvqda0","pricing_plan_id":"cebpf4jnsgd1na2vs0mg"},{"bike_id":"0ca94ebf-1c13-47bc-84dd-2bc2aa72c78d","system_id":"levelo_inurba_marseille","lat":43.28415,"lon":5.3498,"is_reserved":false,"is_disabled":false,"rental_uris":{"android":"levelo://app?vid=0ca94ebf-1c13-47bc-84dd-2bc2aa72c78d","ios":"levelo://app?vid=0ca94ebf-1c13-47bc-84dd-2bc2aa72c78d"},"vehicle_type_id":"4","last_reported":1752171338,"current_range_meters":6000,"station_id":"ce4bhbh2rcd13ifvqepg","pricing_plan_id":"cebpf4jnsgd1na2vs0mg"},{"bike_id":"3e49a458-552a-4010-ad4e-262707d45bba","system_id":"levelo_inurba_marseille","lat":43.29777,"lon":5.37107,"is_reserved":false,"is_disabled":false,"rental_uris":{"android":"levelo://app?vid=3e49a458-552a-4010-ad4e-262707d45bba","ios":"levelo://app?vid=3e49a458-552a-4010-ad4e-262707d45bba"},"vehicle_type_id":"4","last_reported":1752171338,"current_range_meters":6800,"station_id":"ce4bgop2rcd13ifvqc1g","pricing_plan_id":"cebpf4jnsgd1na2vs0mg"},{"bike_id":"2915b130-d756-4b58-b790-a9eac0fa5fff","system_id":"levelo_inurba_marseille","lat":43.31164,"lon":5.38716,"is_reserved":false,"is_disabled":false,"rental_uris":{"android":"levelo://app?vid=2915b130-d756-4b58-b790-a9eac0fa5fff","ios":"levelo://app?vid=2915b130-d756-4b58-b790-a9eac0fa5fff"},"vehicle_type_id":"4","last_reported":1752171338,"current_range_meters":6800,"station_id":"ce4bgv12rcd13ifvqcp0","pricing_plan_id":"cebpf4jnsgd1na2vs0mg"},{"bike_id":"cc2e0a7a-e7fc-4c4c-b517-cde4da6d7378","system_id":"levelo_inurba_marseille","lat":43.31171,"lon":5.38715,"is_reserved":false,"is_disabled":false,"rental_uris":{"android":"levelo://app?vid=cc2e0a7a-e7fc-4c4c-b517-cde4da6d7378","ios":"levelo://app?vid=cc2e0a7a-e7fc-4c4c-b517-cde4da6d7378"},"vehicle_type_id":"4","last_reported":1752171338,"current_range_meters":7200,"station_id":"ce4bgv12rcd13ifvqcp0","pricing_plan_id":"cebpf4jnsgd1na2vs0mg"},{"bike_id":"61773b43-810d-4780-b369-d8307a1ae40c","system_id":"levelo_inurba_marseille","lat":43.28459,"lon":5.35881,"is_reserved":false,"is_disabled":false,"rental_uris":{"android":"levelo://app?vid=61773b43-810d-4780-b369-d8307a1ae40c","ios":"levelo://app?vid=61773b43-810d-4780-b369-d8307a1ae40c"},"vehicle_type_id":"4","last_reported":1752171338,"current_range_meters":7200,"station_id":"ce4bhah2rcd13ifvqei0","pricing_plan_id":"cebpf4jnsgd1na2vs0mg"},{"bike_id":"7577620c-3ef5-40e5-9c5d-3249caaf777f","system_id":"levelo_inurba_marseille","lat":43.27371,"lon":5.36256,"is_reserved":false,"is_disabled":false,"rental_uris":{"android":"levelo://app?vid=7577620c-3ef5-40e5-9c5d-3249caaf777f","ios":"levelo://app?vid=7577620c-3ef5-40e5-9c5d-3249caaf777f"},"vehicle_type_id":"4","last_reported":1752171338,"current_range_meters":7200,"station_id":"ce4bhbh2rcd13ifvqeo0","pricing_plan_id":"cebpf4jnsgd1na2vs0mg"},{"bike_id":"b0651168-94fa-4ec2-b887-db41f31c0106","system_id":"levelo_inurba_marseille","lat":43.33021,"lon":5.38356,"is_reserved":false,"is_disabled":false,"rental_uris":{"android":"levelo://app?vid=b0651168-94fa-4ec2-b887-db41f31c0106","ios":"levelo://app?vid=b0651168-94fa-4ec2-b887-db41f31c0106"},"vehicle_type_id":"4","last_reported":1752171338,"current_range_meters":8000,"station_id":"","pricing_plan_id":"cebpf4jnsgd1na2vs0mg"},{"bike_id":"b452c600-6b88-44ea-872b-547ac2b96d6c","system_id":"levelo_inurba_marseille","lat":43.21746,"lon":5.34608,"is_reserved":false,"is_disabled":false,"rental_uris":{"android":"levelo://app?vid=b452c600-6b88-44ea-872b-547ac2b96d6c","ios":"levelo://app?vid=b452c600-6b88-44ea-872b-547ac2b96d6c"},"vehicle_type_id":"4","last_reported":1752171338,"current_range_meters":8000,"station_id":"st_cvj6r9ubvosntc0bgbag","pricing_plan_id":"cebpf4jnsgd1na2vs0mg"},{"bike_id":"f573a8fb-f1f8-47c4-901e-ddf2739a5cca","system_id":"levelo_inurba_marseille","lat":43.35999,"lon":5.32472,"is_reserved":false,"is_disabled":false,"rental_uris":{"android":"levelo://app?vid=f573a8fb-f1f8-47c4-901e-ddf2739a5cca","ios":"levelo://app?vid=f573a8fb-f1f8-47c4-901e-ddf2739a5cca"},"vehicle_type_id":"4","last_reported":1752171338,"current_range_meters":8400,"station_id":"","pricing_plan_id":"cebpf4jnsgd1na2vs0mg"},{"bike_id":"8b8945a1-58f0-4b35-b08d-d81b1e46be9a","system_id":"levelo_inurba_marseille","lat":43.31363,"lon":5.38491,"is_reserved":false,"is_disabled":false,"rental_uris":{"android":"levelo://app?vid=8b8945a1-58f0-4b35-b08d-d81b1e46be9a","ios":"levelo://app?vid=8b8945a1-58f0-4b35-b08d-d81b1e46be9a"},"vehicle_type_id":"4","last_reported":1752171338,"current_range_meters":8400,"station_id":"ce4bgt92rcd13ifvqcf0","pricing_plan_id":"cebpf4jnsgd1na2vs0mg"},{"bike_id":"010a5b2c-058f-44d0-858b-8804e83d21ad","system_id":"levelo_inurba_marseille","lat":43.305969,"lon":5.393607,"is_reserved":false,"is_disabled":false,"rental_uris":{"android":"levelo://app?vid=010a5b2c-058f-44d0-858b-8804e83d21ad","ios":"levelo://app?vid=010a5b2c-058f-44d0-858b-8804e83d21ad"},"vehicle_type_id":"4","last_reported":1752171338,"current_range_meters":8400,"station_id":"ce4bh0p2rcd13ifvqd80","pricing_plan_id":"cebpf4jnsgd1na2vs0mg"},{"bike_id":"1f678510-7b2c-4a9e-b96d-c8c10e4e1ea7","system_id":"levelo_inurba_marseille","lat":43.28026,"lon":5.39982,"is_reserved":false,"is_disabled":false,"rental_uris":{"android":"levelo://app?vid=1f678510-7b2c-4a9e-b96d-c8c10e4e1ea7","ios":"levelo://app?vid=1f678510-7b2c-4a9e-b96d-c8c10e4e1ea7"},"vehicle_type_id":"4","last_reported":1752171338,"current_range_meters":8400,"station_id":"ce4bho92rcd13ifvqh4g","pricing_plan_id":"cebpf4jnsgd1na2vs0mg"},{"bike_id":"20873e98-3b34-4a06-821c-aaf71cffedba","system_id":"levelo_inurba_marseille","lat":43.28721,"lon":5.36103,"is_reserved":false,"is_disabled":false,"rental_uris":{"android":"levelo://app?vid=20873e98-3b34-4a06-821c-aaf71cffedba","ios":"levelo://app?vid=20873e98-3b34-4a06-821c-aaf71cffedba"},"vehicle_type_id":"4","last_reported":1752171338,"current_range_meters":8400,"station_id":"cki0cbj6b192h4jlfktg","pricing_plan_id":"cebpf4jnsgd1na2vs0mg"},{"bike_id":"7ae74de8-e479-4c21-a498-a97a116f047d","system_id":"levelo_inurba_marseille","lat":43.29529,"lon":5.38541,"is_reserved":false,"is_disabled":false,"rental_uris":{"android":"levelo://app?vid=7ae74de8-e479-4c21-a498-a97a116f047d","ios":"levelo://app?vid=7ae74de8-e479-4c21-a498-a97a116f047d"},"vehicle_type_id":"4","last_reported":1752171338,"current_range_meters":8800,"station_id":"ce4bgih2rcd13ifvqba0","pricing_plan_id":"cebpf4jnsgd1na2vs0mg"},{"bike_id":"7b24f02c-84b7-43d1-a7c4-9f5006b6f82f","system_id":"levelo_inurba_marseille","lat":43.27374,"lon":5.36254,"is_reserved":false,"is_disabled":false,"rental_uris":{"android":"levelo://app?vid=7b24f02c-84b7-43d1-a7c4-9f5006b6f82f","ios":"levelo://app?vid=7b24f02c-84b7-43d1-a7c4-9f5006b6f82f"},"vehicle_type_id":"4","last_reported":1752171338,"current_range_meters":8800,"station_id":"ce4bhbh2rcd13ifvqeo0","pricing_plan_id":"cebpf4jnsgd1na2vs0mg"},{"bike_id":"e86f96e5-f2aa-4d72-829c-c868b674b3a0","system_id":"levelo_inurba_marseille","lat":43.23157,"lon":5.437087,"is_reserved":false,"is_disabled":false,"rental_uris":{"android":"levelo://app?vid=e86f96e5-f2aa-4d72-829c-c868b674b3a0","ios":"levelo://app?vid=e86f96e5-f2aa-4d72-829c-c868b674b3a0"},"vehicle_type_id":"4","last_reported":1752171338,"current_range_meters":8800,"station_id":"ce4bhmp2rcd13ifvqgog","pricing_plan_id":"cebpf4jnsgd1na2vs0mg"},{"bike_id":"ba480b1d-fbef-4d54-9bb0-c2fa8b787212","system_id":"levelo_inurba_marseille","lat":43.21194,"lon":5.35056,"is_reserved":false,"is_disabled":false,"rental_uris":{"android":"levelo://app?vid=ba480b1d-fbef-4d54-9bb0-c2fa8b787212","ios":"levelo://app?vid=ba480b1d-fbef-4d54-9bb0-c2fa8b787212"},"vehicle_type_id":"4","last_reported":1752171338,"current_range_meters":8800,"station_id":"st_cvj6sg6p6f1abm77japg","pricing_plan_id":"cebpf4jnsgd1na2vs0mg"},{"bike_id":"c0ddbe25-08a6-4a56-a4bc-e3b15e570c9f","system_id":"levelo_inurba_marseille","lat":43.27367,"lon":5.36256,"is_reserved":false,"is_disabled":false,"rental_uris":{"android":"levelo://app?vid=c0ddbe25-08a6-4a56-a4bc-e3b15e570c9f","ios":"levelo://app?vid=c0ddbe25-08a6-4a56-a4bc-e3b15e570c9f"},"vehicle_type_id":"4","last_reported":1752171338,"current_range_meters":9200,"station_id":"ce4bhbh2rcd13ifvqeo0","pricing_plan_id":"cebpf4jnsgd1na2vs0mg"},{"bike_id":"993f1c0d-8afc-4381-ae18-d8d534716fce","system_id":"levelo_inurba_marseille","lat":43.28428,"lon":5.34992,"is_reserved":false,"is_disabled":false,"rental_uris":{"android":"levelo://app?vid=993f1c0d-8afc-4381-ae18-d8d534716fce","ios":"levelo://app?vid=993f1c0d-8afc-4381-ae18-d8d534716fce"},"vehicle_type_id":"4","last_reported":1752171338,"current_range_meters":9200,"station_id":"ce4bhbh2rcd13ifvqepg","pricing_plan_id":"cebpf4jnsgd1na2vs0mg"},{"bike_id":"c887d9c8-a70f-465a-bc71-8d2afec5de7a","system_id":"levelo_inurba_marseille","lat":43.28412,"lon":5.34983,"is_reserved":false,"is_disabled":false,"rental_uris":{"android":"levelo://app?vid=c887d9c8-a70f-465a-bc71-8d2afec5de7a","ios":"levelo://app?vid=c887d9c8-a70f-465a-bc71-8d2afec5de7a"},"vehicle_type_id":"4","last_reported":1752171338,"current_range_meters":9200,"station_id":"ce4bhbh2rcd13ifvqepg","pricing_plan_id":"cebpf4jnsgd1na2vs0mg"},{"bike_id":"a95c0d64-4f09-446b-bb8e-ad4252bdcb2a","system_id":"levelo_inurba_marseille","lat":43.26797,"lon":5.40289,"is_reserved":false,"is_disabled":false,"rental_uris":{"android":"levelo://app?vid=a95c0d64-4f09-446b-bb8e-ad4252bdcb2a","ios":"levelo://app?vid=a95c0d64-4f09-446b-bb8e-ad4252bdcb2a"},"vehicle_type_id":"4","last_reported":1752171338,"current_range_meters":9200,"station_id":"ce501612rcd8frsf0b60","pricing_plan_id":"cebpf4jnsgd1na2vs0mg"},{"bike_id":"21ae54b9-7375-4101-b8a7-bff9d6e1fa32","system_id":"levelo_inurba_marseille","lat":43.30006,"lon":5.37603,"is_reserved":false,"is_disabled":false,"rental_uris":{"android":"levelo://app?vid=21ae54b9-7375-4101-b8a7-bff9d6e1fa32","ios":"levelo://app?vid=21ae54b9-7375-4101-b8a7-bff9d6e1fa32"},"vehicle_type_id":"4","last_reported":1752171338,"current_range_meters":9600,"station_id":"","pricing_plan_id":"cebpf4jnsgd1na2vs0mg"},{"bike_id":"3e3e859a-3f06-416e-991d-a41b8c25e793","system_id":"levelo_inurba_marseille","lat":43.31171,"lon":5.38718,"is_reserved":false,"is_disabled":false,"rental_uris":{"android":"levelo://app?vid=3e3e859a-3f06-416e-991d-a41b8c25e793","ios":"levelo://app?vid=3e3e859a-3f06-416e-991d-a41b8c25e793"},"vehicle_type_id":"4","last_reported":1752171338,"current_range_meters":9600,"station_id":"ce4bgv12rcd13ifvqcp0","pricing_plan_id":"cebpf4jnsgd1na2vs0mg"},{"bike_id":"56c06933-7b74-48ca-a11b-e8bafb8a11d2","system_id":"levelo_inurba_marseille","lat":43.28418,"lon":5.34972,"is_reserved":false,"is_disabled":false,"rental_uris":{"android":"levelo://app?vid=56c06933-7b74-48ca-a11b-e8bafb8a11d2","ios":"levelo://app?vid=56c06933-7b74-48ca-a11b-e8bafb8a11d2"},"vehicle_type_id":"4","last_reported":1752171338,"current_range_meters":9600,"station_id":"ce4bhbh2rcd13ifvqepg","pricing_plan_id":"cebpf4jnsgd1na2vs0mg"},{"bike_id":"75253c05-6276-41a0-9b35-a9cf32d2a047","system_id":"levelo_inurba_marseille","lat":43.28262,"lon":5.35064,"is_reserved":false,"is_disabled":false,"rental_uris":{"android":"levelo://app?vid=75253c05-6276-41a0-9b35-a9cf32d2a047","ios":"levelo://app?vid=75253c05-6276-41a0-9b35-a9cf32d2a047"},"vehicle_type_id":"4","last_reported":1752171338,"current_range_meters":9600,"station_id":"ce4bhbp2rcd13ifvqerg","pricing_plan_id":"cebpf4jnsgd1na2vs0mg"},{"bike_id":"488ecd6c-2184-4e11-9b70-6b67e50a7c87","system_id":"levelo_inurba_marseille","lat":43.2511,"lon":5.4032,"is_reserved":false,"is_disabled":false,"rental_uris":{"android":"levelo://app?vid=488ecd6c-2184-4e11-9b70-6b67e50a7c87","ios":"levelo://app?vid=488ecd6c-2184-4e11-9b70-6b67e50a7c87"},"vehicle_type_id":"4","last_reported":1752171338,"current_range_meters":9600,"station_id":"ce4bhlh2rcd13ifvqgig","pricing_plan_id":"cebpf4jnsgd1na2vs0mg"},{"bike_id":"6e5c2657-ccb8-4153-8b94-2143bc427a03","system_id":"levelo_inurba_marseille","lat":43.22513,"lon":5.34748,"is_reserved":false,"is_disabled":false,"rental_uris":{"android":"levelo://app?vid=6e5c2657-ccb8-4153-8b94-2143bc427a03","ios":"levelo://app?vid=6e5c2657-ccb8-4153-8b94-2143bc427a03"},"vehicle_type_id":"4","last_reported":1752171338,"current_range_meters":9600,"station_id":"st_cvj5dfep6f1abm77gieg","pricing_plan_id":"cebpf4jnsgd1na2vs0mg"},{"bike_id":"b757ffbb-2b71-4330-9f60-5f8a9d46d16e","system_id":"levelo_inurba_marseille","lat":43.29671,"lon":5.37075,"is_reserved":false,"is_disabled":false,"rental_uris":{"android":"levelo://app?vid=b757ffbb-2b71-4330-9f60-5f8a9d46d16e","ios":"levelo://app?vid=b757ffbb-2b71-4330-9f60-5f8a9d46d16e"},"vehicle_type_id":"4","last_reported":1752171338,"current_range_meters":10000,"station_id":"","pricing_plan_id":"cebpf4jnsgd1na2vs0mg"},{"bike_id":"b2caa530-bb19-4cc6-a6bd-61e3e1d7432e","system_id":"levelo_inurba_marseille","lat":43.33763,"lon":5.37461,"is_reserved":false,"is_disabled":false,"rental_uris":{"android":"levelo://app?vid=b2caa530-bb19-4cc6-a6bd-61e3e1d7432e","ios":"levelo://app?vid=b2caa530-bb19-4cc6-a6bd-61e3e1d7432e"},"vehicle_type_id":"4","last_reported":1752171338,"current_range_meters":10000,"station_id":"","pricing_plan_id":"cebpf4jnsgd1na2vs0mg"},{"bike_id":"83caaf0d-b918-4b8a-83e5-fb6a9ff083fb","system_id":"levelo_inurba_marseille","lat":43.29468,"lon":5.37445,"is_reserved":false,"is_disabled":false,"rental_uris":{"android":"levelo://app?vid=83caaf0d-b918-4b8a-83e5-fb6a9ff083fb","ios":"levelo://app?vid=83caaf0d-b918-4b8a-83e5-fb6a9ff083fb"},"vehicle_type_id":"4","last_reported":1752171338,"current_range_meters":10000,"station_id":"","pricing_plan_id":"cebpf4jnsgd1na2vs0mg"},{"bike_id":"833f97ec-e704-4051-ab3b-2e9eb58f71d0","system_id":"levelo_inurba_marseille","lat":43.30244,"lon":5.37527,"is_reserved":false,"is_disabled":false,"rental_uris":{"android":"levelo://app?vid=833f97ec-e704-4051-ab3b-2e9eb58f71d0","ios":"levelo://app?vid=833f97ec-e704-4051-ab3b-2e9eb58f71d0"},"vehicle_type_id":"4","last_reported":1752171338,"current_range_meters":10000,"station_id":"","pricing_plan_id":"cebpf4jnsgd1na2vs0mg"},{"bike_id":"6ef5f3ea-45a5-4129-a8bc-9005968550f8","system_id":"levelo_inurba_marseille","lat":43.304234,"lon":5.36843,"is_reserved":false,"is_disabled":false,"rental_uris":{"android":"levelo://app?vid=6ef5f3ea-45a5-4129-a8bc-9005968550f8","ios":"levelo://app?vid=6ef5f3ea-45a5-4129-a8bc-9005968550f8"},"vehicle_type_id":"4","last_reported":1752171338,"current_range_meters":10000,"station_id":"","pricing_plan_id":"cebpf4jnsgd1na2vs0mg"},{"bike_id":"f7022e5d-d7f9-49b7-9f44-948a84ae2652","system_id":"levelo_inurba_marseille","lat":43.29603,"lon":5.381,"is_reserved":false,"is_disabled":false,"rental_uris":{"android":"levelo://app?vid=f7022e5d-d7f9-49b7-9f44-948a84ae2652","ios":"levelo://app?vid=f7022e5d-d7f9-49b7-9f44-948a84ae2652"},"vehicle_type_id":"4","last_reported":1752171338,"current_range_meters":10000,"station_id":"ce4bgl12rcd13ifvqbo0","pricing_plan_id":"cebpf4jnsgd1na2vs0mg"},{"bike_id":"f24ee973-ea80-415e-b7f4-a9597b2cb429","system_id":"levelo_inurba_marseille","lat":43.30588,"lon":5.39353,"is_reserved":false,"is_disabled":false,"rental_uris":{"android":"levelo://app?vid=f24ee973-ea80-415e-b7f4-a9597b2cb429","ios":"levelo://app?vid=f24ee973-ea80-415e-b7f4-a9597b2cb429"},"vehicle_type_id":"4","last_reported":1752171338,"current_range_meters":10000,"station_id":"ce4bh0p2rcd13ifvqd80","pricing_plan_id":"cebpf4jnsgd1na2vs0mg"},{"bike_id":"aa80e517-4100-4aa5-926e-88e2dd4de3b7","system_id":"levelo_inurba_marseille","lat":43.292739,"lon":5.384426,"is_reserved":false,"is_disabled":false,"rental_uris":{"android":"levelo://app?vid=aa80e517-4100-4aa5-926e-88e2dd4de3b7","ios":"levelo://app?vid=aa80e517-4100-4aa5-926e-88e2dd4de3b7"},"vehicle_type_id":"4","last_reported":1752171338,"current_range_meters":10000,"station_id":"ce4bh692rcd13ifvqea0","pricing_plan_id":"cebpf4jnsgd1na2vs0mg"},{"bike_id":"051e4d81-7ebf-4304-8d7c-7acb25a25457","system_id":"levelo_inurba_marseille","lat":43.2901,"lon":5.35607,"is_reserved":false,"is_disabled":false,"rental_uris":{"android":"levelo://app?vid=051e4d81-7ebf-4304-8d7c-7acb25a25457","ios":"levelo://app?vid=051e4d81-7ebf-4304-8d7c-7acb25a25457"},"vehicle_type_id":"4","last_reported":1752171338,"current_range_meters":10000,"station_id":"ce4bhb92rcd13ifvqen0","pricing_plan_id":"cebpf4jnsgd1na2vs0mg"},{"bike_id":"b044b02e-96f0-42bc-944b-a13b3c08707f","system_id":"levelo_inurba_marseille","lat":43.28407,"lon":5.34981,"is_reserved":false,"is_disabled":false,"rental_uris":{"android":"levelo://app?vid=b044b02e-96f0-42bc-944b-a13b3c08707f","ios":"levelo://app?vid=b044b02e-96f0-42bc-944b-a13b3c08707f"},"vehicle_type_id":"4","last_reported":1752171338,"current_range_meters":10000,"station_id":"ce4bhbh2rcd13ifvqepg","pricing_plan_id":"cebpf4jnsgd1na2vs0mg"},{"bike_id":"52810e48-ccc0-47e3-964a-9771ebcb6c5a","system_id":"levelo_inurba_marseille","lat":43.28415,"lon":5.3498,"is_reserved":false,"is_disabled":false,"rental_uris":{"android":"levelo://app?vid=52810e48-ccc0-47e3-964a-9771ebcb6c5a","ios":"levelo://app?vid=52810e48-ccc0-47e3-964a-9771ebcb6c5a"},"vehicle_type_id":"4","last_reported":1752171338,"current_range_meters":10000,"station_id":"ce4bhbh2rcd13ifvqepg","pricing_plan_id":"cebpf4jnsgd1na2vs0mg"},{"bike_id":"af5f2d13-a59b-4a57-a272-e84f7525f466","system_id":"levelo_inurba_marseille","lat":43.282698,"lon":5.350591,"is_reserved":false,"is_disabled":false,"rental_uris":{"android":"levelo://app?vid=af5f2d13-a59b-4a57-a272-e84f7525f466","ios":"levelo://app?vid=af5f2d13-a59b-4a57-a272-e84f7525f466"},"vehicle_type_id":"4","last_reported":1752171338,"current_range_meters":10000,"station_id":"ce4bhbp2rcd13ifvqerg","pricing_plan_id":"cebpf4jnsgd1na2vs0mg"},{"bike_id":"f2404c81-afb8-42f4-976d-5c62f47d74db","system_id":"levelo_inurba_marseille","lat":43.28005,"lon":5.40008,"is_reserved":false,"is_disabled":false,"rental_uris":{"android":"levelo://app?vid=f2404c81-afb8-42f4-976d-5c62f47d74db","ios":"levelo://app?vid=f2404c81-afb8-42f4-976d-5c62f47d74db"},"vehicle_type_id":"4","last_reported":1752171338,"current_range_meters":10000,"station_id":"ce4bho92rcd13ifvqh4g","pricing_plan_id":"cebpf4jnsgd1na2vs0mg"},{"bike_id":"75b3246f-c6c5-4cb4-b582-95e731cbb8b9","system_id":"levelo_inurba_marseille","lat":43.28643,"lon":5.3508,"is_reserved":false,"is_disabled":false,"rental_uris":{"android":"levelo://app?vid=75b3246f-c6c5-4cb4-b582-95e731cbb8b9","ios":"levelo://app?vid=75b3246f-c6c5-4cb4-b582-95e731cbb8b9"},"vehicle_type_id":"4","last_reported":1752171338,"current_range_meters":10800,"station_id":"ce4bhch2rcd13ifvqeug","pricing_plan_id":"cebpf4jnsgd1na2vs0mg"},{"bike_id":"2a2c2ba3-f4e7-4476-b21e-559d75857b71","system_id":"levelo_inurba_marseille","lat":43.27071,"lon":5.42285,"is_reserved":false,"is_disabled":false,"rental_uris":{"android":"levelo://app?vid=2a2c2ba3-f4e7-4476-b21e-559d75857b71","ios":"levelo://app?vid=2a2c2ba3-f4e7-4476-b21e-559d75857b71"},"vehicle_type_id":"4","last_reported":1752171338,"current_range_meters":10800,"station_id":"ce4bhk92rcd13ifvqgb0","pricing_plan_id":"cebpf4jnsgd1na2vs0mg"},{"bike_id":"2569a65d-5bee-4544-bd87-a810f1ae7687","system_id":"levelo_inurba_marseille","lat":43.28156,"lon":5.42639,"is_reserved":false,"is_disabled":false,"rental_uris":{"android":"levelo://app?vid=2569a65d-5bee-4544-bd87-a810f1ae7687","ios":"levelo://app?vid=2569a65d-5bee-4544-bd87-a810f1ae7687"},"vehicle_type_id":"4","last_reported":1752171338,"current_range_meters":10800,"station_id":"ce4bhnh2rcd13ifvqgug","pricing_plan_id":"cebpf4jnsgd1na2vs0mg"},{"bike_id":"c5923766-a058-453e-bbe7-097d47ad2548","system_id":"levelo_inurba_marseille","lat":43.31193,"lon":5.38755,"is_reserved":false,"is_disabled":false,"rental_uris":{"android":"levelo://app?vid=c5923766-a058-453e-bbe7-097d47ad2548","ios":"levelo://app?vid=c5923766-a058-453e-bbe7-097d47ad2548"},"vehicle_type_id":"4","last_reported":1752171338,"current_range_meters":11200,"station_id":"ce4bgt92rcd13ifvqcf0","pricing_plan_id":"cebpf4jnsgd1na2vs0mg"},{"bike_id":"ec381503-7830-4e1f-b165-5e90e2b53a12","system_id":"levelo_inurba_marseille","lat":43.299175,"lon":5.396593,"is_reserved":false,"is_disabled":false,"rental_uris":{"android":"levelo://app?vid=ec381503-7830-4e1f-b165-5e90e2b53a12","ios":"levelo://app?vid=ec381503-7830-4e1f-b165-5e90e2b53a12"},"vehicle_type_id":"4","last_reported":1752171338,"current_range_meters":11200,"station_id":"ce4bh0h2rcd13ifvqd50","pricing_plan_id":"cebpf4jnsgd1na2vs0mg"},{"bike_id":"f9ee97f3-793a-4037-86cc-dfe626a501ba","system_id":"levelo_inurba_marseille","lat":43.28427,"lon":5.34997,"is_reserved":false,"is_disabled":false,"rental_uris":{"android":"levelo://app?vid=f9ee97f3-793a-4037-86cc-dfe626a501ba","ios":"levelo://app?vid=f9ee97f3-793a-4037-86cc-dfe626a501ba"},"vehicle_type_id":"4","last_reported":1752171338,"current_range_meters":11200,"station_id":"ce4bhbh2rcd13ifvqepg","pricing_plan_id":"cebpf4jnsgd1na2vs0mg"},{"bike_id":"3e9bf0ba-20ef-4d1d-8346-6d7b9775dbd9","system_id":"levelo_inurba_marseille","lat":43.28433,"lon":5.34976,"is_reserved":false,"is_disabled":false,"rental_uris":{"android":"levelo://app?vid=3e9bf0ba-20ef-4d1d-8346-6d7b9775dbd9","ios":"levelo://app?vid=3e9bf0ba-20ef-4d1d-8346-6d7b9775dbd9"},"vehicle_type_id":"4","last_reported":1752171338,"current_range_meters":11600,"station_id":"ce4bhbh2rcd13ifvqepg","pricing_plan_id":"cebpf4jnsgd1na2vs0mg"},{"bike_id":"32b0a09d-db22-4845-ba5e-b043bb8d161e","system_id":"levelo_inurba_marseille","lat":43.2843,"lon":5.34973,"is_reserved":false,"is_disabled":false,"rental_uris":{"android":"levelo://app?vid=32b0a09d-db22-4845-ba5e-b043bb8d161e","ios":"levelo://app?vid=32b0a09d-db22-4845-ba5e-b043bb8d161e"},"vehicle_type_id":"4","last_reported":1752171338,"current_range_meters":11600,"station_id":"ce4bhbh2rcd13ifvqepg","pricing_plan_id":"cebpf4jnsgd1na2vs0mg"},{"bike_id":"3addef00-ca3c-4c42-a798-21ea38fcfd37","system_id":"levelo_inurba_marseille","lat":43.30163,"lon":5.38782,"is_reserved":false,"is_disabled":false,"rental_uris":{"android":"levelo://app?vid=3addef00-ca3c-4c42-a798-21ea38fcfd37","ios":"levelo://app?vid=3addef00-ca3c-4c42-a798-21ea38fcfd37"},"vehicle_type_id":"4","last_reported":1752171338,"current_range_meters":12000,"station_id":"ce4bghh2rcd13ifvqb60","pricing_plan_id":"cebpf4jnsgd1na2vs0mg"},{"bike_id":"235d415e-3ff8-433e-95dc-5841547b1b60","system_id":"levelo_inurba_marseille","lat":43.27386,"lon":5.36251,"is_reserved":false,"is_disabled":false,"rental_uris":{"android":"levelo://app?vid=235d415e-3ff8-433e-95dc-5841547b1b60","ios":"levelo://app?vid=235d415e-3ff8-433e-95dc-5841547b1b60"},"vehicle_type_id":"4","last_reported":1752171338,"current_range_meters":12000,"station_id":"ce4bhbh2rcd13ifvqeo0","pricing_plan_id":"cebpf4jnsgd1na2vs0mg"},{"bike_id":"1b536b30-9d8f-4c6c-b51f-2550a4ca59bc","system_id":"levelo_inurba_marseille","lat":43.26554,"lon":5.37284,"is_reserved":false,"is_disabled":false,"rental_uris":{"android":"levelo://app?vid=1b536b30-9d8f-4c6c-b51f-2550a4ca59bc","ios":"levelo://app?vid=1b536b30-9d8f-4c6c-b51f-2550a4ca59bc"},"vehicle_type_id":"4","last_reported":1752171338,"current_range_meters":12000,"station_id":"ce4bhg12rcd13ifvqf70","pricing_plan_id":"cebpf4jnsgd1na2vs0mg"},{"bike_id":"91d06fcb-f6c0-4226-8287-6163c1c10dc2","system_id":"levelo_inurba_marseille","lat":43.26793,"lon":5.39411,"is_reserved":false,"is_disabled":false,"rental_uris":{"android":"levelo://app?vid=91d06fcb-f6c0-4226-8287-6163c1c10dc2","ios":"levelo://app?vid=91d06fcb-f6c0-4226-8287-6163c1c10dc2"},"vehicle_type_id":"4","last_reported":1752171338,"current_range_meters":12000,"station_id":"ce4bhh12rcd13ifvqfg0","pricing_plan_id":"cebpf4jnsgd1na2vs0mg"},{"bike_id":"5e3de7c8-3182-4a73-8e5c-d4ae2028ef6e","system_id":"levelo_inurba_marseille","lat":43.21749,"lon":5.34602,"is_reserved":false,"is_disabled":false,"rental_uris":{"android":"levelo://app?vid=5e3de7c8-3182-4a73-8e5c-d4ae2028ef6e","ios":"levelo://app?vid=5e3de7c8-3182-4a73-8e5c-d4ae2028ef6e"},"vehicle_type_id":"4","last_reported":1752171338,"current_range_meters":12400,"station_id":"","pricing_plan_id":"cebpf4jnsgd1na2vs0mg"},{"bike_id":"feaa7e3a-cbe4-4489-be11-8a12d7eec173","system_id":"levelo_inurba_marseille","lat":43.25085,"lon":5.4273,"is_reserved":false,"is_disabled":false,"rental_uris":{"android":"levelo://app?vid=feaa7e3a-cbe4-4489-be11-8a12d7eec173","ios":"levelo://app?vid=feaa7e3a-cbe4-4489-be11-8a12d7eec173"},"vehicle_type_id":"4","last_reported":1752171338,"current_range_meters":12400,"station_id":"","pricing_plan_id":"cebpf4jnsgd1na2vs0mg"},{"bike_id":"73fc7984-12e3-4bae-9195-8440a99a0ee7","system_id":"levelo_inurba_marseille","lat":43.28597,"lon":5.3508,"is_reserved":false,"is_disabled":false,"rental_uris":{"android":"levelo://app?vid=73fc7984-12e3-4bae-9195-8440a99a0ee7","ios":"levelo://app?vid=73fc7984-12e3-4bae-9195-8440a99a0ee7"},"vehicle_type_id":"4","last_reported":1752171338,"current_range_meters":12400,"station_id":"ce4bhch2rcd13ifvqeug","pricing_plan_id":"cebpf4jnsgd1na2vs0mg"},{"bike_id":"f4d7c9cd-bf52-49fd-beca-b00ce865f4c7","system_id":"levelo_inurba_marseille","lat":43.27058,"lon":5.42258,"is_reserved":false,"is_disabled":false,"rental_uris":{"android":"levelo://app?vid=f4d7c9cd-bf52-49fd-beca-b00ce865f4c7","ios":"levelo://app?vid=f4d7c9cd-bf52-49fd-beca-b00ce865f4c7"},"vehicle_type_id":"4","last_reported":1752171338,"current_range_meters":12400,"station_id":"ce4bhk92rcd13ifvqgb0","pricing_plan_id":"cebpf4jnsgd1na2vs0mg"},{"bike_id":"02068a9f-a0da-4441-ab6c-c273bf38cedc","system_id":"levelo_inurba_marseille","lat":43.24168,"lon":5.36392,"is_reserved":false,"is_disabled":false,"rental_uris":{"android":"levelo://app?vid=02068a9f-a0da-4441-ab6c-c273bf38cedc","ios":"levelo://app?vid=02068a9f-a0da-4441-ab6c-c273bf38cedc"},"vehicle_type_id":"4","last_reported":1752171338,"current_range_meters":12400,"station_id":"cpo36qri1sfpv3e86is0","pricing_plan_id":"cebpf4jnsgd1na2vs0mg"},{"bike_id":"d884c645-ea54-4a8c-8d8c-c58a48e3ce15","system_id":"levelo_inurba_marseille","lat":43.31085,"lon":5.42428,"is_reserved":false,"is_disabled":false,"rental_uris":{"android":"levelo://app?vid=d884c645-ea54-4a8c-8d8c-c58a48e3ce15","ios":"levelo://app?vid=d884c645-ea54-4a8c-8d8c-c58a48e3ce15"},"vehicle_type_id":"4","last_reported":1752171338,"current_range_meters":12800,"station_id":"ce4bhp92rcd13ifvqhag","pricing_plan_id":"cebpf4jnsgd1na2vs0mg"},{"bike_id":"de010bc4-5e98-41bd-aed3-9094f259cc5a","system_id":"levelo_inurba_marseille","lat":43.24173,"lon":5.3639,"is_reserved":false,"is_disabled":false,"rental_uris":{"android":"levelo://app?vid=de010bc4-5e98-41bd-aed3-9094f259cc5a","ios":"levelo://app?vid=de010bc4-5e98-41bd-aed3-9094f259cc5a"},"vehicle_type_id":"4","last_reported":1752171338,"current_range_meters":12800,"station_id":"cpo36qri1sfpv3e86is0","pricing_plan_id":"cebpf4jnsgd1na2vs0mg"},{"bike_id":"d4fef870-f3df-418c-b45a-632453acc9ad","system_id":"levelo_inurba_marseille","lat":43.22531,"lon":5.34756,"is_reserved":false,"is_disabled":false,"rental_uris":{"android":"levelo://app?vid=d4fef870-f3df-418c-b45a-632453acc9ad","ios":"levelo://app?vid=d4fef870-f3df-418c-b45a-632453acc9ad"},"vehicle_type_id":"4","last_reported":1752171338,"current_range_meters":12800,"station_id":"st_cvj5dfep6f1abm77gieg","pricing_plan_id":"cebpf4jnsgd1na2vs0mg"},{"bike_id":"d738154a-b7a8-47ee-b4de-b37e92312c88","system_id":"levelo_inurba_marseille","lat":43.26177,"lon":5.37049,"is_reserved":false,"is_disabled":false,"rental_uris":{"android":"levelo://app?vid=d738154a-b7a8-47ee-b4de-b37e92312c88","ios":"levelo://app?vid=d738154a-b7a8-47ee-b4de-b37e92312c88"},"vehicle_type_id":"4","last_reported":1752171338,"current_range_meters":13600,"station_id":"","pricing_plan_id":"cebpf4jnsgd1na2vs0mg"},{"bike_id":"25ef2303-6b1b-49d6-ab7b-b18203da8181","system_id":"levelo_inurba_marseille","lat":43.30212,"lon":5.39468,"is_reserved":false,"is_disabled":false,"rental_uris":{"android":"levelo://app?vid=25ef2303-6b1b-49d6-ab7b-b18203da8181","ios":"levelo://app?vid=25ef2303-6b1b-49d6-ab7b-b18203da8181"},"vehicle_type_id":"4","last_reported":1752171338,"current_range_meters":13600,"station_id":"ce4bh0p2rcd13ifvqd70","pricing_plan_id":"cebpf4jnsgd1na2vs0mg"},{"bike_id":"b561e6f5-3cb5-4e20-b799-eb58407fb41d","system_id":"levelo_inurba_marseille","lat":43.28411,"lon":5.34984,"is_reserved":false,"is_disabled":false,"rental_uris":{"android":"levelo://app?vid=b561e6f5-3cb5-4e20-b799-eb58407fb41d","ios":"levelo://app?vid=b561e6f5-3cb5-4e20-b799-eb58407fb41d"},"vehicle_type_id":"4","last_reported":1752171338,"current_range_meters":13600,"station_id":"ce4bhbh2rcd13ifvqepg","pricing_plan_id":"cebpf4jnsgd1na2vs0mg"},{"bike_id":"6ee92805-62ff-42fe-af17-ee95fd3e7715","system_id":"levelo_inurba_marseille","lat":43.28607,"lon":5.3706,"is_reserved":false,"is_disabled":false,"rental_uris":{"android":"levelo://app?vid=6ee92805-62ff-42fe-af17-ee95fd3e7715","ios":"levelo://app?vid=6ee92805-62ff-42fe-af17-ee95fd3e7715"},"vehicle_type_id":"4","last_reported":1752171338,"current_range_meters":13600,"station_id":"ce4bht12rcd13ifvqi60","pricing_plan_id":"cebpf4jnsgd1na2vs0mg"},{"bike_id":"f373e4a8-33e3-4f72-ae8e-e7ab386910f4","system_id":"levelo_inurba_marseille","lat":43.22545,"lon":5.3477,"is_reserved":false,"is_disabled":false,"rental_uris":{"android":"levelo://app?vid=f373e4a8-33e3-4f72-ae8e-e7ab386910f4","ios":"levelo://app?vid=f373e4a8-33e3-4f72-ae8e-e7ab386910f4"},"vehicle_type_id":"4","last_reported":1752171338,"current_range_meters":14000,"station_id":"","pricing_plan_id":"cebpf4jnsgd1na2vs0mg"},{"bike_id":"7d284605-f7c0-412e-b5b4-a0ee769a2579","system_id":"levelo_inurba_marseille","lat":43.30534,"lon":5.36711,"is_reserved":false,"is_disabled":false,"rental_uris":{"android":"levelo://app?vid=7d284605-f7c0-412e-b5b4-a0ee769a2579","ios":"levelo://app?vid=7d284605-f7c0-412e-b5b4-a0ee769a2579"},"vehicle_type_id":"4","last_reported":1752171338,"current_range_meters":14000,"station_id":"ce4bgrp2rcd13ifvqc9g","pricing_plan_id":"cebpf4jnsgd1na2vs0mg"},{"bike_id":"09718c31-4f6f-43aa-81f4-ffa0f37a5385","system_id":"levelo_inurba_marseille","lat":43.289246,"lon":5.383926,"is_reserved":false,"is_disabled":false,"rental_uris":{"android":"levelo://app?vid=09718c31-4f6f-43aa-81f4-ffa0f37a5385","ios":"levelo://app?vid=09718c31-4f6f-43aa-81f4-ffa0f37a5385"},"vehicle_type_id":"4","last_reported":1752171338,"current_range_meters":14000,"station_id":"ce4bh612rcd13ifvqe6g","pricing_plan_id":"cebpf4jnsgd1na2vs0mg"},{"bike_id":"5e652fbf-2930-4f54-b983-f14790f50846","system_id":"levelo_inurba_marseille","lat":43.27394,"lon":5.36251,"is_reserved":false,"is_disabled":false,"rental_uris":{"android":"levelo://app?vid=5e652fbf-2930-4f54-b983-f14790f50846","ios":"levelo://app?vid=5e652fbf-2930-4f54-b983-f14790f50846"},"vehicle_type_id":"4","last_reported":1752171338,"current_range_meters":14000,"station_id":"ce4bhbh2rcd13ifvqeo0","pricing_plan_id":"cebpf4jnsgd1na2vs0mg"},{"bike_id":"500cab3d-e4d2-4809-b7e4-1753fef29cef","system_id":"levelo_inurba_marseille","lat":43.26224,"lon":5.37468,"is_reserved":false,"is_disabled":false,"rental_uris":{"android":"levelo://app?vid=500cab3d-e4d2-4809-b7e4-1753fef29cef","ios":"levelo://app?vid=500cab3d-e4d2-4809-b7e4-1753fef29cef"},"vehicle_type_id":"4","last_reported":1752171338,"current_range_meters":14000,"station_id":"ce4bhgp2rcd13ifvqfc0","pricing_plan_id":"cebpf4jnsgd1na2vs0mg"},{"bike_id":"57fab532-1988-413c-911b-2da348592625","system_id":"levelo_inurba_marseille","lat":43.33607,"lon":5.41031,"is_reserved":false,"is_disabled":false,"rental_uris":{"android":"levelo://app?vid=57fab532-1988-413c-911b-2da348592625","ios":"levelo://app?vid=57fab532-1988-413c-911b-2da348592625"},"vehicle_type_id":"4","last_reported":1752171338,"current_range_meters":14000,"station_id":"ce4bhqh2rcd13ifvqhmg","pricing_plan_id":"cebpf4jnsgd1na2vs0mg"},{"bike_id":"6dd9e797-9813-4302-b94f-00cc7a2c78c0","system_id":"levelo_inurba_marseille","lat":43.30457,"lon":5.37898,"is_reserved":false,"is_disabled":false,"rental_uris":{"android":"levelo://app?vid=6dd9e797-9813-4302-b94f-00cc7a2c78c0","ios":"levelo://app?vid=6dd9e797-9813-4302-b94f-00cc7a2c78c0"},"vehicle_type_id":"4","last_reported":1752171338,"current_range_meters":14400,"station_id":"ce4bgup2rcd13ifvqcn0","pricing_plan_id":"cebpf4jnsgd1na2vs0mg"},{"bike_id":"71e5adc7-1a40-471b-9ca1-9c81ff750eef","system_id":"levelo_inurba_marseille","lat":43.284051,"lon":5.349866,"is_reserved":false,"is_disabled":false,"rental_uris":{"android":"levelo://app?vid=71e5adc7-1a40-471b-9ca1-9c81ff750eef","ios":"levelo://app?vid=71e5adc7-1a40-471b-9ca1-9c81ff750eef"},"vehicle_type_id":"4","last_reported":1752171338,"current_range_meters":14400,"station_id":"ce4bh3p2rcd13ifvqdq0","pricing_plan_id":"cebpf4jnsgd1na2vs0mg"},{"bike_id":"119b7eed-1582-4766-b484-107798ee8de6","system_id":"levelo_inurba_marseille","lat":43.284218,"lon":5.349908,"is_reserved":false,"is_disabled":false,"rental_uris":{"android":"levelo://app?vid=119b7eed-1582-4766-b484-107798ee8de6","ios":"levelo://app?vid=119b7eed-1582-4766-b484-107798ee8de6"},"vehicle_type_id":"4","last_reported":1752171338,"current_range_meters":14400,"station_id":"ce4bhbh2rcd13ifvqepg","pricing_plan_id":"cebpf4jnsgd1na2vs0mg"},{"bike_id":"ee107576-8a74-4f44-bee9-eae2a50be695","system_id":"levelo_inurba_marseille","lat":43.27811,"lon":5.4071,"is_reserved":false,"is_disabled":false,"rental_uris":{"android":"levelo://app?vid=ee107576-8a74-4f44-bee9-eae2a50be695","ios":"levelo://app?vid=ee107576-8a74-4f44-bee9-eae2a50be695"},"vehicle_type_id":"4","last_reported":1752171338,"current_range_meters":14400,"station_id":"ce4bhnh2rcd13ifvqgtg","pricing_plan_id":"cebpf4jnsgd1na2vs0mg"},{"bike_id":"f4d8afa1-8f4d-42c0-b795-8a2d2ea9a8de","system_id":"levelo_inurba_marseille","lat":43.2782,"lon":5.40711,"is_reserved":false,"is_disabled":false,"rental_uris":{"android":"levelo://app?vid=f4d8afa1-8f4d-42c0-b795-8a2d2ea9a8de","ios":"levelo://app?vid=f4d8afa1-8f4d-42c0-b795-8a2d2ea9a8de"},"vehicle_type_id":"4","last_reported":1752171338,"current_range_meters":14400,"station_id":"ce4bhnh2rcd13ifvqgtg","pricing_plan_id":"cebpf4jnsgd1na2vs0mg"},{"bike_id":"9f5e74ce-2459-4c6f-a171-f6d1e8a1ed83","system_id":"levelo_inurba_marseille","lat":43.318515,"lon":5.375615,"is_reserved":false,"is_disabled":false,"rental_uris":{"android":"levelo://app?vid=9f5e74ce-2459-4c6f-a171-f6d1e8a1ed83","ios":"levelo://app?vid=9f5e74ce-2459-4c6f-a171-f6d1e8a1ed83"},"vehicle_type_id":"4","last_reported":1752171338,"current_range_meters":14800,"station_id":"","pricing_plan_id":"cebpf4jnsgd1na2vs0mg"},{"bike_id":"7bb9c953-6a4a-4b53-b40e-d2136dc0bda1","system_id":"levelo_inurba_marseille","lat":43.29514,"lon":5.39398,"is_reserved":false,"is_disabled":false,"rental_uris":{"android":"levelo://app?vid=7bb9c953-6a4a-4b53-b40e-d2136dc0bda1","ios":"levelo://app?vid=7bb9c953-6a4a-4b53-b40e-d2136dc0bda1"},"vehicle_type_id":"4","last_reported":1752171338,"current_range_meters":14800,"station_id":"ce4bh292rcd13ifvqdf0","pricing_plan_id":"cebpf4jnsgd1na2vs0mg"},{"bike_id":"2f71b814-3e8b-4f65-aa89-00c9f3faee45","system_id":"levelo_inurba_marseille","lat":43.27379,"lon":5.36253,"is_reserved":false,"is_disabled":false,"rental_uris":{"android":"levelo://app?vid=2f71b814-3e8b-4f65-aa89-00c9f3faee45","ios":"levelo://app?vid=2f71b814-3e8b-4f65-aa89-00c9f3faee45"},"vehicle_type_id":"4","last_reported":1752171338,"current_range_meters":14800,"station_id":"ce4bhbh2rcd13ifvqeo0","pricing_plan_id":"cebpf4jnsgd1na2vs0mg"},{"bike_id":"7bd17b98-98df-4e90-887a-4f27e867b1b5","system_id":"levelo_inurba_marseille","lat":43.28412,"lon":5.34982,"is_reserved":false,"is_disabled":false,"rental_uris":{"android":"levelo://app?vid=7bd17b98-98df-4e90-887a-4f27e867b1b5","ios":"levelo://app?vid=7bd17b98-98df-4e90-887a-4f27e867b1b5"},"vehicle_type_id":"4","last_reported":1752171338,"current_range_meters":14800,"station_id":"ce4bhbh2rcd13ifvqepg","pricing_plan_id":"cebpf4jnsgd1na2vs0mg"},{"bike_id":"cd75a637-cb44-4860-80c5-72a0738ab912","system_id":"levelo_inurba_marseille","lat":43.28284,"lon":5.3507,"is_reserved":false,"is_disabled":false,"rental_uris":{"android":"levelo://app?vid=cd75a637-cb44-4860-80c5-72a0738ab912","ios":"levelo://app?vid=cd75a637-cb44-4860-80c5-72a0738ab912"},"vehicle_type_id":"4","last_reported":1752171338,"current_range_meters":14800,"station_id":"ce4bhbp2rcd13ifvqerg","pricing_plan_id":"cebpf4jnsgd1na2vs0mg"},{"bike_id":"7b2f643a-7d1c-42b7-80be-592982c3d0a7","system_id":"levelo_inurba_marseille","lat":43.28943,"lon":5.36397,"is_reserved":false,"is_disabled":false,"rental_uris":{"android":"levelo://app?vid=7b2f643a-7d1c-42b7-80be-592982c3d0a7","ios":"levelo://app?vid=7b2f643a-7d1c-42b7-80be-592982c3d0a7"},"vehicle_type_id":"4","last_reported":1752171338,"current_range_meters":14800,"station_id":"ce4bhc92rcd13ifvqetg","pricing_plan_id":"cebpf4jnsgd1na2vs0mg"},{"bike_id":"cb0890e8-3c02-4962-99e3-73812f6ce8d5","system_id":"levelo_inurba_marseille","lat":43.2956,"lon":5.42267,"is_reserved":false,"is_disabled":false,"rental_uris":{"android":"levelo://app?vid=cb0890e8-3c02-4962-99e3-73812f6ce8d5","ios":"levelo://app?vid=cb0890e8-3c02-4962-99e3-73812f6ce8d5"},"vehicle_type_id":"4","last_reported":1752171338,"current_range_meters":14800,"station_id":"ce4bhph2rcd13ifvqhdg","pricing_plan_id":"cebpf4jnsgd1na2vs0mg"},{"bike_id":"73fe94e8-74f9-41f0-85e9-7d8c52adf2fc","system_id":"levelo_inurba_marseille","lat":43.212583,"lon":5.352979,"is_reserved":false,"is_disabled":false,"rental_uris":{"android":"levelo://app?vid=73fe94e8-74f9-41f0-85e9-7d8c52adf2fc","ios":"levelo://app?vid=73fe94e8-74f9-41f0-85e9-7d8c52adf2fc"},"vehicle_type_id":"4","last_reported":1752171338,"current_range_meters":15200,"station_id":"","pricing_plan_id":"cebpf4jnsgd1na2vs0mg"},{"bike_id":"8330a68f-2f6e-4337-9657-35d7d87c04ca","system_id":"levelo_inurba_marseille","lat":43.25451,"lon":5.37946,"is_reserved":false,"is_disabled":false,"rental_uris":{"android":"levelo://app?vid=8330a68f-2f6e-4337-9657-35d7d87c04ca","ios":"levelo://app?vid=8330a68f-2f6e-4337-9657-35d7d87c04ca"},"vehicle_type_id":"4","last_reported":1752171338,"current_range_meters":15200,"station_id":"","pricing_plan_id":"cebpf4jnsgd1na2vs0mg"},{"bike_id":"4e209b0c-855f-4b51-8120-2faef8673853","system_id":"levelo_inurba_marseille","lat":43.30609,"lon":5.368776,"is_reserved":false,"is_disabled":false,"rental_uris":{"android":"levelo://app?vid=4e209b0c-855f-4b51-8120-2faef8673853","ios":"levelo://app?vid=4e209b0c-855f-4b51-8120-2faef8673853"},"vehicle_type_id":"4","last_reported":1752171338,"current_range_meters":15200,"station_id":"","pricing_plan_id":"cebpf4jnsgd1na2vs0mg"},{"bike_id":"dbf3da54-be73-4994-bec7-7887f92b76ce","system_id":"levelo_inurba_marseille","lat":43.301422,"lon":5.387812,"is_reserved":false,"is_disabled":false,"rental_uris":{"android":"levelo://app?vid=dbf3da54-be73-4994-bec7-7887f92b76ce","ios":"levelo://app?vid=dbf3da54-be73-4994-bec7-7887f92b76ce"},"vehicle_type_id":"4","last_reported":1752171338,"current_range_meters":15200,"station_id":"ce4bghh2rcd13ifvqb60","pricing_plan_id":"cebpf4jnsgd1na2vs0mg"},{"bike_id":"04148f14-4cd8-42b8-8416-c87a9d5cb2a7","system_id":"levelo_inurba_marseille","lat":43.28425,"lon":5.34973,"is_reserved":false,"is_disabled":false,"rental_uris":{"android":"levelo://app?vid=04148f14-4cd8-42b8-8416-c87a9d5cb2a7","ios":"levelo://app?vid=04148f14-4cd8-42b8-8416-c87a9d5cb2a7"},"vehicle_type_id":"4","last_reported":1752171338,"current_range_meters":15200,"station_id":"ce4bhbh2rcd13ifvqepg","pricing_plan_id":"cebpf4jnsgd1na2vs0mg"},{"bike_id":"68206798-4358-4f0c-9291-28079dce63c8","system_id":"levelo_inurba_marseille","lat":43.21748,"lon":5.34604,"is_reserved":false,"is_disabled":false,"rental_uris":{"android":"levelo://app?vid=68206798-4358-4f0c-9291-28079dce63c8","ios":"levelo://app?vid=68206798-4358-4f0c-9291-28079dce63c8"},"vehicle_type_id":"4","last_reported":1752171338,"current_range_meters":15200,"station_id":"st_cvj6r9ubvosntc0bgbag","pricing_plan_id":"cebpf4jnsgd1na2vs0mg"},{"bike_id":"fa87fcb5-aacb-41a1-a789-0296bbd02085","system_id":"levelo_inurba_marseille","lat":43.24584,"lon":5.37362,"is_reserved":false,"is_disabled":false,"rental_uris":{"android":"levelo://app?vid=fa87fcb5-aacb-41a1-a789-0296bbd02085","ios":"levelo://app?vid=fa87fcb5-aacb-41a1-a789-0296bbd02085"},"vehicle_type_id":"4","last_reported":1752171338,"current_range_meters":16000,"station_id":"","pricing_plan_id":"cebpf4jnsgd1na2vs0mg"},{"bike_id":"6be4b21e-e014-4d3a-a50e-0cebc691580a","system_id":"levelo_inurba_marseille","lat":43.29518,"lon":5.39397,"is_reserved":false,"is_disabled":false,"rental_uris":{"android":"levelo://app?vid=6be4b21e-e014-4d3a-a50e-0cebc691580a","ios":"levelo://app?vid=6be4b21e-e014-4d3a-a50e-0cebc691580a"},"vehicle_type_id":"4","last_reported":1752171338,"current_range_meters":16000,"station_id":"ce4bh292rcd13ifvqdf0","pricing_plan_id":"cebpf4jnsgd1na2vs0mg"},{"bike_id":"c7bc0b85-c966-4913-8908-15a71d65944b","system_id":"levelo_inurba_marseille","lat":43.35442,"lon":5.35726,"is_reserved":false,"is_disabled":false,"rental_uris":{"android":"levelo://app?vid=c7bc0b85-c966-4913-8908-15a71d65944b","ios":"levelo://app?vid=c7bc0b85-c966-4913-8908-15a71d65944b"},"vehicle_type_id":"4","last_reported":1752171338,"current_range_meters":16400,"station_id":"","pricing_plan_id":"cebpf4jnsgd1na2vs0mg"},{"bike_id":"24b17f7b-dff1-4936-b27a-7c2c6813a894","system_id":"levelo_inurba_marseille","lat":43.24592,"lon":5.37372,"is_reserved":false,"is_disabled":false,"rental_uris":{"android":"levelo://app?vid=24b17f7b-dff1-4936-b27a-7c2c6813a894","ios":"levelo://app?vid=24b17f7b-dff1-4936-b27a-7c2c6813a894"},"vehicle_type_id":"4","last_reported":1752171338,"current_range_meters":16400,"station_id":"","pricing_plan_id":"cebpf4jnsgd1na2vs0mg"},{"bike_id":"a3de34e6-d647-4b2a-bb10-610642056870","system_id":"levelo_inurba_marseille","lat":43.304712,"lon":5.379148,"is_reserved":false,"is_disabled":false,"rental_uris":{"android":"levelo://app?vid=a3de34e6-d647-4b2a-bb10-610642056870","ios":"levelo://app?vid=a3de34e6-d647-4b2a-bb10-610642056870"},"vehicle_type_id":"4","last_reported":1752171338,"current_range_meters":16400,"station_id":"ce4bgup2rcd13ifvqcn0","pricing_plan_id":"cebpf4jnsgd1na2vs0mg"},{"bike_id":"c751cfdc-8590-45aa-9169-4c0b568b07f7","system_id":"levelo_inurba_marseille","lat":43.30427,"lon":5.39737,"is_reserved":false,"is_disabled":false,"rental_uris":{"android":"levelo://app?vid=c751cfdc-8590-45aa-9169-4c0b568b07f7","ios":"levelo://app?vid=c751cfdc-8590-45aa-9169-4c0b568b07f7"},"vehicle_type_id":"4","last_reported":1752171338,"current_range_meters":16400,"station_id":"ce4bh092rcd13ifvqd20","pricing_plan_id":"cebpf4jnsgd1na2vs0mg"},{"bike_id":"2b7774e0-3c21-42ed-b128-221dab19f142","system_id":"levelo_inurba_marseille","lat":43.28425,"lon":5.3497,"is_reserved":false,"is_disabled":false,"rental_uris":{"android":"levelo://app?vid=2b7774e0-3c21-42ed-b128-221dab19f142","ios":"levelo://app?vid=2b7774e0-3c21-42ed-b128-221dab19f142"},"vehicle_type_id":"4","last_reported":1752171338,"current_range_meters":16400,"station_id":"ce4bhbh2rcd13ifvqepg","pricing_plan_id":"cebpf4jnsgd1na2vs0mg"},{"bike_id":"3d961560-9115-4b42-9f53-b964768eb6af","system_id":"levelo_inurba_marseille","lat":43.29224,"lon":5.36056,"is_reserved":false,"is_disabled":false,"rental_uris":{"android":"levelo://app?vid=3d961560-9115-4b42-9f53-b964768eb6af","ios":"levelo://app?vid=3d961560-9115-4b42-9f53-b964768eb6af"},"vehicle_type_id":"4","last_reported":1752171338,"current_range_meters":16400,"station_id":"ce4bhbh2rcd13ifvqeqg","pricing_plan_id":"cebpf4jnsgd1na2vs0mg"},{"bike_id":"15ab90ec-56d6-4852-abe6-f4c7ffe49d82","system_id":"levelo_inurba_marseille","lat":43.28274,"lon":5.35046,"is_reserved":false,"is_disabled":false,"rental_uris":{"android":"levelo://app?vid=15ab90ec-56d6-4852-abe6-f4c7ffe49d82","ios":"levelo://app?vid=15ab90ec-56d6-4852-abe6-f4c7ffe49d82"},"vehicle_type_id":"4","last_reported":1752171338,"current_range_meters":16400,"station_id":"ce4bhbp2rcd13ifvqerg","pricing_plan_id":"cebpf4jnsgd1na2vs0mg"},{"bike_id":"4b902542-85c0-4efd-9663-33ced14a7aea","system_id":"levelo_inurba_marseille","lat":43.28277,"lon":5.35062,"is_reserved":false,"is_disabled":false,"rental_uris":{"android":"levelo://app?vid=4b902542-85c0-4efd-9663-33ced14a7aea","ios":"levelo://app?vid=4b902542-85c0-4efd-9663-33ced14a7aea"},"vehicle_type_id":"4","last_reported":1752171338,"current_range_meters":16400,"station_id":"ce4bhbp2rcd13ifvqerg","pricing_plan_id":"cebpf4jnsgd1na2vs0mg"},{"bike_id":"667c09ea-c263-45c6-970e-66a91712704c","system_id":"levelo_inurba_marseille","lat":43.26572,"lon":5.37292,"is_reserved":false,"is_disabled":false,"rental_uris":{"android":"levelo://app?vid=667c09ea-c263-45c6-970e-66a91712704c","ios":"levelo://app?vid=667c09ea-c263-45c6-970e-66a91712704c"},"vehicle_type_id":"4","last_reported":1752171338,"current_range_meters":16400,"station_id":"ce4bhg12rcd13ifvqf70","pricing_plan_id":"cebpf4jnsgd1na2vs0mg"},{"bike_id":"8a87d126-7081-40d3-970c-6975ed1bc78e","system_id":"levelo_inurba_marseille","lat":43.23196,"lon":5.35552,"is_reserved":false,"is_disabled":false,"rental_uris":{"android":"levelo://app?vid=8a87d126-7081-40d3-970c-6975ed1bc78e","ios":"levelo://app?vid=8a87d126-7081-40d3-970c-6975ed1bc78e"},"vehicle_type_id":"4","last_reported":1752171338,"current_range_meters":16400,"station_id":"ce4bhu92rcd13ifvqi70","pricing_plan_id":"cebpf4jnsgd1na2vs0mg"},{"bike_id":"7febf714-5ea9-4f73-ba8d-5f6697fc5c0a","system_id":"levelo_inurba_marseille","lat":43.22936,"lon":5.35375,"is_reserved":false,"is_disabled":false,"rental_uris":{"android":"levelo://app?vid=7febf714-5ea9-4f73-ba8d-5f6697fc5c0a","ios":"levelo://app?vid=7febf714-5ea9-4f73-ba8d-5f6697fc5c0a"},"vehicle_type_id":"4","last_reported":1752171338,"current_range_meters":16400,"station_id":"cpo3532slgdg3j2ikp40","pricing_plan_id":"cebpf4jnsgd1na2vs0mg"},{"bike_id":"37aae3bf-1666-4b50-a869-6d8dfe4b2676","system_id":"levelo_inurba_marseille","lat":43.22504,"lon":5.34774,"is_reserved":false,"is_disabled":false,"rental_uris":{"android":"levelo://app?vid=37aae3bf-1666-4b50-a869-6d8dfe4b2676","ios":"levelo://app?vid=37aae3bf-1666-4b50-a869-6d8dfe4b2676"},"vehicle_type_id":"4","last_reported":1752171338,"current_range_meters":16400,"station_id":"st_cvj5dfep6f1abm77gieg","pricing_plan_id":"cebpf4jnsgd1na2vs0mg"},{"bike_id":"ee1ac907-8623-4d00-ac01-d41dd90be9fe","system_id":"levelo_inurba_marseille","lat":43.21192,"lon":5.3507,"is_reserved":false,"is_disabled":false,"rental_uris":{"android":"levelo://app?vid=ee1ac907-8623-4d00-ac01-d41dd90be9fe","ios":"levelo://app?vid=ee1ac907-8623-4d00-ac01-d41dd90be9fe"},"vehicle_type_id":"4","last_reported":1752171338,"current_range_meters":16400,"station_id":"st_cvj6sg6p6f1abm77japg","pricing_plan_id":"cebpf4jnsgd1na2vs0mg"},{"bike_id":"a5a6c2c1-2d48-4581-8647-6eab6c0bbb54","system_id":"levelo_inurba_marseille","lat":43.26338,"lon":5.37382,"is_reserved":false,"is_disabled":false,"rental_uris":{"android":"levelo://app?vid=a5a6c2c1-2d48-4581-8647-6eab6c0bbb54","ios":"levelo://app?vid=a5a6c2c1-2d48-4581-8647-6eab6c0bbb54"},"vehicle_type_id":"4","last_reported":1752171338,"current_range_meters":16800,"station_id":"","pricing_plan_id":"cebpf4jnsgd1na2vs0mg"},{"bike_id":"bcb5093d-72d2-421e-92d3-1be69245626d","system_id":"levelo_inurba_marseille","lat":43.28275,"lon":5.35074,"is_reserved":false,"is_disabled":false,"rental_uris":{"android":"levelo://app?vid=bcb5093d-72d2-421e-92d3-1be69245626d","ios":"levelo://app?vid=bcb5093d-72d2-421e-92d3-1be69245626d"},"vehicle_type_id":"4","last_reported":1752171338,"current_range_meters":16800,"station_id":"ce4bhbp2rcd13ifvqerg","pricing_plan_id":"cebpf4jnsgd1na2vs0mg"},{"bike_id":"41e1c433-3df3-4acc-88c7-053b9bef9ed8","system_id":"levelo_inurba_marseille","lat":43.24388,"lon":5.37057,"is_reserved":false,"is_disabled":false,"rental_uris":{"android":"levelo://app?vid=41e1c433-3df3-4acc-88c7-053b9bef9ed8","ios":"levelo://app?vid=41e1c433-3df3-4acc-88c7-053b9bef9ed8"},"vehicle_type_id":"4","last_reported":1752171338,"current_range_meters":16800,"station_id":"ce4bhhh2rcd13ifvqfk0","pricing_plan_id":"cebpf4jnsgd1na2vs0mg"},{"bike_id":"8f89e4f3-495a-4317-bd6d-37a19186d65b","system_id":"levelo_inurba_marseille","lat":43.33719,"lon":5.39193,"is_reserved":false,"is_disabled":false,"rental_uris":{"android":"levelo://app?vid=8f89e4f3-495a-4317-bd6d-37a19186d65b","ios":"levelo://app?vid=8f89e4f3-495a-4317-bd6d-37a19186d65b"},"vehicle_type_id":"4","last_reported":1752171338,"current_range_meters":16800,"station_id":"ce4bhr92rcd13ifvqhsg","pricing_plan_id":"cebpf4jnsgd1na2vs0mg"},{"bike_id":"9b8d88ed-6470-44a5-bbbe-5ed7e95c1cb7","system_id":"levelo_inurba_marseille","lat":43.24199,"lon":5.36366,"is_reserved":false,"is_disabled":false,"rental_uris":{"android":"levelo://app?vid=9b8d88ed-6470-44a5-bbbe-5ed7e95c1cb7","ios":"levelo://app?vid=9b8d88ed-6470-44a5-bbbe-5ed7e95c1cb7"},"vehicle_type_id":"4","last_reported":1752171338,"current_range_meters":16800,"station_id":"cpo36qri1sfpv3e86is0","pricing_plan_id":"cebpf4jnsgd1na2vs0mg"},{"bike_id":"158dde95-0311-454b-b41c-1436ca905e3d","system_id":"levelo_inurba_marseille","lat":43.29712,"lon":5.36608,"is_reserved":false,"is_disabled":false,"rental_uris":{"android":"levelo://app?vid=158dde95-0311-454b-b41c-1436ca905e3d","ios":"levelo://app?vid=158dde95-0311-454b-b41c-1436ca905e3d"},"vehicle_type_id":"4","last_reported":1752171338,"current_range_meters":17200,"station_id":"ce4bgn12rcd13ifvqbt0","pricing_plan_id":"cebpf4jnsgd1na2vs0mg"},{"bike_id":"041703c1-9343-4926-b6b8-1ae273347e78","system_id":"levelo_inurba_marseille","lat":43.29265,"lon":5.38435,"is_reserved":false,"is_disabled":false,"rental_uris":{"android":"levelo://app?vid=041703c1-9343-4926-b6b8-1ae273347e78","ios":"levelo://app?vid=041703c1-9343-4926-b6b8-1ae273347e78"},"vehicle_type_id":"4","last_reported":1752171338,"current_range_meters":17200,"station_id":"ce4bh692rcd13ifvqea0","pricing_plan_id":"cebpf4jnsgd1na2vs0mg"},{"bike_id":"138d36a9-709a-493d-8cf4-83535fb63def","system_id":"levelo_inurba_marseille","lat":43.28265,"lon":5.35059,"is_reserved":false,"is_disabled":false,"rental_uris":{"android":"levelo://app?vid=138d36a9-709a-493d-8cf4-83535fb63def","ios":"levelo://app?vid=138d36a9-709a-493d-8cf4-83535fb63def"},"vehicle_type_id":"4","last_reported":1752171338,"current_range_meters":17200,"station_id":"ce4bhbp2rcd13ifvqerg","pricing_plan_id":"cebpf4jnsgd1na2vs0mg"},{"bike_id":"bb5f6e14-9798-4952-af04-7c292094af51","system_id":"levelo_inurba_marseille","lat":43.28613,"lon":5.35108,"is_reserved":false,"is_disabled":false,"rental_uris":{"android":"levelo://app?vid=bb5f6e14-9798-4952-af04-7c292094af51","ios":"levelo://app?vid=bb5f6e14-9798-4952-af04-7c292094af51"},"vehicle_type_id":"4","last_reported":1752171338,"current_range_meters":17200,"station_id":"ce4bhch2rcd13ifvqeug","pricing_plan_id":"cebpf4jnsgd1na2vs0mg"},{"bike_id":"64e6a2fd-b5a3-46ac-b5ef-877d26424d80","system_id":"levelo_inurba_marseille","lat":43.28442,"lon":5.39205,"is_reserved":false,"is_disabled":false,"rental_uris":{"android":"levelo://app?vid=64e6a2fd-b5a3-46ac-b5ef-877d26424d80","ios":"levelo://app?vid=64e6a2fd-b5a3-46ac-b5ef-877d26424d80"},"vehicle_type_id":"4","last_reported":1752171338,"current_range_meters":17200,"station_id":"ce4bhoh2rcd13ifvqh5g","pricing_plan_id":"cebpf4jnsgd1na2vs0mg"},{"bike_id":"0f708211-c646-4f12-98c1-c1c9da393df5","system_id":"levelo_inurba_marseille","lat":43.30375,"lon":5.41867,"is_reserved":false,"is_disabled":false,"rental_uris":{"android":"levelo://app?vid=0f708211-c646-4f12-98c1-c1c9da393df5","ios":"levelo://app?vid=0f708211-c646-4f12-98c1-c1c9da393df5"},"vehicle_type_id":"4","last_reported":1752171338,"current_range_meters":17200,"station_id":"ce4bhop2rcd13ifvqh7g","pricing_plan_id":"cebpf4jnsgd1na2vs0mg"},{"bike_id":"6737467a-fe5d-470c-a191-2df05ebbb3bb","system_id":"levelo_inurba_marseille","lat":43.22507,"lon":5.34767,"is_reserved":false,"is_disabled":false,"rental_uris":{"android":"levelo://app?vid=6737467a-fe5d-470c-a191-2df05ebbb3bb","ios":"levelo://app?vid=6737467a-fe5d-470c-a191-2df05ebbb3bb"},"vehicle_type_id":"4","last_reported":1752171338,"current_range_meters":17200,"station_id":"st_cvj5dfep6f1abm77gieg","pricing_plan_id":"cebpf4jnsgd1na2vs0mg"},{"bike_id":"29a0a180-d29f-4a4e-a71b-d1d9d42cb217","system_id":"levelo_inurba_marseille","lat":43.21199,"lon":5.35096,"is_reserved":false,"is_disabled":false,"rental_uris":{"android":"levelo://app?vid=29a0a180-d29f-4a4e-a71b-d1d9d42cb217","ios":"levelo://app?vid=29a0a180-d29f-4a4e-a71b-d1d9d42cb217"},"vehicle_type_id":"4","last_reported":1752171338,"current_range_meters":17200,"station_id":"st_cvj6sg6p6f1abm77japg","pricing_plan_id":"cebpf4jnsgd1na2vs0mg"},{"bike_id":"595e9351-a7ce-45de-8995-771f7d9fe86e","system_id":"levelo_inurba_marseille","lat":43.309243,"lon":5.378088,"is_reserved":false,"is_disabled":false,"rental_uris":{"android":"levelo://app?vid=595e9351-a7ce-45de-8995-771f7d9fe86e","ios":"levelo://app?vid=595e9351-a7ce-45de-8995-771f7d9fe86e"},"vehicle_type_id":"4","last_reported":1752171338,"current_range_meters":17600,"station_id":"","pricing_plan_id":"cebpf4jnsgd1na2vs0mg"},{"bike_id":"8b440aeb-3c8b-4650-9f24-9c9b62dd74de","system_id":"levelo_inurba_marseille","lat":43.21222,"lon":5.35063,"is_reserved":false,"is_disabled":false,"rental_uris":{"android":"levelo://app?vid=8b440aeb-3c8b-4650-9f24-9c9b62dd74de","ios":"levelo://app?vid=8b440aeb-3c8b-4650-9f24-9c9b62dd74de"},"vehicle_type_id":"4","last_reported":1752171338,"current_range_meters":17600,"station_id":"","pricing_plan_id":"cebpf4jnsgd1na2vs0mg"},{"bike_id":"41afca09-a512-4843-94c2-596db98db4ec","system_id":"levelo_inurba_marseille","lat":43.27367,"lon":5.36251,"is_reserved":false,"is_disabled":false,"rental_uris":{"android":"levelo://app?vid=41afca09-a512-4843-94c2-596db98db4ec","ios":"levelo://app?vid=41afca09-a512-4843-94c2-596db98db4ec"},"vehicle_type_id":"4","last_reported":1752171338,"current_range_meters":17600,"station_id":"ce4bhbh2rcd13ifvqeo0","pricing_plan_id":"cebpf4jnsgd1na2vs0mg"},{"bike_id":"96493667-9202-4d3c-ad4d-311823444d22","system_id":"levelo_inurba_marseille","lat":43.27371,"lon":5.36234,"is_reserved":false,"is_disabled":false,"rental_uris":{"android":"levelo://app?vid=96493667-9202-4d3c-ad4d-311823444d22","ios":"levelo://app?vid=96493667-9202-4d3c-ad4d-311823444d22"},"vehicle_type_id":"4","last_reported":1752171338,"current_range_meters":17600,"station_id":"ce4bhbh2rcd13ifvqeo0","pricing_plan_id":"cebpf4jnsgd1na2vs0mg"},{"bike_id":"d33cbabe-8724-4b7d-a873-a5476968f7d3","system_id":"levelo_inurba_marseille","lat":43.28422,"lon":5.34979,"is_reserved":false,"is_disabled":false,"rental_uris":{"android":"levelo://app?vid=d33cbabe-8724-4b7d-a873-a5476968f7d3","ios":"levelo://app?vid=d33cbabe-8724-4b7d-a873-a5476968f7d3"},"vehicle_type_id":"4","last_reported":1752171338,"current_range_meters":17600,"station_id":"ce4bhbh2rcd13ifvqepg","pricing_plan_id":"cebpf4jnsgd1na2vs0mg"},{"bike_id":"c3c5b26c-e834-4db6-994b-52abb31f20f1","system_id":"levelo_inurba_marseille","lat":43.2407,"lon":5.37724,"is_reserved":false,"is_disabled":false,"rental_uris":{"android":"levelo://app?vid=c3c5b26c-e834-4db6-994b-52abb31f20f1","ios":"levelo://app?vid=c3c5b26c-e834-4db6-994b-52abb31f20f1"},"vehicle_type_id":"4","last_reported":1752171338,"current_range_meters":17600,"station_id":"ce4bhnp2rcd13ifvqgvg","pricing_plan_id":"cebpf4jnsgd1na2vs0mg"},{"bike_id":"5423e7d5-07f9-4264-9d42-219884898d7f","system_id":"levelo_inurba_marseille","lat":43.24171,"lon":5.363892,"is_reserved":false,"is_disabled":false,"rental_uris":{"android":"levelo://app?vid=5423e7d5-07f9-4264-9d42-219884898d7f","ios":"levelo://app?vid=5423e7d5-07f9-4264-9d42-219884898d7f"},"vehicle_type_id":"4","last_reported":1752171338,"current_range_meters":18000,"station_id":"","pricing_plan_id":"cebpf4jnsgd1na2vs0mg"},{"bike_id":"76184d21-3c87-4dcd-bc39-1d5462b7187f","system_id":"levelo_inurba_marseille","lat":43.273833,"lon":5.362527,"is_reserved":false,"is_disabled":false,"rental_uris":{"android":"levelo://app?vid=76184d21-3c87-4dcd-bc39-1d5462b7187f","ios":"levelo://app?vid=76184d21-3c87-4dcd-bc39-1d5462b7187f"},"vehicle_type_id":"4","last_reported":1752171338,"current_range_meters":18000,"station_id":"ce4bhbh2rcd13ifvqeo0","pricing_plan_id":"cebpf4jnsgd1na2vs0mg"},{"bike_id":"bbd8f773-7765-4dd7-b7db-b9e3fb7c04e0","system_id":"levelo_inurba_marseille","lat":43.28268,"lon":5.3507,"is_reserved":false,"is_disabled":false,"rental_uris":{"android":"levelo://app?vid=bbd8f773-7765-4dd7-b7db-b9e3fb7c04e0","ios":"levelo://app?vid=bbd8f773-7765-4dd7-b7db-b9e3fb7c04e0"},"vehicle_type_id":"4","last_reported":1752171338,"current_range_meters":18000,"station_id":"ce4bhbp2rcd13ifvqerg","pricing_plan_id":"cebpf4jnsgd1na2vs0mg"},{"bike_id":"2aaad0ac-253a-434e-a4ce-92edbde19c37","system_id":"levelo_inurba_marseille","lat":43.26033,"lon":5.37545,"is_reserved":false,"is_disabled":false,"rental_uris":{"android":"levelo://app?vid=2aaad0ac-253a-434e-a4ce-92edbde19c37","ios":"levelo://app?vid=2aaad0ac-253a-434e-a4ce-92edbde19c37"},"vehicle_type_id":"4","last_reported":1752171338,"current_range_meters":18000,"station_id":"ce4bhgh2rcd13ifvqfa0","pricing_plan_id":"cebpf4jnsgd1na2vs0mg"},{"bike_id":"7920a7cd-afc6-40c5-a895-70066febd075","system_id":"levelo_inurba_marseille","lat":43.26027,"lon":5.37548,"is_reserved":false,"is_disabled":false,"rental_uris":{"android":"levelo://app?vid=7920a7cd-afc6-40c5-a895-70066febd075","ios":"levelo://app?vid=7920a7cd-afc6-40c5-a895-70066febd075"},"vehicle_type_id":"4","last_reported":1752171338,"current_range_meters":18000,"station_id":"ce4bhgh2rcd13ifvqfa0","pricing_plan_id":"cebpf4jnsgd1na2vs0mg"},{"bike_id":"03c0e039-7f80-49cb-aca6-86696420851e","system_id":"levelo_inurba_marseille","lat":43.26194,"lon":5.37445,"is_reserved":false,"is_disabled":false,"rental_uris":{"android":"levelo://app?vid=03c0e039-7f80-49cb-aca6-86696420851e","ios":"levelo://app?vid=03c0e039-7f80-49cb-aca6-86696420851e"},"vehicle_type_id":"4","last_reported":1752171338,"current_range_meters":18000,"station_id":"ce4bhgp2rcd13ifvqfc0","pricing_plan_id":"cebpf4jnsgd1na2vs0mg"},{"bike_id":"e3a75ee9-c614-467b-8cc2-f813bcef2ab1","system_id":"levelo_inurba_marseille","lat":43.33743,"lon":5.3919,"is_reserved":false,"is_disabled":false,"rental_uris":{"android":"levelo://app?vid=e3a75ee9-c614-467b-8cc2-f813bcef2ab1","ios":"levelo://app?vid=e3a75ee9-c614-467b-8cc2-f813bcef2ab1"},"vehicle_type_id":"4","last_reported":1752171338,"current_range_meters":18000,"station_id":"ce4bhr92rcd13ifvqhsg","pricing_plan_id":"cebpf4jnsgd1na2vs0mg"},{"bike_id":"bd69f1e7-b901-41a0-b2c9-aee4bd027443","system_id":"levelo_inurba_marseille","lat":43.21197,"lon":5.35064,"is_reserved":false,"is_disabled":false,"rental_uris":{"android":"levelo://app?vid=bd69f1e7-b901-41a0-b2c9-aee4bd027443","ios":"levelo://app?vid=bd69f1e7-b901-41a0-b2c9-aee4bd027443"},"vehicle_type_id":"4","last_reported":1752171338,"current_range_meters":18000,"station_id":"st_cvj6sg6p6f1abm77japg","pricing_plan_id":"cebpf4jnsgd1na2vs0mg"},{"bike_id":"96f82260-718a-4e3a-9802-28ac9d732e83","system_id":"levelo_inurba_marseille","lat":43.26161,"lon":5.37468,"is_reserved":false,"is_disabled":false,"rental_uris":{"android":"levelo://app?vid=96f82260-718a-4e3a-9802-28ac9d732e83","ios":"levelo://app?vid=96f82260-718a-4e3a-9802-28ac9d732e83"},"vehicle_type_id":"4","last_reported":1752171338,"current_range_meters":18800,"station_id":"","pricing_plan_id":"cebpf4jnsgd1na2vs0mg"},{"bike_id":"cb8db05c-7ef4-4fcf-b321-cdc13d7cccad","system_id":"levelo_inurba_marseille","lat":43.290967,"lon":5.355538,"is_reserved":false,"is_disabled":false,"rental_uris":{"android":"levelo://app?vid=cb8db05c-7ef4-4fcf-b321-cdc13d7cccad","ios":"levelo://app?vid=cb8db05c-7ef4-4fcf-b321-cdc13d7cccad"},"vehicle_type_id":"4","last_reported":1752171338,"current_range_meters":18800,"station_id":"","pricing_plan_id":"cebpf4jnsgd1na2vs0mg"},{"bike_id":"e0611d5e-4f27-4997-899a-bfbfe5f3dad1","system_id":"levelo_inurba_marseille","lat":43.29799,"lon":5.38105,"is_reserved":false,"is_disabled":false,"rental_uris":{"android":"levelo://app?vid=e0611d5e-4f27-4997-899a-bfbfe5f3dad1","ios":"levelo://app?vid=e0611d5e-4f27-4997-899a-bfbfe5f3dad1"},"vehicle_type_id":"4","last_reported":1752171338,"current_range_meters":18800,"station_id":"ce4bgip2rcd13ifvqbb0","pricing_plan_id":"cebpf4jnsgd1na2vs0mg"},{"bike_id":"3978bae7-4453-43a5-b556-a41bfd3bd5a4","system_id":"levelo_inurba_marseille","lat":43.28943,"lon":5.36636,"is_reserved":false,"is_disabled":false,"rental_uris":{"android":"levelo://app?vid=3978bae7-4453-43a5-b556-a41bfd3bd5a4","ios":"levelo://app?vid=3978bae7-4453-43a5-b556-a41bfd3bd5a4"},"vehicle_type_id":"4","last_reported":1752171338,"current_range_meters":18800,"station_id":"ce4bhap2rcd13ifvqek0","pricing_plan_id":"cebpf4jnsgd1na2vs0mg"},{"bike_id":"74b56b5c-7101-429d-bd50-fa33a326ffc2","system_id":"levelo_inurba_marseille","lat":43.28415,"lon":5.34982,"is_reserved":false,"is_disabled":false,"rental_uris":{"android":"levelo://app?vid=74b56b5c-7101-429d-bd50-fa33a326ffc2","ios":"levelo://app?vid=74b56b5c-7101-429d-bd50-fa33a326ffc2"},"vehicle_type_id":"4","last_reported":1752171338,"current_range_meters":18800,"station_id":"ce4bhbh2rcd13ifvqepg","pricing_plan_id":"cebpf4jnsgd1na2vs0mg"},{"bike_id":"4d84a206-32d3-44c2-b9e1-24f3a91594a4","system_id":"levelo_inurba_marseille","lat":43.29223,"lon":5.36068,"is_reserved":false,"is_disabled":false,"rental_uris":{"android":"levelo://app?vid=4d84a206-32d3-44c2-b9e1-24f3a91594a4","ios":"levelo://app?vid=4d84a206-32d3-44c2-b9e1-24f3a91594a4"},"vehicle_type_id":"4","last_reported":1752171338,"current_range_meters":18800,"station_id":"ce4bhbh2rcd13ifvqeqg","pricing_plan_id":"cebpf4jnsgd1na2vs0mg"},{"bike_id":"479b69d4-3376-4ae6-bc74-41dcf16b0474","system_id":"levelo_inurba_marseille","lat":43.22511,"lon":5.34765,"is_reserved":false,"is_disabled":false,"rental_uris":{"android":"levelo://app?vid=479b69d4-3376-4ae6-bc74-41dcf16b0474","ios":"levelo://app?vid=479b69d4-3376-4ae6-bc74-41dcf16b0474"},"vehicle_type_id":"4","last_reported":1752171338,"current_range_meters":18800,"station_id":"st_cvj5dfep6f1abm77gieg","pricing_plan_id":"cebpf4jnsgd1na2vs0mg"},{"bike_id":"74e28da6-3b32-49bf-b00e-3c1cff23531a","system_id":"levelo_inurba_marseille","lat":43.27397,"lon":5.36234,"is_reserved":false,"is_disabled":false,"rental_uris":{"android":"levelo://app?vid=74e28da6-3b32-49bf-b00e-3c1cff23531a","ios":"levelo://app?vid=74e28da6-3b32-49bf-b00e-3c1cff23531a"},"vehicle_type_id":"4","last_reported":1752171338,"current_range_meters":19200,"station_id":"","pricing_plan_id":"cebpf4jnsgd1na2vs0mg"},{"bike_id":"549a217f-d39d-46e0-9592-f7350fbe8f1d","system_id":"levelo_inurba_marseille","lat":43.30145,"lon":5.39868,"is_reserved":false,"is_disabled":false,"rental_uris":{"android":"levelo://app?vid=549a217f-d39d-46e0-9592-f7350fbe8f1d","ios":"levelo://app?vid=549a217f-d39d-46e0-9592-f7350fbe8f1d"},"vehicle_type_id":"4","last_reported":1752171338,"current_range_meters":19200,"station_id":"ce4bh0h2rcd13ifvqd40","pricing_plan_id":"cebpf4jnsgd1na2vs0mg"},{"bike_id":"9fcddfae-0f3d-4438-82c4-1bfc9d54cbf1","system_id":"levelo_inurba_marseille","lat":43.2738,"lon":5.3626,"is_reserved":false,"is_disabled":false,"rental_uris":{"android":"levelo://app?vid=9fcddfae-0f3d-4438-82c4-1bfc9d54cbf1","ios":"levelo://app?vid=9fcddfae-0f3d-4438-82c4-1bfc9d54cbf1"},"vehicle_type_id":"4","last_reported":1752171338,"current_range_meters":19200,"station_id":"ce4bhbh2rcd13ifvqeo0","pricing_plan_id":"cebpf4jnsgd1na2vs0mg"},{"bike_id":"0c5fa442-c00e-48a4-8d03-29c07aabf9b8","system_id":"levelo_inurba_marseille","lat":43.28625,"lon":5.35096,"is_reserved":false,"is_disabled":false,"rental_uris":{"android":"levelo://app?vid=0c5fa442-c00e-48a4-8d03-29c07aabf9b8","ios":"levelo://app?vid=0c5fa442-c00e-48a4-8d03-29c07aabf9b8"},"vehicle_type_id":"4","last_reported":1752171338,"current_range_meters":19200,"station_id":"ce4bhch2rcd13ifvqeug","pricing_plan_id":"cebpf4jnsgd1na2vs0mg"},{"bike_id":"bf7090ed-5736-4d75-b67a-53615f222a8f","system_id":"levelo_inurba_marseille","lat":43.28609,"lon":5.35128,"is_reserved":false,"is_disabled":false,"rental_uris":{"android":"levelo://app?vid=bf7090ed-5736-4d75-b67a-53615f222a8f","ios":"levelo://app?vid=bf7090ed-5736-4d75-b67a-53615f222a8f"},"vehicle_type_id":"4","last_reported":1752171338,"current_range_meters":19200,"station_id":"ce4bhch2rcd13ifvqeug","pricing_plan_id":"cebpf4jnsgd1na2vs0mg"},{"bike_id":"df08041c-4cc1-4da4-bd0a-7805dd858655","system_id":"levelo_inurba_marseille","lat":43.24807,"lon":5.37454,"is_reserved":false,"is_disabled":false,"rental_uris":{"android":"levelo://app?vid=df08041c-4cc1-4da4-bd0a-7805dd858655","ios":"levelo://app?vid=df08041c-4cc1-4da4-bd0a-7805dd858655"},"vehicle_type_id":"4","last_reported":1752171338,"current_range_meters":19200,"station_id":"ce4bhgh2rcd13ifvqfb0","pricing_plan_id":"cebpf4jnsgd1na2vs0mg"},{"bike_id":"ecec5a70-47e2-4076-ac88-b63310387724","system_id":"levelo_inurba_marseille","lat":43.21746,"lon":5.34607,"is_reserved":false,"is_disabled":false,"rental_uris":{"android":"levelo://app?vid=ecec5a70-47e2-4076-ac88-b63310387724","ios":"levelo://app?vid=ecec5a70-47e2-4076-ac88-b63310387724"},"vehicle_type_id":"4","last_reported":1752171338,"current_range_meters":19200,"station_id":"st_cvj6r9ubvosntc0bgbag","pricing_plan_id":"cebpf4jnsgd1na2vs0mg"},{"bike_id":"dafa5a87-b26d-4379-9a6b-1f02133b78a6","system_id":"levelo_inurba_marseille","lat":43.21191,"lon":5.35072,"is_reserved":false,"is_disabled":false,"rental_uris":{"android":"levelo://app?vid=dafa5a87-b26d-4379-9a6b-1f02133b78a6","ios":"levelo://app?vid=dafa5a87-b26d-4379-9a6b-1f02133b78a6"},"vehicle_type_id":"4","last_reported":1752171338,"current_range_meters":19200,"station_id":"st_cvj6sg6p6f1abm77japg","pricing_plan_id":"cebpf4jnsgd1na2vs0mg"},{"bike_id":"7b5cd6ce-df57-4328-854d-cb2d1407ab18","system_id":"levelo_inurba_marseille","lat":43.33082,"lon":5.39044,"is_reserved":false,"is_disabled":false,"rental_uris":{"android":"levelo://app?vid=7b5cd6ce-df57-4328-854d-cb2d1407ab18","ios":"levelo://app?vid=7b5cd6ce-df57-4328-854d-cb2d1407ab18"},"vehicle_type_id":"4","last_reported":1752171338,"current_range_meters":19600,"station_id":"","pricing_plan_id":"cebpf4jnsgd1na2vs0mg"},{"bike_id":"511a12cc-823c-4849-a9b5-ea7221591c25","system_id":"levelo_inurba_marseille","lat":43.30432,"lon":5.38882,"is_reserved":false,"is_disabled":false,"rental_uris":{"android":"levelo://app?vid=511a12cc-823c-4849-a9b5-ea7221591c25","ios":"levelo://app?vid=511a12cc-823c-4849-a9b5-ea7221591c25"},"vehicle_type_id":"4","last_reported":1752171338,"current_range_meters":19600,"station_id":"ce4bgk12rcd13ifvqbi0","pricing_plan_id":"cebpf4jnsgd1na2vs0mg"},{"bike_id":"2475d225-0529-4fda-b456-1a5a826f5386","system_id":"levelo_inurba_marseille","lat":43.30544,"lon":5.3672,"is_reserved":false,"is_disabled":false,"rental_uris":{"android":"levelo://app?vid=2475d225-0529-4fda-b456-1a5a826f5386","ios":"levelo://app?vid=2475d225-0529-4fda-b456-1a5a826f5386"},"vehicle_type_id":"4","last_reported":1752171338,"current_range_meters":19600,"station_id":"ce4bgrp2rcd13ifvqc9g","pricing_plan_id":"cebpf4jnsgd1na2vs0mg"},{"bike_id":"dfa6582f-0d8a-4c25-abf8-37adb7d47e0e","system_id":"levelo_inurba_marseille","lat":43.29265,"lon":5.38458,"is_reserved":false,"is_disabled":false,"rental_uris":{"android":"levelo://app?vid=dfa6582f-0d8a-4c25-abf8-37adb7d47e0e","ios":"levelo://app?vid=dfa6582f-0d8a-4c25-abf8-37adb7d47e0e"},"vehicle_type_id":"4","last_reported":1752171338,"current_range_meters":19600,"station_id":"ce4bh692rcd13ifvqea0","pricing_plan_id":"cebpf4jnsgd1na2vs0mg"},{"bike_id":"24a98626-1eb1-4ed5-bd2e-fafce47cf9b2","system_id":"levelo_inurba_marseille","lat":43.289978,"lon":5.356136,"is_reserved":false,"is_disabled":false,"rental_uris":{"android":"levelo://app?vid=24a98626-1eb1-4ed5-bd2e-fafce47cf9b2","ios":"levelo://app?vid=24a98626-1eb1-4ed5-bd2e-fafce47cf9b2"},"vehicle_type_id":"4","last_reported":1752171338,"current_range_meters":19600,"station_id":"ce4bhb92rcd13ifvqen0","pricing_plan_id":"cebpf4jnsgd1na2vs0mg"},{"bike_id":"cd0db069-a7fa-4c85-b822-14eda541dcdf","system_id":"levelo_inurba_marseille","lat":43.28452,"lon":5.34989,"is_reserved":false,"is_disabled":false,"rental_uris":{"android":"levelo://app?vid=cd0db069-a7fa-4c85-b822-14eda541dcdf","ios":"levelo://app?vid=cd0db069-a7fa-4c85-b822-14eda541dcdf"},"vehicle_type_id":"4","last_reported":1752171338,"current_range_meters":19600,"station_id":"ce4bhbh2rcd13ifvqepg","pricing_plan_id":"cebpf4jnsgd1na2vs0mg"},{"bike_id":"91d0d811-7280-43ef-b968-339f25453d2d","system_id":"levelo_inurba_marseille","lat":43.26216,"lon":5.37437,"is_reserved":false,"is_disabled":false,"rental_uris":{"android":"levelo://app?vid=91d0d811-7280-43ef-b968-339f25453d2d","ios":"levelo://app?vid=91d0d811-7280-43ef-b968-339f25453d2d"},"vehicle_type_id":"4","last_reported":1752171338,"current_range_meters":19600,"station_id":"ce4bhgp2rcd13ifvqfc0","pricing_plan_id":"cebpf4jnsgd1na2vs0mg"},{"bike_id":"009dbf84-7693-456d-bbfe-7f7999637c26","system_id":"levelo_inurba_marseille","lat":43.27071,"lon":5.42264,"is_reserved":false,"is_disabled":false,"rental_uris":{"android":"levelo://app?vid=009dbf84-7693-456d-bbfe-7f7999637c26","ios":"levelo://app?vid=009dbf84-7693-456d-bbfe-7f7999637c26"},"vehicle_type_id":"4","last_reported":1752171338,"current_range_meters":19600,"station_id":"ce4bhk92rcd13ifvqgb0","pricing_plan_id":"cebpf4jnsgd1na2vs0mg"},{"bike_id":"26093319-3e85-4606-bb68-c6046553bbdb","system_id":"levelo_inurba_marseille","lat":43.27813,"lon":5.40714,"is_reserved":false,"is_disabled":false,"rental_uris":{"android":"levelo://app?vid=26093319-3e85-4606-bb68-c6046553bbdb","ios":"levelo://app?vid=26093319-3e85-4606-bb68-c6046553bbdb"},"vehicle_type_id":"4","last_reported":1752171338,"current_range_meters":19600,"station_id":"ce4bhnh2rcd13ifvqgtg","pricing_plan_id":"cebpf4jnsgd1na2vs0mg"},{"bike_id":"7c7034fd-107d-4dc3-a500-b58c762d64f0","system_id":"levelo_inurba_marseille","lat":43.24072,"lon":5.37765,"is_reserved":false,"is_disabled":false,"rental_uris":{"android":"levelo://app?vid=7c7034fd-107d-4dc3-a500-b58c762d64f0","ios":"levelo://app?vid=7c7034fd-107d-4dc3-a500-b58c762d64f0"},"vehicle_type_id":"4","last_reported":1752171338,"current_range_meters":19600,"station_id":"ce4bhnp2rcd13ifvqgvg","pricing_plan_id":"cebpf4jnsgd1na2vs0mg"},{"bike_id":"50a157d9-2025-49a4-8651-be34baba50f2","system_id":"levelo_inurba_marseille","lat":43.2861,"lon":5.37061,"is_reserved":false,"is_disabled":false,"rental_uris":{"android":"levelo://app?vid=50a157d9-2025-49a4-8651-be34baba50f2","ios":"levelo://app?vid=50a157d9-2025-49a4-8651-be34baba50f2"},"vehicle_type_id":"4","last_reported":1752171338,"current_range_meters":19600,"station_id":"ce4bht12rcd13ifvqi60","pricing_plan_id":"cebpf4jnsgd1na2vs0mg"},{"bike_id":"88ae071b-05d8-478f-85f8-91f0f866dfb9","system_id":"levelo_inurba_marseille","lat":43.241671,"lon":5.363936,"is_reserved":false,"is_disabled":false,"rental_uris":{"android":"levelo://app?vid=88ae071b-05d8-478f-85f8-91f0f866dfb9","ios":"levelo://app?vid=88ae071b-05d8-478f-85f8-91f0f866dfb9"},"vehicle_type_id":"4","last_reported":1752171338,"current_range_meters":19600,"station_id":"cpo36qri1sfpv3e86is0","pricing_plan_id":"cebpf4jnsgd1na2vs0mg"},{"bike_id":"37b84a38-055a-4a6e-a56a-8ff3d0c1b2ec","system_id":"levelo_inurba_marseille","lat":43.21193,"lon":5.35085,"is_reserved":false,"is_disabled":false,"rental_uris":{"android":"levelo://app?vid=37b84a38-055a-4a6e-a56a-8ff3d0c1b2ec","ios":"levelo://app?vid=37b84a38-055a-4a6e-a56a-8ff3d0c1b2ec"},"vehicle_type_id":"4","last_reported":1752171338,"current_range_meters":19600,"station_id":"st_cvj6sg6p6f1abm77japg","pricing_plan_id":"cebpf4jnsgd1na2vs0mg"},{"bike_id":"43b90c82-97e0-4fa7-8b67-2448f07d529e","system_id":"levelo_inurba_marseille","lat":43.21188,"lon":5.35068,"is_reserved":false,"is_disabled":false,"rental_uris":{"android":"levelo://app?vid=43b90c82-97e0-4fa7-8b67-2448f07d529e","ios":"levelo://app?vid=43b90c82-97e0-4fa7-8b67-2448f07d529e"},"vehicle_type_id":"4","last_reported":1752171338,"current_range_meters":20000,"station_id":"","pricing_plan_id":"cebpf4jnsgd1na2vs0mg"},{"bike_id":"52bbed55-bb43-4609-aa14-ca80dd09df26","system_id":"levelo_inurba_marseille","lat":43.33754,"lon":5.37456,"is_reserved":false,"is_disabled":false,"rental_uris":{"android":"levelo://app?vid=52bbed55-bb43-4609-aa14-ca80dd09df26","ios":"levelo://app?vid=52bbed55-bb43-4609-aa14-ca80dd09df26"},"vehicle_type_id":"4","last_reported":1752171338,"current_range_meters":20000,"station_id":"","pricing_plan_id":"cebpf4jnsgd1na2vs0mg"},{"bike_id":"c993c7b5-f714-4267-ab17-f1349a34de89","system_id":"levelo_inurba_marseille","lat":43.29708,"lon":5.36605,"is_reserved":false,"is_disabled":false,"rental_uris":{"android":"levelo://app?vid=c993c7b5-f714-4267-ab17-f1349a34de89","ios":"levelo://app?vid=c993c7b5-f714-4267-ab17-f1349a34de89"},"vehicle_type_id":"4","last_reported":1752171338,"current_range_meters":20000,"station_id":"ce4bgn12rcd13ifvqbt0","pricing_plan_id":"cebpf4jnsgd1na2vs0mg"},{"bike_id":"dcb9a461-921f-4970-a3ff-23cbfd722cb1","system_id":"levelo_inurba_marseille","lat":43.26203,"lon":5.37436,"is_reserved":false,"is_disabled":false,"rental_uris":{"android":"levelo://app?vid=dcb9a461-921f-4970-a3ff-23cbfd722cb1","ios":"levelo://app?vid=dcb9a461-921f-4970-a3ff-23cbfd722cb1"},"vehicle_type_id":"4","last_reported":1752171338,"current_range_meters":20000,"station_id":"ce4bhgp2rcd13ifvqfc0","pricing_plan_id":"cebpf4jnsgd1na2vs0mg"},{"bike_id":"5665ff3f-70e1-4612-a615-f129aa275c0b","system_id":"levelo_inurba_marseille","lat":43.25451,"lon":5.376768,"is_reserved":false,"is_disabled":false,"rental_uris":{"android":"levelo://app?vid=5665ff3f-70e1-4612-a615-f129aa275c0b","ios":"levelo://app?vid=5665ff3f-70e1-4612-a615-f129aa275c0b"},"vehicle_type_id":"4","last_reported":1752171338,"current_range_meters":20000,"station_id":"ce4bhh12rcd13ifvqff0","pricing_plan_id":"cebpf4jnsgd1na2vs0mg"},{"bike_id":"63386621-0597-4134-99bf-8c6226cd183e","system_id":"levelo_inurba_marseille","lat":43.310761,"lon":5.400885,"is_reserved":false,"is_disabled":false,"rental_uris":{"android":"levelo://app?vid=63386621-0597-4134-99bf-8c6226cd183e","ios":"levelo://app?vid=63386621-0597-4134-99bf-8c6226cd183e"},"vehicle_type_id":"4","last_reported":1752171338,"current_range_meters":20400,"station_id":"","pricing_plan_id":"cebpf4jnsgd1na2vs0mg"},{"bike_id":"00dc09d9-9698-4a45-9eaa-d8eca2a55a99","system_id":"levelo_inurba_marseille","lat":43.2918,"lon":5.35801,"is_reserved":false,"is_disabled":false,"rental_uris":{"android":"levelo://app?vid=00dc09d9-9698-4a45-9eaa-d8eca2a55a99","ios":"levelo://app?vid=00dc09d9-9698-4a45-9eaa-d8eca2a55a99"},"vehicle_type_id":"4","last_reported":1752171338,"current_range_meters":20400,"station_id":"ce4bhb12rcd13ifvqel0","pricing_plan_id":"cebpf4jnsgd1na2vs0mg"},{"bike_id":"68826ec1-2d41-4bb5-a405-afb62c7d1197","system_id":"levelo_inurba_marseille","lat":43.28422,"lon":5.34988,"is_reserved":false,"is_disabled":false,"rental_uris":{"android":"levelo://app?vid=68826ec1-2d41-4bb5-a405-afb62c7d1197","ios":"levelo://app?vid=68826ec1-2d41-4bb5-a405-afb62c7d1197"},"vehicle_type_id":"4","last_reported":1752171338,"current_range_meters":20400,"station_id":"ce4bhbh2rcd13ifvqepg","pricing_plan_id":"cebpf4jnsgd1na2vs0mg"},{"bike_id":"5e8e2973-8562-414c-a2a7-f651670dd623","system_id":"levelo_inurba_marseille","lat":43.2842,"lon":5.34978,"is_reserved":false,"is_disabled":false,"rental_uris":{"android":"levelo://app?vid=5e8e2973-8562-414c-a2a7-f651670dd623","ios":"levelo://app?vid=5e8e2973-8562-414c-a2a7-f651670dd623"},"vehicle_type_id":"4","last_reported":1752171338,"current_range_meters":20400,"station_id":"ce4bhbh2rcd13ifvqepg","pricing_plan_id":"cebpf4jnsgd1na2vs0mg"},{"bike_id":"8a1e4d37-9853-4731-9b96-88826b9db0e2","system_id":"levelo_inurba_marseille","lat":43.26206,"lon":5.37459,"is_reserved":false,"is_disabled":false,"rental_uris":{"android":"levelo://app?vid=8a1e4d37-9853-4731-9b96-88826b9db0e2","ios":"levelo://app?vid=8a1e4d37-9853-4731-9b96-88826b9db0e2"},"vehicle_type_id":"4","last_reported":1752171338,"current_range_meters":20400,"station_id":"ce4bhgp2rcd13ifvqfc0","pricing_plan_id":"cebpf4jnsgd1na2vs0mg"},{"bike_id":"69f02ded-5ff5-4c52-9592-5b0f80b7cfa3","system_id":"levelo_inurba_marseille","lat":43.2621,"lon":5.37438,"is_reserved":false,"is_disabled":false,"rental_uris":{"android":"levelo://app?vid=69f02ded-5ff5-4c52-9592-5b0f80b7cfa3","ios":"levelo://app?vid=69f02ded-5ff5-4c52-9592-5b0f80b7cfa3"},"vehicle_type_id":"4","last_reported":1752171338,"current_range_meters":20400,"station_id":"ce4bhgp2rcd13ifvqfc0","pricing_plan_id":"cebpf4jnsgd1na2vs0mg"},{"bike_id":"dbba3321-20c7-4989-a7b5-ea9ab2c4b3e8","system_id":"levelo_inurba_marseille","lat":43.261935,"lon":5.374477,"is_reserved":false,"is_disabled":false,"rental_uris":{"android":"levelo://app?vid=dbba3321-20c7-4989-a7b5-ea9ab2c4b3e8","ios":"levelo://app?vid=dbba3321-20c7-4989-a7b5-ea9ab2c4b3e8"},"vehicle_type_id":"4","last_reported":1752171338,"current_range_meters":20400,"station_id":"ce4bhgp2rcd13ifvqfc0","pricing_plan_id":"cebpf4jnsgd1na2vs0mg"},{"bike_id":"6008315e-1f21-4d1b-8275-f2e34dd27c69","system_id":"levelo_inurba_marseille","lat":43.27997,"lon":5.40008,"is_reserved":false,"is_disabled":false,"rental_uris":{"android":"levelo://app?vid=6008315e-1f21-4d1b-8275-f2e34dd27c69","ios":"levelo://app?vid=6008315e-1f21-4d1b-8275-f2e34dd27c69"},"vehicle_type_id":"4","last_reported":1752171338,"current_range_meters":20400,"station_id":"ce4bho92rcd13ifvqh4g","pricing_plan_id":"cebpf4jnsgd1na2vs0mg"},{"bike_id":"5f9facdb-d1e1-40e1-8ceb-766e4b9ac193","system_id":"levelo_inurba_marseille","lat":43.21754,"lon":5.345992,"is_reserved":false,"is_disabled":false,"rental_uris":{"android":"levelo://app?vid=5f9facdb-d1e1-40e1-8ceb-766e4b9ac193","ios":"levelo://app?vid=5f9facdb-d1e1-40e1-8ceb-766e4b9ac193"},"vehicle_type_id":"4","last_reported":1752171338,"current_range_meters":20800,"station_id":"","pricing_plan_id":"cebpf4jnsgd1na2vs0mg"},{"bike_id":"e84c2ddc-c428-416a-afb8-9c2ff8ab4320","system_id":"levelo_inurba_marseille","lat":43.276254,"lon":5.361081,"is_reserved":false,"is_disabled":false,"rental_uris":{"android":"levelo://app?vid=e84c2ddc-c428-416a-afb8-9c2ff8ab4320","ios":"levelo://app?vid=e84c2ddc-c428-416a-afb8-9c2ff8ab4320"},"vehicle_type_id":"4","last_reported":1752171338,"current_range_meters":20800,"station_id":"ce4bgj92rcd13ifvqbe0","pricing_plan_id":"cebpf4jnsgd1na2vs0mg"},{"bike_id":"ec8f48e0-76ec-477e-a3d5-c18a3450aaa6","system_id":"levelo_inurba_marseille","lat":43.2762,"lon":5.361,"is_reserved":false,"is_disabled":false,"rental_uris":{"android":"levelo://app?vid=ec8f48e0-76ec-477e-a3d5-c18a3450aaa6","ios":"levelo://app?vid=ec8f48e0-76ec-477e-a3d5-c18a3450aaa6"},"vehicle_type_id":"4","last_reported":1752171338,"current_range_meters":20800,"station_id":"ce4bgj92rcd13ifvqbe0","pricing_plan_id":"cebpf4jnsgd1na2vs0mg"},{"bike_id":"52e17cb9-3244-4eaa-8702-0add62e2a730","system_id":"levelo_inurba_marseille","lat":43.23198,"lon":5.35548,"is_reserved":false,"is_disabled":false,"rental_uris":{"android":"levelo://app?vid=52e17cb9-3244-4eaa-8702-0add62e2a730","ios":"levelo://app?vid=52e17cb9-3244-4eaa-8702-0add62e2a730"},"vehicle_type_id":"4","last_reported":1752171338,"current_range_meters":20800,"station_id":"ce4bhu92rcd13ifvqi70","pricing_plan_id":"cebpf4jnsgd1na2vs0mg"},{"bike_id":"9d0d85e3-ee19-452d-93c5-fbfc98a09acf","system_id":"levelo_inurba_marseille","lat":43.29496,"lon":5.4384,"is_reserved":false,"is_disabled":false,"rental_uris":{"android":"levelo://app?vid=9d0d85e3-ee19-452d-93c5-fbfc98a09acf","ios":"levelo://app?vid=9d0d85e3-ee19-452d-93c5-fbfc98a09acf"},"vehicle_type_id":"4","last_reported":1752171338,"current_range_meters":21600,"station_id":"","pricing_plan_id":"cebpf4jnsgd1na2vs0mg"},{"bike_id":"03299470-dfea-47da-8fa5-9c11132e6405","system_id":"levelo_inurba_marseille","lat":43.3033,"lon":5.40434,"is_reserved":false,"is_disabled":false,"rental_uris":{"android":"levelo://app?vid=03299470-dfea-47da-8fa5-9c11132e6405","ios":"levelo://app?vid=03299470-dfea-47da-8fa5-9c11132e6405"},"vehicle_type_id":"4","last_reported":1752171338,"current_range_meters":21600,"station_id":"ce4bh012rcd13ifvqd10","pricing_plan_id":"cebpf4jnsgd1na2vs0mg"},{"bike_id":"5a582a3d-e755-4718-bbcd-f7fb22c4cd99","system_id":"levelo_inurba_marseille","lat":43.2919,"lon":5.39309,"is_reserved":false,"is_disabled":false,"rental_uris":{"android":"levelo://app?vid=5a582a3d-e755-4718-bbcd-f7fb22c4cd99","ios":"levelo://app?vid=5a582a3d-e755-4718-bbcd-f7fb22c4cd99"},"vehicle_type_id":"4","last_reported":1752171338,"current_range_meters":21600,"station_id":"ce4bh192rcd13ifvqdd0","pricing_plan_id":"cebpf4jnsgd1na2vs0mg"},{"bike_id":"3017c35d-bfbb-4c72-8360-319af7f62483","system_id":"levelo_inurba_marseille","lat":43.28265,"lon":5.35074,"is_reserved":false,"is_disabled":false,"rental_uris":{"android":"levelo://app?vid=3017c35d-bfbb-4c72-8360-319af7f62483","ios":"levelo://app?vid=3017c35d-bfbb-4c72-8360-319af7f62483"},"vehicle_type_id":"4","last_reported":1752171338,"current_range_meters":21600,"station_id":"ce4bhbp2rcd13ifvqerg","pricing_plan_id":"cebpf4jnsgd1na2vs0mg"},{"bike_id":"33ac2659-cac5-44a3-8d2a-4fcea3f9cfcb","system_id":"levelo_inurba_marseille","lat":43.26577,"lon":5.37314,"is_reserved":false,"is_disabled":false,"rental_uris":{"android":"levelo://app?vid=33ac2659-cac5-44a3-8d2a-4fcea3f9cfcb","ios":"levelo://app?vid=33ac2659-cac5-44a3-8d2a-4fcea3f9cfcb"},"vehicle_type_id":"4","last_reported":1752171338,"current_range_meters":21600,"station_id":"ce4bhg12rcd13ifvqf70","pricing_plan_id":"cebpf4jnsgd1na2vs0mg"},{"bike_id":"223ec5df-a5e9-4fdd-b290-3e75623a9208","system_id":"levelo_inurba_marseille","lat":43.28002,"lon":5.40015,"is_reserved":false,"is_disabled":false,"rental_uris":{"android":"levelo://app?vid=223ec5df-a5e9-4fdd-b290-3e75623a9208","ios":"levelo://app?vid=223ec5df-a5e9-4fdd-b290-3e75623a9208"},"vehicle_type_id":"4","last_reported":1752171338,"current_range_meters":21600,"station_id":"ce4bho92rcd13ifvqh4g","pricing_plan_id":"cebpf4jnsgd1na2vs0mg"},