{"last_updated":1686247669,"ttl":30,"version":"2.2","data":{"bikes":[{"bike_id":"d1faddbd-2410-4646-9cf1-7e90e0f0c4f1","system_id":"levelo_inurba_marseille","lat":43.314811,"lon":5.373104,"is_reserved":false,"is_disabled":false,"rental_uris":{"android":"levelo://app?vid=d1faddbd-2410-4646-9cf1-7e90e0f0c4f1","ios":"levelo://app?vid=d1faddbd-2410-4646-9cf1-7e90e0f0c4f1"},"vehicle_type_id":"4","last_reported":1686247670,"current_range_meters":3600,"station_id":"ce4bgt12rcd13ifvqcd0","pricing_plan_id":"free"},{"bike_id":"9937c74c-2917-42de-b629-681dcf9f5b3a","system_id":"levelo_inurba_marseille","lat":43.308606,"lon":5.372099,"is_reserved":false,"is_disabled":false,"rental_uris":{"android":"levelo://app?vid=9937c74c-2917-42de-b629-681dcf9f5b3a","ios":"levelo://app?vid=9937c74c-2917-42de-b629-681dcf9f5b3a"},"vehicle_type_id":"4","last_reported":1686247670,"current_range_meters":15600,"station_id":"ce4bguh2rcd13ifvqckg","pricing_plan_id":"free"},{"bike_id":"6f83c8c5-4995-4eef-81c9-16f49fa8f22e","system_id":"levelo_inurba_marseille","lat":43.305706,"lon":5.365654,"is_reserved":false,"is_disabled":false,"rental_uris":{"android":"levelo://app?vid=6f83c8c5-4995-4eef-81c9-16f49fa8f22e","ios":"levelo://app?vid=6f83c8c5-4995-4eef-81c9-16f49fa8f22e"},"vehicle_type_id":"4","last_reported":1686247670,"current_range_meters":0,"station_id":"ce4bgs12rcd13ifvqcag","pricing_plan_id":"free"},{"bike_id":"91d9b5d4-1b7e-4b9e-93e0-215b4cc904b2","system_id":"levelo_inurba_marseille","lat":43.305706,"lon":5.365654,"is_reserved":false,"is_disabled":false,"rental_uris":{"android":"levelo://app?vid=91d9b5d4-1b7e-4b9e-93e0-215b4cc904b2","ios":"levelo://app?vid=91d9b5d4-1b7e-4b9e-93e0-215b4cc904b2"},"vehicle_type_id":"4","last_reported":1686247670,"current_range_meters":22800,"station_id":"ce4bgs12rcd13ifvqcag","pricing_plan_id":"free"},{"bike_id":"4ce7fe61-27a1-4bf6-9d1e-ba2a5bc550b2","system_id":"levelo_inurba_marseille","lat":43.32017,"lon":5.36571,"is_reserved":false,"is_disabled":false,"rental_uris":{"android":"levelo://app?vid=4ce7fe61-27a1-4bf6-9d1e-ba2a5bc550b2","ios":"levelo://app?vid=4ce7fe61-27a1-4bf6-9d1e-ba2a5bc550b2"},"vehicle_type_id":"4","last_reported":1686247670,"current_range_meters":22400,"station_id":"","pricing_plan_id":"free"},{"bike_id":"f57f0287-7915-4dab-a27d-615730d109a4","system_id":"levelo_inurba_marseille","lat":43.30528,"lon":5.36553,"is_reserved":false,"is_disabled":false,"rental_uris":{"android":"levelo://app?vid=f57f0287-7915-4dab-a27d-615730d109a4","ios":"levelo://app?vid=f57f0287-7915-4dab-a27d-615730d109a4"},"vehicle_type_id":"4","last_reported":1686247670,"current_range_meters":2000,"station_id":"ce4bgs12rcd13ifvqcag","pricing_plan_id":"free"},{"bike_id":"c2c748f9-7283-4665-9b2c-a64539d2b2fa","system_id":"levelo_inurba_marseille","lat":43.30597,"lon":5.37223,"is_reserved":false,"is_disabled":false,"rental_uris":{"android":"levelo://app?vid=c2c748f9-7283-4665-9b2c-a64539d2b2fa","ios":"levelo://app?vid=c2c748f9-7283-4665-9b2c-a64539d2b2fa"},"vehicle_type_id":"4","last_reported":1686247670,"current_range_meters":31600,"station_id":"ce4bgqh2rcd13ifvqc4g","pricing_plan_id":"free"},{"bike_id":"e5379ee2-1193-4933-9601-53a2c2894c76","system_id":"levelo_inurba_marseille","lat":43.305989,"lon":5.37225,"is_reserved":false,"is_disabled":false,"rental_uris":{"android":"levelo://app?vid=e5379ee2-1193-4933-9601-53a2c2894c76","ios":"levelo://app?vid=e5379ee2-1193-4933-9601-53a2c2894c76"},"vehicle_type_id":"4","last_reported":1686247670,"current_range_meters":10400,"station_id":"ce4bgqh2rcd13ifvqc4g","pricing_plan_id":"free"},{"bike_id":"ec55faca-c520-4821-ac9c-9f2ccb25cecc","system_id":"levelo_inurba_marseille","lat":43.311243,"lon":5.377688,"is_reserved":false,"is_disabled":false,"rental_uris":{"android":"levelo://app?vid=ec55faca-c520-4821-ac9c-9f2ccb25cecc","ios":"levelo://app?vid=ec55faca-c520-4821-ac9c-9f2ccb25cecc"},"vehicle_type_id":"4","last_reported":1686247670,"current_range_meters":0,"station_id":"","pricing_plan_id":"free"},{"bike_id":"1f271b4f-6fbc-4f16-bf88-8870a8f2c95c","system_id":"levelo_inurba_marseille","lat":43.31711,"lon":5.3774,"is_reserved":false,"is_disabled":false,"rental_uris":{"android":"levelo://app?vid=1f271b4f-6fbc-4f16-bf88-8870a8f2c95c","ios":"levelo://app?vid=1f271b4f-6fbc-4f16-bf88-8870a8f2c95c"},"vehicle_type_id":"4","last_reported":1686247670,"current_range_meters":19200,"station_id":"ce4bgth2rcd13ifvqch0","pricing_plan_id":"free"},{"bike_id":"f65bb912-4baf-47a7-9a69-ebcd522e4c7b","system_id":"levelo_inurba_marseille","lat":43.301939,"lon":5.366286,"is_reserved":false,"is_disabled":false,"rental_uris":{"android":"levelo://app?vid=f65bb912-4baf-47a7-9a69-ebcd522e4c7b","ios":"levelo://app?vid=f65bb912-4baf-47a7-9a69-ebcd522e4c7b"},"vehicle_type_id":"4","last_reported":1686247670,"current_range_meters":800,"station_id":"ce4bgrh2rcd13ifvqc8g","pricing_plan_id":"free"},{"bike_id":"1a63f548-8b68-4666-854e-e7490b1fe764","system_id":"levelo_inurba_marseille","lat":43.30803,"lon":5.38125,"is_reserved":false,"is_disabled":false,"rental_uris":{"android":"levelo://app?vid=1a63f548-8b68-4666-854e-e7490b1fe764","ios":"levelo://app?vid=1a63f548-8b68-4666-854e-e7490b1fe764"},"vehicle_type_id":"4","last_reported":1686247670,"current_range_meters":0,"station_id":"ce4bgt12rcd13ifvqce0","pricing_plan_id":"free"},{"bike_id":"0cc77b37-137c-42d1-8587-f82c0f71fbda","system_id":"levelo_inurba_marseille","lat":43.30807,"lon":5.38143,"is_reserved":false,"is_disabled":false,"rental_uris":{"android":"levelo://app?vid=0cc77b37-137c-42d1-8587-f82c0f71fbda","ios":"levelo://app?vid=0cc77b37-137c-42d1-8587-f82c0f71fbda"},"vehicle_type_id":"4","last_reported":1686247670,"current_range_meters":6400,"station_id":"ce4bgt12rcd13ifvqce0","pricing_plan_id":"free"},{"bike_id":"8a1f2aab-b7c3-472f-9949-cfb1a87808d6","system_id":"levelo_inurba_marseille","lat":43.304606,"lon":5.379026,"is_reserved":false,"is_disabled":false,"rental_uris":{"android":"levelo://app?vid=8a1f2aab-b7c3-472f-9949-cfb1a87808d6","ios":"levelo://app?vid=8a1f2aab-b7c3-472f-9949-cfb1a87808d6"},"vehicle_type_id":"4","last_reported":1686247670,"current_range_meters":27200,"station_id":"ce4bgup2rcd13ifvqcn0","pricing_plan_id":"free"},{"bike_id":"3bb71e08-ebe8-4412-a0c4-e7ac1df9d70d","system_id":"levelo_inurba_marseille","lat":43.304606,"lon":5.379026,"is_reserved":false,"is_disabled":false,"rental_uris":{"android":"levelo://app?vid=3bb71e08-ebe8-4412-a0c4-e7ac1df9d70d","ios":"levelo://app?vid=3bb71e08-ebe8-4412-a0c4-e7ac1df9d70d"},"vehicle_type_id":"4","last_reported":1686247670,"current_range_meters":31600,"station_id":"ce4bgup2rcd13ifvqcn0","pricing_plan_id":"free"},{"bike_id":"2a1995ac-86cb-494c-ae20-e9084916dd19","system_id":"levelo_inurba_marseille","lat":43.304606,"lon":5.379026,"is_reserved":false,"is_disabled":false,"rental_uris":{"android":"levelo://app?vid=2a1995ac-86cb-494c-ae20-e9084916dd19","ios":"levelo://app?vid=2a1995ac-86cb-494c-ae20-e9084916dd19"},"vehicle_type_id":"4","last_reported":1686247670,"current_range_meters":31200,"station_id":"ce4bgup2rcd13ifvqcn0","pricing_plan_id":"free"},{"bike_id":"1e21399b-9edf-4cbf-a9d6-3dec5aaf9304","system_id":"levelo_inurba_marseille","lat":43.304606,"lon":5.379026,"is_reserved":false,"is_disabled":false,"rental_uris":{"android":"levelo://app?vid=1e21399b-9edf-4cbf-a9d6-3dec5aaf9304","ios":"levelo://app?vid=1e21399b-9edf-4cbf-a9d6-3dec5aaf9304"},"vehicle_type_id":"4","last_reported":1686247670,"current_range_meters":24800,"station_id":"ce4bgup2rcd13ifvqcn0","pricing_plan_id":"free"},{"bike_id":"38033aa4-fb61-44d1-9790-31f02bbdb65f","system_id":"levelo_inurba_marseille","lat":43.303,"lon":5.3769,"is_reserved":false,"is_disabled":false,"rental_uris":{"android":"levelo://app?vid=38033aa4-fb61-44d1-9790-31f02bbdb65f","ios":"levelo://app?vid=38033aa4-fb61-44d1-9790-31f02bbdb65f"},"vehicle_type_id":"4","last_reported":1686247670,"current_range_meters":23600,"station_id":"","pricing_plan_id":"free"},{"bike_id":"615ecdbd-99e4-46f8-8663-c810c3ee1e09","system_id":"levelo_inurba_marseille","lat":43.30291,"lon":5.37703,"is_reserved":false,"is_disabled":false,"rental_uris":{"android":"levelo://app?vid=615ecdbd-99e4-46f8-8663-c810c3ee1e09","ios":"levelo://app?vid=615ecdbd-99e4-46f8-8663-c810c3ee1e09"},"vehicle_type_id":"4","last_reported":1686247670,"current_range_meters":28800,"station_id":"","pricing_plan_id":"free"},{"bike_id":"6e9c9323-d850-40eb-874a-77649d3e3a3a","system_id":"levelo_inurba_marseille","lat":43.30284,"lon":5.37695,"is_reserved":false,"is_disabled":false,"rental_uris":{"android":"levelo://app?vid=6e9c9323-d850-40eb-874a-77649d3e3a3a","ios":"levelo://app?vid=6e9c9323-d850-40eb-874a-77649d3e3a3a"},"vehicle_type_id":"4","last_reported":1686247670,"current_range_meters":29600,"station_id":"","pricing_plan_id":"free"},{"bike_id":"7afc88c3-775b-41ba-93a4-2696bd5c44d9","system_id":"levelo_inurba_marseille","lat":43.30279,"lon":5.37696,"is_reserved":false,"is_disabled":false,"rental_uris":{"android":"levelo://app?vid=7afc88c3-775b-41ba-93a4-2696bd5c44d9","ios":"levelo://app?vid=7afc88c3-775b-41ba-93a4-2696bd5c44d9"},"vehicle_type_id":"4","last_reported":1686247670,"current_range_meters":30400,"station_id":"","pricing_plan_id":"free"},{"bike_id":"da46ddbe-4004-4e91-9c71-2f279e78d613","system_id":"levelo_inurba_marseille","lat":43.30277,"lon":5.37698,"is_reserved":false,"is_disabled":false,"rental_uris":{"android":"levelo://app?vid=da46ddbe-4004-4e91-9c71-2f279e78d613","ios":"levelo://app?vid=da46ddbe-4004-4e91-9c71-2f279e78d613"},"vehicle_type_id":"4","last_reported":1686247670,"current_range_meters":27600,"station_id":"","pricing_plan_id":"free"},{"bike_id":"81ceb44e-9866-49ae-b371-e98c88ee55d4","system_id":"levelo_inurba_marseille","lat":43.30269,"lon":5.37707,"is_reserved":false,"is_disabled":false,"rental_uris":{"android":"levelo://app?vid=81ceb44e-9866-49ae-b371-e98c88ee55d4","ios":"levelo://app?vid=81ceb44e-9866-49ae-b371-e98c88ee55d4"},"vehicle_type_id":"4","last_reported":1686247670,"current_range_meters":27600,"station_id":"","pricing_plan_id":"free"},{"bike_id":"2e0df944-4f8c-4df6-b3c2-a2a21d1ff3b3","system_id":"levelo_inurba_marseille","lat":43.319935,"lon":5.381699,"is_reserved":false,"is_disabled":false,"rental_uris":{"android":"levelo://app?vid=2e0df944-4f8c-4df6-b3c2-a2a21d1ff3b3","ios":"levelo://app?vid=2e0df944-4f8c-4df6-b3c2-a2a21d1ff3b3"},"vehicle_type_id":"4","last_reported":1686247670,"current_range_meters":0,"station_id":"ce4bhr12rcd13ifvqhpg","pricing_plan_id":"free"},{"bike_id":"a87d4f9b-a0fe-4564-b74d-d5e67028b4ce","system_id":"levelo_inurba_marseille","lat":43.319935,"lon":5.381699,"is_reserved":false,"is_disabled":false,"rental_uris":{"android":"levelo://app?vid=a87d4f9b-a0fe-4564-b74d-d5e67028b4ce","ios":"levelo://app?vid=a87d4f9b-a0fe-4564-b74d-d5e67028b4ce"},"vehicle_type_id":"4","last_reported":1686247670,"current_range_meters":6000,"station_id":"ce4bhr12rcd13ifvqhpg","pricing_plan_id":"free"},{"bike_id":"0ab79bb0-5701-472f-bc16-9531b0dcbffe","system_id":"levelo_inurba_marseille","lat":43.319935,"lon":5.381699,"is_reserved":false,"is_disabled":false,"rental_uris":{"android":"levelo://app?vid=0ab79bb0-5701-472f-bc16-9531b0dcbffe","ios":"levelo://app?vid=0ab79bb0-5701-472f-bc16-9531b0dcbffe"},"vehicle_type_id":"4","last_reported":1686247670,"current_range_meters":7200,"station_id":"ce4bhr12rcd13ifvqhpg","pricing_plan_id":"free"},{"bike_id":"bf088a44-a24d-4ff6-a0fc-514116badddb","system_id":"levelo_inurba_marseille","lat":43.299243,"lon":5.374807,"is_reserved":false,"is_disabled":false,"rental_uris":{"android":"levelo://app?vid=bf088a44-a24d-4ff6-a0fc-514116badddb","ios":"levelo://app?vid=bf088a44-a24d-4ff6-a0fc-514116badddb"},"vehicle_type_id":"4","last_reported":1686247670,"current_range_meters":0,"station_id":"ce4bgjh2rcd13ifvqbg0","pricing_plan_id":"free"},{"bike_id":"1c4b2e36-f27c-4843-81c8-6f34c272a197","system_id":"levelo_inurba_marseille","lat":43.311722,"lon":5.387247,"is_reserved":false,"is_disabled":false,"rental_uris":{"android":"levelo://app?vid=1c4b2e36-f27c-4843-81c8-6f34c272a197","ios":"levelo://app?vid=1c4b2e36-f27c-4843-81c8-6f34c272a197"},"vehicle_type_id":"4","last_reported":1686247670,"current_range_meters":1200,"station_id":"ce4bgv12rcd13ifvqcp0","pricing_plan_id":"free"},{"bike_id":"fef53817-f1b1-4041-b47e-8b7a327e42eb","system_id":"levelo_inurba_marseille","lat":43.311722,"lon":5.387247,"is_reserved":false,"is_disabled":false,"rental_uris":{"android":"levelo://app?vid=fef53817-f1b1-4041-b47e-8b7a327e42eb","ios":"levelo://app?vid=fef53817-f1b1-4041-b47e-8b7a327e42eb"},"vehicle_type_id":"4","last_reported":1686247670,"current_range_meters":800,"station_id":"ce4bgv12rcd13ifvqcp0","pricing_plan_id":"free"},{"bike_id":"062222c9-5fa7-42a2-8211-5a5f6b2f82ed","system_id":"levelo_inurba_marseille","lat":43.311722,"lon":5.387247,"is_reserved":false,"is_disabled":false,"rental_uris":{"android":"levelo://app?vid=062222c9-5fa7-42a2-8211-5a5f6b2f82ed","ios":"levelo://app?vid=062222c9-5fa7-42a2-8211-5a5f6b2f82ed"},"vehicle_type_id":"4","last_reported":1686247670,"current_range_meters":24400,"station_id":"ce4bgv12rcd13ifvqcp0","pricing_plan_id":"free"},{"bike_id":"49922b3c-415c-4296-9d77-effad64dd380","system_id":"levelo_inurba_marseille","lat":43.311722,"lon":5.387247,"is_reserved":false,"is_disabled":false,"rental_uris":{"android":"levelo://app?vid=49922b3c-415c-4296-9d77-effad64dd380","ios":"levelo://app?vid=49922b3c-415c-4296-9d77-effad64dd380"},"vehicle_type_id":"4","last_reported":1686247670,"current_range_meters":4400,"station_id":"ce4bgv12rcd13ifvqcp0","pricing_plan_id":"free"},{"bike_id":"5fe09ff7-787d-4223-830b-be8a6e5bf12b","system_id":"levelo_inurba_marseille","lat":43.311722,"lon":5.387247,"is_reserved":false,"is_disabled":false,"rental_uris":{"android":"levelo://app?vid=5fe09ff7-787d-4223-830b-be8a6e5bf12b","ios":"levelo://app?vid=5fe09ff7-787d-4223-830b-be8a6e5bf12b"},"vehicle_type_id":"4","last_reported":1686247670,"current_range_meters":9600,"station_id":"ce4bgv12rcd13ifvqcp0","pricing_plan_id":"free"},{"bike_id":"4fc2946c-9355-4002-a316-82f08fbb66b6","system_id":"levelo_inurba_marseille","lat":43.311722,"lon":5.387247,"is_reserved":false,"is_disabled":false,"rental_uris":{"android":"levelo://app?vid=4fc2946c-9355-4002-a316-82f08fbb66b6","ios":"levelo://app?vid=4fc2946c-9355-4002-a316-82f08fbb66b6"},"vehicle_type_id":"4","last_reported":1686247670,"current_range_meters":20000,"station_id":"ce4bgv12rcd13ifvqcp0","pricing_plan_id":"free"},{"bike_id":"33f7ceb4-8f26-48ca-85c3-63e40ff286f6","system_id":"levelo_inurba_marseille","lat":43.311722,"lon":5.387247,"is_reserved":false,"is_disabled":false,"rental_uris":{"android":"levelo://app?vid=33f7ceb4-8f26-48ca-85c3-63e40ff286f6","ios":"levelo://app?vid=33f7ceb4-8f26-48ca-85c3-63e40ff286f6"},"vehicle_type_id":"4","last_reported":1686247670,"current_range_meters":6000,"station_id":"ce4bgv12rcd13ifvqcp0","pricing_plan_id":"free"},{"bike_id":"5153a370-8b04-42ff-a871-34f6bcaed41a","system_id":"levelo_inurba_marseille","lat":43.31164,"lon":5.38726,"is_reserved":false,"is_disabled":false,"rental_uris":{"android":"levelo://app?vid=5153a370-8b04-42ff-a871-34f6bcaed41a","ios":"levelo://app?vid=5153a370-8b04-42ff-a871-34f6bcaed41a"},"vehicle_type_id":"4","last_reported":1686247670,"current_range_meters":20800,"station_id":"ce4bgv12rcd13ifvqcp0","pricing_plan_id":"free"},{"bike_id":"822c2ce5-6b64-471a-9060-264344f2ba93","system_id":"levelo_inurba_marseille","lat":43.297794,"lon":5.370888,"is_reserved":false,"is_disabled":false,"rental_uris":{"android":"levelo://app?vid=822c2ce5-6b64-471a-9060-264344f2ba93","ios":"levelo://app?vid=822c2ce5-6b64-471a-9060-264344f2ba93"},"vehicle_type_id":"4","last_reported":1686247670,"current_range_meters":0,"station_id":"ce4bgop2rcd13ifvqc1g","pricing_plan_id":"free"},{"bike_id":"a593dac3-f089-498f-b39f-7891ce46bfb7","system_id":"levelo_inurba_marseille","lat":43.328371,"lon":5.366909,"is_reserved":false,"is_disabled":false,"rental_uris":{"android":"levelo://app?vid=a593dac3-f089-498f-b39f-7891ce46bfb7","ios":"levelo://app?vid=a593dac3-f089-498f-b39f-7891ce46bfb7"},"vehicle_type_id":"4","last_reported":1686247670,"current_range_meters":23200,"station_id":"ce4bhs92rcd13ifvqi0g","pricing_plan_id":"free"},{"bike_id":"82c2bb2e-4f44-4eee-b7a6-14a7d8839024","system_id":"levelo_inurba_marseille","lat":43.32827,"lon":5.36688,"is_reserved":false,"is_disabled":false,"rental_uris":{"android":"levelo://app?vid=82c2bb2e-4f44-4eee-b7a6-14a7d8839024","ios":"levelo://app?vid=82c2bb2e-4f44-4eee-b7a6-14a7d8839024"},"vehicle_type_id":"4","last_reported":1686247670,"current_range_meters":0,"station_id":"ce4bhs92rcd13ifvqi0g","pricing_plan_id":"free"},{"bike_id":"32c5cf7b-3598-4b13-84e4-c4fe593d6d85","system_id":"levelo_inurba_marseille","lat":43.328371,"lon":5.366909,"is_reserved":false,"is_disabled":false,"rental_uris":{"android":"levelo://app?vid=32c5cf7b-3598-4b13-84e4-c4fe593d6d85","ios":"levelo://app?vid=32c5cf7b-3598-4b13-84e4-c4fe593d6d85"},"vehicle_type_id":"4","last_reported":1686247670,"current_range_meters":20800,"station_id":"ce4bhs92rcd13ifvqi0g","pricing_plan_id":"free"},{"bike_id":"3787db80-6683-43d3-8ec0-9b6199b340a2","system_id":"levelo_inurba_marseille","lat":43.296131,"lon":5.370791,"is_reserved":false,"is_disabled":false,"rental_uris":{"android":"levelo://app?vid=3787db80-6683-43d3-8ec0-9b6199b340a2","ios":"levelo://app?vid=3787db80-6683-43d3-8ec0-9b6199b340a2"},"vehicle_type_id":"4","last_reported":1686247670,"current_range_meters":18800,"station_id":"ce4bgnh2rcd13ifvqc0g","pricing_plan_id":"free"},{"bike_id":"e63ff1a8-f285-4550-96a0-d6743c262739","system_id":"levelo_inurba_marseille","lat":43.29573,"lon":5.367355,"is_reserved":false,"is_disabled":false,"rental_uris":{"android":"levelo://app?vid=e63ff1a8-f285-4550-96a0-d6743c262739","ios":"levelo://app?vid=e63ff1a8-f285-4550-96a0-d6743c262739"},"vehicle_type_id":"4","last_reported":1686247670,"current_range_meters":0,"station_id":"ce4bgph2rcd13ifvqc2g","pricing_plan_id":"free"},{"bike_id":"107e244d-3d85-4ce4-bc2b-3a75d744302f","system_id":"levelo_inurba_marseille","lat":43.29595,"lon":5.37086,"is_reserved":false,"is_disabled":false,"rental_uris":{"android":"levelo://app?vid=107e244d-3d85-4ce4-bc2b-3a75d744302f","ios":"levelo://app?vid=107e244d-3d85-4ce4-bc2b-3a75d744302f"},"vehicle_type_id":"4","last_reported":1686247670,"current_range_meters":0,"station_id":"","pricing_plan_id":"free"},{"bike_id":"9cc47ae5-be30-45b6-85f9-d8455b7bc350","system_id":"levelo_inurba_marseille","lat":43.29591,"lon":5.37354,"is_reserved":false,"is_disabled":false,"rental_uris":{"android":"levelo://app?vid=9cc47ae5-be30-45b6-85f9-d8455b7bc350","ios":"levelo://app?vid=9cc47ae5-be30-45b6-85f9-d8455b7bc350"},"vehicle_type_id":"4","last_reported":1686247670,"current_range_meters":0,"station_id":"","pricing_plan_id":"free"},{"bike_id":"86a0f0d3-40a1-4baa-986a-d01725607bd7","system_id":"levelo_inurba_marseille","lat":43.317557,"lon":5.390173,"is_reserved":false,"is_disabled":false,"rental_uris":{"android":"levelo://app?vid=86a0f0d3-40a1-4baa-986a-d01725607bd7","ios":"levelo://app?vid=86a0f0d3-40a1-4baa-986a-d01725607bd7"},"vehicle_type_id":"4","last_reported":1686247670,"current_range_meters":3200,"station_id":"ce4bhqp2rcd13ifvqhng","pricing_plan_id":"free"},{"bike_id":"a69a475e-95aa-4850-8d26-a5cf0f0b65f2","system_id":"levelo_inurba_marseille","lat":43.295811,"lon":5.375197,"is_reserved":false,"is_disabled":false,"rental_uris":{"android":"levelo://app?vid=a69a475e-95aa-4850-8d26-a5cf0f0b65f2","ios":"levelo://app?vid=a69a475e-95aa-4850-8d26-a5cf0f0b65f2"},"vehicle_type_id":"4","last_reported":1686247670,"current_range_meters":31600,"station_id":"ce4bgh92rcd13ifvqb50","pricing_plan_id":"free"},{"bike_id":"6c769d01-ff7c-4c49-b6f4-79a59c7fcbcb","system_id":"levelo_inurba_marseille","lat":43.304278,"lon":5.388868,"is_reserved":false,"is_disabled":false,"rental_uris":{"android":"levelo://app?vid=6c769d01-ff7c-4c49-b6f4-79a59c7fcbcb","ios":"levelo://app?vid=6c769d01-ff7c-4c49-b6f4-79a59c7fcbcb"},"vehicle_type_id":"4","last_reported":1686247670,"current_range_meters":12800,"station_id":"ce4bgk12rcd13ifvqbi0","pricing_plan_id":"free"},{"bike_id":"e017e78a-f4eb-4f44-8869-7ea5019de07d","system_id":"levelo_inurba_marseille","lat":43.30425,"lon":5.38892,"is_reserved":false,"is_disabled":false,"rental_uris":{"android":"levelo://app?vid=e017e78a-f4eb-4f44-8869-7ea5019de07d","ios":"levelo://app?vid=e017e78a-f4eb-4f44-8869-7ea5019de07d"},"vehicle_type_id":"4","last_reported":1686247670,"current_range_meters":1600,"station_id":"ce4bgk12rcd13ifvqbi0","pricing_plan_id":"free"},{"bike_id":"0fac5ebc-bd09-4a46-9a04-4a1cf635396e","system_id":"levelo_inurba_marseille","lat":43.299717,"lon":5.384845,"is_reserved":false,"is_disabled":false,"rental_uris":{"android":"levelo://app?vid=0fac5ebc-bd09-4a46-9a04-4a1cf635396e","ios":"levelo://app?vid=0fac5ebc-bd09-4a46-9a04-4a1cf635396e"},"vehicle_type_id":"4","last_reported":1686247670,"current_range_meters":0,"station_id":"ce4bgj92rcd13ifvqbd0","pricing_plan_id":"free"},{"bike_id":"2973052a-8f40-4e8f-92ff-8fcbe4dd3bad","system_id":"levelo_inurba_marseille","lat":43.299717,"lon":5.384845,"is_reserved":false,"is_disabled":false,"rental_uris":{"android":"levelo://app?vid=2973052a-8f40-4e8f-92ff-8fcbe4dd3bad","ios":"levelo://app?vid=2973052a-8f40-4e8f-92ff-8fcbe4dd3bad"},"vehicle_type_id":"4","last_reported":1686247670,"current_range_meters":14400,"station_id":"ce4bgj92rcd13ifvqbd0","pricing_plan_id":"free"},{"bike_id":"7b0c4466-a16e-4e90-8d7f-fc96730ecd7e","system_id":"levelo_inurba_marseille","lat":43.32366,"lon":5.38882,"is_reserved":false,"is_disabled":false,"rental_uris":{"android":"levelo://app?vid=7b0c4466-a16e-4e90-8d7f-fc96730ecd7e","ios":"levelo://app?vid=7b0c4466-a16e-4e90-8d7f-fc96730ecd7e"},"vehicle_type_id":"4","last_reported":1686247670,"current_range_meters":0,"station_id":"ce4bhqp2rcd13ifvqhog","pricing_plan_id":"free"},{"bike_id":"87bb2c1e-ea53-44b4-b8f1-ecb8fc2a77a7","system_id":"levelo_inurba_marseille","lat":43.32371,"lon":5.38883,"is_reserved":false,"is_disabled":false,"rental_uris":{"android":"levelo://app?vid=87bb2c1e-ea53-44b4-b8f1-ecb8fc2a77a7","ios":"levelo://app?vid=87bb2c1e-ea53-44b4-b8f1-ecb8fc2a77a7"},"vehicle_type_id":"4","last_reported":1686247670,"current_range_meters":24400,"station_id":"ce4bhqp2rcd13ifvqhog","pricing_plan_id":"free"},{"bike_id":"639054e4-bf53-493f-93e7-f8222d728fc5","system_id":"levelo_inurba_marseille","lat":43.32367,"lon":5.38893,"is_reserved":false,"is_disabled":false,"rental_uris":{"android":"levelo://app?vid=639054e4-bf53-493f-93e7-f8222d728fc5","ios":"levelo://app?vid=639054e4-bf53-493f-93e7-f8222d728fc5"},"vehicle_type_id":"4","last_reported":1686247670,"current_range_meters":10000,"station_id":"ce4bhqp2rcd13ifvqhog","pricing_plan_id":"free"},{"bike_id":"906f0f76-9fa5-4e74-ad08-4b072aa55944","system_id":"levelo_inurba_marseille","lat":43.29268,"lon":5.36838,"is_reserved":false,"is_disabled":false,"rental_uris":{"android":"levelo://app?vid=906f0f76-9fa5-4e74-ad08-4b072aa55944","ios":"levelo://app?vid=906f0f76-9fa5-4e74-ad08-4b072aa55944"},"vehicle_type_id":"4","last_reported":1686247670,"current_range_meters":0,"station_id":"ce4bhbp2rcd13ifvqesg","pricing_plan_id":"free"},{"bike_id":"67488201-18ff-4c81-aea8-194b0335b9f1","system_id":"levelo_inurba_marseille","lat":43.293009,"lon":5.374584,"is_reserved":false,"is_disabled":false,"rental_uris":{"android":"levelo://app?vid=67488201-18ff-4c81-aea8-194b0335b9f1","ios":"levelo://app?vid=67488201-18ff-4c81-aea8-194b0335b9f1"},"vehicle_type_id":"4","last_reported":1686247670,"current_range_meters":400,"station_id":"ce4bgi12rcd13ifvqb70","pricing_plan_id":"free"},{"bike_id":"61e4ccfd-dc98-4837-8123-2dfa5e087f42","system_id":"levelo_inurba_marseille","lat":43.293723,"lon":5.378443,"is_reserved":false,"is_disabled":false,"rental_uris":{"android":"levelo://app?vid=61e4ccfd-dc98-4837-8123-2dfa5e087f42","ios":"levelo://app?vid=61e4ccfd-dc98-4837-8123-2dfa5e087f42"},"vehicle_type_id":"4","last_reported":1686247670,"current_range_meters":10800,"station_id":"","pricing_plan_id":"free"},{"bike_id":"07f561a9-3d69-453d-9f26-040350fbb08f","system_id":"levelo_inurba_marseille","lat":43.2936,"lon":5.37835,"is_reserved":false,"is_disabled":false,"rental_uris":{"android":"levelo://app?vid=07f561a9-3d69-453d-9f26-040350fbb08f","ios":"levelo://app?vid=07f561a9-3d69-453d-9f26-040350fbb08f"},"vehicle_type_id":"4","last_reported":1686247670,"current_range_meters":0,"station_id":"ce4bgjh2rcd13ifvqbf0","pricing_plan_id":"free"},{"bike_id":"f9fe5636-c8d0-4056-a049-813a90cf1a03","system_id":"levelo_inurba_marseille","lat":43.29224,"lon":5.36035,"is_reserved":false,"is_disabled":false,"rental_uris":{"android":"levelo://app?vid=f9fe5636-c8d0-4056-a049-813a90cf1a03","ios":"levelo://app?vid=f9fe5636-c8d0-4056-a049-813a90cf1a03"},"vehicle_type_id":"4","last_reported":1686247670,"current_range_meters":0,"station_id":"","pricing_plan_id":"free"},{"bike_id":"0f67c521-8267-42cf-858a-cb55580d0e56","system_id":"levelo_inurba_marseille","lat":43.309038,"lon":5.396546,"is_reserved":false,"is_disabled":false,"rental_uris":{"android":"levelo://app?vid=0f67c521-8267-42cf-858a-cb55580d0e56","ios":"levelo://app?vid=0f67c521-8267-42cf-858a-cb55580d0e56"},"vehicle_type_id":"4","last_reported":1686247670,"current_range_meters":19600,"station_id":"ce4bh012rcd13ifvqcv0","pricing_plan_id":"free"},{"bike_id":"6b297771-e16a-4a4f-9195-b49fad2ccce8","system_id":"levelo_inurba_marseille","lat":43.290624,"lon":5.359245,"is_reserved":false,"is_disabled":false,"rental_uris":{"android":"levelo://app?vid=6b297771-e16a-4a4f-9195-b49fad2ccce8","ios":"levelo://app?vid=6b297771-e16a-4a4f-9195-b49fad2ccce8"},"vehicle_type_id":"4","last_reported":1686247670,"current_range_meters":30400,"station_id":"ce4bha92rcd13ifvqeg0","pricing_plan_id":"free"},{"bike_id":"2fa375a0-5e7c-4499-a292-e637dfaffbe2","system_id":"levelo_inurba_marseille","lat":43.290624,"lon":5.359245,"is_reserved":false,"is_disabled":false,"rental_uris":{"android":"levelo://app?vid=2fa375a0-5e7c-4499-a292-e637dfaffbe2","ios":"levelo://app?vid=2fa375a0-5e7c-4499-a292-e637dfaffbe2"},"vehicle_type_id":"4","last_reported":1686247670,"current_range_meters":30000,"station_id":"ce4bha92rcd13ifvqeg0","pricing_plan_id":"free"},{"bike_id":"d0fd8da1-1627-4203-aa7e-a9ee22e9cbb5","system_id":"levelo_inurba_marseille","lat":43.290327,"lon":5.375711,"is_reserved":false,"is_disabled":false,"rental_uris":{"android":"levelo://app?vid=d0fd8da1-1627-4203-aa7e-a9ee22e9cbb5","ios":"levelo://app?vid=d0fd8da1-1627-4203-aa7e-a9ee22e9cbb5"},"vehicle_type_id":"4","last_reported":1686247670,"current_range_meters":0,"station_id":"ce4bh692rcd13ifvqe90","pricing_plan_id":"free"},{"bike_id":"7078070c-ad21-4982-a1ec-5bbd5c672d49","system_id":"levelo_inurba_marseille","lat":43.294162,"lon":5.386292,"is_reserved":false,"is_disabled":false,"rental_uris":{"android":"levelo://app?vid=7078070c-ad21-4982-a1ec-5bbd5c672d49","ios":"levelo://app?vid=7078070c-ad21-4982-a1ec-5bbd5c672d49"},"vehicle_type_id":"4","last_reported":1686247670,"current_range_meters":3200,"station_id":"ce4bh2h2rcd13ifvqdh0","pricing_plan_id":"free"},{"bike_id":"a91691bc-6046-4367-8bc4-845bc25ce554","system_id":"levelo_inurba_marseille","lat":43.289184,"lon":5.366408,"is_reserved":false,"is_disabled":false,"rental_uris":{"android":"levelo://app?vid=a91691bc-6046-4367-8bc4-845bc25ce554","ios":"levelo://app?vid=a91691bc-6046-4367-8bc4-845bc25ce554"},"vehicle_type_id":"4","last_reported":1686247670,"current_range_meters":2800,"station_id":"ce4bhap2rcd13ifvqek0","pricing_plan_id":"free"},{"bike_id":"1e72b0d6-12d2-4958-ae73-7398ae1f26da","system_id":"levelo_inurba_marseille","lat":43.289399,"lon":5.366262,"is_reserved":false,"is_disabled":false,"rental_uris":{"android":"levelo://app?vid=1e72b0d6-12d2-4958-ae73-7398ae1f26da","ios":"levelo://app?vid=1e72b0d6-12d2-4958-ae73-7398ae1f26da"},"vehicle_type_id":"4","last_reported":1686247670,"current_range_meters":12400,"station_id":"ce4bhap2rcd13ifvqek0","pricing_plan_id":"free"},{"bike_id":"d8acd3db-3be5-4257-af20-7ce2e4fdf2e7","system_id":"levelo_inurba_marseille","lat":43.289184,"lon":5.366408,"is_reserved":false,"is_disabled":false,"rental_uris":{"android":"levelo://app?vid=d8acd3db-3be5-4257-af20-7ce2e4fdf2e7","ios":"levelo://app?vid=d8acd3db-3be5-4257-af20-7ce2e4fdf2e7"},"vehicle_type_id":"4","last_reported":1686247670,"current_range_meters":400,"station_id":"ce4bhap2rcd13ifvqek0","pricing_plan_id":"free"},{"bike_id":"a0b8214c-ddd0-4861-a4a6-a80f85f92417","system_id":"levelo_inurba_marseille","lat":43.289468,"lon":5.363719,"is_reserved":false,"is_disabled":false,"rental_uris":{"android":"levelo://app?vid=a0b8214c-ddd0-4861-a4a6-a80f85f92417","ios":"levelo://app?vid=a0b8214c-ddd0-4861-a4a6-a80f85f92417"},"vehicle_type_id":"4","last_reported":1686247670,"current_range_meters":0,"station_id":"ce4bhc92rcd13ifvqetg","pricing_plan_id":"free"},{"bike_id":"da9a0218-42bf-41c6-890a-d30f0a978c98","system_id":"levelo_inurba_marseille","lat":43.289468,"lon":5.363719,"is_reserved":false,"is_disabled":false,"rental_uris":{"android":"levelo://app?vid=da9a0218-42bf-41c6-890a-d30f0a978c98","ios":"levelo://app?vid=da9a0218-42bf-41c6-890a-d30f0a978c98"},"vehicle_type_id":"4","last_reported":1686247670,"current_range_meters":800,"station_id":"ce4bhc92rcd13ifvqetg","pricing_plan_id":"free"},{"bike_id":"3f9e71f7-384d-4374-a96d-6f09792a7d2a","system_id":"levelo_inurba_marseille","lat":43.304296,"lon":5.397513,"is_reserved":false,"is_disabled":false,"rental_uris":{"android":"levelo://app?vid=3f9e71f7-384d-4374-a96d-6f09792a7d2a","ios":"levelo://app?vid=3f9e71f7-384d-4374-a96d-6f09792a7d2a"},"vehicle_type_id":"4","last_reported":1686247670,"current_range_meters":22800,"station_id":"ce4bh092rcd13ifvqd20","pricing_plan_id":"free"},{"bike_id":"7898a738-9a99-4207-9254-cec3fb88ed78","system_id":"levelo_inurba_marseille","lat":43.33041,"lon":5.38916,"is_reserved":false,"is_disabled":false,"rental_uris":{"android":"levelo://app?vid=7898a738-9a99-4207-9254-cec3fb88ed78","ios":"levelo://app?vid=7898a738-9a99-4207-9254-cec3fb88ed78"},"vehicle_type_id":"4","last_reported":1686247670,"current_range_meters":25200,"station_id":"ce4bhr92rcd13ifvqhrg","pricing_plan_id":"free"},{"bike_id":"5103420d-338f-4f56-a0f3-7e019e5c9924","system_id":"levelo_inurba_marseille","lat":43.33041,"lon":5.3892,"is_reserved":false,"is_disabled":false,"rental_uris":{"android":"levelo://app?vid=5103420d-338f-4f56-a0f3-7e019e5c9924","ios":"levelo://app?vid=5103420d-338f-4f56-a0f3-7e019e5c9924"},"vehicle_type_id":"4","last_reported":1686247670,"current_range_meters":23200,"station_id":"ce4bhr92rcd13ifvqhrg","pricing_plan_id":"free"},{"bike_id":"525c4daf-7688-46eb-8c01-8b80d6fc04d9","system_id":"levelo_inurba_marseille","lat":43.330471,"lon":5.389153,"is_reserved":false,"is_disabled":false,"rental_uris":{"android":"levelo://app?vid=525c4daf-7688-46eb-8c01-8b80d6fc04d9","ios":"levelo://app?vid=525c4daf-7688-46eb-8c01-8b80d6fc04d9"},"vehicle_type_id":"4","last_reported":1686247670,"current_range_meters":25600,"station_id":"","pricing_plan_id":"free"},{"bike_id":"50be3487-1d11-48f3-b8ef-a02bd4845d0b","system_id":"levelo_inurba_marseille","lat":43.33043,"lon":5.38924,"is_reserved":false,"is_disabled":false,"rental_uris":{"android":"levelo://app?vid=50be3487-1d11-48f3-b8ef-a02bd4845d0b","ios":"levelo://app?vid=50be3487-1d11-48f3-b8ef-a02bd4845d0b"},"vehicle_type_id":"4","last_reported":1686247670,"current_range_meters":26800,"station_id":"ce4bhr92rcd13ifvqhrg","pricing_plan_id":"free"},{"bike_id":"eebb0572-4916-4105-a791-7d74572be411","system_id":"levelo_inurba_marseille","lat":43.290103,"lon":5.356114,"is_reserved":false,"is_disabled":false,"rental_uris":{"android":"levelo://app?vid=eebb0572-4916-4105-a791-7d74572be411","ios":"levelo://app?vid=eebb0572-4916-4105-a791-7d74572be411"},"vehicle_type_id":"4","last_reported":1686247670,"current_range_meters":12000,"station_id":"ce4bhb92rcd13ifvqen0","pricing_plan_id":"free"},{"bike_id":"8ebf92bb-d6a5-4405-a8bb-daaa737c5501","system_id":"levelo_inurba_marseille","lat":43.290104,"lon":5.356111,"is_reserved":false,"is_disabled":false,"rental_uris":{"android":"levelo://app?vid=8ebf92bb-d6a5-4405-a8bb-daaa737c5501","ios":"levelo://app?vid=8ebf92bb-d6a5-4405-a8bb-daaa737c5501"},"vehicle_type_id":"4","last_reported":1686247670,"current_range_meters":25600,"station_id":"ce4bhb92rcd13ifvqen0","pricing_plan_id":"free"},{"bike_id":"9d0dc824-72ff-44e0-a8a6-43e051897116","system_id":"levelo_inurba_marseille","lat":43.290104,"lon":5.356111,"is_reserved":false,"is_disabled":false,"rental_uris":{"android":"levelo://app?vid=9d0dc824-72ff-44e0-a8a6-43e051897116","ios":"levelo://app?vid=9d0dc824-72ff-44e0-a8a6-43e051897116"},"vehicle_type_id":"4","last_reported":1686247670,"current_range_meters":4800,"station_id":"ce4bhb92rcd13ifvqen0","pricing_plan_id":"free"},{"bike_id":"03261b73-0606-47c4-b027-e0459aba42a5","system_id":"levelo_inurba_marseille","lat":43.290104,"lon":5.356111,"is_reserved":false,"is_disabled":false,"rental_uris":{"android":"levelo://app?vid=03261b73-0606-47c4-b027-e0459aba42a5","ios":"levelo://app?vid=03261b73-0606-47c4-b027-e0459aba42a5"},"vehicle_type_id":"4","last_reported":1686247670,"current_range_meters":5200,"station_id":"ce4bhb92rcd13ifvqen0","pricing_plan_id":"free"},{"bike_id":"ccba32b4-08d8-4479-86a6-7f4bfb2846fb","system_id":"levelo_inurba_marseille","lat":43.31992,"lon":5.39919,"is_reserved":false,"is_disabled":false,"rental_uris":{"android":"levelo://app?vid=ccba32b4-08d8-4479-86a6-7f4bfb2846fb","ios":"levelo://app?vid=ccba32b4-08d8-4479-86a6-7f4bfb2846fb"},"vehicle_type_id":"4","last_reported":1686247670,"current_range_meters":0,"station_id":"","pricing_plan_id":"free"},{"bike_id":"0018a709-1872-4eed-828a-c13aca02eb2c","system_id":"levelo_inurba_marseille","lat":43.28856,"lon":5.358371,"is_reserved":false,"is_disabled":false,"rental_uris":{"android":"levelo://app?vid=0018a709-1872-4eed-828a-c13aca02eb2c","ios":"levelo://app?vid=0018a709-1872-4eed-828a-c13aca02eb2c"},"vehicle_type_id":"4","last_reported":1686247670,"current_range_meters":0,"station_id":"ce4bhb12rcd13ifvqem0","pricing_plan_id":"free"},{"bike_id":"d3c226a5-dd73-4d5e-935d-9f1dbacf709b","system_id":"levelo_inurba_marseille","lat":43.30929,"lon":5.40133,"is_reserved":false,"is_disabled":false,"rental_uris":{"android":"levelo://app?vid=d3c226a5-dd73-4d5e-935d-9f1dbacf709b","ios":"levelo://app?vid=d3c226a5-dd73-4d5e-935d-9f1dbacf709b"},"vehicle_type_id":"4","last_reported":1686247670,"current_range_meters":8400,"station_id":"","pricing_plan_id":"free"},{"bike_id":"b7f1a644-d66d-4bbf-9b3d-301ef1c29b78","system_id":"levelo_inurba_marseille","lat":43.33746,"lon":5.37439,"is_reserved":false,"is_disabled":false,"rental_uris":{"android":"levelo://app?vid=b7f1a644-d66d-4bbf-9b3d-301ef1c29b78","ios":"levelo://app?vid=b7f1a644-d66d-4bbf-9b3d-301ef1c29b78"},"vehicle_type_id":"4","last_reported":1686247670,"current_range_meters":28000,"station_id":"","pricing_plan_id":"free"},{"bike_id":"eaf288e4-7ee4-4e5e-b9d1-568d8b8d2845","system_id":"levelo_inurba_marseille","lat":43.33744,"lon":5.37487,"is_reserved":false,"is_disabled":false,"rental_uris":{"android":"levelo://app?vid=eaf288e4-7ee4-4e5e-b9d1-568d8b8d2845","ios":"levelo://app?vid=eaf288e4-7ee4-4e5e-b9d1-568d8b8d2845"},"vehicle_type_id":"4","last_reported":1686247670,"current_range_meters":22000,"station_id":"","pricing_plan_id":"free"},{"bike_id":"2a58347c-bb80-4baa-931b-25b7f9b5a8d5","system_id":"levelo_inurba_marseille","lat":43.33745,"lon":5.37482,"is_reserved":false,"is_disabled":false,"rental_uris":{"android":"levelo://app?vid=2a58347c-bb80-4baa-931b-25b7f9b5a8d5","ios":"levelo://app?vid=2a58347c-bb80-4baa-931b-25b7f9b5a8d5"},"vehicle_type_id":"4","last_reported":1686247670,"current_range_meters":30800,"station_id":"","pricing_plan_id":"free"},{"bike_id":"ca97e488-a7f4-4dda-afa4-f84c1715e79f","system_id":"levelo_inurba_marseille","lat":43.33748,"lon":5.37475,"is_reserved":false,"is_disabled":false,"rental_uris":{"android":"levelo://app?vid=ca97e488-a7f4-4dda-afa4-f84c1715e79f","ios":"levelo://app?vid=ca97e488-a7f4-4dda-afa4-f84c1715e79f"},"vehicle_type_id":"4","last_reported":1686247670,"current_range_meters":0,"station_id":"","pricing_plan_id":"free"},{"bike_id":"265c0905-166c-408b-8d33-95a8e86424e1","system_id":"levelo_inurba_marseille","lat":43.337582,"lon":5.374483,"is_reserved":false,"is_disabled":false,"rental_uris":{"android":"levelo://app?vid=265c0905-166c-408b-8d33-95a8e86424e1","ios":"levelo://app?vid=265c0905-166c-408b-8d33-95a8e86424e1"},"vehicle_type_id":"4","last_reported":1686247670,"current_range_meters":23200,"station_id":"","pricing_plan_id":"free"},{"bike_id":"bf4b07bc-f4b6-48f9-b77e-66ec24318ced","system_id":"levelo_inurba_marseille","lat":43.33756,"lon":5.37477,"is_reserved":false,"is_disabled":false,"rental_uris":{"android":"levelo://app?vid=bf4b07bc-f4b6-48f9-b77e-66ec24318ced","ios":"levelo://app?vid=bf4b07bc-f4b6-48f9-b77e-66ec24318ced"},"vehicle_type_id":"4","last_reported":1686247670,"current_range_meters":9200,"station_id":"","pricing_plan_id":"free"},{"bike_id":"fb041ec1-b611-46eb-9d8b-3229cfb3396a","system_id":"levelo_inurba_marseille","lat":43.33768,"lon":5.37459,"is_reserved":false,"is_disabled":false,"rental_uris":{"android":"levelo://app?vid=fb041ec1-b611-46eb-9d8b-3229cfb3396a","ios":"levelo://app?vid=fb041ec1-b611-46eb-9d8b-3229cfb3396a"},"vehicle_type_id":"4","last_reported":1686247670,"current_range_meters":30400,"station_id":"","pricing_plan_id":"free"},{"bike_id":"669d1881-b0ff-4967-900b-ff44bcb9cca9","system_id":"levelo_inurba_marseille","lat":43.306412,"lon":5.401035,"is_reserved":false,"is_disabled":false,"rental_uris":{"android":"levelo://app?vid=669d1881-b0ff-4967-900b-ff44bcb9cca9","ios":"levelo://app?vid=669d1881-b0ff-4967-900b-ff44bcb9cca9"},"vehicle_type_id":"4","last_reported":1686247670,"current_range_meters":28000,"station_id":"ce4bh112rcd13ifvqda0","pricing_plan_id":"free"},{"bike_id":"7b3c86ca-68e4-49f3-836b-4a4033ba2e9c","system_id":"levelo_inurba_marseille","lat":43.298681,"lon":5.397225,"is_reserved":false,"is_disabled":false,"rental_uris":{"android":"levelo://app?vid=7b3c86ca-68e4-49f3-836b-4a4033ba2e9c","ios":"levelo://app?vid=7b3c86ca-68e4-49f3-836b-4a4033ba2e9c"},"vehicle_type_id":"4","last_reported":1686247670,"current_range_meters":0,"station_id":"ce4bh0h2rcd13ifvqd50","pricing_plan_id":"free"},{"bike_id":"bd074b8f-ed8d-48f7-9300-e35ca1001161","system_id":"levelo_inurba_marseille","lat":43.286591,"lon":5.363346,"is_reserved":false,"is_disabled":false,"rental_uris":{"android":"levelo://app?vid=bd074b8f-ed8d-48f7-9300-e35ca1001161","ios":"levelo://app?vid=bd074b8f-ed8d-48f7-9300-e35ca1001161"},"vehicle_type_id":"4","last_reported":1686247670,"current_range_meters":23600,"station_id":"ce4bhah2rcd13ifvqej0","pricing_plan_id":"free"},{"bike_id":"bfdfe741-4b22-4978-a0db-1a7db8d486ba","system_id":"levelo_inurba_marseille","lat":43.28698,"lon":5.37387,"is_reserved":false,"is_disabled":false,"rental_uris":{"android":"levelo://app?vid=bfdfe741-4b22-4978-a0db-1a7db8d486ba","ios":"levelo://app?vid=bfdfe741-4b22-4978-a0db-1a7db8d486ba"},"vehicle_type_id":"4","last_reported":1686247670,"current_range_meters":7200,"station_id":"","pricing_plan_id":"free"},{"bike_id":"eaa76de0-1f28-4ed1-b1f2-f42729fc775c","system_id":"levelo_inurba_marseille","lat":43.286591,"lon":5.363346,"is_reserved":false,"is_disabled":false,"rental_uris":{"android":"levelo://app?vid=eaa76de0-1f28-4ed1-b1f2-f42729fc775c","ios":"levelo://app?vid=eaa76de0-1f28-4ed1-b1f2-f42729fc775c"},"vehicle_type_id":"4","last_reported":1686247670,"current_range_meters":21200,"station_id":"ce4bhah2rcd13ifvqej0","pricing_plan_id":"free"},{"bike_id":"c487f110-f720-4990-b891-3a17215b69ef","system_id":"levelo_inurba_marseille","lat":43.298681,"lon":5.397225,"is_reserved":false,"is_disabled":false,"rental_uris":{"android":"levelo://app?vid=c487f110-f720-4990-b891-3a17215b69ef","ios":"levelo://app?vid=c487f110-f720-4990-b891-3a17215b69ef"},"vehicle_type_id":"4","last_reported":1686247670,"current_range_meters":21600,"station_id":"ce4bh0h2rcd13ifvqd50","pricing_plan_id":"free"},{"bike_id":"6c46c5d6-8e7c-4225-a280-38f8bdd46e82","system_id":"levelo_inurba_marseille","lat":43.286039,"lon":5.370681,"is_reserved":false,"is_disabled":false,"rental_uris":{"android":"levelo://app?vid=6c46c5d6-8e7c-4225-a280-38f8bdd46e82","ios":"levelo://app?vid=6c46c5d6-8e7c-4225-a280-38f8bdd46e82"},"vehicle_type_id":"4","last_reported":1686247670,"current_range_meters":7600,"station_id":"ce4bht12rcd13ifvqi60","pricing_plan_id":"free"},{"bike_id":"c9380fc9-d47e-4705-9157-9cf39e46bddc","system_id":"levelo_inurba_marseille","lat":43.31646,"lon":5.4043,"is_reserved":false,"is_disabled":false,"rental_uris":{"android":"levelo://app?vid=c9380fc9-d47e-4705-9157-9cf39e46bddc","ios":"levelo://app?vid=c9380fc9-d47e-4705-9157-9cf39e46bddc"},"vehicle_type_id":"4","last_reported":1686247670,"current_range_meters":21200,"station_id":"ce4bh012rcd13ifvqd00","pricing_plan_id":"free"},{"bike_id":"bbc6ed9c-d7b0-4496-90f8-e96be2498ff6","system_id":"levelo_inurba_marseille","lat":43.31623,"lon":5.40509,"is_reserved":false,"is_disabled":false,"rental_uris":{"android":"levelo://app?vid=bbc6ed9c-d7b0-4496-90f8-e96be2498ff6","ios":"levelo://app?vid=bbc6ed9c-d7b0-4496-90f8-e96be2498ff6"},"vehicle_type_id":"4","last_reported":1686247670,"current_range_meters":5200,"station_id":"","pricing_plan_id":"free"},{"bike_id":"56f21d4e-b997-4da8-97b9-73ad2c97ce49","system_id":"levelo_inurba_marseille","lat":43.29891,"lon":5.40037,"is_reserved":false,"is_disabled":false,"rental_uris":{"android":"levelo://app?vid=56f21d4e-b997-4da8-97b9-73ad2c97ce49","ios":"levelo://app?vid=56f21d4e-b997-4da8-97b9-73ad2c97ce49"},"vehicle_type_id":"4","last_reported":1686247670,"current_range_meters":0,"station_id":"","pricing_plan_id":"free"},{"bike_id":"c0c361fa-8669-41c8-9ed5-421dc9fc6055","system_id":"levelo_inurba_marseille","lat":43.29191,"lon":5.39326,"is_reserved":false,"is_disabled":false,"rental_uris":{"android":"levelo://app?vid=c0c361fa-8669-41c8-9ed5-421dc9fc6055","ios":"levelo://app?vid=c0c361fa-8669-41c8-9ed5-421dc9fc6055"},"vehicle_type_id":"4","last_reported":1686247670,"current_range_meters":16800,"station_id":"","pricing_plan_id":"free"},{"bike_id":"467d0be5-1cf3-42e7-a7b9-7c8c123d77ec","system_id":"levelo_inurba_marseille","lat":43.284534,"lon":5.358662,"is_reserved":false,"is_disabled":false,"rental_uris":{"android":"levelo://app?vid=467d0be5-1cf3-42e7-a7b9-7c8c123d77ec","ios":"levelo://app?vid=467d0be5-1cf3-42e7-a7b9-7c8c123d77ec"},"vehicle_type_id":"4","last_reported":1686247670,"current_range_meters":9600,"station_id":"ce4bhah2rcd13ifvqei0","pricing_plan_id":"free"},{"bike_id":"05993d08-53cd-489b-938f-9aeaa06838e9","system_id":"levelo_inurba_marseille","lat":43.284534,"lon":5.358662,"is_reserved":false,"is_disabled":false,"rental_uris":{"android":"levelo://app?vid=05993d08-53cd-489b-938f-9aeaa06838e9","ios":"levelo://app?vid=05993d08-53cd-489b-938f-9aeaa06838e9"},"vehicle_type_id":"4","last_reported":1686247670,"current_range_meters":14800,"station_id":"ce4bhah2rcd13ifvqei0","pricing_plan_id":"free"},{"bike_id":"244b5663-c6e8-4daf-9b8b-b1d7283d9ddb","system_id":"levelo_inurba_marseille","lat":43.284534,"lon":5.358662,"is_reserved":false,"is_disabled":false,"rental_uris":{"android":"levelo://app?vid=244b5663-c6e8-4daf-9b8b-b1d7283d9ddb","ios":"levelo://app?vid=244b5663-c6e8-4daf-9b8b-b1d7283d9ddb"},"vehicle_type_id":"4","last_reported":1686247670,"current_range_meters":28800,"station_id":"ce4bhah2rcd13ifvqei0","pricing_plan_id":"free"},{"bike_id":"ac8b0559-7cea-47c7-90f4-a17ddac528f2","system_id":"levelo_inurba_marseille","lat":43.28621,"lon":5.35101,"is_reserved":false,"is_disabled":false,"rental_uris":{"android":"levelo://app?vid=ac8b0559-7cea-47c7-90f4-a17ddac528f2","ios":"levelo://app?vid=ac8b0559-7cea-47c7-90f4-a17ddac528f2"},"vehicle_type_id":"4","last_reported":1686247670,"current_range_meters":0,"station_id":"","pricing_plan_id":"free"},{"bike_id":"cedc5f9b-85d3-4a5f-9cb6-628297f573fe","system_id":"levelo_inurba_marseille","lat":43.285856,"lon":5.350771,"is_reserved":false,"is_disabled":false,"rental_uris":{"android":"levelo://app?vid=cedc5f9b-85d3-4a5f-9cb6-628297f573fe","ios":"levelo://app?vid=cedc5f9b-85d3-4a5f-9cb6-628297f573fe"},"vehicle_type_id":"4","last_reported":1686247670,"current_range_meters":6000,"station_id":"ce4bhch2rcd13ifvqeug","pricing_plan_id":"free"},{"bike_id":"3ba60c88-268a-417d-9c96-94f4b743c3bf","system_id":"levelo_inurba_marseille","lat":43.285856,"lon":5.350771,"is_reserved":false,"is_disabled":false,"rental_uris":{"android":"levelo://app?vid=3ba60c88-268a-417d-9c96-94f4b743c3bf","ios":"levelo://app?vid=3ba60c88-268a-417d-9c96-94f4b743c3bf"},"vehicle_type_id":"4","last_reported":1686247670,"current_range_meters":28400,"station_id":"ce4bhch2rcd13ifvqeug","pricing_plan_id":"free"},{"bike_id":"e0e627ac-f276-4b28-ab0d-5f5f21532d0d","system_id":"levelo_inurba_marseille","lat":43.285856,"lon":5.350771,"is_reserved":false,"is_disabled":false,"rental_uris":{"android":"levelo://app?vid=e0e627ac-f276-4b28-ab0d-5f5f21532d0d","ios":"levelo://app?vid=e0e627ac-f276-4b28-ab0d-5f5f21532d0d"},"vehicle_type_id":"4","last_reported":1686247670,"current_range_meters":14400,"station_id":"ce4bhch2rcd13ifvqeug","pricing_plan_id":"free"},{"bike_id":"113f8974-f1bc-49a3-a15c-a905023d2898","system_id":"levelo_inurba_marseille","lat":43.285856,"lon":5.350771,"is_reserved":false,"is_disabled":false,"rental_uris":{"android":"levelo://app?vid=113f8974-f1bc-49a3-a15c-a905023d2898","ios":"levelo://app?vid=113f8974-f1bc-49a3-a15c-a905023d2898"},"vehicle_type_id":"4","last_reported":1686247670,"current_range_meters":7200,"station_id":"ce4bhch2rcd13ifvqeug","pricing_plan_id":"free"},{"bike_id":"aaad225b-1881-4082-943e-fe7aefad766e","system_id":"levelo_inurba_marseille","lat":43.288501,"lon":5.393087,"is_reserved":false,"is_disabled":false,"rental_uris":{"android":"levelo://app?vid=aaad225b-1881-4082-943e-fe7aefad766e","ios":"levelo://app?vid=aaad225b-1881-4082-943e-fe7aefad766e"},"vehicle_type_id":"4","last_reported":1686247670,"current_range_meters":1200,"station_id":"ce4bh2p2rcd13ifvqdi0","pricing_plan_id":"free"},{"bike_id":"a5048881-fc41-4e79-9586-9ccd57ef41e0","system_id":"levelo_inurba_marseille","lat":43.283503,"lon":5.380987,"is_reserved":false,"is_disabled":false,"rental_uris":{"android":"levelo://app?vid=a5048881-fc41-4e79-9586-9ccd57ef41e0","ios":"levelo://app?vid=a5048881-fc41-4e79-9586-9ccd57ef41e0"},"vehicle_type_id":"4","last_reported":1686247670,"current_range_meters":0,"station_id":"ce4bh412rcd13ifvqdr0","pricing_plan_id":"free"},{"bike_id":"2e00a983-b728-46f1-8899-2c0eaa95ef7c","system_id":"levelo_inurba_marseille","lat":43.283498,"lon":5.380948,"is_reserved":false,"is_disabled":false,"rental_uris":{"android":"levelo://app?vid=2e00a983-b728-46f1-8899-2c0eaa95ef7c","ios":"levelo://app?vid=2e00a983-b728-46f1-8899-2c0eaa95ef7c"},"vehicle_type_id":"4","last_reported":1686247670,"current_range_meters":12400,"station_id":"ce4bh412rcd13ifvqdr0","pricing_plan_id":"free"},{"bike_id":"b076a4fc-a17e-4ccd-8d50-bc13b35532a6","system_id":"levelo_inurba_marseille","lat":43.283494,"lon":5.380945,"is_reserved":false,"is_disabled":false,"rental_uris":{"android":"levelo://app?vid=b076a4fc-a17e-4ccd-8d50-bc13b35532a6","ios":"levelo://app?vid=b076a4fc-a17e-4ccd-8d50-bc13b35532a6"},"vehicle_type_id":"4","last_reported":1686247670,"current_range_meters":0,"station_id":"ce4bh412rcd13ifvqdr0","pricing_plan_id":"free"},{"bike_id":"ae232d39-b160-410f-a53c-e104a0631f2e","system_id":"levelo_inurba_marseille","lat":43.32412,"lon":5.4068,"is_reserved":false,"is_disabled":false,"rental_uris":{"android":"levelo://app?vid=ae232d39-b160-410f-a53c-e104a0631f2e","ios":"levelo://app?vid=ae232d39-b160-410f-a53c-e104a0631f2e"},"vehicle_type_id":"4","last_reported":1686247670,"current_range_meters":24000,"station_id":"","pricing_plan_id":"free"},{"bike_id":"4f50546c-3424-4b2e-99c8-d159c6348d4c","system_id":"levelo_inurba_marseille","lat":43.284217,"lon":5.349697,"is_reserved":false,"is_disabled":false,"rental_uris":{"android":"levelo://app?vid=4f50546c-3424-4b2e-99c8-d159c6348d4c","ios":"levelo://app?vid=4f50546c-3424-4b2e-99c8-d159c6348d4c"},"vehicle_type_id":"4","last_reported":1686247670,"current_range_meters":7200,"station_id":"ce4bhbh2rcd13ifvqepg","pricing_plan_id":"free"},{"bike_id":"186b3055-e909-4af4-8640-cd6c2edc1bdb","system_id":"levelo_inurba_marseille","lat":43.284219,"lon":5.3497,"is_reserved":false,"is_disabled":false,"rental_uris":{"android":"levelo://app?vid=186b3055-e909-4af4-8640-cd6c2edc1bdb","ios":"levelo://app?vid=186b3055-e909-4af4-8640-cd6c2edc1bdb"},"vehicle_type_id":"4","last_reported":1686247670,"current_range_meters":8000,"station_id":"ce4bhbh2rcd13ifvqepg","pricing_plan_id":"free"},{"bike_id":"25d0d742-9c61-48f6-89bc-675b65df376a","system_id":"levelo_inurba_marseille","lat":43.231794,"lon":5.400052,"is_reserved":false,"is_disabled":false,"rental_uris":{"android":"levelo://app?vid=25d0d742-9c61-48f6-89bc-675b65df376a","ios":"levelo://app?vid=25d0d742-9c61-48f6-89bc-675b65df376a"},"vehicle_type_id":"4","last_reported":1686247670,"current_range_meters":11600,"station_id":"ce4bhn12rcd13ifvqgqg","pricing_plan_id":"free"},{"bike_id":"b30949f7-e5ac-4603-b122-6f441acb77b8","system_id":"levelo_inurba_marseille","lat":43.283502,"lon":5.386471,"is_reserved":false,"is_disabled":false,"rental_uris":{"android":"levelo://app?vid=b30949f7-e5ac-4603-b122-6f441acb77b8","ios":"levelo://app?vid=b30949f7-e5ac-4603-b122-6f441acb77b8"},"vehicle_type_id":"4","last_reported":1686247670,"current_range_meters":0,"station_id":"ce4bh492rcd13ifvqdvg","pricing_plan_id":"free"},{"bike_id":"efb387a9-be29-4b0c-b08f-e7e029ee1a2c","system_id":"levelo_inurba_marseille","lat":43.28269,"lon":5.35054,"is_reserved":false,"is_disabled":false,"rental_uris":{"android":"levelo://app?vid=efb387a9-be29-4b0c-b08f-e7e029ee1a2c","ios":"levelo://app?vid=efb387a9-be29-4b0c-b08f-e7e029ee1a2c"},"vehicle_type_id":"4","last_reported":1686247670,"current_range_meters":0,"station_id":"ce4bhbp2rcd13ifvqerg","pricing_plan_id":"free"},{"bike_id":"c7b6d048-779b-4cef-b747-70642aee0785","system_id":"levelo_inurba_marseille","lat":43.28266,"lon":5.3506,"is_reserved":false,"is_disabled":false,"rental_uris":{"android":"levelo://app?vid=c7b6d048-779b-4cef-b747-70642aee0785","ios":"levelo://app?vid=c7b6d048-779b-4cef-b747-70642aee0785"},"vehicle_type_id":"4","last_reported":1686247670,"current_range_meters":5600,"station_id":"ce4bhbp2rcd13ifvqerg","pricing_plan_id":"free"},{"bike_id":"d5fedf34-3094-409d-b4ad-3a8f207b8569","system_id":"levelo_inurba_marseille","lat":43.282744,"lon":5.350533,"is_reserved":false,"is_disabled":false,"rental_uris":{"android":"levelo://app?vid=d5fedf34-3094-409d-b4ad-3a8f207b8569","ios":"levelo://app?vid=d5fedf34-3094-409d-b4ad-3a8f207b8569"},"vehicle_type_id":"4","last_reported":1686247670,"current_range_meters":0,"station_id":"ce4bhbp2rcd13ifvqerg","pricing_plan_id":"free"},{"bike_id":"630c20b9-9cb0-4fca-8fc1-14f2468b12cb","system_id":"levelo_inurba_marseille","lat":43.28035,"lon":5.3694,"is_reserved":false,"is_disabled":false,"rental_uris":{"android":"levelo://app?vid=630c20b9-9cb0-4fca-8fc1-14f2468b12cb","ios":"levelo://app?vid=630c20b9-9cb0-4fca-8fc1-14f2468b12cb"},"vehicle_type_id":"4","last_reported":1686247670,"current_range_meters":15600,"station_id":"ce4bha12rcd13ifvqef0","pricing_plan_id":"free"},{"bike_id":"795cc673-8cdb-4f40-bb99-da87db848d64","system_id":"levelo_inurba_marseille","lat":43.2844,"lon":5.39205,"is_reserved":false,"is_disabled":false,"rental_uris":{"android":"levelo://app?vid=795cc673-8cdb-4f40-bb99-da87db848d64","ios":"levelo://app?vid=795cc673-8cdb-4f40-bb99-da87db848d64"},"vehicle_type_id":"4","last_reported":1686247670,"current_range_meters":11200,"station_id":"ce4bhoh2rcd13ifvqh5g","pricing_plan_id":"free"},{"bike_id":"0ab176a2-a074-4277-980f-4345f48c5a5e","system_id":"levelo_inurba_marseille","lat":43.32656,"lon":5.40993,"is_reserved":false,"is_disabled":false,"rental_uris":{"android":"levelo://app?vid=0ab176a2-a074-4277-980f-4345f48c5a5e","ios":"levelo://app?vid=0ab176a2-a074-4277-980f-4345f48c5a5e"},"vehicle_type_id":"4","last_reported":1686247670,"current_range_meters":16400,"station_id":"","pricing_plan_id":"free"},{"bike_id":"2b269f4d-13d3-481f-8b13-66e1100986b6","system_id":"levelo_inurba_marseille","lat":43.28125,"lon":5.34639,"is_reserved":false,"is_disabled":false,"rental_uris":{"android":"levelo://app?vid=2b269f4d-13d3-481f-8b13-66e1100986b6","ios":"levelo://app?vid=2b269f4d-13d3-481f-8b13-66e1100986b6"},"vehicle_type_id":"4","last_reported":1686247670,"current_range_meters":4000,"station_id":"","pricing_plan_id":"free"},{"bike_id":"9ff64d14-44a6-4179-945e-740e53240240","system_id":"levelo_inurba_marseille","lat":43.27903,"lon":5.38005,"is_reserved":false,"is_disabled":false,"rental_uris":{"android":"levelo://app?vid=9ff64d14-44a6-4179-945e-740e53240240","ios":"levelo://app?vid=9ff64d14-44a6-4179-945e-740e53240240"},"vehicle_type_id":"4","last_reported":1686247670,"current_range_meters":0,"station_id":"","pricing_plan_id":"free"},{"bike_id":"286724ab-65fc-476b-911f-7a4c0b7145bf","system_id":"levelo_inurba_marseille","lat":43.287154,"lon":5.399979,"is_reserved":false,"is_disabled":false,"rental_uris":{"android":"levelo://app?vid=286724ab-65fc-476b-911f-7a4c0b7145bf","ios":"levelo://app?vid=286724ab-65fc-476b-911f-7a4c0b7145bf"},"vehicle_type_id":"4","last_reported":1686247670,"current_range_meters":400,"station_id":"ce4bho92rcd13ifvqh3g","pricing_plan_id":"free"},{"bike_id":"91d0bea8-d61e-45b0-990a-c1532415adaa","system_id":"levelo_inurba_marseille","lat":43.32043,"lon":5.41541,"is_reserved":false,"is_disabled":false,"rental_uris":{"android":"levelo://app?vid=91d0bea8-d61e-45b0-990a-c1532415adaa","ios":"levelo://app?vid=91d0bea8-d61e-45b0-990a-c1532415adaa"},"vehicle_type_id":"4","last_reported":1686247670,"current_range_meters":800,"station_id":"","pricing_plan_id":"free"},{"bike_id":"c1ed1e4b-b62a-4f64-b014-6fbb08b3acdd","system_id":"levelo_inurba_marseille","lat":43.279742,"lon":5.38744,"is_reserved":false,"is_disabled":false,"rental_uris":{"android":"levelo://app?vid=c1ed1e4b-b62a-4f64-b014-6fbb08b3acdd","ios":"levelo://app?vid=c1ed1e4b-b62a-4f64-b014-6fbb08b3acdd"},"vehicle_type_id":"4","last_reported":1686247670,"current_range_meters":12800,"station_id":"ce4bhg12rcd13ifvqf80","pricing_plan_id":"free"},{"bike_id":"618e8209-b43e-4c5f-891d-0e4ac081064e","system_id":"levelo_inurba_marseille","lat":43.279742,"lon":5.38744,"is_reserved":false,"is_disabled":false,"rental_uris":{"android":"levelo://app?vid=618e8209-b43e-4c5f-891d-0e4ac081064e","ios":"levelo://app?vid=618e8209-b43e-4c5f-891d-0e4ac081064e"},"vehicle_type_id":"4","last_reported":1686247670,"current_range_meters":1200,"station_id":"ce4bhg12rcd13ifvqf80","pricing_plan_id":"free"},{"bike_id":"24708e87-9cd6-48e4-a68d-88ba299f6c25","system_id":"levelo_inurba_marseille","lat":43.279742,"lon":5.38744,"is_reserved":false,"is_disabled":false,"rental_uris":{"android":"levelo://app?vid=24708e87-9cd6-48e4-a68d-88ba299f6c25","ios":"levelo://app?vid=24708e87-9cd6-48e4-a68d-88ba299f6c25"},"vehicle_type_id":"4","last_reported":1686247670,"current_range_meters":1600,"station_id":"ce4bhg12rcd13ifvqf80","pricing_plan_id":"free"},{"bike_id":"e6b89875-f693-4a2a-8f01-ef3a944e5bf1","system_id":"levelo_inurba_marseille","lat":43.325233,"lon":5.414318,"is_reserved":false,"is_disabled":false,"rental_uris":{"android":"levelo://app?vid=e6b89875-f693-4a2a-8f01-ef3a944e5bf1","ios":"levelo://app?vid=e6b89875-f693-4a2a-8f01-ef3a944e5bf1"},"vehicle_type_id":"4","last_reported":1686247670,"current_range_meters":14400,"station_id":"ce4bhq12rcd13ifvqhhg","pricing_plan_id":"free"},{"bike_id":"198decf6-0eea-47a2-873e-f9ea2742fccf","system_id":"levelo_inurba_marseille","lat":43.292569,"lon":5.409107,"is_reserved":false,"is_disabled":false,"rental_uris":{"android":"levelo://app?vid=198decf6-0eea-47a2-873e-f9ea2742fccf","ios":"levelo://app?vid=198decf6-0eea-47a2-873e-f9ea2742fccf"},"vehicle_type_id":"4","last_reported":1686247670,"current_range_meters":0,"station_id":"ce4bh192rcd13ifvqdc0","pricing_plan_id":"free"},{"bike_id":"d7821520-8d19-4c59-92e7-b6e9509a985c","system_id":"levelo_inurba_marseille","lat":43.292571,"lon":5.409107,"is_reserved":false,"is_disabled":false,"rental_uris":{"android":"levelo://app?vid=d7821520-8d19-4c59-92e7-b6e9509a985c","ios":"levelo://app?vid=d7821520-8d19-4c59-92e7-b6e9509a985c"},"vehicle_type_id":"4","last_reported":1686247670,"current_range_meters":16000,"station_id":"ce4bh192rcd13ifvqdc0","pricing_plan_id":"free"},{"bike_id":"ab28cfb0-b0b6-426f-a19d-e334622d2ddb","system_id":"levelo_inurba_marseille","lat":43.292569,"lon":5.409107,"is_reserved":false,"is_disabled":false,"rental_uris":{"android":"levelo://app?vid=ab28cfb0-b0b6-426f-a19d-e334622d2ddb","ios":"levelo://app?vid=ab28cfb0-b0b6-426f-a19d-e334622d2ddb"},"vehicle_type_id":"4","last_reported":1686247670,"current_range_meters":0,"station_id":"ce4bh192rcd13ifvqdc0","pricing_plan_id":"free"},{"bike_id":"51903ad4-fce9-4d1f-945d-5221f6b35b3c","system_id":"levelo_inurba_marseille","lat":43.27621,"lon":5.36102,"is_reserved":false,"is_disabled":false,"rental_uris":{"android":"levelo://app?vid=51903ad4-fce9-4d1f-945d-5221f6b35b3c","ios":"levelo://app?vid=51903ad4-fce9-4d1f-945d-5221f6b35b3c"},"vehicle_type_id":"4","last_reported":1686247670,"current_range_meters":3600,"station_id":"ce4bgj92rcd13ifvqbe0","pricing_plan_id":"free"},{"bike_id":"d94c5494-12fe-42a0-ac35-ff9c86197ac1","system_id":"levelo_inurba_marseille","lat":43.27615,"lon":5.3611,"is_reserved":false,"is_disabled":false,"rental_uris":{"android":"levelo://app?vid=d94c5494-12fe-42a0-ac35-ff9c86197ac1","ios":"levelo://app?vid=d94c5494-12fe-42a0-ac35-ff9c86197ac1"},"vehicle_type_id":"4","last_reported":1686247670,"current_range_meters":0,"station_id":"ce4bgj92rcd13ifvqbe0","pricing_plan_id":"free"},{"bike_id":"a9addf9b-8e70-4314-9ca7-49dc998e6d5a","system_id":"levelo_inurba_marseille","lat":43.303837,"lon":5.418724,"is_reserved":false,"is_disabled":false,"rental_uris":{"android":"levelo://app?vid=a9addf9b-8e70-4314-9ca7-49dc998e6d5a","ios":"levelo://app?vid=a9addf9b-8e70-4314-9ca7-49dc998e6d5a"},"vehicle_type_id":"4","last_reported":1686247670,"current_range_meters":14800,"station_id":"ce4bhop2rcd13ifvqh7g","pricing_plan_id":"free"},{"bike_id":"9c222f6e-76f2-4ee8-9185-61de7a15e8ec","system_id":"levelo_inurba_marseille","lat":43.278399,"lon":5.392139,"is_reserved":false,"is_disabled":false,"rental_uris":{"android":"levelo://app?vid=9c222f6e-76f2-4ee8-9185-61de7a15e8ec","ios":"levelo://app?vid=9c222f6e-76f2-4ee8-9185-61de7a15e8ec"},"vehicle_type_id":"4","last_reported":1686247670,"current_range_meters":2400,"station_id":"ce4bhjp2rcd13ifvqga0","pricing_plan_id":"free"},{"bike_id":"3c312f76-1b6e-4e0a-977c-5a4a8626c32d","system_id":"levelo_inurba_marseille","lat":43.27573,"lon":5.38422,"is_reserved":false,"is_disabled":false,"rental_uris":{"android":"levelo://app?vid=3c312f76-1b6e-4e0a-977c-5a4a8626c32d","ios":"levelo://app?vid=3c312f76-1b6e-4e0a-977c-5a4a8626c32d"},"vehicle_type_id":"4","last_reported":1686247670,"current_range_meters":5200,"station_id":"","pricing_plan_id":"free"},{"bike_id":"5e1669fa-47d5-403d-8db4-1f5853d847d2","system_id":"levelo_inurba_marseille","lat":43.273613,"lon":5.362705,"is_reserved":false,"is_disabled":false,"rental_uris":{"android":"levelo://app?vid=5e1669fa-47d5-403d-8db4-1f5853d847d2","ios":"levelo://app?vid=5e1669fa-47d5-403d-8db4-1f5853d847d2"},"vehicle_type_id":"4","last_reported":1686247670,"current_range_meters":400,"station_id":"ce4bhbh2rcd13ifvqeo0","pricing_plan_id":"free"},{"bike_id":"cb361806-7d5e-46cb-91fe-3363938d02e9","system_id":"levelo_inurba_marseille","lat":43.28252,"lon":5.40806,"is_reserved":false,"is_disabled":false,"rental_uris":{"android":"levelo://app?vid=cb361806-7d5e-46cb-91fe-3363938d02e9","ios":"levelo://app?vid=cb361806-7d5e-46cb-91fe-3363938d02e9"},"vehicle_type_id":"4","last_reported":1686247670,"current_range_meters":24800,"station_id":"","pricing_plan_id":"free"},{"bike_id":"df9b686f-3666-44a5-a684-a976322a033a","system_id":"levelo_inurba_marseille","lat":43.295523,"lon":5.422926,"is_reserved":false,"is_disabled":false,"rental_uris":{"android":"levelo://app?vid=df9b686f-3666-44a5-a684-a976322a033a","ios":"levelo://app?vid=df9b686f-3666-44a5-a684-a976322a033a"},"vehicle_type_id":"4","last_reported":1686247670,"current_range_meters":0,"station_id":"ce4bhph2rcd13ifvqhdg","pricing_plan_id":"free"},{"bike_id":"c1874095-3fd1-429d-acfd-0a5c998d4b4d","system_id":"levelo_inurba_marseille","lat":43.278128,"lon":5.407195,"is_reserved":false,"is_disabled":false,"rental_uris":{"android":"levelo://app?vid=c1874095-3fd1-429d-acfd-0a5c998d4b4d","ios":"levelo://app?vid=c1874095-3fd1-429d-acfd-0a5c998d4b4d"},"vehicle_type_id":"4","last_reported":1686247670,"current_range_meters":16400,"station_id":"ce4bhnh2rcd13ifvqgtg","pricing_plan_id":"free"},{"bike_id":"dabe2368-3c31-4eee-bc3c-8750c07c97c4","system_id":"levelo_inurba_marseille","lat":43.265714,"lon":5.372891,"is_reserved":false,"is_disabled":false,"rental_uris":{"android":"levelo://app?vid=dabe2368-3c31-4eee-bc3c-8750c07c97c4","ios":"levelo://app?vid=dabe2368-3c31-4eee-bc3c-8750c07c97c4"},"vehicle_type_id":"4","last_reported":1686247670,"current_range_meters":10400,"station_id":"ce4bhg12rcd13ifvqf70","pricing_plan_id":"free"},{"bike_id":"3f53a843-863d-4663-b9f4-dcb158b18937","system_id":"levelo_inurba_marseille","lat":43.265714,"lon":5.372891,"is_reserved":false,"is_disabled":false,"rental_uris":{"android":"levelo://app?vid=3f53a843-863d-4663-b9f4-dcb158b18937","ios":"levelo://app?vid=3f53a843-863d-4663-b9f4-dcb158b18937"},"vehicle_type_id":"4","last_reported":1686247670,"current_range_meters":13600,"station_id":"ce4bhg12rcd13ifvqf70","pricing_plan_id":"free"},{"bike_id":"511d345b-c609-4cef-a19b-a37e0e2e302b","system_id":"levelo_inurba_marseille","lat":43.265714,"lon":5.372891,"is_reserved":false,"is_disabled":false,"rental_uris":{"android":"levelo://app?vid=511d345b-c609-4cef-a19b-a37e0e2e302b","ios":"levelo://app?vid=511d345b-c609-4cef-a19b-a37e0e2e302b"},"vehicle_type_id":"4","last_reported":1686247670,"current_range_meters":31200,"station_id":"ce4bhg12rcd13ifvqf70","pricing_plan_id":"free"},{"bike_id":"20c5ba33-3bce-48d0-b978-27bd5d84aec7","system_id":"levelo_inurba_marseille","lat":43.28947,"lon":5.42469,"is_reserved":false,"is_disabled":false,"rental_uris":{"android":"levelo://app?vid=20c5ba33-3bce-48d0-b978-27bd5d84aec7","ios":"levelo://app?vid=20c5ba33-3bce-48d0-b978-27bd5d84aec7"},"vehicle_type_id":"4","last_reported":1686247670,"current_range_meters":2400,"station_id":"","pricing_plan_id":"free"},{"bike_id":"cd1ef42a-cc6c-4223-9f79-31071cc74dad","system_id":"levelo_inurba_marseille","lat":43.27996,"lon":5.41654,"is_reserved":false,"is_disabled":false,"rental_uris":{"android":"levelo://app?vid=cd1ef42a-cc6c-4223-9f79-31071cc74dad","ios":"levelo://app?vid=cd1ef42a-cc6c-4223-9f79-31071cc74dad"},"vehicle_type_id":"4","last_reported":1686247670,"current_range_meters":0,"station_id":"ce4bho12rcd13ifvqh1g","pricing_plan_id":"free"},{"bike_id":"c56886e7-1c07-4e4e-8d95-1bfcba15fecf","system_id":"levelo_inurba_marseille","lat":43.308,"lon":5.43522,"is_reserved":false,"is_disabled":false,"rental_uris":{"android":"levelo://app?vid=c56886e7-1c07-4e4e-8d95-1bfcba15fecf","ios":"levelo://app?vid=c56886e7-1c07-4e4e-8d95-1bfcba15fecf"},"vehicle_type_id":"4","last_reported":1686247670,"current_range_meters":4800,"station_id":"","pricing_plan_id":"free"},{"bike_id":"b0f82b0d-4254-4710-af92-1b2e9f397767","system_id":"levelo_inurba_marseille","lat":43.26234,"lon":5.37046,"is_reserved":false,"is_disabled":false,"rental_uris":{"android":"levelo://app?vid=b0f82b0d-4254-4710-af92-1b2e9f397767","ios":"levelo://app?vid=b0f82b0d-4254-4710-af92-1b2e9f397767"},"vehicle_type_id":"4","last_reported":1686247670,"current_range_meters":23600,"station_id":"","pricing_plan_id":"free"},{"bike_id":"6c63496c-ebb0-4d5d-9250-c1adf17bfacd","system_id":"levelo_inurba_marseille","lat":43.261782,"lon":5.374515,"is_reserved":false,"is_disabled":false,"rental_uris":{"android":"levelo://app?vid=6c63496c-ebb0-4d5d-9250-c1adf17bfacd","ios":"levelo://app?vid=6c63496c-ebb0-4d5d-9250-c1adf17bfacd"},"vehicle_type_id":"4","last_reported":1686247670,"current_range_meters":4800,"station_id":"ce4bhgp2rcd13ifvqfc0","pricing_plan_id":"free"},{"bike_id":"153810c3-299a-4b7c-8b69-0ecd96bb3b3b","system_id":"levelo_inurba_marseille","lat":43.261782,"lon":5.374515,"is_reserved":false,"is_disabled":false,"rental_uris":{"android":"levelo://app?vid=153810c3-299a-4b7c-8b69-0ecd96bb3b3b","ios":"levelo://app?vid=153810c3-299a-4b7c-8b69-0ecd96bb3b3b"},"vehicle_type_id":"4","last_reported":1686247670,"current_range_meters":10400,"station_id":"ce4bhgp2rcd13ifvqfc0","pricing_plan_id":"free"},{"bike_id":"5045715c-4dce-4b63-997f-46f551f36047","system_id":"levelo_inurba_marseille","lat":43.317104,"lon":5.436818,"is_reserved":false,"is_disabled":false,"rental_uris":{"android":"levelo://app?vid=5045715c-4dce-4b63-997f-46f551f36047","ios":"levelo://app?vid=5045715c-4dce-4b63-997f-46f551f36047"},"vehicle_type_id":"4","last_reported":1686247670,"current_range_meters":30000,"station_id":"ce4bhp92rcd13ifvqhcg","pricing_plan_id":"free"},{"bike_id":"78bfaefe-2050-46ba-9b47-a6eaec5e367b","system_id":"levelo_inurba_marseille","lat":43.27093,"lon":5.4085,"is_reserved":false,"is_disabled":false,"rental_uris":{"android":"levelo://app?vid=78bfaefe-2050-46ba-9b47-a6eaec5e367b","ios":"levelo://app?vid=78bfaefe-2050-46ba-9b47-a6eaec5e367b"},"vehicle_type_id":"4","last_reported":1686247670,"current_range_meters":29600,"station_id":"","pricing_plan_id":"free"},{"bike_id":"38c8a072-666f-43c9-bd1e-67a535874233","system_id":"levelo_inurba_marseille","lat":43.267959,"lon":5.402685,"is_reserved":false,"is_disabled":false,"rental_uris":{"android":"levelo://app?vid=38c8a072-666f-43c9-bd1e-67a535874233","ios":"levelo://app?vid=38c8a072-666f-43c9-bd1e-67a535874233"},"vehicle_type_id":"4","last_reported":1686247670,"current_range_meters":4400,"station_id":"ce501612rcd8frsf0b60","pricing_plan_id":"free"},{"bike_id":"9db8f694-b621-41e3-95b1-d689ba86623a","system_id":"levelo_inurba_marseille","lat":43.267959,"lon":5.402685,"is_reserved":false,"is_disabled":false,"rental_uris":{"android":"levelo://app?vid=9db8f694-b621-41e3-95b1-d689ba86623a","ios":"levelo://app?vid=9db8f694-b621-41e3-95b1-d689ba86623a"},"vehicle_type_id":"4","last_reported":1686247670,"current_range_meters":6000,"station_id":"ce501612rcd8frsf0b60","pricing_plan_id":"free"},{"bike_id":"7b16b738-f650-4cea-88ee-870b528607b2","system_id":"levelo_inurba_marseille","lat":43.298768,"lon":5.43643,"is_reserved":false,"is_disabled":false,"rental_uris":{"android":"levelo://app?vid=7b16b738-f650-4cea-88ee-870b528607b2","ios":"levelo://app?vid=7b16b738-f650-4cea-88ee-870b528607b2"},"vehicle_type_id":"4","last_reported":1686247670,"current_range_meters":18000,"station_id":"ce4bhpp2rcd13ifvqhfg","pricing_plan_id":"free"},{"bike_id":"af67968e-ef38-4fba-8475-8dbd93eb3d40","system_id":"levelo_inurba_marseille","lat":43.298768,"lon":5.43643,"is_reserved":false,"is_disabled":false,"rental_uris":{"android":"levelo://app?vid=af67968e-ef38-4fba-8475-8dbd93eb3d40","ios":"levelo://app?vid=af67968e-ef38-4fba-8475-8dbd93eb3d40"},"vehicle_type_id":"4","last_reported":1686247670,"current_range_meters":1200,"station_id":"ce4bhpp2rcd13ifvqhfg","pricing_plan_id":"free"},{"bike_id":"0abd466f-ae7a-4789-a218-e3b2c168a2b3","system_id":"levelo_inurba_marseille","lat":43.25961,"lon":5.3755,"is_reserved":false,"is_disabled":false,"rental_uris":{"android":"levelo://app?vid=0abd466f-ae7a-4789-a218-e3b2c168a2b3","ios":"levelo://app?vid=0abd466f-ae7a-4789-a218-e3b2c168a2b3"},"vehicle_type_id":"4","last_reported":1686247670,"current_range_meters":9200,"station_id":"","pricing_plan_id":"free"},{"bike_id":"f935d082-aa61-4dd4-9925-52a4cc5809eb","system_id":"levelo_inurba_marseille","lat":43.26063,"lon":5.39394,"is_reserved":false,"is_disabled":false,"rental_uris":{"android":"levelo://app?vid=f935d082-aa61-4dd4-9925-52a4cc5809eb","ios":"levelo://app?vid=f935d082-aa61-4dd4-9925-52a4cc5809eb"},"vehicle_type_id":"4","last_reported":1686247670,"current_range_meters":7600,"station_id":"ce4bhh92rcd13ifvqfj0","pricing_plan_id":"free"},{"bike_id":"1d34637b-a82a-4638-876a-d2fee8476a35","system_id":"levelo_inurba_marseille","lat":43.309076,"lon":5.368465,"is_reserved":false,"is_disabled":false,"rental_uris":{"android":"levelo://app?vid=1d34637b-a82a-4638-876a-d2fee8476a35","ios":"levelo://app?vid=1d34637b-a82a-4638-876a-d2fee8476a35"},"vehicle_type_id":"4","last_reported":1686247670,"current_range_meters":8000,"station_id":"ce4bgn92rcd13ifvqbvg","pricing_plan_id":"free"},{"bike_id":"6873a9c2-6ae4-4381-9d46-a1330a9f5351","system_id":"levelo_inurba_marseille","lat":43.28865,"lon":5.43915,"is_reserved":false,"is_disabled":false,"rental_uris":{"android":"levelo://app?vid=6873a9c2-6ae4-4381-9d46-a1330a9f5351","ios":"levelo://app?vid=6873a9c2-6ae4-4381-9d46-a1330a9f5351"},"vehicle_type_id":"4","last_reported":1686247670,"current_range_meters":26800,"station_id":"","pricing_plan_id":"free"},{"bike_id":"a781a343-b241-4f95-ab3c-8b2df648c6cb","system_id":"levelo_inurba_marseille","lat":43.33312,"lon":5.44167,"is_reserved":false,"is_disabled":false,"rental_uris":{"android":"levelo://app?vid=a781a343-b241-4f95-ab3c-8b2df648c6cb","ios":"levelo://app?vid=a781a343-b241-4f95-ab3c-8b2df648c6cb"},"vehicle_type_id":"4","last_reported":1686247670,"current_range_meters":12800,"station_id":"","pricing_plan_id":"free"},{"bike_id":"2b089e1b-2bba-4369-a90c-191cf3efe7fb","system_id":"levelo_inurba_marseille","lat":43.2557,"lon":5.38227,"is_reserved":false,"is_disabled":false,"rental_uris":{"android":"levelo://app?vid=2b089e1b-2bba-4369-a90c-191cf3efe7fb","ios":"levelo://app?vid=2b089e1b-2bba-4369-a90c-191cf3efe7fb"},"vehicle_type_id":"4","last_reported":1686247670,"current_range_meters":31200,"station_id":"ce4bhih2rcd13ifvqfs0","pricing_plan_id":"free"},{"bike_id":"968fb17d-699e-4d24-b561-2bcd58871598","system_id":"levelo_inurba_marseille","lat":43.254945,"lon":5.376454,"is_reserved":false,"is_disabled":false,"rental_uris":{"android":"levelo://app?vid=968fb17d-699e-4d24-b561-2bcd58871598","ios":"levelo://app?vid=968fb17d-699e-4d24-b561-2bcd58871598"},"vehicle_type_id":"4","last_reported":1686247670,"current_range_meters":16800,"station_id":"ce4bhh12rcd13ifvqff0","pricing_plan_id":"free"},{"bike_id":"b7dead98-b5b3-4730-b707-94ed16255947","system_id":"levelo_inurba_marseille","lat":43.25501,"lon":5.37651,"is_reserved":false,"is_disabled":false,"rental_uris":{"android":"levelo://app?vid=b7dead98-b5b3-4730-b707-94ed16255947","ios":"levelo://app?vid=b7dead98-b5b3-4730-b707-94ed16255947"},"vehicle_type_id":"4","last_reported":1686247670,"current_range_meters":31200,"station_id":"ce4bhh12rcd13ifvqff0","pricing_plan_id":"free"},{"bike_id":"5cb64c5c-b918-4e8e-b60b-814938b25589","system_id":"levelo_inurba_marseille","lat":43.255,"lon":5.37648,"is_reserved":false,"is_disabled":false,"rental_uris":{"android":"levelo://app?vid=5cb64c5c-b918-4e8e-b60b-814938b25589","ios":"levelo://app?vid=5cb64c5c-b918-4e8e-b60b-814938b25589"},"vehicle_type_id":"4","last_reported":1686247670,"current_range_meters":31200,"station_id":"ce4bhh12rcd13ifvqff0","pricing_plan_id":"free"},{"bike_id":"4371cbc7-1729-451e-b85a-377136a3a242","system_id":"levelo_inurba_marseille","lat":43.255,"lon":5.37651,"is_reserved":false,"is_disabled":false,"rental_uris":{"android":"levelo://app?vid=4371cbc7-1729-451e-b85a-377136a3a242","ios":"levelo://app?vid=4371cbc7-1729-451e-b85a-377136a3a242"},"vehicle_type_id":"4","last_reported":1686247670,"current_range_meters":30800,"station_id":"ce4bhh12rcd13ifvqff0","pricing_plan_id":"free"},{"bike_id":"2e2f55bf-b872-4705-8e88-40ee560d5e1a","system_id":"levelo_inurba_marseille","lat":43.254947,"lon":5.376454,"is_reserved":false,"is_disabled":false,"rental_uris":{"android":"levelo://app?vid=2e2f55bf-b872-4705-8e88-40ee560d5e1a","ios":"levelo://app?vid=2e2f55bf-b872-4705-8e88-40ee560d5e1a"},"vehicle_type_id":"4","last_reported":1686247670,"current_range_meters":15200,"station_id":"ce4bhh12rcd13ifvqff0","pricing_plan_id":"free"},{"bike_id":"4f30a335-b665-4c0b-a46b-087d2e54801f","system_id":"levelo_inurba_marseille","lat":43.254945,"lon":5.376454,"is_reserved":false,"is_disabled":false,"rental_uris":{"android":"levelo://app?vid=4f30a335-b665-4c0b-a46b-087d2e54801f","ios":"levelo://app?vid=4f30a335-b665-4c0b-a46b-087d2e54801f"},"vehicle_type_id":"4","last_reported":1686247670,"current_range_meters":31600,"station_id":"ce4bhh12rcd13ifvqff0","pricing_plan_id":"free"},{"bike_id":"c546d676-16bc-48cd-87b7-467fb3aa0306","system_id":"levelo_inurba_marseille","lat":43.254947,"lon":5.376454,"is_reserved":false,"is_disabled":false,"rental_uris":{"android":"levelo://app?vid=c546d676-16bc-48cd-87b7-467fb3aa0306","ios":"levelo://app?vid=c546d676-16bc-48cd-87b7-467fb3aa0306"},"vehicle_type_id":"4","last_reported":1686247670,"current_range_meters":25200,"station_id":"ce4bhh12rcd13ifvqff0","pricing_plan_id":"free"},{"bike_id":"47267d9c-522f-40ae-8b08-2ad28b79225b","system_id":"levelo_inurba_marseille","lat":43.254947,"lon":5.376454,"is_reserved":false,"is_disabled":false,"rental_uris":{"android":"levelo://app?vid=47267d9c-522f-40ae-8b08-2ad28b79225b","ios":"levelo://app?vid=47267d9c-522f-40ae-8b08-2ad28b79225b"},"vehicle_type_id":"4","last_reported":1686247670,"current_range_meters":31600,"station_id":"ce4bhh12rcd13ifvqff0","pricing_plan_id":"free"},{"bike_id":"43b480f7-dcee-4422-8226-071dfdf90bb8","system_id":"levelo_inurba_marseille","lat":43.270721,"lon":5.422764,"is_reserved":false,"is_disabled":false,"rental_uris":{"android":"levelo://app?vid=43b480f7-dcee-4422-8226-071dfdf90bb8","ios":"levelo://app?vid=43b480f7-dcee-4422-8226-071dfdf90bb8"},"vehicle_type_id":"4","last_reported":1686247670,"current_range_meters":27200,"station_id":"ce4bhk92rcd13ifvqgb0","pricing_plan_id":"free"},{"bike_id":"cd96ffe2-0308-45de-b87e-166c53b5ea03","system_id":"levelo_inurba_marseille","lat":43.270721,"lon":5.422764,"is_reserved":false,"is_disabled":false,"rental_uris":{"android":"levelo://app?vid=cd96ffe2-0308-45de-b87e-166c53b5ea03","ios":"levelo://app?vid=cd96ffe2-0308-45de-b87e-166c53b5ea03"},"vehicle_type_id":"4","last_reported":1686247670,"current_range_meters":5200,"station_id":"ce4bhk92rcd13ifvqgb0","pricing_plan_id":"free"},{"bike_id":"2d164d25-32f6-449c-9d8b-52599c239737","system_id":"levelo_inurba_marseille","lat":43.2625,"lon":5.4131,"is_reserved":false,"is_disabled":false,"rental_uris":{"android":"levelo://app?vid=2d164d25-32f6-449c-9d8b-52599c239737","ios":"levelo://app?vid=2d164d25-32f6-449c-9d8b-52599c239737"},"vehicle_type_id":"4","last_reported":1686247670,"current_range_meters":6800,"station_id":"","pricing_plan_id":"free"},{"bike_id":"0185af5b-b7a3-4b7f-be55-246b918f63da","system_id":"levelo_inurba_marseille","lat":43.25934,"lon":5.40909,"is_reserved":false,"is_disabled":false,"rental_uris":{"android":"levelo://app?vid=0185af5b-b7a3-4b7f-be55-246b918f63da","ios":"levelo://app?vid=0185af5b-b7a3-4b7f-be55-246b918f63da"},"vehicle_type_id":"4","last_reported":1686247670,"current_range_meters":2400,"station_id":"","pricing_plan_id":"free"},{"bike_id":"dba426fa-0286-49c8-aabd-18bb8c710250","system_id":"levelo_inurba_marseille","lat":43.25929,"lon":5.40909,"is_reserved":false,"is_disabled":false,"rental_uris":{"android":"levelo://app?vid=dba426fa-0286-49c8-aabd-18bb8c710250","ios":"levelo://app?vid=dba426fa-0286-49c8-aabd-18bb8c710250"},"vehicle_type_id":"4","last_reported":1686247670,"current_range_meters":21600,"station_id":"","pricing_plan_id":"free"},{"bike_id":"b26a4683-37ea-49ae-842f-9357885c004a","system_id":"levelo_inurba_marseille","lat":43.2479,"lon":5.374457,"is_reserved":false,"is_disabled":false,"rental_uris":{"android":"levelo://app?vid=b26a4683-37ea-49ae-842f-9357885c004a","ios":"levelo://app?vid=b26a4683-37ea-49ae-842f-9357885c004a"},"vehicle_type_id":"4","last_reported":1686247670,"current_range_meters":6400,"station_id":"ce4bhgh2rcd13ifvqfb0","pricing_plan_id":"free"},{"bike_id":"fdeac733-eecf-4d90-bf60-62835de6e8ae","system_id":"levelo_inurba_marseille","lat":43.2479,"lon":5.374457,"is_reserved":false,"is_disabled":false,"rental_uris":{"android":"levelo://app?vid=fdeac733-eecf-4d90-bf60-62835de6e8ae","ios":"levelo://app?vid=fdeac733-eecf-4d90-bf60-62835de6e8ae"},"vehicle_type_id":"4","last_reported":1686247670,"current_range_meters":23200,"station_id":"ce4bhgh2rcd13ifvqfb0","pricing_plan_id":"free"},{"bike_id":"810d8921-1c50-4cd7-8a81-b548dea6b4d1","system_id":"levelo_inurba_marseille","lat":43.2479,"lon":5.374457,"is_reserved":false,"is_disabled":false,"rental_uris":{"android":"levelo://app?vid=810d8921-1c50-4cd7-8a81-b548dea6b4d1","ios":"levelo://app?vid=810d8921-1c50-4cd7-8a81-b548dea6b4d1"},"vehicle_type_id":"4","last_reported":1686247670,"current_range_meters":17600,"station_id":"ce4bhgh2rcd13ifvqfb0","pricing_plan_id":"free"},{"bike_id":"96a7e534-bf84-4297-854d-f86ae22941ce","system_id":"levelo_inurba_marseille","lat":43.24803,"lon":5.37449,"is_reserved":false,"is_disabled":false,"rental_uris":{"android":"levelo://app?vid=96a7e534-bf84-4297-854d-f86ae22941ce","ios":"levelo://app?vid=96a7e534-bf84-4297-854d-f86ae22941ce"},"vehicle_type_id":"4","last_reported":1686247670,"current_range_meters":14800,"station_id":"ce4bhgh2rcd13ifvqfb0","pricing_plan_id":"free"},{"bike_id":"5f386e1e-e298-4e0b-b57d-7b4f10332980","system_id":"levelo_inurba_marseille","lat":43.24803,"lon":5.37453,"is_reserved":false,"is_disabled":false,"rental_uris":{"android":"levelo://app?vid=5f386e1e-e298-4e0b-b57d-7b4f10332980","ios":"levelo://app?vid=5f386e1e-e298-4e0b-b57d-7b4f10332980"},"vehicle_type_id":"4","last_reported":1686247670,"current_range_meters":21200,"station_id":"ce4bhgh2rcd13ifvqfb0","pricing_plan_id":"free"},{"bike_id":"c3af1d40-87bf-44b6-a813-ea6fb28fdcd5","system_id":"levelo_inurba_marseille","lat":43.25102,"lon":5.403214,"is_reserved":false,"is_disabled":false,"rental_uris":{"android":"levelo://app?vid=c3af1d40-87bf-44b6-a813-ea6fb28fdcd5","ios":"levelo://app?vid=c3af1d40-87bf-44b6-a813-ea6fb28fdcd5"},"vehicle_type_id":"4","last_reported":1686247670,"current_range_meters":800,"station_id":"ce4bhlh2rcd13ifvqgig","pricing_plan_id":"free"},{"bike_id":"9ea7e9be-7b84-4c83-be26-42f504773cbc","system_id":"levelo_inurba_marseille","lat":43.24693,"lon":5.382096,"is_reserved":false,"is_disabled":false,"rental_uris":{"android":"levelo://app?vid=9ea7e9be-7b84-4c83-be26-42f504773cbc","ios":"levelo://app?vid=9ea7e9be-7b84-4c83-be26-42f504773cbc"},"vehicle_type_id":"4","last_reported":1686247670,"current_range_meters":28400,"station_id":"ce4bhih2rcd13ifvqfr0","pricing_plan_id":"free"},{"bike_id":"b5028533-c26e-401a-b5e8-4cda84b37a86","system_id":"levelo_inurba_marseille","lat":43.246467,"lon":5.388984,"is_reserved":false,"is_disabled":false,"rental_uris":{"android":"levelo://app?vid=b5028533-c26e-401a-b5e8-4cda84b37a86","ios":"levelo://app?vid=b5028533-c26e-401a-b5e8-4cda84b37a86"},"vehicle_type_id":"4","last_reported":1686247670,"current_range_meters":7200,"station_id":"ce4bhg12rcd13ifvqf60","pricing_plan_id":"free"},{"bike_id":"0662262d-c1b5-43ed-a541-62735e4ddd22","system_id":"levelo_inurba_marseille","lat":43.244912,"lon":5.401913,"is_reserved":false,"is_disabled":false,"rental_uris":{"android":"levelo://app?vid=0662262d-c1b5-43ed-a541-62735e4ddd22","ios":"levelo://app?vid=0662262d-c1b5-43ed-a541-62735e4ddd22"},"vehicle_type_id":"4","last_reported":1686247670,"current_range_meters":0,"station_id":"ce4bhs92rcd13ifvqi0g","pricing_plan_id":"free"},{"bike_id":"d3b49f61-f9bd-43f3-a281-0a2fb9b51c91","system_id":"levelo_inurba_marseille","lat":43.23298,"lon":5.35286,"is_reserved":false,"is_disabled":false,"rental_uris":{"android":"levelo://app?vid=d3b49f61-f9bd-43f3-a281-0a2fb9b51c91","ios":"levelo://app?vid=d3b49f61-f9bd-43f3-a281-0a2fb9b51c91"},"vehicle_type_id":"4","last_reported":1686247670,"current_range_meters":22000,"station_id":"","pricing_plan_id":"free"},{"bike_id":"596bf2f0-220c-4ef6-a062-229e445f45f2","system_id":"levelo_inurba_marseille","lat":43.23249,"lon":5.35432,"is_reserved":false,"is_disabled":false,"rental_uris":{"android":"levelo://app?vid=596bf2f0-220c-4ef6-a062-229e445f45f2","ios":"levelo://app?vid=596bf2f0-220c-4ef6-a062-229e445f45f2"},"vehicle_type_id":"4","last_reported":1686247670,"current_range_meters":8400,"station_id":"","pricing_plan_id":"free"},{"bike_id":"d23f387d-8e5a-4e91-8a1d-5a12fb1003ce","system_id":"levelo_inurba_marseille","lat":43.231793,"lon":5.400044,"is_reserved":false,"is_disabled":false,"rental_uris":{"android":"levelo://app?vid=d23f387d-8e5a-4e91-8a1d-5a12fb1003ce","ios":"levelo://app?vid=d23f387d-8e5a-4e91-8a1d-5a12fb1003ce"},"vehicle_type_id":"4","last_reported":1686247670,"current_range_meters":30000,"station_id":"ce4bhn12rcd13ifvqgqg","pricing_plan_id":"free"},{"bike_id":"9d317af0-f5f1-4f41-a6a7-b11c162bfb81","system_id":"levelo_inurba_marseille","lat":43.23192,"lon":5.39978,"is_reserved":false,"is_disabled":false,"rental_uris":{"android":"levelo://app?vid=9d317af0-f5f1-4f41-a6a7-b11c162bfb81","ios":"levelo://app?vid=9d317af0-f5f1-4f41-a6a7-b11c162bfb81"},"vehicle_type_id":"4","last_reported":1686247670,"current_range_meters":30800,"station_id":"ce4bhn12rcd13ifvqgqg","pricing_plan_id":"free"},{"bike_id":"58bdd804-da75-4d54-b358-be1b4b052690","system_id":"levelo_inurba_marseille","lat":43.231794,"lon":5.400052,"is_reserved":false,"is_disabled":false,"rental_uris":{"android":"levelo://app?vid=58bdd804-da75-4d54-b358-be1b4b052690","ios":"levelo://app?vid=58bdd804-da75-4d54-b358-be1b4b052690"},"vehicle_type_id":"4","last_reported":1686247670,"current_range_meters":31600,"station_id":"ce4bhn12rcd13ifvqgqg","pricing_plan_id":"free"}]}}