{"last_updated":1761160123,"ttl":60,"version":"2.2","data":{"bikes":[{"bike_id":"76e793c3-127e-4520-9143-1c1b4960ae4c","system_id":"levelo_inurba_marseille","lat":43.30413,"lon":5.41301,"is_reserved":false,"is_disabled":false,"rental_uris":{"android":"levelo://app?vid=76e793c3-127e-4520-9143-1c1b4960ae4c","ios":"levelo://app?vid=76e793c3-127e-4520-9143-1c1b4960ae4c"},"vehicle_type_id":"4","last_reported":1761160124,"current_range_meters":2800,"station_id":"ce4bhop2rcd13ifvqh8g","pricing_plan_id":"cebpf4jnsgd1na2vs0mg"},{"bike_id":"5f267b6b-24e9-4c39-b97f-d4c673ef258b","system_id":"levelo_inurba_marseille","lat":43.297,"lon":5.36611,"is_reserved":false,"is_disabled":false,"rental_uris":{"android":"levelo://app?vid=5f267b6b-24e9-4c39-b97f-d4c673ef258b","ios":"levelo://app?vid=5f267b6b-24e9-4c39-b97f-d4c673ef258b"},"vehicle_type_id":"4","last_reported":1761160124,"current_range_meters":2800,"station_id":"ce4bgn12rcd13ifvqbt0","pricing_plan_id":"cebpf4jnsgd1na2vs0mg"},{"bike_id":"6d244404-b3ff-4968-82ec-1aae29ce72f9","system_id":"levelo_inurba_marseille","lat":43.30548,"lon":5.3655,"is_reserved":false,"is_disabled":false,"rental_uris":{"android":"levelo://app?vid=6d244404-b3ff-4968-82ec-1aae29ce72f9","ios":"levelo://app?vid=6d244404-b3ff-4968-82ec-1aae29ce72f9"},"vehicle_type_id":"4","last_reported":1761160124,"current_range_meters":3200,"station_id":"ce4bgs12rcd13ifvqcag","pricing_plan_id":"cebpf4jnsgd1na2vs0mg"},{"bike_id":"9efee288-271b-4b37-bc1b-4cd03e568e2b","system_id":"levelo_inurba_marseille","lat":43.30802,"lon":5.38141,"is_reserved":false,"is_disabled":false,"rental_uris":{"android":"levelo://app?vid=9efee288-271b-4b37-bc1b-4cd03e568e2b","ios":"levelo://app?vid=9efee288-271b-4b37-bc1b-4cd03e568e2b"},"vehicle_type_id":"4","last_reported":1761160124,"current_range_meters":3200,"station_id":"ce4bgt12rcd13ifvqce0","pricing_plan_id":"cebpf4jnsgd1na2vs0mg"},{"bike_id":"92f5e2fc-5283-4d49-ab4c-822a23177483","system_id":"levelo_inurba_marseille","lat":43.326605,"lon":5.409735,"is_reserved":false,"is_disabled":false,"rental_uris":{"android":"levelo://app?vid=92f5e2fc-5283-4d49-ab4c-822a23177483","ios":"levelo://app?vid=92f5e2fc-5283-4d49-ab4c-822a23177483"},"vehicle_type_id":"4","last_reported":1761160124,"current_range_meters":3200,"station_id":"ce4bhpp2rcd13ifvqhgg","pricing_plan_id":"cebpf4jnsgd1na2vs0mg"},{"bike_id":"81bc1960-f861-4c2d-bdfd-022bca251831","system_id":"levelo_inurba_marseille","lat":43.29252,"lon":5.37631,"is_reserved":false,"is_disabled":false,"rental_uris":{"android":"levelo://app?vid=81bc1960-f861-4c2d-bdfd-022bca251831","ios":"levelo://app?vid=81bc1960-f861-4c2d-bdfd-022bca251831"},"vehicle_type_id":"4","last_reported":1761160124,"current_range_meters":3200,"station_id":"ce4bgi12rcd13ifvqb80","pricing_plan_id":"cebpf4jnsgd1na2vs0mg"},{"bike_id":"1aec492c-e741-40a6-9501-c5056277a3d1","system_id":"levelo_inurba_marseille","lat":43.29624,"lon":5.38145,"is_reserved":false,"is_disabled":false,"rental_uris":{"android":"levelo://app?vid=1aec492c-e741-40a6-9501-c5056277a3d1","ios":"levelo://app?vid=1aec492c-e741-40a6-9501-c5056277a3d1"},"vehicle_type_id":"4","last_reported":1761160124,"current_range_meters":3200,"station_id":"ce4bgl12rcd13ifvqbo0","pricing_plan_id":"cebpf4jnsgd1na2vs0mg"},{"bike_id":"467d3fd6-809c-40ec-a191-765aec6d4557","system_id":"levelo_inurba_marseille","lat":43.28361,"lon":5.38636,"is_reserved":false,"is_disabled":true,"rental_uris":{"android":"levelo://app?vid=467d3fd6-809c-40ec-a191-765aec6d4557","ios":"levelo://app?vid=467d3fd6-809c-40ec-a191-765aec6d4557"},"vehicle_type_id":"4","last_reported":1761160124,"current_range_meters":3200,"station_id":"ce4bh492rcd13ifvqdvg","pricing_plan_id":"cebpf4jnsgd1na2vs0mg"},{"bike_id":"da4226f6-7e42-4abe-860c-c7ef122197f6","system_id":"levelo_inurba_marseille","lat":43.281086,"lon":5.378335,"is_reserved":false,"is_disabled":false,"rental_uris":{"android":"levelo://app?vid=da4226f6-7e42-4abe-860c-c7ef122197f6","ios":"levelo://app?vid=da4226f6-7e42-4abe-860c-c7ef122197f6"},"vehicle_type_id":"4","last_reported":1761160124,"current_range_meters":3200,"station_id":"ce4bha12rcd13ifvqee0","pricing_plan_id":"cebpf4jnsgd1na2vs0mg"},{"bike_id":"6e2ec9a5-b717-49d6-9bcd-0a8edd5596f4","system_id":"levelo_inurba_marseille","lat":43.29306,"lon":5.37168,"is_reserved":false,"is_disabled":false,"rental_uris":{"android":"levelo://app?vid=6e2ec9a5-b717-49d6-9bcd-0a8edd5596f4","ios":"levelo://app?vid=6e2ec9a5-b717-49d6-9bcd-0a8edd5596f4"},"vehicle_type_id":"4","last_reported":1761160124,"current_range_meters":3600,"station_id":"ce4bgh92rcd13ifvqb40","pricing_plan_id":"cebpf4jnsgd1na2vs0mg"},{"bike_id":"24a041b3-26d8-490c-b65e-688580ff21f1","system_id":"levelo_inurba_marseille","lat":43.28943,"lon":5.36418,"is_reserved":false,"is_disabled":false,"rental_uris":{"android":"levelo://app?vid=24a041b3-26d8-490c-b65e-688580ff21f1","ios":"levelo://app?vid=24a041b3-26d8-490c-b65e-688580ff21f1"},"vehicle_type_id":"4","last_reported":1761160124,"current_range_meters":3600,"station_id":"ce4bhc92rcd13ifvqetg","pricing_plan_id":"cebpf4jnsgd1na2vs0mg"},{"bike_id":"cbc5c21e-235a-4f38-bb3a-735a5b38b3b6","system_id":"levelo_inurba_marseille","lat":43.28931,"lon":5.38383,"is_reserved":false,"is_disabled":false,"rental_uris":{"android":"levelo://app?vid=cbc5c21e-235a-4f38-bb3a-735a5b38b3b6","ios":"levelo://app?vid=cbc5c21e-235a-4f38-bb3a-735a5b38b3b6"},"vehicle_type_id":"4","last_reported":1761160124,"current_range_meters":3600,"station_id":"ce4bh612rcd13ifvqe6g","pricing_plan_id":"cebpf4jnsgd1na2vs0mg"},{"bike_id":"4154d683-e72a-4592-9e60-2a3872848698","system_id":"levelo_inurba_marseille","lat":43.28489,"lon":5.48393,"is_reserved":false,"is_disabled":false,"rental_uris":{"android":"levelo://app?vid=4154d683-e72a-4592-9e60-2a3872848698","ios":"levelo://app?vid=4154d683-e72a-4592-9e60-2a3872848698"},"vehicle_type_id":"4","last_reported":1761160124,"current_range_meters":4000,"station_id":"st_d3jp68qikq2c7381ktn0","pricing_plan_id":"cebpf4jnsgd1na2vs0mg"},{"bike_id":"31a81bfb-6ff8-4357-827f-e2c0af602333","system_id":"levelo_inurba_marseille","lat":43.271265,"lon":5.383486,"is_reserved":false,"is_disabled":false,"rental_uris":{"android":"levelo://app?vid=31a81bfb-6ff8-4357-827f-e2c0af602333","ios":"levelo://app?vid=31a81bfb-6ff8-4357-827f-e2c0af602333"},"vehicle_type_id":"4","last_reported":1761160124,"current_range_meters":4000,"station_id":"ce4bhbp2rcd13ifvqerg","pricing_plan_id":"cebpf4jnsgd1na2vs0mg"},{"bike_id":"1dc4f6a5-ede9-4201-8014-7d7787c338a0","system_id":"levelo_inurba_marseille","lat":43.32113,"lon":5.36764,"is_reserved":false,"is_disabled":false,"rental_uris":{"android":"levelo://app?vid=1dc4f6a5-ede9-4201-8014-7d7787c338a0","ios":"levelo://app?vid=1dc4f6a5-ede9-4201-8014-7d7787c338a0"},"vehicle_type_id":"4","last_reported":1761160124,"current_range_meters":4000,"station_id":"ce4bhrh2rcd13ifvqhug","pricing_plan_id":"cebpf4jnsgd1na2vs0mg"},{"bike_id":"0a9f50a2-809c-4491-a1ca-f3935259d2fa","system_id":"levelo_inurba_marseille","lat":43.29253,"lon":5.40911,"is_reserved":false,"is_disabled":false,"rental_uris":{"android":"levelo://app?vid=0a9f50a2-809c-4491-a1ca-f3935259d2fa","ios":"levelo://app?vid=0a9f50a2-809c-4491-a1ca-f3935259d2fa"},"vehicle_type_id":"4","last_reported":1761160124,"current_range_meters":4000,"station_id":"ce4bh192rcd13ifvqdc0","pricing_plan_id":"cebpf4jnsgd1na2vs0mg"},{"bike_id":"a870d8c4-d388-4bd8-a292-a2b1665e7e0e","system_id":"levelo_inurba_marseille","lat":43.304308,"lon":5.405861,"is_reserved":false,"is_disabled":false,"rental_uris":{"android":"levelo://app?vid=a870d8c4-d388-4bd8-a292-a2b1665e7e0e","ios":"levelo://app?vid=a870d8c4-d388-4bd8-a292-a2b1665e7e0e"},"vehicle_type_id":"4","last_reported":1761160124,"current_range_meters":4000,"station_id":"","pricing_plan_id":"cebpf4jnsgd1na2vs0mg"},{"bike_id":"df86c901-9e9d-4530-9329-5ddb6df7c104","system_id":"levelo_inurba_marseille","lat":43.28938,"lon":5.39617,"is_reserved":false,"is_disabled":false,"rental_uris":{"android":"levelo://app?vid=df86c901-9e9d-4530-9329-5ddb6df7c104","ios":"levelo://app?vid=df86c901-9e9d-4530-9329-5ddb6df7c104"},"vehicle_type_id":"4","last_reported":1761160124,"current_range_meters":4000,"station_id":"ce4bh3h2rcd13ifvqdn0","pricing_plan_id":"cebpf4jnsgd1na2vs0mg"},{"bike_id":"de6e7184-a66e-4a84-acfd-25f4d7820316","system_id":"levelo_inurba_marseille","lat":43.21209,"lon":5.35067,"is_reserved":false,"is_disabled":false,"rental_uris":{"android":"levelo://app?vid=de6e7184-a66e-4a84-acfd-25f4d7820316","ios":"levelo://app?vid=de6e7184-a66e-4a84-acfd-25f4d7820316"},"vehicle_type_id":"4","last_reported":1761160124,"current_range_meters":4000,"station_id":"","pricing_plan_id":"cebpf4jnsgd1na2vs0mg"},{"bike_id":"858c35da-3901-4ec9-a5d9-bdbfc34d0b2e","system_id":"levelo_inurba_marseille","lat":43.31173,"lon":5.38719,"is_reserved":false,"is_disabled":false,"rental_uris":{"android":"levelo://app?vid=858c35da-3901-4ec9-a5d9-bdbfc34d0b2e","ios":"levelo://app?vid=858c35da-3901-4ec9-a5d9-bdbfc34d0b2e"},"vehicle_type_id":"4","last_reported":1761160124,"current_range_meters":4000,"station_id":"ce4bgv12rcd13ifvqcp0","pricing_plan_id":"cebpf4jnsgd1na2vs0mg"},{"bike_id":"6ff9e597-53e6-4285-ad9c-44300b714333","system_id":"levelo_inurba_marseille","lat":43.29534,"lon":5.385426,"is_reserved":false,"is_disabled":false,"rental_uris":{"android":"levelo://app?vid=6ff9e597-53e6-4285-ad9c-44300b714333","ios":"levelo://app?vid=6ff9e597-53e6-4285-ad9c-44300b714333"},"vehicle_type_id":"4","last_reported":1761160124,"current_range_meters":4000,"station_id":"ce4bgih2rcd13ifvqba0","pricing_plan_id":"cebpf4jnsgd1na2vs0mg"},{"bike_id":"e7cb61d9-84d9-41c0-8427-00fc6a9e436b","system_id":"levelo_inurba_marseille","lat":43.3115,"lon":5.37676,"is_reserved":false,"is_disabled":false,"rental_uris":{"android":"levelo://app?vid=e7cb61d9-84d9-41c0-8427-00fc6a9e436b","ios":"levelo://app?vid=e7cb61d9-84d9-41c0-8427-00fc6a9e436b"},"vehicle_type_id":"4","last_reported":1761160124,"current_range_meters":4000,"station_id":"","pricing_plan_id":"cebpf4jnsgd1na2vs0mg"},{"bike_id":"0f60a50b-7b5c-441e-9d5e-38985c328e33","system_id":"levelo_inurba_marseille","lat":43.289321,"lon":5.366434,"is_reserved":false,"is_disabled":false,"rental_uris":{"android":"levelo://app?vid=0f60a50b-7b5c-441e-9d5e-38985c328e33","ios":"levelo://app?vid=0f60a50b-7b5c-441e-9d5e-38985c328e33"},"vehicle_type_id":"4","last_reported":1761160124,"current_range_meters":4400,"station_id":"ce4bhap2rcd13ifvqek0","pricing_plan_id":"cebpf4jnsgd1na2vs0mg"},{"bike_id":"f6e14657-1264-4d19-9215-11714c5bf037","system_id":"levelo_inurba_marseille","lat":43.29005,"lon":5.3561,"is_reserved":false,"is_disabled":false,"rental_uris":{"android":"levelo://app?vid=f6e14657-1264-4d19-9215-11714c5bf037","ios":"levelo://app?vid=f6e14657-1264-4d19-9215-11714c5bf037"},"vehicle_type_id":"4","last_reported":1761160124,"current_range_meters":4400,"station_id":"ce4bhb92rcd13ifvqen0","pricing_plan_id":"cebpf4jnsgd1na2vs0mg"},{"bike_id":"7ab93674-3618-4d2a-bad0-80df678a9a9a","system_id":"levelo_inurba_marseille","lat":43.26065,"lon":5.39397,"is_reserved":false,"is_disabled":false,"rental_uris":{"android":"levelo://app?vid=7ab93674-3618-4d2a-bad0-80df678a9a9a","ios":"levelo://app?vid=7ab93674-3618-4d2a-bad0-80df678a9a9a"},"vehicle_type_id":"4","last_reported":1761160124,"current_range_meters":4400,"station_id":"ce4bhh92rcd13ifvqfj0","pricing_plan_id":"cebpf4jnsgd1na2vs0mg"},{"bike_id":"eea3c3c3-734f-4fd3-8061-ed84cfe47b38","system_id":"levelo_inurba_marseille","lat":43.32604,"lon":5.39212,"is_reserved":false,"is_disabled":false,"rental_uris":{"android":"levelo://app?vid=eea3c3c3-734f-4fd3-8061-ed84cfe47b38","ios":"levelo://app?vid=eea3c3c3-734f-4fd3-8061-ed84cfe47b38"},"vehicle_type_id":"4","last_reported":1761160124,"current_range_meters":4800,"station_id":"","pricing_plan_id":"cebpf4jnsgd1na2vs0mg"},{"bike_id":"dd03304e-14f0-450b-971e-cc3ce68c1a6a","system_id":"levelo_inurba_marseille","lat":43.29516,"lon":5.3903,"is_reserved":false,"is_disabled":false,"rental_uris":{"android":"levelo://app?vid=dd03304e-14f0-450b-971e-cc3ce68c1a6a","ios":"levelo://app?vid=dd03304e-14f0-450b-971e-cc3ce68c1a6a"},"vehicle_type_id":"4","last_reported":1761160124,"current_range_meters":4800,"station_id":"ce4bh3p2rcd13ifvqdp0","pricing_plan_id":"cebpf4jnsgd1na2vs0mg"},{"bike_id":"0427ba7c-170d-4aae-83a5-acadf01b6fc9","system_id":"levelo_inurba_marseille","lat":43.27619,"lon":5.36103,"is_reserved":false,"is_disabled":false,"rental_uris":{"android":"levelo://app?vid=0427ba7c-170d-4aae-83a5-acadf01b6fc9","ios":"levelo://app?vid=0427ba7c-170d-4aae-83a5-acadf01b6fc9"},"vehicle_type_id":"4","last_reported":1761160124,"current_range_meters":4800,"station_id":"ce4bgj92rcd13ifvqbe0","pricing_plan_id":"cebpf4jnsgd1na2vs0mg"},{"bike_id":"805cc412-434c-4829-8363-1954f7f430fd","system_id":"levelo_inurba_marseille","lat":43.29812,"lon":5.38416,"is_reserved":false,"is_disabled":false,"rental_uris":{"android":"levelo://app?vid=805cc412-434c-4829-8363-1954f7f430fd","ios":"levelo://app?vid=805cc412-434c-4829-8363-1954f7f430fd"},"vehicle_type_id":"4","last_reported":1761160124,"current_range_meters":4800,"station_id":"","pricing_plan_id":"cebpf4jnsgd1na2vs0mg"},{"bike_id":"c7339e95-e208-4515-abfd-17eed9450071","system_id":"levelo_inurba_marseille","lat":43.29269,"lon":5.40906,"is_reserved":false,"is_disabled":false,"rental_uris":{"android":"levelo://app?vid=c7339e95-e208-4515-abfd-17eed9450071","ios":"levelo://app?vid=c7339e95-e208-4515-abfd-17eed9450071"},"vehicle_type_id":"4","last_reported":1761160124,"current_range_meters":5600,"station_id":"ce4bh192rcd13ifvqdc0","pricing_plan_id":"cebpf4jnsgd1na2vs0mg"},{"bike_id":"c16293e2-9f98-4aa3-a6fe-c4cc3cc8c798","system_id":"levelo_inurba_marseille","lat":43.28366,"lon":5.38619,"is_reserved":false,"is_disabled":false,"rental_uris":{"android":"levelo://app?vid=c16293e2-9f98-4aa3-a6fe-c4cc3cc8c798","ios":"levelo://app?vid=c16293e2-9f98-4aa3-a6fe-c4cc3cc8c798"},"vehicle_type_id":"4","last_reported":1761160124,"current_range_meters":5600,"station_id":"ce4bh492rcd13ifvqdvg","pricing_plan_id":"cebpf4jnsgd1na2vs0mg"},{"bike_id":"bb88db63-3b9f-4e95-b8b6-279c86b93357","system_id":"levelo_inurba_marseille","lat":43.299917,"lon":5.396975,"is_reserved":false,"is_disabled":false,"rental_uris":{"android":"levelo://app?vid=bb88db63-3b9f-4e95-b8b6-279c86b93357","ios":"levelo://app?vid=bb88db63-3b9f-4e95-b8b6-279c86b93357"},"vehicle_type_id":"4","last_reported":1761160124,"current_range_meters":6000,"station_id":"chh1huq6cuj3fo74tm60","pricing_plan_id":"cebpf4jnsgd1na2vs0mg"},{"bike_id":"762277d1-3622-49de-bf16-1e39ecbe44e1","system_id":"levelo_inurba_marseille","lat":43.26501,"lon":5.39537,"is_reserved":false,"is_disabled":false,"rental_uris":{"android":"levelo://app?vid=762277d1-3622-49de-bf16-1e39ecbe44e1","ios":"levelo://app?vid=762277d1-3622-49de-bf16-1e39ecbe44e1"},"vehicle_type_id":"4","last_reported":1761160124,"current_range_meters":6000,"station_id":"ce4bhi12rcd13ifvqfq0","pricing_plan_id":"cebpf4jnsgd1na2vs0mg"},{"bike_id":"a4773c9d-612b-4e1d-8341-cc3162a2a07f","system_id":"levelo_inurba_marseille","lat":43.292533,"lon":5.384383,"is_reserved":false,"is_disabled":false,"rental_uris":{"android":"levelo://app?vid=a4773c9d-612b-4e1d-8341-cc3162a2a07f","ios":"levelo://app?vid=a4773c9d-612b-4e1d-8341-cc3162a2a07f"},"vehicle_type_id":"4","last_reported":1761160124,"current_range_meters":6000,"station_id":"ce4bh3p2rcd13ifvqdq0","pricing_plan_id":"cebpf4jnsgd1na2vs0mg"},{"bike_id":"66bec76d-d7e9-4a1e-a715-39e56334bf96","system_id":"levelo_inurba_marseille","lat":43.28316,"lon":5.39648,"is_reserved":false,"is_disabled":false,"rental_uris":{"android":"levelo://app?vid=66bec76d-d7e9-4a1e-a715-39e56334bf96","ios":"levelo://app?vid=66bec76d-d7e9-4a1e-a715-39e56334bf96"},"vehicle_type_id":"4","last_reported":1761160124,"current_range_meters":6400,"station_id":"","pricing_plan_id":"cebpf4jnsgd1na2vs0mg"},{"bike_id":"3d068a7d-8c2c-4f97-8d7d-54140fa95800","system_id":"levelo_inurba_marseille","lat":43.273583,"lon":5.39879,"is_reserved":false,"is_disabled":false,"rental_uris":{"android":"levelo://app?vid=3d068a7d-8c2c-4f97-8d7d-54140fa95800","ios":"levelo://app?vid=3d068a7d-8c2c-4f97-8d7d-54140fa95800"},"vehicle_type_id":"4","last_reported":1761160124,"current_range_meters":6400,"station_id":"","pricing_plan_id":"cebpf4jnsgd1na2vs0mg"},{"bike_id":"9a462c44-eead-49fd-8132-c8741863d816","system_id":"levelo_inurba_marseille","lat":43.309351,"lon":5.401382,"is_reserved":false,"is_disabled":false,"rental_uris":{"android":"levelo://app?vid=9a462c44-eead-49fd-8132-c8741863d816","ios":"levelo://app?vid=9a462c44-eead-49fd-8132-c8741863d816"},"vehicle_type_id":"4","last_reported":1761160124,"current_range_meters":6800,"station_id":"ce4bgvp2rcd13ifvqct0","pricing_plan_id":"cebpf4jnsgd1na2vs0mg"},{"bike_id":"158efa80-12ab-4b7d-8a51-8d3a468fcc07","system_id":"levelo_inurba_marseille","lat":43.21205,"lon":5.35072,"is_reserved":false,"is_disabled":true,"rental_uris":{"android":"levelo://app?vid=158efa80-12ab-4b7d-8a51-8d3a468fcc07","ios":"levelo://app?vid=158efa80-12ab-4b7d-8a51-8d3a468fcc07"},"vehicle_type_id":"4","last_reported":1761160124,"current_range_meters":6800,"station_id":"","pricing_plan_id":"cebpf4jnsgd1na2vs0mg"},{"bike_id":"da3c5d5d-639d-4a11-88e1-f7b9c2ad220a","system_id":"levelo_inurba_marseille","lat":43.31713,"lon":5.37755,"is_reserved":false,"is_disabled":true,"rental_uris":{"android":"levelo://app?vid=da3c5d5d-639d-4a11-88e1-f7b9c2ad220a","ios":"levelo://app?vid=da3c5d5d-639d-4a11-88e1-f7b9c2ad220a"},"vehicle_type_id":"4","last_reported":1761160124,"current_range_meters":6800,"station_id":"ce4bgth2rcd13ifvqch0","pricing_plan_id":"cebpf4jnsgd1na2vs0mg"},{"bike_id":"273a1c2e-9bfc-49e4-8e45-a9b61a71eeae","system_id":"levelo_inurba_marseille","lat":43.23175,"lon":5.3999,"is_reserved":false,"is_disabled":false,"rental_uris":{"android":"levelo://app?vid=273a1c2e-9bfc-49e4-8e45-a9b61a71eeae","ios":"levelo://app?vid=273a1c2e-9bfc-49e4-8e45-a9b61a71eeae"},"vehicle_type_id":"4","last_reported":1761160124,"current_range_meters":6800,"station_id":"ce4bhn12rcd13ifvqgqg","pricing_plan_id":"cebpf4jnsgd1na2vs0mg"},{"bike_id":"9fcbb531-6972-4715-ad82-a17e33c96cc8","system_id":"levelo_inurba_marseille","lat":43.29884,"lon":5.38915,"is_reserved":false,"is_disabled":false,"rental_uris":{"android":"levelo://app?vid=9fcbb531-6972-4715-ad82-a17e33c96cc8","ios":"levelo://app?vid=9fcbb531-6972-4715-ad82-a17e33c96cc8"},"vehicle_type_id":"4","last_reported":1761160124,"current_range_meters":7200,"station_id":"ce4bh392rcd13ifvqdl0","pricing_plan_id":"cebpf4jnsgd1na2vs0mg"},{"bike_id":"b7e41c34-cad5-468c-aadc-3ef8a1845b5a","system_id":"levelo_inurba_marseille","lat":43.281619,"lon":5.361178,"is_reserved":false,"is_disabled":false,"rental_uris":{"android":"levelo://app?vid=b7e41c34-cad5-468c-aadc-3ef8a1845b5a","ios":"levelo://app?vid=b7e41c34-cad5-468c-aadc-3ef8a1845b5a"},"vehicle_type_id":"4","last_reported":1761160124,"current_range_meters":7200,"station_id":"","pricing_plan_id":"cebpf4jnsgd1na2vs0mg"},{"bike_id":"97585d63-cae0-46a3-8fec-9651d52b3156","system_id":"levelo_inurba_marseille","lat":43.27889,"lon":5.37967,"is_reserved":false,"is_disabled":true,"rental_uris":{"android":"levelo://app?vid=97585d63-cae0-46a3-8fec-9651d52b3156","ios":"levelo://app?vid=97585d63-cae0-46a3-8fec-9651d52b3156"},"vehicle_type_id":"4","last_reported":1761160124,"current_range_meters":7200,"station_id":"ce4bhf92rcd13ifvqf50","pricing_plan_id":"cebpf4jnsgd1na2vs0mg"},{"bike_id":"a9d1ae35-8a02-4264-ba98-a9aaa70eed5a","system_id":"levelo_inurba_marseille","lat":43.246365,"lon":5.39428,"is_reserved":false,"is_disabled":false,"rental_uris":{"android":"levelo://app?vid=a9d1ae35-8a02-4264-ba98-a9aaa70eed5a","ios":"levelo://app?vid=a9d1ae35-8a02-4264-ba98-a9aaa70eed5a"},"vehicle_type_id":"4","last_reported":1761160124,"current_range_meters":7200,"station_id":"ce4bhlp2rcd13ifvqgjg","pricing_plan_id":"cebpf4jnsgd1na2vs0mg"},{"bike_id":"c2b037ec-d0c7-4ed7-bb44-72c863d8d786","system_id":"levelo_inurba_marseille","lat":43.29601,"lon":5.38101,"is_reserved":false,"is_disabled":false,"rental_uris":{"android":"levelo://app?vid=c2b037ec-d0c7-4ed7-bb44-72c863d8d786","ios":"levelo://app?vid=c2b037ec-d0c7-4ed7-bb44-72c863d8d786"},"vehicle_type_id":"4","last_reported":1761160124,"current_range_meters":7200,"station_id":"ce4bgl12rcd13ifvqbo0","pricing_plan_id":"cebpf4jnsgd1na2vs0mg"},{"bike_id":"3201e625-69d5-420e-838c-f4c3f44666ef","system_id":"levelo_inurba_marseille","lat":43.33775,"lon":5.37438,"is_reserved":false,"is_disabled":false,"rental_uris":{"android":"levelo://app?vid=3201e625-69d5-420e-838c-f4c3f44666ef","ios":"levelo://app?vid=3201e625-69d5-420e-838c-f4c3f44666ef"},"vehicle_type_id":"4","last_reported":1761160124,"current_range_meters":7200,"station_id":"","pricing_plan_id":"cebpf4jnsgd1na2vs0mg"},{"bike_id":"a1f7606d-9c8f-4ec2-a600-d01a90f1d133","system_id":"levelo_inurba_marseille","lat":43.29263,"lon":5.37628,"is_reserved":false,"is_disabled":false,"rental_uris":{"android":"levelo://app?vid=a1f7606d-9c8f-4ec2-a600-d01a90f1d133","ios":"levelo://app?vid=a1f7606d-9c8f-4ec2-a600-d01a90f1d133"},"vehicle_type_id":"4","last_reported":1761160124,"current_range_meters":7200,"station_id":"ce4bgi12rcd13ifvqb80","pricing_plan_id":"cebpf4jnsgd1na2vs0mg"},{"bike_id":"b38a8f34-cd89-4e18-841e-d9ac2da5a01e","system_id":"levelo_inurba_marseille","lat":43.297298,"lon":5.393481,"is_reserved":false,"is_disabled":false,"rental_uris":{"android":"levelo://app?vid=b38a8f34-cd89-4e18-841e-d9ac2da5a01e","ios":"levelo://app?vid=b38a8f34-cd89-4e18-841e-d9ac2da5a01e"},"vehicle_type_id":"4","last_reported":1761160124,"current_range_meters":7200,"station_id":"chh1huq6cuj3fo74tm60","pricing_plan_id":"cebpf4jnsgd1na2vs0mg"},{"bike_id":"9648558a-6bc8-443d-a1a3-78f4d1df24ab","system_id":"levelo_inurba_marseille","lat":43.295228,"lon":5.385432,"is_reserved":false,"is_disabled":false,"rental_uris":{"android":"levelo://app?vid=9648558a-6bc8-443d-a1a3-78f4d1df24ab","ios":"levelo://app?vid=9648558a-6bc8-443d-a1a3-78f4d1df24ab"},"vehicle_type_id":"4","last_reported":1761160124,"current_range_meters":8000,"station_id":"","pricing_plan_id":"cebpf4jnsgd1na2vs0mg"},{"bike_id":"8f14e9b5-7d7a-45b0-a039-c05ff09020c7","system_id":"levelo_inurba_marseille","lat":43.29257,"lon":5.40906,"is_reserved":false,"is_disabled":false,"rental_uris":{"android":"levelo://app?vid=8f14e9b5-7d7a-45b0-a039-c05ff09020c7","ios":"levelo://app?vid=8f14e9b5-7d7a-45b0-a039-c05ff09020c7"},"vehicle_type_id":"4","last_reported":1761160124,"current_range_meters":8000,"station_id":"ce4bh192rcd13ifvqdc0","pricing_plan_id":"cebpf4jnsgd1na2vs0mg"},{"bike_id":"81a8a3d8-0895-48a3-9e75-16dc11c53765","system_id":"levelo_inurba_marseille","lat":43.31989,"lon":5.38163,"is_reserved":false,"is_disabled":false,"rental_uris":{"android":"levelo://app?vid=81a8a3d8-0895-48a3-9e75-16dc11c53765","ios":"levelo://app?vid=81a8a3d8-0895-48a3-9e75-16dc11c53765"},"vehicle_type_id":"4","last_reported":1761160124,"current_range_meters":8000,"station_id":"ce4bhr12rcd13ifvqhpg","pricing_plan_id":"cebpf4jnsgd1na2vs0mg"},{"bike_id":"a7b06526-aea6-4369-9939-dc263cf58f1c","system_id":"levelo_inurba_marseille","lat":43.27828,"lon":5.39207,"is_reserved":false,"is_disabled":true,"rental_uris":{"android":"levelo://app?vid=a7b06526-aea6-4369-9939-dc263cf58f1c","ios":"levelo://app?vid=a7b06526-aea6-4369-9939-dc263cf58f1c"},"vehicle_type_id":"4","last_reported":1761160124,"current_range_meters":8000,"station_id":"ce4bhjp2rcd13ifvqga0","pricing_plan_id":"cebpf4jnsgd1na2vs0mg"},{"bike_id":"b8457e49-45d1-4539-8d31-1eb0283df508","system_id":"levelo_inurba_marseille","lat":43.33165,"lon":5.35492,"is_reserved":false,"is_disabled":false,"rental_uris":{"android":"levelo://app?vid=b8457e49-45d1-4539-8d31-1eb0283df508","ios":"levelo://app?vid=b8457e49-45d1-4539-8d31-1eb0283df508"},"vehicle_type_id":"4","last_reported":1761160124,"current_range_meters":8000,"station_id":"","pricing_plan_id":"cebpf4jnsgd1na2vs0mg"},{"bike_id":"7ffbdf46-1d13-4e32-ad8f-b99766448a99","system_id":"levelo_inurba_marseille","lat":43.31558,"lon":5.38872,"is_reserved":false,"is_disabled":false,"rental_uris":{"android":"levelo://app?vid=7ffbdf46-1d13-4e32-ad8f-b99766448a99","ios":"levelo://app?vid=7ffbdf46-1d13-4e32-ad8f-b99766448a99"},"vehicle_type_id":"4","last_reported":1761160124,"current_range_meters":8000,"station_id":"","pricing_plan_id":"cebpf4jnsgd1na2vs0mg"},{"bike_id":"c2569d04-7748-428a-a404-a17efe8804c3","system_id":"levelo_inurba_marseille","lat":43.30119,"lon":5.43113,"is_reserved":false,"is_disabled":false,"rental_uris":{"android":"levelo://app?vid=c2569d04-7748-428a-a404-a17efe8804c3","ios":"levelo://app?vid=c2569d04-7748-428a-a404-a17efe8804c3"},"vehicle_type_id":"4","last_reported":1761160124,"current_range_meters":8000,"station_id":"st_d3js3co5814s73ftftug","pricing_plan_id":"cebpf4jnsgd1na2vs0mg"},{"bike_id":"73845d70-817e-466d-a91f-551a1bf5e243","system_id":"levelo_inurba_marseille","lat":43.30956,"lon":5.39059,"is_reserved":false,"is_disabled":true,"rental_uris":{"android":"levelo://app?vid=73845d70-817e-466d-a91f-551a1bf5e243","ios":"levelo://app?vid=73845d70-817e-466d-a91f-551a1bf5e243"},"vehicle_type_id":"4","last_reported":1761160124,"current_range_meters":8400,"station_id":"ce4bgup2rcd13ifvqco0","pricing_plan_id":"cebpf4jnsgd1na2vs0mg"},{"bike_id":"76d6d785-2795-4deb-a05c-2a8c101baca6","system_id":"levelo_inurba_marseille","lat":43.28921,"lon":5.364,"is_reserved":false,"is_disabled":false,"rental_uris":{"android":"levelo://app?vid=76d6d785-2795-4deb-a05c-2a8c101baca6","ios":"levelo://app?vid=76d6d785-2795-4deb-a05c-2a8c101baca6"},"vehicle_type_id":"4","last_reported":1761160124,"current_range_meters":8400,"station_id":"ce4bhc92rcd13ifvqetg","pricing_plan_id":"cebpf4jnsgd1na2vs0mg"},{"bike_id":"a2a07d11-85e0-4bc5-8b90-a5aeb26e29cd","system_id":"levelo_inurba_marseille","lat":43.305178,"lon":5.384443,"is_reserved":false,"is_disabled":false,"rental_uris":{"android":"levelo://app?vid=a2a07d11-85e0-4bc5-8b90-a5aeb26e29cd","ios":"levelo://app?vid=a2a07d11-85e0-4bc5-8b90-a5aeb26e29cd"},"vehicle_type_id":"4","last_reported":1761160124,"current_range_meters":8400,"station_id":"ce4bgg92rcd13ifvqb30","pricing_plan_id":"cebpf4jnsgd1na2vs0mg"},{"bike_id":"4fcd0219-3ce1-4706-be96-df85f6ba9f3f","system_id":"levelo_inurba_marseille","lat":43.27372,"lon":5.36254,"is_reserved":false,"is_disabled":false,"rental_uris":{"android":"levelo://app?vid=4fcd0219-3ce1-4706-be96-df85f6ba9f3f","ios":"levelo://app?vid=4fcd0219-3ce1-4706-be96-df85f6ba9f3f"},"vehicle_type_id":"4","last_reported":1761160124,"current_range_meters":8400,"station_id":"ce4bhbh2rcd13ifvqeo0","pricing_plan_id":"cebpf4jnsgd1na2vs0mg"},{"bike_id":"bf2f684f-9b00-43ff-b264-a71ad076337b","system_id":"levelo_inurba_marseille","lat":43.29056,"lon":5.38639,"is_reserved":false,"is_disabled":false,"rental_uris":{"android":"levelo://app?vid=bf2f684f-9b00-43ff-b264-a71ad076337b","ios":"levelo://app?vid=bf2f684f-9b00-43ff-b264-a71ad076337b"},"vehicle_type_id":"4","last_reported":1761160124,"current_range_meters":8400,"station_id":"ce4bh4p2rcd13ifvqe0g","pricing_plan_id":"cebpf4jnsgd1na2vs0mg"},{"bike_id":"cc23aabd-cbb4-4387-b22a-08f13b18079f","system_id":"levelo_inurba_marseille","lat":43.299304,"lon":5.365554,"is_reserved":false,"is_disabled":false,"rental_uris":{"android":"levelo://app?vid=cc23aabd-cbb4-4387-b22a-08f13b18079f","ios":"levelo://app?vid=cc23aabd-cbb4-4387-b22a-08f13b18079f"},"vehicle_type_id":"4","last_reported":1761160124,"current_range_meters":8400,"station_id":"ce4bhbh2rcd13ifvqeqg","pricing_plan_id":"cebpf4jnsgd1na2vs0mg"},{"bike_id":"886a0e31-b360-434a-8df1-aed271a2cc41","system_id":"levelo_inurba_marseille","lat":43.323608,"lon":5.367532,"is_reserved":false,"is_disabled":false,"rental_uris":{"android":"levelo://app?vid=886a0e31-b360-434a-8df1-aed271a2cc41","ios":"levelo://app?vid=886a0e31-b360-434a-8df1-aed271a2cc41"},"vehicle_type_id":"4","last_reported":1761160124,"current_range_meters":8400,"station_id":"ce4bhsh2rcd13ifvqi2g","pricing_plan_id":"cebpf4jnsgd1na2vs0mg"},{"bike_id":"029aa761-aaf6-4372-8888-0a5170a0d41f","system_id":"levelo_inurba_marseille","lat":43.2953,"lon":5.38545,"is_reserved":false,"is_disabled":false,"rental_uris":{"android":"levelo://app?vid=029aa761-aaf6-4372-8888-0a5170a0d41f","ios":"levelo://app?vid=029aa761-aaf6-4372-8888-0a5170a0d41f"},"vehicle_type_id":"4","last_reported":1761160124,"current_range_meters":8400,"station_id":"ce4bgih2rcd13ifvqba0","pricing_plan_id":"cebpf4jnsgd1na2vs0mg"},{"bike_id":"70309898-3d3c-4830-816c-e946022e05f7","system_id":"levelo_inurba_marseille","lat":43.30787,"lon":5.37639,"is_reserved":false,"is_disabled":false,"rental_uris":{"android":"levelo://app?vid=70309898-3d3c-4830-816c-e946022e05f7","ios":"levelo://app?vid=70309898-3d3c-4830-816c-e946022e05f7"},"vehicle_type_id":"4","last_reported":1761160124,"current_range_meters":8400,"station_id":"ce4bgv92rcd13ifvqcq0","pricing_plan_id":"cebpf4jnsgd1na2vs0mg"},{"bike_id":"2642dddf-6557-4940-8705-d31226f74eef","system_id":"levelo_inurba_marseille","lat":43.31973,"lon":5.38118,"is_reserved":false,"is_disabled":false,"rental_uris":{"android":"levelo://app?vid=2642dddf-6557-4940-8705-d31226f74eef","ios":"levelo://app?vid=2642dddf-6557-4940-8705-d31226f74eef"},"vehicle_type_id":"4","last_reported":1761160124,"current_range_meters":8400,"station_id":"ce4bhr12rcd13ifvqhpg","pricing_plan_id":"cebpf4jnsgd1na2vs0mg"},{"bike_id":"ac1df8dc-41e5-4954-977f-6f21ed12d11a","system_id":"levelo_inurba_marseille","lat":43.21762,"lon":5.34597,"is_reserved":false,"is_disabled":false,"rental_uris":{"android":"levelo://app?vid=ac1df8dc-41e5-4954-977f-6f21ed12d11a","ios":"levelo://app?vid=ac1df8dc-41e5-4954-977f-6f21ed12d11a"},"vehicle_type_id":"4","last_reported":1761160124,"current_range_meters":8800,"station_id":"st_cvj6r9ubvosntc0bgbag","pricing_plan_id":"cebpf4jnsgd1na2vs0mg"},{"bike_id":"d38bb17a-4ac6-4da6-829b-fc2ffe260364","system_id":"levelo_inurba_marseille","lat":43.3189,"lon":5.40742,"is_reserved":false,"is_disabled":true,"rental_uris":{"android":"levelo://app?vid=d38bb17a-4ac6-4da6-829b-fc2ffe260364","ios":"levelo://app?vid=d38bb17a-4ac6-4da6-829b-fc2ffe260364"},"vehicle_type_id":"4","last_reported":1761160124,"current_range_meters":8800,"station_id":"ce4bhq12rcd13ifvqhig","pricing_plan_id":"cebpf4jnsgd1na2vs0mg"},{"bike_id":"6d2e1d41-4579-4779-926b-488af53f67eb","system_id":"levelo_inurba_marseille","lat":43.309083,"lon":5.36835,"is_reserved":false,"is_disabled":false,"rental_uris":{"android":"levelo://app?vid=6d2e1d41-4579-4779-926b-488af53f67eb","ios":"levelo://app?vid=6d2e1d41-4579-4779-926b-488af53f67eb"},"vehicle_type_id":"4","last_reported":1761160124,"current_range_meters":8800,"station_id":"ce4bgn92rcd13ifvqbvg","pricing_plan_id":"cebpf4jnsgd1na2vs0mg"},{"bike_id":"1cc485fc-746f-4fa6-849c-73c97e21029d","system_id":"levelo_inurba_marseille","lat":43.28921,"lon":5.3638,"is_reserved":false,"is_disabled":false,"rental_uris":{"android":"levelo://app?vid=1cc485fc-746f-4fa6-849c-73c97e21029d","ios":"levelo://app?vid=1cc485fc-746f-4fa6-849c-73c97e21029d"},"vehicle_type_id":"4","last_reported":1761160124,"current_range_meters":8800,"station_id":"ce4bhc92rcd13ifvqetg","pricing_plan_id":"cebpf4jnsgd1na2vs0mg"},{"bike_id":"5c1fb861-83af-4d1f-a01f-57045b933e2e","system_id":"levelo_inurba_marseille","lat":43.32378,"lon":5.38876,"is_reserved":false,"is_disabled":false,"rental_uris":{"android":"levelo://app?vid=5c1fb861-83af-4d1f-a01f-57045b933e2e","ios":"levelo://app?vid=5c1fb861-83af-4d1f-a01f-57045b933e2e"},"vehicle_type_id":"4","last_reported":1761160124,"current_range_meters":8800,"station_id":"ce4bhqp2rcd13ifvqhog","pricing_plan_id":"cebpf4jnsgd1na2vs0mg"},{"bike_id":"fc1fd361-9e5d-4213-96ae-96d5f7924b9f","system_id":"levelo_inurba_marseille","lat":43.28933,"lon":5.36638,"is_reserved":false,"is_disabled":false,"rental_uris":{"android":"levelo://app?vid=fc1fd361-9e5d-4213-96ae-96d5f7924b9f","ios":"levelo://app?vid=fc1fd361-9e5d-4213-96ae-96d5f7924b9f"},"vehicle_type_id":"4","last_reported":1761160124,"current_range_meters":8800,"station_id":"ce4bhap2rcd13ifvqek0","pricing_plan_id":"cebpf4jnsgd1na2vs0mg"},{"bike_id":"38663f1e-24ab-4e18-be3b-b59356a1510a","system_id":"levelo_inurba_marseille","lat":43.292303,"lon":5.360566,"is_reserved":false,"is_disabled":false,"rental_uris":{"android":"levelo://app?vid=38663f1e-24ab-4e18-be3b-b59356a1510a","ios":"levelo://app?vid=38663f1e-24ab-4e18-be3b-b59356a1510a"},"vehicle_type_id":"4","last_reported":1761160124,"current_range_meters":8800,"station_id":"ce4bhbh2rcd13ifvqeqg","pricing_plan_id":"cebpf4jnsgd1na2vs0mg"},{"bike_id":"dfa9c088-b016-43c8-a63f-95878087783f","system_id":"levelo_inurba_marseille","lat":43.28389,"lon":5.37508,"is_reserved":false,"is_disabled":false,"rental_uris":{"android":"levelo://app?vid=dfa9c088-b016-43c8-a63f-95878087783f","ios":"levelo://app?vid=dfa9c088-b016-43c8-a63f-95878087783f"},"vehicle_type_id":"4","last_reported":1761160124,"current_range_meters":8800,"station_id":"ce4bh412rcd13ifvqds0","pricing_plan_id":"cebpf4jnsgd1na2vs0mg"},{"bike_id":"c4432b73-0adb-475d-83b3-18f6e7bba483","system_id":"levelo_inurba_marseille","lat":43.32083,"lon":5.40815,"is_reserved":false,"is_disabled":false,"rental_uris":{"android":"levelo://app?vid=c4432b73-0adb-475d-83b3-18f6e7bba483","ios":"levelo://app?vid=c4432b73-0adb-475d-83b3-18f6e7bba483"},"vehicle_type_id":"4","last_reported":1761160124,"current_range_meters":8800,"station_id":"","pricing_plan_id":"cebpf4jnsgd1na2vs0mg"},{"bike_id":"125b2120-46aa-4651-a8fe-63c199b6ffee","system_id":"levelo_inurba_marseille","lat":43.286,"lon":5.3707,"is_reserved":false,"is_disabled":false,"rental_uris":{"android":"levelo://app?vid=125b2120-46aa-4651-a8fe-63c199b6ffee","ios":"levelo://app?vid=125b2120-46aa-4651-a8fe-63c199b6ffee"},"vehicle_type_id":"4","last_reported":1761160124,"current_range_meters":9200,"station_id":"ce4bht12rcd13ifvqi60","pricing_plan_id":"cebpf4jnsgd1na2vs0mg"},{"bike_id":"510438cb-4929-4a19-a8ce-0c5496aaf7bf","system_id":"levelo_inurba_marseille","lat":43.303,"lon":5.39218,"is_reserved":false,"is_disabled":false,"rental_uris":{"android":"levelo://app?vid=510438cb-4929-4a19-a8ce-0c5496aaf7bf","ios":"levelo://app?vid=510438cb-4929-4a19-a8ce-0c5496aaf7bf"},"vehicle_type_id":"4","last_reported":1761160124,"current_range_meters":9200,"station_id":"ce4bgkh2rcd13ifvqbk0","pricing_plan_id":"cebpf4jnsgd1na2vs0mg"},{"bike_id":"f4ecfd5e-3d1d-499e-99da-445cf52f1bd3","system_id":"levelo_inurba_marseille","lat":43.308912,"lon":5.396618,"is_reserved":false,"is_disabled":false,"rental_uris":{"android":"levelo://app?vid=f4ecfd5e-3d1d-499e-99da-445cf52f1bd3","ios":"levelo://app?vid=f4ecfd5e-3d1d-499e-99da-445cf52f1bd3"},"vehicle_type_id":"4","last_reported":1761160124,"current_range_meters":9200,"station_id":"","pricing_plan_id":"cebpf4jnsgd1na2vs0mg"},{"bike_id":"6096875b-ad5a-44be-9bdd-d89191fea721","system_id":"levelo_inurba_marseille","lat":43.28925,"lon":5.3639,"is_reserved":false,"is_disabled":false,"rental_uris":{"android":"levelo://app?vid=6096875b-ad5a-44be-9bdd-d89191fea721","ios":"levelo://app?vid=6096875b-ad5a-44be-9bdd-d89191fea721"},"vehicle_type_id":"4","last_reported":1761160124,"current_range_meters":9200,"station_id":"ce4bhc92rcd13ifvqetg","pricing_plan_id":"cebpf4jnsgd1na2vs0mg"},{"bike_id":"d5446f76-30d2-4f55-be4e-e3a9def6fcf1","system_id":"levelo_inurba_marseille","lat":43.279986,"lon":5.400114,"is_reserved":false,"is_disabled":false,"rental_uris":{"android":"levelo://app?vid=d5446f76-30d2-4f55-be4e-e3a9def6fcf1","ios":"levelo://app?vid=d5446f76-30d2-4f55-be4e-e3a9def6fcf1"},"vehicle_type_id":"4","last_reported":1761160124,"current_range_meters":9200,"station_id":"ce4bho92rcd13ifvqh4g","pricing_plan_id":"cebpf4jnsgd1na2vs0mg"},{"bike_id":"7d2d5787-0ce3-440b-bd99-871ac3e090ec","system_id":"levelo_inurba_marseille","lat":43.28874,"lon":5.37847,"is_reserved":false,"is_disabled":false,"rental_uris":{"android":"levelo://app?vid=7d2d5787-0ce3-440b-bd99-871ac3e090ec","ios":"levelo://app?vid=7d2d5787-0ce3-440b-bd99-871ac3e090ec"},"vehicle_type_id":"4","last_reported":1761160124,"current_range_meters":9600,"station_id":"","pricing_plan_id":"cebpf4jnsgd1na2vs0mg"},{"bike_id":"7026a6fc-cbdd-4184-9456-a7f5f168429d","system_id":"levelo_inurba_marseille","lat":43.2903,"lon":5.38634,"is_reserved":false,"is_disabled":false,"rental_uris":{"android":"levelo://app?vid=7026a6fc-cbdd-4184-9456-a7f5f168429d","ios":"levelo://app?vid=7026a6fc-cbdd-4184-9456-a7f5f168429d"},"vehicle_type_id":"4","last_reported":1761160124,"current_range_meters":9600,"station_id":"ce4bh4p2rcd13ifvqe0g","pricing_plan_id":"cebpf4jnsgd1na2vs0mg"},{"bike_id":"46ce4a6a-405b-4153-b2be-2dbc5814180a","system_id":"levelo_inurba_marseille","lat":43.2811,"lon":5.37858,"is_reserved":false,"is_disabled":false,"rental_uris":{"android":"levelo://app?vid=46ce4a6a-405b-4153-b2be-2dbc5814180a","ios":"levelo://app?vid=46ce4a6a-405b-4153-b2be-2dbc5814180a"},"vehicle_type_id":"4","last_reported":1761160124,"current_range_meters":9600,"station_id":"ce4bha12rcd13ifvqee0","pricing_plan_id":"cebpf4jnsgd1na2vs0mg"},{"bike_id":"3b244e6f-e184-4814-9c58-ecff97abe183","system_id":"levelo_inurba_marseille","lat":43.28194,"lon":5.42618,"is_reserved":false,"is_disabled":false,"rental_uris":{"android":"levelo://app?vid=3b244e6f-e184-4814-9c58-ecff97abe183","ios":"levelo://app?vid=3b244e6f-e184-4814-9c58-ecff97abe183"},"vehicle_type_id":"4","last_reported":1761160124,"current_range_meters":9600,"station_id":"ce4bhnh2rcd13ifvqgug","pricing_plan_id":"cebpf4jnsgd1na2vs0mg"},{"bike_id":"02f7835e-8895-43db-bc46-dc0659a292d5","system_id":"levelo_inurba_marseille","lat":43.29331,"lon":5.3707,"is_reserved":false,"is_disabled":false,"rental_uris":{"android":"levelo://app?vid=02f7835e-8895-43db-bc46-dc0659a292d5","ios":"levelo://app?vid=02f7835e-8895-43db-bc46-dc0659a292d5"},"vehicle_type_id":"4","last_reported":1761160124,"current_range_meters":9600,"station_id":"","pricing_plan_id":"cebpf4jnsgd1na2vs0mg"},{"bike_id":"81428601-2775-43b4-a511-e0d09aa2d7d1","system_id":"levelo_inurba_marseille","lat":43.29299,"lon":5.37463,"is_reserved":false,"is_disabled":false,"rental_uris":{"android":"levelo://app?vid=81428601-2775-43b4-a511-e0d09aa2d7d1","ios":"levelo://app?vid=81428601-2775-43b4-a511-e0d09aa2d7d1"},"vehicle_type_id":"4","last_reported":1761160124,"current_range_meters":9600,"station_id":"ce4bgi12rcd13ifvqb70","pricing_plan_id":"cebpf4jnsgd1na2vs0mg"},{"bike_id":"8975d9b3-4105-45ba-8e88-e562942325b5","system_id":"levelo_inurba_marseille","lat":43.298797,"lon":5.397125,"is_reserved":false,"is_disabled":false,"rental_uris":{"android":"levelo://app?vid=8975d9b3-4105-45ba-8e88-e562942325b5","ios":"levelo://app?vid=8975d9b3-4105-45ba-8e88-e562942325b5"},"vehicle_type_id":"4","last_reported":1761160124,"current_range_meters":9600,"station_id":"ce4bh0h2rcd13ifvqd50","pricing_plan_id":"cebpf4jnsgd1na2vs0mg"},{"bike_id":"9e6c7706-60e3-40f9-a51e-7defb0f27ae8","system_id":"levelo_inurba_marseille","lat":43.31245,"lon":5.401449,"is_reserved":false,"is_disabled":false,"rental_uris":{"android":"levelo://app?vid=9e6c7706-60e3-40f9-a51e-7defb0f27ae8","ios":"levelo://app?vid=9e6c7706-60e3-40f9-a51e-7defb0f27ae8"},"vehicle_type_id":"4","last_reported":1761160124,"current_range_meters":10000,"station_id":"ce4bh092rcd13ifvqd30","pricing_plan_id":"cebpf4jnsgd1na2vs0mg"},{"bike_id":"c8bb1635-1bbc-41d3-840f-9a095fa09df6","system_id":"levelo_inurba_marseille","lat":43.29069,"lon":5.37148,"is_reserved":false,"is_disabled":false,"rental_uris":{"android":"levelo://app?vid=c8bb1635-1bbc-41d3-840f-9a095fa09df6","ios":"levelo://app?vid=c8bb1635-1bbc-41d3-840f-9a095fa09df6"},"vehicle_type_id":"4","last_reported":1761160124,"current_range_meters":10000,"station_id":"ce4bh5p2rcd13ifvqe4g","pricing_plan_id":"cebpf4jnsgd1na2vs0mg"},{"bike_id":"6be382aa-c474-4181-8ce5-30d260604589","system_id":"levelo_inurba_marseille","lat":43.30299,"lon":5.39191,"is_reserved":false,"is_disabled":false,"rental_uris":{"android":"levelo://app?vid=6be382aa-c474-4181-8ce5-30d260604589","ios":"levelo://app?vid=6be382aa-c474-4181-8ce5-30d260604589"},"vehicle_type_id":"4","last_reported":1761160124,"current_range_meters":10000,"station_id":"ce4bgkh2rcd13ifvqbk0","pricing_plan_id":"cebpf4jnsgd1na2vs0mg"},{"bike_id":"26e66952-9189-4b76-ad75-1cba652bafc6","system_id":"levelo_inurba_marseille","lat":43.30433,"lon":5.38881,"is_reserved":false,"is_disabled":false,"rental_uris":{"android":"levelo://app?vid=26e66952-9189-4b76-ad75-1cba652bafc6","ios":"levelo://app?vid=26e66952-9189-4b76-ad75-1cba652bafc6"},"vehicle_type_id":"4","last_reported":1761160124,"current_range_meters":10000,"station_id":"ce4bgk12rcd13ifvqbi0","pricing_plan_id":"cebpf4jnsgd1na2vs0mg"},{"bike_id":"44b1ad6b-1a98-4e37-a182-f58df3beccce","system_id":"levelo_inurba_marseille","lat":43.21217,"lon":5.3506,"is_reserved":false,"is_disabled":true,"rental_uris":{"android":"levelo://app?vid=44b1ad6b-1a98-4e37-a182-f58df3beccce","ios":"levelo://app?vid=44b1ad6b-1a98-4e37-a182-f58df3beccce"},"vehicle_type_id":"4","last_reported":1761160124,"current_range_meters":10800,"station_id":"","pricing_plan_id":"cebpf4jnsgd1na2vs0mg"},{"bike_id":"82576c51-8b9b-43eb-aa43-fc4a18c9ea5b","system_id":"levelo_inurba_marseille","lat":43.21762,"lon":5.3459,"is_reserved":false,"is_disabled":false,"rental_uris":{"android":"levelo://app?vid=82576c51-8b9b-43eb-aa43-fc4a18c9ea5b","ios":"levelo://app?vid=82576c51-8b9b-43eb-aa43-fc4a18c9ea5b"},"vehicle_type_id":"4","last_reported":1761160124,"current_range_meters":10800,"station_id":"st_cvj6r9ubvosntc0bgbag","pricing_plan_id":"cebpf4jnsgd1na2vs0mg"},{"bike_id":"4579d17c-c380-4d64-ad08-0f15474b13c4","system_id":"levelo_inurba_marseille","lat":43.253359,"lon":5.421775,"is_reserved":false,"is_disabled":false,"rental_uris":{"android":"levelo://app?vid=4579d17c-c380-4d64-ad08-0f15474b13c4","ios":"levelo://app?vid=4579d17c-c380-4d64-ad08-0f15474b13c4"},"vehicle_type_id":"4","last_reported":1761160124,"current_range_meters":10800,"station_id":"st_d2m65c5bi1j21697t3ng","pricing_plan_id":"cebpf4jnsgd1na2vs0mg"},{"bike_id":"89dd87c4-c8d0-4de7-8902-2b0447e67475","system_id":"levelo_inurba_marseille","lat":43.31232,"lon":5.36877,"is_reserved":false,"is_disabled":true,"rental_uris":{"android":"levelo://app?vid=89dd87c4-c8d0-4de7-8902-2b0447e67475","ios":"levelo://app?vid=89dd87c4-c8d0-4de7-8902-2b0447e67475"},"vehicle_type_id":"4","last_reported":1761160124,"current_range_meters":10800,"station_id":"","pricing_plan_id":"cebpf4jnsgd1na2vs0mg"},{"bike_id":"fe5786a2-3cbd-4e30-8ddf-18df8db18ee6","system_id":"levelo_inurba_marseille","lat":43.30001,"lon":5.3717,"is_reserved":false,"is_disabled":true,"rental_uris":{"android":"levelo://app?vid=fe5786a2-3cbd-4e30-8ddf-18df8db18ee6","ios":"levelo://app?vid=fe5786a2-3cbd-4e30-8ddf-18df8db18ee6"},"vehicle_type_id":"4","last_reported":1761160124,"current_range_meters":10800,"station_id":"ce4bgr92rcd13ifvqc7g","pricing_plan_id":"cebpf4jnsgd1na2vs0mg"},{"bike_id":"d74e2df8-5632-4edb-9723-5ac247394e83","system_id":"levelo_inurba_marseille","lat":43.30729,"lon":5.42442,"is_reserved":false,"is_disabled":false,"rental_uris":{"android":"levelo://app?vid=d74e2df8-5632-4edb-9723-5ac247394e83","ios":"levelo://app?vid=d74e2df8-5632-4edb-9723-5ac247394e83"},"vehicle_type_id":"4","last_reported":1761160124,"current_range_meters":10800,"station_id":"st_cvj6ca6bvosntc0bfgr0","pricing_plan_id":"cebpf4jnsgd1na2vs0mg"},{"bike_id":"908177fd-ddc7-4961-b6da-3db013163692","system_id":"levelo_inurba_marseille","lat":43.28355,"lon":5.38099,"is_reserved":false,"is_disabled":false,"rental_uris":{"android":"levelo://app?vid=908177fd-ddc7-4961-b6da-3db013163692","ios":"levelo://app?vid=908177fd-ddc7-4961-b6da-3db013163692"},"vehicle_type_id":"4","last_reported":1761160124,"current_range_meters":10800,"station_id":"ce4bh412rcd13ifvqdr0","pricing_plan_id":"cebpf4jnsgd1na2vs0mg"},{"bike_id":"27938040-5f97-48c9-b073-25f510f7592c","system_id":"levelo_inurba_marseille","lat":43.32895,"lon":5.39066,"is_reserved":false,"is_disabled":false,"rental_uris":{"android":"levelo://app?vid=27938040-5f97-48c9-b073-25f510f7592c","ios":"levelo://app?vid=27938040-5f97-48c9-b073-25f510f7592c"},"vehicle_type_id":"4","last_reported":1761160124,"current_range_meters":11200,"station_id":"","pricing_plan_id":"cebpf4jnsgd1na2vs0mg"},{"bike_id":"d0b2071f-3b06-48bb-81cd-5a9172e3cfbb","system_id":"levelo_inurba_marseille","lat":43.29877,"lon":5.38905,"is_reserved":false,"is_disabled":false,"rental_uris":{"android":"levelo://app?vid=d0b2071f-3b06-48bb-81cd-5a9172e3cfbb","ios":"levelo://app?vid=d0b2071f-3b06-48bb-81cd-5a9172e3cfbb"},"vehicle_type_id":"4","last_reported":1761160124,"current_range_meters":11200,"station_id":"ce4bh392rcd13ifvqdl0","pricing_plan_id":"cebpf4jnsgd1na2vs0mg"},{"bike_id":"8cb5172c-16cc-4161-8944-4f8516cab393","system_id":"levelo_inurba_marseille","lat":43.292571,"lon":5.384433,"is_reserved":false,"is_disabled":false,"rental_uris":{"android":"levelo://app?vid=8cb5172c-16cc-4161-8944-4f8516cab393","ios":"levelo://app?vid=8cb5172c-16cc-4161-8944-4f8516cab393"},"vehicle_type_id":"4","last_reported":1761160124,"current_range_meters":11600,"station_id":"ce4bh692rcd13ifvqea0","pricing_plan_id":"cebpf4jnsgd1na2vs0mg"},{"bike_id":"396aaa55-c35f-41fc-8337-93bac25c9dde","system_id":"levelo_inurba_marseille","lat":43.29243,"lon":5.35562,"is_reserved":false,"is_disabled":false,"rental_uris":{"android":"levelo://app?vid=396aaa55-c35f-41fc-8337-93bac25c9dde","ios":"levelo://app?vid=396aaa55-c35f-41fc-8337-93bac25c9dde"},"vehicle_type_id":"4","last_reported":1761160124,"current_range_meters":11600,"station_id":"","pricing_plan_id":"cebpf4jnsgd1na2vs0mg"},{"bike_id":"27e4da55-03ac-4a27-9cbb-4218c6a866bf","system_id":"levelo_inurba_marseille","lat":43.280642,"lon":5.352788,"is_reserved":false,"is_disabled":false,"rental_uris":{"android":"levelo://app?vid=27e4da55-03ac-4a27-9cbb-4218c6a866bf","ios":"levelo://app?vid=27e4da55-03ac-4a27-9cbb-4218c6a866bf"},"vehicle_type_id":"4","last_reported":1761160124,"current_range_meters":11600,"station_id":"","pricing_plan_id":"cebpf4jnsgd1na2vs0mg"},{"bike_id":"7a685834-398e-44fa-8bf8-b24991a4cce7","system_id":"levelo_inurba_marseille","lat":43.32368,"lon":5.38879,"is_reserved":false,"is_disabled":false,"rental_uris":{"android":"levelo://app?vid=7a685834-398e-44fa-8bf8-b24991a4cce7","ios":"levelo://app?vid=7a685834-398e-44fa-8bf8-b24991a4cce7"},"vehicle_type_id":"4","last_reported":1761160124,"current_range_meters":11600,"station_id":"ce4bhqp2rcd13ifvqhog","pricing_plan_id":"cebpf4jnsgd1na2vs0mg"},{"bike_id":"aa52fae8-8ffc-4b4b-b82d-14607a9b8590","system_id":"levelo_inurba_marseille","lat":43.28926,"lon":5.38385,"is_reserved":false,"is_disabled":false,"rental_uris":{"android":"levelo://app?vid=aa52fae8-8ffc-4b4b-b82d-14607a9b8590","ios":"levelo://app?vid=aa52fae8-8ffc-4b4b-b82d-14607a9b8590"},"vehicle_type_id":"4","last_reported":1761160124,"current_range_meters":11600,"station_id":"ce4bh612rcd13ifvqe6g","pricing_plan_id":"cebpf4jnsgd1na2vs0mg"},{"bike_id":"aef88e7f-d7bf-4c36-abcc-d9acc84d52cd","system_id":"levelo_inurba_marseille","lat":43.28886,"lon":5.37871,"is_reserved":false,"is_disabled":false,"rental_uris":{"android":"levelo://app?vid=aef88e7f-d7bf-4c36-abcc-d9acc84d52cd","ios":"levelo://app?vid=aef88e7f-d7bf-4c36-abcc-d9acc84d52cd"},"vehicle_type_id":"4","last_reported":1761160124,"current_range_meters":11600,"station_id":"","pricing_plan_id":"cebpf4jnsgd1na2vs0mg"},{"bike_id":"e6142c05-8e57-4e56-bde5-a9364eb5bace","system_id":"levelo_inurba_marseille","lat":43.30926,"lon":5.36852,"is_reserved":false,"is_disabled":false,"rental_uris":{"android":"levelo://app?vid=e6142c05-8e57-4e56-bde5-a9364eb5bace","ios":"levelo://app?vid=e6142c05-8e57-4e56-bde5-a9364eb5bace"},"vehicle_type_id":"4","last_reported":1761160124,"current_range_meters":12000,"station_id":"ce4bgn92rcd13ifvqbvg","pricing_plan_id":"cebpf4jnsgd1na2vs0mg"},{"bike_id":"61c47949-89b9-4c27-95f4-2b581fa26bb6","system_id":"levelo_inurba_marseille","lat":43.23193,"lon":5.39981,"is_reserved":false,"is_disabled":false,"rental_uris":{"android":"levelo://app?vid=61c47949-89b9-4c27-95f4-2b581fa26bb6","ios":"levelo://app?vid=61c47949-89b9-4c27-95f4-2b581fa26bb6"},"vehicle_type_id":"4","last_reported":1761160124,"current_range_meters":12000,"station_id":"ce4bhn12rcd13ifvqgqg","pricing_plan_id":"cebpf4jnsgd1na2vs0mg"},{"bike_id":"f4cc81e8-9ebe-40d7-a486-49e9eb525166","system_id":"levelo_inurba_marseille","lat":43.29249,"lon":5.40908,"is_reserved":false,"is_disabled":false,"rental_uris":{"android":"levelo://app?vid=f4cc81e8-9ebe-40d7-a486-49e9eb525166","ios":"levelo://app?vid=f4cc81e8-9ebe-40d7-a486-49e9eb525166"},"vehicle_type_id":"4","last_reported":1761160124,"current_range_meters":12000,"station_id":"ce4bh192rcd13ifvqdc0","pricing_plan_id":"cebpf4jnsgd1na2vs0mg"},{"bike_id":"85652f6b-d051-4dd2-bd84-4301aa44ede3","system_id":"levelo_inurba_marseille","lat":43.31728,"lon":5.42396,"is_reserved":false,"is_disabled":false,"rental_uris":{"android":"levelo://app?vid=85652f6b-d051-4dd2-bd84-4301aa44ede3","ios":"levelo://app?vid=85652f6b-d051-4dd2-bd84-4301aa44ede3"},"vehicle_type_id":"4","last_reported":1761160124,"current_range_meters":12000,"station_id":"ce4bhp92rcd13ifvqhbg","pricing_plan_id":"cebpf4jnsgd1na2vs0mg"},{"bike_id":"6cedbdd4-d4fa-45a0-a47a-6925bf95118c","system_id":"levelo_inurba_marseille","lat":43.2292,"lon":5.35378,"is_reserved":false,"is_disabled":false,"rental_uris":{"android":"levelo://app?vid=6cedbdd4-d4fa-45a0-a47a-6925bf95118c","ios":"levelo://app?vid=6cedbdd4-d4fa-45a0-a47a-6925bf95118c"},"vehicle_type_id":"4","last_reported":1761160124,"current_range_meters":12000,"station_id":"cpo3532slgdg3j2ikp40","pricing_plan_id":"cebpf4jnsgd1na2vs0mg"},{"bike_id":"79e8ea3e-55a6-4f49-b239-57d17b161b44","system_id":"levelo_inurba_marseille","lat":43.29525,"lon":5.38549,"is_reserved":false,"is_disabled":false,"rental_uris":{"android":"levelo://app?vid=79e8ea3e-55a6-4f49-b239-57d17b161b44","ios":"levelo://app?vid=79e8ea3e-55a6-4f49-b239-57d17b161b44"},"vehicle_type_id":"4","last_reported":1761160124,"current_range_meters":12000,"station_id":"ce4bgih2rcd13ifvqba0","pricing_plan_id":"cebpf4jnsgd1na2vs0mg"},{"bike_id":"37d01fc8-4b4d-4652-a489-1254eb9d4c80","system_id":"levelo_inurba_marseille","lat":43.34076,"lon":5.40411,"is_reserved":false,"is_disabled":false,"rental_uris":{"android":"levelo://app?vid=37d01fc8-4b4d-4652-a489-1254eb9d4c80","ios":"levelo://app?vid=37d01fc8-4b4d-4652-a489-1254eb9d4c80"},"vehicle_type_id":"4","last_reported":1761160124,"current_range_meters":12000,"station_id":"","pricing_plan_id":"cebpf4jnsgd1na2vs0mg"},{"bike_id":"cf4f8523-943a-4ccb-9ca4-89b3d37151d4","system_id":"levelo_inurba_marseille","lat":43.29538,"lon":5.38543,"is_reserved":false,"is_disabled":false,"rental_uris":{"android":"levelo://app?vid=cf4f8523-943a-4ccb-9ca4-89b3d37151d4","ios":"levelo://app?vid=cf4f8523-943a-4ccb-9ca4-89b3d37151d4"},"vehicle_type_id":"4","last_reported":1761160124,"current_range_meters":12000,"station_id":"ce4bgih2rcd13ifvqba0","pricing_plan_id":"cebpf4jnsgd1na2vs0mg"},{"bike_id":"5730ed68-3c8d-4f2b-b9d6-1a838042d436","system_id":"levelo_inurba_marseille","lat":43.275846,"lon":5.361092,"is_reserved":false,"is_disabled":false,"rental_uris":{"android":"levelo://app?vid=5730ed68-3c8d-4f2b-b9d6-1a838042d436","ios":"levelo://app?vid=5730ed68-3c8d-4f2b-b9d6-1a838042d436"},"vehicle_type_id":"4","last_reported":1761160124,"current_range_meters":12000,"station_id":"ce4bgj92rcd13ifvqbe0","pricing_plan_id":"cebpf4jnsgd1na2vs0mg"},{"bike_id":"ec60652f-d3c2-400e-8251-0e42407708db","system_id":"levelo_inurba_marseille","lat":43.27061,"lon":5.42283,"is_reserved":false,"is_disabled":false,"rental_uris":{"android":"levelo://app?vid=ec60652f-d3c2-400e-8251-0e42407708db","ios":"levelo://app?vid=ec60652f-d3c2-400e-8251-0e42407708db"},"vehicle_type_id":"4","last_reported":1761160124,"current_range_meters":12400,"station_id":"ce4bhk92rcd13ifvqgb0","pricing_plan_id":"cebpf4jnsgd1na2vs0mg"},{"bike_id":"42b36073-9f6b-4849-bff5-3f29fb354d74","system_id":"levelo_inurba_marseille","lat":43.28937,"lon":5.39623,"is_reserved":false,"is_disabled":false,"rental_uris":{"android":"levelo://app?vid=42b36073-9f6b-4849-bff5-3f29fb354d74","ios":"levelo://app?vid=42b36073-9f6b-4849-bff5-3f29fb354d74"},"vehicle_type_id":"4","last_reported":1761160124,"current_range_meters":12400,"station_id":"ce4bh3h2rcd13ifvqdn0","pricing_plan_id":"cebpf4jnsgd1na2vs0mg"},{"bike_id":"7f49d102-ea08-4700-95c7-176b6e972ebe","system_id":"levelo_inurba_marseille","lat":43.30114,"lon":5.3879,"is_reserved":false,"is_disabled":false,"rental_uris":{"android":"levelo://app?vid=7f49d102-ea08-4700-95c7-176b6e972ebe","ios":"levelo://app?vid=7f49d102-ea08-4700-95c7-176b6e972ebe"},"vehicle_type_id":"4","last_reported":1761160124,"current_range_meters":12400,"station_id":"ce4bghh2rcd13ifvqb60","pricing_plan_id":"cebpf4jnsgd1na2vs0mg"},{"bike_id":"d0cf4bba-3d7b-4e86-a0df-9ddce8e9a38f","system_id":"levelo_inurba_marseille","lat":43.29908,"lon":5.38141,"is_reserved":false,"is_disabled":false,"rental_uris":{"android":"levelo://app?vid=d0cf4bba-3d7b-4e86-a0df-9ddce8e9a38f","ios":"levelo://app?vid=d0cf4bba-3d7b-4e86-a0df-9ddce8e9a38f"},"vehicle_type_id":"4","last_reported":1761160124,"current_range_meters":12400,"station_id":"ce4bgj12rcd13ifvqbc0","pricing_plan_id":"cebpf4jnsgd1na2vs0mg"},{"bike_id":"7d3edfab-1200-4aab-936e-4fb6b3c138ce","system_id":"levelo_inurba_marseille","lat":43.29527,"lon":5.38533,"is_reserved":false,"is_disabled":false,"rental_uris":{"android":"levelo://app?vid=7d3edfab-1200-4aab-936e-4fb6b3c138ce","ios":"levelo://app?vid=7d3edfab-1200-4aab-936e-4fb6b3c138ce"},"vehicle_type_id":"4","last_reported":1761160124,"current_range_meters":12800,"station_id":"ce4bgih2rcd13ifvqba0","pricing_plan_id":"cebpf4jnsgd1na2vs0mg"},{"bike_id":"0914acf5-02b1-4eee-9278-a32a847bef2a","system_id":"levelo_inurba_marseille","lat":43.29043,"lon":5.38666,"is_reserved":false,"is_disabled":false,"rental_uris":{"android":"levelo://app?vid=0914acf5-02b1-4eee-9278-a32a847bef2a","ios":"levelo://app?vid=0914acf5-02b1-4eee-9278-a32a847bef2a"},"vehicle_type_id":"4","last_reported":1761160124,"current_range_meters":12800,"station_id":"ce4bh4p2rcd13ifvqe0g","pricing_plan_id":"cebpf4jnsgd1na2vs0mg"},{"bike_id":"3aa8c3e6-230d-4538-ac39-2b944611f536","system_id":"levelo_inurba_marseille","lat":43.31424,"lon":5.36725,"is_reserved":false,"is_disabled":true,"rental_uris":{"android":"levelo://app?vid=3aa8c3e6-230d-4538-ac39-2b944611f536","ios":"levelo://app?vid=3aa8c3e6-230d-4538-ac39-2b944611f536"},"vehicle_type_id":"4","last_reported":1761160124,"current_range_meters":12800,"station_id":"ce4bgr92rcd13ifvqc6g","pricing_plan_id":"cebpf4jnsgd1na2vs0mg"},{"bike_id":"9b93a6ac-64c4-4599-9352-558ab57a7f45","system_id":"levelo_inurba_marseille","lat":43.31325,"lon":5.3971,"is_reserved":false,"is_disabled":false,"rental_uris":{"android":"levelo://app?vid=9b93a6ac-64c4-4599-9352-558ab57a7f45","ios":"levelo://app?vid=9b93a6ac-64c4-4599-9352-558ab57a7f45"},"vehicle_type_id":"4","last_reported":1761160124,"current_range_meters":12800,"station_id":"ce4bgvp2rcd13ifvqcu0","pricing_plan_id":"cebpf4jnsgd1na2vs0mg"},{"bike_id":"ebaf39f0-7478-435c-bd36-9e0bbf8ed102","system_id":"levelo_inurba_marseille","lat":43.2903,"lon":5.38093,"is_reserved":false,"is_disabled":false,"rental_uris":{"android":"levelo://app?vid=ebaf39f0-7478-435c-bd36-9e0bbf8ed102","ios":"levelo://app?vid=ebaf39f0-7478-435c-bd36-9e0bbf8ed102"},"vehicle_type_id":"4","last_reported":1761160124,"current_range_meters":12800,"station_id":"","pricing_plan_id":"cebpf4jnsgd1na2vs0mg"},{"bike_id":"ac4f7d3c-5af7-44ad-8c8b-463d26f4b847","system_id":"levelo_inurba_marseille","lat":43.274451,"lon":5.390878,"is_reserved":false,"is_disabled":false,"rental_uris":{"android":"levelo://app?vid=ac4f7d3c-5af7-44ad-8c8b-463d26f4b847","ios":"levelo://app?vid=ac4f7d3c-5af7-44ad-8c8b-463d26f4b847"},"vehicle_type_id":"4","last_reported":1761160124,"current_range_meters":12800,"station_id":"ce4bhg12rcd13ifvqf80","pricing_plan_id":"cebpf4jnsgd1na2vs0mg"},{"bike_id":"9ad8fe6a-d04e-460c-a43d-bd856b7bef5f","system_id":"levelo_inurba_marseille","lat":43.281097,"lon":5.378451,"is_reserved":false,"is_disabled":false,"rental_uris":{"android":"levelo://app?vid=9ad8fe6a-d04e-460c-a43d-bd856b7bef5f","ios":"levelo://app?vid=9ad8fe6a-d04e-460c-a43d-bd856b7bef5f"},"vehicle_type_id":"4","last_reported":1761160124,"current_range_meters":12800,"station_id":"ce4bha12rcd13ifvqee0","pricing_plan_id":"cebpf4jnsgd1na2vs0mg"},{"bike_id":"6fdd10a2-fe8e-4051-b0c4-7e204f4ac97f","system_id":"levelo_inurba_marseille","lat":43.29514,"lon":5.39055,"is_reserved":false,"is_disabled":false,"rental_uris":{"android":"levelo://app?vid=6fdd10a2-fe8e-4051-b0c4-7e204f4ac97f","ios":"levelo://app?vid=6fdd10a2-fe8e-4051-b0c4-7e204f4ac97f"},"vehicle_type_id":"4","last_reported":1761160124,"current_range_meters":13600,"station_id":"ce4bh3p2rcd13ifvqdp0","pricing_plan_id":"cebpf4jnsgd1na2vs0mg"},{"bike_id":"81dbaefd-5bdd-463c-a6a8-1293efec2dfd","system_id":"levelo_inurba_marseille","lat":43.28409,"lon":5.37508,"is_reserved":false,"is_disabled":false,"rental_uris":{"android":"levelo://app?vid=81dbaefd-5bdd-463c-a6a8-1293efec2dfd","ios":"levelo://app?vid=81dbaefd-5bdd-463c-a6a8-1293efec2dfd"},"vehicle_type_id":"4","last_reported":1761160124,"current_range_meters":13600,"station_id":"ce4bh412rcd13ifvqds0","pricing_plan_id":"cebpf4jnsgd1na2vs0mg"},{"bike_id":"089c55ce-cc10-4d63-8643-616237a9ce5b","system_id":"levelo_inurba_marseille","lat":43.30093,"lon":5.39082,"is_reserved":false,"is_disabled":false,"rental_uris":{"android":"levelo://app?vid=089c55ce-cc10-4d63-8643-616237a9ce5b","ios":"levelo://app?vid=089c55ce-cc10-4d63-8643-616237a9ce5b"},"vehicle_type_id":"4","last_reported":1761160124,"current_range_meters":13600,"station_id":"ce4bh192rcd13ifvqdb0","pricing_plan_id":"cebpf4jnsgd1na2vs0mg"},{"bike_id":"5b2fb394-b654-4cda-abea-19d87e1a4938","system_id":"levelo_inurba_marseille","lat":43.240822,"lon":5.377519,"is_reserved":false,"is_disabled":false,"rental_uris":{"android":"levelo://app?vid=5b2fb394-b654-4cda-abea-19d87e1a4938","ios":"levelo://app?vid=5b2fb394-b654-4cda-abea-19d87e1a4938"},"vehicle_type_id":"4","last_reported":1761160124,"current_range_meters":13600,"station_id":"ce4bhnp2rcd13ifvqgvg","pricing_plan_id":"cebpf4jnsgd1na2vs0mg"},{"bike_id":"61f001a3-2cb1-43fb-bfe4-e4a1763b22c1","system_id":"levelo_inurba_marseille","lat":43.27058,"lon":5.42253,"is_reserved":false,"is_disabled":false,"rental_uris":{"android":"levelo://app?vid=61f001a3-2cb1-43fb-bfe4-e4a1763b22c1","ios":"levelo://app?vid=61f001a3-2cb1-43fb-bfe4-e4a1763b22c1"},"vehicle_type_id":"4","last_reported":1761160124,"current_range_meters":13600,"station_id":"ce4bhk92rcd13ifvqgb0","pricing_plan_id":"cebpf4jnsgd1na2vs0mg"},{"bike_id":"c7b9837e-da7f-48df-9970-e13eaa4f0aa6","system_id":"levelo_inurba_marseille","lat":43.29012,"lon":5.38617,"is_reserved":false,"is_disabled":false,"rental_uris":{"android":"levelo://app?vid=c7b9837e-da7f-48df-9970-e13eaa4f0aa6","ios":"levelo://app?vid=c7b9837e-da7f-48df-9970-e13eaa4f0aa6"},"vehicle_type_id":"4","last_reported":1761160124,"current_range_meters":13600,"station_id":"ce4bh4p2rcd13ifvqe0g","pricing_plan_id":"cebpf4jnsgd1na2vs0mg"},{"bike_id":"5e2f2e8c-593e-4e96-b052-daeb8fb006ab","system_id":"levelo_inurba_marseille","lat":43.29517,"lon":5.38537,"is_reserved":false,"is_disabled":false,"rental_uris":{"android":"levelo://app?vid=5e2f2e8c-593e-4e96-b052-daeb8fb006ab","ios":"levelo://app?vid=5e2f2e8c-593e-4e96-b052-daeb8fb006ab"},"vehicle_type_id":"4","last_reported":1761160124,"current_range_meters":13600,"station_id":"ce4bgih2rcd13ifvqba0","pricing_plan_id":"cebpf4jnsgd1na2vs0mg"},{"bike_id":"f1d549b0-4052-45c2-8717-83059fbaf46e","system_id":"levelo_inurba_marseille","lat":43.29528,"lon":5.38561,"is_reserved":false,"is_disabled":false,"rental_uris":{"android":"levelo://app?vid=f1d549b0-4052-45c2-8717-83059fbaf46e","ios":"levelo://app?vid=f1d549b0-4052-45c2-8717-83059fbaf46e"},"vehicle_type_id":"4","last_reported":1761160124,"current_range_meters":13600,"station_id":"ce4bgih2rcd13ifvqba0","pricing_plan_id":"cebpf4jnsgd1na2vs0mg"},{"bike_id":"07e992db-48e1-481b-a50e-3b491cfc1455","system_id":"levelo_inurba_marseille","lat":43.31991,"lon":5.41291,"is_reserved":false,"is_disabled":false,"rental_uris":{"android":"levelo://app?vid=07e992db-48e1-481b-a50e-3b491cfc1455","ios":"levelo://app?vid=07e992db-48e1-481b-a50e-3b491cfc1455"},"vehicle_type_id":"4","last_reported":1761160124,"current_range_meters":13600,"station_id":"","pricing_plan_id":"cebpf4jnsgd1na2vs0mg"},{"bike_id":"e7709aff-f080-4c40-b225-77642ea3c5cc","system_id":"levelo_inurba_marseille","lat":43.24155,"lon":5.36412,"is_reserved":false,"is_disabled":false,"rental_uris":{"android":"levelo://app?vid=e7709aff-f080-4c40-b225-77642ea3c5cc","ios":"levelo://app?vid=e7709aff-f080-4c40-b225-77642ea3c5cc"},"vehicle_type_id":"4","last_reported":1761160124,"current_range_meters":13600,"station_id":"cpo36qri1sfpv3e86is0","pricing_plan_id":"cebpf4jnsgd1na2vs0mg"},{"bike_id":"11c4e8c3-228b-4c39-b8c0-f49ce3c3e3b2","system_id":"levelo_inurba_marseille","lat":43.29788,"lon":5.39347,"is_reserved":false,"is_disabled":false,"rental_uris":{"android":"levelo://app?vid=11c4e8c3-228b-4c39-b8c0-f49ce3c3e3b2","ios":"levelo://app?vid=11c4e8c3-228b-4c39-b8c0-f49ce3c3e3b2"},"vehicle_type_id":"4","last_reported":1761160124,"current_range_meters":13600,"station_id":"chh1huq6cuj3fo74tm60","pricing_plan_id":"cebpf4jnsgd1na2vs0mg"},{"bike_id":"b61e6817-4496-4ad7-ab43-b524af2e26e5","system_id":"levelo_inurba_marseille","lat":43.2866,"lon":5.38661,"is_reserved":false,"is_disabled":false,"rental_uris":{"android":"levelo://app?vid=b61e6817-4496-4ad7-ab43-b524af2e26e5","ios":"levelo://app?vid=b61e6817-4496-4ad7-ab43-b524af2e26e5"},"vehicle_type_id":"4","last_reported":1761160124,"current_range_meters":14000,"station_id":"","pricing_plan_id":"cebpf4jnsgd1na2vs0mg"},{"bike_id":"a4ade861-cbe1-4d7f-915a-5a257c2a95da","system_id":"levelo_inurba_marseille","lat":43.2397,"lon":5.36637,"is_reserved":false,"is_disabled":false,"rental_uris":{"android":"levelo://app?vid=a4ade861-cbe1-4d7f-915a-5a257c2a95da","ios":"levelo://app?vid=a4ade861-cbe1-4d7f-915a-5a257c2a95da"},"vehicle_type_id":"4","last_reported":1761160124,"current_range_meters":14000,"station_id":"ce4bhi12rcd13ifvqfp0","pricing_plan_id":"cebpf4jnsgd1na2vs0mg"},{"bike_id":"4eae2ec4-8862-466e-a3d9-395cca4276d0","system_id":"levelo_inurba_marseille","lat":43.30337,"lon":5.3756,"is_reserved":false,"is_disabled":false,"rental_uris":{"android":"levelo://app?vid=4eae2ec4-8862-466e-a3d9-395cca4276d0","ios":"levelo://app?vid=4eae2ec4-8862-466e-a3d9-395cca4276d0"},"vehicle_type_id":"4","last_reported":1761160124,"current_range_meters":14000,"station_id":"","pricing_plan_id":"cebpf4jnsgd1na2vs0mg"},{"bike_id":"d1094955-0e48-41ff-8fc7-b5fabb2f38b3","system_id":"levelo_inurba_marseille","lat":43.28721,"lon":5.36086,"is_reserved":false,"is_disabled":false,"rental_uris":{"android":"levelo://app?vid=d1094955-0e48-41ff-8fc7-b5fabb2f38b3","ios":"levelo://app?vid=d1094955-0e48-41ff-8fc7-b5fabb2f38b3"},"vehicle_type_id":"4","last_reported":1761160124,"current_range_meters":14000,"station_id":"cki0cbj6b192h4jlfktg","pricing_plan_id":"cebpf4jnsgd1na2vs0mg"},{"bike_id":"7a274fe2-bedc-42c6-a736-99d3183a0359","system_id":"levelo_inurba_marseille","lat":43.28534,"lon":5.44099,"is_reserved":false,"is_disabled":false,"rental_uris":{"android":"levelo://app?vid=7a274fe2-bedc-42c6-a736-99d3183a0359","ios":"levelo://app?vid=7a274fe2-bedc-42c6-a736-99d3183a0359"},"vehicle_type_id":"4","last_reported":1761160124,"current_range_meters":14000,"station_id":"st_d3j3df2ikq2c7380ej80","pricing_plan_id":"cebpf4jnsgd1na2vs0mg"},{"bike_id":"425ded7c-04b3-4d95-a0c1-dd4a744a41a8","system_id":"levelo_inurba_marseille","lat":43.30136,"lon":5.39862,"is_reserved":false,"is_disabled":false,"rental_uris":{"android":"levelo://app?vid=425ded7c-04b3-4d95-a0c1-dd4a744a41a8","ios":"levelo://app?vid=425ded7c-04b3-4d95-a0c1-dd4a744a41a8"},"vehicle_type_id":"4","last_reported":1761160124,"current_range_meters":14000,"station_id":"ce4bh0h2rcd13ifvqd40","pricing_plan_id":"cebpf4jnsgd1na2vs0mg"},{"bike_id":"bb80561e-167a-4644-8df0-65889c636dcf","system_id":"levelo_inurba_marseille","lat":43.29232,"lon":5.38445,"is_reserved":false,"is_disabled":false,"rental_uris":{"android":"levelo://app?vid=bb80561e-167a-4644-8df0-65889c636dcf","ios":"levelo://app?vid=bb80561e-167a-4644-8df0-65889c636dcf"},"vehicle_type_id":"4","last_reported":1761160124,"current_range_meters":14000,"station_id":"ce4bh692rcd13ifvqea0","pricing_plan_id":"cebpf4jnsgd1na2vs0mg"},{"bike_id":"8570069b-9899-489d-8546-786bc6b64b80","system_id":"levelo_inurba_marseille","lat":43.29261,"lon":5.38426,"is_reserved":false,"is_disabled":false,"rental_uris":{"android":"levelo://app?vid=8570069b-9899-489d-8546-786bc6b64b80","ios":"levelo://app?vid=8570069b-9899-489d-8546-786bc6b64b80"},"vehicle_type_id":"4","last_reported":1761160124,"current_range_meters":14400,"station_id":"ce4bh692rcd13ifvqea0","pricing_plan_id":"cebpf4jnsgd1na2vs0mg"},{"bike_id":"9870a68d-ae62-4bec-82c3-a7443a850bdc","system_id":"levelo_inurba_marseille","lat":43.31276,"lon":5.37777,"is_reserved":false,"is_disabled":false,"rental_uris":{"android":"levelo://app?vid=9870a68d-ae62-4bec-82c3-a7443a850bdc","ios":"levelo://app?vid=9870a68d-ae62-4bec-82c3-a7443a850bdc"},"vehicle_type_id":"4","last_reported":1761160124,"current_range_meters":14400,"station_id":"","pricing_plan_id":"cebpf4jnsgd1na2vs0mg"},{"bike_id":"f538f63b-5046-43e0-b976-b5f9d5d4e253","system_id":"levelo_inurba_marseille","lat":43.29781,"lon":5.39342,"is_reserved":false,"is_disabled":false,"rental_uris":{"android":"levelo://app?vid=f538f63b-5046-43e0-b976-b5f9d5d4e253","ios":"levelo://app?vid=f538f63b-5046-43e0-b976-b5f9d5d4e253"},"vehicle_type_id":"4","last_reported":1761160124,"current_range_meters":14400,"station_id":"chh1huq6cuj3fo74tm60","pricing_plan_id":"cebpf4jnsgd1na2vs0mg"},{"bike_id":"7a6c78e1-5bdf-4a1b-b4ac-fc5d3c01afe2","system_id":"levelo_inurba_marseille","lat":43.303027,"lon":5.392186,"is_reserved":false,"is_disabled":false,"rental_uris":{"android":"levelo://app?vid=7a6c78e1-5bdf-4a1b-b4ac-fc5d3c01afe2","ios":"levelo://app?vid=7a6c78e1-5bdf-4a1b-b4ac-fc5d3c01afe2"},"vehicle_type_id":"4","last_reported":1761160124,"current_range_meters":14400,"station_id":"ce4bgkh2rcd13ifvqbk0","pricing_plan_id":"cebpf4jnsgd1na2vs0mg"},{"bike_id":"ff3a5290-2e30-448c-b743-370f2bfd9ebc","system_id":"levelo_inurba_marseille","lat":43.30737,"lon":5.42448,"is_reserved":false,"is_disabled":false,"rental_uris":{"android":"levelo://app?vid=ff3a5290-2e30-448c-b743-370f2bfd9ebc","ios":"levelo://app?vid=ff3a5290-2e30-448c-b743-370f2bfd9ebc"},"vehicle_type_id":"4","last_reported":1761160124,"current_range_meters":14400,"station_id":"st_cvj6ca6bvosntc0bfgr0","pricing_plan_id":"cebpf4jnsgd1na2vs0mg"},{"bike_id":"1859286f-bbfe-476f-aff8-79ff7a83daff","system_id":"levelo_inurba_marseille","lat":43.270574,"lon":5.423091,"is_reserved":false,"is_disabled":false,"rental_uris":{"android":"levelo://app?vid=1859286f-bbfe-476f-aff8-79ff7a83daff","ios":"levelo://app?vid=1859286f-bbfe-476f-aff8-79ff7a83daff"},"vehicle_type_id":"4","last_reported":1761160124,"current_range_meters":14400,"station_id":"ce4bhk92rcd13ifvqgb0","pricing_plan_id":"cebpf4jnsgd1na2vs0mg"},{"bike_id":"fbd57f20-9860-4ace-b9b3-59cae2f12d63","system_id":"levelo_inurba_marseille","lat":43.309064,"lon":5.371855,"is_reserved":false,"is_disabled":false,"rental_uris":{"android":"levelo://app?vid=fbd57f20-9860-4ace-b9b3-59cae2f12d63","ios":"levelo://app?vid=fbd57f20-9860-4ace-b9b3-59cae2f12d63"},"vehicle_type_id":"4","last_reported":1761160124,"current_range_meters":14800,"station_id":"ce4bguh2rcd13ifvqckg","pricing_plan_id":"cebpf4jnsgd1na2vs0mg"},{"bike_id":"618a9c44-e479-45b6-b144-58d3228e3132","system_id":"levelo_inurba_marseille","lat":43.24643,"lon":5.38894,"is_reserved":false,"is_disabled":false,"rental_uris":{"android":"levelo://app?vid=618a9c44-e479-45b6-b144-58d3228e3132","ios":"levelo://app?vid=618a9c44-e479-45b6-b144-58d3228e3132"},"vehicle_type_id":"4","last_reported":1761160124,"current_range_meters":14800,"station_id":"ce4bhg12rcd13ifvqf60","pricing_plan_id":"cebpf4jnsgd1na2vs0mg"},{"bike_id":"b3b13e92-d401-45af-ad84-a41c7bbeb5fe","system_id":"levelo_inurba_marseille","lat":43.29374,"lon":5.37419,"is_reserved":false,"is_disabled":false,"rental_uris":{"android":"levelo://app?vid=b3b13e92-d401-45af-ad84-a41c7bbeb5fe","ios":"levelo://app?vid=b3b13e92-d401-45af-ad84-a41c7bbeb5fe"},"vehicle_type_id":"4","last_reported":1761160124,"current_range_meters":14800,"station_id":"","pricing_plan_id":"cebpf4jnsgd1na2vs0mg"},{"bike_id":"5c5f86d4-45e0-4ad5-a478-5119cd222b7f","system_id":"levelo_inurba_marseille","lat":43.331529,"lon":5.381701,"is_reserved":false,"is_disabled":false,"rental_uris":{"android":"levelo://app?vid=5c5f86d4-45e0-4ad5-a478-5119cd222b7f","ios":"levelo://app?vid=5c5f86d4-45e0-4ad5-a478-5119cd222b7f"},"vehicle_type_id":"4","last_reported":1761160124,"current_range_meters":14800,"station_id":"","pricing_plan_id":"cebpf4jnsgd1na2vs0mg"},{"bike_id":"b6a28223-d562-41db-97ee-6334f9bc8696","system_id":"levelo_inurba_marseille","lat":43.29904,"lon":5.38149,"is_reserved":false,"is_disabled":false,"rental_uris":{"android":"levelo://app?vid=b6a28223-d562-41db-97ee-6334f9bc8696","ios":"levelo://app?vid=b6a28223-d562-41db-97ee-6334f9bc8696"},"vehicle_type_id":"4","last_reported":1761160124,"current_range_meters":14800,"station_id":"ce4bgj12rcd13ifvqbc0","pricing_plan_id":"cebpf4jnsgd1na2vs0mg"},{"bike_id":"3e08e9af-dc50-4bc6-9018-460b3d69180f","system_id":"levelo_inurba_marseille","lat":43.30307,"lon":5.39205,"is_reserved":false,"is_disabled":false,"rental_uris":{"android":"levelo://app?vid=3e08e9af-dc50-4bc6-9018-460b3d69180f","ios":"levelo://app?vid=3e08e9af-dc50-4bc6-9018-460b3d69180f"},"vehicle_type_id":"4","last_reported":1761160124,"current_range_meters":14800,"station_id":"ce4bgkh2rcd13ifvqbk0","pricing_plan_id":"cebpf4jnsgd1na2vs0mg"},{"bike_id":"4b9c2cda-db75-4124-b7ef-647f11a03088","system_id":"levelo_inurba_marseille","lat":43.281043,"lon":5.378402,"is_reserved":false,"is_disabled":false,"rental_uris":{"android":"levelo://app?vid=4b9c2cda-db75-4124-b7ef-647f11a03088","ios":"levelo://app?vid=4b9c2cda-db75-4124-b7ef-647f11a03088"},"vehicle_type_id":"4","last_reported":1761160124,"current_range_meters":14800,"station_id":"ce4bha12rcd13ifvqee0","pricing_plan_id":"cebpf4jnsgd1na2vs0mg"},{"bike_id":"6ac47084-2d19-4e4c-8c55-deff681a87d2","system_id":"levelo_inurba_marseille","lat":43.24956,"lon":5.40482,"is_reserved":false,"is_disabled":false,"rental_uris":{"android":"levelo://app?vid=6ac47084-2d19-4e4c-8c55-deff681a87d2","ios":"levelo://app?vid=6ac47084-2d19-4e4c-8c55-deff681a87d2"},"vehicle_type_id":"4","last_reported":1761160124,"current_range_meters":15200,"station_id":"st_d2ngiaodas8pm72gd1h0","pricing_plan_id":"cebpf4jnsgd1na2vs0mg"},{"bike_id":"6fdf1595-0579-49a4-987f-35f0abdeef02","system_id":"levelo_inurba_marseille","lat":43.28,"lon":5.41665,"is_reserved":false,"is_disabled":false,"rental_uris":{"android":"levelo://app?vid=6fdf1595-0579-49a4-987f-35f0abdeef02","ios":"levelo://app?vid=6fdf1595-0579-49a4-987f-35f0abdeef02"},"vehicle_type_id":"4","last_reported":1761160124,"current_range_meters":15200,"station_id":"ce4bho12rcd13ifvqh1g","pricing_plan_id":"cebpf4jnsgd1na2vs0mg"},{"bike_id":"77edbc89-2b20-4549-bbbf-0f059629af52","system_id":"levelo_inurba_marseille","lat":43.295157,"lon":5.375058,"is_reserved":false,"is_disabled":false,"rental_uris":{"android":"levelo://app?vid=77edbc89-2b20-4549-bbbf-0f059629af52","ios":"levelo://app?vid=77edbc89-2b20-4549-bbbf-0f059629af52"},"vehicle_type_id":"4","last_reported":1761160124,"current_range_meters":15200,"station_id":"ce4bgkp2rcd13ifvqbmg","pricing_plan_id":"cebpf4jnsgd1na2vs0mg"},{"bike_id":"2f86c0e7-791d-40d3-86dc-3a2c4a57947d","system_id":"levelo_inurba_marseille","lat":43.31087,"lon":5.42429,"is_reserved":false,"is_disabled":false,"rental_uris":{"android":"levelo://app?vid=2f86c0e7-791d-40d3-86dc-3a2c4a57947d","ios":"levelo://app?vid=2f86c0e7-791d-40d3-86dc-3a2c4a57947d"},"vehicle_type_id":"4","last_reported":1761160124,"current_range_meters":15200,"station_id":"ce4bhp92rcd13ifvqhag","pricing_plan_id":"cebpf4jnsgd1na2vs0mg"},{"bike_id":"284f35e1-8c47-4f71-b346-d0cb81fcd71a","system_id":"levelo_inurba_marseille","lat":43.2952,"lon":5.39402,"is_reserved":false,"is_disabled":false,"rental_uris":{"android":"levelo://app?vid=284f35e1-8c47-4f71-b346-d0cb81fcd71a","ios":"levelo://app?vid=284f35e1-8c47-4f71-b346-d0cb81fcd71a"},"vehicle_type_id":"4","last_reported":1761160124,"current_range_meters":15200,"station_id":"ce4bh292rcd13ifvqdf0","pricing_plan_id":"cebpf4jnsgd1na2vs0mg"},{"bike_id":"40a6aa28-a70d-4aa6-927f-50b5217e9215","system_id":"levelo_inurba_marseille","lat":43.29251,"lon":5.38442,"is_reserved":false,"is_disabled":false,"rental_uris":{"android":"levelo://app?vid=40a6aa28-a70d-4aa6-927f-50b5217e9215","ios":"levelo://app?vid=40a6aa28-a70d-4aa6-927f-50b5217e9215"},"vehicle_type_id":"4","last_reported":1761160124,"current_range_meters":15200,"station_id":"ce4bh692rcd13ifvqea0","pricing_plan_id":"cebpf4jnsgd1na2vs0mg"},{"bike_id":"fe1f92bb-1486-4520-8962-05759febe2f9","system_id":"levelo_inurba_marseille","lat":43.27995,"lon":5.41672,"is_reserved":false,"is_disabled":false,"rental_uris":{"android":"levelo://app?vid=fe1f92bb-1486-4520-8962-05759febe2f9","ios":"levelo://app?vid=fe1f92bb-1486-4520-8962-05759febe2f9"},"vehicle_type_id":"4","last_reported":1761160124,"current_range_meters":15200,"station_id":"ce4bho12rcd13ifvqh1g","pricing_plan_id":"cebpf4jnsgd1na2vs0mg"},{"bike_id":"1f81d583-1761-446d-8027-abf674f2a951","system_id":"levelo_inurba_marseille","lat":43.258695,"lon":5.399033,"is_reserved":false,"is_disabled":false,"rental_uris":{"android":"levelo://app?vid=1f81d583-1761-446d-8027-abf674f2a951","ios":"levelo://app?vid=1f81d583-1761-446d-8027-abf674f2a951"},"vehicle_type_id":"4","last_reported":1761160124,"current_range_meters":15200,"station_id":"ce4bhl92rcd13ifvqghg","pricing_plan_id":"cebpf4jnsgd1na2vs0mg"},{"bike_id":"25229034-a7be-4a92-b506-0f9d6cf48b63","system_id":"levelo_inurba_marseille","lat":43.248049,"lon":5.374564,"is_reserved":false,"is_disabled":false,"rental_uris":{"android":"levelo://app?vid=25229034-a7be-4a92-b506-0f9d6cf48b63","ios":"levelo://app?vid=25229034-a7be-4a92-b506-0f9d6cf48b63"},"vehicle_type_id":"4","last_reported":1761160124,"current_range_meters":15200,"station_id":"ce4bhgh2rcd13ifvqfb0","pricing_plan_id":"cebpf4jnsgd1na2vs0mg"},{"bike_id":"0530819d-abf7-413a-b506-777807fa0fe6","system_id":"levelo_inurba_marseille","lat":43.26688,"lon":5.38268,"is_reserved":false,"is_disabled":false,"rental_uris":{"android":"levelo://app?vid=0530819d-abf7-413a-b506-777807fa0fe6","ios":"levelo://app?vid=0530819d-abf7-413a-b506-777807fa0fe6"},"vehicle_type_id":"4","last_reported":1761160124,"current_range_meters":15200,"station_id":"ce4bhg92rcd13ifvqf90","pricing_plan_id":"cebpf4jnsgd1na2vs0mg"},{"bike_id":"7cbf82ea-bfee-406d-a6ce-f15f3d8f0b99","system_id":"levelo_inurba_marseille","lat":43.25491,"lon":5.3765,"is_reserved":false,"is_disabled":false,"rental_uris":{"android":"levelo://app?vid=7cbf82ea-bfee-406d-a6ce-f15f3d8f0b99","ios":"levelo://app?vid=7cbf82ea-bfee-406d-a6ce-f15f3d8f0b99"},"vehicle_type_id":"4","last_reported":1761160124,"current_range_meters":16000,"station_id":"ce4bhh12rcd13ifvqff0","pricing_plan_id":"cebpf4jnsgd1na2vs0mg"},{"bike_id":"e26a4ba5-d1f0-450a-a9c3-d00a5fad899d","system_id":"levelo_inurba_marseille","lat":43.24158,"lon":5.36409,"is_reserved":false,"is_disabled":false,"rental_uris":{"android":"levelo://app?vid=e26a4ba5-d1f0-450a-a9c3-d00a5fad899d","ios":"levelo://app?vid=e26a4ba5-d1f0-450a-a9c3-d00a5fad899d"},"vehicle_type_id":"4","last_reported":1761160124,"current_range_meters":16000,"station_id":"cpo36qri1sfpv3e86is0","pricing_plan_id":"cebpf4jnsgd1na2vs0mg"},{"bike_id":"cf06ee6f-d420-499d-8dee-1fab4c8be77b","system_id":"levelo_inurba_marseille","lat":43.301286,"lon":5.38775,"is_reserved":false,"is_disabled":false,"rental_uris":{"android":"levelo://app?vid=cf06ee6f-d420-499d-8dee-1fab4c8be77b","ios":"levelo://app?vid=cf06ee6f-d420-499d-8dee-1fab4c8be77b"},"vehicle_type_id":"4","last_reported":1761160124,"current_range_meters":16000,"station_id":"","pricing_plan_id":"cebpf4jnsgd1na2vs0mg"},{"bike_id":"12560c82-fdef-4887-a8c4-b201c21f8929","system_id":"levelo_inurba_marseille","lat":43.29883,"lon":5.38912,"is_reserved":false,"is_disabled":false,"rental_uris":{"android":"levelo://app?vid=12560c82-fdef-4887-a8c4-b201c21f8929","ios":"levelo://app?vid=12560c82-fdef-4887-a8c4-b201c21f8929"},"vehicle_type_id":"4","last_reported":1761160124,"current_range_meters":16000,"station_id":"ce4bh392rcd13ifvqdl0","pricing_plan_id":"cebpf4jnsgd1na2vs0mg"},{"bike_id":"da19cf54-3963-4f1d-a62b-5703c0ffe407","system_id":"levelo_inurba_marseille","lat":43.3205,"lon":5.41529,"is_reserved":false,"is_disabled":false,"rental_uris":{"android":"levelo://app?vid=da19cf54-3963-4f1d-a62b-5703c0ffe407","ios":"levelo://app?vid=da19cf54-3963-4f1d-a62b-5703c0ffe407"},"vehicle_type_id":"4","last_reported":1761160124,"current_range_meters":16000,"station_id":"ce4bhq92rcd13ifvqhkg","pricing_plan_id":"cebpf4jnsgd1na2vs0mg"},{"bike_id":"fecbe1f9-5b39-4a18-9133-88eaf36dc64f","system_id":"levelo_inurba_marseille","lat":43.297179,"lon":5.381076,"is_reserved":false,"is_disabled":false,"rental_uris":{"android":"levelo://app?vid=fecbe1f9-5b39-4a18-9133-88eaf36dc64f","ios":"levelo://app?vid=fecbe1f9-5b39-4a18-9133-88eaf36dc64f"},"vehicle_type_id":"4","last_reported":1761160124,"current_range_meters":16000,"station_id":"","pricing_plan_id":"cebpf4jnsgd1na2vs0mg"},{"bike_id":"c8c0fa58-a519-4343-9887-b0c694f93aef","system_id":"levelo_inurba_marseille","lat":43.28886,"lon":5.42624,"is_reserved":false,"is_disabled":false,"rental_uris":{"android":"levelo://app?vid=c8c0fa58-a519-4343-9887-b0c694f93aef","ios":"levelo://app?vid=c8c0fa58-a519-4343-9887-b0c694f93aef"},"vehicle_type_id":"4","last_reported":1761160124,"current_range_meters":16400,"station_id":"","pricing_plan_id":"cebpf4jnsgd1na2vs0mg"},{"bike_id":"61525fe3-26d4-4c5c-a075-e59599c296c4","system_id":"levelo_inurba_marseille","lat":43.31435,"lon":5.39297,"is_reserved":false,"is_disabled":false,"rental_uris":{"android":"levelo://app?vid=61525fe3-26d4-4c5c-a075-e59599c296c4","ios":"levelo://app?vid=61525fe3-26d4-4c5c-a075-e59599c296c4"},"vehicle_type_id":"4","last_reported":1761160124,"current_range_meters":16400,"station_id":"","pricing_plan_id":"cebpf4jnsgd1na2vs0mg"},{"bike_id":"6b9158cc-993e-4fdb-bafb-7fa32e0adab3","system_id":"levelo_inurba_marseille","lat":43.21755,"lon":5.34602,"is_reserved":false,"is_disabled":false,"rental_uris":{"android":"levelo://app?vid=6b9158cc-993e-4fdb-bafb-7fa32e0adab3","ios":"levelo://app?vid=6b9158cc-993e-4fdb-bafb-7fa32e0adab3"},"vehicle_type_id":"4","last_reported":1761160124,"current_range_meters":16400,"station_id":"","pricing_plan_id":"cebpf4jnsgd1na2vs0mg"},{"bike_id":"fa0be1b3-ac79-46dd-bbc1-835a3fafa9e1","system_id":"levelo_inurba_marseille","lat":43.30087,"lon":5.39089,"is_reserved":false,"is_disabled":false,"rental_uris":{"android":"levelo://app?vid=fa0be1b3-ac79-46dd-bbc1-835a3fafa9e1","ios":"levelo://app?vid=fa0be1b3-ac79-46dd-bbc1-835a3fafa9e1"},"vehicle_type_id":"4","last_reported":1761160124,"current_range_meters":16400,"station_id":"ce4bh192rcd13ifvqdb0","pricing_plan_id":"cebpf4jnsgd1na2vs0mg"},{"bike_id":"61526316-a588-4347-9843-b3c2f905949b","system_id":"levelo_inurba_marseille","lat":43.29524,"lon":5.38557,"is_reserved":false,"is_disabled":false,"rental_uris":{"android":"levelo://app?vid=61526316-a588-4347-9843-b3c2f905949b","ios":"levelo://app?vid=61526316-a588-4347-9843-b3c2f905949b"},"vehicle_type_id":"4","last_reported":1761160124,"current_range_meters":16400,"station_id":"ce4bgih2rcd13ifvqba0","pricing_plan_id":"cebpf4jnsgd1na2vs0mg"},{"bike_id":"57559bdd-1bb9-4b35-a95d-b2fc1e62df53","system_id":"levelo_inurba_marseille","lat":43.30592,"lon":5.3935,"is_reserved":false,"is_disabled":false,"rental_uris":{"android":"levelo://app?vid=57559bdd-1bb9-4b35-a95d-b2fc1e62df53","ios":"levelo://app?vid=57559bdd-1bb9-4b35-a95d-b2fc1e62df53"},"vehicle_type_id":"4","last_reported":1761160124,"current_range_meters":16400,"station_id":"ce4bh0p2rcd13ifvqd80","pricing_plan_id":"cebpf4jnsgd1na2vs0mg"},{"bike_id":"ff3839d3-16ac-4aa9-9120-d4030bd2a260","system_id":"levelo_inurba_marseille","lat":43.29777,"lon":5.39361,"is_reserved":false,"is_disabled":true,"rental_uris":{"android":"levelo://app?vid=ff3839d3-16ac-4aa9-9120-d4030bd2a260","ios":"levelo://app?vid=ff3839d3-16ac-4aa9-9120-d4030bd2a260"},"vehicle_type_id":"4","last_reported":1761160124,"current_range_meters":16400,"station_id":"chh1huq6cuj3fo74tm60","pricing_plan_id":"cebpf4jnsgd1na2vs0mg"},{"bike_id":"c775e1ea-9a62-4435-8d4f-004bf2c26047","system_id":"levelo_inurba_marseille","lat":43.29828,"lon":5.44065,"is_reserved":false,"is_disabled":false,"rental_uris":{"android":"levelo://app?vid=c775e1ea-9a62-4435-8d4f-004bf2c26047","ios":"levelo://app?vid=c775e1ea-9a62-4435-8d4f-004bf2c26047"},"vehicle_type_id":"4","last_reported":1761160124,"current_range_meters":16800,"station_id":"st_d3jp68qikq2c7381ktn0","pricing_plan_id":"cebpf4jnsgd1na2vs0mg"},{"bike_id":"71d530ff-c617-4500-862e-2196508ef7cb","system_id":"levelo_inurba_marseille","lat":43.23789,"lon":5.36629,"is_reserved":false,"is_disabled":false,"rental_uris":{"android":"levelo://app?vid=71d530ff-c617-4500-862e-2196508ef7cb","ios":"levelo://app?vid=71d530ff-c617-4500-862e-2196508ef7cb"},"vehicle_type_id":"4","last_reported":1761160124,"current_range_meters":16800,"station_id":"st_d3nk18o9ro0c73en2l3g","pricing_plan_id":"cebpf4jnsgd1na2vs0mg"},{"bike_id":"f94bbc39-8085-4208-a916-14cb898aa726","system_id":"levelo_inurba_marseille","lat":43.29536,"lon":5.38536,"is_reserved":false,"is_disabled":false,"rental_uris":{"android":"levelo://app?vid=f94bbc39-8085-4208-a916-14cb898aa726","ios":"levelo://app?vid=f94bbc39-8085-4208-a916-14cb898aa726"},"vehicle_type_id":"4","last_reported":1761160124,"current_range_meters":16800,"station_id":"ce4bgih2rcd13ifvqba0","pricing_plan_id":"cebpf4jnsgd1na2vs0mg"},{"bike_id":"16163431-3311-4b1f-9eb2-05dc88b05eb8","system_id":"levelo_inurba_marseille","lat":43.29412,"lon":5.386028,"is_reserved":false,"is_disabled":false,"rental_uris":{"android":"levelo://app?vid=16163431-3311-4b1f-9eb2-05dc88b05eb8","ios":"levelo://app?vid=16163431-3311-4b1f-9eb2-05dc88b05eb8"},"vehicle_type_id":"4","last_reported":1761160124,"current_range_meters":16800,"station_id":"ce4bh3p2rcd13ifvqdp0","pricing_plan_id":"cebpf4jnsgd1na2vs0mg"},{"bike_id":"d9247930-f477-4727-872b-24c5b02f6614","system_id":"levelo_inurba_marseille","lat":43.27172,"lon":5.41009,"is_reserved":false,"is_disabled":false,"rental_uris":{"android":"levelo://app?vid=d9247930-f477-4727-872b-24c5b02f6614","ios":"levelo://app?vid=d9247930-f477-4727-872b-24c5b02f6614"},"vehicle_type_id":"4","last_reported":1761160124,"current_range_meters":16800,"station_id":"ce4bhl12rcd13ifvqgf0","pricing_plan_id":"cebpf4jnsgd1na2vs0mg"},{"bike_id":"225d4dff-fee0-4f58-85b0-f4647ed56506","system_id":"levelo_inurba_marseille","lat":43.31756,"lon":5.39013,"is_reserved":false,"is_disabled":false,"rental_uris":{"android":"levelo://app?vid=225d4dff-fee0-4f58-85b0-f4647ed56506","ios":"levelo://app?vid=225d4dff-fee0-4f58-85b0-f4647ed56506"},"vehicle_type_id":"4","last_reported":1761160124,"current_range_meters":16800,"station_id":"ce4bhqp2rcd13ifvqhng","pricing_plan_id":"cebpf4jnsgd1na2vs0mg"},{"bike_id":"82762e63-7db5-443e-b2c2-399b13e6e836","system_id":"levelo_inurba_marseille","lat":43.29663,"lon":5.37115,"is_reserved":false,"is_disabled":false,"rental_uris":{"android":"levelo://app?vid=82762e63-7db5-443e-b2c2-399b13e6e836","ios":"levelo://app?vid=82762e63-7db5-443e-b2c2-399b13e6e836"},"vehicle_type_id":"4","last_reported":1761160124,"current_range_meters":17200,"station_id":"ce4bgnh2rcd13ifvqc0g","pricing_plan_id":"cebpf4jnsgd1na2vs0mg"},{"bike_id":"d62d9ac1-87e4-4ee3-af81-5d8c39780b7d","system_id":"levelo_inurba_marseille","lat":43.29253,"lon":5.38438,"is_reserved":false,"is_disabled":false,"rental_uris":{"android":"levelo://app?vid=d62d9ac1-87e4-4ee3-af81-5d8c39780b7d","ios":"levelo://app?vid=d62d9ac1-87e4-4ee3-af81-5d8c39780b7d"},"vehicle_type_id":"4","last_reported":1761160124,"current_range_meters":17200,"station_id":"ce4bh692rcd13ifvqea0","pricing_plan_id":"cebpf4jnsgd1na2vs0mg"},{"bike_id":"91d630cc-6558-474d-911d-2ff4a104ddb1","system_id":"levelo_inurba_marseille","lat":43.31751,"lon":5.39042,"is_reserved":false,"is_disabled":false,"rental_uris":{"android":"levelo://app?vid=91d630cc-6558-474d-911d-2ff4a104ddb1","ios":"levelo://app?vid=91d630cc-6558-474d-911d-2ff4a104ddb1"},"vehicle_type_id":"4","last_reported":1761160124,"current_range_meters":17200,"station_id":"ce4bhqp2rcd13ifvqhng","pricing_plan_id":"cebpf4jnsgd1na2vs0mg"},{"bike_id":"22556366-5b35-4879-b6f5-b944bfc8418c","system_id":"levelo_inurba_marseille","lat":43.3016,"lon":5.38098,"is_reserved":false,"is_disabled":true,"rental_uris":{"android":"levelo://app?vid=22556366-5b35-4879-b6f5-b944bfc8418c","ios":"levelo://app?vid=22556366-5b35-4879-b6f5-b944bfc8418c"},"vehicle_type_id":"4","last_reported":1761160124,"current_range_meters":17200,"station_id":"ce4bgjp2rcd13ifvqbh0","pricing_plan_id":"cebpf4jnsgd1na2vs0mg"},{"bike_id":"70d8c686-9a79-4bb5-aa3c-5e34251e7b0f","system_id":"levelo_inurba_marseille","lat":43.27993,"lon":5.40004,"is_reserved":false,"is_disabled":false,"rental_uris":{"android":"levelo://app?vid=70d8c686-9a79-4bb5-aa3c-5e34251e7b0f","ios":"levelo://app?vid=70d8c686-9a79-4bb5-aa3c-5e34251e7b0f"},"vehicle_type_id":"4","last_reported":1761160124,"current_range_meters":17200,"station_id":"ce4bho92rcd13ifvqh4g","pricing_plan_id":"cebpf4jnsgd1na2vs0mg"},{"bike_id":"2a22829e-2bd6-41ec-a3e5-ef826e7425d3","system_id":"levelo_inurba_marseille","lat":43.32118,"lon":5.36806,"is_reserved":false,"is_disabled":false,"rental_uris":{"android":"levelo://app?vid=2a22829e-2bd6-41ec-a3e5-ef826e7425d3","ios":"levelo://app?vid=2a22829e-2bd6-41ec-a3e5-ef826e7425d3"},"vehicle_type_id":"4","last_reported":1761160124,"current_range_meters":17200,"station_id":"ce4bhrh2rcd13ifvqhug","pricing_plan_id":"cebpf4jnsgd1na2vs0mg"},{"bike_id":"8b3210fe-dfe1-4d66-ba6f-4c033c5a9993","system_id":"levelo_inurba_marseille","lat":43.292768,"lon":5.368427,"is_reserved":false,"is_disabled":false,"rental_uris":{"android":"levelo://app?vid=8b3210fe-dfe1-4d66-ba6f-4c033c5a9993","ios":"levelo://app?vid=8b3210fe-dfe1-4d66-ba6f-4c033c5a9993"},"vehicle_type_id":"4","last_reported":1761160124,"current_range_meters":17200,"station_id":"ce4bh392rcd13ifvqdl0","pricing_plan_id":"cebpf4jnsgd1na2vs0mg"},{"bike_id":"bda3ed1a-3199-4eb8-8229-577855d09dbb","system_id":"levelo_inurba_marseille","lat":43.3163,"lon":5.37876,"is_reserved":false,"is_disabled":false,"rental_uris":{"android":"levelo://app?vid=bda3ed1a-3199-4eb8-8229-577855d09dbb","ios":"levelo://app?vid=bda3ed1a-3199-4eb8-8229-577855d09dbb"},"vehicle_type_id":"4","last_reported":1761160124,"current_range_meters":17200,"station_id":"","pricing_plan_id":"cebpf4jnsgd1na2vs0mg"},{"bike_id":"783c31b7-fbaa-44b2-a895-4587ac186552","system_id":"levelo_inurba_marseille","lat":43.26574,"lon":5.39031,"is_reserved":false,"is_disabled":false,"rental_uris":{"android":"levelo://app?vid=783c31b7-fbaa-44b2-a895-4587ac186552","ios":"levelo://app?vid=783c31b7-fbaa-44b2-a895-4587ac186552"},"vehicle_type_id":"4","last_reported":1761160124,"current_range_meters":17200,"station_id":"ce4bhe12rcd13ifvqf30","pricing_plan_id":"cebpf4jnsgd1na2vs0mg"},{"bike_id":"577ecd2b-914e-4a10-9632-ee5c0350e5e6","system_id":"levelo_inurba_marseille","lat":43.295268,"lon":5.385421,"is_reserved":false,"is_disabled":false,"rental_uris":{"android":"levelo://app?vid=577ecd2b-914e-4a10-9632-ee5c0350e5e6","ios":"levelo://app?vid=577ecd2b-914e-4a10-9632-ee5c0350e5e6"},"vehicle_type_id":"4","last_reported":1761160124,"current_range_meters":17200,"station_id":"ce4bgih2rcd13ifvqba0","pricing_plan_id":"cebpf4jnsgd1na2vs0mg"},{"bike_id":"9393f9ef-7253-457f-bdcb-e284d908af29","system_id":"levelo_inurba_marseille","lat":43.28844,"lon":5.35838,"is_reserved":false,"is_disabled":false,"rental_uris":{"android":"levelo://app?vid=9393f9ef-7253-457f-bdcb-e284d908af29","ios":"levelo://app?vid=9393f9ef-7253-457f-bdcb-e284d908af29"},"vehicle_type_id":"4","last_reported":1761160124,"current_range_meters":17200,"station_id":"ce4bhb12rcd13ifvqem0","pricing_plan_id":"cebpf4jnsgd1na2vs0mg"},{"bike_id":"12275ef5-272a-4aae-b524-5e97cdfc2fd6","system_id":"levelo_inurba_marseille","lat":43.29534,"lon":5.38539,"is_reserved":false,"is_disabled":false,"rental_uris":{"android":"levelo://app?vid=12275ef5-272a-4aae-b524-5e97cdfc2fd6","ios":"levelo://app?vid=12275ef5-272a-4aae-b524-5e97cdfc2fd6"},"vehicle_type_id":"4","last_reported":1761160124,"current_range_meters":17600,"station_id":"ce4bgih2rcd13ifvqba0","pricing_plan_id":"cebpf4jnsgd1na2vs0mg"},{"bike_id":"f6902d82-f394-4c17-aa0d-6a711dfb8cc4","system_id":"levelo_inurba_marseille","lat":43.28923,"lon":5.38395,"is_reserved":false,"is_disabled":false,"rental_uris":{"android":"levelo://app?vid=f6902d82-f394-4c17-aa0d-6a711dfb8cc4","ios":"levelo://app?vid=f6902d82-f394-4c17-aa0d-6a711dfb8cc4"},"vehicle_type_id":"4","last_reported":1761160124,"current_range_meters":17600,"station_id":"ce4bh612rcd13ifvqe6g","pricing_plan_id":"cebpf4jnsgd1na2vs0mg"},{"bike_id":"46b245e2-5c17-4401-9725-d80f452411ae","system_id":"levelo_inurba_marseille","lat":43.29534,"lon":5.38536,"is_reserved":false,"is_disabled":false,"rental_uris":{"android":"levelo://app?vid=46b245e2-5c17-4401-9725-d80f452411ae","ios":"levelo://app?vid=46b245e2-5c17-4401-9725-d80f452411ae"},"vehicle_type_id":"4","last_reported":1761160124,"current_range_meters":17600,"station_id":"ce4bgih2rcd13ifvqba0","pricing_plan_id":"cebpf4jnsgd1na2vs0mg"},{"bike_id":"0fdaada5-e4ff-4bf8-9811-03a380fb5cf2","system_id":"levelo_inurba_marseille","lat":43.24664,"lon":5.38167,"is_reserved":false,"is_disabled":false,"rental_uris":{"android":"levelo://app?vid=0fdaada5-e4ff-4bf8-9811-03a380fb5cf2","ios":"levelo://app?vid=0fdaada5-e4ff-4bf8-9811-03a380fb5cf2"},"vehicle_type_id":"4","last_reported":1761160124,"current_range_meters":17600,"station_id":"ce4bhih2rcd13ifvqfr0","pricing_plan_id":"cebpf4jnsgd1na2vs0mg"},{"bike_id":"91a4761d-fa5e-4e51-ae61-e5baa253f033","system_id":"levelo_inurba_marseille","lat":43.29003,"lon":5.35616,"is_reserved":false,"is_disabled":false,"rental_uris":{"android":"levelo://app?vid=91a4761d-fa5e-4e51-ae61-e5baa253f033","ios":"levelo://app?vid=91a4761d-fa5e-4e51-ae61-e5baa253f033"},"vehicle_type_id":"4","last_reported":1761160124,"current_range_meters":17600,"station_id":"ce4bhb92rcd13ifvqen0","pricing_plan_id":"cebpf4jnsgd1na2vs0mg"},{"bike_id":"1a16fd06-b4e2-433a-9de0-5ecce63f0080","system_id":"levelo_inurba_marseille","lat":43.24807,"lon":5.37456,"is_reserved":false,"is_disabled":false,"rental_uris":{"android":"levelo://app?vid=1a16fd06-b4e2-433a-9de0-5ecce63f0080","ios":"levelo://app?vid=1a16fd06-b4e2-433a-9de0-5ecce63f0080"},"vehicle_type_id":"4","last_reported":1761160124,"current_range_meters":17600,"station_id":"ce4bhgh2rcd13ifvqfb0","pricing_plan_id":"cebpf4jnsgd1na2vs0mg"},{"bike_id":"4c5286ab-263c-46b7-a661-9ba3543b37d4","system_id":"levelo_inurba_marseille","lat":43.29592,"lon":5.38105,"is_reserved":false,"is_disabled":false,"rental_uris":{"android":"levelo://app?vid=4c5286ab-263c-46b7-a661-9ba3543b37d4","ios":"levelo://app?vid=4c5286ab-263c-46b7-a661-9ba3543b37d4"},"vehicle_type_id":"4","last_reported":1761160124,"current_range_meters":17600,"station_id":"ce4bgl12rcd13ifvqbo0","pricing_plan_id":"cebpf4jnsgd1na2vs0mg"},{"bike_id":"37e6b374-e513-462a-9a1b-5e3ded1d4bad","system_id":"levelo_inurba_marseille","lat":43.31174,"lon":5.387179,"is_reserved":false,"is_disabled":false,"rental_uris":{"android":"levelo://app?vid=37e6b374-e513-462a-9a1b-5e3ded1d4bad","ios":"levelo://app?vid=37e6b374-e513-462a-9a1b-5e3ded1d4bad"},"vehicle_type_id":"4","last_reported":1761160124,"current_range_meters":17600,"station_id":"","pricing_plan_id":"cebpf4jnsgd1na2vs0mg"},{"bike_id":"8b840e22-37cf-4653-9ad1-2b68267c0731","system_id":"levelo_inurba_marseille","lat":43.30553,"lon":5.38424,"is_reserved":false,"is_disabled":false,"rental_uris":{"android":"levelo://app?vid=8b840e22-37cf-4653-9ad1-2b68267c0731","ios":"levelo://app?vid=8b840e22-37cf-4653-9ad1-2b68267c0731"},"vehicle_type_id":"4","last_reported":1761160124,"current_range_meters":17600,"station_id":"ce4bgg92rcd13ifvqb30","pricing_plan_id":"cebpf4jnsgd1na2vs0mg"},{"bike_id":"fe30cecb-f264-4fe0-b4a7-fca9a34f6ed4","system_id":"levelo_inurba_marseille","lat":43.290305,"lon":5.372418,"is_reserved":false,"is_disabled":false,"rental_uris":{"android":"levelo://app?vid=fe30cecb-f264-4fe0-b4a7-fca9a34f6ed4","ios":"levelo://app?vid=fe30cecb-f264-4fe0-b4a7-fca9a34f6ed4"},"vehicle_type_id":"4","last_reported":1761160124,"current_range_meters":17600,"station_id":"","pricing_plan_id":"cebpf4jnsgd1na2vs0mg"},{"bike_id":"84266477-27ea-49c2-a601-16ccb6cef0a7","system_id":"levelo_inurba_marseille","lat":43.29529,"lon":5.38543,"is_reserved":false,"is_disabled":false,"rental_uris":{"android":"levelo://app?vid=84266477-27ea-49c2-a601-16ccb6cef0a7","ios":"levelo://app?vid=84266477-27ea-49c2-a601-16ccb6cef0a7"},"vehicle_type_id":"4","last_reported":1761160124,"current_range_meters":17600,"station_id":"ce4bgih2rcd13ifvqba0","pricing_plan_id":"cebpf4jnsgd1na2vs0mg"},{"bike_id":"8674be3a-582a-491f-94f9-864ab1fdad9b","system_id":"levelo_inurba_marseille","lat":43.30374,"lon":5.4249,"is_reserved":false,"is_disabled":false,"rental_uris":{"android":"levelo://app?vid=8674be3a-582a-491f-94f9-864ab1fdad9b","ios":"levelo://app?vid=8674be3a-582a-491f-94f9-864ab1fdad9b"},"vehicle_type_id":"4","last_reported":1761160124,"current_range_meters":18000,"station_id":"ce4bhoh2rcd13ifvqh6g","pricing_plan_id":"cebpf4jnsgd1na2vs0mg"},{"bike_id":"62e025b3-e0fd-470f-bb93-c8ce647595ac","system_id":"levelo_inurba_marseille","lat":43.29526,"lon":5.38529,"is_reserved":false,"is_disabled":false,"rental_uris":{"android":"levelo://app?vid=62e025b3-e0fd-470f-bb93-c8ce647595ac","ios":"levelo://app?vid=62e025b3-e0fd-470f-bb93-c8ce647595ac"},"vehicle_type_id":"4","last_reported":1761160124,"current_range_meters":18000,"station_id":"ce4bgih2rcd13ifvqba0","pricing_plan_id":"cebpf4jnsgd1na2vs0mg"},{"bike_id":"a75e26f3-02b6-4eb5-a4ef-818e94b63997","system_id":"levelo_inurba_marseille","lat":43.25111,"lon":5.40325,"is_reserved":false,"is_disabled":false,"rental_uris":{"android":"levelo://app?vid=a75e26f3-02b6-4eb5-a4ef-818e94b63997","ios":"levelo://app?vid=a75e26f3-02b6-4eb5-a4ef-818e94b63997"},"vehicle_type_id":"4","last_reported":1761160124,"current_range_meters":18000,"station_id":"ce4bhlh2rcd13ifvqgig","pricing_plan_id":"cebpf4jnsgd1na2vs0mg"},{"bike_id":"f21c055d-dd69-4652-aa9a-8a09f6112466","system_id":"levelo_inurba_marseille","lat":43.290357,"lon":5.386431,"is_reserved":false,"is_disabled":false,"rental_uris":{"android":"levelo://app?vid=f21c055d-dd69-4652-aa9a-8a09f6112466","ios":"levelo://app?vid=f21c055d-dd69-4652-aa9a-8a09f6112466"},"vehicle_type_id":"4","last_reported":1761160124,"current_range_meters":18000,"station_id":"ce4bh4p2rcd13ifvqe0g","pricing_plan_id":"cebpf4jnsgd1na2vs0mg"},{"bike_id":"13ffca06-ecc4-46ee-aa82-6818647126c8","system_id":"levelo_inurba_marseille","lat":43.29915,"lon":5.43656,"is_reserved":false,"is_disabled":false,"rental_uris":{"android":"levelo://app?vid=13ffca06-ecc4-46ee-aa82-6818647126c8","ios":"levelo://app?vid=13ffca06-ecc4-46ee-aa82-6818647126c8"},"vehicle_type_id":"4","last_reported":1761160124,"current_range_meters":18000,"station_id":"ce4bhpp2rcd13ifvqhfg","pricing_plan_id":"cebpf4jnsgd1na2vs0mg"},{"bike_id":"26ecfd90-2879-4ffd-b3cb-633752b421a5","system_id":"levelo_inurba_marseille","lat":43.2656,"lon":5.37287,"is_reserved":false,"is_disabled":false,"rental_uris":{"android":"levelo://app?vid=26ecfd90-2879-4ffd-b3cb-633752b421a5","ios":"levelo://app?vid=26ecfd90-2879-4ffd-b3cb-633752b421a5"},"vehicle_type_id":"4","last_reported":1761160124,"current_range_meters":18800,"station_id":"ce4bhg12rcd13ifvqf70","pricing_plan_id":"cebpf4jnsgd1na2vs0mg"},{"bike_id":"70d8b147-e553-420c-879b-27aa5305fd3a","system_id":"levelo_inurba_marseille","lat":43.29535,"lon":5.38538,"is_reserved":false,"is_disabled":false,"rental_uris":{"android":"levelo://app?vid=70d8b147-e553-420c-879b-27aa5305fd3a","ios":"levelo://app?vid=70d8b147-e553-420c-879b-27aa5305fd3a"},"vehicle_type_id":"4","last_reported":1761160124,"current_range_meters":18800,"station_id":"ce4bgih2rcd13ifvqba0","pricing_plan_id":"cebpf4jnsgd1na2vs0mg"},{"bike_id":"ec34e0fa-6545-4468-b20a-af56dfd0a540","system_id":"levelo_inurba_marseille","lat":43.29759,"lon":5.42774,"is_reserved":false,"is_disabled":false,"rental_uris":{"android":"levelo://app?vid=ec34e0fa-6545-4468-b20a-af56dfd0a540","ios":"levelo://app?vid=ec34e0fa-6545-4468-b20a-af56dfd0a540"},"vehicle_type_id":"4","last_reported":1761160124,"current_range_meters":18800,"station_id":"st_d3md5207bmas73dh9klg","pricing_plan_id":"cebpf4jnsgd1na2vs0mg"},{"bike_id":"4ef0489f-e7b2-4aa8-950b-34bfa22a7c0e","system_id":"levelo_inurba_marseille","lat":43.28854,"lon":5.35465,"is_reserved":false,"is_disabled":false,"rental_uris":{"android":"levelo://app?vid=4ef0489f-e7b2-4aa8-950b-34bfa22a7c0e","ios":"levelo://app?vid=4ef0489f-e7b2-4aa8-950b-34bfa22a7c0e"},"vehicle_type_id":"4","last_reported":1761160124,"current_range_meters":18800,"station_id":"","pricing_plan_id":"cebpf4jnsgd1na2vs0mg"},{"bike_id":"b98a5ae8-d8d1-4b53-9010-f1c67c5b652e","system_id":"levelo_inurba_marseille","lat":43.29528,"lon":5.38542,"is_reserved":false,"is_disabled":false,"rental_uris":{"android":"levelo://app?vid=b98a5ae8-d8d1-4b53-9010-f1c67c5b652e","ios":"levelo://app?vid=b98a5ae8-d8d1-4b53-9010-f1c67c5b652e"},"vehicle_type_id":"4","last_reported":1761160124,"current_range_meters":18800,"station_id":"ce4bgih2rcd13ifvqba0","pricing_plan_id":"cebpf4jnsgd1na2vs0mg"},{"bike_id":"9c023054-f387-47db-bf1d-2774b5d6d642","system_id":"levelo_inurba_marseille","lat":43.31692,"lon":5.38199,"is_reserved":false,"is_disabled":false,"rental_uris":{"android":"levelo://app?vid=9c023054-f387-47db-bf1d-2774b5d6d642","ios":"levelo://app?vid=9c023054-f387-47db-bf1d-2774b5d6d642"},"vehicle_type_id":"4","last_reported":1761160124,"current_range_meters":18800,"station_id":"","pricing_plan_id":"cebpf4jnsgd1na2vs0mg"},{"bike_id":"2b84749d-2ab4-4c7f-bb7e-f10ffcf9c5ed","system_id":"levelo_inurba_marseille","lat":43.30352,"lon":5.41881,"is_reserved":false,"is_disabled":false,"rental_uris":{"android":"levelo://app?vid=2b84749d-2ab4-4c7f-bb7e-f10ffcf9c5ed","ios":"levelo://app?vid=2b84749d-2ab4-4c7f-bb7e-f10ffcf9c5ed"},"vehicle_type_id":"4","last_reported":1761160124,"current_range_meters":18800,"station_id":"ce4bhop2rcd13ifvqh7g","pricing_plan_id":"cebpf4jnsgd1na2vs0mg"},{"bike_id":"1c126f90-d4f5-46e1-b4d7-ef4a75d2cc41","system_id":"levelo_inurba_marseille","lat":43.286157,"lon":5.377533,"is_reserved":false,"is_disabled":false,"rental_uris":{"android":"levelo://app?vid=1c126f90-d4f5-46e1-b4d7-ef4a75d2cc41","ios":"levelo://app?vid=1c126f90-d4f5-46e1-b4d7-ef4a75d2cc41"},"vehicle_type_id":"4","last_reported":1761160124,"current_range_meters":18800,"station_id":"ce4bh412rcd13ifvqds0","pricing_plan_id":"cebpf4jnsgd1na2vs0mg"},