{"last_updated":1768950703,"ttl":60,"version":"2.2","data":{"bikes":[{"bike_id":"6482802e-8566-4e45-a0b9-a9f7b437c303","system_id":"levelo_inurba_marseille","lat":43.24836,"lon":5.37472,"is_reserved":false,"is_disabled":false,"rental_uris":{"android":"levelo://app?vid=6482802e-8566-4e45-a0b9-a9f7b437c303","ios":"levelo://app?vid=6482802e-8566-4e45-a0b9-a9f7b437c303"},"vehicle_type_id":"4","last_reported":1768950704,"current_range_meters":2800,"station_id":"","pricing_plan_id":"cebpf4jnsgd1na2vs0mg"},{"bike_id":"4219b897-6135-4dfa-b00d-523b2a26afe4","system_id":"levelo_inurba_marseille","lat":43.29317,"lon":5.37159,"is_reserved":false,"is_disabled":false,"rental_uris":{"android":"levelo://app?vid=4219b897-6135-4dfa-b00d-523b2a26afe4","ios":"levelo://app?vid=4219b897-6135-4dfa-b00d-523b2a26afe4"},"vehicle_type_id":"4","last_reported":1768950704,"current_range_meters":2800,"station_id":"ce4bgh92rcd13ifvqb40","pricing_plan_id":"cebpf4jnsgd1na2vs0mg"},{"bike_id":"9832ea1b-8098-4c4c-a2ea-7f8e786f0c99","system_id":"levelo_inurba_marseille","lat":43.23188,"lon":5.40004,"is_reserved":false,"is_disabled":false,"rental_uris":{"android":"levelo://app?vid=9832ea1b-8098-4c4c-a2ea-7f8e786f0c99","ios":"levelo://app?vid=9832ea1b-8098-4c4c-a2ea-7f8e786f0c99"},"vehicle_type_id":"4","last_reported":1768950704,"current_range_meters":2800,"station_id":"ce4bhn12rcd13ifvqgqg","pricing_plan_id":"cebpf4jnsgd1na2vs0mg"},{"bike_id":"6dd047f2-a91a-4e21-aaba-02725dff3f64","system_id":"levelo_inurba_marseille","lat":43.22562,"lon":5.41636,"is_reserved":false,"is_disabled":false,"rental_uris":{"android":"levelo://app?vid=6dd047f2-a91a-4e21-aaba-02725dff3f64","ios":"levelo://app?vid=6dd047f2-a91a-4e21-aaba-02725dff3f64"},"vehicle_type_id":"4","last_reported":1768950704,"current_range_meters":2800,"station_id":"st_d2o4gvlbi1j2169b742g","pricing_plan_id":"cebpf4jnsgd1na2vs0mg"},{"bike_id":"12a250cb-8eef-4a02-9188-39c59d9054f1","system_id":"levelo_inurba_marseille","lat":43.30592,"lon":5.39354,"is_reserved":false,"is_disabled":false,"rental_uris":{"android":"levelo://app?vid=12a250cb-8eef-4a02-9188-39c59d9054f1","ios":"levelo://app?vid=12a250cb-8eef-4a02-9188-39c59d9054f1"},"vehicle_type_id":"4","last_reported":1768950704,"current_range_meters":2800,"station_id":"ce4bh0p2rcd13ifvqd80","pricing_plan_id":"cebpf4jnsgd1na2vs0mg"},{"bike_id":"d39a5965-a412-4158-aa3f-41ba4bbbfaed","system_id":"levelo_inurba_marseille","lat":43.25335,"lon":5.42187,"is_reserved":false,"is_disabled":false,"rental_uris":{"android":"levelo://app?vid=d39a5965-a412-4158-aa3f-41ba4bbbfaed","ios":"levelo://app?vid=d39a5965-a412-4158-aa3f-41ba4bbbfaed"},"vehicle_type_id":"4","last_reported":1768950704,"current_range_meters":2800,"station_id":"st_d2m65c5bi1j21697t3ng","pricing_plan_id":"cebpf4jnsgd1na2vs0mg"},{"bike_id":"1d96bc89-a55a-4036-8519-21c71a49b3da","system_id":"levelo_inurba_marseille","lat":43.31145,"lon":5.37994,"is_reserved":false,"is_disabled":false,"rental_uris":{"android":"levelo://app?vid=1d96bc89-a55a-4036-8519-21c71a49b3da","ios":"levelo://app?vid=1d96bc89-a55a-4036-8519-21c71a49b3da"},"vehicle_type_id":"4","last_reported":1768950704,"current_range_meters":2800,"station_id":"","pricing_plan_id":"cebpf4jnsgd1na2vs0mg"},{"bike_id":"3f1c8f2f-8636-420b-847c-424bacc5d33d","system_id":"levelo_inurba_marseille","lat":43.24653,"lon":5.43148,"is_reserved":false,"is_disabled":false,"rental_uris":{"android":"levelo://app?vid=3f1c8f2f-8636-420b-847c-424bacc5d33d","ios":"levelo://app?vid=3f1c8f2f-8636-420b-847c-424bacc5d33d"},"vehicle_type_id":"4","last_reported":1768950704,"current_range_meters":3200,"station_id":"st_d2m6c4gdas8pm72e190g","pricing_plan_id":"cebpf4jnsgd1na2vs0mg"},{"bike_id":"d98680e2-8519-4eb7-88a9-6aba4c293400","system_id":"levelo_inurba_marseille","lat":43.27996,"lon":5.40036,"is_reserved":false,"is_disabled":false,"rental_uris":{"android":"levelo://app?vid=d98680e2-8519-4eb7-88a9-6aba4c293400","ios":"levelo://app?vid=d98680e2-8519-4eb7-88a9-6aba4c293400"},"vehicle_type_id":"4","last_reported":1768950704,"current_range_meters":3200,"station_id":"ce4bho92rcd13ifvqh4g","pricing_plan_id":"cebpf4jnsgd1na2vs0mg"},{"bike_id":"f5390ef6-f6cd-49bb-926e-4e7e11289da5","system_id":"levelo_inurba_marseille","lat":43.28619,"lon":5.35119,"is_reserved":false,"is_disabled":false,"rental_uris":{"android":"levelo://app?vid=f5390ef6-f6cd-49bb-926e-4e7e11289da5","ios":"levelo://app?vid=f5390ef6-f6cd-49bb-926e-4e7e11289da5"},"vehicle_type_id":"4","last_reported":1768950704,"current_range_meters":3200,"station_id":"ce4bhch2rcd13ifvqeug","pricing_plan_id":"cebpf4jnsgd1na2vs0mg"},{"bike_id":"39f8701c-e833-441f-a3c6-72bb2592cd32","system_id":"levelo_inurba_marseille","lat":43.255591,"lon":5.393919,"is_reserved":false,"is_disabled":false,"rental_uris":{"android":"levelo://app?vid=39f8701c-e833-441f-a3c6-72bb2592cd32","ios":"levelo://app?vid=39f8701c-e833-441f-a3c6-72bb2592cd32"},"vehicle_type_id":"4","last_reported":1768950704,"current_range_meters":3200,"station_id":"","pricing_plan_id":"cebpf4jnsgd1na2vs0mg"},{"bike_id":"35b31be3-7fa9-48d0-aa3a-c3bf7b2ca4e9","system_id":"levelo_inurba_marseille","lat":43.2464,"lon":5.43142,"is_reserved":false,"is_disabled":false,"rental_uris":{"android":"levelo://app?vid=35b31be3-7fa9-48d0-aa3a-c3bf7b2ca4e9","ios":"levelo://app?vid=35b31be3-7fa9-48d0-aa3a-c3bf7b2ca4e9"},"vehicle_type_id":"4","last_reported":1768950704,"current_range_meters":3200,"station_id":"st_d2m6c4gdas8pm72e190g","pricing_plan_id":"cebpf4jnsgd1na2vs0mg"},{"bike_id":"93946e39-f836-4539-8393-b48df30f1dfa","system_id":"levelo_inurba_marseille","lat":43.26063,"lon":5.39395,"is_reserved":false,"is_disabled":false,"rental_uris":{"android":"levelo://app?vid=93946e39-f836-4539-8393-b48df30f1dfa","ios":"levelo://app?vid=93946e39-f836-4539-8393-b48df30f1dfa"},"vehicle_type_id":"4","last_reported":1768950704,"current_range_meters":3200,"station_id":"ce4bhh92rcd13ifvqfj0","pricing_plan_id":"cebpf4jnsgd1na2vs0mg"},{"bike_id":"b7ecad1d-9047-4c0a-aa25-09d542345177","system_id":"levelo_inurba_marseille","lat":43.2897,"lon":5.36624,"is_reserved":false,"is_disabled":false,"rental_uris":{"android":"levelo://app?vid=b7ecad1d-9047-4c0a-aa25-09d542345177","ios":"levelo://app?vid=b7ecad1d-9047-4c0a-aa25-09d542345177"},"vehicle_type_id":"4","last_reported":1768950704,"current_range_meters":3200,"station_id":"ce4bhap2rcd13ifvqek0","pricing_plan_id":"cebpf4jnsgd1na2vs0mg"},{"bike_id":"aaff8d94-1fa8-4cba-bdbc-2775e2b840f4","system_id":"levelo_inurba_marseille","lat":43.30926,"lon":5.38034,"is_reserved":false,"is_disabled":false,"rental_uris":{"android":"levelo://app?vid=aaff8d94-1fa8-4cba-bdbc-2775e2b840f4","ios":"levelo://app?vid=aaff8d94-1fa8-4cba-bdbc-2775e2b840f4"},"vehicle_type_id":"4","last_reported":1768950704,"current_range_meters":3200,"station_id":"","pricing_plan_id":"cebpf4jnsgd1na2vs0mg"},{"bike_id":"98ff63cd-bf12-49ec-ac98-f58ed6b5e7bc","system_id":"levelo_inurba_marseille","lat":43.31745,"lon":5.39006,"is_reserved":false,"is_disabled":false,"rental_uris":{"android":"levelo://app?vid=98ff63cd-bf12-49ec-ac98-f58ed6b5e7bc","ios":"levelo://app?vid=98ff63cd-bf12-49ec-ac98-f58ed6b5e7bc"},"vehicle_type_id":"4","last_reported":1768950704,"current_range_meters":3200,"station_id":"ce4bhqp2rcd13ifvqhng","pricing_plan_id":"cebpf4jnsgd1na2vs0mg"},{"bike_id":"75b1d217-fd4b-4e5f-9a0a-f1e06ce176e6","system_id":"levelo_inurba_marseille","lat":43.29357,"lon":5.37838,"is_reserved":false,"is_disabled":true,"rental_uris":{"android":"levelo://app?vid=75b1d217-fd4b-4e5f-9a0a-f1e06ce176e6","ios":"levelo://app?vid=75b1d217-fd4b-4e5f-9a0a-f1e06ce176e6"},"vehicle_type_id":"4","last_reported":1768950704,"current_range_meters":3200,"station_id":"ce4bgjh2rcd13ifvqbf0","pricing_plan_id":"cebpf4jnsgd1na2vs0mg"},{"bike_id":"b21b44f8-4c6f-4a05-9672-edea0dda7bcc","system_id":"levelo_inurba_marseille","lat":43.29878,"lon":5.38911,"is_reserved":false,"is_disabled":false,"rental_uris":{"android":"levelo://app?vid=b21b44f8-4c6f-4a05-9672-edea0dda7bcc","ios":"levelo://app?vid=b21b44f8-4c6f-4a05-9672-edea0dda7bcc"},"vehicle_type_id":"4","last_reported":1768950704,"current_range_meters":3200,"station_id":"ce4bh392rcd13ifvqdl0","pricing_plan_id":"cebpf4jnsgd1na2vs0mg"},{"bike_id":"d1b1cf6a-870f-4034-b895-5100ce4a3332","system_id":"levelo_inurba_marseille","lat":43.29571,"lon":5.42277,"is_reserved":false,"is_disabled":false,"rental_uris":{"android":"levelo://app?vid=d1b1cf6a-870f-4034-b895-5100ce4a3332","ios":"levelo://app?vid=d1b1cf6a-870f-4034-b895-5100ce4a3332"},"vehicle_type_id":"4","last_reported":1768950704,"current_range_meters":3600,"station_id":"ce4bhph2rcd13ifvqhdg","pricing_plan_id":"cebpf4jnsgd1na2vs0mg"},{"bike_id":"97096676-429c-4f07-9652-1523f48f5442","system_id":"levelo_inurba_marseille","lat":43.30266,"lon":5.43429,"is_reserved":false,"is_disabled":false,"rental_uris":{"android":"levelo://app?vid=97096676-429c-4f07-9652-1523f48f5442","ios":"levelo://app?vid=97096676-429c-4f07-9652-1523f48f5442"},"vehicle_type_id":"4","last_reported":1768950704,"current_range_meters":3600,"station_id":"","pricing_plan_id":"cebpf4jnsgd1na2vs0mg"},{"bike_id":"71f5f9d3-d12c-4875-a53f-638c3e9edc06","system_id":"levelo_inurba_marseille","lat":43.28846,"lon":5.35853,"is_reserved":false,"is_disabled":false,"rental_uris":{"android":"levelo://app?vid=71f5f9d3-d12c-4875-a53f-638c3e9edc06","ios":"levelo://app?vid=71f5f9d3-d12c-4875-a53f-638c3e9edc06"},"vehicle_type_id":"4","last_reported":1768950704,"current_range_meters":3600,"station_id":"ce4bhb12rcd13ifvqem0","pricing_plan_id":"cebpf4jnsgd1na2vs0mg"},{"bike_id":"cc08d2b6-69fb-4c32-9f0f-91f88c556b74","system_id":"levelo_inurba_marseille","lat":43.22932,"lon":5.35381,"is_reserved":false,"is_disabled":false,"rental_uris":{"android":"levelo://app?vid=cc08d2b6-69fb-4c32-9f0f-91f88c556b74","ios":"levelo://app?vid=cc08d2b6-69fb-4c32-9f0f-91f88c556b74"},"vehicle_type_id":"4","last_reported":1768950704,"current_range_meters":3600,"station_id":"cpo3532slgdg3j2ikp40","pricing_plan_id":"cebpf4jnsgd1na2vs0mg"},{"bike_id":"da4ba191-aa3f-4a93-9e00-6c267ac9bcd8","system_id":"levelo_inurba_marseille","lat":43.29521,"lon":5.38558,"is_reserved":false,"is_disabled":false,"rental_uris":{"android":"levelo://app?vid=da4ba191-aa3f-4a93-9e00-6c267ac9bcd8","ios":"levelo://app?vid=da4ba191-aa3f-4a93-9e00-6c267ac9bcd8"},"vehicle_type_id":"4","last_reported":1768950704,"current_range_meters":4000,"station_id":"ce4bgih2rcd13ifvqba0","pricing_plan_id":"cebpf4jnsgd1na2vs0mg"},{"bike_id":"6e7007a4-50a4-410a-b7bd-d0ebb7830797","system_id":"levelo_inurba_marseille","lat":43.24182,"lon":5.39726,"is_reserved":false,"is_disabled":false,"rental_uris":{"android":"levelo://app?vid=6e7007a4-50a4-410a-b7bd-d0ebb7830797","ios":"levelo://app?vid=6e7007a4-50a4-410a-b7bd-d0ebb7830797"},"vehicle_type_id":"4","last_reported":1768950704,"current_range_meters":4000,"station_id":"ce4bhn12rcd13ifvqgpg","pricing_plan_id":"cebpf4jnsgd1na2vs0mg"},{"bike_id":"826aeb2d-9384-4062-9da4-ff770f5b59dd","system_id":"levelo_inurba_marseille","lat":43.26078,"lon":5.39398,"is_reserved":false,"is_disabled":false,"rental_uris":{"android":"levelo://app?vid=826aeb2d-9384-4062-9da4-ff770f5b59dd","ios":"levelo://app?vid=826aeb2d-9384-4062-9da4-ff770f5b59dd"},"vehicle_type_id":"4","last_reported":1768950704,"current_range_meters":4000,"station_id":"ce4bhh92rcd13ifvqfj0","pricing_plan_id":"cebpf4jnsgd1na2vs0mg"},{"bike_id":"9cff5037-b95f-4160-aed4-0c6a74c5919b","system_id":"levelo_inurba_marseille","lat":43.2848,"lon":5.48392,"is_reserved":false,"is_disabled":false,"rental_uris":{"android":"levelo://app?vid=9cff5037-b95f-4160-aed4-0c6a74c5919b","ios":"levelo://app?vid=9cff5037-b95f-4160-aed4-0c6a74c5919b"},"vehicle_type_id":"4","last_reported":1768950704,"current_range_meters":4000,"station_id":"","pricing_plan_id":"cebpf4jnsgd1na2vs0mg"},{"bike_id":"f650aff8-e742-48ca-8e77-f4fd3b3eebb9","system_id":"levelo_inurba_marseille","lat":43.26867,"lon":5.39579,"is_reserved":false,"is_disabled":false,"rental_uris":{"android":"levelo://app?vid=f650aff8-e742-48ca-8e77-f4fd3b3eebb9","ios":"levelo://app?vid=f650aff8-e742-48ca-8e77-f4fd3b3eebb9"},"vehicle_type_id":"4","last_reported":1768950704,"current_range_meters":4000,"station_id":"","pricing_plan_id":"cebpf4jnsgd1na2vs0mg"},{"bike_id":"efa38cb7-a84d-49d1-a1ea-367fe8bf17b7","system_id":"levelo_inurba_marseille","lat":43.30306,"lon":5.36893,"is_reserved":false,"is_disabled":false,"rental_uris":{"android":"levelo://app?vid=efa38cb7-a84d-49d1-a1ea-367fe8bf17b7","ios":"levelo://app?vid=efa38cb7-a84d-49d1-a1ea-367fe8bf17b7"},"vehicle_type_id":"4","last_reported":1768950704,"current_range_meters":4000,"station_id":"ce4bgqh2rcd13ifvqc5g","pricing_plan_id":"cebpf4jnsgd1na2vs0mg"},{"bike_id":"05f5999c-a5fe-48d4-b4fa-91bfb4653513","system_id":"levelo_inurba_marseille","lat":43.28469,"lon":5.35931,"is_reserved":false,"is_disabled":false,"rental_uris":{"android":"levelo://app?vid=05f5999c-a5fe-48d4-b4fa-91bfb4653513","ios":"levelo://app?vid=05f5999c-a5fe-48d4-b4fa-91bfb4653513"},"vehicle_type_id":"4","last_reported":1768950704,"current_range_meters":4000,"station_id":"","pricing_plan_id":"cebpf4jnsgd1na2vs0mg"},{"bike_id":"dc7f2cde-f394-4ae1-b0e4-a51d66aa1255","system_id":"levelo_inurba_marseille","lat":43.281488,"lon":5.431493,"is_reserved":false,"is_disabled":false,"rental_uris":{"android":"levelo://app?vid=dc7f2cde-f394-4ae1-b0e4-a51d66aa1255","ios":"levelo://app?vid=dc7f2cde-f394-4ae1-b0e4-a51d66aa1255"},"vehicle_type_id":"4","last_reported":1768950704,"current_range_meters":4000,"station_id":"","pricing_plan_id":"cebpf4jnsgd1na2vs0mg"},{"bike_id":"d1656b93-1b71-4e85-bf98-22a1e92bb468","system_id":"levelo_inurba_marseille","lat":43.28875,"lon":5.42511,"is_reserved":false,"is_disabled":false,"rental_uris":{"android":"levelo://app?vid=d1656b93-1b71-4e85-bf98-22a1e92bb468","ios":"levelo://app?vid=d1656b93-1b71-4e85-bf98-22a1e92bb468"},"vehicle_type_id":"4","last_reported":1768950704,"current_range_meters":4000,"station_id":"st_d3b462108ojc7389ooeg","pricing_plan_id":"cebpf4jnsgd1na2vs0mg"},{"bike_id":"289e0ef8-6b25-4e39-ba05-42b311ef3c9b","system_id":"levelo_inurba_marseille","lat":43.29093,"lon":5.37197,"is_reserved":false,"is_disabled":false,"rental_uris":{"android":"levelo://app?vid=289e0ef8-6b25-4e39-ba05-42b311ef3c9b","ios":"levelo://app?vid=289e0ef8-6b25-4e39-ba05-42b311ef3c9b"},"vehicle_type_id":"4","last_reported":1768950704,"current_range_meters":4000,"station_id":"ce4bh5p2rcd13ifvqe4g","pricing_plan_id":"cebpf4jnsgd1na2vs0mg"},{"bike_id":"e7af6d86-d5bc-4827-896f-9c8c0b614bd7","system_id":"levelo_inurba_marseille","lat":43.29257,"lon":5.38439,"is_reserved":false,"is_disabled":false,"rental_uris":{"android":"levelo://app?vid=e7af6d86-d5bc-4827-896f-9c8c0b614bd7","ios":"levelo://app?vid=e7af6d86-d5bc-4827-896f-9c8c0b614bd7"},"vehicle_type_id":"4","last_reported":1768950704,"current_range_meters":4400,"station_id":"ce4bh692rcd13ifvqea0","pricing_plan_id":"cebpf4jnsgd1na2vs0mg"},{"bike_id":"9a6fa9d6-bd85-41a0-a1be-8f3bc0337c0a","system_id":"levelo_inurba_marseille","lat":43.24472,"lon":5.42548,"is_reserved":false,"is_disabled":false,"rental_uris":{"android":"levelo://app?vid=9a6fa9d6-bd85-41a0-a1be-8f3bc0337c0a","ios":"levelo://app?vid=9a6fa9d6-bd85-41a0-a1be-8f3bc0337c0a"},"vehicle_type_id":"4","last_reported":1768950704,"current_range_meters":4400,"station_id":"st_d4a3vfp97mjs738cd8kg","pricing_plan_id":"cebpf4jnsgd1na2vs0mg"},{"bike_id":"559d694f-c798-4c2d-9960-32d42b032eab","system_id":"levelo_inurba_marseille","lat":43.28928,"lon":5.38402,"is_reserved":false,"is_disabled":false,"rental_uris":{"android":"levelo://app?vid=559d694f-c798-4c2d-9960-32d42b032eab","ios":"levelo://app?vid=559d694f-c798-4c2d-9960-32d42b032eab"},"vehicle_type_id":"4","last_reported":1768950704,"current_range_meters":4400,"station_id":"ce4bh612rcd13ifvqe6g","pricing_plan_id":"cebpf4jnsgd1na2vs0mg"},{"bike_id":"08d06533-7e69-494b-baa0-ef8c87d0e710","system_id":"levelo_inurba_marseille","lat":43.28727,"lon":5.36092,"is_reserved":false,"is_disabled":false,"rental_uris":{"android":"levelo://app?vid=08d06533-7e69-494b-baa0-ef8c87d0e710","ios":"levelo://app?vid=08d06533-7e69-494b-baa0-ef8c87d0e710"},"vehicle_type_id":"4","last_reported":1768950704,"current_range_meters":4400,"station_id":"cki0cbj6b192h4jlfktg","pricing_plan_id":"cebpf4jnsgd1na2vs0mg"},{"bike_id":"e57f9e2d-9007-4134-9ff1-9cc50a5ad7a1","system_id":"levelo_inurba_marseille","lat":43.30167,"lon":5.37391,"is_reserved":false,"is_disabled":false,"rental_uris":{"android":"levelo://app?vid=e57f9e2d-9007-4134-9ff1-9cc50a5ad7a1","ios":"levelo://app?vid=e57f9e2d-9007-4134-9ff1-9cc50a5ad7a1"},"vehicle_type_id":"4","last_reported":1768950704,"current_range_meters":4400,"station_id":"ce4bgs92rcd13ifvqcc0","pricing_plan_id":"cebpf4jnsgd1na2vs0mg"},{"bike_id":"e1a94992-82c5-4a6f-b35e-2ede9fbc9a60","system_id":"levelo_inurba_marseille","lat":43.29506,"lon":5.39405,"is_reserved":false,"is_disabled":false,"rental_uris":{"android":"levelo://app?vid=e1a94992-82c5-4a6f-b35e-2ede9fbc9a60","ios":"levelo://app?vid=e1a94992-82c5-4a6f-b35e-2ede9fbc9a60"},"vehicle_type_id":"4","last_reported":1768950704,"current_range_meters":4400,"station_id":"ce4bh292rcd13ifvqdf0","pricing_plan_id":"cebpf4jnsgd1na2vs0mg"},{"bike_id":"a27994f3-c388-4372-a8e3-14dffa5f3b65","system_id":"levelo_inurba_marseille","lat":43.24821,"lon":5.37485,"is_reserved":false,"is_disabled":false,"rental_uris":{"android":"levelo://app?vid=a27994f3-c388-4372-a8e3-14dffa5f3b65","ios":"levelo://app?vid=a27994f3-c388-4372-a8e3-14dffa5f3b65"},"vehicle_type_id":"4","last_reported":1768950704,"current_range_meters":4400,"station_id":"ce4bhgh2rcd13ifvqfb0","pricing_plan_id":"cebpf4jnsgd1na2vs0mg"},{"bike_id":"fb16e469-5eda-4825-86f2-0fc1217a2094","system_id":"levelo_inurba_marseille","lat":43.284233,"lon":5.375138,"is_reserved":false,"is_disabled":false,"rental_uris":{"android":"levelo://app?vid=fb16e469-5eda-4825-86f2-0fc1217a2094","ios":"levelo://app?vid=fb16e469-5eda-4825-86f2-0fc1217a2094"},"vehicle_type_id":"4","last_reported":1768950704,"current_range_meters":4400,"station_id":"ce4bh412rcd13ifvqds0","pricing_plan_id":"cebpf4jnsgd1na2vs0mg"},{"bike_id":"470d11ff-6533-496b-9b42-604d9a3c30ea","system_id":"levelo_inurba_marseille","lat":43.31571,"lon":5.36878,"is_reserved":false,"is_disabled":false,"rental_uris":{"android":"levelo://app?vid=470d11ff-6533-496b-9b42-604d9a3c30ea","ios":"levelo://app?vid=470d11ff-6533-496b-9b42-604d9a3c30ea"},"vehicle_type_id":"4","last_reported":1768950704,"current_range_meters":4400,"station_id":"","pricing_plan_id":"cebpf4jnsgd1na2vs0mg"},{"bike_id":"e78b97f2-d725-4116-8ab4-d859199317f5","system_id":"levelo_inurba_marseille","lat":43.28683,"lon":5.38665,"is_reserved":false,"is_disabled":false,"rental_uris":{"android":"levelo://app?vid=e78b97f2-d725-4116-8ab4-d859199317f5","ios":"levelo://app?vid=e78b97f2-d725-4116-8ab4-d859199317f5"},"vehicle_type_id":"4","last_reported":1768950704,"current_range_meters":4400,"station_id":"ce4bh492rcd13ifvqdug","pricing_plan_id":"cebpf4jnsgd1na2vs0mg"},{"bike_id":"c19f1c0d-1d29-440c-b073-294df149db54","system_id":"levelo_inurba_marseille","lat":43.31279,"lon":5.40161,"is_reserved":false,"is_disabled":false,"rental_uris":{"android":"levelo://app?vid=c19f1c0d-1d29-440c-b073-294df149db54","ios":"levelo://app?vid=c19f1c0d-1d29-440c-b073-294df149db54"},"vehicle_type_id":"4","last_reported":1768950704,"current_range_meters":4800,"station_id":"ce4bh092rcd13ifvqd30","pricing_plan_id":"cebpf4jnsgd1na2vs0mg"},{"bike_id":"84169636-b7d0-4f4e-9d3b-d547d59ccce5","system_id":"levelo_inurba_marseille","lat":43.2533,"lon":5.42188,"is_reserved":false,"is_disabled":false,"rental_uris":{"android":"levelo://app?vid=84169636-b7d0-4f4e-9d3b-d547d59ccce5","ios":"levelo://app?vid=84169636-b7d0-4f4e-9d3b-d547d59ccce5"},"vehicle_type_id":"4","last_reported":1768950704,"current_range_meters":4800,"station_id":"st_d2m65c5bi1j21697t3ng","pricing_plan_id":"cebpf4jnsgd1na2vs0mg"},{"bike_id":"2351e1c9-97c0-42ed-8ba7-93d168c64106","system_id":"levelo_inurba_marseille","lat":43.29765,"lon":5.42778,"is_reserved":false,"is_disabled":false,"rental_uris":{"android":"levelo://app?vid=2351e1c9-97c0-42ed-8ba7-93d168c64106","ios":"levelo://app?vid=2351e1c9-97c0-42ed-8ba7-93d168c64106"},"vehicle_type_id":"4","last_reported":1768950704,"current_range_meters":4800,"station_id":"st_d3md5207bmas73dh9klg","pricing_plan_id":"cebpf4jnsgd1na2vs0mg"},{"bike_id":"47684f64-b8f8-4441-8380-35d0bfc7b1f1","system_id":"levelo_inurba_marseille","lat":43.28687,"lon":5.38693,"is_reserved":false,"is_disabled":false,"rental_uris":{"android":"levelo://app?vid=47684f64-b8f8-4441-8380-35d0bfc7b1f1","ios":"levelo://app?vid=47684f64-b8f8-4441-8380-35d0bfc7b1f1"},"vehicle_type_id":"4","last_reported":1768950704,"current_range_meters":4800,"station_id":"ce4bh492rcd13ifvqdug","pricing_plan_id":"cebpf4jnsgd1na2vs0mg"},{"bike_id":"bfb694c2-c241-4914-b039-20bfb4e08f18","system_id":"levelo_inurba_marseille","lat":43.319977,"lon":5.381593,"is_reserved":false,"is_disabled":false,"rental_uris":{"android":"levelo://app?vid=bfb694c2-c241-4914-b039-20bfb4e08f18","ios":"levelo://app?vid=bfb694c2-c241-4914-b039-20bfb4e08f18"},"vehicle_type_id":"4","last_reported":1768950704,"current_range_meters":4800,"station_id":"ce4bhr12rcd13ifvqhpg","pricing_plan_id":"cebpf4jnsgd1na2vs0mg"},{"bike_id":"e3caaaee-f8d9-44b6-b3d8-e04b5e8c88ba","system_id":"levelo_inurba_marseille","lat":43.27812,"lon":5.40714,"is_reserved":false,"is_disabled":false,"rental_uris":{"android":"levelo://app?vid=e3caaaee-f8d9-44b6-b3d8-e04b5e8c88ba","ios":"levelo://app?vid=e3caaaee-f8d9-44b6-b3d8-e04b5e8c88ba"},"vehicle_type_id":"4","last_reported":1768950704,"current_range_meters":4800,"station_id":"ce4bhnh2rcd13ifvqgtg","pricing_plan_id":"cebpf4jnsgd1na2vs0mg"},{"bike_id":"a686f7d8-a0e3-46f1-bb2f-55988476bcfb","system_id":"levelo_inurba_marseille","lat":43.2667,"lon":5.38283,"is_reserved":false,"is_disabled":false,"rental_uris":{"android":"levelo://app?vid=a686f7d8-a0e3-46f1-bb2f-55988476bcfb","ios":"levelo://app?vid=a686f7d8-a0e3-46f1-bb2f-55988476bcfb"},"vehicle_type_id":"4","last_reported":1768950704,"current_range_meters":4800,"station_id":"ce4bhg92rcd13ifvqf90","pricing_plan_id":"cebpf4jnsgd1na2vs0mg"},{"bike_id":"544ad0c6-321a-4014-a5c3-ffb32ae71cca","system_id":"levelo_inurba_marseille","lat":43.2848,"lon":5.48391,"is_reserved":false,"is_disabled":false,"rental_uris":{"android":"levelo://app?vid=544ad0c6-321a-4014-a5c3-ffb32ae71cca","ios":"levelo://app?vid=544ad0c6-321a-4014-a5c3-ffb32ae71cca"},"vehicle_type_id":"4","last_reported":1768950704,"current_range_meters":4800,"station_id":"","pricing_plan_id":"cebpf4jnsgd1na2vs0mg"},{"bike_id":"dabf3ee1-2449-4ba8-acc4-12ab6fe60261","system_id":"levelo_inurba_marseille","lat":43.288613,"lon":5.358677,"is_reserved":false,"is_disabled":false,"rental_uris":{"android":"levelo://app?vid=dabf3ee1-2449-4ba8-acc4-12ab6fe60261","ios":"levelo://app?vid=dabf3ee1-2449-4ba8-acc4-12ab6fe60261"},"vehicle_type_id":"4","last_reported":1768950704,"current_range_meters":4800,"station_id":"ce4bhb12rcd13ifvqem0","pricing_plan_id":"cebpf4jnsgd1na2vs0mg"},{"bike_id":"5c9b65ae-ebab-4811-9272-2d375c37396e","system_id":"levelo_inurba_marseille","lat":43.284606,"lon":5.358893,"is_reserved":false,"is_disabled":false,"rental_uris":{"android":"levelo://app?vid=5c9b65ae-ebab-4811-9272-2d375c37396e","ios":"levelo://app?vid=5c9b65ae-ebab-4811-9272-2d375c37396e"},"vehicle_type_id":"4","last_reported":1768950704,"current_range_meters":4800,"station_id":"ce4bhah2rcd13ifvqei0","pricing_plan_id":"cebpf4jnsgd1na2vs0mg"},{"bike_id":"00c927a1-d08e-4450-95b2-0ac1a58c0a42","system_id":"levelo_inurba_marseille","lat":43.29705,"lon":5.36583,"is_reserved":false,"is_disabled":true,"rental_uris":{"android":"levelo://app?vid=00c927a1-d08e-4450-95b2-0ac1a58c0a42","ios":"levelo://app?vid=00c927a1-d08e-4450-95b2-0ac1a58c0a42"},"vehicle_type_id":"4","last_reported":1768950704,"current_range_meters":5600,"station_id":"ce4bgn12rcd13ifvqbt0","pricing_plan_id":"cebpf4jnsgd1na2vs0mg"},{"bike_id":"91b2f471-549d-4961-a0aa-79b3fd031109","system_id":"levelo_inurba_marseille","lat":43.23792,"lon":5.36634,"is_reserved":false,"is_disabled":false,"rental_uris":{"android":"levelo://app?vid=91b2f471-549d-4961-a0aa-79b3fd031109","ios":"levelo://app?vid=91b2f471-549d-4961-a0aa-79b3fd031109"},"vehicle_type_id":"4","last_reported":1768950704,"current_range_meters":5600,"station_id":"st_d3nk18o9ro0c73en2l3g","pricing_plan_id":"cebpf4jnsgd1na2vs0mg"},{"bike_id":"40e2667e-f23a-4ded-8ddb-fef4d5eb0dfe","system_id":"levelo_inurba_marseille","lat":43.25516,"lon":5.37644,"is_reserved":false,"is_disabled":false,"rental_uris":{"android":"levelo://app?vid=40e2667e-f23a-4ded-8ddb-fef4d5eb0dfe","ios":"levelo://app?vid=40e2667e-f23a-4ded-8ddb-fef4d5eb0dfe"},"vehicle_type_id":"4","last_reported":1768950704,"current_range_meters":5600,"station_id":"ce4bhh12rcd13ifvqff0","pricing_plan_id":"cebpf4jnsgd1na2vs0mg"},{"bike_id":"2728745a-1ced-4928-a3c6-298843f56e92","system_id":"levelo_inurba_marseille","lat":43.258679,"lon":5.398953,"is_reserved":false,"is_disabled":false,"rental_uris":{"android":"levelo://app?vid=2728745a-1ced-4928-a3c6-298843f56e92","ios":"levelo://app?vid=2728745a-1ced-4928-a3c6-298843f56e92"},"vehicle_type_id":"4","last_reported":1768950704,"current_range_meters":5600,"station_id":"ce4bhl92rcd13ifvqghg","pricing_plan_id":"cebpf4jnsgd1na2vs0mg"},{"bike_id":"6c3a5c15-7423-4a25-87ba-05f3c8d2d87e","system_id":"levelo_inurba_marseille","lat":43.32366,"lon":5.36739,"is_reserved":false,"is_disabled":false,"rental_uris":{"android":"levelo://app?vid=6c3a5c15-7423-4a25-87ba-05f3c8d2d87e","ios":"levelo://app?vid=6c3a5c15-7423-4a25-87ba-05f3c8d2d87e"},"vehicle_type_id":"4","last_reported":1768950704,"current_range_meters":5600,"station_id":"ce4bhsh2rcd13ifvqi2g","pricing_plan_id":"cebpf4jnsgd1na2vs0mg"},{"bike_id":"d398bbee-580e-4669-a6c1-1a6f4f542e54","system_id":"levelo_inurba_marseille","lat":43.2963,"lon":5.37166,"is_reserved":false,"is_disabled":false,"rental_uris":{"android":"levelo://app?vid=d398bbee-580e-4669-a6c1-1a6f4f542e54","ios":"levelo://app?vid=d398bbee-580e-4669-a6c1-1a6f4f542e54"},"vehicle_type_id":"4","last_reported":1768950704,"current_range_meters":5600,"station_id":"ce4bgnh2rcd13ifvqc0g","pricing_plan_id":"cebpf4jnsgd1na2vs0mg"},{"bike_id":"e687b696-670a-4e73-b438-76a5d4aecf9d","system_id":"levelo_inurba_marseille","lat":43.30613,"lon":5.37219,"is_reserved":false,"is_disabled":false,"rental_uris":{"android":"levelo://app?vid=e687b696-670a-4e73-b438-76a5d4aecf9d","ios":"levelo://app?vid=e687b696-670a-4e73-b438-76a5d4aecf9d"},"vehicle_type_id":"4","last_reported":1768950704,"current_range_meters":5600,"station_id":"ce4bgqh2rcd13ifvqc4g","pricing_plan_id":"cebpf4jnsgd1na2vs0mg"},{"bike_id":"c90f8d49-c464-4abb-b50f-a6f2833250ba","system_id":"levelo_inurba_marseille","lat":43.26054,"lon":5.39409,"is_reserved":false,"is_disabled":false,"rental_uris":{"android":"levelo://app?vid=c90f8d49-c464-4abb-b50f-a6f2833250ba","ios":"levelo://app?vid=c90f8d49-c464-4abb-b50f-a6f2833250ba"},"vehicle_type_id":"4","last_reported":1768950704,"current_range_meters":6000,"station_id":"ce4bhh92rcd13ifvqfj0","pricing_plan_id":"cebpf4jnsgd1na2vs0mg"},{"bike_id":"31c3d152-9166-4755-bec0-131c7c9e5ee3","system_id":"levelo_inurba_marseille","lat":43.26813,"lon":5.40262,"is_reserved":false,"is_disabled":false,"rental_uris":{"android":"levelo://app?vid=31c3d152-9166-4755-bec0-131c7c9e5ee3","ios":"levelo://app?vid=31c3d152-9166-4755-bec0-131c7c9e5ee3"},"vehicle_type_id":"4","last_reported":1768950704,"current_range_meters":6000,"station_id":"ce501612rcd8frsf0b60","pricing_plan_id":"cebpf4jnsgd1na2vs0mg"},{"bike_id":"4ca32394-f8f1-4623-8df9-31249aca63fc","system_id":"levelo_inurba_marseille","lat":43.23184,"lon":5.39999,"is_reserved":false,"is_disabled":false,"rental_uris":{"android":"levelo://app?vid=4ca32394-f8f1-4623-8df9-31249aca63fc","ios":"levelo://app?vid=4ca32394-f8f1-4623-8df9-31249aca63fc"},"vehicle_type_id":"4","last_reported":1768950704,"current_range_meters":6000,"station_id":"ce4bhn12rcd13ifvqgqg","pricing_plan_id":"cebpf4jnsgd1na2vs0mg"},{"bike_id":"1d2448d1-e87c-4db8-a6b9-e964479843be","system_id":"levelo_inurba_marseille","lat":43.2968,"lon":5.37677,"is_reserved":false,"is_disabled":false,"rental_uris":{"android":"levelo://app?vid=1d2448d1-e87c-4db8-a6b9-e964479843be","ios":"levelo://app?vid=1d2448d1-e87c-4db8-a6b9-e964479843be"},"vehicle_type_id":"4","last_reported":1768950704,"current_range_meters":6000,"station_id":"ce4bgkh2rcd13ifvqbl0","pricing_plan_id":"cebpf4jnsgd1na2vs0mg"},{"bike_id":"fbbedfeb-5767-4a40-9eeb-fb558ba05242","system_id":"levelo_inurba_marseille","lat":43.24998,"lon":5.38925,"is_reserved":false,"is_disabled":false,"rental_uris":{"android":"levelo://app?vid=fbbedfeb-5767-4a40-9eeb-fb558ba05242","ios":"levelo://app?vid=fbbedfeb-5767-4a40-9eeb-fb558ba05242"},"vehicle_type_id":"4","last_reported":1768950704,"current_range_meters":6000,"station_id":"ce4bhgp2rcd13ifvqfd0","pricing_plan_id":"cebpf4jnsgd1na2vs0mg"},{"bike_id":"4d9fb050-4361-4bab-ba3c-960b4264587c","system_id":"levelo_inurba_marseille","lat":43.330565,"lon":5.390619,"is_reserved":false,"is_disabled":false,"rental_uris":{"android":"levelo://app?vid=4d9fb050-4361-4bab-ba3c-960b4264587c","ios":"levelo://app?vid=4d9fb050-4361-4bab-ba3c-960b4264587c"},"vehicle_type_id":"4","last_reported":1768950704,"current_range_meters":6000,"station_id":"","pricing_plan_id":"cebpf4jnsgd1na2vs0mg"},{"bike_id":"95e73064-8526-4285-a55a-6a68055eafcc","system_id":"levelo_inurba_marseille","lat":43.284208,"lon":5.375064,"is_reserved":false,"is_disabled":true,"rental_uris":{"android":"levelo://app?vid=95e73064-8526-4285-a55a-6a68055eafcc","ios":"levelo://app?vid=95e73064-8526-4285-a55a-6a68055eafcc"},"vehicle_type_id":"4","last_reported":1768950704,"current_range_meters":6000,"station_id":"ce4bh412rcd13ifvqds0","pricing_plan_id":"cebpf4jnsgd1na2vs0mg"},{"bike_id":"7039b1b0-950e-410b-bfa5-a8c237d03f28","system_id":"levelo_inurba_marseille","lat":43.24073,"lon":5.37764,"is_reserved":false,"is_disabled":false,"rental_uris":{"android":"levelo://app?vid=7039b1b0-950e-410b-bfa5-a8c237d03f28","ios":"levelo://app?vid=7039b1b0-950e-410b-bfa5-a8c237d03f28"},"vehicle_type_id":"4","last_reported":1768950704,"current_range_meters":6000,"station_id":"ce4bhnp2rcd13ifvqgvg","pricing_plan_id":"cebpf4jnsgd1na2vs0mg"},{"bike_id":"e77b3299-de84-4fb7-9531-5be6298a55fe","system_id":"levelo_inurba_marseille","lat":43.25005,"lon":5.38954,"is_reserved":false,"is_disabled":false,"rental_uris":{"android":"levelo://app?vid=e77b3299-de84-4fb7-9531-5be6298a55fe","ios":"levelo://app?vid=e77b3299-de84-4fb7-9531-5be6298a55fe"},"vehicle_type_id":"4","last_reported":1768950704,"current_range_meters":6000,"station_id":"ce4bhgp2rcd13ifvqfd0","pricing_plan_id":"cebpf4jnsgd1na2vs0mg"},{"bike_id":"ce65da15-5103-4c08-86e5-b4783ea2b238","system_id":"levelo_inurba_marseille","lat":43.29313,"lon":5.37181,"is_reserved":false,"is_disabled":false,"rental_uris":{"android":"levelo://app?vid=ce65da15-5103-4c08-86e5-b4783ea2b238","ios":"levelo://app?vid=ce65da15-5103-4c08-86e5-b4783ea2b238"},"vehicle_type_id":"4","last_reported":1768950704,"current_range_meters":6000,"station_id":"ce4bgh92rcd13ifvqb40","pricing_plan_id":"cebpf4jnsgd1na2vs0mg"},{"bike_id":"5d6ec190-4e3f-4728-8145-239caf53150f","system_id":"levelo_inurba_marseille","lat":43.30678,"lon":5.4028,"is_reserved":false,"is_disabled":false,"rental_uris":{"android":"levelo://app?vid=5d6ec190-4e3f-4728-8145-239caf53150f","ios":"levelo://app?vid=5d6ec190-4e3f-4728-8145-239caf53150f"},"vehicle_type_id":"4","last_reported":1768950704,"current_range_meters":6000,"station_id":"","pricing_plan_id":"cebpf4jnsgd1na2vs0mg"},{"bike_id":"8a83b555-456d-4d0f-9f0b-46c4fec20bd5","system_id":"levelo_inurba_marseille","lat":43.25335,"lon":5.4217,"is_reserved":false,"is_disabled":false,"rental_uris":{"android":"levelo://app?vid=8a83b555-456d-4d0f-9f0b-46c4fec20bd5","ios":"levelo://app?vid=8a83b555-456d-4d0f-9f0b-46c4fec20bd5"},"vehicle_type_id":"4","last_reported":1768950704,"current_range_meters":6400,"station_id":"st_d2m65c5bi1j21697t3ng","pricing_plan_id":"cebpf4jnsgd1na2vs0mg"},{"bike_id":"350a79a1-2120-443a-849c-814a0e198d1b","system_id":"levelo_inurba_marseille","lat":43.25505,"lon":5.37658,"is_reserved":false,"is_disabled":false,"rental_uris":{"android":"levelo://app?vid=350a79a1-2120-443a-849c-814a0e198d1b","ios":"levelo://app?vid=350a79a1-2120-443a-849c-814a0e198d1b"},"vehicle_type_id":"4","last_reported":1768950704,"current_range_meters":6400,"station_id":"ce4bhh12rcd13ifvqff0","pricing_plan_id":"cebpf4jnsgd1na2vs0mg"},{"bike_id":"c766203c-fe51-459b-bf74-dd6b3df74629","system_id":"levelo_inurba_marseille","lat":43.23177,"lon":5.39982,"is_reserved":false,"is_disabled":false,"rental_uris":{"android":"levelo://app?vid=c766203c-fe51-459b-bf74-dd6b3df74629","ios":"levelo://app?vid=c766203c-fe51-459b-bf74-dd6b3df74629"},"vehicle_type_id":"4","last_reported":1768950704,"current_range_meters":6400,"station_id":"ce4bhn12rcd13ifvqgqg","pricing_plan_id":"cebpf4jnsgd1na2vs0mg"},{"bike_id":"f1d4233d-2911-4edf-a268-ad1589486129","system_id":"levelo_inurba_marseille","lat":43.2418,"lon":5.39737,"is_reserved":false,"is_disabled":false,"rental_uris":{"android":"levelo://app?vid=f1d4233d-2911-4edf-a268-ad1589486129","ios":"levelo://app?vid=f1d4233d-2911-4edf-a268-ad1589486129"},"vehicle_type_id":"4","last_reported":1768950704,"current_range_meters":6400,"station_id":"ce4bhn12rcd13ifvqgpg","pricing_plan_id":"cebpf4jnsgd1na2vs0mg"},{"bike_id":"d2cb0070-0422-466b-b462-1892f78475a2","system_id":"levelo_inurba_marseille","lat":43.22959,"lon":5.35374,"is_reserved":false,"is_disabled":false,"rental_uris":{"android":"levelo://app?vid=d2cb0070-0422-466b-b462-1892f78475a2","ios":"levelo://app?vid=d2cb0070-0422-466b-b462-1892f78475a2"},"vehicle_type_id":"4","last_reported":1768950704,"current_range_meters":6400,"station_id":"cpo3532slgdg3j2ikp40","pricing_plan_id":"cebpf4jnsgd1na2vs0mg"},{"bike_id":"2b708894-293c-4983-8d58-572d37f96294","system_id":"levelo_inurba_marseille","lat":43.29453,"lon":5.39772,"is_reserved":false,"is_disabled":false,"rental_uris":{"android":"levelo://app?vid=2b708894-293c-4983-8d58-572d37f96294","ios":"levelo://app?vid=2b708894-293c-4983-8d58-572d37f96294"},"vehicle_type_id":"4","last_reported":1768950704,"current_range_meters":6400,"station_id":"ce4bh3h2rcd13ifvqdo0","pricing_plan_id":"cebpf4jnsgd1na2vs0mg"},{"bike_id":"10483c0a-1726-407f-8492-2530493c0d67","system_id":"levelo_inurba_marseille","lat":43.25003,"lon":5.38914,"is_reserved":false,"is_disabled":false,"rental_uris":{"android":"levelo://app?vid=10483c0a-1726-407f-8492-2530493c0d67","ios":"levelo://app?vid=10483c0a-1726-407f-8492-2530493c0d67"},"vehicle_type_id":"4","last_reported":1768950704,"current_range_meters":6400,"station_id":"ce4bhgp2rcd13ifvqfd0","pricing_plan_id":"cebpf4jnsgd1na2vs0mg"},{"bike_id":"a4ae407f-e463-482c-ab8d-438bea2968f2","system_id":"levelo_inurba_marseille","lat":43.2905,"lon":5.38642,"is_reserved":false,"is_disabled":false,"rental_uris":{"android":"levelo://app?vid=a4ae407f-e463-482c-ab8d-438bea2968f2","ios":"levelo://app?vid=a4ae407f-e463-482c-ab8d-438bea2968f2"},"vehicle_type_id":"4","last_reported":1768950704,"current_range_meters":6400,"station_id":"ce4bh4p2rcd13ifvqe0g","pricing_plan_id":"cebpf4jnsgd1na2vs0mg"},{"bike_id":"9af1d4fe-4636-4caa-9cbd-bbff193f53c9","system_id":"levelo_inurba_marseille","lat":43.28186,"lon":5.42658,"is_reserved":false,"is_disabled":false,"rental_uris":{"android":"levelo://app?vid=9af1d4fe-4636-4caa-9cbd-bbff193f53c9","ios":"levelo://app?vid=9af1d4fe-4636-4caa-9cbd-bbff193f53c9"},"vehicle_type_id":"4","last_reported":1768950704,"current_range_meters":6400,"station_id":"ce4bhnh2rcd13ifvqgug","pricing_plan_id":"cebpf4jnsgd1na2vs0mg"},{"bike_id":"7eda8144-5dc1-48a7-ae10-ce92387ce8db","system_id":"levelo_inurba_marseille","lat":43.24989,"lon":5.38927,"is_reserved":false,"is_disabled":false,"rental_uris":{"android":"levelo://app?vid=7eda8144-5dc1-48a7-ae10-ce92387ce8db","ios":"levelo://app?vid=7eda8144-5dc1-48a7-ae10-ce92387ce8db"},"vehicle_type_id":"4","last_reported":1768950704,"current_range_meters":6400,"station_id":"ce4bhgp2rcd13ifvqfd0","pricing_plan_id":"cebpf4jnsgd1na2vs0mg"},{"bike_id":"00926366-40d2-4692-a7fe-1fb3b69e53b6","system_id":"levelo_inurba_marseille","lat":43.32485,"lon":5.36569,"is_reserved":false,"is_disabled":false,"rental_uris":{"android":"levelo://app?vid=00926366-40d2-4692-a7fe-1fb3b69e53b6","ios":"levelo://app?vid=00926366-40d2-4692-a7fe-1fb3b69e53b6"},"vehicle_type_id":"4","last_reported":1768950704,"current_range_meters":6800,"station_id":"ce4bhs12rcd13ifvqhvg","pricing_plan_id":"cebpf4jnsgd1na2vs0mg"},{"bike_id":"065607da-c5aa-47d8-b9f2-13394469f206","system_id":"levelo_inurba_marseille","lat":43.23784,"lon":5.36643,"is_reserved":false,"is_disabled":false,"rental_uris":{"android":"levelo://app?vid=065607da-c5aa-47d8-b9f2-13394469f206","ios":"levelo://app?vid=065607da-c5aa-47d8-b9f2-13394469f206"},"vehicle_type_id":"4","last_reported":1768950704,"current_range_meters":6800,"station_id":"st_d3nk18o9ro0c73en2l3g","pricing_plan_id":"cebpf4jnsgd1na2vs0mg"},{"bike_id":"bd47c088-7a9b-44ec-a68f-65b726393761","system_id":"levelo_inurba_marseille","lat":43.27971,"lon":5.40601,"is_reserved":false,"is_disabled":false,"rental_uris":{"android":"levelo://app?vid=bd47c088-7a9b-44ec-a68f-65b726393761","ios":"levelo://app?vid=bd47c088-7a9b-44ec-a68f-65b726393761"},"vehicle_type_id":"4","last_reported":1768950704,"current_range_meters":6800,"station_id":"","pricing_plan_id":"cebpf4jnsgd1na2vs0mg"},{"bike_id":"f3ebb8af-262d-410c-a128-a91550c8df43","system_id":"levelo_inurba_marseille","lat":43.286,"lon":5.35067,"is_reserved":false,"is_disabled":false,"rental_uris":{"android":"levelo://app?vid=f3ebb8af-262d-410c-a128-a91550c8df43","ios":"levelo://app?vid=f3ebb8af-262d-410c-a128-a91550c8df43"},"vehicle_type_id":"4","last_reported":1768950704,"current_range_meters":6800,"station_id":"ce4bhch2rcd13ifvqeug","pricing_plan_id":"cebpf4jnsgd1na2vs0mg"},{"bike_id":"f58dc067-4dd9-4635-8ae5-365aced9c977","system_id":"levelo_inurba_marseille","lat":43.26218,"lon":5.40435,"is_reserved":false,"is_disabled":false,"rental_uris":{"android":"levelo://app?vid=f58dc067-4dd9-4635-8ae5-365aced9c977","ios":"levelo://app?vid=f58dc067-4dd9-4635-8ae5-365aced9c977"},"vehicle_type_id":"4","last_reported":1768950704,"current_range_meters":6800,"station_id":"ce4bhmh2rcd13ifvqgmg","pricing_plan_id":"cebpf4jnsgd1na2vs0mg"},{"bike_id":"b46f6da3-1b25-4686-aa9a-605913db1ecb","system_id":"levelo_inurba_marseille","lat":43.2963,"lon":5.40599,"is_reserved":false,"is_disabled":false,"rental_uris":{"android":"levelo://app?vid=b46f6da3-1b25-4686-aa9a-605913db1ecb","ios":"levelo://app?vid=b46f6da3-1b25-4686-aa9a-605913db1ecb"},"vehicle_type_id":"4","last_reported":1768950704,"current_range_meters":6800,"station_id":"ce4bh0h2rcd13ifvqd60","pricing_plan_id":"cebpf4jnsgd1na2vs0mg"},{"bike_id":"8794cdb3-b07a-4a6a-b8a7-d49e68bcc2e0","system_id":"levelo_inurba_marseille","lat":43.27812,"lon":5.40724,"is_reserved":false,"is_disabled":false,"rental_uris":{"android":"levelo://app?vid=8794cdb3-b07a-4a6a-b8a7-d49e68bcc2e0","ios":"levelo://app?vid=8794cdb3-b07a-4a6a-b8a7-d49e68bcc2e0"},"vehicle_type_id":"4","last_reported":1768950704,"current_range_meters":6800,"station_id":"ce4bhnh2rcd13ifvqgtg","pricing_plan_id":"cebpf4jnsgd1na2vs0mg"},{"bike_id":"66160d64-23f9-4d70-b989-daa254cf260e","system_id":"levelo_inurba_marseille","lat":43.28174,"lon":5.42626,"is_reserved":false,"is_disabled":false,"rental_uris":{"android":"levelo://app?vid=66160d64-23f9-4d70-b989-daa254cf260e","ios":"levelo://app?vid=66160d64-23f9-4d70-b989-daa254cf260e"},"vehicle_type_id":"4","last_reported":1768950704,"current_range_meters":6800,"station_id":"ce4bhnh2rcd13ifvqgug","pricing_plan_id":"cebpf4jnsgd1na2vs0mg"},{"bike_id":"17a32531-362d-441f-a61f-13dcfd80e179","system_id":"levelo_inurba_marseille","lat":43.31175,"lon":5.38713,"is_reserved":false,"is_disabled":false,"rental_uris":{"android":"levelo://app?vid=17a32531-362d-441f-a61f-13dcfd80e179","ios":"levelo://app?vid=17a32531-362d-441f-a61f-13dcfd80e179"},"vehicle_type_id":"4","last_reported":1768950704,"current_range_meters":6800,"station_id":"ce4bgv12rcd13ifvqcp0","pricing_plan_id":"cebpf4jnsgd1na2vs0mg"},{"bike_id":"52c85b02-607c-4226-bd7b-fd246dd2dae8","system_id":"levelo_inurba_marseille","lat":43.2256,"lon":5.41625,"is_reserved":false,"is_disabled":false,"rental_uris":{"android":"levelo://app?vid=52c85b02-607c-4226-bd7b-fd246dd2dae8","ios":"levelo://app?vid=52c85b02-607c-4226-bd7b-fd246dd2dae8"},"vehicle_type_id":"4","last_reported":1768950704,"current_range_meters":6800,"station_id":"st_d2o4gvlbi1j2169b742g","pricing_plan_id":"cebpf4jnsgd1na2vs0mg"},{"bike_id":"0e84440f-1425-4251-a28c-38177f781258","system_id":"levelo_inurba_marseille","lat":43.28475,"lon":5.4839,"is_reserved":false,"is_disabled":false,"rental_uris":{"android":"levelo://app?vid=0e84440f-1425-4251-a28c-38177f781258","ios":"levelo://app?vid=0e84440f-1425-4251-a28c-38177f781258"},"vehicle_type_id":"4","last_reported":1768950704,"current_range_meters":6800,"station_id":"","pricing_plan_id":"cebpf4jnsgd1na2vs0mg"},{"bike_id":"f28dab8c-22b5-43d8-96b4-ff15ffb80192","system_id":"levelo_inurba_marseille","lat":43.2976,"lon":5.428,"is_reserved":false,"is_disabled":false,"rental_uris":{"android":"levelo://app?vid=f28dab8c-22b5-43d8-96b4-ff15ffb80192","ios":"levelo://app?vid=f28dab8c-22b5-43d8-96b4-ff15ffb80192"},"vehicle_type_id":"4","last_reported":1768950704,"current_range_meters":6800,"station_id":"st_d3md5207bmas73dh9klg","pricing_plan_id":"cebpf4jnsgd1na2vs0mg"},{"bike_id":"35eb0f0f-42a8-4fd5-956e-bec6aa3f7ee3","system_id":"levelo_inurba_marseille","lat":43.23177,"lon":5.39993,"is_reserved":false,"is_disabled":false,"rental_uris":{"android":"levelo://app?vid=35eb0f0f-42a8-4fd5-956e-bec6aa3f7ee3","ios":"levelo://app?vid=35eb0f0f-42a8-4fd5-956e-bec6aa3f7ee3"},"vehicle_type_id":"4","last_reported":1768950704,"current_range_meters":6800,"station_id":"ce4bhn12rcd13ifvqgqg","pricing_plan_id":"cebpf4jnsgd1na2vs0mg"},{"bike_id":"3e57c784-076f-487c-b622-a075cc851190","system_id":"levelo_inurba_marseille","lat":43.2635,"lon":5.37821,"is_reserved":false,"is_disabled":false,"rental_uris":{"android":"levelo://app?vid=3e57c784-076f-487c-b622-a075cc851190","ios":"levelo://app?vid=3e57c784-076f-487c-b622-a075cc851190"},"vehicle_type_id":"4","last_reported":1768950704,"current_range_meters":6800,"station_id":"ce4bhjp2rcd13ifvqg90","pricing_plan_id":"cebpf4jnsgd1na2vs0mg"},{"bike_id":"2cae306f-ef70-4ac0-8308-717918373932","system_id":"levelo_inurba_marseille","lat":43.28601,"lon":5.35111,"is_reserved":false,"is_disabled":false,"rental_uris":{"android":"levelo://app?vid=2cae306f-ef70-4ac0-8308-717918373932","ios":"levelo://app?vid=2cae306f-ef70-4ac0-8308-717918373932"},"vehicle_type_id":"4","last_reported":1768950704,"current_range_meters":6800,"station_id":"ce4bhch2rcd13ifvqeug","pricing_plan_id":"cebpf4jnsgd1na2vs0mg"},{"bike_id":"9fdbe04c-d119-4001-8339-444b1d8abf78","system_id":"levelo_inurba_marseille","lat":43.28076,"lon":5.39629,"is_reserved":false,"is_disabled":false,"rental_uris":{"android":"levelo://app?vid=9fdbe04c-d119-4001-8339-444b1d8abf78","ios":"levelo://app?vid=9fdbe04c-d119-4001-8339-444b1d8abf78"},"vehicle_type_id":"4","last_reported":1768950704,"current_range_meters":6800,"station_id":"ce4bho12rcd13ifvqh2g","pricing_plan_id":"cebpf4jnsgd1na2vs0mg"},{"bike_id":"226d5958-5a22-47a2-afe8-4ea3327c3158","system_id":"levelo_inurba_marseille","lat":43.29543,"lon":5.3856,"is_reserved":false,"is_disabled":false,"rental_uris":{"android":"levelo://app?vid=226d5958-5a22-47a2-afe8-4ea3327c3158","ios":"levelo://app?vid=226d5958-5a22-47a2-afe8-4ea3327c3158"},"vehicle_type_id":"4","last_reported":1768950704,"current_range_meters":6800,"station_id":"ce4bgih2rcd13ifvqba0","pricing_plan_id":"cebpf4jnsgd1na2vs0mg"},{"bike_id":"e775e37a-88b9-408c-8364-888bc63e91d3","system_id":"levelo_inurba_marseille","lat":43.24405,"lon":5.37075,"is_reserved":false,"is_disabled":false,"rental_uris":{"android":"levelo://app?vid=e775e37a-88b9-408c-8364-888bc63e91d3","ios":"levelo://app?vid=e775e37a-88b9-408c-8364-888bc63e91d3"},"vehicle_type_id":"4","last_reported":1768950704,"current_range_meters":6800,"station_id":"ce4bhhh2rcd13ifvqfk0","pricing_plan_id":"cebpf4jnsgd1na2vs0mg"},{"bike_id":"dd708593-8370-42b4-afb3-1460a80ecaa5","system_id":"levelo_inurba_marseille","lat":43.31109,"lon":5.3773,"is_reserved":false,"is_disabled":false,"rental_uris":{"android":"levelo://app?vid=dd708593-8370-42b4-afb3-1460a80ecaa5","ios":"levelo://app?vid=dd708593-8370-42b4-afb3-1460a80ecaa5"},"vehicle_type_id":"4","last_reported":1768950704,"current_range_meters":6800,"station_id":"ce4bgt92rcd13ifvqcg0","pricing_plan_id":"cebpf4jnsgd1na2vs0mg"},{"bike_id":"9dff9bae-d519-49ab-850f-a6b93762d1fc","system_id":"levelo_inurba_marseille","lat":43.25335,"lon":5.42167,"is_reserved":false,"is_disabled":false,"rental_uris":{"android":"levelo://app?vid=9dff9bae-d519-49ab-850f-a6b93762d1fc","ios":"levelo://app?vid=9dff9bae-d519-49ab-850f-a6b93762d1fc"},"vehicle_type_id":"4","last_reported":1768950704,"current_range_meters":6800,"station_id":"st_d2m65c5bi1j21697t3ng","pricing_plan_id":"cebpf4jnsgd1na2vs0mg"},{"bike_id":"48744978-b1c8-4b94-b483-00e386751f56","system_id":"levelo_inurba_marseille","lat":43.26564,"lon":5.39015,"is_reserved":false,"is_disabled":false,"rental_uris":{"android":"levelo://app?vid=48744978-b1c8-4b94-b483-00e386751f56","ios":"levelo://app?vid=48744978-b1c8-4b94-b483-00e386751f56"},"vehicle_type_id":"4","last_reported":1768950704,"current_range_meters":6800,"station_id":"ce4bhe12rcd13ifvqf30","pricing_plan_id":"cebpf4jnsgd1na2vs0mg"},{"bike_id":"e29b0d2f-e04f-40fd-b11c-8492c81a52ca","system_id":"levelo_inurba_marseille","lat":43.28106,"lon":5.37856,"is_reserved":false,"is_disabled":false,"rental_uris":{"android":"levelo://app?vid=e29b0d2f-e04f-40fd-b11c-8492c81a52ca","ios":"levelo://app?vid=e29b0d2f-e04f-40fd-b11c-8492c81a52ca"},"vehicle_type_id":"4","last_reported":1768950704,"current_range_meters":7200,"station_id":"ce4bha12rcd13ifvqee0","pricing_plan_id":"cebpf4jnsgd1na2vs0mg"},{"bike_id":"c9632c24-d4ba-453f-a643-952c5a012a8a","system_id":"levelo_inurba_marseille","lat":43.22563,"lon":5.41627,"is_reserved":false,"is_disabled":false,"rental_uris":{"android":"levelo://app?vid=c9632c24-d4ba-453f-a643-952c5a012a8a","ios":"levelo://app?vid=c9632c24-d4ba-453f-a643-952c5a012a8a"},"vehicle_type_id":"4","last_reported":1768950704,"current_range_meters":7200,"station_id":"st_d2o4gvlbi1j2169b742g","pricing_plan_id":"cebpf4jnsgd1na2vs0mg"},{"bike_id":"a5f349fe-2e30-4d5c-8f49-43550ab153d5","system_id":"levelo_inurba_marseille","lat":43.24623,"lon":5.38856,"is_reserved":false,"is_disabled":false,"rental_uris":{"android":"levelo://app?vid=a5f349fe-2e30-4d5c-8f49-43550ab153d5","ios":"levelo://app?vid=a5f349fe-2e30-4d5c-8f49-43550ab153d5"},"vehicle_type_id":"4","last_reported":1768950704,"current_range_meters":7200,"station_id":"ce4bhg12rcd13ifvqf60","pricing_plan_id":"cebpf4jnsgd1na2vs0mg"},{"bike_id":"fe4b8d92-6b74-4f7f-be90-48717fca1ec3","system_id":"levelo_inurba_marseille","lat":43.30738,"lon":5.42455,"is_reserved":false,"is_disabled":false,"rental_uris":{"android":"levelo://app?vid=fe4b8d92-6b74-4f7f-be90-48717fca1ec3","ios":"levelo://app?vid=fe4b8d92-6b74-4f7f-be90-48717fca1ec3"},"vehicle_type_id":"4","last_reported":1768950704,"current_range_meters":7200,"station_id":"st_cvj6ca6bvosntc0bfgr0","pricing_plan_id":"cebpf4jnsgd1na2vs0mg"},{"bike_id":"c8b36723-7039-4b4e-b709-3c4707457d93","system_id":"levelo_inurba_marseille","lat":43.23966,"lon":5.36636,"is_reserved":false,"is_disabled":false,"rental_uris":{"android":"levelo://app?vid=c8b36723-7039-4b4e-b709-3c4707457d93","ios":"levelo://app?vid=c8b36723-7039-4b4e-b709-3c4707457d93"},"vehicle_type_id":"4","last_reported":1768950704,"current_range_meters":7200,"station_id":"ce4bhi12rcd13ifvqfp0","pricing_plan_id":"cebpf4jnsgd1na2vs0mg"},{"bike_id":"04d1fa74-7078-4e54-86c0-c9d3f7b08c45","system_id":"levelo_inurba_marseille","lat":43.2557,"lon":5.38247,"is_reserved":false,"is_disabled":false,"rental_uris":{"android":"levelo://app?vid=04d1fa74-7078-4e54-86c0-c9d3f7b08c45","ios":"levelo://app?vid=04d1fa74-7078-4e54-86c0-c9d3f7b08c45"},"vehicle_type_id":"4","last_reported":1768950704,"current_range_meters":7200,"station_id":"ce4bhih2rcd13ifvqfs0","pricing_plan_id":"cebpf4jnsgd1na2vs0mg"},{"bike_id":"f9c756b7-6ab4-4842-b242-46f06e32e85d","system_id":"levelo_inurba_marseille","lat":43.2799,"lon":5.40023,"is_reserved":false,"is_disabled":false,"rental_uris":{"android":"levelo://app?vid=f9c756b7-6ab4-4842-b242-46f06e32e85d","ios":"levelo://app?vid=f9c756b7-6ab4-4842-b242-46f06e32e85d"},"vehicle_type_id":"4","last_reported":1768950704,"current_range_meters":7200,"station_id":"ce4bho92rcd13ifvqh4g","pricing_plan_id":"cebpf4jnsgd1na2vs0mg"},{"bike_id":"7c860edb-32a4-4e9c-bf66-fe03b3b3e5ba","system_id":"levelo_inurba_marseille","lat":43.31711,"lon":5.37817,"is_reserved":false,"is_disabled":false,"rental_uris":{"android":"levelo://app?vid=7c860edb-32a4-4e9c-bf66-fe03b3b3e5ba","ios":"levelo://app?vid=7c860edb-32a4-4e9c-bf66-fe03b3b3e5ba"},"vehicle_type_id":"4","last_reported":1768950704,"current_range_meters":7200,"station_id":"ce4bgth2rcd13ifvqch0","pricing_plan_id":"cebpf4jnsgd1na2vs0mg"},{"bike_id":"b56297a5-7db5-43da-9fd6-782ce2af0c6d","system_id":"levelo_inurba_marseille","lat":43.28824,"lon":5.35854,"is_reserved":false,"is_disabled":false,"rental_uris":{"android":"levelo://app?vid=b56297a5-7db5-43da-9fd6-782ce2af0c6d","ios":"levelo://app?vid=b56297a5-7db5-43da-9fd6-782ce2af0c6d"},"vehicle_type_id":"4","last_reported":1768950704,"current_range_meters":7200,"station_id":"ce4bhb12rcd13ifvqem0","pricing_plan_id":"cebpf4jnsgd1na2vs0mg"},{"bike_id":"02b19501-ae2b-4d21-ae93-ce26586838ae","system_id":"levelo_inurba_marseille","lat":43.29566,"lon":5.42299,"is_reserved":false,"is_disabled":false,"rental_uris":{"android":"levelo://app?vid=02b19501-ae2b-4d21-ae93-ce26586838ae","ios":"levelo://app?vid=02b19501-ae2b-4d21-ae93-ce26586838ae"},"vehicle_type_id":"4","last_reported":1768950704,"current_range_meters":7200,"station_id":"ce4bhph2rcd13ifvqhdg","pricing_plan_id":"cebpf4jnsgd1na2vs0mg"},{"bike_id":"7d2f250a-191b-441d-876b-7325dd6245a6","system_id":"levelo_inurba_marseille","lat":43.25004,"lon":5.38958,"is_reserved":false,"is_disabled":false,"rental_uris":{"android":"levelo://app?vid=7d2f250a-191b-441d-876b-7325dd6245a6","ios":"levelo://app?vid=7d2f250a-191b-441d-876b-7325dd6245a6"},"vehicle_type_id":"4","last_reported":1768950704,"current_range_meters":7200,"station_id":"ce4bhgp2rcd13ifvqfd0","pricing_plan_id":"cebpf4jnsgd1na2vs0mg"},{"bike_id":"c103ce9c-0aaa-4a53-b373-a704be8ed706","system_id":"levelo_inurba_marseille","lat":43.25331,"lon":5.42189,"is_reserved":false,"is_disabled":false,"rental_uris":{"android":"levelo://app?vid=c103ce9c-0aaa-4a53-b373-a704be8ed706","ios":"levelo://app?vid=c103ce9c-0aaa-4a53-b373-a704be8ed706"},"vehicle_type_id":"4","last_reported":1768950704,"current_range_meters":7200,"station_id":"st_d2m65c5bi1j21697t3ng","pricing_plan_id":"cebpf4jnsgd1na2vs0mg"},{"bike_id":"29b3fe27-3155-4bb1-9d12-be92f522d733","system_id":"levelo_inurba_marseille","lat":43.29746,"lon":5.428,"is_reserved":false,"is_disabled":false,"rental_uris":{"android":"levelo://app?vid=29b3fe27-3155-4bb1-9d12-be92f522d733","ios":"levelo://app?vid=29b3fe27-3155-4bb1-9d12-be92f522d733"},"vehicle_type_id":"4","last_reported":1768950704,"current_range_meters":7200,"station_id":"st_d3md5207bmas73dh9klg","pricing_plan_id":"cebpf4jnsgd1na2vs0mg"},{"bike_id":"2cf1ea64-26bb-4964-939a-03465aee6659","system_id":"levelo_inurba_marseille","lat":43.22557,"lon":5.41633,"is_reserved":false,"is_disabled":false,"rental_uris":{"android":"levelo://app?vid=2cf1ea64-26bb-4964-939a-03465aee6659","ios":"levelo://app?vid=2cf1ea64-26bb-4964-939a-03465aee6659"},"vehicle_type_id":"4","last_reported":1768950704,"current_range_meters":7200,"station_id":"st_d2o4gvlbi1j2169b742g","pricing_plan_id":"cebpf4jnsgd1na2vs0mg"},{"bike_id":"dc6a3b2b-9f82-4e51-a058-6377bdf44ec5","system_id":"levelo_inurba_marseille","lat":43.25325,"lon":5.42184,"is_reserved":false,"is_disabled":false,"rental_uris":{"android":"levelo://app?vid=dc6a3b2b-9f82-4e51-a058-6377bdf44ec5","ios":"levelo://app?vid=dc6a3b2b-9f82-4e51-a058-6377bdf44ec5"},"vehicle_type_id":"4","last_reported":1768950704,"current_range_meters":7200,"station_id":"st_d2m65c5bi1j21697t3ng","pricing_plan_id":"cebpf4jnsgd1na2vs0mg"},{"bike_id":"fbc33a72-4745-4524-a282-41ff07403603","system_id":"levelo_inurba_marseille","lat":43.25347,"lon":5.42179,"is_reserved":false,"is_disabled":false,"rental_uris":{"android":"levelo://app?vid=fbc33a72-4745-4524-a282-41ff07403603","ios":"levelo://app?vid=fbc33a72-4745-4524-a282-41ff07403603"},"vehicle_type_id":"4","last_reported":1768950704,"current_range_meters":7200,"station_id":"st_d2m65c5bi1j21697t3ng","pricing_plan_id":"cebpf4jnsgd1na2vs0mg"},{"bike_id":"1b6edef0-2b6f-4530-b134-4fb09445529a","system_id":"levelo_inurba_marseille","lat":43.24469,"lon":5.42549,"is_reserved":false,"is_disabled":false,"rental_uris":{"android":"levelo://app?vid=1b6edef0-2b6f-4530-b134-4fb09445529a","ios":"levelo://app?vid=1b6edef0-2b6f-4530-b134-4fb09445529a"},"vehicle_type_id":"4","last_reported":1768950704,"current_range_meters":7200,"station_id":"st_d4a3vfp97mjs738cd8kg","pricing_plan_id":"cebpf4jnsgd1na2vs0mg"},{"bike_id":"50bb271d-7102-4f46-b008-3b349432db37","system_id":"levelo_inurba_marseille","lat":43.29528,"lon":5.39409,"is_reserved":false,"is_disabled":false,"rental_uris":{"android":"levelo://app?vid=50bb271d-7102-4f46-b008-3b349432db37","ios":"levelo://app?vid=50bb271d-7102-4f46-b008-3b349432db37"},"vehicle_type_id":"4","last_reported":1768950704,"current_range_meters":7200,"station_id":"ce4bh292rcd13ifvqdf0","pricing_plan_id":"cebpf4jnsgd1na2vs0mg"},{"bike_id":"ae82840e-6713-4278-be7e-382935799675","system_id":"levelo_inurba_marseille","lat":43.32342,"lon":5.38501,"is_reserved":false,"is_disabled":false,"rental_uris":{"android":"levelo://app?vid=ae82840e-6713-4278-be7e-382935799675","ios":"levelo://app?vid=ae82840e-6713-4278-be7e-382935799675"},"vehicle_type_id":"4","last_reported":1768950704,"current_range_meters":7200,"station_id":"st_d45171o9ee8s73djdqug","pricing_plan_id":"cebpf4jnsgd1na2vs0mg"},{"bike_id":"233d466b-a95b-4527-9a63-fc274413810a","system_id":"levelo_inurba_marseille","lat":43.31626,"lon":5.3819,"is_reserved":false,"is_disabled":false,"rental_uris":{"android":"levelo://app?vid=233d466b-a95b-4527-9a63-fc274413810a","ios":"levelo://app?vid=233d466b-a95b-4527-9a63-fc274413810a"},"vehicle_type_id":"4","last_reported":1768950704,"current_range_meters":7200,"station_id":"","pricing_plan_id":"cebpf4jnsgd1na2vs0mg"},{"bike_id":"a5d66f61-92e6-4d3d-b068-0bf51a39651b","system_id":"levelo_inurba_marseille","lat":43.304626,"lon":5.37903,"is_reserved":false,"is_disabled":false,"rental_uris":{"android":"levelo://app?vid=a5d66f61-92e6-4d3d-b068-0bf51a39651b","ios":"levelo://app?vid=a5d66f61-92e6-4d3d-b068-0bf51a39651b"},"vehicle_type_id":"4","last_reported":1768950704,"current_range_meters":8000,"station_id":"ce4bgup2rcd13ifvqcn0","pricing_plan_id":"cebpf4jnsgd1na2vs0mg"},{"bike_id":"7f57e4b7-adcc-40f6-a2f9-1294ef7abba0","system_id":"levelo_inurba_marseille","lat":43.30936,"lon":5.36865,"is_reserved":false,"is_disabled":false,"rental_uris":{"android":"levelo://app?vid=7f57e4b7-adcc-40f6-a2f9-1294ef7abba0","ios":"levelo://app?vid=7f57e4b7-adcc-40f6-a2f9-1294ef7abba0"},"vehicle_type_id":"4","last_reported":1768950704,"current_range_meters":8000,"station_id":"ce4bgn92rcd13ifvqbvg","pricing_plan_id":"cebpf4jnsgd1na2vs0mg"},{"bike_id":"67ff9a75-4fe8-45e7-914d-fc416a457597","system_id":"levelo_inurba_marseille","lat":43.32159,"lon":5.36795,"is_reserved":false,"is_disabled":false,"rental_uris":{"android":"levelo://app?vid=67ff9a75-4fe8-45e7-914d-fc416a457597","ios":"levelo://app?vid=67ff9a75-4fe8-45e7-914d-fc416a457597"},"vehicle_type_id":"4","last_reported":1768950704,"current_range_meters":8000,"station_id":"","pricing_plan_id":"cebpf4jnsgd1na2vs0mg"},{"bike_id":"f7f45999-b135-4f47-bda3-1f1e9b994c9d","system_id":"levelo_inurba_marseille","lat":43.30214,"lon":5.39465,"is_reserved":false,"is_disabled":false,"rental_uris":{"android":"levelo://app?vid=f7f45999-b135-4f47-bda3-1f1e9b994c9d","ios":"levelo://app?vid=f7f45999-b135-4f47-bda3-1f1e9b994c9d"},"vehicle_type_id":"4","last_reported":1768950704,"current_range_meters":8000,"station_id":"ce4bh0p2rcd13ifvqd70","pricing_plan_id":"cebpf4jnsgd1na2vs0mg"},{"bike_id":"6ed8c7ae-caef-4abd-a9d4-aaf7d0882a8a","system_id":"levelo_inurba_marseille","lat":43.29607,"lon":5.37736,"is_reserved":false,"is_disabled":true,"rental_uris":{"android":"levelo://app?vid=6ed8c7ae-caef-4abd-a9d4-aaf7d0882a8a","ios":"levelo://app?vid=6ed8c7ae-caef-4abd-a9d4-aaf7d0882a8a"},"vehicle_type_id":"4","last_reported":1768950704,"current_range_meters":8000,"station_id":"ce4bgi92rcd13ifvqb90","pricing_plan_id":"cebpf4jnsgd1na2vs0mg"},{"bike_id":"0784fc2a-d5b1-49e0-838b-16c63d0fa328","system_id":"levelo_inurba_marseille","lat":43.2679,"lon":5.39425,"is_reserved":false,"is_disabled":false,"rental_uris":{"android":"levelo://app?vid=0784fc2a-d5b1-49e0-838b-16c63d0fa328","ios":"levelo://app?vid=0784fc2a-d5b1-49e0-838b-16c63d0fa328"},"vehicle_type_id":"4","last_reported":1768950704,"current_range_meters":8000,"station_id":"ce4bhh12rcd13ifvqfg0","pricing_plan_id":"cebpf4jnsgd1na2vs0mg"},{"bike_id":"5dbfcf3f-7cec-4c29-8168-14f9c37f7762","system_id":"levelo_inurba_marseille","lat":43.22563,"lon":5.41639,"is_reserved":false,"is_disabled":false,"rental_uris":{"android":"levelo://app?vid=5dbfcf3f-7cec-4c29-8168-14f9c37f7762","ios":"levelo://app?vid=5dbfcf3f-7cec-4c29-8168-14f9c37f7762"},"vehicle_type_id":"4","last_reported":1768950704,"current_range_meters":8000,"station_id":"st_d2o4gvlbi1j2169b742g","pricing_plan_id":"cebpf4jnsgd1na2vs0mg"},{"bike_id":"dcc56798-b289-4f87-8a3a-f6804c63566a","system_id":"levelo_inurba_marseille","lat":43.28533,"lon":5.44105,"is_reserved":false,"is_disabled":false,"rental_uris":{"android":"levelo://app?vid=dcc56798-b289-4f87-8a3a-f6804c63566a","ios":"levelo://app?vid=dcc56798-b289-4f87-8a3a-f6804c63566a"},"vehicle_type_id":"4","last_reported":1768950704,"current_range_meters":8000,"station_id":"st_d3j3df2ikq2c7380ej80","pricing_plan_id":"cebpf4jnsgd1na2vs0mg"},{"bike_id":"2a0e06da-aed5-4c51-8d59-4bb29bc21a3f","system_id":"levelo_inurba_marseille","lat":43.26555,"lon":5.37265,"is_reserved":false,"is_disabled":false,"rental_uris":{"android":"levelo://app?vid=2a0e06da-aed5-4c51-8d59-4bb29bc21a3f","ios":"levelo://app?vid=2a0e06da-aed5-4c51-8d59-4bb29bc21a3f"},"vehicle_type_id":"4","last_reported":1768950704,"current_range_meters":8000,"station_id":"ce4bhg12rcd13ifvqf70","pricing_plan_id":"cebpf4jnsgd1na2vs0mg"},{"bike_id":"bc53fded-5652-4ab5-920f-ec142a69c388","system_id":"levelo_inurba_marseille","lat":43.2979,"lon":5.39343,"is_reserved":false,"is_disabled":true,"rental_uris":{"android":"levelo://app?vid=bc53fded-5652-4ab5-920f-ec142a69c388","ios":"levelo://app?vid=bc53fded-5652-4ab5-920f-ec142a69c388"},"vehicle_type_id":"4","last_reported":1768950704,"current_range_meters":8000,"station_id":"chh1huq6cuj3fo74tm60","pricing_plan_id":"cebpf4jnsgd1na2vs0mg"},{"bike_id":"8da9484a-f601-48f2-9b7f-9039efa78ffa","system_id":"levelo_inurba_marseille","lat":43.29801,"lon":5.39351,"is_reserved":false,"is_disabled":false,"rental_uris":{"android":"levelo://app?vid=8da9484a-f601-48f2-9b7f-9039efa78ffa","ios":"levelo://app?vid=8da9484a-f601-48f2-9b7f-9039efa78ffa"},"vehicle_type_id":"4","last_reported":1768950704,"current_range_meters":8000,"station_id":"chh1huq6cuj3fo74tm60","pricing_plan_id":"cebpf4jnsgd1na2vs0mg"},{"bike_id":"a68275ec-4aba-4f1b-b6a5-e615f62ef9c4","system_id":"levelo_inurba_marseille","lat":43.240689,"lon":5.37766,"is_reserved":false,"is_disabled":false,"rental_uris":{"android":"levelo://app?vid=a68275ec-4aba-4f1b-b6a5-e615f62ef9c4","ios":"levelo://app?vid=a68275ec-4aba-4f1b-b6a5-e615f62ef9c4"},"vehicle_type_id":"4","last_reported":1768950704,"current_range_meters":8000,"station_id":"ce4bhnp2rcd13ifvqgvg","pricing_plan_id":"cebpf4jnsgd1na2vs0mg"},{"bike_id":"3b81ebf3-2623-46da-a5c8-263558ed1656","system_id":"levelo_inurba_marseille","lat":43.29523,"lon":5.39416,"is_reserved":false,"is_disabled":false,"rental_uris":{"android":"levelo://app?vid=3b81ebf3-2623-46da-a5c8-263558ed1656","ios":"levelo://app?vid=3b81ebf3-2623-46da-a5c8-263558ed1656"},"vehicle_type_id":"4","last_reported":1768950704,"current_range_meters":8000,"station_id":"ce4bh292rcd13ifvqdf0","pricing_plan_id":"cebpf4jnsgd1na2vs0mg"},{"bike_id":"83098069-1cb7-423e-af0c-9e55721265a8","system_id":"levelo_inurba_marseille","lat":43.31467,"lon":5.45406,"is_reserved":false,"is_disabled":false,"rental_uris":{"android":"levelo://app?vid=83098069-1cb7-423e-af0c-9e55721265a8","ios":"levelo://app?vid=83098069-1cb7-423e-af0c-9e55721265a8"},"vehicle_type_id":"4","last_reported":1768950704,"current_range_meters":8000,"station_id":"","pricing_plan_id":"cebpf4jnsgd1na2vs0mg"},{"bike_id":"8155f86b-6d64-4287-9ed7-7fbe9d103dde","system_id":"levelo_inurba_marseille","lat":43.22558,"lon":5.41627,"is_reserved":false,"is_disabled":false,"rental_uris":{"android":"levelo://app?vid=8155f86b-6d64-4287-9ed7-7fbe9d103dde","ios":"levelo://app?vid=8155f86b-6d64-4287-9ed7-7fbe9d103dde"},"vehicle_type_id":"4","last_reported":1768950704,"current_range_meters":8000,"station_id":"st_d2o4gvlbi1j2169b742g","pricing_plan_id":"cebpf4jnsgd1na2vs0mg"},{"bike_id":"d0689c66-98dd-4b12-aedc-f6515307eb7a","system_id":"levelo_inurba_marseille","lat":43.28663,"lon":5.36355,"is_reserved":false,"is_disabled":false,"rental_uris":{"android":"levelo://app?vid=d0689c66-98dd-4b12-aedc-f6515307eb7a","ios":"levelo://app?vid=d0689c66-98dd-4b12-aedc-f6515307eb7a"},"vehicle_type_id":"4","last_reported":1768950704,"current_range_meters":8400,"station_id":"ce4bhah2rcd13ifvqej0","pricing_plan_id":"cebpf4jnsgd1na2vs0mg"},{"bike_id":"bb089a45-87ce-429d-a496-bd27d120330e","system_id":"levelo_inurba_marseille","lat":43.31739,"lon":5.3903,"is_reserved":false,"is_disabled":false,"rental_uris":{"android":"levelo://app?vid=bb089a45-87ce-429d-a496-bd27d120330e","ios":"levelo://app?vid=bb089a45-87ce-429d-a496-bd27d120330e"},"vehicle_type_id":"4","last_reported":1768950704,"current_range_meters":8400,"station_id":"ce4bhqp2rcd13ifvqhng","pricing_plan_id":"cebpf4jnsgd1na2vs0mg"},{"bike_id":"993f1288-6929-4206-b35f-06e772769526","system_id":"levelo_inurba_marseille","lat":43.30734,"lon":5.4244,"is_reserved":false,"is_disabled":false,"rental_uris":{"android":"levelo://app?vid=993f1288-6929-4206-b35f-06e772769526","ios":"levelo://app?vid=993f1288-6929-4206-b35f-06e772769526"},"vehicle_type_id":"4","last_reported":1768950704,"current_range_meters":8400,"station_id":"st_cvj6ca6bvosntc0bfgr0","pricing_plan_id":"cebpf4jnsgd1na2vs0mg"},{"bike_id":"3b76034b-f5ef-4e9b-9973-9bfd2bec0930","system_id":"levelo_inurba_marseille","lat":43.27811,"lon":5.40717,"is_reserved":false,"is_disabled":false,"rental_uris":{"android":"levelo://app?vid=3b76034b-f5ef-4e9b-9973-9bfd2bec0930","ios":"levelo://app?vid=3b76034b-f5ef-4e9b-9973-9bfd2bec0930"},"vehicle_type_id":"4","last_reported":1768950704,"current_range_meters":8400,"station_id":"ce4bhnh2rcd13ifvqgtg","pricing_plan_id":"cebpf4jnsgd1na2vs0mg"},{"bike_id":"99d65f09-c0e6-4f0f-b72f-6e110c0f1bd4","system_id":"levelo_inurba_marseille","lat":43.28994,"lon":5.37598,"is_reserved":false,"is_disabled":false,"rental_uris":{"android":"levelo://app?vid=99d65f09-c0e6-4f0f-b72f-6e110c0f1bd4","ios":"levelo://app?vid=99d65f09-c0e6-4f0f-b72f-6e110c0f1bd4"},"vehicle_type_id":"4","last_reported":1768950704,"current_range_meters":8400,"station_id":"ce4bh692rcd13ifvqe90","pricing_plan_id":"cebpf4jnsgd1na2vs0mg"},{"bike_id":"c648ce05-faa1-4b25-b283-bb371b3c83ac","system_id":"levelo_inurba_marseille","lat":43.28933,"lon":5.38171,"is_reserved":false,"is_disabled":false,"rental_uris":{"android":"levelo://app?vid=c648ce05-faa1-4b25-b283-bb371b3c83ac","ios":"levelo://app?vid=c648ce05-faa1-4b25-b283-bb371b3c83ac"},"vehicle_type_id":"4","last_reported":1768950704,"current_range_meters":8400,"station_id":"","pricing_plan_id":"cebpf4jnsgd1na2vs0mg"},{"bike_id":"8c47a2e4-cd48-414b-b270-e7d950988f47","system_id":"levelo_inurba_marseille","lat":43.29529,"lon":5.3852,"is_reserved":false,"is_disabled":false,"rental_uris":{"android":"levelo://app?vid=8c47a2e4-cd48-414b-b270-e7d950988f47","ios":"levelo://app?vid=8c47a2e4-cd48-414b-b270-e7d950988f47"},"vehicle_type_id":"4","last_reported":1768950704,"current_range_meters":8400,"station_id":"ce4bgih2rcd13ifvqba0","pricing_plan_id":"cebpf4jnsgd1na2vs0mg"},{"bike_id":"56496f15-285b-4dff-92b3-54ffdff3e399","system_id":"levelo_inurba_marseille","lat":43.26838,"lon":5.39644,"is_reserved":false,"is_disabled":false,"rental_uris":{"android":"levelo://app?vid=56496f15-285b-4dff-92b3-54ffdff3e399","ios":"levelo://app?vid=56496f15-285b-4dff-92b3-54ffdff3e399"},"vehicle_type_id":"4","last_reported":1768950704,"current_range_meters":8400,"station_id":"","pricing_plan_id":"cebpf4jnsgd1na2vs0mg"},{"bike_id":"4eba8ab0-a760-4c8f-be2e-adcd88a4d0b1","system_id":"levelo_inurba_marseille","lat":43.26494,"lon":5.39564,"is_reserved":false,"is_disabled":false,"rental_uris":{"android":"levelo://app?vid=4eba8ab0-a760-4c8f-be2e-adcd88a4d0b1","ios":"levelo://app?vid=4eba8ab0-a760-4c8f-be2e-adcd88a4d0b1"},"vehicle_type_id":"4","last_reported":1768950704,"current_range_meters":8400,"station_id":"ce4bhi12rcd13ifvqfq0","pricing_plan_id":"cebpf4jnsgd1na2vs0mg"},{"bike_id":"ce5afbc0-90e5-431d-902b-5545f55fafe6","system_id":"levelo_inurba_marseille","lat":43.27042,"lon":5.42284,"is_reserved":false,"is_disabled":false,"rental_uris":{"android":"levelo://app?vid=ce5afbc0-90e5-431d-902b-5545f55fafe6","ios":"levelo://app?vid=ce5afbc0-90e5-431d-902b-5545f55fafe6"},"vehicle_type_id":"4","last_reported":1768950704,"current_range_meters":8400,"station_id":"ce4bhk92rcd13ifvqgb0","pricing_plan_id":"cebpf4jnsgd1na2vs0mg"},{"bike_id":"b2b1dff7-f6c8-4dbd-b544-d71f01a6a04b","system_id":"levelo_inurba_marseille","lat":43.28001,"lon":5.40016,"is_reserved":false,"is_disabled":false,"rental_uris":{"android":"levelo://app?vid=b2b1dff7-f6c8-4dbd-b544-d71f01a6a04b","ios":"levelo://app?vid=b2b1dff7-f6c8-4dbd-b544-d71f01a6a04b"},"vehicle_type_id":"4","last_reported":1768950704,"current_range_meters":8400,"station_id":"ce4bho92rcd13ifvqh4g","pricing_plan_id":"cebpf4jnsgd1na2vs0mg"},{"bike_id":"99930023-4f93-4749-9faf-99c0761e2fac","system_id":"levelo_inurba_marseille","lat":43.27833,"lon":5.40716,"is_reserved":false,"is_disabled":false,"rental_uris":{"android":"levelo://app?vid=99930023-4f93-4749-9faf-99c0761e2fac","ios":"levelo://app?vid=99930023-4f93-4749-9faf-99c0761e2fac"},"vehicle_type_id":"4","last_reported":1768950704,"current_range_meters":8400,"station_id":"ce4bhnh2rcd13ifvqgtg","pricing_plan_id":"cebpf4jnsgd1na2vs0mg"},{"bike_id":"31c21be6-18ca-494d-8d01-2f205767068d","system_id":"levelo_inurba_marseille","lat":43.31851,"lon":5.37476,"is_reserved":false,"is_disabled":false,"rental_uris":{"android":"levelo://app?vid=31c21be6-18ca-494d-8d01-2f205767068d","ios":"levelo://app?vid=31c21be6-18ca-494d-8d01-2f205767068d"},"vehicle_type_id":"4","last_reported":1768950704,"current_range_meters":8400,"station_id":"","pricing_plan_id":"cebpf4jnsgd1na2vs0mg"},{"bike_id":"99de495f-b0b4-4b6d-ab33-af826470a1ce","system_id":"levelo_inurba_marseille","lat":43.29465,"lon":5.43307,"is_reserved":false,"is_disabled":false,"rental_uris":{"android":"levelo://app?vid=99de495f-b0b4-4b6d-ab33-af826470a1ce","ios":"levelo://app?vid=99de495f-b0b4-4b6d-ab33-af826470a1ce"},"vehicle_type_id":"4","last_reported":1768950704,"current_range_meters":8400,"station_id":"st_d3j5ugp08ojc73fj9d10","pricing_plan_id":"cebpf4jnsgd1na2vs0mg"},{"bike_id":"ae14426c-d055-48d5-a4ff-6e0b03ad465f","system_id":"levelo_inurba_marseille","lat":43.25808,"lon":5.39435,"is_reserved":false,"is_disabled":false,"rental_uris":{"android":"levelo://app?vid=ae14426c-d055-48d5-a4ff-6e0b03ad465f","ios":"levelo://app?vid=ae14426c-d055-48d5-a4ff-6e0b03ad465f"},"vehicle_type_id":"4","last_reported":1768950704,"current_range_meters":8400,"station_id":"ce4bhip2rcd13ifvqft0","pricing_plan_id":"cebpf4jnsgd1na2vs0mg"},{"bike_id":"37bf797b-18ef-4836-9cb3-d3ead8cb520d","system_id":"levelo_inurba_marseille","lat":43.29971,"lon":5.38507,"is_reserved":false,"is_disabled":true,"rental_uris":{"android":"levelo://app?vid=37bf797b-18ef-4836-9cb3-d3ead8cb520d","ios":"levelo://app?vid=37bf797b-18ef-4836-9cb3-d3ead8cb520d"},"vehicle_type_id":"4","last_reported":1768950704,"current_range_meters":8400,"station_id":"ce4bgj92rcd13ifvqbd0","pricing_plan_id":"cebpf4jnsgd1na2vs0mg"},{"bike_id":"e6a9e3fa-3b63-4853-b0a2-6fccfa1faa43","system_id":"levelo_inurba_marseille","lat":43.24086,"lon":5.37746,"is_reserved":false,"is_disabled":false,"rental_uris":{"android":"levelo://app?vid=e6a9e3fa-3b63-4853-b0a2-6fccfa1faa43","ios":"levelo://app?vid=e6a9e3fa-3b63-4853-b0a2-6fccfa1faa43"},"vehicle_type_id":"4","last_reported":1768950704,"current_range_meters":8400,"station_id":"ce4bhnp2rcd13ifvqgvg","pricing_plan_id":"cebpf4jnsgd1na2vs0mg"},{"bike_id":"2da7b981-9d30-4f15-935f-916de5e14950","system_id":"levelo_inurba_marseille","lat":43.21751,"lon":5.34611,"is_reserved":false,"is_disabled":false,"rental_uris":{"android":"levelo://app?vid=2da7b981-9d30-4f15-935f-916de5e14950","ios":"levelo://app?vid=2da7b981-9d30-4f15-935f-916de5e14950"},"vehicle_type_id":"4","last_reported":1768950704,"current_range_meters":8400,"station_id":"","pricing_plan_id":"cebpf4jnsgd1na2vs0mg"},{"bike_id":"f6588e0a-1212-4ee4-af80-9b48ab226ff3","system_id":"levelo_inurba_marseille","lat":43.29963,"lon":5.37156,"is_reserved":false,"is_disabled":false,"rental_uris":{"android":"levelo://app?vid=f6588e0a-1212-4ee4-af80-9b48ab226ff3","ios":"levelo://app?vid=f6588e0a-1212-4ee4-af80-9b48ab226ff3"},"vehicle_type_id":"4","last_reported":1768950704,"current_range_meters":8400,"station_id":"ce4bgr92rcd13ifvqc7g","pricing_plan_id":"cebpf4jnsgd1na2vs0mg"},{"bike_id":"3b354a2e-ec16-4128-9f6e-f06cb1073091","system_id":"levelo_inurba_marseille","lat":43.24471,"lon":5.42558,"is_reserved":false,"is_disabled":false,"rental_uris":{"android":"levelo://app?vid=3b354a2e-ec16-4128-9f6e-f06cb1073091","ios":"levelo://app?vid=3b354a2e-ec16-4128-9f6e-f06cb1073091"},"vehicle_type_id":"4","last_reported":1768950704,"current_range_meters":8400,"station_id":"st_d4a3vfp97mjs738cd8kg","pricing_plan_id":"cebpf4jnsgd1na2vs0mg"},{"bike_id":"e47dfb0a-fd42-4915-8bd4-c942b77cb4c9","system_id":"levelo_inurba_marseille","lat":43.25573,"lon":5.38228,"is_reserved":false,"is_disabled":false,"rental_uris":{"android":"levelo://app?vid=e47dfb0a-fd42-4915-8bd4-c942b77cb4c9","ios":"levelo://app?vid=e47dfb0a-fd42-4915-8bd4-c942b77cb4c9"},"vehicle_type_id":"4","last_reported":1768950704,"current_range_meters":8400,"station_id":"ce4bhih2rcd13ifvqfs0","pricing_plan_id":"cebpf4jnsgd1na2vs0mg"},{"bike_id":"29bfec45-ad76-429c-882a-34b6f5ca4191","system_id":"levelo_inurba_marseille","lat":43.32099,"lon":5.36785,"is_reserved":false,"is_disabled":false,"rental_uris":{"android":"levelo://app?vid=29bfec45-ad76-429c-882a-34b6f5ca4191","ios":"levelo://app?vid=29bfec45-ad76-429c-882a-34b6f5ca4191"},"vehicle_type_id":"4","last_reported":1768950704,"current_range_meters":8400,"station_id":"ce4bhrh2rcd13ifvqhug","pricing_plan_id":"cebpf4jnsgd1na2vs0mg"},{"bike_id":"6bfa983d-460f-4be3-90a1-b113f34c6cab","system_id":"levelo_inurba_marseille","lat":43.27084,"lon":5.42285,"is_reserved":false,"is_disabled":false,"rental_uris":{"android":"levelo://app?vid=6bfa983d-460f-4be3-90a1-b113f34c6cab","ios":"levelo://app?vid=6bfa983d-460f-4be3-90a1-b113f34c6cab"},"vehicle_type_id":"4","last_reported":1768950704,"current_range_meters":8400,"station_id":"ce4bhk92rcd13ifvqgb0","pricing_plan_id":"cebpf4jnsgd1na2vs0mg"},{"bike_id":"131d083d-d299-49de-ae79-91ebeb210640","system_id":"levelo_inurba_marseille","lat":43.25712,"lon":5.41796,"is_reserved":false,"is_disabled":false,"rental_uris":{"android":"levelo://app?vid=131d083d-d299-49de-ae79-91ebeb210640","ios":"levelo://app?vid=131d083d-d299-49de-ae79-91ebeb210640"},"vehicle_type_id":"4","last_reported":1768950704,"current_range_meters":8400,"station_id":"","pricing_plan_id":"cebpf4jnsgd1na2vs0mg"},{"bike_id":"416786c9-5441-4ae2-97be-8dd18ff4a833","system_id":"levelo_inurba_marseille","lat":43.26568,"lon":5.40333,"is_reserved":false,"is_disabled":false,"rental_uris":{"android":"levelo://app?vid=416786c9-5441-4ae2-97be-8dd18ff4a833","ios":"levelo://app?vid=416786c9-5441-4ae2-97be-8dd18ff4a833"},"vehicle_type_id":"4","last_reported":1768950704,"current_range_meters":8400,"station_id":"ce4bhmp2rcd13ifvqgng","pricing_plan_id":"cebpf4jnsgd1na2vs0mg"},{"bike_id":"0a751b87-6172-4056-b53a-d56564caeea5","system_id":"levelo_inurba_marseille","lat":43.27068,"lon":5.42286,"is_reserved":false,"is_disabled":false,"rental_uris":{"android":"levelo://app?vid=0a751b87-6172-4056-b53a-d56564caeea5","ios":"levelo://app?vid=0a751b87-6172-4056-b53a-d56564caeea5"},"vehicle_type_id":"4","last_reported":1768950704,"current_range_meters":8400,"station_id":"ce4bhk92rcd13ifvqgb0","pricing_plan_id":"cebpf4jnsgd1na2vs0mg"},{"bike_id":"5fea1bd1-7840-4c76-a700-de066c9350b6","system_id":"levelo_inurba_marseille","lat":43.304233,"lon":5.373472,"is_reserved":false,"is_disabled":false,"rental_uris":{"android":"levelo://app?vid=5fea1bd1-7840-4c76-a700-de066c9350b6","ios":"levelo://app?vid=5fea1bd1-7840-4c76-a700-de066c9350b6"},"vehicle_type_id":"4","last_reported":1768950704,"current_range_meters":8800,"station_id":"ce4bgs92rcd13ifvqcc0","pricing_plan_id":"cebpf4jnsgd1na2vs0mg"},{"bike_id":"e9cf4d98-a47d-4cc7-82f6-b2e075f45c6a","system_id":"levelo_inurba_marseille","lat":43.22559,"lon":5.41627,"is_reserved":false,"is_disabled":false,"rental_uris":{"android":"levelo://app?vid=e9cf4d98-a47d-4cc7-82f6-b2e075f45c6a","ios":"levelo://app?vid=e9cf4d98-a47d-4cc7-82f6-b2e075f45c6a"},"vehicle_type_id":"4","last_reported":1768950704,"current_range_meters":8800,"station_id":"st_d2o4gvlbi1j2169b742g","pricing_plan_id":"cebpf4jnsgd1na2vs0mg"},{"bike_id":"5f477738-733e-4c98-961a-33429c5938fd","system_id":"levelo_inurba_marseille","lat":43.260586,"lon":5.393984,"is_reserved":false,"is_disabled":false,"rental_uris":{"android":"levelo://app?vid=5f477738-733e-4c98-961a-33429c5938fd","ios":"levelo://app?vid=5f477738-733e-4c98-961a-33429c5938fd"},"vehicle_type_id":"4","last_reported":1768950704,"current_range_meters":8800,"station_id":"ce4bhh92rcd13ifvqfj0","pricing_plan_id":"cebpf4jnsgd1na2vs0mg"},{"bike_id":"4f64c259-7ce5-4526-aee3-891cc5b8f8d0","system_id":"levelo_inurba_marseille","lat":43.26941,"lon":5.4026,"is_reserved":false,"is_disabled":false,"rental_uris":{"android":"levelo://app?vid=4f64c259-7ce5-4526-aee3-891cc5b8f8d0","ios":"levelo://app?vid=4f64c259-7ce5-4526-aee3-891cc5b8f8d0"},"vehicle_type_id":"4","last_reported":1768950704,"current_range_meters":8800,"station_id":"cjm6bp8fraef2m0cb0m0","pricing_plan_id":"cebpf4jnsgd1na2vs0mg"},{"bike_id":"9fe9b7fa-bf5e-456b-b148-d56a572e2392","system_id":"levelo_inurba_marseille","lat":43.22559,"lon":5.41625,"is_reserved":false,"is_disabled":false,"rental_uris":{"android":"levelo://app?vid=9fe9b7fa-bf5e-456b-b148-d56a572e2392","ios":"levelo://app?vid=9fe9b7fa-bf5e-456b-b148-d56a572e2392"},"vehicle_type_id":"4","last_reported":1768950704,"current_range_meters":8800,"station_id":"st_d2o4gvlbi1j2169b742g","pricing_plan_id":"cebpf4jnsgd1na2vs0mg"},{"bike_id":"defa344d-3b94-4f48-800d-4b79ad6da430","system_id":"levelo_inurba_marseille","lat":43.29519,"lon":5.39395,"is_reserved":false,"is_disabled":false,"rental_uris":{"android":"levelo://app?vid=defa344d-3b94-4f48-800d-4b79ad6da430","ios":"levelo://app?vid=defa344d-3b94-4f48-800d-4b79ad6da430"},"vehicle_type_id":"4","last_reported":1768950704,"current_range_meters":8800,"station_id":"ce4bh292rcd13ifvqdf0","pricing_plan_id":"cebpf4jnsgd1na2vs0mg"},{"bike_id":"8069f374-6bb2-4df8-950d-be2e50fcd180","system_id":"levelo_inurba_marseille","lat":43.311278,"lon":5.37771,"is_reserved":false,"is_disabled":false,"rental_uris":{"android":"levelo://app?vid=8069f374-6bb2-4df8-950d-be2e50fcd180","ios":"levelo://app?vid=8069f374-6bb2-4df8-950d-be2e50fcd180"},"vehicle_type_id":"4","last_reported":1768950704,"current_range_meters":8800,"station_id":"ce4bgt92rcd13ifvqcg0","pricing_plan_id":"cebpf4jnsgd1na2vs0mg"},{"bike_id":"293a8ab8-0dba-446e-af47-f5b5e7341861","system_id":"levelo_inurba_marseille","lat":43.31527,"lon":5.38039,"is_reserved":false,"is_disabled":false,"rental_uris":{"android":"levelo://app?vid=293a8ab8-0dba-446e-af47-f5b5e7341861","ios":"levelo://app?vid=293a8ab8-0dba-446e-af47-f5b5e7341861"},"vehicle_type_id":"4","last_reported":1768950704,"current_range_meters":8800,"station_id":"ce4bhsp2rcd13ifvqi50","pricing_plan_id":"cebpf4jnsgd1na2vs0mg"},{"bike_id":"054e163b-1e47-4a0a-a038-a7939885860e","system_id":"levelo_inurba_marseille","lat":43.32363,"lon":5.36762,"is_reserved":false,"is_disabled":false,"rental_uris":{"android":"levelo://app?vid=054e163b-1e47-4a0a-a038-a7939885860e","ios":"levelo://app?vid=054e163b-1e47-4a0a-a038-a7939885860e"},"vehicle_type_id":"4","last_reported":1768950704,"current_range_meters":8800,"station_id":"ce4bhsh2rcd13ifvqi2g","pricing_plan_id":"cebpf4jnsgd1na2vs0mg"},{"bike_id":"5bdad711-817a-42cc-84b1-10d4beae812a","system_id":"levelo_inurba_marseille","lat":43.22528,"lon":5.41658,"is_reserved":false,"is_disabled":false,"rental_uris":{"android":"levelo://app?vid=5bdad711-817a-42cc-84b1-10d4beae812a","ios":"levelo://app?vid=5bdad711-817a-42cc-84b1-10d4beae812a"},"vehicle_type_id":"4","last_reported":1768950704,"current_range_meters":8800,"station_id":"st_d2o4gvlbi1j2169b742g","pricing_plan_id":"cebpf4jnsgd1na2vs0mg"},{"bike_id":"632ea2c3-c53a-4018-9265-d1ee46ca52c7","system_id":"levelo_inurba_marseille","lat":43.28466,"lon":5.35897,"is_reserved":false,"is_disabled":false,"rental_uris":{"android":"levelo://app?vid=632ea2c3-c53a-4018-9265-d1ee46ca52c7","ios":"levelo://app?vid=632ea2c3-c53a-4018-9265-d1ee46ca52c7"},"vehicle_type_id":"4","last_reported":1768950704,"current_range_meters":8800,"station_id":"ce4bhah2rcd13ifvqei0","pricing_plan_id":"cebpf4jnsgd1na2vs0mg"},{"bike_id":"eca6ff27-9de1-4b33-8808-d05f55f40e0d","system_id":"levelo_inurba_marseille","lat":43.3012,"lon":5.39882,"is_reserved":false,"is_disabled":true,"rental_uris":{"android":"levelo://app?vid=eca6ff27-9de1-4b33-8808-d05f55f40e0d","ios":"levelo://app?vid=eca6ff27-9de1-4b33-8808-d05f55f40e0d"},"vehicle_type_id":"4","last_reported":1768950704,"current_range_meters":8800,"station_id":"ce4bh0h2rcd13ifvqd40","pricing_plan_id":"cebpf4jnsgd1na2vs0mg"},{"bike_id":"8c9d9dd5-6ae3-4a8b-ab79-ea51ac5d3931","system_id":"levelo_inurba_marseille","lat":43.28028,"lon":5.41674,"is_reserved":false,"is_disabled":true,"rental_uris":{"android":"levelo://app?vid=8c9d9dd5-6ae3-4a8b-ab79-ea51ac5d3931","ios":"levelo://app?vid=8c9d9dd5-6ae3-4a8b-ab79-ea51ac5d3931"},"vehicle_type_id":"4","last_reported":1768950704,"current_range_meters":8800,"station_id":"ce4bho12rcd13ifvqh1g","pricing_plan_id":"cebpf4jnsgd1na2vs0mg"},{"bike_id":"2e67810b-4f4a-431b-b148-ec05c2d01539","system_id":"levelo_inurba_marseille","lat":43.28156,"lon":5.42645,"is_reserved":false,"is_disabled":false,"rental_uris":{"android":"levelo://app?vid=2e67810b-4f4a-431b-b148-ec05c2d01539","ios":"levelo://app?vid=2e67810b-4f4a-431b-b148-ec05c2d01539"},"vehicle_type_id":"4","last_reported":1768950704,"current_range_meters":8800,"station_id":"ce4bhnh2rcd13ifvqgug","pricing_plan_id":"cebpf4jnsgd1na2vs0mg"},{"bike_id":"03176ef4-a9b5-4a67-aabd-2b889872097b","system_id":"levelo_inurba_marseille","lat":43.26564,"lon":5.3904,"is_reserved":false,"is_disabled":false,"rental_uris":{"android":"levelo://app?vid=03176ef4-a9b5-4a67-aabd-2b889872097b","ios":"levelo://app?vid=03176ef4-a9b5-4a67-aabd-2b889872097b"},"vehicle_type_id":"4","last_reported":1768950704,"current_range_meters":8800,"station_id":"ce4bhe12rcd13ifvqf30","pricing_plan_id":"cebpf4jnsgd1na2vs0mg"},{"bike_id":"8e9ce907-79de-4b26-8e03-4caeb4a344bb","system_id":"levelo_inurba_marseille","lat":43.27988,"lon":5.40036,"is_reserved":false,"is_disabled":false,"rental_uris":{"android":"levelo://app?vid=8e9ce907-79de-4b26-8e03-4caeb4a344bb","ios":"levelo://app?vid=8e9ce907-79de-4b26-8e03-4caeb4a344bb"},"vehicle_type_id":"4","last_reported":1768950704,"current_range_meters":8800,"station_id":"ce4bho92rcd13ifvqh4g","pricing_plan_id":"cebpf4jnsgd1na2vs0mg"},{"bike_id":"89680513-f282-4f97-b35c-ae7fbf62a864","system_id":"levelo_inurba_marseille","lat":43.28435,"lon":5.375435,"is_reserved":false,"is_disabled":false,"rental_uris":{"android":"levelo://app?vid=89680513-f282-4f97-b35c-ae7fbf62a864","ios":"levelo://app?vid=89680513-f282-4f97-b35c-ae7fbf62a864"},"vehicle_type_id":"4","last_reported":1768950704,"current_range_meters":8800,"station_id":"ce4bh412rcd13ifvqds0","pricing_plan_id":"cebpf4jnsgd1na2vs0mg"},{"bike_id":"e71d7be0-4c20-4596-8edf-a9c20c73c110","system_id":"levelo_inurba_marseille","lat":43.2798,"lon":5.41667,"is_reserved":false,"is_disabled":false,"rental_uris":{"android":"levelo://app?vid=e71d7be0-4c20-4596-8edf-a9c20c73c110","ios":"levelo://app?vid=e71d7be0-4c20-4596-8edf-a9c20c73c110"},"vehicle_type_id":"4","last_reported":1768950704,"current_range_meters":8800,"station_id":"ce4bho12rcd13ifvqh1g","pricing_plan_id":"cebpf4jnsgd1na2vs0mg"},{"bike_id":"1e9683fd-3419-4707-ab97-e3b80d5f4bea","system_id":"levelo_inurba_marseille","lat":43.27158,"lon":5.40458,"is_reserved":false,"is_disabled":false,"rental_uris":{"android":"levelo://app?vid=1e9683fd-3419-4707-ab97-e3b80d5f4bea","ios":"levelo://app?vid=1e9683fd-3419-4707-ab97-e3b80d5f4bea"},"vehicle_type_id":"4","last_reported":1768950704,"current_range_meters":8800,"station_id":"","pricing_plan_id":"cebpf4jnsgd1na2vs0mg"},{"bike_id":"2c0995a4-2dde-4941-9bf7-449a4c636ac0","system_id":"levelo_inurba_marseille","lat":43.24377,"lon":5.37013,"is_reserved":false,"is_disabled":false,"rental_uris":{"android":"levelo://app?vid=2c0995a4-2dde-4941-9bf7-449a4c636ac0","ios":"levelo://app?vid=2c0995a4-2dde-4941-9bf7-449a4c636ac0"},"vehicle_type_id":"4","last_reported":1768950704,"current_range_meters":8800,"station_id":"ce4bhhh2rcd13ifvqfk0","pricing_plan_id":"cebpf4jnsgd1na2vs0mg"},{"bike_id":"5b876969-e50f-4512-b0eb-c419fb00cef5","system_id":"levelo_inurba_marseille","lat":43.27833,"lon":5.39205,"is_reserved":false,"is_disabled":false,"rental_uris":{"android":"levelo://app?vid=5b876969-e50f-4512-b0eb-c419fb00cef5","ios":"levelo://app?vid=5b876969-e50f-4512-b0eb-c419fb00cef5"},"vehicle_type_id":"4","last_reported":1768950704,"current_range_meters":8800,"station_id":"ce4bhjp2rcd13ifvqga0","pricing_plan_id":"cebpf4jnsgd1na2vs0mg"},{"bike_id":"0e2e23f2-e7b8-48d5-83d0-8839d2044e7a","system_id":"levelo_inurba_marseille","lat":43.29631,"lon":5.40211,"is_reserved":false,"is_disabled":false,"rental_uris":{"android":"levelo://app?vid=0e2e23f2-e7b8-48d5-83d0-8839d2044e7a","ios":"levelo://app?vid=0e2e23f2-e7b8-48d5-83d0-8839d2044e7a"},"vehicle_type_id":"4","last_reported":1768950704,"current_range_meters":8800,"station_id":"","pricing_plan_id":"cebpf4jnsgd1na2vs0mg"},{"bike_id":"e2c28729-8d62-45b4-8926-9ab1e71d898f","system_id":"levelo_inurba_marseille","lat":43.29821,"lon":5.36588,"is_reserved":false,"is_disabled":false,"rental_uris":{"android":"levelo://app?vid=e2c28729-8d62-45b4-8926-9ab1e71d898f","ios":"levelo://app?vid=e2c28729-8d62-45b4-8926-9ab1e71d898f"},"vehicle_type_id":"4","last_reported":1768950704,"current_range_meters":8800,"station_id":"","pricing_plan_id":"cebpf4jnsgd1na2vs0mg"},{"bike_id":"4f4ed773-2cf0-4a1e-88c1-db1d7cfd52cc","system_id":"levelo_inurba_marseille","lat":43.289428,"lon":5.366393,"is_reserved":false,"is_disabled":true,"rental_uris":{"android":"levelo://app?vid=4f4ed773-2cf0-4a1e-88c1-db1d7cfd52cc","ios":"levelo://app?vid=4f4ed773-2cf0-4a1e-88c1-db1d7cfd52cc"},"vehicle_type_id":"4","last_reported":1768950704,"current_range_meters":8800,"station_id":"ce4bhap2rcd13ifvqek0","pricing_plan_id":"cebpf4jnsgd1na2vs0mg"},{"bike_id":"afc5cf36-24cc-47c2-a3b0-94b177a6765f","system_id":"levelo_inurba_marseille","lat":43.29519,"lon":5.39388,"is_reserved":false,"is_disabled":false,"rental_uris":{"android":"levelo://app?vid=afc5cf36-24cc-47c2-a3b0-94b177a6765f","ios":"levelo://app?vid=afc5cf36-24cc-47c2-a3b0-94b177a6765f"},"vehicle_type_id":"4","last_reported":1768950704,"current_range_meters":8800,"station_id":"ce4bh292rcd13ifvqdf0","pricing_plan_id":"cebpf4jnsgd1na2vs0mg"},{"bike_id":"cb4c795d-bfb7-467f-8545-54ed7a77b254","system_id":"levelo_inurba_marseille","lat":43.313585,"lon":5.384909,"is_reserved":false,"is_disabled":false,"rental_uris":{"android":"levelo://app?vid=cb4c795d-bfb7-467f-8545-54ed7a77b254","ios":"levelo://app?vid=cb4c795d-bfb7-467f-8545-54ed7a77b254"},"vehicle_type_id":"4","last_reported":1768950704,"current_range_meters":8800,"station_id":"ce4bgih2rcd13ifvqba0","pricing_plan_id":"cebpf4jnsgd1na2vs0mg"},{"bike_id":"9267c7ed-09d1-4acc-9b62-25216ba3e722","system_id":"levelo_inurba_marseille","lat":43.2861,"lon":5.35106,"is_reserved":false,"is_disabled":false,"rental_uris":{"android":"levelo://app?vid=9267c7ed-09d1-4acc-9b62-25216ba3e722","ios":"levelo://app?vid=9267c7ed-09d1-4acc-9b62-25216ba3e722"},"vehicle_type_id":"4","last_reported":1768950704,"current_range_meters":8800,"station_id":"ce4bhch2rcd13ifvqeug","pricing_plan_id":"cebpf4jnsgd1na2vs0mg"},{"bike_id":"f09c06aa-a05d-4b00-b228-d8bee2b62b4f","system_id":"levelo_inurba_marseille","lat":43.32369,"lon":5.3673,"is_reserved":false,"is_disabled":false,"rental_uris":{"android":"levelo://app?vid=f09c06aa-a05d-4b00-b228-d8bee2b62b4f","ios":"levelo://app?vid=f09c06aa-a05d-4b00-b228-d8bee2b62b4f"},"vehicle_type_id":"4","last_reported":1768950704,"current_range_meters":9200,"station_id":"ce4bhsh2rcd13ifvqi2g","pricing_plan_id":"cebpf4jnsgd1na2vs0mg"},{"bike_id":"5180a0c8-fe0c-40ee-b957-751eccf2b191","system_id":"levelo_inurba_marseille","lat":43.309132,"lon":5.396361,"is_reserved":false,"is_disabled":false,"rental_uris":{"android":"levelo://app?vid=5180a0c8-fe0c-40ee-b957-751eccf2b191","ios":"levelo://app?vid=5180a0c8-fe0c-40ee-b957-751eccf2b191"},"vehicle_type_id":"4","last_reported":1768950704,"current_range_meters":9200,"station_id":"ce4bh012rcd13ifvqcv0","pricing_plan_id":"cebpf4jnsgd1na2vs0mg"},{"bike_id":"b26b1a89-bfd7-4ae9-8891-f8a5f84b50c4","system_id":"levelo_inurba_marseille","lat":43.29266,"lon":5.36847,"is_reserved":false,"is_disabled":false,"rental_uris":{"android":"levelo://app?vid=b26b1a89-bfd7-4ae9-8891-f8a5f84b50c4","ios":"levelo://app?vid=b26b1a89-bfd7-4ae9-8891-f8a5f84b50c4"},"vehicle_type_id":"4","last_reported":1768950704,"current_range_meters":9200,"station_id":"ce4bhbp2rcd13ifvqesg","pricing_plan_id":"cebpf4jnsgd1na2vs0mg"},{"bike_id":"b0213a31-2a3d-47f3-9767-7abf5d4ef79f","system_id":"levelo_inurba_marseille","lat":43.29284,"lon":5.36843,"is_reserved":false,"is_disabled":true,"rental_uris":{"android":"levelo://app?vid=b0213a31-2a3d-47f3-9767-7abf5d4ef79f","ios":"levelo://app?vid=b0213a31-2a3d-47f3-9767-7abf5d4ef79f"},"vehicle_type_id":"4","last_reported":1768950704,"current_range_meters":9200,"station_id":"ce4bhbp2rcd13ifvqesg","pricing_plan_id":"cebpf4jnsgd1na2vs0mg"},{"bike_id":"f73788f7-dec5-4308-a431-6e346b811946","system_id":"levelo_inurba_marseille","lat":43.3018,"lon":5.38133,"is_reserved":false,"is_disabled":false,"rental_uris":{"android":"levelo://app?vid=f73788f7-dec5-4308-a431-6e346b811946","ios":"levelo://app?vid=f73788f7-dec5-4308-a431-6e346b811946"},"vehicle_type_id":"4","last_reported":1768950704,"current_range_meters":9200,"station_id":"","pricing_plan_id":"cebpf4jnsgd1na2vs0mg"},{"bike_id":"00729f81-defe-4949-ab38-da427b717ebf","system_id":"levelo_inurba_marseille","lat":43.262235,"lon":5.404482,"is_reserved":false,"is_disabled":false,"rental_uris":{"android":"levelo://app?vid=00729f81-defe-4949-ab38-da427b717ebf","ios":"levelo://app?vid=00729f81-defe-4949-ab38-da427b717ebf"},"vehicle_type_id":"4","last_reported":1768950704,"current_range_meters":9200,"station_id":"ce4bhmh2rcd13ifvqgmg","pricing_plan_id":"cebpf4jnsgd1na2vs0mg"},{"bike_id":"a7572f73-98f2-44ea-a6f5-f75305cef497","system_id":"levelo_inurba_marseille","lat":43.28481,"lon":5.35929,"is_reserved":false,"is_disabled":false,"rental_uris":{"android":"levelo://app?vid=a7572f73-98f2-44ea-a6f5-f75305cef497","ios":"levelo://app?vid=a7572f73-98f2-44ea-a6f5-f75305cef497"},"vehicle_type_id":"4","last_reported":1768950704,"current_range_meters":9200,"station_id":"","pricing_plan_id":"cebpf4jnsgd1na2vs0mg"},{"bike_id":"31beee0b-310d-4fa6-8c0d-3f98a82c1c3d","system_id":"levelo_inurba_marseille","lat":43.2978,"lon":5.39335,"is_reserved":false,"is_disabled":false,"rental_uris":{"android":"levelo://app?vid=31beee0b-310d-4fa6-8c0d-3f98a82c1c3d","ios":"levelo://app?vid=31beee0b-310d-4fa6-8c0d-3f98a82c1c3d"},"vehicle_type_id":"4","last_reported":1768950704,"current_range_meters":9200,"station_id":"chh1huq6cuj3fo74tm60","pricing_plan_id":"cebpf4jnsgd1na2vs0mg"},{"bike_id":"f3a01c85-86e9-4a7c-837b-602faf4bbfde","system_id":"levelo_inurba_marseille","lat":43.27996,"lon":5.38735,"is_reserved":false,"is_disabled":false,"rental_uris":{"android":"levelo://app?vid=f3a01c85-86e9-4a7c-837b-602faf4bbfde","ios":"levelo://app?vid=f3a01c85-86e9-4a7c-837b-602faf4bbfde"},"vehicle_type_id":"4","last_reported":1768950704,"current_range_meters":9200,"station_id":"ce4bhg12rcd13ifvqf80","pricing_plan_id":"cebpf4jnsgd1na2vs0mg"},{"bike_id":"d13d58e1-80ad-408a-9ae2-c592962896d3","system_id":"levelo_inurba_marseille","lat":43.29519,"lon":5.39404,"is_reserved":false,"is_disabled":false,"rental_uris":{"android":"levelo://app?vid=d13d58e1-80ad-408a-9ae2-c592962896d3","ios":"levelo://app?vid=d13d58e1-80ad-408a-9ae2-c592962896d3"},"vehicle_type_id":"4","last_reported":1768950704,"current_range_meters":9200,"station_id":"ce4bh292rcd13ifvqdf0","pricing_plan_id":"cebpf4jnsgd1na2vs0mg"},{"bike_id":"6b346bde-0fa8-4da9-bd8d-1fc7ba0ea935","system_id":"levelo_inurba_marseille","lat":43.23972,"lon":5.36635,"is_reserved":false,"is_disabled":false,"rental_uris":{"android":"levelo://app?vid=6b346bde-0fa8-4da9-bd8d-1fc7ba0ea935","ios":"levelo://app?vid=6b346bde-0fa8-4da9-bd8d-1fc7ba0ea935"},"vehicle_type_id":"4","last_reported":1768950704,"current_range_meters":9200,"station_id":"ce4bhi12rcd13ifvqfp0","pricing_plan_id":"cebpf4jnsgd1na2vs0mg"},{"bike_id":"83d74db7-e42f-44bf-ac2d-531381e49711","system_id":"levelo_inurba_marseille","lat":43.27916,"lon":5.39577,"is_reserved":false,"is_disabled":false,"rental_uris":{"android":"levelo://app?vid=83d74db7-e42f-44bf-ac2d-531381e49711","ios":"levelo://app?vid=83d74db7-e42f-44bf-ac2d-531381e49711"},"vehicle_type_id":"4","last_reported":1768950704,"current_range_meters":9200,"station_id":"ce4bhf92rcd13ifvqf40","pricing_plan_id":"cebpf4jnsgd1na2vs0mg"},{"bike_id":"7fb60ffe-6256-45db-9ac1-b3f50b4b0668","system_id":"levelo_inurba_marseille","lat":43.25343,"lon":5.42169,"is_reserved":false,"is_disabled":false,"rental_uris":{"android":"levelo://app?vid=7fb60ffe-6256-45db-9ac1-b3f50b4b0668","ios":"levelo://app?vid=7fb60ffe-6256-45db-9ac1-b3f50b4b0668"},"vehicle_type_id":"4","last_reported":1768950704,"current_range_meters":9200,"station_id":"st_d2m65c5bi1j21697t3ng","pricing_plan_id":"cebpf4jnsgd1na2vs0mg"},{"bike_id":"13ede281-534c-4c94-9da9-b88f05e420b7","system_id":"levelo_inurba_marseille","lat":43.29292,"lon":5.4019,"is_reserved":false,"is_disabled":false,"rental_uris":{"android":"levelo://app?vid=13ede281-534c-4c94-9da9-b88f05e420b7","ios":"levelo://app?vid=13ede281-534c-4c94-9da9-b88f05e420b7"},"vehicle_type_id":"4","last_reported":1768950704,"current_range_meters":9200,"station_id":"ce4bh312rcd13ifvqdk0","pricing_plan_id":"cebpf4jnsgd1na2vs0mg"},{"bike_id":"fc4a8836-7e6e-43e7-a51a-c242ca0e9918","system_id":"levelo_inurba_marseille","lat":43.31189,"lon":5.3875,"is_reserved":false,"is_disabled":false,"rental_uris":{"android":"levelo://app?vid=fc4a8836-7e6e-43e7-a51a-c242ca0e9918","ios":"levelo://app?vid=fc4a8836-7e6e-43e7-a51a-c242ca0e9918"},"vehicle_type_id":"4","last_reported":1768950704,"current_range_meters":9200,"station_id":"ce4bgv12rcd13ifvqcp0","pricing_plan_id":"cebpf4jnsgd1na2vs0mg"},{"bike_id":"4b5366c0-edda-495f-a6a3-cd14b6720761","system_id":"levelo_inurba_marseille","lat":43.31993,"lon":5.38135,"is_reserved":false,"is_disabled":false,"rental_uris":{"android":"levelo://app?vid=4b5366c0-edda-495f-a6a3-cd14b6720761","ios":"levelo://app?vid=4b5366c0-edda-495f-a6a3-cd14b6720761"},"vehicle_type_id":"4","last_reported":1768950704,"current_range_meters":9200,"station_id":"ce4bhr12rcd13ifvqhpg","pricing_plan_id":"cebpf4jnsgd1na2vs0mg"},{"bike_id":"003bcc97-56f4-436e-b3ea-5b945473420d","system_id":"levelo_inurba_marseille","lat":43.2377,"lon":5.36642,"is_reserved":false,"is_disabled":false,"rental_uris":{"android":"levelo://app?vid=003bcc97-56f4-436e-b3ea-5b945473420d","ios":"levelo://app?vid=003bcc97-56f4-436e-b3ea-5b945473420d"},"vehicle_type_id":"4","last_reported":1768950704,"current_range_meters":9600,"station_id":"st_d3nk18o9ro0c73en2l3g","pricing_plan_id":"cebpf4jnsgd1na2vs0mg"},{"bike_id":"bbdf18db-231e-4ed5-8700-c5b9cb7287e0","system_id":"levelo_inurba_marseille","lat":43.24808,"lon":5.37457,"is_reserved":false,"is_disabled":false,"rental_uris":{"android":"levelo://app?vid=bbdf18db-231e-4ed5-8700-c5b9cb7287e0","ios":"levelo://app?vid=bbdf18db-231e-4ed5-8700-c5b9cb7287e0"},"vehicle_type_id":"4","last_reported":1768950704,"current_range_meters":9600,"station_id":"ce4bhgh2rcd13ifvqfb0","pricing_plan_id":"cebpf4jnsgd1na2vs0mg"},{"bike_id":"66954d8d-ab08-46d5-92b9-0a3a4c77b375","system_id":"levelo_inurba_marseille","lat":43.28729,"lon":5.36103,"is_reserved":false,"is_disabled":false,"rental_uris":{"android":"levelo://app?vid=66954d8d-ab08-46d5-92b9-0a3a4c77b375","ios":"levelo://app?vid=66954d8d-ab08-46d5-92b9-0a3a4c77b375"},"vehicle_type_id":"4","last_reported":1768950704,"current_range_meters":9600,"station_id":"cki0cbj6b192h4jlfktg","pricing_plan_id":"cebpf4jnsgd1na2vs0mg"},{"bike_id":"c1303e8e-1586-4a54-9d04-8ce864580afd","system_id":"levelo_inurba_marseille","lat":43.30386,"lon":5.41265,"is_reserved":false,"is_disabled":false,"rental_uris":{"android":"levelo://app?vid=c1303e8e-1586-4a54-9d04-8ce864580afd","ios":"levelo://app?vid=c1303e8e-1586-4a54-9d04-8ce864580afd"},"vehicle_type_id":"4","last_reported":1768950704,"current_range_meters":9600,"station_id":"ce4bhop2rcd13ifvqh8g","pricing_plan_id":"cebpf4jnsgd1na2vs0mg"},{"bike_id":"aa66704a-3924-40db-8e4b-4b68dbcdabea","system_id":"levelo_inurba_marseille","lat":43.24949,"lon":5.40506,"is_reserved":false,"is_disabled":false,"rental_uris":{"android":"levelo://app?vid=aa66704a-3924-40db-8e4b-4b68dbcdabea","ios":"levelo://app?vid=aa66704a-3924-40db-8e4b-4b68dbcdabea"},"vehicle_type_id":"4","last_reported":1768950704,"current_range_meters":9600,"station_id":"st_d2ngiaodas8pm72gd1h0","pricing_plan_id":"cebpf4jnsgd1na2vs0mg"},{"bike_id":"ca1f68a2-e356-46d7-8d5f-503710c9279d","system_id":"levelo_inurba_marseille","lat":43.25594,"lon":5.38246,"is_reserved":false,"is_disabled":false,"rental_uris":{"android":"levelo://app?vid=ca1f68a2-e356-46d7-8d5f-503710c9279d","ios":"levelo://app?vid=ca1f68a2-e356-46d7-8d5f-503710c9279d"},"vehicle_type_id":"4","last_reported":1768950704,"current_range_meters":9600,"station_id":"ce4bhih2rcd13ifvqfs0","pricing_plan_id":"cebpf4jnsgd1na2vs0mg"},{"bike_id":"17504108-cc8f-492b-826e-be9781115c71","system_id":"levelo_inurba_marseille","lat":43.28727,"lon":5.37416,"is_reserved":false,"is_disabled":false,"rental_uris":{"android":"levelo://app?vid=17504108-cc8f-492b-826e-be9781115c71","ios":"levelo://app?vid=17504108-cc8f-492b-826e-be9781115c71"},"vehicle_type_id":"4","last_reported":1768950704,"current_range_meters":9600,"station_id":"ce4bh3p2rcd13ifvqdq0","pricing_plan_id":"cebpf4jnsgd1na2vs0mg"},{"bike_id":"f45276d1-dc45-4f09-ba0f-5e5da180d44b","system_id":"levelo_inurba_marseille","lat":43.28945,"lon":5.36425,"is_reserved":false,"is_disabled":false,"rental_uris":{"android":"levelo://app?vid=f45276d1-dc45-4f09-ba0f-5e5da180d44b","ios":"levelo://app?vid=f45276d1-dc45-4f09-ba0f-5e5da180d44b"},"vehicle_type_id":"4","last_reported":1768950704,"current_range_meters":9600,"station_id":"ce4bhc92rcd13ifvqetg","pricing_plan_id":"cebpf4jnsgd1na2vs0mg"},{"bike_id":"aec5c08c-9f05-47e9-bb02-2d63b83fc483","system_id":"levelo_inurba_marseille","lat":43.26755,"lon":5.39237,"is_reserved":false,"is_disabled":false,"rental_uris":{"android":"levelo://app?vid=aec5c08c-9f05-47e9-bb02-2d63b83fc483","ios":"levelo://app?vid=aec5c08c-9f05-47e9-bb02-2d63b83fc483"},"vehicle_type_id":"4","last_reported":1768950704,"current_range_meters":9600,"station_id":"","pricing_plan_id":"cebpf4jnsgd1na2vs0mg"},{"bike_id":"c7cab28c-c458-40b8-abbf-0494e987f4cf","system_id":"levelo_inurba_marseille","lat":43.27828,"lon":5.40707,"is_reserved":false,"is_disabled":false,"rental_uris":{"android":"levelo://app?vid=c7cab28c-c458-40b8-abbf-0494e987f4cf","ios":"levelo://app?vid=c7cab28c-c458-40b8-abbf-0494e987f4cf"},"vehicle_type_id":"4","last_reported":1768950704,"current_range_meters":9600,"station_id":"ce4bhnh2rcd13ifvqgtg","pricing_plan_id":"cebpf4jnsgd1na2vs0mg"},{"bike_id":"f27dbe83-d895-40df-8abf-0e81ee558120","system_id":"levelo_inurba_marseille","lat":43.30723,"lon":5.42437,"is_reserved":false,"is_disabled":false,"rental_uris":{"android":"levelo://app?vid=f27dbe83-d895-40df-8abf-0e81ee558120","ios":"levelo://app?vid=f27dbe83-d895-40df-8abf-0e81ee558120"},"vehicle_type_id":"4","last_reported":1768950704,"current_range_meters":9600,"station_id":"st_cvj6ca6bvosntc0bfgr0","pricing_plan_id":"cebpf4jnsgd1na2vs0mg"},{"bike_id":"5e4f73e3-15b5-4161-b411-195292d3e766","system_id":"levelo_inurba_marseille","lat":43.24465,"lon":5.42538,"is_reserved":false,"is_disabled":false,"rental_uris":{"android":"levelo://app?vid=5e4f73e3-15b5-4161-b411-195292d3e766","ios":"levelo://app?vid=5e4f73e3-15b5-4161-b411-195292d3e766"},"vehicle_type_id":"4","last_reported":1768950704,"current_range_meters":9600,"station_id":"st_d4a3vfp97mjs738cd8kg","pricing_plan_id":"cebpf4jnsgd1na2vs0mg"},{"bike_id":"ec532f83-dab6-476b-a64d-284457f8dfd1","system_id":"levelo_inurba_marseille","lat":43.30727,"lon":5.42449,"is_reserved":false,"is_disabled":false,"rental_uris":{"android":"levelo://app?vid=ec532f83-dab6-476b-a64d-284457f8dfd1","ios":"levelo://app?vid=ec532f83-dab6-476b-a64d-284457f8dfd1"},"vehicle_type_id":"4","last_reported":1768950704,"current_range_meters":9600,"station_id":"st_cvj6ca6bvosntc0bfgr0","pricing_plan_id":"cebpf4jnsgd1na2vs0mg"},{"bike_id":"0913762c-fec5-4f8b-8c0d-1734afbaee4a","system_id":"levelo_inurba_marseille","lat":43.24961,"lon":5.40514,"is_reserved":false,"is_disabled":false,"rental_uris":{"android":"levelo://app?vid=0913762c-fec5-4f8b-8c0d-1734afbaee4a","ios":"levelo://app?vid=0913762c-fec5-4f8b-8c0d-1734afbaee4a"},"vehicle_type_id":"4","last_reported":1768950704,"current_range_meters":9600,"station_id":"st_d2ngiaodas8pm72gd1h0","pricing_plan_id":"cebpf4jnsgd1na2vs0mg"},{"bike_id":"e60b80c1-e035-4d06-8dfd-6a5996278e1f","system_id":"levelo_inurba_marseille","lat":43.24457,"lon":5.42534,"is_reserved":false,"is_disabled":false,"rental_uris":{"android":"levelo://app?vid=e60b80c1-e035-4d06-8dfd-6a5996278e1f","ios":"levelo://app?vid=e60b80c1-e035-4d06-8dfd-6a5996278e1f"},"vehicle_type_id":"4","last_reported":1768950704,"current_range_meters":9600,"station_id":"st_d4a3vfp97mjs738cd8kg","pricing_plan_id":"cebpf4jnsgd1na2vs0mg"},