{"last_updated":1733645519,"ttl":60,"version":"2.2","data":{"bikes":[{"bike_id":"315cda4d-54e6-44c6-9a3e-df4c6e9b61b0","system_id":"levelo_inurba_marseille","lat":43.337444,"lon":5.374475,"is_reserved":false,"is_disabled":false,"rental_uris":{"android":"levelo://app?vid=315cda4d-54e6-44c6-9a3e-df4c6e9b61b0","ios":"levelo://app?vid=315cda4d-54e6-44c6-9a3e-df4c6e9b61b0"},"vehicle_type_id":"4","last_reported":1733645519,"current_range_meters":17200,"station_id":"","pricing_plan_id":"cebpf4jnsgd1na2vs0mg"},{"bike_id":"84041e52-693d-4174-b244-2a69f2b7b850","system_id":"levelo_inurba_marseille","lat":43.26935,"lon":5.3892,"is_reserved":false,"is_disabled":false,"rental_uris":{"android":"levelo://app?vid=84041e52-693d-4174-b244-2a69f2b7b850","ios":"levelo://app?vid=84041e52-693d-4174-b244-2a69f2b7b850"},"vehicle_type_id":"4","last_reported":1733645519,"current_range_meters":36000,"station_id":"ce4bhhh2rcd13ifvqfl0","pricing_plan_id":"cebpf4jnsgd1na2vs0mg"},{"bike_id":"55d7a831-40f8-4501-9bc4-264da11c1dd0","system_id":"levelo_inurba_marseille","lat":43.29264,"lon":5.40119,"is_reserved":false,"is_disabled":true,"rental_uris":{"android":"levelo://app?vid=55d7a831-40f8-4501-9bc4-264da11c1dd0","ios":"levelo://app?vid=55d7a831-40f8-4501-9bc4-264da11c1dd0"},"vehicle_type_id":"4","last_reported":1733645519,"current_range_meters":24000,"station_id":"ce4bh312rcd13ifvqdk0","pricing_plan_id":"cebpf4jnsgd1na2vs0mg"},{"bike_id":"8e029eaf-e104-4c5d-858d-6cd39de73d09","system_id":"levelo_inurba_marseille","lat":43.24171,"lon":5.36388,"is_reserved":false,"is_disabled":false,"rental_uris":{"android":"levelo://app?vid=8e029eaf-e104-4c5d-858d-6cd39de73d09","ios":"levelo://app?vid=8e029eaf-e104-4c5d-858d-6cd39de73d09"},"vehicle_type_id":"4","last_reported":1733645519,"current_range_meters":28000,"station_id":"cpo36qri1sfpv3e86is0","pricing_plan_id":"cebpf4jnsgd1na2vs0mg"},{"bike_id":"7dea0d96-70fa-4522-82a7-67f7fc092a81","system_id":"levelo_inurba_marseille","lat":43.29575,"lon":5.37494,"is_reserved":false,"is_disabled":true,"rental_uris":{"android":"levelo://app?vid=7dea0d96-70fa-4522-82a7-67f7fc092a81","ios":"levelo://app?vid=7dea0d96-70fa-4522-82a7-67f7fc092a81"},"vehicle_type_id":"4","last_reported":1733645519,"current_range_meters":0,"station_id":"ce4bgh92rcd13ifvqb50","pricing_plan_id":"cebpf4jnsgd1na2vs0mg"},{"bike_id":"1595fe43-3a99-4caa-98c6-5b347449a2e3","system_id":"levelo_inurba_marseille","lat":43.27204,"lon":5.39174,"is_reserved":false,"is_disabled":false,"rental_uris":{"android":"levelo://app?vid=1595fe43-3a99-4caa-98c6-5b347449a2e3","ios":"levelo://app?vid=1595fe43-3a99-4caa-98c6-5b347449a2e3"},"vehicle_type_id":"4","last_reported":1733645519,"current_range_meters":18800,"station_id":"ce4bhhp2rcd13ifvqfm0","pricing_plan_id":"cebpf4jnsgd1na2vs0mg"},{"bike_id":"3d2b4324-56ba-4ca4-85fc-7f8261a44d55","system_id":"levelo_inurba_marseille","lat":43.27988,"lon":5.41655,"is_reserved":false,"is_disabled":false,"rental_uris":{"android":"levelo://app?vid=3d2b4324-56ba-4ca4-85fc-7f8261a44d55","ios":"levelo://app?vid=3d2b4324-56ba-4ca4-85fc-7f8261a44d55"},"vehicle_type_id":"4","last_reported":1733645519,"current_range_meters":32400,"station_id":"ce4bho12rcd13ifvqh1g","pricing_plan_id":"cebpf4jnsgd1na2vs0mg"},{"bike_id":"e232d7ae-0864-4a70-8b5e-627ae37536a1","system_id":"levelo_inurba_marseille","lat":43.28107,"lon":5.37845,"is_reserved":false,"is_disabled":false,"rental_uris":{"android":"levelo://app?vid=e232d7ae-0864-4a70-8b5e-627ae37536a1","ios":"levelo://app?vid=e232d7ae-0864-4a70-8b5e-627ae37536a1"},"vehicle_type_id":"4","last_reported":1733645519,"current_range_meters":38800,"station_id":"ce4bha12rcd13ifvqee0","pricing_plan_id":"cebpf4jnsgd1na2vs0mg"},{"bike_id":"e37f0f48-ff13-4242-bca9-0687552cbad4","system_id":"levelo_inurba_marseille","lat":43.33023,"lon":5.39041,"is_reserved":false,"is_disabled":true,"rental_uris":{"android":"levelo://app?vid=e37f0f48-ff13-4242-bca9-0687552cbad4","ios":"levelo://app?vid=e37f0f48-ff13-4242-bca9-0687552cbad4"},"vehicle_type_id":"4","last_reported":1733645519,"current_range_meters":0,"station_id":"ce4bhr92rcd13ifvqhrg","pricing_plan_id":"cebpf4jnsgd1na2vs0mg"},{"bike_id":"f9e2e07a-1a1c-476a-b907-f71ab25c578d","system_id":"levelo_inurba_marseille","lat":43.3149,"lon":5.37301,"is_reserved":false,"is_disabled":false,"rental_uris":{"android":"levelo://app?vid=f9e2e07a-1a1c-476a-b907-f71ab25c578d","ios":"levelo://app?vid=f9e2e07a-1a1c-476a-b907-f71ab25c578d"},"vehicle_type_id":"4","last_reported":1733645519,"current_range_meters":38000,"station_id":"ce4bgt12rcd13ifvqcd0","pricing_plan_id":"cebpf4jnsgd1na2vs0mg"},{"bike_id":"2a4714ce-60ea-4e4b-8d17-db8f48e78980","system_id":"levelo_inurba_marseille","lat":43.32486,"lon":5.36556,"is_reserved":false,"is_disabled":false,"rental_uris":{"android":"levelo://app?vid=2a4714ce-60ea-4e4b-8d17-db8f48e78980","ios":"levelo://app?vid=2a4714ce-60ea-4e4b-8d17-db8f48e78980"},"vehicle_type_id":"4","last_reported":1733645519,"current_range_meters":38800,"station_id":"ce4bhs12rcd13ifvqhvg","pricing_plan_id":"cebpf4jnsgd1na2vs0mg"},{"bike_id":"7c346c6c-ed66-4c5c-b77c-8bab2d3558cd","system_id":"levelo_inurba_marseille","lat":43.29031,"lon":5.38636,"is_reserved":false,"is_disabled":false,"rental_uris":{"android":"levelo://app?vid=7c346c6c-ed66-4c5c-b77c-8bab2d3558cd","ios":"levelo://app?vid=7c346c6c-ed66-4c5c-b77c-8bab2d3558cd"},"vehicle_type_id":"4","last_reported":1733645519,"current_range_meters":4400,"station_id":"ce4bh4p2rcd13ifvqe0g","pricing_plan_id":"cebpf4jnsgd1na2vs0mg"},{"bike_id":"5fd8fda4-5ceb-4e39-b9f4-ea27acda2ce7","system_id":"levelo_inurba_marseille","lat":43.27224,"lon":5.40998,"is_reserved":false,"is_disabled":true,"rental_uris":{"android":"levelo://app?vid=5fd8fda4-5ceb-4e39-b9f4-ea27acda2ce7","ios":"levelo://app?vid=5fd8fda4-5ceb-4e39-b9f4-ea27acda2ce7"},"vehicle_type_id":"4","last_reported":1733645519,"current_range_meters":17200,"station_id":"ce4bhl12rcd13ifvqgf0","pricing_plan_id":"cebpf4jnsgd1na2vs0mg"},{"bike_id":"53c52463-4d8c-4017-9b7d-0b9e4ac562bc","system_id":"levelo_inurba_marseille","lat":43.25493,"lon":5.37649,"is_reserved":false,"is_disabled":false,"rental_uris":{"android":"levelo://app?vid=53c52463-4d8c-4017-9b7d-0b9e4ac562bc","ios":"levelo://app?vid=53c52463-4d8c-4017-9b7d-0b9e4ac562bc"},"vehicle_type_id":"4","last_reported":1733645519,"current_range_meters":33200,"station_id":"ce4bhh12rcd13ifvqff0","pricing_plan_id":"cebpf4jnsgd1na2vs0mg"},{"bike_id":"aec7038c-742f-46ef-8a85-6063c6455cd7","system_id":"levelo_inurba_marseille","lat":43.30884,"lon":5.39627,"is_reserved":false,"is_disabled":false,"rental_uris":{"android":"levelo://app?vid=aec7038c-742f-46ef-8a85-6063c6455cd7","ios":"levelo://app?vid=aec7038c-742f-46ef-8a85-6063c6455cd7"},"vehicle_type_id":"4","last_reported":1733645519,"current_range_meters":30000,"station_id":"ce4bh012rcd13ifvqcv0","pricing_plan_id":"cebpf4jnsgd1na2vs0mg"},{"bike_id":"8bd642b2-0279-44c7-9ee2-fc3b57332c83","system_id":"levelo_inurba_marseille","lat":43.27455,"lon":5.40073,"is_reserved":false,"is_disabled":true,"rental_uris":{"android":"levelo://app?vid=8bd642b2-0279-44c7-9ee2-fc3b57332c83","ios":"levelo://app?vid=8bd642b2-0279-44c7-9ee2-fc3b57332c83"},"vehicle_type_id":"4","last_reported":1733645519,"current_range_meters":0,"station_id":"","pricing_plan_id":"cebpf4jnsgd1na2vs0mg"},{"bike_id":"349533f6-b928-44bd-864c-8d2ec46d158b","system_id":"levelo_inurba_marseille","lat":43.29023,"lon":5.37568,"is_reserved":false,"is_disabled":false,"rental_uris":{"android":"levelo://app?vid=349533f6-b928-44bd-864c-8d2ec46d158b","ios":"levelo://app?vid=349533f6-b928-44bd-864c-8d2ec46d158b"},"vehicle_type_id":"4","last_reported":1733645519,"current_range_meters":31200,"station_id":"ce4bh692rcd13ifvqe90","pricing_plan_id":"cebpf4jnsgd1na2vs0mg"},{"bike_id":"bf7f9dbd-bb96-429c-95f1-29b3881ba5e9","system_id":"levelo_inurba_marseille","lat":43.30806,"lon":5.38147,"is_reserved":false,"is_disabled":false,"rental_uris":{"android":"levelo://app?vid=bf7f9dbd-bb96-429c-95f1-29b3881ba5e9","ios":"levelo://app?vid=bf7f9dbd-bb96-429c-95f1-29b3881ba5e9"},"vehicle_type_id":"4","last_reported":1733645519,"current_range_meters":38800,"station_id":"ce4bgt12rcd13ifvqce0","pricing_plan_id":"cebpf4jnsgd1na2vs0mg"},{"bike_id":"d83d9dc7-ce4c-43e2-8c7d-eeda83c183ce","system_id":"levelo_inurba_marseille","lat":43.26055,"lon":5.39398,"is_reserved":false,"is_disabled":false,"rental_uris":{"android":"levelo://app?vid=d83d9dc7-ce4c-43e2-8c7d-eeda83c183ce","ios":"levelo://app?vid=d83d9dc7-ce4c-43e2-8c7d-eeda83c183ce"},"vehicle_type_id":"4","last_reported":1733645519,"current_range_meters":38400,"station_id":"ce4bhh92rcd13ifvqfj0","pricing_plan_id":"cebpf4jnsgd1na2vs0mg"},{"bike_id":"6293356c-f2a8-454b-8fae-7ad113ad0512","system_id":"levelo_inurba_marseille","lat":43.30643,"lon":5.40074,"is_reserved":false,"is_disabled":false,"rental_uris":{"android":"levelo://app?vid=6293356c-f2a8-454b-8fae-7ad113ad0512","ios":"levelo://app?vid=6293356c-f2a8-454b-8fae-7ad113ad0512"},"vehicle_type_id":"4","last_reported":1733645519,"current_range_meters":28800,"station_id":"ce4bh112rcd13ifvqda0","pricing_plan_id":"cebpf4jnsgd1na2vs0mg"},{"bike_id":"686457d2-dae8-439c-bf96-4daed16541a5","system_id":"levelo_inurba_marseille","lat":43.30474,"lon":5.37907,"is_reserved":false,"is_disabled":false,"rental_uris":{"android":"levelo://app?vid=686457d2-dae8-439c-bf96-4daed16541a5","ios":"levelo://app?vid=686457d2-dae8-439c-bf96-4daed16541a5"},"vehicle_type_id":"4","last_reported":1733645519,"current_range_meters":38800,"station_id":"ce4bgup2rcd13ifvqcn0","pricing_plan_id":"cebpf4jnsgd1na2vs0mg"},{"bike_id":"74cdbc6e-5f1e-47ec-8395-54504d1f82a3","system_id":"levelo_inurba_marseille","lat":43.30877,"lon":5.37189,"is_reserved":false,"is_disabled":false,"rental_uris":{"android":"levelo://app?vid=74cdbc6e-5f1e-47ec-8395-54504d1f82a3","ios":"levelo://app?vid=74cdbc6e-5f1e-47ec-8395-54504d1f82a3"},"vehicle_type_id":"4","last_reported":1733645519,"current_range_meters":38000,"station_id":"ce4bguh2rcd13ifvqckg","pricing_plan_id":"cebpf4jnsgd1na2vs0mg"},{"bike_id":"650aedbd-7fe9-41b2-ab79-4b8450652642","system_id":"levelo_inurba_marseille","lat":43.29191,"lon":5.35792,"is_reserved":false,"is_disabled":true,"rental_uris":{"android":"levelo://app?vid=650aedbd-7fe9-41b2-ab79-4b8450652642","ios":"levelo://app?vid=650aedbd-7fe9-41b2-ab79-4b8450652642"},"vehicle_type_id":"4","last_reported":1733645519,"current_range_meters":37600,"station_id":"ce4bhb12rcd13ifvqel0","pricing_plan_id":"cebpf4jnsgd1na2vs0mg"},{"bike_id":"92fe1ecd-d962-4721-9023-eb907db34c93","system_id":"levelo_inurba_marseille","lat":43.28665,"lon":5.36359,"is_reserved":false,"is_disabled":false,"rental_uris":{"android":"levelo://app?vid=92fe1ecd-d962-4721-9023-eb907db34c93","ios":"levelo://app?vid=92fe1ecd-d962-4721-9023-eb907db34c93"},"vehicle_type_id":"4","last_reported":1733645519,"current_range_meters":38800,"station_id":"ce4bhah2rcd13ifvqej0","pricing_plan_id":"cebpf4jnsgd1na2vs0mg"},{"bike_id":"479889bf-dbf3-4abb-926f-bf7556951acc","system_id":"levelo_inurba_marseille","lat":43.29897,"lon":5.43664,"is_reserved":false,"is_disabled":false,"rental_uris":{"android":"levelo://app?vid=479889bf-dbf3-4abb-926f-bf7556951acc","ios":"levelo://app?vid=479889bf-dbf3-4abb-926f-bf7556951acc"},"vehicle_type_id":"4","last_reported":1733645519,"current_range_meters":38000,"station_id":"ce4bhpp2rcd13ifvqhfg","pricing_plan_id":"cebpf4jnsgd1na2vs0mg"},{"bike_id":"3000a861-0903-41f2-bb5d-48554b17ed5a","system_id":"levelo_inurba_marseille","lat":43.337444,"lon":5.374475,"is_reserved":false,"is_disabled":false,"rental_uris":{"android":"levelo://app?vid=3000a861-0903-41f2-bb5d-48554b17ed5a","ios":"levelo://app?vid=3000a861-0903-41f2-bb5d-48554b17ed5a"},"vehicle_type_id":"4","last_reported":1733645519,"current_range_meters":28800,"station_id":"","pricing_plan_id":"cebpf4jnsgd1na2vs0mg"},{"bike_id":"e14ff483-f290-4a96-beab-fc577b54c818","system_id":"levelo_inurba_marseille","lat":43.28491,"lon":5.36814,"is_reserved":false,"is_disabled":false,"rental_uris":{"android":"levelo://app?vid=e14ff483-f290-4a96-beab-fc577b54c818","ios":"levelo://app?vid=e14ff483-f290-4a96-beab-fc577b54c818"},"vehicle_type_id":"4","last_reported":1733645519,"current_range_meters":12400,"station_id":"","pricing_plan_id":"cebpf4jnsgd1na2vs0mg"},{"bike_id":"81ce3000-a05b-4d2b-b46b-09e6e484470a","system_id":"levelo_inurba_marseille","lat":43.24649,"lon":5.38891,"is_reserved":false,"is_disabled":false,"rental_uris":{"android":"levelo://app?vid=81ce3000-a05b-4d2b-b46b-09e6e484470a","ios":"levelo://app?vid=81ce3000-a05b-4d2b-b46b-09e6e484470a"},"vehicle_type_id":"4","last_reported":1733645519,"current_range_meters":38800,"station_id":"ce4bhg12rcd13ifvqf60","pricing_plan_id":"cebpf4jnsgd1na2vs0mg"},{"bike_id":"95cfddd6-1f3c-4fd2-9652-931f20cf06bd","system_id":"levelo_inurba_marseille","lat":43.25572,"lon":5.38235,"is_reserved":false,"is_disabled":false,"rental_uris":{"android":"levelo://app?vid=95cfddd6-1f3c-4fd2-9652-931f20cf06bd","ios":"levelo://app?vid=95cfddd6-1f3c-4fd2-9652-931f20cf06bd"},"vehicle_type_id":"4","last_reported":1733645519,"current_range_meters":26000,"station_id":"ce4bhih2rcd13ifvqfs0","pricing_plan_id":"cebpf4jnsgd1na2vs0mg"},{"bike_id":"9223c377-69ec-465d-a41a-a36f215c00fc","system_id":"levelo_inurba_marseille","lat":43.29033,"lon":5.39959,"is_reserved":false,"is_disabled":false,"rental_uris":{"android":"levelo://app?vid=9223c377-69ec-465d-a41a-a36f215c00fc","ios":"levelo://app?vid=9223c377-69ec-465d-a41a-a36f215c00fc"},"vehicle_type_id":"4","last_reported":1733645519,"current_range_meters":38800,"station_id":"ce4bh392rcd13ifvqdm0","pricing_plan_id":"cebpf4jnsgd1na2vs0mg"},{"bike_id":"89ceac00-2c22-4cb1-b85d-583fccdb788b","system_id":"levelo_inurba_marseille","lat":43.32086,"lon":5.36787,"is_reserved":false,"is_disabled":false,"rental_uris":{"android":"levelo://app?vid=89ceac00-2c22-4cb1-b85d-583fccdb788b","ios":"levelo://app?vid=89ceac00-2c22-4cb1-b85d-583fccdb788b"},"vehicle_type_id":"4","last_reported":1733645519,"current_range_meters":12800,"station_id":"ce4bhrh2rcd13ifvqhug","pricing_plan_id":"cebpf4jnsgd1na2vs0mg"},{"bike_id":"5cb38839-bade-41dc-bf22-435c98adeaca","system_id":"levelo_inurba_marseille","lat":43.31713,"lon":5.43707,"is_reserved":false,"is_disabled":false,"rental_uris":{"android":"levelo://app?vid=5cb38839-bade-41dc-bf22-435c98adeaca","ios":"levelo://app?vid=5cb38839-bade-41dc-bf22-435c98adeaca"},"vehicle_type_id":"4","last_reported":1733645519,"current_range_meters":38000,"station_id":"ce4bhp92rcd13ifvqhcg","pricing_plan_id":"cebpf4jnsgd1na2vs0mg"},{"bike_id":"ab1f0d28-f380-4551-95aa-09889e73948a","system_id":"levelo_inurba_marseille","lat":43.31125,"lon":5.37779,"is_reserved":false,"is_disabled":false,"rental_uris":{"android":"levelo://app?vid=ab1f0d28-f380-4551-95aa-09889e73948a","ios":"levelo://app?vid=ab1f0d28-f380-4551-95aa-09889e73948a"},"vehicle_type_id":"4","last_reported":1733645519,"current_range_meters":28000,"station_id":"ce4bgt92rcd13ifvqcg0","pricing_plan_id":"cebpf4jnsgd1na2vs0mg"},{"bike_id":"40d6932b-e763-4aa8-a7f1-007bb68b35a7","system_id":"levelo_inurba_marseille","lat":43.34143,"lon":5.40899,"is_reserved":false,"is_disabled":false,"rental_uris":{"android":"levelo://app?vid=40d6932b-e763-4aa8-a7f1-007bb68b35a7","ios":"levelo://app?vid=40d6932b-e763-4aa8-a7f1-007bb68b35a7"},"vehicle_type_id":"4","last_reported":1733645519,"current_range_meters":37600,"station_id":"ce4bhqh2rcd13ifvqhlg","pricing_plan_id":"cebpf4jnsgd1na2vs0mg"},{"bike_id":"e6ef4c64-4c4c-48fa-a061-246db244ae4c","system_id":"levelo_inurba_marseille","lat":43.2558,"lon":5.38236,"is_reserved":false,"is_disabled":false,"rental_uris":{"android":"levelo://app?vid=e6ef4c64-4c4c-48fa-a061-246db244ae4c","ios":"levelo://app?vid=e6ef4c64-4c4c-48fa-a061-246db244ae4c"},"vehicle_type_id":"4","last_reported":1733645519,"current_range_meters":21600,"station_id":"ce4bhih2rcd13ifvqfs0","pricing_plan_id":"cebpf4jnsgd1na2vs0mg"},{"bike_id":"2b247ce2-f875-40e9-bf2a-461f41bc9f8c","system_id":"levelo_inurba_marseille","lat":43.24812,"lon":5.37457,"is_reserved":false,"is_disabled":true,"rental_uris":{"android":"levelo://app?vid=2b247ce2-f875-40e9-bf2a-461f41bc9f8c","ios":"levelo://app?vid=2b247ce2-f875-40e9-bf2a-461f41bc9f8c"},"vehicle_type_id":"4","last_reported":1733645519,"current_range_meters":400,"station_id":"ce4bhgh2rcd13ifvqfb0","pricing_plan_id":"cebpf4jnsgd1na2vs0mg"},{"bike_id":"938640b4-f78c-4def-9b16-e6205edb88bc","system_id":"levelo_inurba_marseille","lat":43.28152,"lon":5.42628,"is_reserved":false,"is_disabled":true,"rental_uris":{"android":"levelo://app?vid=938640b4-f78c-4def-9b16-e6205edb88bc","ios":"levelo://app?vid=938640b4-f78c-4def-9b16-e6205edb88bc"},"vehicle_type_id":"4","last_reported":1733645519,"current_range_meters":10000,"station_id":"ce4bhnh2rcd13ifvqgug","pricing_plan_id":"cebpf4jnsgd1na2vs0mg"},{"bike_id":"bd66e220-aa2d-4e33-82f2-5837531933f5","system_id":"levelo_inurba_marseille","lat":43.26933,"lon":5.38917,"is_reserved":false,"is_disabled":false,"rental_uris":{"android":"levelo://app?vid=bd66e220-aa2d-4e33-82f2-5837531933f5","ios":"levelo://app?vid=bd66e220-aa2d-4e33-82f2-5837531933f5"},"vehicle_type_id":"4","last_reported":1733645519,"current_range_meters":16000,"station_id":"ce4bhhh2rcd13ifvqfl0","pricing_plan_id":"cebpf4jnsgd1na2vs0mg"},{"bike_id":"527c5910-8a21-4eda-90d7-63496c329f8c","system_id":"levelo_inurba_marseille","lat":43.3266,"lon":5.40989,"is_reserved":false,"is_disabled":false,"rental_uris":{"android":"levelo://app?vid=527c5910-8a21-4eda-90d7-63496c329f8c","ios":"levelo://app?vid=527c5910-8a21-4eda-90d7-63496c329f8c"},"vehicle_type_id":"4","last_reported":1733645519,"current_range_meters":35600,"station_id":"ce4bhpp2rcd13ifvqhgg","pricing_plan_id":"cebpf4jnsgd1na2vs0mg"},{"bike_id":"74afb9b9-24d4-4583-a3fe-ca59a6055037","system_id":"levelo_inurba_marseille","lat":43.28867,"lon":5.3585,"is_reserved":false,"is_disabled":false,"rental_uris":{"android":"levelo://app?vid=74afb9b9-24d4-4583-a3fe-ca59a6055037","ios":"levelo://app?vid=74afb9b9-24d4-4583-a3fe-ca59a6055037"},"vehicle_type_id":"4","last_reported":1733645519,"current_range_meters":38800,"station_id":"ce4bhb12rcd13ifvqem0","pricing_plan_id":"cebpf4jnsgd1na2vs0mg"},{"bike_id":"32d80771-6afa-481c-905b-bbdfdc2c61dd","system_id":"levelo_inurba_marseille","lat":43.32484,"lon":5.36572,"is_reserved":false,"is_disabled":true,"rental_uris":{"android":"levelo://app?vid=32d80771-6afa-481c-905b-bbdfdc2c61dd","ios":"levelo://app?vid=32d80771-6afa-481c-905b-bbdfdc2c61dd"},"vehicle_type_id":"4","last_reported":1733645519,"current_range_meters":24000,"station_id":"ce4bhs12rcd13ifvqhvg","pricing_plan_id":"cebpf4jnsgd1na2vs0mg"},{"bike_id":"2f3968e7-9336-4ee4-ba78-8e92c0a818cc","system_id":"levelo_inurba_marseille","lat":43.31322,"lon":5.36647,"is_reserved":false,"is_disabled":true,"rental_uris":{"android":"levelo://app?vid=2f3968e7-9336-4ee4-ba78-8e92c0a818cc","ios":"levelo://app?vid=2f3968e7-9336-4ee4-ba78-8e92c0a818cc"},"vehicle_type_id":"4","last_reported":1733645519,"current_range_meters":0,"station_id":"","pricing_plan_id":"cebpf4jnsgd1na2vs0mg"},{"bike_id":"5ebc19a5-4eab-4ea6-b558-b6d986ab3c2e","system_id":"levelo_inurba_marseille","lat":43.246496,"lon":5.38902,"is_reserved":false,"is_disabled":false,"rental_uris":{"android":"levelo://app?vid=5ebc19a5-4eab-4ea6-b558-b6d986ab3c2e","ios":"levelo://app?vid=5ebc19a5-4eab-4ea6-b558-b6d986ab3c2e"},"vehicle_type_id":"4","last_reported":1733645519,"current_range_meters":38800,"station_id":"ce4bhg12rcd13ifvqf60","pricing_plan_id":"cebpf4jnsgd1na2vs0mg"},{"bike_id":"ab7f76f8-3789-4b4a-8632-18354633ce97","system_id":"levelo_inurba_marseille","lat":43.30549,"lon":5.3654,"is_reserved":false,"is_disabled":false,"rental_uris":{"android":"levelo://app?vid=ab7f76f8-3789-4b4a-8632-18354633ce97","ios":"levelo://app?vid=ab7f76f8-3789-4b4a-8632-18354633ce97"},"vehicle_type_id":"4","last_reported":1733645519,"current_range_meters":37600,"station_id":"ce4bgs12rcd13ifvqcag","pricing_plan_id":"cebpf4jnsgd1na2vs0mg"},{"bike_id":"e8f9137c-0f56-4c2c-b853-b1bdb3d2f467","system_id":"levelo_inurba_marseille","lat":43.29224,"lon":5.3606,"is_reserved":false,"is_disabled":false,"rental_uris":{"android":"levelo://app?vid=e8f9137c-0f56-4c2c-b853-b1bdb3d2f467","ios":"levelo://app?vid=e8f9137c-0f56-4c2c-b853-b1bdb3d2f467"},"vehicle_type_id":"4","last_reported":1733645519,"current_range_meters":19600,"station_id":"ce4bhbh2rcd13ifvqeqg","pricing_plan_id":"cebpf4jnsgd1na2vs0mg"},{"bike_id":"3ba2ee36-2b31-4bc9-b8c0-c8096e25c27c","system_id":"levelo_inurba_marseille","lat":43.29904,"lon":5.4366,"is_reserved":false,"is_disabled":false,"rental_uris":{"android":"levelo://app?vid=3ba2ee36-2b31-4bc9-b8c0-c8096e25c27c","ios":"levelo://app?vid=3ba2ee36-2b31-4bc9-b8c0-c8096e25c27c"},"vehicle_type_id":"4","last_reported":1733645519,"current_range_meters":25600,"station_id":"ce4bhpp2rcd13ifvqhfg","pricing_plan_id":"cebpf4jnsgd1na2vs0mg"},{"bike_id":"022baaa0-60fe-42c8-9545-2a67c58e5e19","system_id":"levelo_inurba_marseille","lat":43.29629,"lon":5.40602,"is_reserved":false,"is_disabled":false,"rental_uris":{"android":"levelo://app?vid=022baaa0-60fe-42c8-9545-2a67c58e5e19","ios":"levelo://app?vid=022baaa0-60fe-42c8-9545-2a67c58e5e19"},"vehicle_type_id":"4","last_reported":1733645519,"current_range_meters":22400,"station_id":"ce4bh0h2rcd13ifvqd60","pricing_plan_id":"cebpf4jnsgd1na2vs0mg"},{"bike_id":"4b44ee6d-fcd6-4dc6-8f44-84800125b288","system_id":"levelo_inurba_marseille","lat":43.2846,"lon":5.35884,"is_reserved":false,"is_disabled":false,"rental_uris":{"android":"levelo://app?vid=4b44ee6d-fcd6-4dc6-8f44-84800125b288","ios":"levelo://app?vid=4b44ee6d-fcd6-4dc6-8f44-84800125b288"},"vehicle_type_id":"4","last_reported":1733645519,"current_range_meters":32800,"station_id":"ce4bhah2rcd13ifvqei0","pricing_plan_id":"cebpf4jnsgd1na2vs0mg"},{"bike_id":"7736d0dc-1989-4505-a61b-7fdb0a6489c6","system_id":"levelo_inurba_marseille","lat":43.32367,"lon":5.38894,"is_reserved":false,"is_disabled":true,"rental_uris":{"android":"levelo://app?vid=7736d0dc-1989-4505-a61b-7fdb0a6489c6","ios":"levelo://app?vid=7736d0dc-1989-4505-a61b-7fdb0a6489c6"},"vehicle_type_id":"4","last_reported":1733645519,"current_range_meters":1200,"station_id":"ce4bhqp2rcd13ifvqhog","pricing_plan_id":"cebpf4jnsgd1na2vs0mg"},{"bike_id":"1e8f9911-49f1-40e7-b2c6-a411a48272e0","system_id":"levelo_inurba_marseille","lat":43.29794,"lon":5.3812,"is_reserved":false,"is_disabled":true,"rental_uris":{"android":"levelo://app?vid=1e8f9911-49f1-40e7-b2c6-a411a48272e0","ios":"levelo://app?vid=1e8f9911-49f1-40e7-b2c6-a411a48272e0"},"vehicle_type_id":"4","last_reported":1733645519,"current_range_meters":22000,"station_id":"ce4bgip2rcd13ifvqbb0","pricing_plan_id":"cebpf4jnsgd1na2vs0mg"},{"bike_id":"6583aefc-6815-4bd5-8f5c-a9c5d794f47e","system_id":"levelo_inurba_marseille","lat":43.36495,"lon":5.34272,"is_reserved":false,"is_disabled":false,"rental_uris":{"android":"levelo://app?vid=6583aefc-6815-4bd5-8f5c-a9c5d794f47e","ios":"levelo://app?vid=6583aefc-6815-4bd5-8f5c-a9c5d794f47e"},"vehicle_type_id":"4","last_reported":1733645519,"current_range_meters":22800,"station_id":"","pricing_plan_id":"cebpf4jnsgd1na2vs0mg"},{"bike_id":"18c465ad-16a0-4d72-a337-11a15929aab8","system_id":"levelo_inurba_marseille","lat":43.23967,"lon":5.36621,"is_reserved":false,"is_disabled":true,"rental_uris":{"android":"levelo://app?vid=18c465ad-16a0-4d72-a337-11a15929aab8","ios":"levelo://app?vid=18c465ad-16a0-4d72-a337-11a15929aab8"},"vehicle_type_id":"4","last_reported":1733645519,"current_range_meters":38000,"station_id":"ce4bhi12rcd13ifvqfp0","pricing_plan_id":"cebpf4jnsgd1na2vs0mg"},{"bike_id":"5abd469a-7386-4b4a-a2de-a9c3ef73095b","system_id":"levelo_inurba_marseille","lat":43.30155,"lon":5.38091,"is_reserved":false,"is_disabled":false,"rental_uris":{"android":"levelo://app?vid=5abd469a-7386-4b4a-a2de-a9c3ef73095b","ios":"levelo://app?vid=5abd469a-7386-4b4a-a2de-a9c3ef73095b"},"vehicle_type_id":"4","last_reported":1733645519,"current_range_meters":30400,"station_id":"ce4bgjp2rcd13ifvqbh0","pricing_plan_id":"cebpf4jnsgd1na2vs0mg"},{"bike_id":"f825a6e3-d202-4ddc-917b-5da49c4114c4","system_id":"levelo_inurba_marseille","lat":43.23197,"lon":5.35545,"is_reserved":false,"is_disabled":false,"rental_uris":{"android":"levelo://app?vid=f825a6e3-d202-4ddc-917b-5da49c4114c4","ios":"levelo://app?vid=f825a6e3-d202-4ddc-917b-5da49c4114c4"},"vehicle_type_id":"4","last_reported":1733645519,"current_range_meters":38000,"station_id":"ce4bhu92rcd13ifvqi70","pricing_plan_id":"cebpf4jnsgd1na2vs0mg"},{"bike_id":"49872fcd-8271-43e7-84e6-b771a2f305b8","system_id":"levelo_inurba_marseille","lat":43.27313,"lon":5.39105,"is_reserved":false,"is_disabled":false,"rental_uris":{"android":"levelo://app?vid=49872fcd-8271-43e7-84e6-b771a2f305b8","ios":"levelo://app?vid=49872fcd-8271-43e7-84e6-b771a2f305b8"},"vehicle_type_id":"4","last_reported":1733645519,"current_range_meters":24800,"station_id":"ce4bhgp2rcd13ifvqfe0","pricing_plan_id":"cebpf4jnsgd1na2vs0mg"},{"bike_id":"468d023e-e483-49f2-92d7-7b95c7b3c650","system_id":"levelo_inurba_marseille","lat":43.2993,"lon":5.43662,"is_reserved":false,"is_disabled":false,"rental_uris":{"android":"levelo://app?vid=468d023e-e483-49f2-92d7-7b95c7b3c650","ios":"levelo://app?vid=468d023e-e483-49f2-92d7-7b95c7b3c650"},"vehicle_type_id":"4","last_reported":1733645519,"current_range_meters":9600,"station_id":"","pricing_plan_id":"cebpf4jnsgd1na2vs0mg"},{"bike_id":"6abdf2a4-1bb1-4a68-ad76-46533474582c","system_id":"levelo_inurba_marseille","lat":43.260276,"lon":5.375533,"is_reserved":false,"is_disabled":false,"rental_uris":{"android":"levelo://app?vid=6abdf2a4-1bb1-4a68-ad76-46533474582c","ios":"levelo://app?vid=6abdf2a4-1bb1-4a68-ad76-46533474582c"},"vehicle_type_id":"4","last_reported":1733645519,"current_range_meters":34000,"station_id":"ce4bhgh2rcd13ifvqfa0","pricing_plan_id":"cebpf4jnsgd1na2vs0mg"},{"bike_id":"ab4ece24-fa72-49e5-a5b0-da9f2811d39a","system_id":"levelo_inurba_marseille","lat":43.28928,"lon":5.36396,"is_reserved":false,"is_disabled":false,"rental_uris":{"android":"levelo://app?vid=ab4ece24-fa72-49e5-a5b0-da9f2811d39a","ios":"levelo://app?vid=ab4ece24-fa72-49e5-a5b0-da9f2811d39a"},"vehicle_type_id":"4","last_reported":1733645519,"current_range_meters":35200,"station_id":"ce4bhc92rcd13ifvqetg","pricing_plan_id":"cebpf4jnsgd1na2vs0mg"},{"bike_id":"622945f2-32de-4a82-ae85-1609e3323e92","system_id":"levelo_inurba_marseille","lat":43.27671,"lon":5.38893,"is_reserved":false,"is_disabled":false,"rental_uris":{"android":"levelo://app?vid=622945f2-32de-4a82-ae85-1609e3323e92","ios":"levelo://app?vid=622945f2-32de-4a82-ae85-1609e3323e92"},"vehicle_type_id":"4","last_reported":1733645519,"current_range_meters":38800,"station_id":"ce4bhi12rcd13ifvqfo0","pricing_plan_id":"cebpf4jnsgd1na2vs0mg"},{"bike_id":"95549e99-3d14-4048-a51a-7392522446dc","system_id":"levelo_inurba_marseille","lat":43.231916,"lon":5.355562,"is_reserved":false,"is_disabled":false,"rental_uris":{"android":"levelo://app?vid=95549e99-3d14-4048-a51a-7392522446dc","ios":"levelo://app?vid=95549e99-3d14-4048-a51a-7392522446dc"},"vehicle_type_id":"4","last_reported":1733645519,"current_range_meters":28400,"station_id":"ce4bhu92rcd13ifvqi70","pricing_plan_id":"cebpf4jnsgd1na2vs0mg"},{"bike_id":"0ae91b1e-777d-4df5-a12e-1138de124b4a","system_id":"levelo_inurba_marseille","lat":43.28271,"lon":5.35072,"is_reserved":false,"is_disabled":false,"rental_uris":{"android":"levelo://app?vid=0ae91b1e-777d-4df5-a12e-1138de124b4a","ios":"levelo://app?vid=0ae91b1e-777d-4df5-a12e-1138de124b4a"},"vehicle_type_id":"4","last_reported":1733645519,"current_range_meters":24000,"station_id":"ce4bhbp2rcd13ifvqerg","pricing_plan_id":"cebpf4jnsgd1na2vs0mg"},{"bike_id":"f10c5e90-601b-4bd4-87e7-4cbb6a13a4fb","system_id":"levelo_inurba_marseille","lat":43.26123,"lon":5.39268,"is_reserved":false,"is_disabled":true,"rental_uris":{"android":"levelo://app?vid=f10c5e90-601b-4bd4-87e7-4cbb6a13a4fb","ios":"levelo://app?vid=f10c5e90-601b-4bd4-87e7-4cbb6a13a4fb"},"vehicle_type_id":"4","last_reported":1733645519,"current_range_meters":0,"station_id":"","pricing_plan_id":"cebpf4jnsgd1na2vs0mg"},{"bike_id":"b1a023a8-bfe2-4a8e-8aaa-4e18b6da929e","system_id":"levelo_inurba_marseille","lat":43.29419,"lon":5.38612,"is_reserved":false,"is_disabled":true,"rental_uris":{"android":"levelo://app?vid=b1a023a8-bfe2-4a8e-8aaa-4e18b6da929e","ios":"levelo://app?vid=b1a023a8-bfe2-4a8e-8aaa-4e18b6da929e"},"vehicle_type_id":"4","last_reported":1733645519,"current_range_meters":3600,"station_id":"ce4bh2h2rcd13ifvqdh0","pricing_plan_id":"cebpf4jnsgd1na2vs0mg"},{"bike_id":"7f10e845-c1cf-45fa-aa2f-716e359991a1","system_id":"levelo_inurba_marseille","lat":43.30882,"lon":5.39665,"is_reserved":false,"is_disabled":false,"rental_uris":{"android":"levelo://app?vid=7f10e845-c1cf-45fa-aa2f-716e359991a1","ios":"levelo://app?vid=7f10e845-c1cf-45fa-aa2f-716e359991a1"},"vehicle_type_id":"4","last_reported":1733645519,"current_range_meters":32000,"station_id":"ce4bh012rcd13ifvqcv0","pricing_plan_id":"cebpf4jnsgd1na2vs0mg"},{"bike_id":"d2d77fb1-d8e4-4d93-af48-f4130e25810f","system_id":"levelo_inurba_marseille","lat":43.25843,"lon":5.39456,"is_reserved":false,"is_disabled":false,"rental_uris":{"android":"levelo://app?vid=d2d77fb1-d8e4-4d93-af48-f4130e25810f","ios":"levelo://app?vid=d2d77fb1-d8e4-4d93-af48-f4130e25810f"},"vehicle_type_id":"4","last_reported":1733645519,"current_range_meters":32800,"station_id":"ce4bhip2rcd13ifvqft0","pricing_plan_id":"cebpf4jnsgd1na2vs0mg"},{"bike_id":"5d5e8e08-dd36-4331-9be8-d7717274c4bc","system_id":"levelo_inurba_marseille","lat":43.31262,"lon":5.40168,"is_reserved":false,"is_disabled":false,"rental_uris":{"android":"levelo://app?vid=5d5e8e08-dd36-4331-9be8-d7717274c4bc","ios":"levelo://app?vid=5d5e8e08-dd36-4331-9be8-d7717274c4bc"},"vehicle_type_id":"4","last_reported":1733645519,"current_range_meters":38400,"station_id":"ce4bh092rcd13ifvqd30","pricing_plan_id":"cebpf4jnsgd1na2vs0mg"},{"bike_id":"836e31b4-84ea-485a-9aef-0c295c7b4152","system_id":"levelo_inurba_marseille","lat":43.23201,"lon":5.35548,"is_reserved":false,"is_disabled":false,"rental_uris":{"android":"levelo://app?vid=836e31b4-84ea-485a-9aef-0c295c7b4152","ios":"levelo://app?vid=836e31b4-84ea-485a-9aef-0c295c7b4152"},"vehicle_type_id":"4","last_reported":1733645519,"current_range_meters":9200,"station_id":"ce4bhu92rcd13ifvqi70","pricing_plan_id":"cebpf4jnsgd1na2vs0mg"},{"bike_id":"95414d5c-6629-4e8c-8b6c-ad295613082f","system_id":"levelo_inurba_marseille","lat":43.30542,"lon":5.36527,"is_reserved":false,"is_disabled":true,"rental_uris":{"android":"levelo://app?vid=95414d5c-6629-4e8c-8b6c-ad295613082f","ios":"levelo://app?vid=95414d5c-6629-4e8c-8b6c-ad295613082f"},"vehicle_type_id":"4","last_reported":1733645519,"current_range_meters":0,"station_id":"ce4bgs12rcd13ifvqcag","pricing_plan_id":"cebpf4jnsgd1na2vs0mg"},{"bike_id":"d1c54e29-6abc-46ab-acdc-a92a33356190","system_id":"levelo_inurba_marseille","lat":43.336041,"lon":5.410328,"is_reserved":false,"is_disabled":false,"rental_uris":{"android":"levelo://app?vid=d1c54e29-6abc-46ab-acdc-a92a33356190","ios":"levelo://app?vid=d1c54e29-6abc-46ab-acdc-a92a33356190"},"vehicle_type_id":"4","last_reported":1733645519,"current_range_meters":27600,"station_id":"ce4bhqh2rcd13ifvqhmg","pricing_plan_id":"cebpf4jnsgd1na2vs0mg"},{"bike_id":"71512a7b-46c5-4d45-9ffe-dca1cfaf71f8","system_id":"levelo_inurba_marseille","lat":43.32542,"lon":5.41448,"is_reserved":false,"is_disabled":false,"rental_uris":{"android":"levelo://app?vid=71512a7b-46c5-4d45-9ffe-dca1cfaf71f8","ios":"levelo://app?vid=71512a7b-46c5-4d45-9ffe-dca1cfaf71f8"},"vehicle_type_id":"4","last_reported":1733645519,"current_range_meters":38800,"station_id":"ce4bhq12rcd13ifvqhhg","pricing_plan_id":"cebpf4jnsgd1na2vs0mg"},{"bike_id":"94595565-54d5-4386-9c62-8b6cb35f0cf0","system_id":"levelo_inurba_marseille","lat":43.28939,"lon":5.39624,"is_reserved":false,"is_disabled":false,"rental_uris":{"android":"levelo://app?vid=94595565-54d5-4386-9c62-8b6cb35f0cf0","ios":"levelo://app?vid=94595565-54d5-4386-9c62-8b6cb35f0cf0"},"vehicle_type_id":"4","last_reported":1733645519,"current_range_meters":36800,"station_id":"ce4bh3h2rcd13ifvqdn0","pricing_plan_id":"cebpf4jnsgd1na2vs0mg"},{"bike_id":"4e8813f7-059e-4f1a-92cd-87fd97b079e7","system_id":"levelo_inurba_marseille","lat":43.304211,"lon":5.412772,"is_reserved":false,"is_disabled":false,"rental_uris":{"android":"levelo://app?vid=4e8813f7-059e-4f1a-92cd-87fd97b079e7","ios":"levelo://app?vid=4e8813f7-059e-4f1a-92cd-87fd97b079e7"},"vehicle_type_id":"4","last_reported":1733645519,"current_range_meters":38800,"station_id":"ce4bhop2rcd13ifvqh8g","pricing_plan_id":"cebpf4jnsgd1na2vs0mg"},{"bike_id":"21835eb8-c8da-486b-9ba8-505880f36e12","system_id":"levelo_inurba_marseille","lat":43.31269,"lon":5.40169,"is_reserved":false,"is_disabled":false,"rental_uris":{"android":"levelo://app?vid=21835eb8-c8da-486b-9ba8-505880f36e12","ios":"levelo://app?vid=21835eb8-c8da-486b-9ba8-505880f36e12"},"vehicle_type_id":"4","last_reported":1733645519,"current_range_meters":33200,"station_id":"ce4bh092rcd13ifvqd30","pricing_plan_id":"cebpf4jnsgd1na2vs0mg"},{"bike_id":"c9b870d0-adbc-477b-b2c3-23e72738799d","system_id":"levelo_inurba_marseille","lat":43.24173,"lon":5.39728,"is_reserved":false,"is_disabled":false,"rental_uris":{"android":"levelo://app?vid=c9b870d0-adbc-477b-b2c3-23e72738799d","ios":"levelo://app?vid=c9b870d0-adbc-477b-b2c3-23e72738799d"},"vehicle_type_id":"4","last_reported":1733645519,"current_range_meters":22400,"station_id":"ce4bhn12rcd13ifvqgpg","pricing_plan_id":"cebpf4jnsgd1na2vs0mg"},{"bike_id":"533e4bdd-a04c-4e4a-8222-83b357db9c26","system_id":"levelo_inurba_marseille","lat":43.3028,"lon":5.37696,"is_reserved":false,"is_disabled":false,"rental_uris":{"android":"levelo://app?vid=533e4bdd-a04c-4e4a-8222-83b357db9c26","ios":"levelo://app?vid=533e4bdd-a04c-4e4a-8222-83b357db9c26"},"vehicle_type_id":"4","last_reported":1733645519,"current_range_meters":27600,"station_id":"ce4bguh2rcd13ifvqcj0","pricing_plan_id":"cebpf4jnsgd1na2vs0mg"},{"bike_id":"91783b60-77e0-4efe-872b-2f1ffeb11c74","system_id":"levelo_inurba_marseille","lat":43.28942,"lon":5.36625,"is_reserved":false,"is_disabled":false,"rental_uris":{"android":"levelo://app?vid=91783b60-77e0-4efe-872b-2f1ffeb11c74","ios":"levelo://app?vid=91783b60-77e0-4efe-872b-2f1ffeb11c74"},"vehicle_type_id":"4","last_reported":1733645519,"current_range_meters":36000,"station_id":"ce4bhap2rcd13ifvqek0","pricing_plan_id":"cebpf4jnsgd1na2vs0mg"},{"bike_id":"9d519bb5-921f-4226-bc2d-b710c52af635","system_id":"levelo_inurba_marseille","lat":43.30616,"lon":5.40082,"is_reserved":false,"is_disabled":false,"rental_uris":{"android":"levelo://app?vid=9d519bb5-921f-4226-bc2d-b710c52af635","ios":"levelo://app?vid=9d519bb5-921f-4226-bc2d-b710c52af635"},"vehicle_type_id":"4","last_reported":1733645519,"current_range_meters":30800,"station_id":"ce4bh112rcd13ifvqda0","pricing_plan_id":"cebpf4jnsgd1na2vs0mg"},{"bike_id":"2a022814-f741-4adf-a235-83d4941bf5e2","system_id":"levelo_inurba_marseille","lat":43.28428,"lon":5.34994,"is_reserved":false,"is_disabled":false,"rental_uris":{"android":"levelo://app?vid=2a022814-f741-4adf-a235-83d4941bf5e2","ios":"levelo://app?vid=2a022814-f741-4adf-a235-83d4941bf5e2"},"vehicle_type_id":"4","last_reported":1733645519,"current_range_meters":13600,"station_id":"ce4bhbh2rcd13ifvqepg","pricing_plan_id":"cebpf4jnsgd1na2vs0mg"},{"bike_id":"67378829-8746-46f4-aa10-ed9b35d85ab5","system_id":"levelo_inurba_marseille","lat":43.28942,"lon":5.36627,"is_reserved":false,"is_disabled":true,"rental_uris":{"android":"levelo://app?vid=67378829-8746-46f4-aa10-ed9b35d85ab5","ios":"levelo://app?vid=67378829-8746-46f4-aa10-ed9b35d85ab5"},"vehicle_type_id":"4","last_reported":1733645519,"current_range_meters":8400,"station_id":"ce4bhap2rcd13ifvqek0","pricing_plan_id":"cebpf4jnsgd1na2vs0mg"},{"bike_id":"1285562f-cb61-40cc-b4ee-02ccfbedc631","system_id":"levelo_inurba_marseille","lat":43.29197,"lon":5.39324,"is_reserved":false,"is_disabled":false,"rental_uris":{"android":"levelo://app?vid=1285562f-cb61-40cc-b4ee-02ccfbedc631","ios":"levelo://app?vid=1285562f-cb61-40cc-b4ee-02ccfbedc631"},"vehicle_type_id":"4","last_reported":1733645519,"current_range_meters":38800,"station_id":"ce4bh192rcd13ifvqdd0","pricing_plan_id":"cebpf4jnsgd1na2vs0mg"},{"bike_id":"f56a9591-0b52-4a17-9f09-b294a396d495","system_id":"levelo_inurba_marseille","lat":43.23968,"lon":5.36622,"is_reserved":false,"is_disabled":false,"rental_uris":{"android":"levelo://app?vid=f56a9591-0b52-4a17-9f09-b294a396d495","ios":"levelo://app?vid=f56a9591-0b52-4a17-9f09-b294a396d495"},"vehicle_type_id":"4","last_reported":1733645519,"current_range_meters":16000,"station_id":"ce4bhi12rcd13ifvqfp0","pricing_plan_id":"cebpf4jnsgd1na2vs0mg"},{"bike_id":"43d7eecc-95c9-476c-817a-455c2aff05c6","system_id":"levelo_inurba_marseille","lat":43.23178,"lon":5.39986,"is_reserved":false,"is_disabled":false,"rental_uris":{"android":"levelo://app?vid=43d7eecc-95c9-476c-817a-455c2aff05c6","ios":"levelo://app?vid=43d7eecc-95c9-476c-817a-455c2aff05c6"},"vehicle_type_id":"4","last_reported":1733645519,"current_range_meters":38800,"station_id":"ce4bhn12rcd13ifvqgqg","pricing_plan_id":"cebpf4jnsgd1na2vs0mg"},{"bike_id":"38b196cd-99f9-4b1e-a25a-7bcbbf214737","system_id":"levelo_inurba_marseille","lat":43.29637,"lon":5.40598,"is_reserved":false,"is_disabled":false,"rental_uris":{"android":"levelo://app?vid=38b196cd-99f9-4b1e-a25a-7bcbbf214737","ios":"levelo://app?vid=38b196cd-99f9-4b1e-a25a-7bcbbf214737"},"vehicle_type_id":"4","last_reported":1733645519,"current_range_meters":30000,"station_id":"ce4bh0h2rcd13ifvqd60","pricing_plan_id":"cebpf4jnsgd1na2vs0mg"},{"bike_id":"f942e722-5039-4601-9971-0207b150598d","system_id":"levelo_inurba_marseille","lat":43.29854,"lon":5.36283,"is_reserved":false,"is_disabled":false,"rental_uris":{"android":"levelo://app?vid=f942e722-5039-4601-9971-0207b150598d","ios":"levelo://app?vid=f942e722-5039-4601-9971-0207b150598d"},"vehicle_type_id":"4","last_reported":1733645519,"current_range_meters":33200,"station_id":"ce4bgpp2rcd13ifvqc3g","pricing_plan_id":"cebpf4jnsgd1na2vs0mg"},{"bike_id":"987a5ab4-d60c-480c-94b6-7cab38975402","system_id":"levelo_inurba_marseille","lat":43.29748,"lon":5.37971,"is_reserved":false,"is_disabled":true,"rental_uris":{"android":"levelo://app?vid=987a5ab4-d60c-480c-94b6-7cab38975402","ios":"levelo://app?vid=987a5ab4-d60c-480c-94b6-7cab38975402"},"vehicle_type_id":"4","last_reported":1733645519,"current_range_meters":0,"station_id":"","pricing_plan_id":"cebpf4jnsgd1na2vs0mg"},{"bike_id":"9cd79aab-6f4c-4919-b570-803a9e8b35c5","system_id":"levelo_inurba_marseille","lat":43.30624,"lon":5.36577,"is_reserved":false,"is_disabled":true,"rental_uris":{"android":"levelo://app?vid=9cd79aab-6f4c-4919-b570-803a9e8b35c5","ios":"levelo://app?vid=9cd79aab-6f4c-4919-b570-803a9e8b35c5"},"vehicle_type_id":"4","last_reported":1733645519,"current_range_meters":35600,"station_id":"","pricing_plan_id":"cebpf4jnsgd1na2vs0mg"},{"bike_id":"c494896d-7057-45ba-b49a-795d8b411ee7","system_id":"levelo_inurba_marseille","lat":43.29188,"lon":5.35811,"is_reserved":false,"is_disabled":false,"rental_uris":{"android":"levelo://app?vid=c494896d-7057-45ba-b49a-795d8b411ee7","ios":"levelo://app?vid=c494896d-7057-45ba-b49a-795d8b411ee7"},"vehicle_type_id":"4","last_reported":1733645519,"current_range_meters":37600,"station_id":"ce4bhb12rcd13ifvqel0","pricing_plan_id":"cebpf4jnsgd1na2vs0mg"},{"bike_id":"1d3aa2c3-261e-4178-a14a-8adbfbaec563","system_id":"levelo_inurba_marseille","lat":43.27176,"lon":5.40994,"is_reserved":false,"is_disabled":false,"rental_uris":{"android":"levelo://app?vid=1d3aa2c3-261e-4178-a14a-8adbfbaec563","ios":"levelo://app?vid=1d3aa2c3-261e-4178-a14a-8adbfbaec563"},"vehicle_type_id":"4","last_reported":1733645519,"current_range_meters":21600,"station_id":"ce4bhl12rcd13ifvqgf0","pricing_plan_id":"cebpf4jnsgd1na2vs0mg"},{"bike_id":"165d3311-a977-4745-b689-5e6993d37f26","system_id":"levelo_inurba_marseille","lat":43.324803,"lon":5.365799,"is_reserved":false,"is_disabled":true,"rental_uris":{"android":"levelo://app?vid=165d3311-a977-4745-b689-5e6993d37f26","ios":"levelo://app?vid=165d3311-a977-4745-b689-5e6993d37f26"},"vehicle_type_id":"4","last_reported":1733645519,"current_range_meters":32800,"station_id":"ce4bhs12rcd13ifvqhvg","pricing_plan_id":"cebpf4jnsgd1na2vs0mg"},{"bike_id":"b6da6692-7e69-4e98-8ae5-84a8533f251e","system_id":"levelo_inurba_marseille","lat":43.30553,"lon":5.36534,"is_reserved":false,"is_disabled":true,"rental_uris":{"android":"levelo://app?vid=b6da6692-7e69-4e98-8ae5-84a8533f251e","ios":"levelo://app?vid=b6da6692-7e69-4e98-8ae5-84a8533f251e"},"vehicle_type_id":"4","last_reported":1733645519,"current_range_meters":7200,"station_id":"ce4bgs12rcd13ifvqcag","pricing_plan_id":"cebpf4jnsgd1na2vs0mg"},{"bike_id":"05f50a29-9b9d-41ae-8b43-3d69a9a4fb88","system_id":"levelo_inurba_marseille","lat":43.25577,"lon":5.38237,"is_reserved":false,"is_disabled":false,"rental_uris":{"android":"levelo://app?vid=05f50a29-9b9d-41ae-8b43-3d69a9a4fb88","ios":"levelo://app?vid=05f50a29-9b9d-41ae-8b43-3d69a9a4fb88"},"vehicle_type_id":"4","last_reported":1733645519,"current_range_meters":38800,"station_id":"ce4bhih2rcd13ifvqfs0","pricing_plan_id":"cebpf4jnsgd1na2vs0mg"},{"bike_id":"11e86528-eb6b-4391-86a5-9b1822d069a4","system_id":"levelo_inurba_marseille","lat":43.278805,"lon":5.388003,"is_reserved":false,"is_disabled":true,"rental_uris":{"android":"levelo://app?vid=11e86528-eb6b-4391-86a5-9b1822d069a4","ios":"levelo://app?vid=11e86528-eb6b-4391-86a5-9b1822d069a4"},"vehicle_type_id":"4","last_reported":1733645519,"current_range_meters":0,"station_id":"","pricing_plan_id":"cebpf4jnsgd1na2vs0mg"},{"bike_id":"6cc6805f-c0ca-4585-bdf1-b5a0339762b0","system_id":"levelo_inurba_marseille","lat":43.29027,"lon":5.42744,"is_reserved":false,"is_disabled":true,"rental_uris":{"android":"levelo://app?vid=6cc6805f-c0ca-4585-bdf1-b5a0339762b0","ios":"levelo://app?vid=6cc6805f-c0ca-4585-bdf1-b5a0339762b0"},"vehicle_type_id":"4","last_reported":1733645519,"current_range_meters":0,"station_id":"","pricing_plan_id":"cebpf4jnsgd1na2vs0mg"},{"bike_id":"fbab0e01-40cc-4eff-939a-d9a8fdd7ac42","system_id":"levelo_inurba_marseille","lat":43.2573,"lon":5.41105,"is_reserved":false,"is_disabled":false,"rental_uris":{"android":"levelo://app?vid=fbab0e01-40cc-4eff-939a-d9a8fdd7ac42","ios":"levelo://app?vid=fbab0e01-40cc-4eff-939a-d9a8fdd7ac42"},"vehicle_type_id":"4","last_reported":1733645519,"current_range_meters":20800,"station_id":"ce4bhkp2rcd13ifvqgd0","pricing_plan_id":"cebpf4jnsgd1na2vs0mg"},{"bike_id":"7fe86e8b-f1b3-47fd-84b6-643366f68e78","system_id":"levelo_inurba_marseille","lat":43.35567,"lon":5.361812,"is_reserved":false,"is_disabled":false,"rental_uris":{"android":"levelo://app?vid=7fe86e8b-f1b3-47fd-84b6-643366f68e78","ios":"levelo://app?vid=7fe86e8b-f1b3-47fd-84b6-643366f68e78"},"vehicle_type_id":"4","last_reported":1733645519,"current_range_meters":9600,"station_id":"","pricing_plan_id":"cebpf4jnsgd1na2vs0mg"},{"bike_id":"0618e41c-8092-45a3-9464-a3eb184aee25","system_id":"levelo_inurba_marseille","lat":43.26557,"lon":5.37282,"is_reserved":false,"is_disabled":false,"rental_uris":{"android":"levelo://app?vid=0618e41c-8092-45a3-9464-a3eb184aee25","ios":"levelo://app?vid=0618e41c-8092-45a3-9464-a3eb184aee25"},"vehicle_type_id":"4","last_reported":1733645519,"current_range_meters":16800,"station_id":"ce4bhg12rcd13ifvqf70","pricing_plan_id":"cebpf4jnsgd1na2vs0mg"},{"bike_id":"5164a5cb-b5f9-4cde-b04b-59b7f9f61922","system_id":"levelo_inurba_marseille","lat":43.3108,"lon":5.42434,"is_reserved":false,"is_disabled":false,"rental_uris":{"android":"levelo://app?vid=5164a5cb-b5f9-4cde-b04b-59b7f9f61922","ios":"levelo://app?vid=5164a5cb-b5f9-4cde-b04b-59b7f9f61922"},"vehicle_type_id":"4","last_reported":1733645519,"current_range_meters":37600,"station_id":"ce4bhp92rcd13ifvqhag","pricing_plan_id":"cebpf4jnsgd1na2vs0mg"},{"bike_id":"c930db70-43dd-4312-95ff-977a1b5b5dd8","system_id":"levelo_inurba_marseille","lat":43.28154,"lon":5.42642,"is_reserved":false,"is_disabled":false,"rental_uris":{"android":"levelo://app?vid=c930db70-43dd-4312-95ff-977a1b5b5dd8","ios":"levelo://app?vid=c930db70-43dd-4312-95ff-977a1b5b5dd8"},"vehicle_type_id":"4","last_reported":1733645519,"current_range_meters":18800,"station_id":"ce4bhnh2rcd13ifvqgug","pricing_plan_id":"cebpf4jnsgd1na2vs0mg"},{"bike_id":"ea9504d9-aff2-4542-b984-f952cc4ceb4b","system_id":"levelo_inurba_marseille","lat":43.25013,"lon":5.38909,"is_reserved":false,"is_disabled":false,"rental_uris":{"android":"levelo://app?vid=ea9504d9-aff2-4542-b984-f952cc4ceb4b","ios":"levelo://app?vid=ea9504d9-aff2-4542-b984-f952cc4ceb4b"},"vehicle_type_id":"4","last_reported":1733645519,"current_range_meters":11600,"station_id":"ce4bhgp2rcd13ifvqfd0","pricing_plan_id":"cebpf4jnsgd1na2vs0mg"},{"bike_id":"bea1d251-e666-49d0-ad77-312884f07acc","system_id":"levelo_inurba_marseille","lat":43.30944,"lon":5.39038,"is_reserved":false,"is_disabled":false,"rental_uris":{"android":"levelo://app?vid=bea1d251-e666-49d0-ad77-312884f07acc","ios":"levelo://app?vid=bea1d251-e666-49d0-ad77-312884f07acc"},"vehicle_type_id":"4","last_reported":1733645519,"current_range_meters":36800,"station_id":"ce4bgup2rcd13ifvqco0","pricing_plan_id":"cebpf4jnsgd1na2vs0mg"},{"bike_id":"419212a2-021f-4ce3-b77e-517f77b09479","system_id":"levelo_inurba_marseille","lat":43.26558,"lon":5.37283,"is_reserved":false,"is_disabled":false,"rental_uris":{"android":"levelo://app?vid=419212a2-021f-4ce3-b77e-517f77b09479","ios":"levelo://app?vid=419212a2-021f-4ce3-b77e-517f77b09479"},"vehicle_type_id":"4","last_reported":1733645519,"current_range_meters":24400,"station_id":"ce4bhg12rcd13ifvqf70","pricing_plan_id":"cebpf4jnsgd1na2vs0mg"},{"bike_id":"968a09cf-4a23-4936-af82-5c1ca631252a","system_id":"levelo_inurba_marseille","lat":43.33605,"lon":5.41029,"is_reserved":false,"is_disabled":false,"rental_uris":{"android":"levelo://app?vid=968a09cf-4a23-4936-af82-5c1ca631252a","ios":"levelo://app?vid=968a09cf-4a23-4936-af82-5c1ca631252a"},"vehicle_type_id":"4","last_reported":1733645519,"current_range_meters":36400,"station_id":"ce4bhqh2rcd13ifvqhmg","pricing_plan_id":"cebpf4jnsgd1na2vs0mg"},{"bike_id":"b04b4f64-4677-4acc-9cf8-88c63ef2a0e8","system_id":"levelo_inurba_marseille","lat":43.2315,"lon":5.43704,"is_reserved":false,"is_disabled":false,"rental_uris":{"android":"levelo://app?vid=b04b4f64-4677-4acc-9cf8-88c63ef2a0e8","ios":"levelo://app?vid=b04b4f64-4677-4acc-9cf8-88c63ef2a0e8"},"vehicle_type_id":"4","last_reported":1733645519,"current_range_meters":37600,"station_id":"ce4bhmp2rcd13ifvqgog","pricing_plan_id":"cebpf4jnsgd1na2vs0mg"},{"bike_id":"3a1cabfd-7ea0-40e5-ba2a-bc16f7acb1fa","system_id":"levelo_inurba_marseille","lat":43.3433,"lon":5.35815,"is_reserved":false,"is_disabled":true,"rental_uris":{"android":"levelo://app?vid=3a1cabfd-7ea0-40e5-ba2a-bc16f7acb1fa","ios":"levelo://app?vid=3a1cabfd-7ea0-40e5-ba2a-bc16f7acb1fa"},"vehicle_type_id":"4","last_reported":1733645519,"current_range_meters":2800,"station_id":"","pricing_plan_id":"cebpf4jnsgd1na2vs0mg"},{"bike_id":"5363ff62-efb4-4016-aaa0-446a3d22fb30","system_id":"levelo_inurba_marseille","lat":43.28864,"lon":5.35852,"is_reserved":false,"is_disabled":false,"rental_uris":{"android":"levelo://app?vid=5363ff62-efb4-4016-aaa0-446a3d22fb30","ios":"levelo://app?vid=5363ff62-efb4-4016-aaa0-446a3d22fb30"},"vehicle_type_id":"4","last_reported":1733645519,"current_range_meters":28000,"station_id":"ce4bhb12rcd13ifvqem0","pricing_plan_id":"cebpf4jnsgd1na2vs0mg"},{"bike_id":"14726b6f-5ec7-4a0f-85ef-530d09932e2f","system_id":"levelo_inurba_marseille","lat":43.25718,"lon":5.41113,"is_reserved":false,"is_disabled":false,"rental_uris":{"android":"levelo://app?vid=14726b6f-5ec7-4a0f-85ef-530d09932e2f","ios":"levelo://app?vid=14726b6f-5ec7-4a0f-85ef-530d09932e2f"},"vehicle_type_id":"4","last_reported":1733645519,"current_range_meters":12800,"station_id":"ce4bhkp2rcd13ifvqgd0","pricing_plan_id":"cebpf4jnsgd1na2vs0mg"},{"bike_id":"6975187f-29b4-4e6e-ab5f-82b6b91b9eff","system_id":"levelo_inurba_marseille","lat":43.25118,"lon":5.40324,"is_reserved":false,"is_disabled":false,"rental_uris":{"android":"levelo://app?vid=6975187f-29b4-4e6e-ab5f-82b6b91b9eff","ios":"levelo://app?vid=6975187f-29b4-4e6e-ab5f-82b6b91b9eff"},"vehicle_type_id":"4","last_reported":1733645519,"current_range_meters":38800,"station_id":"ce4bhlh2rcd13ifvqgig","pricing_plan_id":"cebpf4jnsgd1na2vs0mg"},{"bike_id":"95b68163-8c31-4ce4-989b-0d594a1f53e9","system_id":"levelo_inurba_marseille","lat":43.29679,"lon":5.37255,"is_reserved":false,"is_disabled":false,"rental_uris":{"android":"levelo://app?vid=95b68163-8c31-4ce4-989b-0d594a1f53e9","ios":"levelo://app?vid=95b68163-8c31-4ce4-989b-0d594a1f53e9"},"vehicle_type_id":"4","last_reported":1733645519,"current_range_meters":33200,"station_id":"ce4bgk12rcd13ifvqbj0","pricing_plan_id":"cebpf4jnsgd1na2vs0mg"},{"bike_id":"0d08de15-f48c-47e6-94e0-78793ca4449e","system_id":"levelo_inurba_marseille","lat":43.30312,"lon":5.36903,"is_reserved":false,"is_disabled":false,"rental_uris":{"android":"levelo://app?vid=0d08de15-f48c-47e6-94e0-78793ca4449e","ios":"levelo://app?vid=0d08de15-f48c-47e6-94e0-78793ca4449e"},"vehicle_type_id":"4","last_reported":1733645519,"current_range_meters":24400,"station_id":"ce4bgqh2rcd13ifvqc5g","pricing_plan_id":"cebpf4jnsgd1na2vs0mg"},{"bike_id":"4f2a7311-6ddc-4ab5-b42c-5ec2aa5cc183","system_id":"levelo_inurba_marseille","lat":43.31529,"lon":5.38028,"is_reserved":false,"is_disabled":false,"rental_uris":{"android":"levelo://app?vid=4f2a7311-6ddc-4ab5-b42c-5ec2aa5cc183","ios":"levelo://app?vid=4f2a7311-6ddc-4ab5-b42c-5ec2aa5cc183"},"vehicle_type_id":"4","last_reported":1733645519,"current_range_meters":36000,"station_id":"ce4bhsp2rcd13ifvqi50","pricing_plan_id":"cebpf4jnsgd1na2vs0mg"},{"bike_id":"fc7ea287-6e78-4210-9698-a31ef4d0431c","system_id":"levelo_inurba_marseille","lat":43.270699,"lon":5.422728,"is_reserved":false,"is_disabled":false,"rental_uris":{"android":"levelo://app?vid=fc7ea287-6e78-4210-9698-a31ef4d0431c","ios":"levelo://app?vid=fc7ea287-6e78-4210-9698-a31ef4d0431c"},"vehicle_type_id":"4","last_reported":1733645519,"current_range_meters":38000,"station_id":"ce4bhk92rcd13ifvqgb0","pricing_plan_id":"cebpf4jnsgd1na2vs0mg"},{"bike_id":"90180111-4adc-44a4-b3b2-23febea5d380","system_id":"levelo_inurba_marseille","lat":43.33021,"lon":5.39041,"is_reserved":false,"is_disabled":false,"rental_uris":{"android":"levelo://app?vid=90180111-4adc-44a4-b3b2-23febea5d380","ios":"levelo://app?vid=90180111-4adc-44a4-b3b2-23febea5d380"},"vehicle_type_id":"4","last_reported":1733645519,"current_range_meters":28000,"station_id":"ce4bhr92rcd13ifvqhrg","pricing_plan_id":"cebpf4jnsgd1na2vs0mg"},{"bike_id":"e505588b-2390-4a5a-aa8e-e97e870d1c73","system_id":"levelo_inurba_marseille","lat":43.31291,"lon":5.40157,"is_reserved":false,"is_disabled":false,"rental_uris":{"android":"levelo://app?vid=e505588b-2390-4a5a-aa8e-e97e870d1c73","ios":"levelo://app?vid=e505588b-2390-4a5a-aa8e-e97e870d1c73"},"vehicle_type_id":"4","last_reported":1733645519,"current_range_meters":27200,"station_id":"ce4bh092rcd13ifvqd30","pricing_plan_id":"cebpf4jnsgd1na2vs0mg"},{"bike_id":"1f610b82-9128-4e03-9855-53ffeab37d2c","system_id":"levelo_inurba_marseille","lat":43.25089,"lon":5.39525,"is_reserved":false,"is_disabled":false,"rental_uris":{"android":"levelo://app?vid=1f610b82-9128-4e03-9855-53ffeab37d2c","ios":"levelo://app?vid=1f610b82-9128-4e03-9855-53ffeab37d2c"},"vehicle_type_id":"4","last_reported":1733645519,"current_range_meters":36800,"station_id":"ce4bhm12rcd13ifvqgkg","pricing_plan_id":"cebpf4jnsgd1na2vs0mg"},{"bike_id":"344526a9-8d0b-479c-9bd3-d552a4e510d2","system_id":"levelo_inurba_marseille","lat":43.32655,"lon":5.40993,"is_reserved":false,"is_disabled":false,"rental_uris":{"android":"levelo://app?vid=344526a9-8d0b-479c-9bd3-d552a4e510d2","ios":"levelo://app?vid=344526a9-8d0b-479c-9bd3-d552a4e510d2"},"vehicle_type_id":"4","last_reported":1733645519,"current_range_meters":37600,"station_id":"ce4bhpp2rcd13ifvqhgg","pricing_plan_id":"cebpf4jnsgd1na2vs0mg"},{"bike_id":"7de2c9be-1b34-48ad-9b28-023101f3316f","system_id":"levelo_inurba_marseille","lat":43.33021,"lon":5.39039,"is_reserved":false,"is_disabled":false,"rental_uris":{"android":"levelo://app?vid=7de2c9be-1b34-48ad-9b28-023101f3316f","ios":"levelo://app?vid=7de2c9be-1b34-48ad-9b28-023101f3316f"},"vehicle_type_id":"4","last_reported":1733645519,"current_range_meters":37600,"station_id":"ce4bhr92rcd13ifvqhrg","pricing_plan_id":"cebpf4jnsgd1na2vs0mg"},{"bike_id":"067d4f8e-eded-4040-9b89-eb14aebc4852","system_id":"levelo_inurba_marseille","lat":43.29896,"lon":5.43681,"is_reserved":false,"is_disabled":false,"rental_uris":{"android":"levelo://app?vid=067d4f8e-eded-4040-9b89-eb14aebc4852","ios":"levelo://app?vid=067d4f8e-eded-4040-9b89-eb14aebc4852"},"vehicle_type_id":"4","last_reported":1733645519,"current_range_meters":8400,"station_id":"ce4bhpp2rcd13ifvqhfg","pricing_plan_id":"cebpf4jnsgd1na2vs0mg"},{"bike_id":"6bf80c88-32e3-43e6-b288-d7cb82882e64","system_id":"levelo_inurba_marseille","lat":43.31489,"lon":5.3731,"is_reserved":false,"is_disabled":false,"rental_uris":{"android":"levelo://app?vid=6bf80c88-32e3-43e6-b288-d7cb82882e64","ios":"levelo://app?vid=6bf80c88-32e3-43e6-b288-d7cb82882e64"},"vehicle_type_id":"4","last_reported":1733645519,"current_range_meters":22400,"station_id":"ce4bgt12rcd13ifvqcd0","pricing_plan_id":"cebpf4jnsgd1na2vs0mg"},{"bike_id":"e5517603-fe5d-4f05-b971-e020b1a7a445","system_id":"levelo_inurba_marseille","lat":43.28007,"lon":5.39999,"is_reserved":false,"is_disabled":false,"rental_uris":{"android":"levelo://app?vid=e5517603-fe5d-4f05-b971-e020b1a7a445","ios":"levelo://app?vid=e5517603-fe5d-4f05-b971-e020b1a7a445"},"vehicle_type_id":"4","last_reported":1733645519,"current_range_meters":31200,"station_id":"ce4bho92rcd13ifvqh4g","pricing_plan_id":"cebpf4jnsgd1na2vs0mg"},{"bike_id":"83985555-c848-4b28-808f-8a7e7cf8519e","system_id":"levelo_inurba_marseille","lat":43.28115,"lon":5.43955,"is_reserved":false,"is_disabled":true,"rental_uris":{"android":"levelo://app?vid=83985555-c848-4b28-808f-8a7e7cf8519e","ios":"levelo://app?vid=83985555-c848-4b28-808f-8a7e7cf8519e"},"vehicle_type_id":"4","last_reported":1733645519,"current_range_meters":0,"station_id":"","pricing_plan_id":"cebpf4jnsgd1na2vs0mg"},{"bike_id":"6bd51616-7398-486f-806f-09ff07b87f55","system_id":"levelo_inurba_marseille","lat":43.29377,"lon":5.37847,"is_reserved":false,"is_disabled":false,"rental_uris":{"android":"levelo://app?vid=6bd51616-7398-486f-806f-09ff07b87f55","ios":"levelo://app?vid=6bd51616-7398-486f-806f-09ff07b87f55"},"vehicle_type_id":"4","last_reported":1733645519,"current_range_meters":38800,"station_id":"ce4bgjh2rcd13ifvqbf0","pricing_plan_id":"cebpf4jnsgd1na2vs0mg"},{"bike_id":"84eddd35-4076-462c-b0e4-9c17c748aeff","system_id":"levelo_inurba_marseille","lat":43.33771,"lon":5.37491,"is_reserved":false,"is_disabled":false,"rental_uris":{"android":"levelo://app?vid=84eddd35-4076-462c-b0e4-9c17c748aeff","ios":"levelo://app?vid=84eddd35-4076-462c-b0e4-9c17c748aeff"},"vehicle_type_id":"4","last_reported":1733645519,"current_range_meters":14800,"station_id":"","pricing_plan_id":"cebpf4jnsgd1na2vs0mg"},{"bike_id":"66d0f71e-5d76-4274-a432-4dd216931dd0","system_id":"levelo_inurba_marseille","lat":43.28427,"lon":5.34989,"is_reserved":false,"is_disabled":false,"rental_uris":{"android":"levelo://app?vid=66d0f71e-5d76-4274-a432-4dd216931dd0","ios":"levelo://app?vid=66d0f71e-5d76-4274-a432-4dd216931dd0"},"vehicle_type_id":"4","last_reported":1733645519,"current_range_meters":38000,"station_id":"ce4bhbh2rcd13ifvqepg","pricing_plan_id":"cebpf4jnsgd1na2vs0mg"},{"bike_id":"84132ef4-f2ab-4ec8-868b-255cacfe6f83","system_id":"levelo_inurba_marseille","lat":43.28269,"lon":5.35074,"is_reserved":false,"is_disabled":false,"rental_uris":{"android":"levelo://app?vid=84132ef4-f2ab-4ec8-868b-255cacfe6f83","ios":"levelo://app?vid=84132ef4-f2ab-4ec8-868b-255cacfe6f83"},"vehicle_type_id":"4","last_reported":1733645519,"current_range_meters":35200,"station_id":"ce4bhbp2rcd13ifvqerg","pricing_plan_id":"cebpf4jnsgd1na2vs0mg"},{"bike_id":"97ac6443-d24f-4abe-a801-acce28103b41","system_id":"levelo_inurba_marseille","lat":43.29847,"lon":5.36281,"is_reserved":false,"is_disabled":false,"rental_uris":{"android":"levelo://app?vid=97ac6443-d24f-4abe-a801-acce28103b41","ios":"levelo://app?vid=97ac6443-d24f-4abe-a801-acce28103b41"},"vehicle_type_id":"4","last_reported":1733645519,"current_range_meters":18000,"station_id":"ce4bgpp2rcd13ifvqc3g","pricing_plan_id":"cebpf4jnsgd1na2vs0mg"},{"bike_id":"8c9ccf73-6fe0-465a-88df-b721ea9921b2","system_id":"levelo_inurba_marseille","lat":43.3302,"lon":5.39031,"is_reserved":false,"is_disabled":false,"rental_uris":{"android":"levelo://app?vid=8c9ccf73-6fe0-465a-88df-b721ea9921b2","ios":"levelo://app?vid=8c9ccf73-6fe0-465a-88df-b721ea9921b2"},"vehicle_type_id":"4","last_reported":1733645519,"current_range_meters":6000,"station_id":"ce4bhr92rcd13ifvqhrg","pricing_plan_id":"cebpf4jnsgd1na2vs0mg"},{"bike_id":"4e688bf2-5391-49e6-95d4-87c45034105c","system_id":"levelo_inurba_marseille","lat":43.3266,"lon":5.40989,"is_reserved":false,"is_disabled":false,"rental_uris":{"android":"levelo://app?vid=4e688bf2-5391-49e6-95d4-87c45034105c","ios":"levelo://app?vid=4e688bf2-5391-49e6-95d4-87c45034105c"},"vehicle_type_id":"4","last_reported":1733645519,"current_range_meters":10800,"station_id":"ce4bhpp2rcd13ifvqhgg","pricing_plan_id":"cebpf4jnsgd1na2vs0mg"},{"bike_id":"59ec8469-de73-4900-aee6-d1b157890d0d","system_id":"levelo_inurba_marseille","lat":43.24664,"lon":5.38162,"is_reserved":false,"is_disabled":false,"rental_uris":{"android":"levelo://app?vid=59ec8469-de73-4900-aee6-d1b157890d0d","ios":"levelo://app?vid=59ec8469-de73-4900-aee6-d1b157890d0d"},"vehicle_type_id":"4","last_reported":1733645519,"current_range_meters":39200,"station_id":"ce4bhih2rcd13ifvqfr0","pricing_plan_id":"cebpf4jnsgd1na2vs0mg"},{"bike_id":"34cd3179-a984-4984-ba39-77f55cba8dc9","system_id":"levelo_inurba_marseille","lat":43.32652,"lon":5.40989,"is_reserved":false,"is_disabled":true,"rental_uris":{"android":"levelo://app?vid=34cd3179-a984-4984-ba39-77f55cba8dc9","ios":"levelo://app?vid=34cd3179-a984-4984-ba39-77f55cba8dc9"},"vehicle_type_id":"4","last_reported":1733645519,"current_range_meters":32400,"station_id":"ce4bhpp2rcd13ifvqhgg","pricing_plan_id":"cebpf4jnsgd1na2vs0mg"},{"bike_id":"5687e068-69cc-4397-b6fb-a40653dbd395","system_id":"levelo_inurba_marseille","lat":43.317603,"lon":5.390144,"is_reserved":false,"is_disabled":false,"rental_uris":{"android":"levelo://app?vid=5687e068-69cc-4397-b6fb-a40653dbd395","ios":"levelo://app?vid=5687e068-69cc-4397-b6fb-a40653dbd395"},"vehicle_type_id":"4","last_reported":1733645519,"current_range_meters":38000,"station_id":"ce4bhqp2rcd13ifvqhng","pricing_plan_id":"cebpf4jnsgd1na2vs0mg"},{"bike_id":"5edf82fa-e9d0-4d1f-98f1-37c98092771a","system_id":"levelo_inurba_marseille","lat":43.23192,"lon":5.35549,"is_reserved":false,"is_disabled":false,"rental_uris":{"android":"levelo://app?vid=5edf82fa-e9d0-4d1f-98f1-37c98092771a","ios":"levelo://app?vid=5edf82fa-e9d0-4d1f-98f1-37c98092771a"},"vehicle_type_id":"4","last_reported":1733645519,"current_range_meters":38800,"station_id":"ce4bhu92rcd13ifvqi70","pricing_plan_id":"cebpf4jnsgd1na2vs0mg"},{"bike_id":"95b0d93b-0328-4906-baeb-62a5d877404c","system_id":"levelo_inurba_marseille","lat":43.2706,"lon":5.40253,"is_reserved":false,"is_disabled":false,"rental_uris":{"android":"levelo://app?vid=95b0d93b-0328-4906-baeb-62a5d877404c","ios":"levelo://app?vid=95b0d93b-0328-4906-baeb-62a5d877404c"},"vehicle_type_id":"4","last_reported":1733645519,"current_range_meters":29600,"station_id":"ce4bhk92rcd13ifvqgc0","pricing_plan_id":"cebpf4jnsgd1na2vs0mg"},{"bike_id":"3afcb54a-b8a5-40bb-8ae8-ddf1f47b8268","system_id":"levelo_inurba_marseille","lat":43.305411,"lon":5.384316,"is_reserved":false,"is_disabled":true,"rental_uris":{"android":"levelo://app?vid=3afcb54a-b8a5-40bb-8ae8-ddf1f47b8268","ios":"levelo://app?vid=3afcb54a-b8a5-40bb-8ae8-ddf1f47b8268"},"vehicle_type_id":"4","last_reported":1733645519,"current_range_meters":32000,"station_id":"ce4bgg92rcd13ifvqb30","pricing_plan_id":"cebpf4jnsgd1na2vs0mg"},{"bike_id":"fdcaecac-af89-4899-89a9-e9fa376db2d4","system_id":"levelo_inurba_marseille","lat":43.31999,"lon":5.38153,"is_reserved":false,"is_disabled":false,"rental_uris":{"android":"levelo://app?vid=fdcaecac-af89-4899-89a9-e9fa376db2d4","ios":"levelo://app?vid=fdcaecac-af89-4899-89a9-e9fa376db2d4"},"vehicle_type_id":"4","last_reported":1733645519,"current_range_meters":14000,"station_id":"ce4bhr12rcd13ifvqhpg","pricing_plan_id":"cebpf4jnsgd1na2vs0mg"},{"bike_id":"a76f0499-0af6-402b-8f9f-ddd78320a7b4","system_id":"levelo_inurba_marseille","lat":43.304615,"lon":5.378958,"is_reserved":false,"is_disabled":true,"rental_uris":{"android":"levelo://app?vid=a76f0499-0af6-402b-8f9f-ddd78320a7b4","ios":"levelo://app?vid=a76f0499-0af6-402b-8f9f-ddd78320a7b4"},"vehicle_type_id":"4","last_reported":1733645519,"current_range_meters":400,"station_id":"ce4bgup2rcd13ifvqcn0","pricing_plan_id":"cebpf4jnsgd1na2vs0mg"},{"bike_id":"83319820-ad4f-4208-bf65-c9fc431b1a4c","system_id":"levelo_inurba_marseille","lat":43.25828,"lon":5.39437,"is_reserved":false,"is_disabled":false,"rental_uris":{"android":"levelo://app?vid=83319820-ad4f-4208-bf65-c9fc431b1a4c","ios":"levelo://app?vid=83319820-ad4f-4208-bf65-c9fc431b1a4c"},"vehicle_type_id":"4","last_reported":1733645519,"current_range_meters":29600,"station_id":"ce4bhip2rcd13ifvqft0","pricing_plan_id":"cebpf4jnsgd1na2vs0mg"},{"bike_id":"209024fa-1289-499c-a8fd-f67770daf517","system_id":"levelo_inurba_marseille","lat":43.26957,"lon":5.38623,"is_reserved":false,"is_disabled":false,"rental_uris":{"android":"levelo://app?vid=209024fa-1289-499c-a8fd-f67770daf517","ios":"levelo://app?vid=209024fa-1289-499c-a8fd-f67770daf517"},"vehicle_type_id":"4","last_reported":1733645519,"current_range_meters":8000,"station_id":"ce4bhh92rcd13ifvqfh0","pricing_plan_id":"cebpf4jnsgd1na2vs0mg"},{"bike_id":"9c2d089d-e580-464c-a254-a84d0c5baff8","system_id":"levelo_inurba_marseille","lat":43.25868,"lon":5.39899,"is_reserved":false,"is_disabled":false,"rental_uris":{"android":"levelo://app?vid=9c2d089d-e580-464c-a254-a84d0c5baff8","ios":"levelo://app?vid=9c2d089d-e580-464c-a254-a84d0c5baff8"},"vehicle_type_id":"4","last_reported":1733645519,"current_range_meters":38000,"station_id":"ce4bhl92rcd13ifvqghg","pricing_plan_id":"cebpf4jnsgd1na2vs0mg"},{"bike_id":"0694b84b-212e-4e3c-9092-6e213a66ec49","system_id":"levelo_inurba_marseille","lat":43.23067,"lon":5.35492,"is_reserved":false,"is_disabled":false,"rental_uris":{"android":"levelo://app?vid=0694b84b-212e-4e3c-9092-6e213a66ec49","ios":"levelo://app?vid=0694b84b-212e-4e3c-9092-6e213a66ec49"},"vehicle_type_id":"4","last_reported":1733645519,"current_range_meters":7200,"station_id":"cpo3342slgdg3j2ifvpg","pricing_plan_id":"cebpf4jnsgd1na2vs0mg"},{"bike_id":"b497ad4d-1643-419c-aba6-8e8a5474d77a","system_id":"levelo_inurba_marseille","lat":43.29895,"lon":5.43666,"is_reserved":false,"is_disabled":false,"rental_uris":{"android":"levelo://app?vid=b497ad4d-1643-419c-aba6-8e8a5474d77a","ios":"levelo://app?vid=b497ad4d-1643-419c-aba6-8e8a5474d77a"},"vehicle_type_id":"4","last_reported":1733645519,"current_range_meters":14400,"station_id":"ce4bhpp2rcd13ifvqhfg","pricing_plan_id":"cebpf4jnsgd1na2vs0mg"},{"bike_id":"1b0cf7b0-f1f1-420d-b39e-8993110a2cf3","system_id":"levelo_inurba_marseille","lat":43.29476,"lon":5.43827,"is_reserved":false,"is_disabled":false,"rental_uris":{"android":"levelo://app?vid=1b0cf7b0-f1f1-420d-b39e-8993110a2cf3","ios":"levelo://app?vid=1b0cf7b0-f1f1-420d-b39e-8993110a2cf3"},"vehicle_type_id":"4","last_reported":1733645519,"current_range_meters":21600,"station_id":"","pricing_plan_id":"cebpf4jnsgd1na2vs0mg"},{"bike_id":"872baac7-a790-472e-a4d5-8894eb9605e5","system_id":"levelo_inurba_marseille","lat":43.28786,"lon":5.36249,"is_reserved":false,"is_disabled":false,"rental_uris":{"android":"levelo://app?vid=872baac7-a790-472e-a4d5-8894eb9605e5","ios":"levelo://app?vid=872baac7-a790-472e-a4d5-8894eb9605e5"},"vehicle_type_id":"4","last_reported":1733645519,"current_range_meters":16000,"station_id":"","pricing_plan_id":"cebpf4jnsgd1na2vs0mg"},{"bike_id":"15e21ff4-debb-4d61-969a-5518cc99a71c","system_id":"levelo_inurba_marseille","lat":43.27552,"lon":5.3842,"is_reserved":false,"is_disabled":false,"rental_uris":{"android":"levelo://app?vid=15e21ff4-debb-4d61-969a-5518cc99a71c","ios":"levelo://app?vid=15e21ff4-debb-4d61-969a-5518cc99a71c"},"vehicle_type_id":"4","last_reported":1733645519,"current_range_meters":38800,"station_id":"ce4bhh92rcd13ifvqfi0","pricing_plan_id":"cebpf4jnsgd1na2vs0mg"},{"bike_id":"0deb7b46-3bee-4382-87b1-3984fb62457f","system_id":"levelo_inurba_marseille","lat":43.28742,"lon":5.38912,"is_reserved":false,"is_disabled":true,"rental_uris":{"android":"levelo://app?vid=0deb7b46-3bee-4382-87b1-3984fb62457f","ios":"levelo://app?vid=0deb7b46-3bee-4382-87b1-3984fb62457f"},"vehicle_type_id":"4","last_reported":1733645519,"current_range_meters":23200,"station_id":"","pricing_plan_id":"cebpf4jnsgd1na2vs0mg"},{"bike_id":"0f3690fa-03f3-415f-9e6e-6a613b98d23b","system_id":"levelo_inurba_marseille","lat":43.26938,"lon":5.40261,"is_reserved":false,"is_disabled":false,"rental_uris":{"android":"levelo://app?vid=0f3690fa-03f3-415f-9e6e-6a613b98d23b","ios":"levelo://app?vid=0f3690fa-03f3-415f-9e6e-6a613b98d23b"},"vehicle_type_id":"4","last_reported":1733645519,"current_range_meters":38800,"station_id":"cjm6bp8fraef2m0cb0m0","pricing_plan_id":"cebpf4jnsgd1na2vs0mg"},{"bike_id":"0b2d9ccf-2279-41d0-bd68-27fbe32c181d","system_id":"levelo_inurba_marseille","lat":43.31324,"lon":5.39701,"is_reserved":false,"is_disabled":false,"rental_uris":{"android":"levelo://app?vid=0b2d9ccf-2279-41d0-bd68-27fbe32c181d","ios":"levelo://app?vid=0b2d9ccf-2279-41d0-bd68-27fbe32c181d"},"vehicle_type_id":"4","last_reported":1733645519,"current_range_meters":33200,"station_id":"ce4bgvp2rcd13ifvqcu0","pricing_plan_id":"cebpf4jnsgd1na2vs0mg"},{"bike_id":"5460e245-8621-4d83-bd98-c21b0b296c70","system_id":"levelo_inurba_marseille","lat":43.2439,"lon":5.37053,"is_reserved":false,"is_disabled":false,"rental_uris":{"android":"levelo://app?vid=5460e245-8621-4d83-bd98-c21b0b296c70","ios":"levelo://app?vid=5460e245-8621-4d83-bd98-c21b0b296c70"},"vehicle_type_id":"4","last_reported":1733645519,"current_range_meters":33200,"station_id":"ce4bhhh2rcd13ifvqfk0","pricing_plan_id":"cebpf4jnsgd1na2vs0mg"},{"bike_id":"7cdad35d-df5e-4eec-9265-9be894b31c91","system_id":"levelo_inurba_marseille","lat":43.23182,"lon":5.39988,"is_reserved":false,"is_disabled":false,"rental_uris":{"android":"levelo://app?vid=7cdad35d-df5e-4eec-9265-9be894b31c91","ios":"levelo://app?vid=7cdad35d-df5e-4eec-9265-9be894b31c91"},"vehicle_type_id":"4","last_reported":1733645519,"current_range_meters":10800,"station_id":"ce4bhn12rcd13ifvqgqg","pricing_plan_id":"cebpf4jnsgd1na2vs0mg"},{"bike_id":"542faa86-88f9-45e1-98aa-aba377a4319b","system_id":"levelo_inurba_marseille","lat":43.25,"lon":5.38925,"is_reserved":false,"is_disabled":false,"rental_uris":{"android":"levelo://app?vid=542faa86-88f9-45e1-98aa-aba377a4319b","ios":"levelo://app?vid=542faa86-88f9-45e1-98aa-aba377a4319b"},"vehicle_type_id":"4","last_reported":1733645519,"current_range_meters":20400,"station_id":"ce4bhgp2rcd13ifvqfd0","pricing_plan_id":"cebpf4jnsgd1na2vs0mg"},{"bike_id":"74c8a776-b5ed-4227-8bf4-27eab0fb121a","system_id":"levelo_inurba_marseille","lat":43.26676,"lon":5.38264,"is_reserved":false,"is_disabled":false,"rental_uris":{"android":"levelo://app?vid=74c8a776-b5ed-4227-8bf4-27eab0fb121a","ios":"levelo://app?vid=74c8a776-b5ed-4227-8bf4-27eab0fb121a"},"vehicle_type_id":"4","last_reported":1733645519,"current_range_meters":38800,"station_id":"ce4bhg92rcd13ifvqf90","pricing_plan_id":"cebpf4jnsgd1na2vs0mg"},{"bike_id":"1f31a30a-e0ef-4d21-bbb8-239dabcf7620","system_id":"levelo_inurba_marseille","lat":43.31329,"lon":5.3969,"is_reserved":false,"is_disabled":false,"rental_uris":{"android":"levelo://app?vid=1f31a30a-e0ef-4d21-bbb8-239dabcf7620","ios":"levelo://app?vid=1f31a30a-e0ef-4d21-bbb8-239dabcf7620"},"vehicle_type_id":"4","last_reported":1733645519,"current_range_meters":32000,"station_id":"ce4bgvp2rcd13ifvqcu0","pricing_plan_id":"cebpf4jnsgd1na2vs0mg"},{"bike_id":"7a0a2714-105e-4622-8b3e-a7dd62dc6941","system_id":"levelo_inurba_marseille","lat":43.29266,"lon":5.384189,"is_reserved":false,"is_disabled":true,"rental_uris":{"android":"levelo://app?vid=7a0a2714-105e-4622-8b3e-a7dd62dc6941","ios":"levelo://app?vid=7a0a2714-105e-4622-8b3e-a7dd62dc6941"},"vehicle_type_id":"4","last_reported":1733645519,"current_range_meters":0,"station_id":"","pricing_plan_id":"cebpf4jnsgd1na2vs0mg"},{"bike_id":"9f53acdf-b2be-4b69-b01b-87cbf7343be4","system_id":"levelo_inurba_marseille","lat":43.26489,"lon":5.39537,"is_reserved":false,"is_disabled":true,"rental_uris":{"android":"levelo://app?vid=9f53acdf-b2be-4b69-b01b-87cbf7343be4","ios":"levelo://app?vid=9f53acdf-b2be-4b69-b01b-87cbf7343be4"},"vehicle_type_id":"4","last_reported":1733645519,"current_range_meters":31200,"station_id":"ce4bhi12rcd13ifvqfq0","pricing_plan_id":"cebpf4jnsgd1na2vs0mg"},{"bike_id":"50f52497-54ca-47ea-a19e-1fc86f8c6045","system_id":"levelo_inurba_marseille","lat":43.27928,"lon":5.41159,"is_reserved":false,"is_disabled":true,"rental_uris":{"android":"levelo://app?vid=50f52497-54ca-47ea-a19e-1fc86f8c6045","ios":"levelo://app?vid=50f52497-54ca-47ea-a19e-1fc86f8c6045"},"vehicle_type_id":"4","last_reported":1733645519,"current_range_meters":14400,"station_id":"","pricing_plan_id":"cebpf4jnsgd1na2vs0mg"},{"bike_id":"a5f05a06-bff4-4f39-af01-91b3d19736b8","system_id":"levelo_inurba_marseille","lat":43.23203,"lon":5.35549,"is_reserved":false,"is_disabled":false,"rental_uris":{"android":"levelo://app?vid=a5f05a06-bff4-4f39-af01-91b3d19736b8","ios":"levelo://app?vid=a5f05a06-bff4-4f39-af01-91b3d19736b8"},"vehicle_type_id":"4","last_reported":1733645519,"current_range_meters":26800,"station_id":"ce4bhu92rcd13ifvqi70","pricing_plan_id":"cebpf4jnsgd1na2vs0mg"},{"bike_id":"07f2722e-e33c-4b7b-80d1-15c7bee7f220","system_id":"levelo_inurba_marseille","lat":43.28714,"lon":5.36093,"is_reserved":false,"is_disabled":false,"rental_uris":{"android":"levelo://app?vid=07f2722e-e33c-4b7b-80d1-15c7bee7f220","ios":"levelo://app?vid=07f2722e-e33c-4b7b-80d1-15c7bee7f220"},"vehicle_type_id":"4","last_reported":1733645519,"current_range_meters":28000,"station_id":"cki0cbj6b192h4jlfktg","pricing_plan_id":"cebpf4jnsgd1na2vs0mg"},{"bike_id":"33f1a526-a5a3-4261-b1e0-d90c46ff918d","system_id":"levelo_inurba_marseille","lat":43.28155,"lon":5.4264,"is_reserved":false,"is_disabled":true,"rental_uris":{"android":"levelo://app?vid=33f1a526-a5a3-4261-b1e0-d90c46ff918d","ios":"levelo://app?vid=33f1a526-a5a3-4261-b1e0-d90c46ff918d"},"vehicle_type_id":"4","last_reported":1733645519,"current_range_meters":27600,"station_id":"ce4bhnh2rcd13ifvqgug","pricing_plan_id":"cebpf4jnsgd1na2vs0mg"},{"bike_id":"fbe73133-f485-4aa9-9698-ee86772b743d","system_id":"levelo_inurba_marseille","lat":43.27494,"lon":5.4245,"is_reserved":false,"is_disabled":false,"rental_uris":{"android":"levelo://app?vid=fbe73133-f485-4aa9-9698-ee86772b743d","ios":"levelo://app?vid=fbe73133-f485-4aa9-9698-ee86772b743d"},"vehicle_type_id":"4","last_reported":1733645519,"current_range_meters":20000,"station_id":"ce4bhn92rcd13ifvqgrg","pricing_plan_id":"cebpf4jnsgd1na2vs0mg"},{"bike_id":"7d60acff-cb6c-4a92-aca6-d0de3845edf6","system_id":"levelo_inurba_marseille","lat":43.295349,"lon":5.385532,"is_reserved":false,"is_disabled":true,"rental_uris":{"android":"levelo://app?vid=7d60acff-cb6c-4a92-aca6-d0de3845edf6","ios":"levelo://app?vid=7d60acff-cb6c-4a92-aca6-d0de3845edf6"},"vehicle_type_id":"4","last_reported":1733645519,"current_range_meters":22400,"station_id":"ce4bgih2rcd13ifvqba0","pricing_plan_id":"cebpf4jnsgd1na2vs0mg"},{"bike_id":"987a1e27-c7ac-4001-a268-c7e2ad73c734","system_id":"levelo_inurba_marseille","lat":43.25724,"lon":5.41106,"is_reserved":false,"is_disabled":false,"rental_uris":{"android":"levelo://app?vid=987a1e27-c7ac-4001-a268-c7e2ad73c734","ios":"levelo://app?vid=987a1e27-c7ac-4001-a268-c7e2ad73c734"},"vehicle_type_id":"4","last_reported":1733645519,"current_range_meters":38800,"station_id":"ce4bhkp2rcd13ifvqgd0","pricing_plan_id":"cebpf4jnsgd1na2vs0mg"},{"bike_id":"315bd4f4-f720-4e17-a178-f9274a9e6361","system_id":"levelo_inurba_marseille","lat":43.30884,"lon":5.39632,"is_reserved":false,"is_disabled":false,"rental_uris":{"android":"levelo://app?vid=315bd4f4-f720-4e17-a178-f9274a9e6361","ios":"levelo://app?vid=315bd4f4-f720-4e17-a178-f9274a9e6361"},"vehicle_type_id":"4","last_reported":1733645519,"current_range_meters":37600,"station_id":"ce4bh012rcd13ifvqcv0","pricing_plan_id":"cebpf4jnsgd1na2vs0mg"},{"bike_id":"00fea40c-3f30-4c2b-96e2-43b5ab400ffa","system_id":"levelo_inurba_marseille","lat":43.22929,"lon":5.35381,"is_reserved":false,"is_disabled":false,"rental_uris":{"android":"levelo://app?vid=00fea40c-3f30-4c2b-96e2-43b5ab400ffa","ios":"levelo://app?vid=00fea40c-3f30-4c2b-96e2-43b5ab400ffa"},"vehicle_type_id":"4","last_reported":1733645519,"current_range_meters":37600,"station_id":"cpo3532slgdg3j2ikp40","pricing_plan_id":"cebpf4jnsgd1na2vs0mg"},{"bike_id":"ed2c0264-9d42-4ceb-b7a4-e31eb870b25a","system_id":"levelo_inurba_marseille","lat":43.28457,"lon":5.35883,"is_reserved":false,"is_disabled":false,"rental_uris":{"android":"levelo://app?vid=ed2c0264-9d42-4ceb-b7a4-e31eb870b25a","ios":"levelo://app?vid=ed2c0264-9d42-4ceb-b7a4-e31eb870b25a"},"vehicle_type_id":"4","last_reported":1733645519,"current_range_meters":32800,"station_id":"ce4bhah2rcd13ifvqei0","pricing_plan_id":"cebpf4jnsgd1na2vs0mg"},{"bike_id":"54048e8f-6d11-4769-8f46-c79c18bfa3e5","system_id":"levelo_inurba_marseille","lat":43.24806,"lon":5.37455,"is_reserved":false,"is_disabled":false,"rental_uris":{"android":"levelo://app?vid=54048e8f-6d11-4769-8f46-c79c18bfa3e5","ios":"levelo://app?vid=54048e8f-6d11-4769-8f46-c79c18bfa3e5"},"vehicle_type_id":"4","last_reported":1733645519,"current_range_meters":38800,"station_id":"ce4bhgh2rcd13ifvqfb0","pricing_plan_id":"cebpf4jnsgd1na2vs0mg"},{"bike_id":"aeb5b9ef-cf83-4f2b-8e3d-091258186d3c","system_id":"levelo_inurba_marseille","lat":43.25057,"lon":5.39477,"is_reserved":false,"is_disabled":false,"rental_uris":{"android":"levelo://app?vid=aeb5b9ef-cf83-4f2b-8e3d-091258186d3c","ios":"levelo://app?vid=aeb5b9ef-cf83-4f2b-8e3d-091258186d3c"},"vehicle_type_id":"4","last_reported":1733645519,"current_range_meters":36400,"station_id":"","pricing_plan_id":"cebpf4jnsgd1na2vs0mg"},{"bike_id":"0d568c8e-0ea0-4287-9438-5b27ec8267ed","system_id":"levelo_inurba_marseille","lat":43.28943,"lon":5.39644,"is_reserved":false,"is_disabled":false,"rental_uris":{"android":"levelo://app?vid=0d568c8e-0ea0-4287-9438-5b27ec8267ed","ios":"levelo://app?vid=0d568c8e-0ea0-4287-9438-5b27ec8267ed"},"vehicle_type_id":"4","last_reported":1733645519,"current_range_meters":26800,"station_id":"ce4bh3h2rcd13ifvqdn0","pricing_plan_id":"cebpf4jnsgd1na2vs0mg"},{"bike_id":"e5cd953e-74d7-484f-8a63-e33623359cc0","system_id":"levelo_inurba_marseille","lat":43.29625,"lon":5.40595,"is_reserved":false,"is_disabled":false,"rental_uris":{"android":"levelo://app?vid=e5cd953e-74d7-484f-8a63-e33623359cc0","ios":"levelo://app?vid=e5cd953e-74d7-484f-8a63-e33623359cc0"},"vehicle_type_id":"4","last_reported":1733645519,"current_range_meters":38800,"station_id":"ce4bh0h2rcd13ifvqd60","pricing_plan_id":"cebpf4jnsgd1na2vs0mg"},{"bike_id":"5c884da4-841f-4b0a-9224-f533cad9f8d9","system_id":"levelo_inurba_marseille","lat":43.26035,"lon":5.37542,"is_reserved":false,"is_disabled":false,"rental_uris":{"android":"levelo://app?vid=5c884da4-841f-4b0a-9224-f533cad9f8d9","ios":"levelo://app?vid=5c884da4-841f-4b0a-9224-f533cad9f8d9"},"vehicle_type_id":"4","last_reported":1733645519,"current_range_meters":8800,"station_id":"ce4bhgh2rcd13ifvqfa0","pricing_plan_id":"cebpf4jnsgd1na2vs0mg"},{"bike_id":"a3dd1984-4193-477f-b9a6-7f14c8f93b26","system_id":"levelo_inurba_marseille","lat":43.300926,"lon":5.390898,"is_reserved":false,"is_disabled":true,"rental_uris":{"android":"levelo://app?vid=a3dd1984-4193-477f-b9a6-7f14c8f93b26","ios":"levelo://app?vid=a3dd1984-4193-477f-b9a6-7f14c8f93b26"},"vehicle_type_id":"4","last_reported":1733645519,"current_range_meters":35200,"station_id":"ce4bh192rcd13ifvqdb0","pricing_plan_id":"cebpf4jnsgd1na2vs0mg"},{"bike_id":"43fe90c6-b703-4fdf-8681-338eb5248a12","system_id":"levelo_inurba_marseille","lat":43.31491,"lon":5.37306,"is_reserved":false,"is_disabled":false,"rental_uris":{"android":"levelo://app?vid=43fe90c6-b703-4fdf-8681-338eb5248a12","ios":"levelo://app?vid=43fe90c6-b703-4fdf-8681-338eb5248a12"},"vehicle_type_id":"4","last_reported":1733645519,"current_range_meters":25200,"station_id":"ce4bgt12rcd13ifvqcd0","pricing_plan_id":"cebpf4jnsgd1na2vs0mg"},{"bike_id":"4c729a4a-b6dc-4fd1-a3b4-fe3921c7572c","system_id":"levelo_inurba_marseille","lat":43.29847,"lon":5.36273,"is_reserved":false,"is_disabled":false,"rental_uris":{"android":"levelo://app?vid=4c729a4a-b6dc-4fd1-a3b4-fe3921c7572c","ios":"levelo://app?vid=4c729a4a-b6dc-4fd1-a3b4-fe3921c7572c"},"vehicle_type_id":"4","last_reported":1733645519,"current_range_meters":21600,"station_id":"ce4bgpp2rcd13ifvqc3g","pricing_plan_id":"cebpf4jnsgd1na2vs0mg"},{"bike_id":"6ad8fff5-6505-40fc-8922-2acdd3c82e7b","system_id":"levelo_inurba_marseille","lat":43.29793,"lon":5.38099,"is_reserved":false,"is_disabled":true,"rental_uris":{"android":"levelo://app?vid=6ad8fff5-6505-40fc-8922-2acdd3c82e7b","ios":"levelo://app?vid=6ad8fff5-6505-40fc-8922-2acdd3c82e7b"},"vehicle_type_id":"4","last_reported":1733645519,"current_range_meters":12000,"station_id":"ce4bgip2rcd13ifvqbb0","pricing_plan_id":"cebpf4jnsgd1na2vs0mg"},{"bike_id":"196979d7-d1d3-4cfd-94e5-6c500ecf15b9","system_id":"levelo_inurba_marseille","lat":43.27205,"lon":5.39184,"is_reserved":false,"is_disabled":false,"rental_uris":{"android":"levelo://app?vid=196979d7-d1d3-4cfd-94e5-6c500ecf15b9","ios":"levelo://app?vid=196979d7-d1d3-4cfd-94e5-6c500ecf15b9"},"vehicle_type_id":"4","last_reported":1733645519,"current_range_meters":38800,"station_id":"ce4bhhp2rcd13ifvqfm0","pricing_plan_id":"cebpf4jnsgd1na2vs0mg"},{"bike_id":"19d2e1f6-9b9c-4f55-a3cf-411ab350cff8","system_id":"levelo_inurba_marseille","lat":43.25086,"lon":5.39524,"is_reserved":false,"is_disabled":false,"rental_uris":{"android":"levelo://app?vid=19d2e1f6-9b9c-4f55-a3cf-411ab350cff8","ios":"levelo://app?vid=19d2e1f6-9b9c-4f55-a3cf-411ab350cff8"},"vehicle_type_id":"4","last_reported":1733645519,"current_range_meters":12400,"station_id":"ce4bhm12rcd13ifvqgkg","pricing_plan_id":"cebpf4jnsgd1na2vs0mg"},{"bike_id":"876b7213-145e-431e-a516-92adf95b96aa","system_id":"levelo_inurba_marseille","lat":43.27378,"lon":5.36247,"is_reserved":false,"is_disabled":false,"rental_uris":{"android":"levelo://app?vid=876b7213-145e-431e-a516-92adf95b96aa","ios":"levelo://app?vid=876b7213-145e-431e-a516-92adf95b96aa"},"vehicle_type_id":"4","last_reported":1733645519,"current_range_meters":8000,"station_id":"ce4bhbh2rcd13ifvqeo0","pricing_plan_id":"cebpf4jnsgd1na2vs0mg"},{"bike_id":"bd3d93d0-c84a-462e-b36b-4ae426a49f78","system_id":"levelo_inurba_marseille","lat":43.281555,"lon":5.426493,"is_reserved":false,"is_disabled":false,"rental_uris":{"android":"levelo://app?vid=bd3d93d0-c84a-462e-b36b-4ae426a49f78","ios":"levelo://app?vid=bd3d93d0-c84a-462e-b36b-4ae426a49f78"},"vehicle_type_id":"4","last_reported":1733645519,"current_range_meters":38800,"station_id":"ce4bhnh2rcd13ifvqgug","pricing_plan_id":"cebpf4jnsgd1na2vs0mg"},{"bike_id":"026769b6-0f4a-4153-b32b-5ed4062f1019","system_id":"levelo_inurba_marseille","lat":43.27562,"lon":5.38422,"is_reserved":false,"is_disabled":false,"rental_uris":{"android":"levelo://app?vid=026769b6-0f4a-4153-b32b-5ed4062f1019","ios":"levelo://app?vid=026769b6-0f4a-4153-b32b-5ed4062f1019"},"vehicle_type_id":"4","last_reported":1733645519,"current_range_meters":34800,"station_id":"ce4bhh92rcd13ifvqfi0","pricing_plan_id":"cebpf4jnsgd1na2vs0mg"},{"bike_id":"40b97d38-bc1b-4b2a-a606-9ec1ddfe5675","system_id":"levelo_inurba_marseille","lat":43.28454,"lon":5.35891,"is_reserved":false,"is_disabled":false,"rental_uris":{"android":"levelo://app?vid=40b97d38-bc1b-4b2a-a606-9ec1ddfe5675","ios":"levelo://app?vid=40b97d38-bc1b-4b2a-a606-9ec1ddfe5675"},"vehicle_type_id":"4","last_reported":1733645519,"current_range_meters":38800,"station_id":"ce4bhah2rcd13ifvqei0","pricing_plan_id":"cebpf4jnsgd1na2vs0mg"},{"bike_id":"4527669e-b7bf-4bfd-ace2-19b92402cb9c","system_id":"levelo_inurba_marseille","lat":43.28102,"lon":5.37864,"is_reserved":false,"is_disabled":false,"rental_uris":{"android":"levelo://app?vid=4527669e-b7bf-4bfd-ace2-19b92402cb9c","ios":"levelo://app?vid=4527669e-b7bf-4bfd-ace2-19b92402cb9c"},"vehicle_type_id":"4","last_reported":1733645519,"current_range_meters":38800,"station_id":"ce4bha12rcd13ifvqee0","pricing_plan_id":"cebpf4jnsgd1na2vs0mg"},{"bike_id":"003a0423-dbbb-4892-9836-52426f6bb5a1","system_id":"levelo_inurba_marseille","lat":43.31489,"lon":5.37297,"is_reserved":false,"is_disabled":false,"rental_uris":{"android":"levelo://app?vid=003a0423-dbbb-4892-9836-52426f6bb5a1","ios":"levelo://app?vid=003a0423-dbbb-4892-9836-52426f6bb5a1"},"vehicle_type_id":"4","last_reported":1733645519,"current_range_meters":38000,"station_id":"ce4bgt12rcd13ifvqcd0","pricing_plan_id":"cebpf4jnsgd1na2vs0mg"},{"bike_id":"eb4e32cd-a02d-4e92-a013-1fdc0dd71ccb","system_id":"levelo_inurba_marseille","lat":43.324799,"lon":5.365716,"is_reserved":false,"is_disabled":true,"rental_uris":{"android":"levelo://app?vid=eb4e32cd-a02d-4e92-a013-1fdc0dd71ccb","ios":"levelo://app?vid=eb4e32cd-a02d-4e92-a013-1fdc0dd71ccb"},"vehicle_type_id":"4","last_reported":1733645519,"current_range_meters":1600,"station_id":"","pricing_plan_id":"cebpf4jnsgd1na2vs0mg"},{"bike_id":"db2fe59d-b5d1-4ec5-ba11-24efec8a7012","system_id":"levelo_inurba_marseille","lat":43.25486,"lon":5.37651,"is_reserved":false,"is_disabled":false,"rental_uris":{"android":"levelo://app?vid=db2fe59d-b5d1-4ec5-ba11-24efec8a7012","ios":"levelo://app?vid=db2fe59d-b5d1-4ec5-ba11-24efec8a7012"},"vehicle_type_id":"4","last_reported":1733645519,"current_range_meters":28800,"station_id":"ce4bhh12rcd13ifvqff0","pricing_plan_id":"cebpf4jnsgd1na2vs0mg"},{"bike_id":"7e0373f0-85f3-4ccf-b084-e5358e7224cd","system_id":"levelo_inurba_marseille","lat":43.246605,"lon":5.381736,"is_reserved":false,"is_disabled":false,"rental_uris":{"android":"levelo://app?vid=7e0373f0-85f3-4ccf-b084-e5358e7224cd","ios":"levelo://app?vid=7e0373f0-85f3-4ccf-b084-e5358e7224cd"},"vehicle_type_id":"4","last_reported":1733645519,"current_range_meters":38000,"station_id":"ce4bhih2rcd13ifvqfr0","pricing_plan_id":"cebpf4jnsgd1na2vs0mg"},{"bike_id":"a9717f45-e2c9-4ac2-9c5d-0103bd8d5df2","system_id":"levelo_inurba_marseille","lat":43.26785,"lon":5.39417,"is_reserved":false,"is_disabled":false,"rental_uris":{"android":"levelo://app?vid=a9717f45-e2c9-4ac2-9c5d-0103bd8d5df2","ios":"levelo://app?vid=a9717f45-e2c9-4ac2-9c5d-0103bd8d5df2"},"vehicle_type_id":"4","last_reported":1733645519,"current_range_meters":24000,"station_id":"ce4bhh12rcd13ifvqfg0","pricing_plan_id":"cebpf4jnsgd1na2vs0mg"},{"bike_id":"bbf2a15a-7c34-4cdd-8f7d-611582aea846","system_id":"levelo_inurba_marseille","lat":43.27318,"lon":5.39097,"is_reserved":false,"is_disabled":false,"rental_uris":{"android":"levelo://app?vid=bbf2a15a-7c34-4cdd-8f7d-611582aea846","ios":"levelo://app?vid=bbf2a15a-7c34-4cdd-8f7d-611582aea846"},"vehicle_type_id":"4","last_reported":1733645519,"current_range_meters":13600,"station_id":"ce4bhgp2rcd13ifvqfe0","pricing_plan_id":"cebpf4jnsgd1na2vs0mg"},{"bike_id":"5189ae3f-c807-455c-b5a1-b437b3840d9d","system_id":"levelo_inurba_marseille","lat":43.29841,"lon":5.36272,"is_reserved":false,"is_disabled":false,"rental_uris":{"android":"levelo://app?vid=5189ae3f-c807-455c-b5a1-b437b3840d9d","ios":"levelo://app?vid=5189ae3f-c807-455c-b5a1-b437b3840d9d"},"vehicle_type_id":"4","last_reported":1733645519,"current_range_meters":38800,"station_id":"ce4bgpp2rcd13ifvqc3g","pricing_plan_id":"cebpf4jnsgd1na2vs0mg"},{"bike_id":"fd98eaa9-4d55-4e7b-aa90-0d14707466d9","system_id":"levelo_inurba_marseille","lat":43.337444,"lon":5.374475,"is_reserved":false,"is_disabled":true,"rental_uris":{"android":"levelo://app?vid=fd98eaa9-4d55-4e7b-aa90-0d14707466d9","ios":"levelo://app?vid=fd98eaa9-4d55-4e7b-aa90-0d14707466d9"},"vehicle_type_id":"4","last_reported":1733645519,"current_range_meters":0,"station_id":"","pricing_plan_id":"cebpf4jnsgd1na2vs0mg"},{"bike_id":"06f294bd-d283-4b87-866b-9173a9d88558","system_id":"levelo_inurba_marseille","lat":43.25859,"lon":5.39902,"is_reserved":false,"is_disabled":false,"rental_uris":{"android":"levelo://app?vid=06f294bd-d283-4b87-866b-9173a9d88558","ios":"levelo://app?vid=06f294bd-d283-4b87-866b-9173a9d88558"},"vehicle_type_id":"4","last_reported":1733645519,"current_range_meters":38000,"station_id":"ce4bhl92rcd13ifvqghg","pricing_plan_id":"cebpf4jnsgd1na2vs0mg"},{"bike_id":"8f4618e9-ee5c-48d0-9ad1-6267cc20f008","system_id":"levelo_inurba_marseille","lat":43.27814,"lon":5.40713,"is_reserved":false,"is_disabled":false,"rental_uris":{"android":"levelo://app?vid=8f4618e9-ee5c-48d0-9ad1-6267cc20f008","ios":"levelo://app?vid=8f4618e9-ee5c-48d0-9ad1-6267cc20f008"},"vehicle_type_id":"4","last_reported":1733645519,"current_range_meters":38800,"station_id":"ce4bhnh2rcd13ifvqgtg","pricing_plan_id":"cebpf4jnsgd1na2vs0mg"},{"bike_id":"984b2373-76df-4711-8c00-77838c35d5f1","system_id":"levelo_inurba_marseille","lat":43.31114,"lon":5.37763,"is_reserved":false,"is_disabled":false,"rental_uris":{"android":"levelo://app?vid=984b2373-76df-4711-8c00-77838c35d5f1","ios":"levelo://app?vid=984b2373-76df-4711-8c00-77838c35d5f1"},"vehicle_type_id":"4","last_reported":1733645519,"current_range_meters":18800,"station_id":"ce4bgt92rcd13ifvqcg0","pricing_plan_id":"cebpf4jnsgd1na2vs0mg"},{"bike_id":"412dc3ce-4d0a-4f4c-8d48-ca273ad01cb4","system_id":"levelo_inurba_marseille","lat":43.29796,"lon":5.40413,"is_reserved":false,"is_disabled":false,"rental_uris":{"android":"levelo://app?vid=412dc3ce-4d0a-4f4c-8d48-ca273ad01cb4","ios":"levelo://app?vid=412dc3ce-4d0a-4f4c-8d48-ca273ad01cb4"},"vehicle_type_id":"4","last_reported":1733645519,"current_range_meters":38800,"station_id":"ce4bh112rcd13ifvqd90","pricing_plan_id":"cebpf4jnsgd1na2vs0mg"},{"bike_id":"a4cd63fb-eed3-468f-beb7-c6e5140a377f","system_id":"levelo_inurba_marseille","lat":43.28141,"lon":5.42653,"is_reserved":false,"is_disabled":false,"rental_uris":{"android":"levelo://app?vid=a4cd63fb-eed3-468f-beb7-c6e5140a377f","ios":"levelo://app?vid=a4cd63fb-eed3-468f-beb7-c6e5140a377f"},"vehicle_type_id":"4","last_reported":1733645519,"current_range_meters":3200,"station_id":"ce4bhnh2rcd13ifvqgug","pricing_plan_id":"cebpf4jnsgd1na2vs0mg"},{"bike_id":"4da1f21a-a94b-4e40-8119-4f95d0593822","system_id":"levelo_inurba_marseille","lat":43.32662,"lon":5.40994,"is_reserved":false,"is_disabled":false,"rental_uris":{"android":"levelo://app?vid=4da1f21a-a94b-4e40-8119-4f95d0593822","ios":"levelo://app?vid=4da1f21a-a94b-4e40-8119-4f95d0593822"},"vehicle_type_id":"4","last_reported":1733645519,"current_range_meters":36800,"station_id":"ce4bhpp2rcd13ifvqhgg","pricing_plan_id":"cebpf4jnsgd1na2vs0mg"},{"bike_id":"55d2c77c-81c9-4328-9c14-17e79d31388e","system_id":"levelo_inurba_marseille","lat":43.33018,"lon":5.3904,"is_reserved":false,"is_disabled":false,"rental_uris":{"android":"levelo://app?vid=55d2c77c-81c9-4328-9c14-17e79d31388e","ios":"levelo://app?vid=55d2c77c-81c9-4328-9c14-17e79d31388e"},"vehicle_type_id":"4","last_reported":1733645519,"current_range_meters":24800,"station_id":"ce4bhr92rcd13ifvqhrg","pricing_plan_id":"cebpf4jnsgd1na2vs0mg"},{"bike_id":"c2d8a1c2-d166-4a36-b32f-beec95c93bd5","system_id":"levelo_inurba_marseille","lat":43.33756,"lon":5.37459,"is_reserved":false,"is_disabled":true,"rental_uris":{"android":"levelo://app?vid=c2d8a1c2-d166-4a36-b32f-beec95c93bd5","ios":"levelo://app?vid=c2d8a1c2-d166-4a36-b32f-beec95c93bd5"},"vehicle_type_id":"4","last_reported":1733645519,"current_range_meters":0,"station_id":"","pricing_plan_id":"cebpf4jnsgd1na2vs0mg"},{"bike_id":"4fcb167d-7b16-4966-8290-6ed99df9c71b","system_id":"levelo_inurba_marseille","lat":43.31184,"lon":5.3873,"is_reserved":false,"is_disabled":false,"rental_uris":{"android":"levelo://app?vid=4fcb167d-7b16-4966-8290-6ed99df9c71b","ios":"levelo://app?vid=4fcb167d-7b16-4966-8290-6ed99df9c71b"},"vehicle_type_id":"4","last_reported":1733645519,"current_range_meters":38000,"station_id":"ce4bgv12rcd13ifvqcp0","pricing_plan_id":"cebpf4jnsgd1na2vs0mg"},{"bike_id":"0e3451bb-7a71-49a1-b69e-200c6dd6b013","system_id":"levelo_inurba_marseille","lat":43.29039,"lon":5.40001,"is_reserved":false,"is_disabled":true,"rental_uris":{"android":"levelo://app?vid=0e3451bb-7a71-49a1-b69e-200c6dd6b013","ios":"levelo://app?vid=0e3451bb-7a71-49a1-b69e-200c6dd6b013"},"vehicle_type_id":"4","last_reported":1733645519,"current_range_meters":36800,"station_id":"ce4bh392rcd13ifvqdm0","pricing_plan_id":"cebpf4jnsgd1na2vs0mg"},{"bike_id":"a24e82bb-db77-4571-86e8-6c933557c55b","system_id":"levelo_inurba_marseille","lat":43.29258,"lon":5.40908,"is_reserved":false,"is_disabled":false,"rental_uris":{"android":"levelo://app?vid=a24e82bb-db77-4571-86e8-6c933557c55b","ios":"levelo://app?vid=a24e82bb-db77-4571-86e8-6c933557c55b"},"vehicle_type_id":"4","last_reported":1733645519,"current_range_meters":28000,"station_id":"ce4bh192rcd13ifvqdc0","pricing_plan_id":"cebpf4jnsgd1na2vs0mg"},{"bike_id":"f21672a4-d5cc-436d-adf3-570a4af5d61c","system_id":"levelo_inurba_marseille","lat":43.28306,"lon":5.4049,"is_reserved":false,"is_disabled":false,"rental_uris":{"android":"levelo://app?vid=f21672a4-d5cc-436d-adf3-570a4af5d61c","ios":"levelo://app?vid=f21672a4-d5cc-436d-adf3-570a4af5d61c"},"vehicle_type_id":"4","last_reported":1733645519,"current_range_meters":9200,"station_id":"","pricing_plan_id":"cebpf4jnsgd1na2vs0mg"},{"bike_id":"f37a82f0-00f5-47e4-a9b7-faa7c4437935","system_id":"levelo_inurba_marseille","lat":43.31068,"lon":5.38344,"is_reserved":false,"is_disabled":false,"rental_uris":{"android":"levelo://app?vid=f37a82f0-00f5-47e4-a9b7-faa7c4437935","ios":"levelo://app?vid=f37a82f0-00f5-47e4-a9b7-faa7c4437935"},"vehicle_type_id":"4","last_reported":1733645519,"current_range_meters":28400,"station_id":"ce4bgv92rcd13ifvqcr0","pricing_plan_id":"cebpf4jnsgd1na2vs0mg"},{"bike_id":"e4f5665f-dd92-4c18-9b05-f9d356d488db","system_id":"levelo_inurba_marseille","lat":43.29298,"lon":5.37449,"is_reserved":false,"is_disabled":false,"rental_uris":{"android":"levelo://app?vid=e4f5665f-dd92-4c18-9b05-f9d356d488db","ios":"levelo://app?vid=e4f5665f-dd92-4c18-9b05-f9d356d488db"},"vehicle_type_id":"4","last_reported":1733645519,"current_range_meters":20800,"station_id":"ce4bgi12rcd13ifvqb70","pricing_plan_id":"cebpf4jnsgd1na2vs0mg"},{"bike_id":"1c116fee-2365-407f-b033-8ab53c14818b","system_id":"levelo_inurba_marseille","lat":43.337444,"lon":5.374475,"is_reserved":false,"is_disabled":false,"rental_uris":{"android":"levelo://app?vid=1c116fee-2365-407f-b033-8ab53c14818b","ios":"levelo://app?vid=1c116fee-2365-407f-b033-8ab53c14818b"},"vehicle_type_id":"4","last_reported":1733645519,"current_range_meters":25200,"station_id":"","pricing_plan_id":"cebpf4jnsgd1na2vs0mg"},{"bike_id":"2699c6dd-c3f2-4283-9ef4-d60695bb9f19","system_id":"levelo_inurba_marseille","lat":43.25055,"lon":5.40352,"is_reserved":false,"is_disabled":false,"rental_uris":{"android":"levelo://app?vid=2699c6dd-c3f2-4283-9ef4-d60695bb9f19","ios":"levelo://app?vid=2699c6dd-c3f2-4283-9ef4-d60695bb9f19"},"vehicle_type_id":"4","last_reported":1733645519,"current_range_meters":10800,"station_id":"ce4bhhh2rcd13ifvqfl0","pricing_plan_id":"cebpf4jnsgd1na2vs0mg"},{"bike_id":"1f7490b8-d609-4915-a25f-efaf09b46d3f","system_id":"levelo_inurba_marseille","lat":43.29004,"lon":5.35606,"is_reserved":false,"is_disabled":false,"rental_uris":{"android":"levelo://app?vid=1f7490b8-d609-4915-a25f-efaf09b46d3f","ios":"levelo://app?vid=1f7490b8-d609-4915-a25f-efaf09b46d3f"},"vehicle_type_id":"4","last_reported":1733645519,"current_range_meters":38000,"station_id":"ce4bhb92rcd13ifvqen0","pricing_plan_id":"cebpf4jnsgd1na2vs0mg"},{"bike_id":"0c14075f-5dc8-4aa9-ad30-e61cbc3cc0a1","system_id":"levelo_inurba_marseille","lat":43.25113,"lon":5.40323,"is_reserved":false,"is_disabled":false,"rental_uris":{"android":"levelo://app?vid=0c14075f-5dc8-4aa9-ad30-e61cbc3cc0a1","ios":"levelo://app?vid=0c14075f-5dc8-4aa9-ad30-e61cbc3cc0a1"},"vehicle_type_id":"4","last_reported":1733645519,"current_range_meters":38800,"station_id":"ce4bhlh2rcd13ifvqgig","pricing_plan_id":"cebpf4jnsgd1na2vs0mg"},{"bike_id":"c786e0e8-707d-4f4c-830e-bfba95f7380a","system_id":"levelo_inurba_marseille","lat":43.32659,"lon":5.40986,"is_reserved":false,"is_disabled":false,"rental_uris":{"android":"levelo://app?vid=c786e0e8-707d-4f4c-830e-bfba95f7380a","ios":"levelo://app?vid=c786e0e8-707d-4f4c-830e-bfba95f7380a"},"vehicle_type_id":"4","last_reported":1733645519,"current_range_meters":34000,"station_id":"ce4bhpp2rcd13ifvqhgg","pricing_plan_id":"cebpf4jnsgd1na2vs0mg"},{"bike_id":"f5561434-0740-4a3c-abc2-013f37687b8d","system_id":"levelo_inurba_marseille","lat":43.24816,"lon":5.37459,"is_reserved":false,"is_disabled":true,"rental_uris":{"android":"levelo://app?vid=f5561434-0740-4a3c-abc2-013f37687b8d","ios":"levelo://app?vid=f5561434-0740-4a3c-abc2-013f37687b8d"},"vehicle_type_id":"4","last_reported":1733645519,"current_range_meters":33600,"station_id":"ce4bhgh2rcd13ifvqfb0","pricing_plan_id":"cebpf4jnsgd1na2vs0mg"},{"bike_id":"8f904a17-2e9c-403c-adb2-9c945fb31c57","system_id":"levelo_inurba_marseille","lat":43.29005,"lon":5.35611,"is_reserved":false,"is_disabled":false,"rental_uris":{"android":"levelo://app?vid=8f904a17-2e9c-403c-adb2-9c945fb31c57","ios":"levelo://app?vid=8f904a17-2e9c-403c-adb2-9c945fb31c57"},"vehicle_type_id":"4","last_reported":1733645519,"current_range_meters":38800,"station_id":"ce4bhb92rcd13ifvqen0","pricing_plan_id":"cebpf4jnsgd1na2vs0mg"},{"bike_id":"b7e97006-7b12-44c5-bc2a-deaefb6653d4","system_id":"levelo_inurba_marseille","lat":43.32343,"lon":5.40621,"is_reserved":false,"is_disabled":false,"rental_uris":{"android":"levelo://app?vid=b7e97006-7b12-44c5-bc2a-deaefb6653d4","ios":"levelo://app?vid=b7e97006-7b12-44c5-bc2a-deaefb6653d4"},"vehicle_type_id":"4","last_reported":1733645519,"current_range_meters":4000,"station_id":"ce4bhq92rcd13ifvqhjg","pricing_plan_id":"cebpf4jnsgd1na2vs0mg"},{"bike_id":"0cc120f3-0353-45a2-8b5d-2fa342268f91","system_id":"levelo_inurba_marseille","lat":43.30882,"lon":5.39649,"is_reserved":false,"is_disabled":false,"rental_uris":{"android":"levelo://app?vid=0cc120f3-0353-45a2-8b5d-2fa342268f91","ios":"levelo://app?vid=0cc120f3-0353-45a2-8b5d-2fa342268f91"},"vehicle_type_id":"4","last_reported":1733645519,"current_range_meters":38800,"station_id":"ce4bh012rcd13ifvqcv0","pricing_plan_id":"cebpf4jnsgd1na2vs0mg"},{"bike_id":"8799b682-a45f-48e9-8cf8-5ea712bbefd3","system_id":"levelo_inurba_marseille","lat":43.28456,"lon":5.35901,"is_reserved":false,"is_disabled":false,"rental_uris":{"android":"levelo://app?vid=8799b682-a45f-48e9-8cf8-5ea712bbefd3","ios":"levelo://app?vid=8799b682-a45f-48e9-8cf8-5ea712bbefd3"},"vehicle_type_id":"4","last_reported":1733645519,"current_range_meters":38800,"station_id":"ce4bhah2rcd13ifvqei0","pricing_plan_id":"cebpf4jnsgd1na2vs0mg"},{"bike_id":"78de9649-607d-40ef-a216-c9658f912667","system_id":"levelo_inurba_marseille","lat":43.24663,"lon":5.38168,"is_reserved":false,"is_disabled":false,"rental_uris":{"android":"levelo://app?vid=78de9649-607d-40ef-a216-c9658f912667","ios":"levelo://app?vid=78de9649-607d-40ef-a216-c9658f912667"},"vehicle_type_id":"4","last_reported":1733645519,"current_range_meters":22400,"station_id":"ce4bhih2rcd13ifvqfr0","pricing_plan_id":"cebpf4jnsgd1na2vs0mg"},{"bike_id":"3d4f4e16-da3f-45dc-a494-1b36088b6319","system_id":"levelo_inurba_marseille","lat":43.28458,"lon":5.35895,"is_reserved":false,"is_disabled":false,"rental_uris":{"android":"levelo://app?vid=3d4f4e16-da3f-45dc-a494-1b36088b6319","ios":"levelo://app?vid=3d4f4e16-da3f-45dc-a494-1b36088b6319"},"vehicle_type_id":"4","last_reported":1733645519,"current_range_meters":38800,"station_id":"ce4bhah2rcd13ifvqei0","pricing_plan_id":"cebpf4jnsgd1na2vs0mg"},{"bike_id":"6c660714-bd36-4e1d-858f-095636bba76e","system_id":"levelo_inurba_marseille","lat":43.25939,"lon":5.40906,"is_reserved":false,"is_disabled":false,"rental_uris":{"android":"levelo://app?vid=6c660714-bd36-4e1d-858f-095636bba76e","ios":"levelo://app?vid=6c660714-bd36-4e1d-858f-095636bba76e"},"vehicle_type_id":"4","last_reported":1733645519,"current_range_meters":14000,"station_id":"ce4bhm92rcd13ifvqglg","pricing_plan_id":"cebpf4jnsgd1na2vs0mg"},{"bike_id":"e31ba760-0d39-4446-8ebd-a9ba7e03f6a5","system_id":"levelo_inurba_marseille","lat":43.31277,"lon":5.40168,"is_reserved":false,"is_disabled":false,"rental_uris":{"android":"levelo://app?vid=e31ba760-0d39-4446-8ebd-a9ba7e03f6a5","ios":"levelo://app?vid=e31ba760-0d39-4446-8ebd-a9ba7e03f6a5"},"vehicle_type_id":"4","last_reported":1733645519,"current_range_meters":38000,"station_id":"ce4bh092rcd13ifvqd30","pricing_plan_id":"cebpf4jnsgd1na2vs0mg"},{"bike_id":"9590a1ec-3b52-4a2c-b718-b1fd91dd14e9","system_id":"levelo_inurba_marseille","lat":43.30273,"lon":5.38459,"is_reserved":false,"is_disabled":false,"rental_uris":{"android":"levelo://app?vid=9590a1ec-3b52-4a2c-b718-b1fd91dd14e9","ios":"levelo://app?vid=9590a1ec-3b52-4a2c-b718-b1fd91dd14e9"},"vehicle_type_id":"4","last_reported":1733645519,"current_range_meters":36000,"station_id":"","pricing_plan_id":"cebpf4jnsgd1na2vs0mg"},{"bike_id":"e2d693aa-5ed2-4686-b4c9-c48bb50ba4ea","system_id":"levelo_inurba_marseille","lat":43.31327,"lon":5.39695,"is_reserved":false,"is_disabled":false,"rental_uris":{"android":"levelo://app?vid=e2d693aa-5ed2-4686-b4c9-c48bb50ba4ea","ios":"levelo://app?vid=e2d693aa-5ed2-4686-b4c9-c48bb50ba4ea"},"vehicle_type_id":"4","last_reported":1733645519,"current_range_meters":38800,"station_id":"ce4bgvp2rcd13ifvqcu0","pricing_plan_id":"cebpf4jnsgd1na2vs0mg"},{"bike_id":"bacc3450-9073-4434-a77d-41c29d8453a7","system_id":"levelo_inurba_marseille","lat":43.25726,"lon":5.41105,"is_reserved":false,"is_disabled":false,"rental_uris":{"android":"levelo://app?vid=bacc3450-9073-4434-a77d-41c29d8453a7","ios":"levelo://app?vid=bacc3450-9073-4434-a77d-41c29d8453a7"},"vehicle_type_id":"4","last_reported":1733645519,"current_range_meters":38800,"station_id":"ce4bhkp2rcd13ifvqgd0","pricing_plan_id":"cebpf4jnsgd1na2vs0mg"},{"bike_id":"b57ac3ac-1cb9-4a0e-9880-d76a5f5fa301","system_id":"levelo_inurba_marseille","lat":43.26203,"lon":5.37921,"is_reserved":false,"is_disabled":false,"rental_uris":{"android":"levelo://app?vid=b57ac3ac-1cb9-4a0e-9880-d76a5f5fa301","ios":"levelo://app?vid=b57ac3ac-1cb9-4a0e-9880-d76a5f5fa301"},"vehicle_type_id":"4","last_reported":1733645519,"current_range_meters":34800,"station_id":"ce4bhjp2rcd13ifvqg90","pricing_plan_id":"cebpf4jnsgd1na2vs0mg"},{"bike_id":"18cdda37-c078-44c1-ae6c-8a7ab3a2d4e4","system_id":"levelo_inurba_marseille","lat":43.28719,"lon":5.36098,"is_reserved":false,"is_disabled":false,"rental_uris":{"android":"levelo://app?vid=18cdda37-c078-44c1-ae6c-8a7ab3a2d4e4","ios":"levelo://app?vid=18cdda37-c078-44c1-ae6c-8a7ab3a2d4e4"},"vehicle_type_id":"4","last_reported":1733645519,"current_range_meters":37600,"station_id":"cki0cbj6b192h4jlfktg","pricing_plan_id":"cebpf4jnsgd1na2vs0mg"},