{"last_updated":1731867051,"ttl":60,"version":"2.2","data":{"bikes":[{"bike_id":"73806b4b-3409-4fe7-9bac-cc9da7355bda","system_id":"levelo_inurba_marseille","lat":43.3103,"lon":5.4,"is_reserved":false,"is_disabled":false,"rental_uris":{"android":"levelo://app?vid=73806b4b-3409-4fe7-9bac-cc9da7355bda","ios":"levelo://app?vid=73806b4b-3409-4fe7-9bac-cc9da7355bda"},"vehicle_type_id":"4","last_reported":1731867051,"current_range_meters":28000,"station_id":"","pricing_plan_id":"cebpf4jnsgd1na2vs0mg"},{"bike_id":"f3b7bba5-9164-4ab8-969a-b89ccc0ddd0a","system_id":"levelo_inurba_marseille","lat":43.28917,"lon":5.384067,"is_reserved":false,"is_disabled":false,"rental_uris":{"android":"levelo://app?vid=f3b7bba5-9164-4ab8-969a-b89ccc0ddd0a","ios":"levelo://app?vid=f3b7bba5-9164-4ab8-969a-b89ccc0ddd0a"},"vehicle_type_id":"4","last_reported":1731867051,"current_range_meters":23200,"station_id":"ce4bh192rcd13ifvqdd0","pricing_plan_id":"cebpf4jnsgd1na2vs0mg"},{"bike_id":"db2b91a4-d5c9-49a3-9079-d94c82ff95d7","system_id":"levelo_inurba_marseille","lat":43.30029,"lon":5.40946,"is_reserved":false,"is_disabled":false,"rental_uris":{"android":"levelo://app?vid=db2b91a4-d5c9-49a3-9079-d94c82ff95d7","ios":"levelo://app?vid=db2b91a4-d5c9-49a3-9079-d94c82ff95d7"},"vehicle_type_id":"4","last_reported":1731867051,"current_range_meters":9200,"station_id":"","pricing_plan_id":"cebpf4jnsgd1na2vs0mg"},{"bike_id":"bc04bb9e-af20-4973-934a-dac214f7ce85","system_id":"levelo_inurba_marseille","lat":43.28854,"lon":5.39328,"is_reserved":false,"is_disabled":false,"rental_uris":{"android":"levelo://app?vid=bc04bb9e-af20-4973-934a-dac214f7ce85","ios":"levelo://app?vid=bc04bb9e-af20-4973-934a-dac214f7ce85"},"vehicle_type_id":"4","last_reported":1731867051,"current_range_meters":18000,"station_id":"ce4bh2p2rcd13ifvqdi0","pricing_plan_id":"cebpf4jnsgd1na2vs0mg"},{"bike_id":"4b0f0ac8-de24-4850-84be-a3ce2675087b","system_id":"levelo_inurba_marseille","lat":43.30924,"lon":5.40145,"is_reserved":false,"is_disabled":false,"rental_uris":{"android":"levelo://app?vid=4b0f0ac8-de24-4850-84be-a3ce2675087b","ios":"levelo://app?vid=4b0f0ac8-de24-4850-84be-a3ce2675087b"},"vehicle_type_id":"4","last_reported":1731867051,"current_range_meters":18000,"station_id":"ce4bgvp2rcd13ifvqct0","pricing_plan_id":"cebpf4jnsgd1na2vs0mg"},{"bike_id":"264d745c-908a-4634-bd4b-675ff091dbc9","system_id":"levelo_inurba_marseille","lat":43.29419,"lon":5.38621,"is_reserved":false,"is_disabled":false,"rental_uris":{"android":"levelo://app?vid=264d745c-908a-4634-bd4b-675ff091dbc9","ios":"levelo://app?vid=264d745c-908a-4634-bd4b-675ff091dbc9"},"vehicle_type_id":"4","last_reported":1731867051,"current_range_meters":8000,"station_id":"ce4bh2h2rcd13ifvqdh0","pricing_plan_id":"cebpf4jnsgd1na2vs0mg"},{"bike_id":"6af37118-02ee-4d08-8a3d-f69758d1e2e6","system_id":"levelo_inurba_marseille","lat":43.29259,"lon":5.38439,"is_reserved":false,"is_disabled":false,"rental_uris":{"android":"levelo://app?vid=6af37118-02ee-4d08-8a3d-f69758d1e2e6","ios":"levelo://app?vid=6af37118-02ee-4d08-8a3d-f69758d1e2e6"},"vehicle_type_id":"4","last_reported":1731867051,"current_range_meters":17200,"station_id":"ce4bh692rcd13ifvqea0","pricing_plan_id":"cebpf4jnsgd1na2vs0mg"},{"bike_id":"20a3f75f-c1d6-43c9-aaa8-4bc959aaf765","system_id":"levelo_inurba_marseille","lat":43.30131,"lon":5.39873,"is_reserved":false,"is_disabled":false,"rental_uris":{"android":"levelo://app?vid=20a3f75f-c1d6-43c9-aaa8-4bc959aaf765","ios":"levelo://app?vid=20a3f75f-c1d6-43c9-aaa8-4bc959aaf765"},"vehicle_type_id":"4","last_reported":1731867051,"current_range_meters":29600,"station_id":"ce4bh0h2rcd13ifvqd40","pricing_plan_id":"cebpf4jnsgd1na2vs0mg"},{"bike_id":"0672d165-d197-4474-bbec-2df95543fd2f","system_id":"levelo_inurba_marseille","lat":43.299,"lon":5.43662,"is_reserved":false,"is_disabled":false,"rental_uris":{"android":"levelo://app?vid=0672d165-d197-4474-bbec-2df95543fd2f","ios":"levelo://app?vid=0672d165-d197-4474-bbec-2df95543fd2f"},"vehicle_type_id":"4","last_reported":1731867051,"current_range_meters":6800,"station_id":"ce4bhpp2rcd13ifvqhfg","pricing_plan_id":"cebpf4jnsgd1na2vs0mg"},{"bike_id":"0abafd50-d6f0-4ae1-8b2e-e1936ed5039b","system_id":"levelo_inurba_marseille","lat":43.30818,"lon":5.38118,"is_reserved":false,"is_disabled":false,"rental_uris":{"android":"levelo://app?vid=0abafd50-d6f0-4ae1-8b2e-e1936ed5039b","ios":"levelo://app?vid=0abafd50-d6f0-4ae1-8b2e-e1936ed5039b"},"vehicle_type_id":"4","last_reported":1731867051,"current_range_meters":22800,"station_id":"","pricing_plan_id":"cebpf4jnsgd1na2vs0mg"},{"bike_id":"80b2359f-e8cd-43e2-a3c2-a1f18631fb35","system_id":"levelo_inurba_marseille","lat":43.25586,"lon":5.38236,"is_reserved":false,"is_disabled":false,"rental_uris":{"android":"levelo://app?vid=80b2359f-e8cd-43e2-a3c2-a1f18631fb35","ios":"levelo://app?vid=80b2359f-e8cd-43e2-a3c2-a1f18631fb35"},"vehicle_type_id":"4","last_reported":1731867051,"current_range_meters":14800,"station_id":"ce4bhih2rcd13ifvqfs0","pricing_plan_id":"cebpf4jnsgd1na2vs0mg"},{"bike_id":"350e2458-d417-4d83-917e-2333a0c89d64","system_id":"levelo_inurba_marseille","lat":43.31368,"lon":5.38489,"is_reserved":false,"is_disabled":false,"rental_uris":{"android":"levelo://app?vid=350e2458-d417-4d83-917e-2333a0c89d64","ios":"levelo://app?vid=350e2458-d417-4d83-917e-2333a0c89d64"},"vehicle_type_id":"4","last_reported":1731867051,"current_range_meters":36800,"station_id":"ce4bgt92rcd13ifvqcf0","pricing_plan_id":"cebpf4jnsgd1na2vs0mg"},{"bike_id":"4c167bc3-2964-4625-adc0-c92e539ad80f","system_id":"levelo_inurba_marseille","lat":43.28279,"lon":5.408,"is_reserved":false,"is_disabled":false,"rental_uris":{"android":"levelo://app?vid=4c167bc3-2964-4625-adc0-c92e539ad80f","ios":"levelo://app?vid=4c167bc3-2964-4625-adc0-c92e539ad80f"},"vehicle_type_id":"4","last_reported":1731867051,"current_range_meters":33600,"station_id":"","pricing_plan_id":"cebpf4jnsgd1na2vs0mg"},{"bike_id":"3203c545-8816-47a4-ae40-21487a89e084","system_id":"levelo_inurba_marseille","lat":43.30595,"lon":5.3723,"is_reserved":false,"is_disabled":false,"rental_uris":{"android":"levelo://app?vid=3203c545-8816-47a4-ae40-21487a89e084","ios":"levelo://app?vid=3203c545-8816-47a4-ae40-21487a89e084"},"vehicle_type_id":"4","last_reported":1731867051,"current_range_meters":36400,"station_id":"ce4bgqh2rcd13ifvqc4g","pricing_plan_id":"cebpf4jnsgd1na2vs0mg"},{"bike_id":"c35e8450-fb2e-4b4b-a47b-02dac4211b81","system_id":"levelo_inurba_marseille","lat":43.29256,"lon":5.38444,"is_reserved":false,"is_disabled":false,"rental_uris":{"android":"levelo://app?vid=c35e8450-fb2e-4b4b-a47b-02dac4211b81","ios":"levelo://app?vid=c35e8450-fb2e-4b4b-a47b-02dac4211b81"},"vehicle_type_id":"4","last_reported":1731867051,"current_range_meters":38800,"station_id":"ce4bh692rcd13ifvqea0","pricing_plan_id":"cebpf4jnsgd1na2vs0mg"},{"bike_id":"6763a5c3-7590-4eb2-9a3c-a6d062d88b7d","system_id":"levelo_inurba_marseille","lat":43.31364,"lon":5.38491,"is_reserved":false,"is_disabled":false,"rental_uris":{"android":"levelo://app?vid=6763a5c3-7590-4eb2-9a3c-a6d062d88b7d","ios":"levelo://app?vid=6763a5c3-7590-4eb2-9a3c-a6d062d88b7d"},"vehicle_type_id":"4","last_reported":1731867051,"current_range_meters":33600,"station_id":"ce4bgt92rcd13ifvqcf0","pricing_plan_id":"cebpf4jnsgd1na2vs0mg"},{"bike_id":"68924057-ad48-479a-b8d6-ab99e4decffd","system_id":"levelo_inurba_marseille","lat":43.2957,"lon":5.39993,"is_reserved":false,"is_disabled":false,"rental_uris":{"android":"levelo://app?vid=68924057-ad48-479a-b8d6-ab99e4decffd","ios":"levelo://app?vid=68924057-ad48-479a-b8d6-ab99e4decffd"},"vehicle_type_id":"4","last_reported":1731867051,"current_range_meters":9200,"station_id":"ce4bh312rcd13ifvqdj0","pricing_plan_id":"cebpf4jnsgd1na2vs0mg"},{"bike_id":"6b0ea79e-cb12-4a50-9845-e4686b3cacc8","system_id":"levelo_inurba_marseille","lat":43.295751,"lon":5.399791,"is_reserved":false,"is_disabled":false,"rental_uris":{"android":"levelo://app?vid=6b0ea79e-cb12-4a50-9845-e4686b3cacc8","ios":"levelo://app?vid=6b0ea79e-cb12-4a50-9845-e4686b3cacc8"},"vehicle_type_id":"4","last_reported":1731867051,"current_range_meters":8800,"station_id":"","pricing_plan_id":"cebpf4jnsgd1na2vs0mg"},{"bike_id":"2bd9beb5-85af-4e70-88f5-f5fe8ca66e6d","system_id":"levelo_inurba_marseille","lat":43.31065,"lon":5.38354,"is_reserved":false,"is_disabled":false,"rental_uris":{"android":"levelo://app?vid=2bd9beb5-85af-4e70-88f5-f5fe8ca66e6d","ios":"levelo://app?vid=2bd9beb5-85af-4e70-88f5-f5fe8ca66e6d"},"vehicle_type_id":"4","last_reported":1731867051,"current_range_meters":27600,"station_id":"ce4bgv92rcd13ifvqcr0","pricing_plan_id":"cebpf4jnsgd1na2vs0mg"},{"bike_id":"32d8bb0f-d6c5-47ca-ad20-3770d55b2814","system_id":"levelo_inurba_marseille","lat":43.28138,"lon":5.44299,"is_reserved":false,"is_disabled":false,"rental_uris":{"android":"levelo://app?vid=32d8bb0f-d6c5-47ca-ad20-3770d55b2814","ios":"levelo://app?vid=32d8bb0f-d6c5-47ca-ad20-3770d55b2814"},"vehicle_type_id":"4","last_reported":1731867051,"current_range_meters":20800,"station_id":"","pricing_plan_id":"cebpf4jnsgd1na2vs0mg"},{"bike_id":"f8c86d03-779b-474e-95ea-a8886f915bf5","system_id":"levelo_inurba_marseille","lat":43.27997,"lon":5.4002,"is_reserved":false,"is_disabled":false,"rental_uris":{"android":"levelo://app?vid=f8c86d03-779b-474e-95ea-a8886f915bf5","ios":"levelo://app?vid=f8c86d03-779b-474e-95ea-a8886f915bf5"},"vehicle_type_id":"4","last_reported":1731867051,"current_range_meters":5600,"station_id":"ce4bho92rcd13ifvqh4g","pricing_plan_id":"cebpf4jnsgd1na2vs0mg"},{"bike_id":"8ad77fcb-6091-4800-956a-aedf24fc7ecd","system_id":"levelo_inurba_marseille","lat":43.29694,"lon":5.37698,"is_reserved":false,"is_disabled":false,"rental_uris":{"android":"levelo://app?vid=8ad77fcb-6091-4800-956a-aedf24fc7ecd","ios":"levelo://app?vid=8ad77fcb-6091-4800-956a-aedf24fc7ecd"},"vehicle_type_id":"4","last_reported":1731867051,"current_range_meters":30800,"station_id":"ce4bgkh2rcd13ifvqbl0","pricing_plan_id":"cebpf4jnsgd1na2vs0mg"},{"bike_id":"fd5dd092-f218-4ee9-8566-83eb35688117","system_id":"levelo_inurba_marseille","lat":43.30419,"lon":5.41287,"is_reserved":false,"is_disabled":false,"rental_uris":{"android":"levelo://app?vid=fd5dd092-f218-4ee9-8566-83eb35688117","ios":"levelo://app?vid=fd5dd092-f218-4ee9-8566-83eb35688117"},"vehicle_type_id":"4","last_reported":1731867051,"current_range_meters":27200,"station_id":"ce4bhop2rcd13ifvqh8g","pricing_plan_id":"cebpf4jnsgd1na2vs0mg"},{"bike_id":"0e1d2e7a-8318-45fe-af1b-31857eb1aac8","system_id":"levelo_inurba_marseille","lat":43.2396,"lon":5.36629,"is_reserved":false,"is_disabled":false,"rental_uris":{"android":"levelo://app?vid=0e1d2e7a-8318-45fe-af1b-31857eb1aac8","ios":"levelo://app?vid=0e1d2e7a-8318-45fe-af1b-31857eb1aac8"},"vehicle_type_id":"4","last_reported":1731867051,"current_range_meters":23200,"station_id":"ce4bhi12rcd13ifvqfp0","pricing_plan_id":"cebpf4jnsgd1na2vs0mg"},{"bike_id":"34b4edc6-2b1b-4588-8792-a90e419227e7","system_id":"levelo_inurba_marseille","lat":43.23963,"lon":5.36642,"is_reserved":false,"is_disabled":false,"rental_uris":{"android":"levelo://app?vid=34b4edc6-2b1b-4588-8792-a90e419227e7","ios":"levelo://app?vid=34b4edc6-2b1b-4588-8792-a90e419227e7"},"vehicle_type_id":"4","last_reported":1731867051,"current_range_meters":36400,"station_id":"ce4bhi12rcd13ifvqfp0","pricing_plan_id":"cebpf4jnsgd1na2vs0mg"},{"bike_id":"2bd3ae1c-22d2-4b0f-9fd7-42d6b84fc3a3","system_id":"levelo_inurba_marseille","lat":43.336,"lon":5.41042,"is_reserved":false,"is_disabled":false,"rental_uris":{"android":"levelo://app?vid=2bd3ae1c-22d2-4b0f-9fd7-42d6b84fc3a3","ios":"levelo://app?vid=2bd3ae1c-22d2-4b0f-9fd7-42d6b84fc3a3"},"vehicle_type_id":"4","last_reported":1731867051,"current_range_meters":17200,"station_id":"ce4bhqh2rcd13ifvqhmg","pricing_plan_id":"cebpf4jnsgd1na2vs0mg"},{"bike_id":"79b76398-f4aa-422b-b325-2360d07a8784","system_id":"levelo_inurba_marseille","lat":43.33726,"lon":5.39182,"is_reserved":false,"is_disabled":false,"rental_uris":{"android":"levelo://app?vid=79b76398-f4aa-422b-b325-2360d07a8784","ios":"levelo://app?vid=79b76398-f4aa-422b-b325-2360d07a8784"},"vehicle_type_id":"4","last_reported":1731867051,"current_range_meters":38800,"station_id":"ce4bhr92rcd13ifvqhsg","pricing_plan_id":"cebpf4jnsgd1na2vs0mg"},{"bike_id":"a7081911-a624-4ede-9084-31328e822934","system_id":"levelo_inurba_marseille","lat":43.28459,"lon":5.35887,"is_reserved":false,"is_disabled":false,"rental_uris":{"android":"levelo://app?vid=a7081911-a624-4ede-9084-31328e822934","ios":"levelo://app?vid=a7081911-a624-4ede-9084-31328e822934"},"vehicle_type_id":"4","last_reported":1731867051,"current_range_meters":24800,"station_id":"ce4bhah2rcd13ifvqei0","pricing_plan_id":"cebpf4jnsgd1na2vs0mg"},{"bike_id":"b3639c64-0a2e-42b1-85fd-b5732fc81d2d","system_id":"levelo_inurba_marseille","lat":43.30955,"lon":5.39036,"is_reserved":false,"is_disabled":false,"rental_uris":{"android":"levelo://app?vid=b3639c64-0a2e-42b1-85fd-b5732fc81d2d","ios":"levelo://app?vid=b3639c64-0a2e-42b1-85fd-b5732fc81d2d"},"vehicle_type_id":"4","last_reported":1731867051,"current_range_meters":6400,"station_id":"ce4bgup2rcd13ifvqco0","pricing_plan_id":"cebpf4jnsgd1na2vs0mg"},{"bike_id":"ee2c94c5-cd34-4ed0-b34c-01a997355a61","system_id":"levelo_inurba_marseille","lat":43.27906,"lon":5.38013,"is_reserved":false,"is_disabled":false,"rental_uris":{"android":"levelo://app?vid=ee2c94c5-cd34-4ed0-b34c-01a997355a61","ios":"levelo://app?vid=ee2c94c5-cd34-4ed0-b34c-01a997355a61"},"vehicle_type_id":"4","last_reported":1731867051,"current_range_meters":10000,"station_id":"ce4bhf92rcd13ifvqf50","pricing_plan_id":"cebpf4jnsgd1na2vs0mg"},{"bike_id":"b10caf79-f9e6-4438-bf9e-f921ef94d55f","system_id":"levelo_inurba_marseille","lat":43.26684,"lon":5.38268,"is_reserved":false,"is_disabled":false,"rental_uris":{"android":"levelo://app?vid=b10caf79-f9e6-4438-bf9e-f921ef94d55f","ios":"levelo://app?vid=b10caf79-f9e6-4438-bf9e-f921ef94d55f"},"vehicle_type_id":"4","last_reported":1731867051,"current_range_meters":38800,"station_id":"ce4bhg92rcd13ifvqf90","pricing_plan_id":"cebpf4jnsgd1na2vs0mg"},{"bike_id":"e8e9d299-856f-4e8a-827f-877274264553","system_id":"levelo_inurba_marseille","lat":43.23963,"lon":5.36629,"is_reserved":false,"is_disabled":false,"rental_uris":{"android":"levelo://app?vid=e8e9d299-856f-4e8a-827f-877274264553","ios":"levelo://app?vid=e8e9d299-856f-4e8a-827f-877274264553"},"vehicle_type_id":"4","last_reported":1731867051,"current_range_meters":37600,"station_id":"ce4bhi12rcd13ifvqfp0","pricing_plan_id":"cebpf4jnsgd1na2vs0mg"},{"bike_id":"37774067-8aef-4591-b5b8-f0ec8165071e","system_id":"levelo_inurba_marseille","lat":43.26941,"lon":5.4025,"is_reserved":false,"is_disabled":false,"rental_uris":{"android":"levelo://app?vid=37774067-8aef-4591-b5b8-f0ec8165071e","ios":"levelo://app?vid=37774067-8aef-4591-b5b8-f0ec8165071e"},"vehicle_type_id":"4","last_reported":1731867051,"current_range_meters":22000,"station_id":"cjm6bp8fraef2m0cb0m0","pricing_plan_id":"cebpf4jnsgd1na2vs0mg"},{"bike_id":"7e0c9c59-34bd-4605-9488-29ad2dbb5bd4","system_id":"levelo_inurba_marseille","lat":43.28028,"lon":5.3694,"is_reserved":false,"is_disabled":false,"rental_uris":{"android":"levelo://app?vid=7e0c9c59-34bd-4605-9488-29ad2dbb5bd4","ios":"levelo://app?vid=7e0c9c59-34bd-4605-9488-29ad2dbb5bd4"},"vehicle_type_id":"4","last_reported":1731867051,"current_range_meters":14800,"station_id":"ce4bha12rcd13ifvqef0","pricing_plan_id":"cebpf4jnsgd1na2vs0mg"},{"bike_id":"c0c4abd4-fe51-4b2b-8daf-e4079a13821c","system_id":"levelo_inurba_marseille","lat":43.31703,"lon":5.37752,"is_reserved":false,"is_disabled":false,"rental_uris":{"android":"levelo://app?vid=c0c4abd4-fe51-4b2b-8daf-e4079a13821c","ios":"levelo://app?vid=c0c4abd4-fe51-4b2b-8daf-e4079a13821c"},"vehicle_type_id":"4","last_reported":1731867051,"current_range_meters":20400,"station_id":"ce4bgth2rcd13ifvqch0","pricing_plan_id":"cebpf4jnsgd1na2vs0mg"},{"bike_id":"2c56b41b-f390-46d6-a714-c5962f74640d","system_id":"levelo_inurba_marseille","lat":43.30921,"lon":5.40153,"is_reserved":false,"is_disabled":false,"rental_uris":{"android":"levelo://app?vid=2c56b41b-f390-46d6-a714-c5962f74640d","ios":"levelo://app?vid=2c56b41b-f390-46d6-a714-c5962f74640d"},"vehicle_type_id":"4","last_reported":1731867051,"current_range_meters":6000,"station_id":"ce4bgvp2rcd13ifvqct0","pricing_plan_id":"cebpf4jnsgd1na2vs0mg"},{"bike_id":"fca2b6a9-c3cc-45cc-9883-0cfea81a1707","system_id":"levelo_inurba_marseille","lat":43.2871,"lon":5.37375,"is_reserved":false,"is_disabled":false,"rental_uris":{"android":"levelo://app?vid=fca2b6a9-c3cc-45cc-9883-0cfea81a1707","ios":"levelo://app?vid=fca2b6a9-c3cc-45cc-9883-0cfea81a1707"},"vehicle_type_id":"4","last_reported":1731867051,"current_range_meters":11200,"station_id":"ce4bh3p2rcd13ifvqdq0","pricing_plan_id":"cebpf4jnsgd1na2vs0mg"},{"bike_id":"8a9f823e-baf2-4d03-b304-e7d0af967984","system_id":"levelo_inurba_marseille","lat":43.27904,"lon":5.38002,"is_reserved":false,"is_disabled":false,"rental_uris":{"android":"levelo://app?vid=8a9f823e-baf2-4d03-b304-e7d0af967984","ios":"levelo://app?vid=8a9f823e-baf2-4d03-b304-e7d0af967984"},"vehicle_type_id":"4","last_reported":1731867051,"current_range_meters":6400,"station_id":"ce4bhf92rcd13ifvqf50","pricing_plan_id":"cebpf4jnsgd1na2vs0mg"},{"bike_id":"a8564ab8-45dd-44af-a2ae-f304d3814047","system_id":"levelo_inurba_marseille","lat":43.32662,"lon":5.40998,"is_reserved":false,"is_disabled":false,"rental_uris":{"android":"levelo://app?vid=a8564ab8-45dd-44af-a2ae-f304d3814047","ios":"levelo://app?vid=a8564ab8-45dd-44af-a2ae-f304d3814047"},"vehicle_type_id":"4","last_reported":1731867051,"current_range_meters":36400,"station_id":"ce4bhpp2rcd13ifvqhgg","pricing_plan_id":"cebpf4jnsgd1na2vs0mg"},{"bike_id":"0b1b1a56-d86d-40f1-af42-c826bd38a215","system_id":"levelo_inurba_marseille","lat":43.31756,"lon":5.39021,"is_reserved":false,"is_disabled":false,"rental_uris":{"android":"levelo://app?vid=0b1b1a56-d86d-40f1-af42-c826bd38a215","ios":"levelo://app?vid=0b1b1a56-d86d-40f1-af42-c826bd38a215"},"vehicle_type_id":"4","last_reported":1731867051,"current_range_meters":3200,"station_id":"ce4bhqp2rcd13ifvqhng","pricing_plan_id":"cebpf4jnsgd1na2vs0mg"},{"bike_id":"59b8a7be-ce69-4f72-9aa4-2e5d5f4ab8ed","system_id":"levelo_inurba_marseille","lat":43.31908,"lon":5.407201,"is_reserved":false,"is_disabled":false,"rental_uris":{"android":"levelo://app?vid=59b8a7be-ce69-4f72-9aa4-2e5d5f4ab8ed","ios":"levelo://app?vid=59b8a7be-ce69-4f72-9aa4-2e5d5f4ab8ed"},"vehicle_type_id":"4","last_reported":1731867051,"current_range_meters":3600,"station_id":"ce4bhq12rcd13ifvqhig","pricing_plan_id":"cebpf4jnsgd1na2vs0mg"},{"bike_id":"224e4a8d-43d3-4d89-8ee7-e5b866b7ab4a","system_id":"levelo_inurba_marseille","lat":43.23189,"lon":5.35548,"is_reserved":false,"is_disabled":false,"rental_uris":{"android":"levelo://app?vid=224e4a8d-43d3-4d89-8ee7-e5b866b7ab4a","ios":"levelo://app?vid=224e4a8d-43d3-4d89-8ee7-e5b866b7ab4a"},"vehicle_type_id":"4","last_reported":1731867051,"current_range_meters":20000,"station_id":"ce4bhu92rcd13ifvqi70","pricing_plan_id":"cebpf4jnsgd1na2vs0mg"},{"bike_id":"0f968e0e-2f39-4e38-a5c7-18694e2a965b","system_id":"levelo_inurba_marseille","lat":43.30142,"lon":5.38782,"is_reserved":false,"is_disabled":false,"rental_uris":{"android":"levelo://app?vid=0f968e0e-2f39-4e38-a5c7-18694e2a965b","ios":"levelo://app?vid=0f968e0e-2f39-4e38-a5c7-18694e2a965b"},"vehicle_type_id":"4","last_reported":1731867051,"current_range_meters":35200,"station_id":"ce4bghh2rcd13ifvqb60","pricing_plan_id":"cebpf4jnsgd1na2vs0mg"},{"bike_id":"01e4cd7c-247a-4ee1-be5e-36e3fb09bbc5","system_id":"levelo_inurba_marseille","lat":43.29258,"lon":5.38438,"is_reserved":false,"is_disabled":false,"rental_uris":{"android":"levelo://app?vid=01e4cd7c-247a-4ee1-be5e-36e3fb09bbc5","ios":"levelo://app?vid=01e4cd7c-247a-4ee1-be5e-36e3fb09bbc5"},"vehicle_type_id":"4","last_reported":1731867051,"current_range_meters":38000,"station_id":"ce4bh692rcd13ifvqea0","pricing_plan_id":"cebpf4jnsgd1na2vs0mg"},{"bike_id":"91670ae9-5671-4211-87a2-69bac32a1372","system_id":"levelo_inurba_marseille","lat":43.2952,"lon":5.39403,"is_reserved":false,"is_disabled":false,"rental_uris":{"android":"levelo://app?vid=91670ae9-5671-4211-87a2-69bac32a1372","ios":"levelo://app?vid=91670ae9-5671-4211-87a2-69bac32a1372"},"vehicle_type_id":"4","last_reported":1731867051,"current_range_meters":13600,"station_id":"ce4bh292rcd13ifvqdf0","pricing_plan_id":"cebpf4jnsgd1na2vs0mg"},{"bike_id":"b8aea904-a2ea-462f-9f6f-c401cd2cd907","system_id":"levelo_inurba_marseille","lat":43.28366,"lon":5.38637,"is_reserved":false,"is_disabled":false,"rental_uris":{"android":"levelo://app?vid=b8aea904-a2ea-462f-9f6f-c401cd2cd907","ios":"levelo://app?vid=b8aea904-a2ea-462f-9f6f-c401cd2cd907"},"vehicle_type_id":"4","last_reported":1731867051,"current_range_meters":37600,"station_id":"ce4bh492rcd13ifvqdvg","pricing_plan_id":"cebpf4jnsgd1na2vs0mg"},{"bike_id":"8f0c5d9b-8cee-4554-9af0-87f4cda39797","system_id":"levelo_inurba_marseille","lat":43.29255,"lon":5.40905,"is_reserved":false,"is_disabled":false,"rental_uris":{"android":"levelo://app?vid=8f0c5d9b-8cee-4554-9af0-87f4cda39797","ios":"levelo://app?vid=8f0c5d9b-8cee-4554-9af0-87f4cda39797"},"vehicle_type_id":"4","last_reported":1731867051,"current_range_meters":37600,"station_id":"ce4bh192rcd13ifvqdc0","pricing_plan_id":"cebpf4jnsgd1na2vs0mg"},{"bike_id":"01272bd5-a2c0-44b6-b76e-87cd305d9451","system_id":"levelo_inurba_marseille","lat":43.33023,"lon":5.39047,"is_reserved":false,"is_disabled":false,"rental_uris":{"android":"levelo://app?vid=01272bd5-a2c0-44b6-b76e-87cd305d9451","ios":"levelo://app?vid=01272bd5-a2c0-44b6-b76e-87cd305d9451"},"vehicle_type_id":"4","last_reported":1731867051,"current_range_meters":14400,"station_id":"ce4bhr92rcd13ifvqhrg","pricing_plan_id":"cebpf4jnsgd1na2vs0mg"},{"bike_id":"e1f6415b-e101-43e7-9b1b-480b213c11b4","system_id":"levelo_inurba_marseille","lat":43.29511,"lon":5.39396,"is_reserved":false,"is_disabled":false,"rental_uris":{"android":"levelo://app?vid=e1f6415b-e101-43e7-9b1b-480b213c11b4","ios":"levelo://app?vid=e1f6415b-e101-43e7-9b1b-480b213c11b4"},"vehicle_type_id":"4","last_reported":1731867051,"current_range_meters":13600,"station_id":"ce4bh292rcd13ifvqdf0","pricing_plan_id":"cebpf4jnsgd1na2vs0mg"},{"bike_id":"13bd0b23-bbb5-4e00-ba84-ac5f8917daf1","system_id":"levelo_inurba_marseille","lat":43.28614,"lon":5.35101,"is_reserved":false,"is_disabled":false,"rental_uris":{"android":"levelo://app?vid=13bd0b23-bbb5-4e00-ba84-ac5f8917daf1","ios":"levelo://app?vid=13bd0b23-bbb5-4e00-ba84-ac5f8917daf1"},"vehicle_type_id":"4","last_reported":1731867051,"current_range_meters":9200,"station_id":"ce4bhch2rcd13ifvqeug","pricing_plan_id":"cebpf4jnsgd1na2vs0mg"},{"bike_id":"3776a2d9-aeba-4fac-9f8b-8ccf01253141","system_id":"levelo_inurba_marseille","lat":43.28725,"lon":5.37917,"is_reserved":false,"is_disabled":false,"rental_uris":{"android":"levelo://app?vid=3776a2d9-aeba-4fac-9f8b-8ccf01253141","ios":"levelo://app?vid=3776a2d9-aeba-4fac-9f8b-8ccf01253141"},"vehicle_type_id":"4","last_reported":1731867051,"current_range_meters":38800,"station_id":"ce4bh9p2rcd13ifvqec0","pricing_plan_id":"cebpf4jnsgd1na2vs0mg"},{"bike_id":"8300deb3-1fed-4359-9d2f-62192a22298f","system_id":"levelo_inurba_marseille","lat":43.30205,"lon":5.38838,"is_reserved":false,"is_disabled":false,"rental_uris":{"android":"levelo://app?vid=8300deb3-1fed-4359-9d2f-62192a22298f","ios":"levelo://app?vid=8300deb3-1fed-4359-9d2f-62192a22298f"},"vehicle_type_id":"4","last_reported":1731867051,"current_range_meters":30800,"station_id":"ce4bht12rcd13ifvqi60","pricing_plan_id":"cebpf4jnsgd1na2vs0mg"},{"bike_id":"d753c74d-4fd7-4b0f-8e5d-7b63399c76ab","system_id":"levelo_inurba_marseille","lat":43.31753,"lon":5.39015,"is_reserved":false,"is_disabled":false,"rental_uris":{"android":"levelo://app?vid=d753c74d-4fd7-4b0f-8e5d-7b63399c76ab","ios":"levelo://app?vid=d753c74d-4fd7-4b0f-8e5d-7b63399c76ab"},"vehicle_type_id":"4","last_reported":1731867051,"current_range_meters":38800,"station_id":"ce4bhqp2rcd13ifvqhng","pricing_plan_id":"cebpf4jnsgd1na2vs0mg"},{"bike_id":"a3c65108-21b2-4fe9-886c-b0828decd99b","system_id":"levelo_inurba_marseille","lat":43.29533,"lon":5.38545,"is_reserved":false,"is_disabled":false,"rental_uris":{"android":"levelo://app?vid=a3c65108-21b2-4fe9-886c-b0828decd99b","ios":"levelo://app?vid=a3c65108-21b2-4fe9-886c-b0828decd99b"},"vehicle_type_id":"4","last_reported":1731867051,"current_range_meters":26800,"station_id":"ce4bgih2rcd13ifvqba0","pricing_plan_id":"cebpf4jnsgd1na2vs0mg"},{"bike_id":"a241b926-3325-4880-b8b4-4dfc5d9ed1d3","system_id":"levelo_inurba_marseille","lat":43.2707,"lon":5.42277,"is_reserved":false,"is_disabled":false,"rental_uris":{"android":"levelo://app?vid=a241b926-3325-4880-b8b4-4dfc5d9ed1d3","ios":"levelo://app?vid=a241b926-3325-4880-b8b4-4dfc5d9ed1d3"},"vehicle_type_id":"4","last_reported":1731867051,"current_range_meters":36000,"station_id":"ce4bhk92rcd13ifvqgb0","pricing_plan_id":"cebpf4jnsgd1na2vs0mg"},{"bike_id":"5938f129-0be9-4612-acac-86791f6673ad","system_id":"levelo_inurba_marseille","lat":43.28204,"lon":5.44387,"is_reserved":false,"is_disabled":false,"rental_uris":{"android":"levelo://app?vid=5938f129-0be9-4612-acac-86791f6673ad","ios":"levelo://app?vid=5938f129-0be9-4612-acac-86791f6673ad"},"vehicle_type_id":"4","last_reported":1731867051,"current_range_meters":11600,"station_id":"","pricing_plan_id":"cebpf4jnsgd1na2vs0mg"},{"bike_id":"2bffc51a-2ce9-4d56-a25b-0c21d491ac93","system_id":"levelo_inurba_marseille","lat":43.27622,"lon":5.36108,"is_reserved":false,"is_disabled":false,"rental_uris":{"android":"levelo://app?vid=2bffc51a-2ce9-4d56-a25b-0c21d491ac93","ios":"levelo://app?vid=2bffc51a-2ce9-4d56-a25b-0c21d491ac93"},"vehicle_type_id":"4","last_reported":1731867051,"current_range_meters":19200,"station_id":"ce4bgj92rcd13ifvqbe0","pricing_plan_id":"cebpf4jnsgd1na2vs0mg"},{"bike_id":"e9c95dd5-afb3-4df6-8ea4-96bbc6bd78de","system_id":"levelo_inurba_marseille","lat":43.33024,"lon":5.39041,"is_reserved":false,"is_disabled":false,"rental_uris":{"android":"levelo://app?vid=e9c95dd5-afb3-4df6-8ea4-96bbc6bd78de","ios":"levelo://app?vid=e9c95dd5-afb3-4df6-8ea4-96bbc6bd78de"},"vehicle_type_id":"4","last_reported":1731867051,"current_range_meters":37600,"station_id":"ce4bhr92rcd13ifvqhrg","pricing_plan_id":"cebpf4jnsgd1na2vs0mg"},{"bike_id":"13d05ff2-a9f4-496f-9a5a-0366db337b38","system_id":"levelo_inurba_marseille","lat":43.2694,"lon":5.40255,"is_reserved":false,"is_disabled":false,"rental_uris":{"android":"levelo://app?vid=13d05ff2-a9f4-496f-9a5a-0366db337b38","ios":"levelo://app?vid=13d05ff2-a9f4-496f-9a5a-0366db337b38"},"vehicle_type_id":"4","last_reported":1731867051,"current_range_meters":38400,"station_id":"cjm6bp8fraef2m0cb0m0","pricing_plan_id":"cebpf4jnsgd1na2vs0mg"},{"bike_id":"7522abd6-2a66-4e48-86ec-bc1b9398e2e0","system_id":"levelo_inurba_marseille","lat":43.30185,"lon":5.36622,"is_reserved":false,"is_disabled":false,"rental_uris":{"android":"levelo://app?vid=7522abd6-2a66-4e48-86ec-bc1b9398e2e0","ios":"levelo://app?vid=7522abd6-2a66-4e48-86ec-bc1b9398e2e0"},"vehicle_type_id":"4","last_reported":1731867051,"current_range_meters":38000,"station_id":"ce4bgrh2rcd13ifvqc8g","pricing_plan_id":"cebpf4jnsgd1na2vs0mg"},{"bike_id":"231126c7-6ad4-4270-bba3-c28d8cb4e046","system_id":"levelo_inurba_marseille","lat":43.29019,"lon":5.38131,"is_reserved":false,"is_disabled":false,"rental_uris":{"android":"levelo://app?vid=231126c7-6ad4-4270-bba3-c28d8cb4e046","ios":"levelo://app?vid=231126c7-6ad4-4270-bba3-c28d8cb4e046"},"vehicle_type_id":"4","last_reported":1731867051,"current_range_meters":16400,"station_id":"ce4bh4p2rcd13ifvqe1g","pricing_plan_id":"cebpf4jnsgd1na2vs0mg"},{"bike_id":"aadd00f4-e63f-4aad-bfaa-fd5acd33a1b2","system_id":"levelo_inurba_marseille","lat":43.27682,"lon":5.38882,"is_reserved":false,"is_disabled":false,"rental_uris":{"android":"levelo://app?vid=aadd00f4-e63f-4aad-bfaa-fd5acd33a1b2","ios":"levelo://app?vid=aadd00f4-e63f-4aad-bfaa-fd5acd33a1b2"},"vehicle_type_id":"4","last_reported":1731867051,"current_range_meters":6400,"station_id":"ce4bhi12rcd13ifvqfo0","pricing_plan_id":"cebpf4jnsgd1na2vs0mg"},{"bike_id":"12867844-fa2a-41b2-8d74-706d4ef15909","system_id":"levelo_inurba_marseille","lat":43.33785,"lon":5.37419,"is_reserved":false,"is_disabled":false,"rental_uris":{"android":"levelo://app?vid=12867844-fa2a-41b2-8d74-706d4ef15909","ios":"levelo://app?vid=12867844-fa2a-41b2-8d74-706d4ef15909"},"vehicle_type_id":"4","last_reported":1731867051,"current_range_meters":32400,"station_id":"","pricing_plan_id":"cebpf4jnsgd1na2vs0mg"},{"bike_id":"07312d10-4993-4a3c-ad40-06cfda97fff1","system_id":"levelo_inurba_marseille","lat":43.33023,"lon":5.39044,"is_reserved":false,"is_disabled":false,"rental_uris":{"android":"levelo://app?vid=07312d10-4993-4a3c-ad40-06cfda97fff1","ios":"levelo://app?vid=07312d10-4993-4a3c-ad40-06cfda97fff1"},"vehicle_type_id":"4","last_reported":1731867051,"current_range_meters":37600,"station_id":"ce4bhr92rcd13ifvqhrg","pricing_plan_id":"cebpf4jnsgd1na2vs0mg"},{"bike_id":"a336ee14-58f3-4199-a15a-797b15af1e0f","system_id":"levelo_inurba_marseille","lat":43.3042,"lon":5.41271,"is_reserved":false,"is_disabled":false,"rental_uris":{"android":"levelo://app?vid=a336ee14-58f3-4199-a15a-797b15af1e0f","ios":"levelo://app?vid=a336ee14-58f3-4199-a15a-797b15af1e0f"},"vehicle_type_id":"4","last_reported":1731867051,"current_range_meters":3600,"station_id":"ce4bhop2rcd13ifvqh8g","pricing_plan_id":"cebpf4jnsgd1na2vs0mg"},{"bike_id":"23f7e7bd-3c70-44bb-943b-2505231e7297","system_id":"levelo_inurba_marseille","lat":43.28457,"lon":5.35894,"is_reserved":false,"is_disabled":false,"rental_uris":{"android":"levelo://app?vid=23f7e7bd-3c70-44bb-943b-2505231e7297","ios":"levelo://app?vid=23f7e7bd-3c70-44bb-943b-2505231e7297"},"vehicle_type_id":"4","last_reported":1731867051,"current_range_meters":37600,"station_id":"ce4bhah2rcd13ifvqei0","pricing_plan_id":"cebpf4jnsgd1na2vs0mg"},{"bike_id":"0ee2206c-b1ff-4564-a6fa-a0bf61a35e36","system_id":"levelo_inurba_marseille","lat":43.29818,"lon":5.38079,"is_reserved":false,"is_disabled":false,"rental_uris":{"android":"levelo://app?vid=0ee2206c-b1ff-4564-a6fa-a0bf61a35e36","ios":"levelo://app?vid=0ee2206c-b1ff-4564-a6fa-a0bf61a35e36"},"vehicle_type_id":"4","last_reported":1731867051,"current_range_meters":11600,"station_id":"ce4bgip2rcd13ifvqbb0","pricing_plan_id":"cebpf4jnsgd1na2vs0mg"},{"bike_id":"9d531d00-446a-411e-a08f-66a3c8f2987a","system_id":"levelo_inurba_marseille","lat":43.29259,"lon":5.38434,"is_reserved":false,"is_disabled":false,"rental_uris":{"android":"levelo://app?vid=9d531d00-446a-411e-a08f-66a3c8f2987a","ios":"levelo://app?vid=9d531d00-446a-411e-a08f-66a3c8f2987a"},"vehicle_type_id":"4","last_reported":1731867051,"current_range_meters":37600,"station_id":"ce4bh692rcd13ifvqea0","pricing_plan_id":"cebpf4jnsgd1na2vs0mg"},{"bike_id":"10808265-c82e-4663-ad34-00454e769817","system_id":"levelo_inurba_marseille","lat":43.23185,"lon":5.39989,"is_reserved":false,"is_disabled":false,"rental_uris":{"android":"levelo://app?vid=10808265-c82e-4663-ad34-00454e769817","ios":"levelo://app?vid=10808265-c82e-4663-ad34-00454e769817"},"vehicle_type_id":"4","last_reported":1731867051,"current_range_meters":30000,"station_id":"ce4bhn12rcd13ifvqgqg","pricing_plan_id":"cebpf4jnsgd1na2vs0mg"},{"bike_id":"f86d1405-ab23-4ac0-85a6-f6aed059b230","system_id":"levelo_inurba_marseille","lat":43.306366,"lon":5.40082,"is_reserved":false,"is_disabled":false,"rental_uris":{"android":"levelo://app?vid=f86d1405-ab23-4ac0-85a6-f6aed059b230","ios":"levelo://app?vid=f86d1405-ab23-4ac0-85a6-f6aed059b230"},"vehicle_type_id":"4","last_reported":1731867051,"current_range_meters":20000,"station_id":"ce4bh112rcd13ifvqda0","pricing_plan_id":"cebpf4jnsgd1na2vs0mg"},{"bike_id":"010b4f71-4567-4dbc-a32b-49a82582c4a6","system_id":"levelo_inurba_marseille","lat":43.28482,"lon":5.3854,"is_reserved":false,"is_disabled":false,"rental_uris":{"android":"levelo://app?vid=010b4f71-4567-4dbc-a32b-49a82582c4a6","ios":"levelo://app?vid=010b4f71-4567-4dbc-a32b-49a82582c4a6"},"vehicle_type_id":"4","last_reported":1731867051,"current_range_meters":37600,"station_id":"ce4bh8p2rcd13ifvqeb0","pricing_plan_id":"cebpf4jnsgd1na2vs0mg"},{"bike_id":"6ee4fd43-0bc0-4471-a3e7-100162297752","system_id":"levelo_inurba_marseille","lat":43.32367,"lon":5.3888,"is_reserved":false,"is_disabled":false,"rental_uris":{"android":"levelo://app?vid=6ee4fd43-0bc0-4471-a3e7-100162297752","ios":"levelo://app?vid=6ee4fd43-0bc0-4471-a3e7-100162297752"},"vehicle_type_id":"4","last_reported":1731867051,"current_range_meters":8400,"station_id":"ce4bhqp2rcd13ifvqhog","pricing_plan_id":"cebpf4jnsgd1na2vs0mg"},{"bike_id":"8f019a78-c493-4f9d-a72d-a75fc0e36210","system_id":"levelo_inurba_marseille","lat":43.2407,"lon":5.37764,"is_reserved":false,"is_disabled":false,"rental_uris":{"android":"levelo://app?vid=8f019a78-c493-4f9d-a72d-a75fc0e36210","ios":"levelo://app?vid=8f019a78-c493-4f9d-a72d-a75fc0e36210"},"vehicle_type_id":"4","last_reported":1731867051,"current_range_meters":30000,"station_id":"ce4bhnp2rcd13ifvqgvg","pricing_plan_id":"cebpf4jnsgd1na2vs0mg"},{"bike_id":"17aeab35-7f3e-43aa-9222-cdd68555ec04","system_id":"levelo_inurba_marseille","lat":43.28919,"lon":5.38386,"is_reserved":false,"is_disabled":false,"rental_uris":{"android":"levelo://app?vid=17aeab35-7f3e-43aa-9222-cdd68555ec04","ios":"levelo://app?vid=17aeab35-7f3e-43aa-9222-cdd68555ec04"},"vehicle_type_id":"4","last_reported":1731867051,"current_range_meters":38800,"station_id":"ce4bh612rcd13ifvqe6g","pricing_plan_id":"cebpf4jnsgd1na2vs0mg"},{"bike_id":"e41c3d35-299e-4edf-9f5a-5abefe3f7692","system_id":"levelo_inurba_marseille","lat":43.30895,"lon":5.37195,"is_reserved":false,"is_disabled":false,"rental_uris":{"android":"levelo://app?vid=e41c3d35-299e-4edf-9f5a-5abefe3f7692","ios":"levelo://app?vid=e41c3d35-299e-4edf-9f5a-5abefe3f7692"},"vehicle_type_id":"4","last_reported":1731867051,"current_range_meters":22800,"station_id":"ce4bguh2rcd13ifvqckg","pricing_plan_id":"cebpf4jnsgd1na2vs0mg"},{"bike_id":"1b6d5f86-0c35-4c74-ac79-b91438dbaaff","system_id":"levelo_inurba_marseille","lat":43.32063,"lon":5.41553,"is_reserved":false,"is_disabled":false,"rental_uris":{"android":"levelo://app?vid=1b6d5f86-0c35-4c74-ac79-b91438dbaaff","ios":"levelo://app?vid=1b6d5f86-0c35-4c74-ac79-b91438dbaaff"},"vehicle_type_id":"4","last_reported":1731867051,"current_range_meters":33600,"station_id":"ce4bhq92rcd13ifvqhkg","pricing_plan_id":"cebpf4jnsgd1na2vs0mg"},{"bike_id":"a3a50842-12fb-436f-a1a6-082e2b162372","system_id":"levelo_inurba_marseille","lat":43.29196,"lon":5.39307,"is_reserved":false,"is_disabled":false,"rental_uris":{"android":"levelo://app?vid=a3a50842-12fb-436f-a1a6-082e2b162372","ios":"levelo://app?vid=a3a50842-12fb-436f-a1a6-082e2b162372"},"vehicle_type_id":"4","last_reported":1731867051,"current_range_meters":16400,"station_id":"ce4bh192rcd13ifvqdd0","pricing_plan_id":"cebpf4jnsgd1na2vs0mg"},{"bike_id":"304847a3-3e07-4fb8-955c-861fbc7ac28f","system_id":"levelo_inurba_marseille","lat":43.25732,"lon":5.41107,"is_reserved":false,"is_disabled":false,"rental_uris":{"android":"levelo://app?vid=304847a3-3e07-4fb8-955c-861fbc7ac28f","ios":"levelo://app?vid=304847a3-3e07-4fb8-955c-861fbc7ac28f"},"vehicle_type_id":"4","last_reported":1731867051,"current_range_meters":25200,"station_id":"ce4bhkp2rcd13ifvqgd0","pricing_plan_id":"cebpf4jnsgd1na2vs0mg"},{"bike_id":"876dc445-0238-4ad8-a1e3-01e9069f7878","system_id":"levelo_inurba_marseille","lat":43.287231,"lon":5.37941,"is_reserved":false,"is_disabled":false,"rental_uris":{"android":"levelo://app?vid=876dc445-0238-4ad8-a1e3-01e9069f7878","ios":"levelo://app?vid=876dc445-0238-4ad8-a1e3-01e9069f7878"},"vehicle_type_id":"4","last_reported":1731867051,"current_range_meters":28000,"station_id":"ce4bh9p2rcd13ifvqec0","pricing_plan_id":"cebpf4jnsgd1na2vs0mg"},{"bike_id":"4eaa6784-c021-43ed-9c59-d0a01db3a0b6","system_id":"levelo_inurba_marseille","lat":43.30144,"lon":5.39847,"is_reserved":false,"is_disabled":false,"rental_uris":{"android":"levelo://app?vid=4eaa6784-c021-43ed-9c59-d0a01db3a0b6","ios":"levelo://app?vid=4eaa6784-c021-43ed-9c59-d0a01db3a0b6"},"vehicle_type_id":"4","last_reported":1731867051,"current_range_meters":26800,"station_id":"ce4bh0h2rcd13ifvqd40","pricing_plan_id":"cebpf4jnsgd1na2vs0mg"},{"bike_id":"81c1ebcf-c762-4729-a628-1641b1ba371a","system_id":"levelo_inurba_marseille","lat":43.29253,"lon":5.38443,"is_reserved":false,"is_disabled":false,"rental_uris":{"android":"levelo://app?vid=81c1ebcf-c762-4729-a628-1641b1ba371a","ios":"levelo://app?vid=81c1ebcf-c762-4729-a628-1641b1ba371a"},"vehicle_type_id":"4","last_reported":1731867051,"current_range_meters":8000,"station_id":"ce4bh692rcd13ifvqea0","pricing_plan_id":"cebpf4jnsgd1na2vs0mg"},{"bike_id":"a3471b01-d347-453f-9107-802a928d4193","system_id":"levelo_inurba_marseille","lat":43.28456,"lon":5.35892,"is_reserved":false,"is_disabled":false,"rental_uris":{"android":"levelo://app?vid=a3471b01-d347-453f-9107-802a928d4193","ios":"levelo://app?vid=a3471b01-d347-453f-9107-802a928d4193"},"vehicle_type_id":"4","last_reported":1731867051,"current_range_meters":32000,"station_id":"ce4bhah2rcd13ifvqei0","pricing_plan_id":"cebpf4jnsgd1na2vs0mg"},{"bike_id":"01876147-7568-4f8c-a811-1297a2f11c52","system_id":"levelo_inurba_marseille","lat":43.28455,"lon":5.39183,"is_reserved":false,"is_disabled":false,"rental_uris":{"android":"levelo://app?vid=01876147-7568-4f8c-a811-1297a2f11c52","ios":"levelo://app?vid=01876147-7568-4f8c-a811-1297a2f11c52"},"vehicle_type_id":"4","last_reported":1731867051,"current_range_meters":18000,"station_id":"ce4bhoh2rcd13ifvqh5g","pricing_plan_id":"cebpf4jnsgd1na2vs0mg"},{"bike_id":"93148b24-450e-4695-a8a0-08ac0e86e494","system_id":"levelo_inurba_marseille","lat":43.29751,"lon":5.37299,"is_reserved":false,"is_disabled":false,"rental_uris":{"android":"levelo://app?vid=93148b24-450e-4695-a8a0-08ac0e86e494","ios":"levelo://app?vid=93148b24-450e-4695-a8a0-08ac0e86e494"},"vehicle_type_id":"4","last_reported":1731867051,"current_range_meters":28000,"station_id":"ce4bgn12rcd13ifvqbt0","pricing_plan_id":"cebpf4jnsgd1na2vs0mg"},{"bike_id":"68d0a435-1699-4fe4-b098-320644a7af57","system_id":"levelo_inurba_marseille","lat":43.28929,"lon":5.38396,"is_reserved":false,"is_disabled":false,"rental_uris":{"android":"levelo://app?vid=68d0a435-1699-4fe4-b098-320644a7af57","ios":"levelo://app?vid=68d0a435-1699-4fe4-b098-320644a7af57"},"vehicle_type_id":"4","last_reported":1731867051,"current_range_meters":38400,"station_id":"ce4bh612rcd13ifvqe6g","pricing_plan_id":"cebpf4jnsgd1na2vs0mg"},{"bike_id":"ce2a5e11-9043-4927-86a9-9aaaa977cb48","system_id":"levelo_inurba_marseille","lat":43.30096,"lon":5.39082,"is_reserved":false,"is_disabled":false,"rental_uris":{"android":"levelo://app?vid=ce2a5e11-9043-4927-86a9-9aaaa977cb48","ios":"levelo://app?vid=ce2a5e11-9043-4927-86a9-9aaaa977cb48"},"vehicle_type_id":"4","last_reported":1731867051,"current_range_meters":35200,"station_id":"ce4bh192rcd13ifvqdb0","pricing_plan_id":"cebpf4jnsgd1na2vs0mg"},{"bike_id":"d977d09c-f51f-4b79-b553-6d9f2ab0f846","system_id":"levelo_inurba_marseille","lat":43.29253,"lon":5.40902,"is_reserved":false,"is_disabled":false,"rental_uris":{"android":"levelo://app?vid=d977d09c-f51f-4b79-b553-6d9f2ab0f846","ios":"levelo://app?vid=d977d09c-f51f-4b79-b553-6d9f2ab0f846"},"vehicle_type_id":"4","last_reported":1731867051,"current_range_meters":24000,"station_id":"ce4bh192rcd13ifvqdc0","pricing_plan_id":"cebpf4jnsgd1na2vs0mg"},{"bike_id":"88fbcddc-fc1e-4412-b0ae-ec12ac073173","system_id":"levelo_inurba_marseille","lat":43.28078,"lon":5.39663,"is_reserved":false,"is_disabled":false,"rental_uris":{"android":"levelo://app?vid=88fbcddc-fc1e-4412-b0ae-ec12ac073173","ios":"levelo://app?vid=88fbcddc-fc1e-4412-b0ae-ec12ac073173"},"vehicle_type_id":"4","last_reported":1731867051,"current_range_meters":36400,"station_id":"ce4bho12rcd13ifvqh2g","pricing_plan_id":"cebpf4jnsgd1na2vs0mg"},{"bike_id":"fc533337-8ddf-4371-9fc6-d6945f259c49","system_id":"levelo_inurba_marseille","lat":43.29247,"lon":5.38442,"is_reserved":false,"is_disabled":false,"rental_uris":{"android":"levelo://app?vid=fc533337-8ddf-4371-9fc6-d6945f259c49","ios":"levelo://app?vid=fc533337-8ddf-4371-9fc6-d6945f259c49"},"vehicle_type_id":"4","last_reported":1731867051,"current_range_meters":6800,"station_id":"ce4bh692rcd13ifvqea0","pricing_plan_id":"cebpf4jnsgd1na2vs0mg"},{"bike_id":"a7458936-85c7-48d8-985b-4a66ced20a05","system_id":"levelo_inurba_marseille","lat":43.2796,"lon":5.38704,"is_reserved":false,"is_disabled":false,"rental_uris":{"android":"levelo://app?vid=a7458936-85c7-48d8-985b-4a66ced20a05","ios":"levelo://app?vid=a7458936-85c7-48d8-985b-4a66ced20a05"},"vehicle_type_id":"4","last_reported":1731867051,"current_range_meters":28400,"station_id":"ce4bhg12rcd13ifvqf80","pricing_plan_id":"cebpf4jnsgd1na2vs0mg"},{"bike_id":"3b250a72-6225-473f-8a3b-79755765e009","system_id":"levelo_inurba_marseille","lat":43.293245,"lon":5.374435,"is_reserved":false,"is_disabled":false,"rental_uris":{"android":"levelo://app?vid=3b250a72-6225-473f-8a3b-79755765e009","ios":"levelo://app?vid=3b250a72-6225-473f-8a3b-79755765e009"},"vehicle_type_id":"4","last_reported":1731867051,"current_range_meters":36800,"station_id":"ce4bgi12rcd13ifvqb70","pricing_plan_id":"cebpf4jnsgd1na2vs0mg"},{"bike_id":"f6631815-44e7-477c-86df-e9d38805eb8f","system_id":"levelo_inurba_marseille","lat":43.29253,"lon":5.38439,"is_reserved":false,"is_disabled":false,"rental_uris":{"android":"levelo://app?vid=f6631815-44e7-477c-86df-e9d38805eb8f","ios":"levelo://app?vid=f6631815-44e7-477c-86df-e9d38805eb8f"},"vehicle_type_id":"4","last_reported":1731867051,"current_range_meters":24000,"station_id":"ce4bh692rcd13ifvqea0","pricing_plan_id":"cebpf4jnsgd1na2vs0mg"},{"bike_id":"c2273092-4ad4-4483-8525-e6150ece5338","system_id":"levelo_inurba_marseille","lat":43.29897,"lon":5.43667,"is_reserved":false,"is_disabled":false,"rental_uris":{"android":"levelo://app?vid=c2273092-4ad4-4483-8525-e6150ece5338","ios":"levelo://app?vid=c2273092-4ad4-4483-8525-e6150ece5338"},"vehicle_type_id":"4","last_reported":1731867051,"current_range_meters":38800,"station_id":"ce4bhpp2rcd13ifvqhfg","pricing_plan_id":"cebpf4jnsgd1na2vs0mg"},{"bike_id":"c789f843-6a8e-473f-8e7e-4886ff8f1b02","system_id":"levelo_inurba_marseille","lat":43.23176,"lon":5.39987,"is_reserved":false,"is_disabled":false,"rental_uris":{"android":"levelo://app?vid=c789f843-6a8e-473f-8e7e-4886ff8f1b02","ios":"levelo://app?vid=c789f843-6a8e-473f-8e7e-4886ff8f1b02"},"vehicle_type_id":"4","last_reported":1731867051,"current_range_meters":30000,"station_id":"ce4bhn12rcd13ifvqgqg","pricing_plan_id":"cebpf4jnsgd1na2vs0mg"},{"bike_id":"4f01fa73-c9c0-4fc0-986b-b2a94d270e4a","system_id":"levelo_inurba_marseille","lat":43.302519,"lon":5.400883,"is_reserved":false,"is_disabled":false,"rental_uris":{"android":"levelo://app?vid=4f01fa73-c9c0-4fc0-986b-b2a94d270e4a","ios":"levelo://app?vid=4f01fa73-c9c0-4fc0-986b-b2a94d270e4a"},"vehicle_type_id":"4","last_reported":1731867051,"current_range_meters":9200,"station_id":"ce4bgvh2rcd13ifvqcs0","pricing_plan_id":"cebpf4jnsgd1na2vs0mg"},{"bike_id":"6d757fef-4f26-43f9-ac2c-ffab39bf7dae","system_id":"levelo_inurba_marseille","lat":43.32249,"lon":5.36901,"is_reserved":false,"is_disabled":false,"rental_uris":{"android":"levelo://app?vid=6d757fef-4f26-43f9-ac2c-ffab39bf7dae","ios":"levelo://app?vid=6d757fef-4f26-43f9-ac2c-ffab39bf7dae"},"vehicle_type_id":"4","last_reported":1731867051,"current_range_meters":14400,"station_id":"","pricing_plan_id":"cebpf4jnsgd1na2vs0mg"},{"bike_id":"e7f09b34-d85e-4c10-9f69-c6158f172e7e","system_id":"levelo_inurba_marseille","lat":43.27069,"lon":5.4227,"is_reserved":false,"is_disabled":false,"rental_uris":{"android":"levelo://app?vid=e7f09b34-d85e-4c10-9f69-c6158f172e7e","ios":"levelo://app?vid=e7f09b34-d85e-4c10-9f69-c6158f172e7e"},"vehicle_type_id":"4","last_reported":1731867051,"current_range_meters":30400,"station_id":"ce4bhk92rcd13ifvqgb0","pricing_plan_id":"cebpf4jnsgd1na2vs0mg"},{"bike_id":"02c2b654-c294-4645-b32b-c8ef06e889bd","system_id":"levelo_inurba_marseille","lat":43.29257,"lon":5.38434,"is_reserved":false,"is_disabled":false,"rental_uris":{"android":"levelo://app?vid=02c2b654-c294-4645-b32b-c8ef06e889bd","ios":"levelo://app?vid=02c2b654-c294-4645-b32b-c8ef06e889bd"},"vehicle_type_id":"4","last_reported":1731867051,"current_range_meters":38800,"station_id":"ce4bh692rcd13ifvqea0","pricing_plan_id":"cebpf4jnsgd1na2vs0mg"},{"bike_id":"e4bfc4f4-0eb1-41ac-8915-ffbfc34fd63e","system_id":"levelo_inurba_marseille","lat":43.29251,"lon":5.3845,"is_reserved":false,"is_disabled":false,"rental_uris":{"android":"levelo://app?vid=e4bfc4f4-0eb1-41ac-8915-ffbfc34fd63e","ios":"levelo://app?vid=e4bfc4f4-0eb1-41ac-8915-ffbfc34fd63e"},"vehicle_type_id":"4","last_reported":1731867051,"current_range_meters":38800,"station_id":"ce4bh692rcd13ifvqea0","pricing_plan_id":"cebpf4jnsgd1na2vs0mg"},{"bike_id":"d8f4523f-d510-4d6f-bf22-72a7a934b349","system_id":"levelo_inurba_marseille","lat":43.27995,"lon":5.4001,"is_reserved":false,"is_disabled":false,"rental_uris":{"android":"levelo://app?vid=d8f4523f-d510-4d6f-bf22-72a7a934b349","ios":"levelo://app?vid=d8f4523f-d510-4d6f-bf22-72a7a934b349"},"vehicle_type_id":"4","last_reported":1731867051,"current_range_meters":6400,"station_id":"ce4bho92rcd13ifvqh4g","pricing_plan_id":"cebpf4jnsgd1na2vs0mg"},{"bike_id":"2f6bf947-5951-4aa7-8737-39c4d3c1b757","system_id":"levelo_inurba_marseille","lat":43.2835,"lon":5.381,"is_reserved":false,"is_disabled":false,"rental_uris":{"android":"levelo://app?vid=2f6bf947-5951-4aa7-8737-39c4d3c1b757","ios":"levelo://app?vid=2f6bf947-5951-4aa7-8737-39c4d3c1b757"},"vehicle_type_id":"4","last_reported":1731867051,"current_range_meters":16800,"station_id":"ce4bh412rcd13ifvqdr0","pricing_plan_id":"cebpf4jnsgd1na2vs0mg"},{"bike_id":"d05a3d5a-7496-42e0-abbe-e08aea5d4c53","system_id":"levelo_inurba_marseille","lat":43.29786,"lon":5.38109,"is_reserved":false,"is_disabled":false,"rental_uris":{"android":"levelo://app?vid=d05a3d5a-7496-42e0-abbe-e08aea5d4c53","ios":"levelo://app?vid=d05a3d5a-7496-42e0-abbe-e08aea5d4c53"},"vehicle_type_id":"4","last_reported":1731867051,"current_range_meters":32000,"station_id":"ce4bgip2rcd13ifvqbb0","pricing_plan_id":"cebpf4jnsgd1na2vs0mg"},{"bike_id":"fb5c9f74-a570-4e59-ac1a-0b9aa2e3571c","system_id":"levelo_inurba_marseille","lat":43.29206,"lon":5.39328,"is_reserved":false,"is_disabled":false,"rental_uris":{"android":"levelo://app?vid=fb5c9f74-a570-4e59-ac1a-0b9aa2e3571c","ios":"levelo://app?vid=fb5c9f74-a570-4e59-ac1a-0b9aa2e3571c"},"vehicle_type_id":"4","last_reported":1731867051,"current_range_meters":14400,"station_id":"ce4bh192rcd13ifvqdd0","pricing_plan_id":"cebpf4jnsgd1na2vs0mg"},{"bike_id":"9c507199-d734-41ec-b5d5-bc12e6d862db","system_id":"levelo_inurba_marseille","lat":43.28696,"lon":5.39987,"is_reserved":false,"is_disabled":false,"rental_uris":{"android":"levelo://app?vid=9c507199-d734-41ec-b5d5-bc12e6d862db","ios":"levelo://app?vid=9c507199-d734-41ec-b5d5-bc12e6d862db"},"vehicle_type_id":"4","last_reported":1731867051,"current_range_meters":18800,"station_id":"ce4bho92rcd13ifvqh3g","pricing_plan_id":"cebpf4jnsgd1na2vs0mg"},{"bike_id":"51d9c19a-d0b3-4f5d-893b-88edd6195beb","system_id":"levelo_inurba_marseille","lat":43.3015,"lon":5.37415,"is_reserved":false,"is_disabled":false,"rental_uris":{"android":"levelo://app?vid=51d9c19a-d0b3-4f5d-893b-88edd6195beb","ios":"levelo://app?vid=51d9c19a-d0b3-4f5d-893b-88edd6195beb"},"vehicle_type_id":"4","last_reported":1731867051,"current_range_meters":22800,"station_id":"ce4bgs92rcd13ifvqcc0","pricing_plan_id":"cebpf4jnsgd1na2vs0mg"},{"bike_id":"93b28b0d-4448-49b0-a659-1076ec8f95aa","system_id":"levelo_inurba_marseille","lat":43.31064,"lon":5.38354,"is_reserved":false,"is_disabled":false,"rental_uris":{"android":"levelo://app?vid=93b28b0d-4448-49b0-a659-1076ec8f95aa","ios":"levelo://app?vid=93b28b0d-4448-49b0-a659-1076ec8f95aa"},"vehicle_type_id":"4","last_reported":1731867051,"current_range_meters":10000,"station_id":"ce4bgv92rcd13ifvqcr0","pricing_plan_id":"cebpf4jnsgd1na2vs0mg"},{"bike_id":"6a564278-fee4-4e46-bcdf-ecda0a44b671","system_id":"levelo_inurba_marseille","lat":43.31481,"lon":5.37306,"is_reserved":false,"is_disabled":false,"rental_uris":{"android":"levelo://app?vid=6a564278-fee4-4e46-bcdf-ecda0a44b671","ios":"levelo://app?vid=6a564278-fee4-4e46-bcdf-ecda0a44b671"},"vehicle_type_id":"4","last_reported":1731867051,"current_range_meters":38800,"station_id":"ce4bgt12rcd13ifvqcd0","pricing_plan_id":"cebpf4jnsgd1na2vs0mg"},{"bike_id":"0bef3ede-0a9a-47fe-a09b-168f4bb0d4e3","system_id":"levelo_inurba_marseille","lat":43.30619,"lon":5.37237,"is_reserved":false,"is_disabled":false,"rental_uris":{"android":"levelo://app?vid=0bef3ede-0a9a-47fe-a09b-168f4bb0d4e3","ios":"levelo://app?vid=0bef3ede-0a9a-47fe-a09b-168f4bb0d4e3"},"vehicle_type_id":"4","last_reported":1731867051,"current_range_meters":3600,"station_id":"ce4bgqh2rcd13ifvqc4g","pricing_plan_id":"cebpf4jnsgd1na2vs0mg"},{"bike_id":"6f4185ba-0d14-49f4-aa40-36e0cbac687e","system_id":"levelo_inurba_marseille","lat":43.29897,"lon":5.43672,"is_reserved":false,"is_disabled":false,"rental_uris":{"android":"levelo://app?vid=6f4185ba-0d14-49f4-aa40-36e0cbac687e","ios":"levelo://app?vid=6f4185ba-0d14-49f4-aa40-36e0cbac687e"},"vehicle_type_id":"4","last_reported":1731867051,"current_range_meters":38800,"station_id":"ce4bhpp2rcd13ifvqhfg","pricing_plan_id":"cebpf4jnsgd1na2vs0mg"},{"bike_id":"f7ec0151-57dc-426d-8355-3ccae5a5cb10","system_id":"levelo_inurba_marseille","lat":43.29873,"lon":5.3973,"is_reserved":false,"is_disabled":false,"rental_uris":{"android":"levelo://app?vid=f7ec0151-57dc-426d-8355-3ccae5a5cb10","ios":"levelo://app?vid=f7ec0151-57dc-426d-8355-3ccae5a5cb10"},"vehicle_type_id":"4","last_reported":1731867051,"current_range_meters":27600,"station_id":"ce4bh0h2rcd13ifvqd50","pricing_plan_id":"cebpf4jnsgd1na2vs0mg"},{"bike_id":"db2723c1-b3a0-4583-a2f2-e55f3f5991e9","system_id":"levelo_inurba_marseille","lat":43.29251,"lon":5.38448,"is_reserved":false,"is_disabled":false,"rental_uris":{"android":"levelo://app?vid=db2723c1-b3a0-4583-a2f2-e55f3f5991e9","ios":"levelo://app?vid=db2723c1-b3a0-4583-a2f2-e55f3f5991e9"},"vehicle_type_id":"4","last_reported":1731867051,"current_range_meters":30400,"station_id":"ce4bh692rcd13ifvqea0","pricing_plan_id":"cebpf4jnsgd1na2vs0mg"},{"bike_id":"3820e36c-04d7-493d-bf51-57f4d1fe0308","system_id":"levelo_inurba_marseille","lat":43.2885,"lon":5.39314,"is_reserved":false,"is_disabled":false,"rental_uris":{"android":"levelo://app?vid=3820e36c-04d7-493d-bf51-57f4d1fe0308","ios":"levelo://app?vid=3820e36c-04d7-493d-bf51-57f4d1fe0308"},"vehicle_type_id":"4","last_reported":1731867051,"current_range_meters":26800,"station_id":"ce4bh2p2rcd13ifvqdi0","pricing_plan_id":"cebpf4jnsgd1na2vs0mg"},{"bike_id":"ad982bfa-78ad-414d-a23f-0f0b04b06fc8","system_id":"levelo_inurba_marseille","lat":43.31764,"lon":5.39015,"is_reserved":false,"is_disabled":false,"rental_uris":{"android":"levelo://app?vid=ad982bfa-78ad-414d-a23f-0f0b04b06fc8","ios":"levelo://app?vid=ad982bfa-78ad-414d-a23f-0f0b04b06fc8"},"vehicle_type_id":"4","last_reported":1731867051,"current_range_meters":32000,"station_id":"ce4bhqp2rcd13ifvqhng","pricing_plan_id":"cebpf4jnsgd1na2vs0mg"},{"bike_id":"3188bb0a-f569-4b99-911a-c4f8931a5d08","system_id":"levelo_inurba_marseille","lat":43.28452,"lon":5.35899,"is_reserved":false,"is_disabled":false,"rental_uris":{"android":"levelo://app?vid=3188bb0a-f569-4b99-911a-c4f8931a5d08","ios":"levelo://app?vid=3188bb0a-f569-4b99-911a-c4f8931a5d08"},"vehicle_type_id":"4","last_reported":1731867051,"current_range_meters":22400,"station_id":"ce4bhah2rcd13ifvqei0","pricing_plan_id":"cebpf4jnsgd1na2vs0mg"},{"bike_id":"f976a80f-7c03-4b36-a3c3-6f1fb71e32bd","system_id":"levelo_inurba_marseille","lat":43.29531,"lon":5.38549,"is_reserved":false,"is_disabled":false,"rental_uris":{"android":"levelo://app?vid=f976a80f-7c03-4b36-a3c3-6f1fb71e32bd","ios":"levelo://app?vid=f976a80f-7c03-4b36-a3c3-6f1fb71e32bd"},"vehicle_type_id":"4","last_reported":1731867051,"current_range_meters":36000,"station_id":"ce4bgih2rcd13ifvqba0","pricing_plan_id":"cebpf4jnsgd1na2vs0mg"},{"bike_id":"a58a3603-c22e-405c-a48e-aaf5dcca6061","system_id":"levelo_inurba_marseille","lat":43.29551,"lon":5.4228,"is_reserved":false,"is_disabled":false,"rental_uris":{"android":"levelo://app?vid=a58a3603-c22e-405c-a48e-aaf5dcca6061","ios":"levelo://app?vid=a58a3603-c22e-405c-a48e-aaf5dcca6061"},"vehicle_type_id":"4","last_reported":1731867051,"current_range_meters":23200,"station_id":"ce4bhph2rcd13ifvqhdg","pricing_plan_id":"cebpf4jnsgd1na2vs0mg"},{"bike_id":"aedf0c89-1e5d-42d2-9af3-32999bc8bda5","system_id":"levelo_inurba_marseille","lat":43.29874,"lon":5.39735,"is_reserved":false,"is_disabled":false,"rental_uris":{"android":"levelo://app?vid=aedf0c89-1e5d-42d2-9af3-32999bc8bda5","ios":"levelo://app?vid=aedf0c89-1e5d-42d2-9af3-32999bc8bda5"},"vehicle_type_id":"4","last_reported":1731867051,"current_range_meters":38400,"station_id":"ce4bh0h2rcd13ifvqd50","pricing_plan_id":"cebpf4jnsgd1na2vs0mg"},{"bike_id":"7c98e0a9-8a05-4c51-84e1-8e2ad06176a0","system_id":"levelo_inurba_marseille","lat":43.32543,"lon":5.41425,"is_reserved":false,"is_disabled":false,"rental_uris":{"android":"levelo://app?vid=7c98e0a9-8a05-4c51-84e1-8e2ad06176a0","ios":"levelo://app?vid=7c98e0a9-8a05-4c51-84e1-8e2ad06176a0"},"vehicle_type_id":"4","last_reported":1731867051,"current_range_meters":4800,"station_id":"ce4bhq12rcd13ifvqhhg","pricing_plan_id":"cebpf4jnsgd1na2vs0mg"},{"bike_id":"27ff54e3-0f06-4e7f-8844-6c42090c335b","system_id":"levelo_inurba_marseille","lat":43.3043,"lon":5.38909,"is_reserved":false,"is_disabled":false,"rental_uris":{"android":"levelo://app?vid=27ff54e3-0f06-4e7f-8844-6c42090c335b","ios":"levelo://app?vid=27ff54e3-0f06-4e7f-8844-6c42090c335b"},"vehicle_type_id":"4","last_reported":1731867051,"current_range_meters":6400,"station_id":"ce4bgk12rcd13ifvqbi0","pricing_plan_id":"cebpf4jnsgd1na2vs0mg"},{"bike_id":"dbf4a046-ec4b-42a2-89d2-1a2f6e4b54e9","system_id":"levelo_inurba_marseille","lat":43.31268,"lon":5.40169,"is_reserved":false,"is_disabled":false,"rental_uris":{"android":"levelo://app?vid=dbf4a046-ec4b-42a2-89d2-1a2f6e4b54e9","ios":"levelo://app?vid=dbf4a046-ec4b-42a2-89d2-1a2f6e4b54e9"},"vehicle_type_id":"4","last_reported":1731867051,"current_range_meters":4800,"station_id":"ce4bh092rcd13ifvqd30","pricing_plan_id":"cebpf4jnsgd1na2vs0mg"},{"bike_id":"29a219a4-3517-41b1-883f-448707e4c9d8","system_id":"levelo_inurba_marseille","lat":43.27073,"lon":5.42276,"is_reserved":false,"is_disabled":false,"rental_uris":{"android":"levelo://app?vid=29a219a4-3517-41b1-883f-448707e4c9d8","ios":"levelo://app?vid=29a219a4-3517-41b1-883f-448707e4c9d8"},"vehicle_type_id":"4","last_reported":1731867051,"current_range_meters":4800,"station_id":"ce4bhk92rcd13ifvqgb0","pricing_plan_id":"cebpf4jnsgd1na2vs0mg"},{"bike_id":"e6f52742-56c1-4cbf-8d44-0f168618813c","system_id":"levelo_inurba_marseille","lat":43.308,"lon":5.38146,"is_reserved":false,"is_disabled":false,"rental_uris":{"android":"levelo://app?vid=e6f52742-56c1-4cbf-8d44-0f168618813c","ios":"levelo://app?vid=e6f52742-56c1-4cbf-8d44-0f168618813c"},"vehicle_type_id":"4","last_reported":1731867051,"current_range_meters":8000,"station_id":"ce4bgt12rcd13ifvqce0","pricing_plan_id":"cebpf4jnsgd1na2vs0mg"},{"bike_id":"eb9a84f5-6092-4dc4-a3c0-a07efb437c77","system_id":"levelo_inurba_marseille","lat":43.337626,"lon":5.374414,"is_reserved":false,"is_disabled":false,"rental_uris":{"android":"levelo://app?vid=eb9a84f5-6092-4dc4-a3c0-a07efb437c77","ios":"levelo://app?vid=eb9a84f5-6092-4dc4-a3c0-a07efb437c77"},"vehicle_type_id":"4","last_reported":1731867051,"current_range_meters":4800,"station_id":"","pricing_plan_id":"cebpf4jnsgd1na2vs0mg"},{"bike_id":"581000ff-f814-4b3b-b362-86f132598b5c","system_id":"levelo_inurba_marseille","lat":43.29987,"lon":5.38493,"is_reserved":false,"is_disabled":false,"rental_uris":{"android":"levelo://app?vid=581000ff-f814-4b3b-b362-86f132598b5c","ios":"levelo://app?vid=581000ff-f814-4b3b-b362-86f132598b5c"},"vehicle_type_id":"4","last_reported":1731867051,"current_range_meters":4400,"station_id":"ce4bgj92rcd13ifvqbd0","pricing_plan_id":"cebpf4jnsgd1na2vs0mg"},{"bike_id":"22ea48db-755d-43c3-a7d2-0beff01815d8","system_id":"levelo_inurba_marseille","lat":43.33763,"lon":5.37422,"is_reserved":false,"is_disabled":false,"rental_uris":{"android":"levelo://app?vid=22ea48db-755d-43c3-a7d2-0beff01815d8","ios":"levelo://app?vid=22ea48db-755d-43c3-a7d2-0beff01815d8"},"vehicle_type_id":"4","last_reported":1731867051,"current_range_meters":8000,"station_id":"","pricing_plan_id":"cebpf4jnsgd1na2vs0mg"},{"bike_id":"cf6d5e3d-46bb-4b20-b73f-1be761f712bd","system_id":"levelo_inurba_marseille","lat":43.27076,"lon":5.42279,"is_reserved":false,"is_disabled":false,"rental_uris":{"android":"levelo://app?vid=cf6d5e3d-46bb-4b20-b73f-1be761f712bd","ios":"levelo://app?vid=cf6d5e3d-46bb-4b20-b73f-1be761f712bd"},"vehicle_type_id":"4","last_reported":1731867051,"current_range_meters":24400,"station_id":"ce4bhk92rcd13ifvqgb0","pricing_plan_id":"cebpf4jnsgd1na2vs0mg"},{"bike_id":"126bb543-616c-4fa5-ad2c-f9823f0875f9","system_id":"levelo_inurba_marseille","lat":43.30788,"lon":5.37645,"is_reserved":false,"is_disabled":false,"rental_uris":{"android":"levelo://app?vid=126bb543-616c-4fa5-ad2c-f9823f0875f9","ios":"levelo://app?vid=126bb543-616c-4fa5-ad2c-f9823f0875f9"},"vehicle_type_id":"4","last_reported":1731867051,"current_range_meters":20400,"station_id":"ce4bgv92rcd13ifvqcq0","pricing_plan_id":"cebpf4jnsgd1na2vs0mg"},{"bike_id":"a1862017-f597-4949-a306-4d7c53cc8b86","system_id":"levelo_inurba_marseille","lat":43.2417,"lon":5.36402,"is_reserved":false,"is_disabled":false,"rental_uris":{"android":"levelo://app?vid=a1862017-f597-4949-a306-4d7c53cc8b86","ios":"levelo://app?vid=a1862017-f597-4949-a306-4d7c53cc8b86"},"vehicle_type_id":"4","last_reported":1731867051,"current_range_meters":7200,"station_id":"cpo36qri1sfpv3e86is0","pricing_plan_id":"cebpf4jnsgd1na2vs0mg"},{"bike_id":"83d930ad-4e7a-4bbf-9583-94b72b729f37","system_id":"levelo_inurba_marseille","lat":43.30079,"lon":5.39076,"is_reserved":false,"is_disabled":false,"rental_uris":{"android":"levelo://app?vid=83d930ad-4e7a-4bbf-9583-94b72b729f37","ios":"levelo://app?vid=83d930ad-4e7a-4bbf-9583-94b72b729f37"},"vehicle_type_id":"4","last_reported":1731867051,"current_range_meters":11600,"station_id":"ce4bh192rcd13ifvqdb0","pricing_plan_id":"cebpf4jnsgd1na2vs0mg"},{"bike_id":"ca655f3b-8380-4045-b3f8-8acaa0e83ede","system_id":"levelo_inurba_marseille","lat":43.33739,"lon":5.37423,"is_reserved":false,"is_disabled":false,"rental_uris":{"android":"levelo://app?vid=ca655f3b-8380-4045-b3f8-8acaa0e83ede","ios":"levelo://app?vid=ca655f3b-8380-4045-b3f8-8acaa0e83ede"},"vehicle_type_id":"4","last_reported":1731867051,"current_range_meters":32000,"station_id":"","pricing_plan_id":"cebpf4jnsgd1na2vs0mg"},{"bike_id":"1b14e106-55ac-4548-8072-7c39604ea847","system_id":"levelo_inurba_marseille","lat":43.29798,"lon":5.38073,"is_reserved":false,"is_disabled":false,"rental_uris":{"android":"levelo://app?vid=1b14e106-55ac-4548-8072-7c39604ea847","ios":"levelo://app?vid=1b14e106-55ac-4548-8072-7c39604ea847"},"vehicle_type_id":"4","last_reported":1731867051,"current_range_meters":39200,"station_id":"ce4bgip2rcd13ifvqbb0","pricing_plan_id":"cebpf4jnsgd1na2vs0mg"},{"bike_id":"a6b8c285-acc9-4039-9531-1aae39136a33","system_id":"levelo_inurba_marseille","lat":43.312042,"lon":5.367348,"is_reserved":false,"is_disabled":false,"rental_uris":{"android":"levelo://app?vid=a6b8c285-acc9-4039-9531-1aae39136a33","ios":"levelo://app?vid=a6b8c285-acc9-4039-9531-1aae39136a33"},"vehicle_type_id":"4","last_reported":1731867051,"current_range_meters":9200,"station_id":"","pricing_plan_id":"cebpf4jnsgd1na2vs0mg"},{"bike_id":"37b940f2-53f1-40b3-bcdc-a092eab2c248","system_id":"levelo_inurba_marseille","lat":43.23953,"lon":5.36631,"is_reserved":false,"is_disabled":false,"rental_uris":{"android":"levelo://app?vid=37b940f2-53f1-40b3-bcdc-a092eab2c248","ios":"levelo://app?vid=37b940f2-53f1-40b3-bcdc-a092eab2c248"},"vehicle_type_id":"4","last_reported":1731867051,"current_range_meters":18800,"station_id":"ce4bhi12rcd13ifvqfp0","pricing_plan_id":"cebpf4jnsgd1na2vs0mg"},{"bike_id":"abc38b9f-3352-42df-b62d-e4f2fd407d2d","system_id":"levelo_inurba_marseille","lat":43.29525,"lon":5.39397,"is_reserved":false,"is_disabled":false,"rental_uris":{"android":"levelo://app?vid=abc38b9f-3352-42df-b62d-e4f2fd407d2d","ios":"levelo://app?vid=abc38b9f-3352-42df-b62d-e4f2fd407d2d"},"vehicle_type_id":"4","last_reported":1731867051,"current_range_meters":32400,"station_id":"ce4bh292rcd13ifvqdf0","pricing_plan_id":"cebpf4jnsgd1na2vs0mg"},{"bike_id":"24a3584e-3a5d-4746-b81e-de9e5853c9e4","system_id":"levelo_inurba_marseille","lat":43.23181,"lon":5.3998,"is_reserved":false,"is_disabled":false,"rental_uris":{"android":"levelo://app?vid=24a3584e-3a5d-4746-b81e-de9e5853c9e4","ios":"levelo://app?vid=24a3584e-3a5d-4746-b81e-de9e5853c9e4"},"vehicle_type_id":"4","last_reported":1731867051,"current_range_meters":3200,"station_id":"ce4bhn12rcd13ifvqgqg","pricing_plan_id":"cebpf4jnsgd1na2vs0mg"},{"bike_id":"8c19b2d4-a3cd-45ab-a3d3-1f5f9c12afc6","system_id":"levelo_inurba_marseille","lat":43.30336,"lon":5.38603,"is_reserved":false,"is_disabled":false,"rental_uris":{"android":"levelo://app?vid=8c19b2d4-a3cd-45ab-a3d3-1f5f9c12afc6","ios":"levelo://app?vid=8c19b2d4-a3cd-45ab-a3d3-1f5f9c12afc6"},"vehicle_type_id":"4","last_reported":1731867051,"current_range_meters":37600,"station_id":"","pricing_plan_id":"cebpf4jnsgd1na2vs0mg"},{"bike_id":"64f43c16-7413-4749-a7c9-e1f47127dc3f","system_id":"levelo_inurba_marseille","lat":43.29032,"lon":5.38635,"is_reserved":false,"is_disabled":false,"rental_uris":{"android":"levelo://app?vid=64f43c16-7413-4749-a7c9-e1f47127dc3f","ios":"levelo://app?vid=64f43c16-7413-4749-a7c9-e1f47127dc3f"},"vehicle_type_id":"4","last_reported":1731867051,"current_range_meters":18000,"station_id":"ce4bh4p2rcd13ifvqe0g","pricing_plan_id":"cebpf4jnsgd1na2vs0mg"},{"bike_id":"3731846e-2218-45f1-ac96-76a41185ff9d","system_id":"levelo_inurba_marseille","lat":43.24167,"lon":5.36396,"is_reserved":false,"is_disabled":false,"rental_uris":{"android":"levelo://app?vid=3731846e-2218-45f1-ac96-76a41185ff9d","ios":"levelo://app?vid=3731846e-2218-45f1-ac96-76a41185ff9d"},"vehicle_type_id":"4","last_reported":1731867051,"current_range_meters":35600,"station_id":"cpo36qri1sfpv3e86is0","pricing_plan_id":"cebpf4jnsgd1na2vs0mg"},{"bike_id":"6dc2bbb2-446f-4764-92b0-8bcf1fff043f","system_id":"levelo_inurba_marseille","lat":43.28854,"lon":5.39319,"is_reserved":false,"is_disabled":false,"rental_uris":{"android":"levelo://app?vid=6dc2bbb2-446f-4764-92b0-8bcf1fff043f","ios":"levelo://app?vid=6dc2bbb2-446f-4764-92b0-8bcf1fff043f"},"vehicle_type_id":"4","last_reported":1731867051,"current_range_meters":24800,"station_id":"ce4bh2p2rcd13ifvqdi0","pricing_plan_id":"cebpf4jnsgd1na2vs0mg"},{"bike_id":"92ac4858-87d6-4ceb-8f6e-004635a816a8","system_id":"levelo_inurba_marseille","lat":43.27787,"lon":5.40739,"is_reserved":false,"is_disabled":false,"rental_uris":{"android":"levelo://app?vid=92ac4858-87d6-4ceb-8f6e-004635a816a8","ios":"levelo://app?vid=92ac4858-87d6-4ceb-8f6e-004635a816a8"},"vehicle_type_id":"4","last_reported":1731867051,"current_range_meters":26000,"station_id":"ce4bhnh2rcd13ifvqgtg","pricing_plan_id":"cebpf4jnsgd1na2vs0mg"},{"bike_id":"2b0ff95a-3fbc-4264-9c8f-0a3734e035cc","system_id":"levelo_inurba_marseille","lat":43.31755,"lon":5.39018,"is_reserved":false,"is_disabled":false,"rental_uris":{"android":"levelo://app?vid=2b0ff95a-3fbc-4264-9c8f-0a3734e035cc","ios":"levelo://app?vid=2b0ff95a-3fbc-4264-9c8f-0a3734e035cc"},"vehicle_type_id":"4","last_reported":1731867051,"current_range_meters":39200,"station_id":"ce4bhqp2rcd13ifvqhng","pricing_plan_id":"cebpf4jnsgd1na2vs0mg"},{"bike_id":"f5d368f6-3fd5-4402-bf35-32179938b5dd","system_id":"levelo_inurba_marseille","lat":43.30882,"lon":5.39637,"is_reserved":false,"is_disabled":false,"rental_uris":{"android":"levelo://app?vid=f5d368f6-3fd5-4402-bf35-32179938b5dd","ios":"levelo://app?vid=f5d368f6-3fd5-4402-bf35-32179938b5dd"},"vehicle_type_id":"4","last_reported":1731867051,"current_range_meters":27600,"station_id":"ce4bh012rcd13ifvqcv0","pricing_plan_id":"cebpf4jnsgd1na2vs0mg"},{"bike_id":"143df917-e46c-4ede-ace7-3394b01236b7","system_id":"levelo_inurba_marseille","lat":43.31256,"lon":5.40174,"is_reserved":false,"is_disabled":false,"rental_uris":{"android":"levelo://app?vid=143df917-e46c-4ede-ace7-3394b01236b7","ios":"levelo://app?vid=143df917-e46c-4ede-ace7-3394b01236b7"},"vehicle_type_id":"4","last_reported":1731867051,"current_range_meters":16400,"station_id":"ce4bh092rcd13ifvqd30","pricing_plan_id":"cebpf4jnsgd1na2vs0mg"},{"bike_id":"4145264d-2f0b-4895-9403-23ded2efd5a9","system_id":"levelo_inurba_marseille","lat":43.29785,"lon":5.38103,"is_reserved":false,"is_disabled":false,"rental_uris":{"android":"levelo://app?vid=4145264d-2f0b-4895-9403-23ded2efd5a9","ios":"levelo://app?vid=4145264d-2f0b-4895-9403-23ded2efd5a9"},"vehicle_type_id":"4","last_reported":1731867051,"current_range_meters":6000,"station_id":"ce4bgip2rcd13ifvqbb0","pricing_plan_id":"cebpf4jnsgd1na2vs0mg"},{"bike_id":"31dddf60-0702-4f9f-8219-0ef701219338","system_id":"levelo_inurba_marseille","lat":43.31266,"lon":5.40165,"is_reserved":false,"is_disabled":false,"rental_uris":{"android":"levelo://app?vid=31dddf60-0702-4f9f-8219-0ef701219338","ios":"levelo://app?vid=31dddf60-0702-4f9f-8219-0ef701219338"},"vehicle_type_id":"4","last_reported":1731867051,"current_range_meters":11200,"station_id":"ce4bh092rcd13ifvqd30","pricing_plan_id":"cebpf4jnsgd1na2vs0mg"},{"bike_id":"7465bc4b-7341-47ef-959d-45c0a1d37e4c","system_id":"levelo_inurba_marseille","lat":43.24082,"lon":5.3774,"is_reserved":false,"is_disabled":false,"rental_uris":{"android":"levelo://app?vid=7465bc4b-7341-47ef-959d-45c0a1d37e4c","ios":"levelo://app?vid=7465bc4b-7341-47ef-959d-45c0a1d37e4c"},"vehicle_type_id":"4","last_reported":1731867051,"current_range_meters":28000,"station_id":"ce4bhnp2rcd13ifvqgvg","pricing_plan_id":"cebpf4jnsgd1na2vs0mg"},{"bike_id":"227848b1-cf83-4ca0-9614-9980258ee62a","system_id":"levelo_inurba_marseille","lat":43.30074,"lon":5.39077,"is_reserved":false,"is_disabled":false,"rental_uris":{"android":"levelo://app?vid=227848b1-cf83-4ca0-9614-9980258ee62a","ios":"levelo://app?vid=227848b1-cf83-4ca0-9614-9980258ee62a"},"vehicle_type_id":"4","last_reported":1731867051,"current_range_meters":23200,"station_id":"ce4bh192rcd13ifvqdb0","pricing_plan_id":"cebpf4jnsgd1na2vs0mg"},{"bike_id":"a84f5389-258d-4508-9c0f-32ee5d326b43","system_id":"levelo_inurba_marseille","lat":43.33767,"lon":5.37475,"is_reserved":false,"is_disabled":false,"rental_uris":{"android":"levelo://app?vid=a84f5389-258d-4508-9c0f-32ee5d326b43","ios":"levelo://app?vid=a84f5389-258d-4508-9c0f-32ee5d326b43"},"vehicle_type_id":"4","last_reported":1731867051,"current_range_meters":28400,"station_id":"","pricing_plan_id":"cebpf4jnsgd1na2vs0mg"},{"bike_id":"f7f4c38e-8b4d-4302-a8c0-2a0fcd74f571","system_id":"levelo_inurba_marseille","lat":43.2756,"lon":5.384157,"is_reserved":false,"is_disabled":false,"rental_uris":{"android":"levelo://app?vid=f7f4c38e-8b4d-4302-a8c0-2a0fcd74f571","ios":"levelo://app?vid=f7f4c38e-8b4d-4302-a8c0-2a0fcd74f571"},"vehicle_type_id":"4","last_reported":1731867051,"current_range_meters":38000,"station_id":"ce4bhh92rcd13ifvqfi0","pricing_plan_id":"cebpf4jnsgd1na2vs0mg"},{"bike_id":"04158c1a-fd46-49c3-a56e-df452be93304","system_id":"levelo_inurba_marseille","lat":43.29522,"lon":5.39402,"is_reserved":false,"is_disabled":false,"rental_uris":{"android":"levelo://app?vid=04158c1a-fd46-49c3-a56e-df452be93304","ios":"levelo://app?vid=04158c1a-fd46-49c3-a56e-df452be93304"},"vehicle_type_id":"4","last_reported":1731867051,"current_range_meters":36800,"station_id":"ce4bh292rcd13ifvqdf0","pricing_plan_id":"cebpf4jnsgd1na2vs0mg"},{"bike_id":"01d98dfc-c722-4ce7-9835-37745edfe078","system_id":"levelo_inurba_marseille","lat":43.28438,"lon":5.39181,"is_reserved":false,"is_disabled":false,"rental_uris":{"android":"levelo://app?vid=01d98dfc-c722-4ce7-9835-37745edfe078","ios":"levelo://app?vid=01d98dfc-c722-4ce7-9835-37745edfe078"},"vehicle_type_id":"4","last_reported":1731867051,"current_range_meters":39200,"station_id":"ce4bhoh2rcd13ifvqh5g","pricing_plan_id":"cebpf4jnsgd1na2vs0mg"},{"bike_id":"f719f1a5-5b03-487e-b760-dd0cf7706874","system_id":"levelo_inurba_marseille","lat":43.29515,"lon":5.39047,"is_reserved":false,"is_disabled":false,"rental_uris":{"android":"levelo://app?vid=f719f1a5-5b03-487e-b760-dd0cf7706874","ios":"levelo://app?vid=f719f1a5-5b03-487e-b760-dd0cf7706874"},"vehicle_type_id":"4","last_reported":1731867051,"current_range_meters":20400,"station_id":"ce4bh3p2rcd13ifvqdp0","pricing_plan_id":"cebpf4jnsgd1na2vs0mg"},{"bike_id":"719862df-eb31-4da6-8f57-20e84f6c29b5","system_id":"levelo_inurba_marseille","lat":43.32367,"lon":5.38888,"is_reserved":false,"is_disabled":false,"rental_uris":{"android":"levelo://app?vid=719862df-eb31-4da6-8f57-20e84f6c29b5","ios":"levelo://app?vid=719862df-eb31-4da6-8f57-20e84f6c29b5"},"vehicle_type_id":"4","last_reported":1731867051,"current_range_meters":9200,"station_id":"ce4bhqp2rcd13ifvqhog","pricing_plan_id":"cebpf4jnsgd1na2vs0mg"},{"bike_id":"ba4cfa6b-d262-4c5f-ad80-f1c569b77562","system_id":"levelo_inurba_marseille","lat":43.25718,"lon":5.41114,"is_reserved":false,"is_disabled":false,"rental_uris":{"android":"levelo://app?vid=ba4cfa6b-d262-4c5f-ad80-f1c569b77562","ios":"levelo://app?vid=ba4cfa6b-d262-4c5f-ad80-f1c569b77562"},"vehicle_type_id":"4","last_reported":1731867051,"current_range_meters":21600,"station_id":"ce4bhkp2rcd13ifvqgd0","pricing_plan_id":"cebpf4jnsgd1na2vs0mg"},{"bike_id":"8d73c463-fbad-4a8e-8611-24e3d7d38d25","system_id":"levelo_inurba_marseille","lat":43.29572,"lon":5.39984,"is_reserved":false,"is_disabled":false,"rental_uris":{"android":"levelo://app?vid=8d73c463-fbad-4a8e-8611-24e3d7d38d25","ios":"levelo://app?vid=8d73c463-fbad-4a8e-8611-24e3d7d38d25"},"vehicle_type_id":"4","last_reported":1731867051,"current_range_meters":6000,"station_id":"ce4bh312rcd13ifvqdj0","pricing_plan_id":"cebpf4jnsgd1na2vs0mg"},{"bike_id":"7c0a99b0-2291-4a5e-b431-d5d68272736a","system_id":"levelo_inurba_marseille","lat":43.2407,"lon":5.3777,"is_reserved":false,"is_disabled":false,"rental_uris":{"android":"levelo://app?vid=7c0a99b0-2291-4a5e-b431-d5d68272736a","ios":"levelo://app?vid=7c0a99b0-2291-4a5e-b431-d5d68272736a"},"vehicle_type_id":"4","last_reported":1731867051,"current_range_meters":10800,"station_id":"ce4bhnp2rcd13ifvqgvg","pricing_plan_id":"cebpf4jnsgd1na2vs0mg"},{"bike_id":"2d0c69ee-5bbd-4523-995a-0e315f06df51","system_id":"levelo_inurba_marseille","lat":43.30869,"lon":5.39646,"is_reserved":false,"is_disabled":false,"rental_uris":{"android":"levelo://app?vid=2d0c69ee-5bbd-4523-995a-0e315f06df51","ios":"levelo://app?vid=2d0c69ee-5bbd-4523-995a-0e315f06df51"},"vehicle_type_id":"4","last_reported":1731867051,"current_range_meters":39200,"station_id":"ce4bh012rcd13ifvqcv0","pricing_plan_id":"cebpf4jnsgd1na2vs0mg"},{"bike_id":"ec07ff90-f715-40af-8a90-57425e0e664e","system_id":"levelo_inurba_marseille","lat":43.30612,"lon":5.37222,"is_reserved":false,"is_disabled":false,"rental_uris":{"android":"levelo://app?vid=ec07ff90-f715-40af-8a90-57425e0e664e","ios":"levelo://app?vid=ec07ff90-f715-40af-8a90-57425e0e664e"},"vehicle_type_id":"4","last_reported":1731867051,"current_range_meters":11600,"station_id":"ce4bgqh2rcd13ifvqc4g","pricing_plan_id":"cebpf4jnsgd1na2vs0mg"},{"bike_id":"522e9503-b872-48f2-8fb5-d8348a9df819","system_id":"levelo_inurba_marseille","lat":43.31688,"lon":5.40467,"is_reserved":false,"is_disabled":false,"rental_uris":{"android":"levelo://app?vid=522e9503-b872-48f2-8fb5-d8348a9df819","ios":"levelo://app?vid=522e9503-b872-48f2-8fb5-d8348a9df819"},"vehicle_type_id":"4","last_reported":1731867051,"current_range_meters":28000,"station_id":"ce4bh012rcd13ifvqd00","pricing_plan_id":"cebpf4jnsgd1na2vs0mg"},{"bike_id":"c9fcbb7d-8640-4f6c-b063-65cce3bee3ee","system_id":"levelo_inurba_marseille","lat":43.30304,"lon":5.39234,"is_reserved":false,"is_disabled":false,"rental_uris":{"android":"levelo://app?vid=c9fcbb7d-8640-4f6c-b063-65cce3bee3ee","ios":"levelo://app?vid=c9fcbb7d-8640-4f6c-b063-65cce3bee3ee"},"vehicle_type_id":"4","last_reported":1731867051,"current_range_meters":21600,"station_id":"ce4bgkh2rcd13ifvqbk0","pricing_plan_id":"cebpf4jnsgd1na2vs0mg"},{"bike_id":"b24e2db7-43b6-4bed-9d13-a0ecbf69b7c5","system_id":"levelo_inurba_marseille","lat":43.28029,"lon":5.36939,"is_reserved":false,"is_disabled":false,"rental_uris":{"android":"levelo://app?vid=b24e2db7-43b6-4bed-9d13-a0ecbf69b7c5","ios":"levelo://app?vid=b24e2db7-43b6-4bed-9d13-a0ecbf69b7c5"},"vehicle_type_id":"4","last_reported":1731867051,"current_range_meters":20000,"station_id":"ce4bha12rcd13ifvqef0","pricing_plan_id":"cebpf4jnsgd1na2vs0mg"},{"bike_id":"529913c2-83ee-48d7-bb7f-fc29f667ba95","system_id":"levelo_inurba_marseille","lat":43.3042,"lon":5.38885,"is_reserved":false,"is_disabled":false,"rental_uris":{"android":"levelo://app?vid=529913c2-83ee-48d7-bb7f-fc29f667ba95","ios":"levelo://app?vid=529913c2-83ee-48d7-bb7f-fc29f667ba95"},"vehicle_type_id":"4","last_reported":1731867051,"current_range_meters":19200,"station_id":"ce4bgk12rcd13ifvqbi0","pricing_plan_id":"cebpf4jnsgd1na2vs0mg"},{"bike_id":"eeb29d66-d63b-4e32-a59f-b5a700f5f704","system_id":"levelo_inurba_marseille","lat":43.28279,"lon":5.40215,"is_reserved":false,"is_disabled":false,"rental_uris":{"android":"levelo://app?vid=eeb29d66-d63b-4e32-a59f-b5a700f5f704","ios":"levelo://app?vid=eeb29d66-d63b-4e32-a59f-b5a700f5f704"},"vehicle_type_id":"4","last_reported":1731867051,"current_range_meters":6800,"station_id":"ce4bgj12rcd13ifvqbc0","pricing_plan_id":"cebpf4jnsgd1na2vs0mg"},{"bike_id":"c5462199-7932-4eef-a617-53d36b699976","system_id":"levelo_inurba_marseille","lat":43.29518,"lon":5.39409,"is_reserved":false,"is_disabled":false,"rental_uris":{"android":"levelo://app?vid=c5462199-7932-4eef-a617-53d36b699976","ios":"levelo://app?vid=c5462199-7932-4eef-a617-53d36b699976"},"vehicle_type_id":"4","last_reported":1731867051,"current_range_meters":28000,"station_id":"ce4bh292rcd13ifvqdf0","pricing_plan_id":"cebpf4jnsgd1na2vs0mg"},{"bike_id":"55522100-4530-48ff-a5a7-158977e55d56","system_id":"levelo_inurba_marseille","lat":43.26563,"lon":5.39003,"is_reserved":false,"is_disabled":false,"rental_uris":{"android":"levelo://app?vid=55522100-4530-48ff-a5a7-158977e55d56","ios":"levelo://app?vid=55522100-4530-48ff-a5a7-158977e55d56"},"vehicle_type_id":"4","last_reported":1731867051,"current_range_meters":14800,"station_id":"ce4bhe12rcd13ifvqf30","pricing_plan_id":"cebpf4jnsgd1na2vs0mg"},{"bike_id":"cb748eee-36fc-425b-bffb-e7ab2e92cba5","system_id":"levelo_inurba_marseille","lat":43.2747,"lon":5.38469,"is_reserved":false,"is_disabled":false,"rental_uris":{"android":"levelo://app?vid=cb748eee-36fc-425b-bffb-e7ab2e92cba5","ios":"levelo://app?vid=cb748eee-36fc-425b-bffb-e7ab2e92cba5"},"vehicle_type_id":"4","last_reported":1731867051,"current_range_meters":30000,"station_id":"","pricing_plan_id":"cebpf4jnsgd1na2vs0mg"},{"bike_id":"0638e14a-bbaa-42db-b87d-cf33ba6eb6f1","system_id":"levelo_inurba_marseille","lat":43.29283,"lon":5.36848,"is_reserved":false,"is_disabled":false,"rental_uris":{"android":"levelo://app?vid=0638e14a-bbaa-42db-b87d-cf33ba6eb6f1","ios":"levelo://app?vid=0638e14a-bbaa-42db-b87d-cf33ba6eb6f1"},"vehicle_type_id":"4","last_reported":1731867051,"current_range_meters":38000,"station_id":"ce4bhbp2rcd13ifvqesg","pricing_plan_id":"cebpf4jnsgd1na2vs0mg"},{"bike_id":"6fe8590f-e391-4325-bdde-177e28f31a3e","system_id":"levelo_inurba_marseille","lat":43.33722,"lon":5.39185,"is_reserved":false,"is_disabled":false,"rental_uris":{"android":"levelo://app?vid=6fe8590f-e391-4325-bdde-177e28f31a3e","ios":"levelo://app?vid=6fe8590f-e391-4325-bdde-177e28f31a3e"},"vehicle_type_id":"4","last_reported":1731867051,"current_range_meters":38800,"station_id":"ce4bhr92rcd13ifvqhsg","pricing_plan_id":"cebpf4jnsgd1na2vs0mg"},{"bike_id":"08725ea2-8951-4caa-a965-ed8375933a1c","system_id":"levelo_inurba_marseille","lat":43.27911,"lon":5.39577,"is_reserved":false,"is_disabled":false,"rental_uris":{"android":"levelo://app?vid=08725ea2-8951-4caa-a965-ed8375933a1c","ios":"levelo://app?vid=08725ea2-8951-4caa-a965-ed8375933a1c"},"vehicle_type_id":"4","last_reported":1731867051,"current_range_meters":6800,"station_id":"ce4bhf92rcd13ifvqf40","pricing_plan_id":"cebpf4jnsgd1na2vs0mg"},{"bike_id":"6685a7e0-c811-42b1-b24a-f5642ac48162","system_id":"levelo_inurba_marseille","lat":43.3228,"lon":5.38282,"is_reserved":false,"is_disabled":false,"rental_uris":{"android":"levelo://app?vid=6685a7e0-c811-42b1-b24a-f5642ac48162","ios":"levelo://app?vid=6685a7e0-c811-42b1-b24a-f5642ac48162"},"vehicle_type_id":"4","last_reported":1731867051,"current_range_meters":29600,"station_id":"ce4bhr12rcd13ifvqhqg","pricing_plan_id":"cebpf4jnsgd1na2vs0mg"},{"bike_id":"6d2ea2ed-aab3-49bb-9ce8-3ea934cd9a9f","system_id":"levelo_inurba_marseille","lat":43.27077,"lon":5.42258,"is_reserved":false,"is_disabled":false,"rental_uris":{"android":"levelo://app?vid=6d2ea2ed-aab3-49bb-9ce8-3ea934cd9a9f","ios":"levelo://app?vid=6d2ea2ed-aab3-49bb-9ce8-3ea934cd9a9f"},"vehicle_type_id":"4","last_reported":1731867051,"current_range_meters":19600,"station_id":"ce4bhk92rcd13ifvqgb0","pricing_plan_id":"cebpf4jnsgd1na2vs0mg"},{"bike_id":"022f478e-da93-4eda-9d1b-2d0e36905c07","system_id":"levelo_inurba_marseille","lat":43.33767,"lon":5.37457,"is_reserved":false,"is_disabled":false,"rental_uris":{"android":"levelo://app?vid=022f478e-da93-4eda-9d1b-2d0e36905c07","ios":"levelo://app?vid=022f478e-da93-4eda-9d1b-2d0e36905c07"},"vehicle_type_id":"4","last_reported":1731867051,"current_range_meters":9600,"station_id":"","pricing_plan_id":"cebpf4jnsgd1na2vs0mg"},{"bike_id":"a8fcf094-5fe5-49b4-9267-632c49b4795f","system_id":"levelo_inurba_marseille","lat":43.27219,"lon":5.39187,"is_reserved":false,"is_disabled":false,"rental_uris":{"android":"levelo://app?vid=a8fcf094-5fe5-49b4-9267-632c49b4795f","ios":"levelo://app?vid=a8fcf094-5fe5-49b4-9267-632c49b4795f"},"vehicle_type_id":"4","last_reported":1731867051,"current_range_meters":21600,"station_id":"ce4bhhp2rcd13ifvqfm0","pricing_plan_id":"cebpf4jnsgd1na2vs0mg"},{"bike_id":"3c7108fb-85fe-43b6-95ce-e6a5e6d34b1a","system_id":"levelo_inurba_marseille","lat":43.3374,"lon":5.39185,"is_reserved":false,"is_disabled":false,"rental_uris":{"android":"levelo://app?vid=3c7108fb-85fe-43b6-95ce-e6a5e6d34b1a","ios":"levelo://app?vid=3c7108fb-85fe-43b6-95ce-e6a5e6d34b1a"},"vehicle_type_id":"4","last_reported":1731867051,"current_range_meters":27600,"station_id":"ce4bhr92rcd13ifvqhsg","pricing_plan_id":"cebpf4jnsgd1na2vs0mg"},{"bike_id":"bf792bc2-b30b-4595-a00d-80918952de17","system_id":"levelo_inurba_marseille","lat":43.30139,"lon":5.39833,"is_reserved":false,"is_disabled":false,"rental_uris":{"android":"levelo://app?vid=bf792bc2-b30b-4595-a00d-80918952de17","ios":"levelo://app?vid=bf792bc2-b30b-4595-a00d-80918952de17"},"vehicle_type_id":"4","last_reported":1731867051,"current_range_meters":19200,"station_id":"ce4bh0h2rcd13ifvqd40","pricing_plan_id":"cebpf4jnsgd1na2vs0mg"},{"bike_id":"05fa9cab-1095-421e-8ede-e43197a1ec1f","system_id":"levelo_inurba_marseille","lat":43.284572,"lon":5.358823,"is_reserved":false,"is_disabled":false,"rental_uris":{"android":"levelo://app?vid=05fa9cab-1095-421e-8ede-e43197a1ec1f","ios":"levelo://app?vid=05fa9cab-1095-421e-8ede-e43197a1ec1f"},"vehicle_type_id":"4","last_reported":1731867051,"current_range_meters":24400,"station_id":"ce4bhah2rcd13ifvqei0","pricing_plan_id":"cebpf4jnsgd1na2vs0mg"},{"bike_id":"e42920de-2d5a-4a31-9161-66cb1d10d59a","system_id":"levelo_inurba_marseille","lat":43.3248,"lon":5.36562,"is_reserved":false,"is_disabled":false,"rental_uris":{"android":"levelo://app?vid=e42920de-2d5a-4a31-9161-66cb1d10d59a","ios":"levelo://app?vid=e42920de-2d5a-4a31-9161-66cb1d10d59a"},"vehicle_type_id":"4","last_reported":1731867051,"current_range_meters":11200,"station_id":"ce4bhs12rcd13ifvqhvg","pricing_plan_id":"cebpf4jnsgd1na2vs0mg"},{"bike_id":"a3660f97-1f39-4007-ab40-a595781e2f52","system_id":"levelo_inurba_marseille","lat":43.27807,"lon":5.40713,"is_reserved":false,"is_disabled":false,"rental_uris":{"android":"levelo://app?vid=a3660f97-1f39-4007-ab40-a595781e2f52","ios":"levelo://app?vid=a3660f97-1f39-4007-ab40-a595781e2f52"},"vehicle_type_id":"4","last_reported":1731867051,"current_range_meters":38800,"station_id":"ce4bhnh2rcd13ifvqgtg","pricing_plan_id":"cebpf4jnsgd1na2vs0mg"},{"bike_id":"929053e8-dc63-436c-8adf-41008625a734","system_id":"levelo_inurba_marseille","lat":43.30796,"lon":5.43519,"is_reserved":false,"is_disabled":false,"rental_uris":{"android":"levelo://app?vid=929053e8-dc63-436c-8adf-41008625a734","ios":"levelo://app?vid=929053e8-dc63-436c-8adf-41008625a734"},"vehicle_type_id":"4","last_reported":1731867051,"current_range_meters":11200,"station_id":"ce4bhph2rcd13ifvqheg","pricing_plan_id":"cebpf4jnsgd1na2vs0mg"},{"bike_id":"b44f7862-465d-4fc1-a233-80f90ec40d2b","system_id":"levelo_inurba_marseille","lat":43.30097,"lon":5.39087,"is_reserved":false,"is_disabled":false,"rental_uris":{"android":"levelo://app?vid=b44f7862-465d-4fc1-a233-80f90ec40d2b","ios":"levelo://app?vid=b44f7862-465d-4fc1-a233-80f90ec40d2b"},"vehicle_type_id":"4","last_reported":1731867051,"current_range_meters":38800,"station_id":"ce4bh192rcd13ifvqdb0","pricing_plan_id":"cebpf4jnsgd1na2vs0mg"},{"bike_id":"572842dd-d9ac-4fdf-a7cb-ccdec966ecbc","system_id":"levelo_inurba_marseille","lat":43.30421,"lon":5.41291,"is_reserved":false,"is_disabled":false,"rental_uris":{"android":"levelo://app?vid=572842dd-d9ac-4fdf-a7cb-ccdec966ecbc","ios":"levelo://app?vid=572842dd-d9ac-4fdf-a7cb-ccdec966ecbc"},"vehicle_type_id":"4","last_reported":1731867051,"current_range_meters":14400,"station_id":"ce4bhop2rcd13ifvqh8g","pricing_plan_id":"cebpf4jnsgd1na2vs0mg"},{"bike_id":"b5f4fcbc-1226-44c0-a14e-e47c6b0fad8a","system_id":"levelo_inurba_marseille","lat":43.30653,"lon":5.40103,"is_reserved":false,"is_disabled":false,"rental_uris":{"android":"levelo://app?vid=b5f4fcbc-1226-44c0-a14e-e47c6b0fad8a","ios":"levelo://app?vid=b5f4fcbc-1226-44c0-a14e-e47c6b0fad8a"},"vehicle_type_id":"4","last_reported":1731867051,"current_range_meters":18800,"station_id":"ce4bh112rcd13ifvqda0","pricing_plan_id":"cebpf4jnsgd1na2vs0mg"},{"bike_id":"f1846d20-ba27-4aaf-9400-a2271d6d0d39","system_id":"levelo_inurba_marseille","lat":43.29356,"lon":5.38752,"is_reserved":false,"is_disabled":false,"rental_uris":{"android":"levelo://app?vid=f1846d20-ba27-4aaf-9400-a2271d6d0d39","ios":"levelo://app?vid=f1846d20-ba27-4aaf-9400-a2271d6d0d39"},"vehicle_type_id":"4","last_reported":1731867051,"current_range_meters":37600,"station_id":"ce4bhgp2rcd13ifvqfe0","pricing_plan_id":"cebpf4jnsgd1na2vs0mg"},{"bike_id":"7893769d-1db5-4bf1-82f3-3886d8b1abd0","system_id":"levelo_inurba_marseille","lat":43.29926,"lon":5.37474,"is_reserved":false,"is_disabled":false,"rental_uris":{"android":"levelo://app?vid=7893769d-1db5-4bf1-82f3-3886d8b1abd0","ios":"levelo://app?vid=7893769d-1db5-4bf1-82f3-3886d8b1abd0"},"vehicle_type_id":"4","last_reported":1731867051,"current_range_meters":14000,"station_id":"ce4bgjh2rcd13ifvqbg0","pricing_plan_id":"cebpf4jnsgd1na2vs0mg"},{"bike_id":"41f31dc9-88e2-48ea-bd2c-b8627dbbc86c","system_id":"levelo_inurba_marseille","lat":43.29878,"lon":5.39732,"is_reserved":false,"is_disabled":false,"rental_uris":{"android":"levelo://app?vid=41f31dc9-88e2-48ea-bd2c-b8627dbbc86c","ios":"levelo://app?vid=41f31dc9-88e2-48ea-bd2c-b8627dbbc86c"},"vehicle_type_id":"4","last_reported":1731867051,"current_range_meters":12000,"station_id":"ce4bh0h2rcd13ifvqd50","pricing_plan_id":"cebpf4jnsgd1na2vs0mg"},{"bike_id":"ad61134e-7d54-4d6f-bedd-42b777ddc14a","system_id":"levelo_inurba_marseille","lat":43.28443,"lon":5.39182,"is_reserved":false,"is_disabled":false,"rental_uris":{"android":"levelo://app?vid=ad61134e-7d54-4d6f-bedd-42b777ddc14a","ios":"levelo://app?vid=ad61134e-7d54-4d6f-bedd-42b777ddc14a"},"vehicle_type_id":"4","last_reported":1731867051,"current_range_meters":39200,"station_id":"ce4bhoh2rcd13ifvqh5g","pricing_plan_id":"cebpf4jnsgd1na2vs0mg"},{"bike_id":"bd1585a9-8745-4734-ab80-7f95ee0946dc","system_id":"levelo_inurba_marseille","lat":43.29042,"lon":5.3866,"is_reserved":false,"is_disabled":false,"rental_uris":{"android":"levelo://app?vid=bd1585a9-8745-4734-ab80-7f95ee0946dc","ios":"levelo://app?vid=bd1585a9-8745-4734-ab80-7f95ee0946dc"},"vehicle_type_id":"4","last_reported":1731867051,"current_range_meters":38800,"station_id":"ce4bh4p2rcd13ifvqe0g","pricing_plan_id":"cebpf4jnsgd1na2vs0mg"},{"bike_id":"f090ad98-94b3-4398-9b5a-bf21acff29e0","system_id":"levelo_inurba_marseille","lat":43.30421,"lon":5.41282,"is_reserved":false,"is_disabled":false,"rental_uris":{"android":"levelo://app?vid=f090ad98-94b3-4398-9b5a-bf21acff29e0","ios":"levelo://app?vid=f090ad98-94b3-4398-9b5a-bf21acff29e0"},"vehicle_type_id":"4","last_reported":1731867051,"current_range_meters":24000,"station_id":"ce4bhop2rcd13ifvqh8g","pricing_plan_id":"cebpf4jnsgd1na2vs0mg"},{"bike_id":"91eef967-bb4c-4ff6-9ba6-e4091b0d2d0f","system_id":"levelo_inurba_marseille","lat":43.29528,"lon":5.3855,"is_reserved":false,"is_disabled":false,"rental_uris":{"android":"levelo://app?vid=91eef967-bb4c-4ff6-9ba6-e4091b0d2d0f","ios":"levelo://app?vid=91eef967-bb4c-4ff6-9ba6-e4091b0d2d0f"},"vehicle_type_id":"4","last_reported":1731867051,"current_range_meters":36000,"station_id":"ce4bgih2rcd13ifvqba0","pricing_plan_id":"cebpf4jnsgd1na2vs0mg"},{"bike_id":"aa0546de-cbe7-4059-a13c-70b9520d51a8","system_id":"levelo_inurba_marseille","lat":43.284912,"lon":5.383996,"is_reserved":false,"is_disabled":false,"rental_uris":{"android":"levelo://app?vid=aa0546de-cbe7-4059-a13c-70b9520d51a8","ios":"levelo://app?vid=aa0546de-cbe7-4059-a13c-70b9520d51a8"},"vehicle_type_id":"4","last_reported":1731867051,"current_range_meters":16800,"station_id":"ce4bh512rcd13ifvqe3g","pricing_plan_id":"cebpf4jnsgd1na2vs0mg"},{"bike_id":"90bb2cae-4339-46de-973d-1d239b082c40","system_id":"levelo_inurba_marseille","lat":43.23185,"lon":5.39995,"is_reserved":false,"is_disabled":false,"rental_uris":{"android":"levelo://app?vid=90bb2cae-4339-46de-973d-1d239b082c40","ios":"levelo://app?vid=90bb2cae-4339-46de-973d-1d239b082c40"},"vehicle_type_id":"4","last_reported":1731867051,"current_range_meters":17600,"station_id":"ce4bhn12rcd13ifvqgqg","pricing_plan_id":"cebpf4jnsgd1na2vs0mg"},{"bike_id":"ec83c914-dec2-427b-9c69-c1add21efcb5","system_id":"levelo_inurba_marseille","lat":43.27078,"lon":5.42277,"is_reserved":false,"is_disabled":false,"rental_uris":{"android":"levelo://app?vid=ec83c914-dec2-427b-9c69-c1add21efcb5","ios":"levelo://app?vid=ec83c914-dec2-427b-9c69-c1add21efcb5"},"vehicle_type_id":"4","last_reported":1731867051,"current_range_meters":29600,"station_id":"ce4bhk92rcd13ifvqgb0","pricing_plan_id":"cebpf4jnsgd1na2vs0mg"},{"bike_id":"a463a680-9124-4bc9-970c-e4bad22dd9fe","system_id":"levelo_inurba_marseille","lat":43.27661,"lon":5.38878,"is_reserved":false,"is_disabled":false,"rental_uris":{"android":"levelo://app?vid=a463a680-9124-4bc9-970c-e4bad22dd9fe","ios":"levelo://app?vid=a463a680-9124-4bc9-970c-e4bad22dd9fe"},"vehicle_type_id":"4","last_reported":1731867051,"current_range_meters":36000,"station_id":"ce4bhi12rcd13ifvqfo0","pricing_plan_id":"cebpf4jnsgd1na2vs0mg"},{"bike_id":"03610925-a848-4509-93d0-1b57c0885fff","system_id":"levelo_inurba_marseille","lat":43.29526,"lon":5.3854,"is_reserved":false,"is_disabled":false,"rental_uris":{"android":"levelo://app?vid=03610925-a848-4509-93d0-1b57c0885fff","ios":"levelo://app?vid=03610925-a848-4509-93d0-1b57c0885fff"},"vehicle_type_id":"4","last_reported":1731867051,"current_range_meters":33600,"station_id":"ce4bgih2rcd13ifvqba0","pricing_plan_id":"cebpf4jnsgd1na2vs0mg"},{"bike_id":"718ced14-9aa9-44a3-b5df-3cbebb54c2f9","system_id":"levelo_inurba_marseille","lat":43.30139,"lon":5.39859,"is_reserved":false,"is_disabled":false,"rental_uris":{"android":"levelo://app?vid=718ced14-9aa9-44a3-b5df-3cbebb54c2f9","ios":"levelo://app?vid=718ced14-9aa9-44a3-b5df-3cbebb54c2f9"},"vehicle_type_id":"4","last_reported":1731867051,"current_range_meters":28000,"station_id":"ce4bh0h2rcd13ifvqd40","pricing_plan_id":"cebpf4jnsgd1na2vs0mg"},{"bike_id":"aa58de6f-50b7-4820-abff-9daea1e9542e","system_id":"levelo_inurba_marseille","lat":43.31267,"lon":5.40169,"is_reserved":false,"is_disabled":false,"rental_uris":{"android":"levelo://app?vid=aa58de6f-50b7-4820-abff-9daea1e9542e","ios":"levelo://app?vid=aa58de6f-50b7-4820-abff-9daea1e9542e"},"vehicle_type_id":"4","last_reported":1731867051,"current_range_meters":12000,"station_id":"ce4bh092rcd13ifvqd30","pricing_plan_id":"cebpf4jnsgd1na2vs0mg"},{"bike_id":"2b5c3fcd-740a-4039-8216-9ed95df3ad9d","system_id":"levelo_inurba_marseille","lat":43.32335,"lon":5.40624,"is_reserved":false,"is_disabled":false,"rental_uris":{"android":"levelo://app?vid=2b5c3fcd-740a-4039-8216-9ed95df3ad9d","ios":"levelo://app?vid=2b5c3fcd-740a-4039-8216-9ed95df3ad9d"},"vehicle_type_id":"4","last_reported":1731867051,"current_range_meters":38800,"station_id":"ce4bhq92rcd13ifvqhjg","pricing_plan_id":"cebpf4jnsgd1na2vs0mg"},{"bike_id":"a76b5891-2601-43e5-b964-b07ad3119f91","system_id":"levelo_inurba_marseille","lat":43.251373,"lon":5.390033,"is_reserved":false,"is_disabled":false,"rental_uris":{"android":"levelo://app?vid=a76b5891-2601-43e5-b964-b07ad3119f91","ios":"levelo://app?vid=a76b5891-2601-43e5-b964-b07ad3119f91"},"vehicle_type_id":"4","last_reported":1731867051,"current_range_meters":38800,"station_id":"ce4bhgp2rcd13ifvqfd0","pricing_plan_id":"cebpf4jnsgd1na2vs0mg"},{"bike_id":"837bd8ec-043f-4151-a949-e3a4076400b7","system_id":"levelo_inurba_marseille","lat":43.2926,"lon":5.38427,"is_reserved":false,"is_disabled":false,"rental_uris":{"android":"levelo://app?vid=837bd8ec-043f-4151-a949-e3a4076400b7","ios":"levelo://app?vid=837bd8ec-043f-4151-a949-e3a4076400b7"},"vehicle_type_id":"4","last_reported":1731867051,"current_range_meters":30400,"station_id":"ce4bh692rcd13ifvqea0","pricing_plan_id":"cebpf4jnsgd1na2vs0mg"},{"bike_id":"72e5b9ef-fba6-4df5-a4c7-fbb484b80326","system_id":"levelo_inurba_marseille","lat":43.28458,"lon":5.35885,"is_reserved":false,"is_disabled":false,"rental_uris":{"android":"levelo://app?vid=72e5b9ef-fba6-4df5-a4c7-fbb484b80326","ios":"levelo://app?vid=72e5b9ef-fba6-4df5-a4c7-fbb484b80326"},"vehicle_type_id":"4","last_reported":1731867051,"current_range_meters":35600,"station_id":"ce4bhah2rcd13ifvqei0","pricing_plan_id":"cebpf4jnsgd1na2vs0mg"},{"bike_id":"e6187a8c-5322-430b-8e20-f7ea09791dc1","system_id":"levelo_inurba_marseille","lat":43.2903,"lon":5.38645,"is_reserved":false,"is_disabled":false,"rental_uris":{"android":"levelo://app?vid=e6187a8c-5322-430b-8e20-f7ea09791dc1","ios":"levelo://app?vid=e6187a8c-5322-430b-8e20-f7ea09791dc1"},"vehicle_type_id":"4","last_reported":1731867051,"current_range_meters":4800,"station_id":"ce4bh4p2rcd13ifvqe0g","pricing_plan_id":"cebpf4jnsgd1na2vs0mg"},{"bike_id":"82b8ad29-0c4c-485d-9014-b559be42d47d","system_id":"levelo_inurba_marseille","lat":43.32045,"lon":5.41543,"is_reserved":false,"is_disabled":false,"rental_uris":{"android":"levelo://app?vid=82b8ad29-0c4c-485d-9014-b559be42d47d","ios":"levelo://app?vid=82b8ad29-0c4c-485d-9014-b559be42d47d"},"vehicle_type_id":"4","last_reported":1731867051,"current_range_meters":16000,"station_id":"ce4bhq92rcd13ifvqhkg","pricing_plan_id":"cebpf4jnsgd1na2vs0mg"},{"bike_id":"30acc073-afe4-4f55-8a60-5710c2e59fd3","system_id":"levelo_inurba_marseille","lat":43.29524,"lon":5.38541,"is_reserved":false,"is_disabled":false,"rental_uris":{"android":"levelo://app?vid=30acc073-afe4-4f55-8a60-5710c2e59fd3","ios":"levelo://app?vid=30acc073-afe4-4f55-8a60-5710c2e59fd3"},"vehicle_type_id":"4","last_reported":1731867051,"current_range_meters":37600,"station_id":"ce4bgih2rcd13ifvqba0","pricing_plan_id":"cebpf4jnsgd1na2vs0mg"},{"bike_id":"ceac3007-eae3-4b94-bbe6-558d8b1b8bf5","system_id":"levelo_inurba_marseille","lat":43.29102,"lon":5.38131,"is_reserved":false,"is_disabled":false,"rental_uris":{"android":"levelo://app?vid=ceac3007-eae3-4b94-bbe6-558d8b1b8bf5","ios":"levelo://app?vid=ceac3007-eae3-4b94-bbe6-558d8b1b8bf5"},"vehicle_type_id":"4","last_reported":1731867051,"current_range_meters":12400,"station_id":"ce4bh512rcd13ifvqe2g","pricing_plan_id":"cebpf4jnsgd1na2vs0mg"},{"bike_id":"f78802ca-a9aa-45bb-be25-521369af8335","system_id":"levelo_inurba_marseille","lat":43.30794,"lon":5.43521,"is_reserved":false,"is_disabled":false,"rental_uris":{"android":"levelo://app?vid=f78802ca-a9aa-45bb-be25-521369af8335","ios":"levelo://app?vid=f78802ca-a9aa-45bb-be25-521369af8335"},"vehicle_type_id":"4","last_reported":1731867051,"current_range_meters":12800,"station_id":"ce4bhph2rcd13ifvqheg","pricing_plan_id":"cebpf4jnsgd1na2vs0mg"},{"bike_id":"0d84feb5-1b95-49ab-bf91-c474041a34ca","system_id":"levelo_inurba_marseille","lat":43.33025,"lon":5.39034,"is_reserved":false,"is_disabled":false,"rental_uris":{"android":"levelo://app?vid=0d84feb5-1b95-49ab-bf91-c474041a34ca","ios":"levelo://app?vid=0d84feb5-1b95-49ab-bf91-c474041a34ca"},"vehicle_type_id":"4","last_reported":1731867051,"current_range_meters":24400,"station_id":"ce4bhr92rcd13ifvqhrg","pricing_plan_id":"cebpf4jnsgd1na2vs0mg"},{"bike_id":"c3f20ad3-d272-4ac5-b520-a235c995d5f9","system_id":"levelo_inurba_marseille","lat":43.29249,"lon":5.38441,"is_reserved":false,"is_disabled":false,"rental_uris":{"android":"levelo://app?vid=c3f20ad3-d272-4ac5-b520-a235c995d5f9","ios":"levelo://app?vid=c3f20ad3-d272-4ac5-b520-a235c995d5f9"},"vehicle_type_id":"4","last_reported":1731867051,"current_range_meters":2000,"station_id":"ce4bh692rcd13ifvqea0","pricing_plan_id":"cebpf4jnsgd1na2vs0mg"},{"bike_id":"79845420-f180-4bcf-8940-de547e5674ce","system_id":"levelo_inurba_marseille","lat":43.30076,"lon":5.39084,"is_reserved":false,"is_disabled":false,"rental_uris":{"android":"levelo://app?vid=79845420-f180-4bcf-8940-de547e5674ce","ios":"levelo://app?vid=79845420-f180-4bcf-8940-de547e5674ce"},"vehicle_type_id":"4","last_reported":1731867051,"current_range_meters":9200,"station_id":"ce4bh192rcd13ifvqdb0","pricing_plan_id":"cebpf4jnsgd1na2vs0mg"},{"bike_id":"211e51e8-dbf7-4d22-b6f1-8020f0c8fa6e","system_id":"levelo_inurba_marseille","lat":43.24174,"lon":5.36403,"is_reserved":false,"is_disabled":false,"rental_uris":{"android":"levelo://app?vid=211e51e8-dbf7-4d22-b6f1-8020f0c8fa6e","ios":"levelo://app?vid=211e51e8-dbf7-4d22-b6f1-8020f0c8fa6e"},"vehicle_type_id":"4","last_reported":1731867051,"current_range_meters":18000,"station_id":"cpo36qri1sfpv3e86is0","pricing_plan_id":"cebpf4jnsgd1na2vs0mg"},{"bike_id":"14b0dd5d-fb7f-4337-812d-2efd5b171e81","system_id":"levelo_inurba_marseille","lat":43.23055,"lon":5.3548,"is_reserved":false,"is_disabled":false,"rental_uris":{"android":"levelo://app?vid=14b0dd5d-fb7f-4337-812d-2efd5b171e81","ios":"levelo://app?vid=14b0dd5d-fb7f-4337-812d-2efd5b171e81"},"vehicle_type_id":"4","last_reported":1731867051,"current_range_meters":36800,"station_id":"cpo3342slgdg3j2ifvpg","pricing_plan_id":"cebpf4jnsgd1na2vs0mg"},{"bike_id":"bf22383f-69a1-47db-8197-97da374c3ff0","system_id":"levelo_inurba_marseille","lat":43.23201,"lon":5.35549,"is_reserved":false,"is_disabled":false,"rental_uris":{"android":"levelo://app?vid=bf22383f-69a1-47db-8197-97da374c3ff0","ios":"levelo://app?vid=bf22383f-69a1-47db-8197-97da374c3ff0"},"vehicle_type_id":"4","last_reported":1731867051,"current_range_meters":39200,"station_id":"ce4bhu92rcd13ifvqi70","pricing_plan_id":"cebpf4jnsgd1na2vs0mg"},{"bike_id":"b32891ac-cfd9-4fd2-ba02-01b96d174f58","system_id":"levelo_inurba_marseille","lat":43.2953,"lon":5.38542,"is_reserved":false,"is_disabled":false,"rental_uris":{"android":"levelo://app?vid=b32891ac-cfd9-4fd2-ba02-01b96d174f58","ios":"levelo://app?vid=b32891ac-cfd9-4fd2-ba02-01b96d174f58"},"vehicle_type_id":"4","last_reported":1731867051,"current_range_meters":20000,"station_id":"ce4bgih2rcd13ifvqba0","pricing_plan_id":"cebpf4jnsgd1na2vs0mg"},{"bike_id":"86f0ffba-2736-4770-b312-4aff7181899d","system_id":"levelo_inurba_marseille","lat":43.29252,"lon":5.38448,"is_reserved":false,"is_disabled":false,"rental_uris":{"android":"levelo://app?vid=86f0ffba-2736-4770-b312-4aff7181899d","ios":"levelo://app?vid=86f0ffba-2736-4770-b312-4aff7181899d"},"vehicle_type_id":"4","last_reported":1731867051,"current_range_meters":37600,"station_id":"ce4bh692rcd13ifvqea0","pricing_plan_id":"cebpf4jnsgd1na2vs0mg"},{"bike_id":"53a15001-59da-4ff7-843e-47c8caa7a353","system_id":"levelo_inurba_marseille","lat":43.29021,"lon":5.38143,"is_reserved":false,"is_disabled":false,"rental_uris":{"android":"levelo://app?vid=53a15001-59da-4ff7-843e-47c8caa7a353","ios":"levelo://app?vid=53a15001-59da-4ff7-843e-47c8caa7a353"},"vehicle_type_id":"4","last_reported":1731867051,"current_range_meters":8800,"station_id":"ce4bh4p2rcd13ifvqe1g","pricing_plan_id":"cebpf4jnsgd1na2vs0mg"},{"bike_id":"a3f499f1-144b-463b-be95-3170b9153ae3","system_id":"levelo_inurba_marseille","lat":43.31223,"lon":5.36851,"is_reserved":false,"is_disabled":false,"rental_uris":{"android":"levelo://app?vid=a3f499f1-144b-463b-be95-3170b9153ae3","ios":"levelo://app?vid=a3f499f1-144b-463b-be95-3170b9153ae3"},"vehicle_type_id":"4","last_reported":1731867051,"current_range_meters":7200,"station_id":"ce4bgl92rcd13ifvqbq0","pricing_plan_id":"cebpf4jnsgd1na2vs0mg"},{"bike_id":"215bfaa1-48d4-468a-ab0d-1ee191384f9f","system_id":"levelo_inurba_marseille","lat":43.28151,"lon":5.42641,"is_reserved":false,"is_disabled":false,"rental_uris":{"android":"levelo://app?vid=215bfaa1-48d4-468a-ab0d-1ee191384f9f","ios":"levelo://app?vid=215bfaa1-48d4-468a-ab0d-1ee191384f9f"},"vehicle_type_id":"4","last_reported":1731867051,"current_range_meters":38800,"station_id":"ce4bhnh2rcd13ifvqgug","pricing_plan_id":"cebpf4jnsgd1na2vs0mg"},{"bike_id":"7ec42c07-9837-4dc4-a628-3a4e46440792","system_id":"levelo_inurba_marseille","lat":43.29529,"lon":5.38546,"is_reserved":false,"is_disabled":false,"rental_uris":{"android":"levelo://app?vid=7ec42c07-9837-4dc4-a628-3a4e46440792","ios":"levelo://app?vid=7ec42c07-9837-4dc4-a628-3a4e46440792"},"vehicle_type_id":"4","last_reported":1731867051,"current_range_meters":34000,"station_id":"ce4bgih2rcd13ifvqba0","pricing_plan_id":"cebpf4jnsgd1na2vs0mg"},{"bike_id":"4a0af843-6fed-42b2-9eb9-398692c56b3c","system_id":"levelo_inurba_marseille","lat":43.290738,"lon":5.377902,"is_reserved":false,"is_disabled":false,"rental_uris":{"android":"levelo://app?vid=4a0af843-6fed-42b2-9eb9-398692c56b3c","ios":"levelo://app?vid=4a0af843-6fed-42b2-9eb9-398692c56b3c"},"vehicle_type_id":"4","last_reported":1731867051,"current_range_meters":20800,"station_id":"ce4bhf92rcd13ifvqf50","pricing_plan_id":"cebpf4jnsgd1na2vs0mg"},{"bike_id":"c095ac0b-63f1-4dd2-9980-0b34d7e61699","system_id":"levelo_inurba_marseille","lat":43.27207,"lon":5.39187,"is_reserved":false,"is_disabled":false,"rental_uris":{"android":"levelo://app?vid=c095ac0b-63f1-4dd2-9980-0b34d7e61699","ios":"levelo://app?vid=c095ac0b-63f1-4dd2-9980-0b34d7e61699"},"vehicle_type_id":"4","last_reported":1731867051,"current_range_meters":7200,"station_id":"ce4bhhp2rcd13ifvqfm0","pricing_plan_id":"cebpf4jnsgd1na2vs0mg"},