{"last_updated":1731291105,"ttl":60,"version":"2.2","data":{"bikes":[{"bike_id":"5cccdad3-9b8d-4a72-bdfd-b1daf1dc0d4d","system_id":"levelo_inurba_marseille","lat":43.27813,"lon":5.40702,"is_reserved":false,"is_disabled":false,"rental_uris":{"android":"levelo://app?vid=5cccdad3-9b8d-4a72-bdfd-b1daf1dc0d4d","ios":"levelo://app?vid=5cccdad3-9b8d-4a72-bdfd-b1daf1dc0d4d"},"vehicle_type_id":"4","last_reported":1731291105,"current_range_meters":38800,"station_id":"ce4bhnh2rcd13ifvqgtg","pricing_plan_id":"cebpf4jnsgd1na2vs0mg"},{"bike_id":"55f338da-564d-4339-bcb5-5d0a4b68c4e6","system_id":"levelo_inurba_marseille","lat":43.31063,"lon":5.40081,"is_reserved":false,"is_disabled":false,"rental_uris":{"android":"levelo://app?vid=55f338da-564d-4339-bcb5-5d0a4b68c4e6","ios":"levelo://app?vid=55f338da-564d-4339-bcb5-5d0a4b68c4e6"},"vehicle_type_id":"4","last_reported":1731291105,"current_range_meters":6800,"station_id":"","pricing_plan_id":"cebpf4jnsgd1na2vs0mg"},{"bike_id":"4a9b720d-8670-4831-85df-c88003ccc28b","system_id":"levelo_inurba_marseille","lat":43.30443,"lon":5.38893,"is_reserved":false,"is_disabled":false,"rental_uris":{"android":"levelo://app?vid=4a9b720d-8670-4831-85df-c88003ccc28b","ios":"levelo://app?vid=4a9b720d-8670-4831-85df-c88003ccc28b"},"vehicle_type_id":"4","last_reported":1731291105,"current_range_meters":38800,"station_id":"ce4bgk12rcd13ifvqbi0","pricing_plan_id":"cebpf4jnsgd1na2vs0mg"},{"bike_id":"cab1dcd9-0f65-4f23-a956-338936cc95d5","system_id":"levelo_inurba_marseille","lat":43.26563,"lon":5.39007,"is_reserved":false,"is_disabled":false,"rental_uris":{"android":"levelo://app?vid=cab1dcd9-0f65-4f23-a956-338936cc95d5","ios":"levelo://app?vid=cab1dcd9-0f65-4f23-a956-338936cc95d5"},"vehicle_type_id":"4","last_reported":1731291105,"current_range_meters":38800,"station_id":"ce4bhe12rcd13ifvqf30","pricing_plan_id":"cebpf4jnsgd1na2vs0mg"},{"bike_id":"8da2dc0f-286a-4a7c-bf69-4912bbd6400e","system_id":"levelo_inurba_marseille","lat":43.24662,"lon":5.38162,"is_reserved":false,"is_disabled":false,"rental_uris":{"android":"levelo://app?vid=8da2dc0f-286a-4a7c-bf69-4912bbd6400e","ios":"levelo://app?vid=8da2dc0f-286a-4a7c-bf69-4912bbd6400e"},"vehicle_type_id":"4","last_reported":1731291105,"current_range_meters":24400,"station_id":"ce4bhih2rcd13ifvqfr0","pricing_plan_id":"cebpf4jnsgd1na2vs0mg"},{"bike_id":"f903ea29-30fe-46ae-8eeb-7a1975d030a7","system_id":"levelo_inurba_marseille","lat":43.31728,"lon":5.37773,"is_reserved":false,"is_disabled":false,"rental_uris":{"android":"levelo://app?vid=f903ea29-30fe-46ae-8eeb-7a1975d030a7","ios":"levelo://app?vid=f903ea29-30fe-46ae-8eeb-7a1975d030a7"},"vehicle_type_id":"4","last_reported":1731291105,"current_range_meters":20000,"station_id":"ce4bgth2rcd13ifvqch0","pricing_plan_id":"cebpf4jnsgd1na2vs0mg"},{"bike_id":"f69caaac-d0eb-4fae-8177-5f92a32237a7","system_id":"levelo_inurba_marseille","lat":43.29715,"lon":5.37797,"is_reserved":false,"is_disabled":false,"rental_uris":{"android":"levelo://app?vid=f69caaac-d0eb-4fae-8177-5f92a32237a7","ios":"levelo://app?vid=f69caaac-d0eb-4fae-8177-5f92a32237a7"},"vehicle_type_id":"4","last_reported":1731291105,"current_range_meters":39200,"station_id":"ce4bgkh2rcd13ifvqbl0","pricing_plan_id":"cebpf4jnsgd1na2vs0mg"},{"bike_id":"5daf7e81-adca-4c69-ac49-7439dac41928","system_id":"levelo_inurba_marseille","lat":43.29551,"lon":5.42287,"is_reserved":false,"is_disabled":false,"rental_uris":{"android":"levelo://app?vid=5daf7e81-adca-4c69-ac49-7439dac41928","ios":"levelo://app?vid=5daf7e81-adca-4c69-ac49-7439dac41928"},"vehicle_type_id":"4","last_reported":1731291105,"current_range_meters":38800,"station_id":"ce4bhph2rcd13ifvqhdg","pricing_plan_id":"cebpf4jnsgd1na2vs0mg"},{"bike_id":"0d1fda9b-5e44-4ddf-8abc-e992f1e8622a","system_id":"levelo_inurba_marseille","lat":43.28458,"lon":5.35887,"is_reserved":false,"is_disabled":false,"rental_uris":{"android":"levelo://app?vid=0d1fda9b-5e44-4ddf-8abc-e992f1e8622a","ios":"levelo://app?vid=0d1fda9b-5e44-4ddf-8abc-e992f1e8622a"},"vehicle_type_id":"4","last_reported":1731291105,"current_range_meters":26000,"station_id":"ce4bhah2rcd13ifvqei0","pricing_plan_id":"cebpf4jnsgd1na2vs0mg"},{"bike_id":"2300ca5b-3406-4406-93d4-bb2eafdfc83d","system_id":"levelo_inurba_marseille","lat":43.2838,"lon":5.38637,"is_reserved":false,"is_disabled":false,"rental_uris":{"android":"levelo://app?vid=2300ca5b-3406-4406-93d4-bb2eafdfc83d","ios":"levelo://app?vid=2300ca5b-3406-4406-93d4-bb2eafdfc83d"},"vehicle_type_id":"4","last_reported":1731291105,"current_range_meters":38400,"station_id":"ce4bh492rcd13ifvqdvg","pricing_plan_id":"cebpf4jnsgd1na2vs0mg"},{"bike_id":"f3d63f4d-eadc-455d-b402-115d199e3de1","system_id":"levelo_inurba_marseille","lat":43.31084,"lon":5.42428,"is_reserved":false,"is_disabled":false,"rental_uris":{"android":"levelo://app?vid=f3d63f4d-eadc-455d-b402-115d199e3de1","ios":"levelo://app?vid=f3d63f4d-eadc-455d-b402-115d199e3de1"},"vehicle_type_id":"4","last_reported":1731291105,"current_range_meters":39200,"station_id":"ce4bhp92rcd13ifvqhag","pricing_plan_id":"cebpf4jnsgd1na2vs0mg"},{"bike_id":"b0436c84-a4da-4a3d-a57d-7a1a7366a2ae","system_id":"levelo_inurba_marseille","lat":43.27997,"lon":5.40016,"is_reserved":false,"is_disabled":false,"rental_uris":{"android":"levelo://app?vid=b0436c84-a4da-4a3d-a57d-7a1a7366a2ae","ios":"levelo://app?vid=b0436c84-a4da-4a3d-a57d-7a1a7366a2ae"},"vehicle_type_id":"4","last_reported":1731291105,"current_range_meters":38800,"station_id":"ce4bho92rcd13ifvqh4g","pricing_plan_id":"cebpf4jnsgd1na2vs0mg"},{"bike_id":"921708b5-acdf-4387-81df-b8a3576276ae","system_id":"levelo_inurba_marseille","lat":43.26497,"lon":5.3955,"is_reserved":false,"is_disabled":false,"rental_uris":{"android":"levelo://app?vid=921708b5-acdf-4387-81df-b8a3576276ae","ios":"levelo://app?vid=921708b5-acdf-4387-81df-b8a3576276ae"},"vehicle_type_id":"4","last_reported":1731291105,"current_range_meters":7200,"station_id":"ce4bhi12rcd13ifvqfq0","pricing_plan_id":"cebpf4jnsgd1na2vs0mg"},{"bike_id":"ad8c5293-23e8-4181-89e6-c66778d08992","system_id":"levelo_inurba_marseille","lat":43.30884,"lon":5.37185,"is_reserved":false,"is_disabled":false,"rental_uris":{"android":"levelo://app?vid=ad8c5293-23e8-4181-89e6-c66778d08992","ios":"levelo://app?vid=ad8c5293-23e8-4181-89e6-c66778d08992"},"vehicle_type_id":"4","last_reported":1731291105,"current_range_meters":28800,"station_id":"ce4bguh2rcd13ifvqckg","pricing_plan_id":"cebpf4jnsgd1na2vs0mg"},{"bike_id":"6d0d5526-2b6c-4eee-93d6-42c07dbe7b80","system_id":"levelo_inurba_marseille","lat":43.25502,"lon":5.37648,"is_reserved":false,"is_disabled":false,"rental_uris":{"android":"levelo://app?vid=6d0d5526-2b6c-4eee-93d6-42c07dbe7b80","ios":"levelo://app?vid=6d0d5526-2b6c-4eee-93d6-42c07dbe7b80"},"vehicle_type_id":"4","last_reported":1731291105,"current_range_meters":38000,"station_id":"ce4bhh12rcd13ifvqff0","pricing_plan_id":"cebpf4jnsgd1na2vs0mg"},{"bike_id":"0127d6b2-e8ca-44ea-a042-e15f538e1c04","system_id":"levelo_inurba_marseille","lat":43.28466,"lon":5.35882,"is_reserved":false,"is_disabled":false,"rental_uris":{"android":"levelo://app?vid=0127d6b2-e8ca-44ea-a042-e15f538e1c04","ios":"levelo://app?vid=0127d6b2-e8ca-44ea-a042-e15f538e1c04"},"vehicle_type_id":"4","last_reported":1731291105,"current_range_meters":39200,"station_id":"ce4bhah2rcd13ifvqei0","pricing_plan_id":"cebpf4jnsgd1na2vs0mg"},{"bike_id":"56787d84-a549-4d99-a053-5f0579c51891","system_id":"levelo_inurba_marseille","lat":43.24652,"lon":5.389,"is_reserved":false,"is_disabled":false,"rental_uris":{"android":"levelo://app?vid=56787d84-a549-4d99-a053-5f0579c51891","ios":"levelo://app?vid=56787d84-a549-4d99-a053-5f0579c51891"},"vehicle_type_id":"4","last_reported":1731291105,"current_range_meters":3200,"station_id":"ce4bhg12rcd13ifvqf60","pricing_plan_id":"cebpf4jnsgd1na2vs0mg"},{"bike_id":"40c39cd5-329e-440d-9a14-414f60fb6853","system_id":"levelo_inurba_marseille","lat":43.31711,"lon":5.37747,"is_reserved":false,"is_disabled":false,"rental_uris":{"android":"levelo://app?vid=40c39cd5-329e-440d-9a14-414f60fb6853","ios":"levelo://app?vid=40c39cd5-329e-440d-9a14-414f60fb6853"},"vehicle_type_id":"4","last_reported":1731291105,"current_range_meters":38800,"station_id":"ce4bgth2rcd13ifvqch0","pricing_plan_id":"cebpf4jnsgd1na2vs0mg"},{"bike_id":"eb073471-0896-456c-898b-45a479c62a95","system_id":"levelo_inurba_marseille","lat":43.31706,"lon":5.37771,"is_reserved":false,"is_disabled":false,"rental_uris":{"android":"levelo://app?vid=eb073471-0896-456c-898b-45a479c62a95","ios":"levelo://app?vid=eb073471-0896-456c-898b-45a479c62a95"},"vehicle_type_id":"4","last_reported":1731291105,"current_range_meters":30000,"station_id":"ce4bgth2rcd13ifvqch0","pricing_plan_id":"cebpf4jnsgd1na2vs0mg"},{"bike_id":"294704fb-8f95-4b35-8862-e42d43f15506","system_id":"levelo_inurba_marseille","lat":43.28714,"lon":5.37947,"is_reserved":false,"is_disabled":false,"rental_uris":{"android":"levelo://app?vid=294704fb-8f95-4b35-8862-e42d43f15506","ios":"levelo://app?vid=294704fb-8f95-4b35-8862-e42d43f15506"},"vehicle_type_id":"4","last_reported":1731291105,"current_range_meters":38400,"station_id":"ce4bh9p2rcd13ifvqec0","pricing_plan_id":"cebpf4jnsgd1na2vs0mg"},{"bike_id":"211370b9-fa11-4043-9839-d2de480f75ec","system_id":"levelo_inurba_marseille","lat":43.30782,"lon":5.3766,"is_reserved":false,"is_disabled":false,"rental_uris":{"android":"levelo://app?vid=211370b9-fa11-4043-9839-d2de480f75ec","ios":"levelo://app?vid=211370b9-fa11-4043-9839-d2de480f75ec"},"vehicle_type_id":"4","last_reported":1731291105,"current_range_meters":38800,"station_id":"ce4bgv92rcd13ifvqcq0","pricing_plan_id":"cebpf4jnsgd1na2vs0mg"},{"bike_id":"9919db7a-8b4f-4220-becb-f54e10b5b1b8","system_id":"levelo_inurba_marseille","lat":43.23056,"lon":5.35489,"is_reserved":false,"is_disabled":false,"rental_uris":{"android":"levelo://app?vid=9919db7a-8b4f-4220-becb-f54e10b5b1b8","ios":"levelo://app?vid=9919db7a-8b4f-4220-becb-f54e10b5b1b8"},"vehicle_type_id":"4","last_reported":1731291105,"current_range_meters":37600,"station_id":"cpo3342slgdg3j2ifvpg","pricing_plan_id":"cebpf4jnsgd1na2vs0mg"},{"bike_id":"b6dea35e-6994-4bc9-8df0-6e8080714556","system_id":"levelo_inurba_marseille","lat":43.28076,"lon":5.39655,"is_reserved":false,"is_disabled":false,"rental_uris":{"android":"levelo://app?vid=b6dea35e-6994-4bc9-8df0-6e8080714556","ios":"levelo://app?vid=b6dea35e-6994-4bc9-8df0-6e8080714556"},"vehicle_type_id":"4","last_reported":1731291105,"current_range_meters":20800,"station_id":"ce4bho12rcd13ifvqh2g","pricing_plan_id":"cebpf4jnsgd1na2vs0mg"},{"bike_id":"5f97782d-815c-42dc-80e8-ee294c3b183b","system_id":"levelo_inurba_marseille","lat":43.3361,"lon":5.41035,"is_reserved":false,"is_disabled":false,"rental_uris":{"android":"levelo://app?vid=5f97782d-815c-42dc-80e8-ee294c3b183b","ios":"levelo://app?vid=5f97782d-815c-42dc-80e8-ee294c3b183b"},"vehicle_type_id":"4","last_reported":1731291105,"current_range_meters":14400,"station_id":"ce4bhqh2rcd13ifvqhmg","pricing_plan_id":"cebpf4jnsgd1na2vs0mg"},{"bike_id":"bb785616-26a0-4eb0-931b-17957df5cea3","system_id":"levelo_inurba_marseille","lat":43.29542,"lon":5.42271,"is_reserved":false,"is_disabled":false,"rental_uris":{"android":"levelo://app?vid=bb785616-26a0-4eb0-931b-17957df5cea3","ios":"levelo://app?vid=bb785616-26a0-4eb0-931b-17957df5cea3"},"vehicle_type_id":"4","last_reported":1731291105,"current_range_meters":28400,"station_id":"ce4bhph2rcd13ifvqhdg","pricing_plan_id":"cebpf4jnsgd1na2vs0mg"},{"bike_id":"3b87dcfb-1a59-4717-86a1-4f8b3263c521","system_id":"levelo_inurba_marseille","lat":43.30595,"lon":5.39344,"is_reserved":false,"is_disabled":false,"rental_uris":{"android":"levelo://app?vid=3b87dcfb-1a59-4717-86a1-4f8b3263c521","ios":"levelo://app?vid=3b87dcfb-1a59-4717-86a1-4f8b3263c521"},"vehicle_type_id":"4","last_reported":1731291105,"current_range_meters":38000,"station_id":"ce4bh0p2rcd13ifvqd80","pricing_plan_id":"cebpf4jnsgd1na2vs0mg"},{"bike_id":"8d849bb1-7cf9-4e01-9cb5-f5ba26591069","system_id":"levelo_inurba_marseille","lat":43.301814,"lon":5.366285,"is_reserved":false,"is_disabled":false,"rental_uris":{"android":"levelo://app?vid=8d849bb1-7cf9-4e01-9cb5-f5ba26591069","ios":"levelo://app?vid=8d849bb1-7cf9-4e01-9cb5-f5ba26591069"},"vehicle_type_id":"4","last_reported":1731291105,"current_range_meters":37600,"station_id":"ce4bgrh2rcd13ifvqc8g","pricing_plan_id":"cebpf4jnsgd1na2vs0mg"},{"bike_id":"2cfd6c68-b0ed-4ae3-9fae-dfd166b591a0","system_id":"levelo_inurba_marseille","lat":43.29609,"lon":5.37127,"is_reserved":false,"is_disabled":false,"rental_uris":{"android":"levelo://app?vid=2cfd6c68-b0ed-4ae3-9fae-dfd166b591a0","ios":"levelo://app?vid=2cfd6c68-b0ed-4ae3-9fae-dfd166b591a0"},"vehicle_type_id":"4","last_reported":1731291105,"current_range_meters":19600,"station_id":"","pricing_plan_id":"cebpf4jnsgd1na2vs0mg"},{"bike_id":"2ee32fd1-f8f7-4cea-a813-14501e29cb92","system_id":"levelo_inurba_marseille","lat":43.31689,"lon":5.43713,"is_reserved":false,"is_disabled":false,"rental_uris":{"android":"levelo://app?vid=2ee32fd1-f8f7-4cea-a813-14501e29cb92","ios":"levelo://app?vid=2ee32fd1-f8f7-4cea-a813-14501e29cb92"},"vehicle_type_id":"4","last_reported":1731291105,"current_range_meters":38400,"station_id":"ce4bhp92rcd13ifvqhcg","pricing_plan_id":"cebpf4jnsgd1na2vs0mg"},{"bike_id":"449ca392-1223-4a90-9d9f-0063cfc86e2c","system_id":"levelo_inurba_marseille","lat":43.28413,"lon":5.37519,"is_reserved":false,"is_disabled":false,"rental_uris":{"android":"levelo://app?vid=449ca392-1223-4a90-9d9f-0063cfc86e2c","ios":"levelo://app?vid=449ca392-1223-4a90-9d9f-0063cfc86e2c"},"vehicle_type_id":"4","last_reported":1731291105,"current_range_meters":36400,"station_id":"ce4bh412rcd13ifvqds0","pricing_plan_id":"cebpf4jnsgd1na2vs0mg"},{"bike_id":"8b949a42-149c-4b95-8499-b2f5cd111d1a","system_id":"levelo_inurba_marseille","lat":43.32357,"lon":5.40621,"is_reserved":false,"is_disabled":false,"rental_uris":{"android":"levelo://app?vid=8b949a42-149c-4b95-8499-b2f5cd111d1a","ios":"levelo://app?vid=8b949a42-149c-4b95-8499-b2f5cd111d1a"},"vehicle_type_id":"4","last_reported":1731291105,"current_range_meters":8000,"station_id":"ce4bhq92rcd13ifvqhjg","pricing_plan_id":"cebpf4jnsgd1na2vs0mg"},{"bike_id":"2c64ebb9-fed0-462d-94a9-d6ddbdfa532a","system_id":"levelo_inurba_marseille","lat":43.24645,"lon":5.38894,"is_reserved":false,"is_disabled":false,"rental_uris":{"android":"levelo://app?vid=2c64ebb9-fed0-462d-94a9-d6ddbdfa532a","ios":"levelo://app?vid=2c64ebb9-fed0-462d-94a9-d6ddbdfa532a"},"vehicle_type_id":"4","last_reported":1731291105,"current_range_meters":37600,"station_id":"ce4bhg12rcd13ifvqf60","pricing_plan_id":"cebpf4jnsgd1na2vs0mg"},{"bike_id":"d46cca38-ed3b-48b1-86da-4f669b2e379e","system_id":"levelo_inurba_marseille","lat":43.24384,"lon":5.37055,"is_reserved":false,"is_disabled":false,"rental_uris":{"android":"levelo://app?vid=d46cca38-ed3b-48b1-86da-4f669b2e379e","ios":"levelo://app?vid=d46cca38-ed3b-48b1-86da-4f669b2e379e"},"vehicle_type_id":"4","last_reported":1731291105,"current_range_meters":28400,"station_id":"ce4bhhh2rcd13ifvqfk0","pricing_plan_id":"cebpf4jnsgd1na2vs0mg"},{"bike_id":"53842b0b-662f-45de-89f4-2ac07b1eadcf","system_id":"levelo_inurba_marseille","lat":43.28108,"lon":5.37844,"is_reserved":false,"is_disabled":false,"rental_uris":{"android":"levelo://app?vid=53842b0b-662f-45de-89f4-2ac07b1eadcf","ios":"levelo://app?vid=53842b0b-662f-45de-89f4-2ac07b1eadcf"},"vehicle_type_id":"4","last_reported":1731291105,"current_range_meters":23200,"station_id":"ce4bha12rcd13ifvqee0","pricing_plan_id":"cebpf4jnsgd1na2vs0mg"},{"bike_id":"659f7423-2cbb-4e17-8758-d57f133051ba","system_id":"levelo_inurba_marseille","lat":43.28102,"lon":5.37843,"is_reserved":false,"is_disabled":false,"rental_uris":{"android":"levelo://app?vid=659f7423-2cbb-4e17-8758-d57f133051ba","ios":"levelo://app?vid=659f7423-2cbb-4e17-8758-d57f133051ba"},"vehicle_type_id":"4","last_reported":1731291105,"current_range_meters":34800,"station_id":"ce4bha12rcd13ifvqee0","pricing_plan_id":"cebpf4jnsgd1na2vs0mg"},{"bike_id":"c8d91525-1ae3-436d-89fc-f20985c98c61","system_id":"levelo_inurba_marseille","lat":43.26586,"lon":5.39009,"is_reserved":false,"is_disabled":false,"rental_uris":{"android":"levelo://app?vid=c8d91525-1ae3-436d-89fc-f20985c98c61","ios":"levelo://app?vid=c8d91525-1ae3-436d-89fc-f20985c98c61"},"vehicle_type_id":"4","last_reported":1731291105,"current_range_meters":35200,"station_id":"ce4bhe12rcd13ifvqf30","pricing_plan_id":"cebpf4jnsgd1na2vs0mg"},{"bike_id":"30e346e6-71d5-4935-973d-c9a61e3a2f99","system_id":"levelo_inurba_marseille","lat":43.30338,"lon":5.435,"is_reserved":false,"is_disabled":false,"rental_uris":{"android":"levelo://app?vid=30e346e6-71d5-4935-973d-c9a61e3a2f99","ios":"levelo://app?vid=30e346e6-71d5-4935-973d-c9a61e3a2f99"},"vehicle_type_id":"4","last_reported":1731291105,"current_range_meters":17200,"station_id":"","pricing_plan_id":"cebpf4jnsgd1na2vs0mg"},{"bike_id":"b101c052-f815-4d93-a3a9-fa872f005f65","system_id":"levelo_inurba_marseille","lat":43.30551,"lon":5.38437,"is_reserved":false,"is_disabled":false,"rental_uris":{"android":"levelo://app?vid=b101c052-f815-4d93-a3a9-fa872f005f65","ios":"levelo://app?vid=b101c052-f815-4d93-a3a9-fa872f005f65"},"vehicle_type_id":"4","last_reported":1731291105,"current_range_meters":38400,"station_id":"ce4bgg92rcd13ifvqb30","pricing_plan_id":"cebpf4jnsgd1na2vs0mg"},{"bike_id":"f3d00c04-ef69-40fc-a4d6-2239e4af165d","system_id":"levelo_inurba_marseille","lat":43.29056,"lon":5.35898,"is_reserved":false,"is_disabled":false,"rental_uris":{"android":"levelo://app?vid=f3d00c04-ef69-40fc-a4d6-2239e4af165d","ios":"levelo://app?vid=f3d00c04-ef69-40fc-a4d6-2239e4af165d"},"vehicle_type_id":"4","last_reported":1731291105,"current_range_meters":27600,"station_id":"ce4bha92rcd13ifvqeg0","pricing_plan_id":"cebpf4jnsgd1na2vs0mg"},{"bike_id":"8b98e6af-c3a0-4f14-9185-4db3640f02e5","system_id":"levelo_inurba_marseille","lat":43.28724,"lon":5.3608,"is_reserved":false,"is_disabled":false,"rental_uris":{"android":"levelo://app?vid=8b98e6af-c3a0-4f14-9185-4db3640f02e5","ios":"levelo://app?vid=8b98e6af-c3a0-4f14-9185-4db3640f02e5"},"vehicle_type_id":"4","last_reported":1731291105,"current_range_meters":35200,"station_id":"cki0cbj6b192h4jlfktg","pricing_plan_id":"cebpf4jnsgd1na2vs0mg"},{"bike_id":"b079ea28-1615-441e-9a0f-5be72eba61d6","system_id":"levelo_inurba_marseille","lat":43.26947,"lon":5.40251,"is_reserved":false,"is_disabled":false,"rental_uris":{"android":"levelo://app?vid=b079ea28-1615-441e-9a0f-5be72eba61d6","ios":"levelo://app?vid=b079ea28-1615-441e-9a0f-5be72eba61d6"},"vehicle_type_id":"4","last_reported":1731291105,"current_range_meters":6000,"station_id":"cjm6bp8fraef2m0cb0m0","pricing_plan_id":"cebpf4jnsgd1na2vs0mg"},{"bike_id":"c221efe7-efcb-49b8-a1b0-1dd8d171a453","system_id":"levelo_inurba_marseille","lat":43.33728,"lon":5.39204,"is_reserved":false,"is_disabled":false,"rental_uris":{"android":"levelo://app?vid=c221efe7-efcb-49b8-a1b0-1dd8d171a453","ios":"levelo://app?vid=c221efe7-efcb-49b8-a1b0-1dd8d171a453"},"vehicle_type_id":"4","last_reported":1731291105,"current_range_meters":38000,"station_id":"ce4bhr92rcd13ifvqhsg","pricing_plan_id":"cebpf4jnsgd1na2vs0mg"},{"bike_id":"b798777d-3520-45a5-a7f7-ea61f9eff27a","system_id":"levelo_inurba_marseille","lat":43.26048,"lon":5.39373,"is_reserved":false,"is_disabled":false,"rental_uris":{"android":"levelo://app?vid=b798777d-3520-45a5-a7f7-ea61f9eff27a","ios":"levelo://app?vid=b798777d-3520-45a5-a7f7-ea61f9eff27a"},"vehicle_type_id":"4","last_reported":1731291105,"current_range_meters":37600,"station_id":"ce4bhh92rcd13ifvqfj0","pricing_plan_id":"cebpf4jnsgd1na2vs0mg"},{"bike_id":"69b05dc1-5376-472f-a35d-b50c76a10800","system_id":"levelo_inurba_marseille","lat":43.24815,"lon":5.37467,"is_reserved":false,"is_disabled":false,"rental_uris":{"android":"levelo://app?vid=69b05dc1-5376-472f-a35d-b50c76a10800","ios":"levelo://app?vid=69b05dc1-5376-472f-a35d-b50c76a10800"},"vehicle_type_id":"4","last_reported":1731291105,"current_range_meters":38000,"station_id":"ce4bhgh2rcd13ifvqfb0","pricing_plan_id":"cebpf4jnsgd1na2vs0mg"},{"bike_id":"546e0fdd-9619-4707-9922-9f23d876d7b7","system_id":"levelo_inurba_marseille","lat":43.24793,"lon":5.374516,"is_reserved":false,"is_disabled":false,"rental_uris":{"android":"levelo://app?vid=546e0fdd-9619-4707-9922-9f23d876d7b7","ios":"levelo://app?vid=546e0fdd-9619-4707-9922-9f23d876d7b7"},"vehicle_type_id":"4","last_reported":1731291105,"current_range_meters":39200,"station_id":"ce4bhgh2rcd13ifvqfb0","pricing_plan_id":"cebpf4jnsgd1na2vs0mg"},{"bike_id":"75f18540-6c7f-430d-a6a0-268f83c979e3","system_id":"levelo_inurba_marseille","lat":43.30601,"lon":5.37243,"is_reserved":false,"is_disabled":false,"rental_uris":{"android":"levelo://app?vid=75f18540-6c7f-430d-a6a0-268f83c979e3","ios":"levelo://app?vid=75f18540-6c7f-430d-a6a0-268f83c979e3"},"vehicle_type_id":"4","last_reported":1731291105,"current_range_meters":39200,"station_id":"ce4bgqh2rcd13ifvqc4g","pricing_plan_id":"cebpf4jnsgd1na2vs0mg"},{"bike_id":"2fe64070-675b-46be-9d93-6c8ed825cc13","system_id":"levelo_inurba_marseille","lat":43.31327,"lon":5.39681,"is_reserved":false,"is_disabled":false,"rental_uris":{"android":"levelo://app?vid=2fe64070-675b-46be-9d93-6c8ed825cc13","ios":"levelo://app?vid=2fe64070-675b-46be-9d93-6c8ed825cc13"},"vehicle_type_id":"4","last_reported":1731291105,"current_range_meters":26000,"station_id":"ce4bgvp2rcd13ifvqcu0","pricing_plan_id":"cebpf4jnsgd1na2vs0mg"},{"bike_id":"333a8fd1-0af5-4d2d-8e99-f8610bc57a84","system_id":"levelo_inurba_marseille","lat":43.23958,"lon":5.36636,"is_reserved":false,"is_disabled":false,"rental_uris":{"android":"levelo://app?vid=333a8fd1-0af5-4d2d-8e99-f8610bc57a84","ios":"levelo://app?vid=333a8fd1-0af5-4d2d-8e99-f8610bc57a84"},"vehicle_type_id":"4","last_reported":1731291105,"current_range_meters":12400,"station_id":"ce4bhi12rcd13ifvqfp0","pricing_plan_id":"cebpf4jnsgd1na2vs0mg"},{"bike_id":"14ccbaba-cf1f-4790-b10b-e5a2f71db694","system_id":"levelo_inurba_marseille","lat":43.28443,"lon":5.39202,"is_reserved":false,"is_disabled":false,"rental_uris":{"android":"levelo://app?vid=14ccbaba-cf1f-4790-b10b-e5a2f71db694","ios":"levelo://app?vid=14ccbaba-cf1f-4790-b10b-e5a2f71db694"},"vehicle_type_id":"4","last_reported":1731291105,"current_range_meters":36000,"station_id":"ce4bhoh2rcd13ifvqh5g","pricing_plan_id":"cebpf4jnsgd1na2vs0mg"},{"bike_id":"1264fbec-4891-49d8-8db8-4f4ff8f5e1bc","system_id":"levelo_inurba_marseille","lat":43.30422,"lon":5.38882,"is_reserved":false,"is_disabled":false,"rental_uris":{"android":"levelo://app?vid=1264fbec-4891-49d8-8db8-4f4ff8f5e1bc","ios":"levelo://app?vid=1264fbec-4891-49d8-8db8-4f4ff8f5e1bc"},"vehicle_type_id":"4","last_reported":1731291105,"current_range_meters":17200,"station_id":"ce4bgk12rcd13ifvqbi0","pricing_plan_id":"cebpf4jnsgd1na2vs0mg"},{"bike_id":"1b801f9e-f843-4459-baf9-f66996adf626","system_id":"levelo_inurba_marseille","lat":43.32367,"lon":5.38873,"is_reserved":false,"is_disabled":false,"rental_uris":{"android":"levelo://app?vid=1b801f9e-f843-4459-baf9-f66996adf626","ios":"levelo://app?vid=1b801f9e-f843-4459-baf9-f66996adf626"},"vehicle_type_id":"4","last_reported":1731291105,"current_range_meters":21600,"station_id":"ce4bhqp2rcd13ifvqhog","pricing_plan_id":"cebpf4jnsgd1na2vs0mg"},{"bike_id":"2972f759-c98e-4fe7-9758-85d215895273","system_id":"levelo_inurba_marseille","lat":43.23952,"lon":5.36629,"is_reserved":false,"is_disabled":false,"rental_uris":{"android":"levelo://app?vid=2972f759-c98e-4fe7-9758-85d215895273","ios":"levelo://app?vid=2972f759-c98e-4fe7-9758-85d215895273"},"vehicle_type_id":"4","last_reported":1731291105,"current_range_meters":33200,"station_id":"ce4bhi12rcd13ifvqfp0","pricing_plan_id":"cebpf4jnsgd1na2vs0mg"},{"bike_id":"e760937c-84fb-45b7-a500-463bd870cd74","system_id":"levelo_inurba_marseille","lat":43.28702,"lon":5.37945,"is_reserved":false,"is_disabled":false,"rental_uris":{"android":"levelo://app?vid=e760937c-84fb-45b7-a500-463bd870cd74","ios":"levelo://app?vid=e760937c-84fb-45b7-a500-463bd870cd74"},"vehicle_type_id":"4","last_reported":1731291105,"current_range_meters":25200,"station_id":"ce4bh9p2rcd13ifvqec0","pricing_plan_id":"cebpf4jnsgd1na2vs0mg"},{"bike_id":"706b5eef-ae05-4377-a33d-d98da68cbe98","system_id":"levelo_inurba_marseille","lat":43.26551,"lon":5.37286,"is_reserved":false,"is_disabled":false,"rental_uris":{"android":"levelo://app?vid=706b5eef-ae05-4377-a33d-d98da68cbe98","ios":"levelo://app?vid=706b5eef-ae05-4377-a33d-d98da68cbe98"},"vehicle_type_id":"4","last_reported":1731291105,"current_range_meters":21600,"station_id":"ce4bhg12rcd13ifvqf70","pricing_plan_id":"cebpf4jnsgd1na2vs0mg"},{"bike_id":"4769bc6f-dec8-41e8-9b0a-570d8bc7583c","system_id":"levelo_inurba_marseille","lat":43.31302,"lon":5.36727,"is_reserved":false,"is_disabled":false,"rental_uris":{"android":"levelo://app?vid=4769bc6f-dec8-41e8-9b0a-570d8bc7583c","ios":"levelo://app?vid=4769bc6f-dec8-41e8-9b0a-570d8bc7583c"},"vehicle_type_id":"4","last_reported":1731291105,"current_range_meters":38800,"station_id":"ce4bgr92rcd13ifvqc6g","pricing_plan_id":"cebpf4jnsgd1na2vs0mg"},{"bike_id":"9330ba64-e8ac-48b5-95c4-35c2d0e50f70","system_id":"levelo_inurba_marseille","lat":43.25118,"lon":5.40318,"is_reserved":false,"is_disabled":false,"rental_uris":{"android":"levelo://app?vid=9330ba64-e8ac-48b5-95c4-35c2d0e50f70","ios":"levelo://app?vid=9330ba64-e8ac-48b5-95c4-35c2d0e50f70"},"vehicle_type_id":"4","last_reported":1731291105,"current_range_meters":27600,"station_id":"ce4bhlh2rcd13ifvqgig","pricing_plan_id":"cebpf4jnsgd1na2vs0mg"},{"bike_id":"0b0a755d-c63f-4ec7-9494-303c23789b84","system_id":"levelo_inurba_marseille","lat":43.31172,"lon":5.38709,"is_reserved":false,"is_disabled":false,"rental_uris":{"android":"levelo://app?vid=0b0a755d-c63f-4ec7-9494-303c23789b84","ios":"levelo://app?vid=0b0a755d-c63f-4ec7-9494-303c23789b84"},"vehicle_type_id":"4","last_reported":1731291105,"current_range_meters":33200,"station_id":"ce4bgv12rcd13ifvqcp0","pricing_plan_id":"cebpf4jnsgd1na2vs0mg"},{"bike_id":"f0810896-1e05-418a-bfdf-2350a695cef6","system_id":"levelo_inurba_marseille","lat":43.27618,"lon":5.36081,"is_reserved":false,"is_disabled":false,"rental_uris":{"android":"levelo://app?vid=f0810896-1e05-418a-bfdf-2350a695cef6","ios":"levelo://app?vid=f0810896-1e05-418a-bfdf-2350a695cef6"},"vehicle_type_id":"4","last_reported":1731291105,"current_range_meters":2000,"station_id":"ce4bgj92rcd13ifvqbe0","pricing_plan_id":"cebpf4jnsgd1na2vs0mg"},{"bike_id":"10dbd38b-1598-4db5-82f8-224c526f7a15","system_id":"levelo_inurba_marseille","lat":43.31076,"lon":5.38342,"is_reserved":false,"is_disabled":false,"rental_uris":{"android":"levelo://app?vid=10dbd38b-1598-4db5-82f8-224c526f7a15","ios":"levelo://app?vid=10dbd38b-1598-4db5-82f8-224c526f7a15"},"vehicle_type_id":"4","last_reported":1731291105,"current_range_meters":22000,"station_id":"ce4bgv92rcd13ifvqcr0","pricing_plan_id":"cebpf4jnsgd1na2vs0mg"},{"bike_id":"ea20df8f-1c47-4a12-b93e-fc146f527fca","system_id":"levelo_inurba_marseille","lat":43.3131,"lon":5.39688,"is_reserved":false,"is_disabled":false,"rental_uris":{"android":"levelo://app?vid=ea20df8f-1c47-4a12-b93e-fc146f527fca","ios":"levelo://app?vid=ea20df8f-1c47-4a12-b93e-fc146f527fca"},"vehicle_type_id":"4","last_reported":1731291105,"current_range_meters":36800,"station_id":"ce4bgvp2rcd13ifvqcu0","pricing_plan_id":"cebpf4jnsgd1na2vs0mg"},{"bike_id":"4c4b1438-0e32-4ef2-94c5-21cf434d843d","system_id":"levelo_inurba_marseille","lat":43.31722,"lon":5.42398,"is_reserved":false,"is_disabled":false,"rental_uris":{"android":"levelo://app?vid=4c4b1438-0e32-4ef2-94c5-21cf434d843d","ios":"levelo://app?vid=4c4b1438-0e32-4ef2-94c5-21cf434d843d"},"vehicle_type_id":"4","last_reported":1731291105,"current_range_meters":20800,"station_id":"ce4bhp92rcd13ifvqhbg","pricing_plan_id":"cebpf4jnsgd1na2vs0mg"},{"bike_id":"55bc1d4d-769e-430a-8524-e818a77ccb19","system_id":"levelo_inurba_marseille","lat":43.2315,"lon":5.43723,"is_reserved":false,"is_disabled":false,"rental_uris":{"android":"levelo://app?vid=55bc1d4d-769e-430a-8524-e818a77ccb19","ios":"levelo://app?vid=55bc1d4d-769e-430a-8524-e818a77ccb19"},"vehicle_type_id":"4","last_reported":1731291105,"current_range_meters":10000,"station_id":"ce4bhmp2rcd13ifvqgog","pricing_plan_id":"cebpf4jnsgd1na2vs0mg"},{"bike_id":"f5e15a2f-e8a2-4d92-b750-56640dcc1ec0","system_id":"levelo_inurba_marseille","lat":43.33022,"lon":5.39046,"is_reserved":false,"is_disabled":false,"rental_uris":{"android":"levelo://app?vid=f5e15a2f-e8a2-4d92-b750-56640dcc1ec0","ios":"levelo://app?vid=f5e15a2f-e8a2-4d92-b750-56640dcc1ec0"},"vehicle_type_id":"4","last_reported":1731291105,"current_range_meters":36800,"station_id":"ce4bhr92rcd13ifvqhrg","pricing_plan_id":"cebpf4jnsgd1na2vs0mg"},{"bike_id":"18c74619-dccd-4ba8-8194-fa49377da749","system_id":"levelo_inurba_marseille","lat":43.3042,"lon":5.41286,"is_reserved":false,"is_disabled":false,"rental_uris":{"android":"levelo://app?vid=18c74619-dccd-4ba8-8194-fa49377da749","ios":"levelo://app?vid=18c74619-dccd-4ba8-8194-fa49377da749"},"vehicle_type_id":"4","last_reported":1731291105,"current_range_meters":24000,"station_id":"ce4bhop2rcd13ifvqh8g","pricing_plan_id":"cebpf4jnsgd1na2vs0mg"},{"bike_id":"3a74e668-c81c-4ede-a059-9116e8f90e9b","system_id":"levelo_inurba_marseille","lat":43.23153,"lon":5.43708,"is_reserved":false,"is_disabled":false,"rental_uris":{"android":"levelo://app?vid=3a74e668-c81c-4ede-a059-9116e8f90e9b","ios":"levelo://app?vid=3a74e668-c81c-4ede-a059-9116e8f90e9b"},"vehicle_type_id":"4","last_reported":1731291105,"current_range_meters":10800,"station_id":"ce4bhmp2rcd13ifvqgog","pricing_plan_id":"cebpf4jnsgd1na2vs0mg"},{"bike_id":"c961734d-c5ad-44f3-a7ab-a999312fe292","system_id":"levelo_inurba_marseille","lat":43.28625,"lon":5.35107,"is_reserved":false,"is_disabled":false,"rental_uris":{"android":"levelo://app?vid=c961734d-c5ad-44f3-a7ab-a999312fe292","ios":"levelo://app?vid=c961734d-c5ad-44f3-a7ab-a999312fe292"},"vehicle_type_id":"4","last_reported":1731291105,"current_range_meters":14400,"station_id":"ce4bhch2rcd13ifvqeug","pricing_plan_id":"cebpf4jnsgd1na2vs0mg"},{"bike_id":"b9478b1d-79e3-44c9-ae60-496dd5151f62","system_id":"levelo_inurba_marseille","lat":43.29166,"lon":5.37142,"is_reserved":false,"is_disabled":false,"rental_uris":{"android":"levelo://app?vid=b9478b1d-79e3-44c9-ae60-496dd5151f62","ios":"levelo://app?vid=b9478b1d-79e3-44c9-ae60-496dd5151f62"},"vehicle_type_id":"4","last_reported":1731291105,"current_range_meters":28000,"station_id":"ce4bha92rcd13ifvqeh0","pricing_plan_id":"cebpf4jnsgd1na2vs0mg"},{"bike_id":"e0f90736-d70e-4a60-bf44-78db88bea637","system_id":"levelo_inurba_marseille","lat":43.24076,"lon":5.37763,"is_reserved":false,"is_disabled":false,"rental_uris":{"android":"levelo://app?vid=e0f90736-d70e-4a60-bf44-78db88bea637","ios":"levelo://app?vid=e0f90736-d70e-4a60-bf44-78db88bea637"},"vehicle_type_id":"4","last_reported":1731291105,"current_range_meters":17600,"station_id":"ce4bhnp2rcd13ifvqgvg","pricing_plan_id":"cebpf4jnsgd1na2vs0mg"},{"bike_id":"eb7f2906-b458-476c-9daa-9e60c1ee4455","system_id":"levelo_inurba_marseille","lat":43.28158,"lon":5.42627,"is_reserved":false,"is_disabled":false,"rental_uris":{"android":"levelo://app?vid=eb7f2906-b458-476c-9daa-9e60c1ee4455","ios":"levelo://app?vid=eb7f2906-b458-476c-9daa-9e60c1ee4455"},"vehicle_type_id":"4","last_reported":1731291105,"current_range_meters":39200,"station_id":"ce4bhnh2rcd13ifvqgug","pricing_plan_id":"cebpf4jnsgd1na2vs0mg"},{"bike_id":"a2b23be7-d785-42b2-8de6-0b0cf8d51976","system_id":"levelo_inurba_marseille","lat":43.30903,"lon":5.37236,"is_reserved":false,"is_disabled":false,"rental_uris":{"android":"levelo://app?vid=a2b23be7-d785-42b2-8de6-0b0cf8d51976","ios":"levelo://app?vid=a2b23be7-d785-42b2-8de6-0b0cf8d51976"},"vehicle_type_id":"4","last_reported":1731291105,"current_range_meters":3600,"station_id":"ce4bguh2rcd13ifvqckg","pricing_plan_id":"cebpf4jnsgd1na2vs0mg"},{"bike_id":"9fe48acf-6a1b-404d-b918-a38e9e9af4b5","system_id":"levelo_inurba_marseille","lat":43.27921,"lon":5.38013,"is_reserved":false,"is_disabled":false,"rental_uris":{"android":"levelo://app?vid=9fe48acf-6a1b-404d-b918-a38e9e9af4b5","ios":"levelo://app?vid=9fe48acf-6a1b-404d-b918-a38e9e9af4b5"},"vehicle_type_id":"4","last_reported":1731291105,"current_range_meters":34800,"station_id":"ce4bhf92rcd13ifvqf50","pricing_plan_id":"cebpf4jnsgd1na2vs0mg"},{"bike_id":"606120ec-c12c-47f4-b7e9-0220feacd55e","system_id":"levelo_inurba_marseille","lat":43.25873,"lon":5.39894,"is_reserved":false,"is_disabled":false,"rental_uris":{"android":"levelo://app?vid=606120ec-c12c-47f4-b7e9-0220feacd55e","ios":"levelo://app?vid=606120ec-c12c-47f4-b7e9-0220feacd55e"},"vehicle_type_id":"4","last_reported":1731291105,"current_range_meters":38800,"station_id":"ce4bhl92rcd13ifvqghg","pricing_plan_id":"cebpf4jnsgd1na2vs0mg"},{"bike_id":"ab1cebea-574c-4d48-8674-090c1eaf91c2","system_id":"levelo_inurba_marseille","lat":43.30417,"lon":5.41288,"is_reserved":false,"is_disabled":false,"rental_uris":{"android":"levelo://app?vid=ab1cebea-574c-4d48-8674-090c1eaf91c2","ios":"levelo://app?vid=ab1cebea-574c-4d48-8674-090c1eaf91c2"},"vehicle_type_id":"4","last_reported":1731291105,"current_range_meters":10800,"station_id":"ce4bhop2rcd13ifvqh8g","pricing_plan_id":"cebpf4jnsgd1na2vs0mg"},{"bike_id":"c853d64b-97bb-4172-a6fa-f2cf9b1d8cd6","system_id":"levelo_inurba_marseille","lat":43.30432,"lon":5.39759,"is_reserved":false,"is_disabled":false,"rental_uris":{"android":"levelo://app?vid=c853d64b-97bb-4172-a6fa-f2cf9b1d8cd6","ios":"levelo://app?vid=c853d64b-97bb-4172-a6fa-f2cf9b1d8cd6"},"vehicle_type_id":"4","last_reported":1731291105,"current_range_meters":39200,"station_id":"ce4bh092rcd13ifvqd20","pricing_plan_id":"cebpf4jnsgd1na2vs0mg"},{"bike_id":"a8411e45-d741-49af-bae3-6b83ebf0b203","system_id":"levelo_inurba_marseille","lat":43.27499,"lon":5.4246,"is_reserved":false,"is_disabled":false,"rental_uris":{"android":"levelo://app?vid=a8411e45-d741-49af-bae3-6b83ebf0b203","ios":"levelo://app?vid=a8411e45-d741-49af-bae3-6b83ebf0b203"},"vehicle_type_id":"4","last_reported":1731291105,"current_range_meters":39200,"station_id":"ce4bhn92rcd13ifvqgrg","pricing_plan_id":"cebpf4jnsgd1na2vs0mg"},{"bike_id":"9afb5c29-8e22-45a3-967b-43d172a05128","system_id":"levelo_inurba_marseille","lat":43.30306,"lon":5.39194,"is_reserved":false,"is_disabled":false,"rental_uris":{"android":"levelo://app?vid=9afb5c29-8e22-45a3-967b-43d172a05128","ios":"levelo://app?vid=9afb5c29-8e22-45a3-967b-43d172a05128"},"vehicle_type_id":"4","last_reported":1731291105,"current_range_meters":32400,"station_id":"ce4bgkh2rcd13ifvqbk0","pricing_plan_id":"cebpf4jnsgd1na2vs0mg"},{"bike_id":"e60cacc4-ae87-489f-ae4e-597f8ac99365","system_id":"levelo_inurba_marseille","lat":43.28158,"lon":5.42631,"is_reserved":false,"is_disabled":false,"rental_uris":{"android":"levelo://app?vid=e60cacc4-ae87-489f-ae4e-597f8ac99365","ios":"levelo://app?vid=e60cacc4-ae87-489f-ae4e-597f8ac99365"},"vehicle_type_id":"4","last_reported":1731291105,"current_range_meters":32800,"station_id":"ce4bhnh2rcd13ifvqgug","pricing_plan_id":"cebpf4jnsgd1na2vs0mg"},{"bike_id":"e95b8cd3-8187-4bbf-b764-d863494bc80c","system_id":"levelo_inurba_marseille","lat":43.33606,"lon":5.41026,"is_reserved":false,"is_disabled":false,"rental_uris":{"android":"levelo://app?vid=e95b8cd3-8187-4bbf-b764-d863494bc80c","ios":"levelo://app?vid=e95b8cd3-8187-4bbf-b764-d863494bc80c"},"vehicle_type_id":"4","last_reported":1731291105,"current_range_meters":9600,"station_id":"ce4bhqh2rcd13ifvqhmg","pricing_plan_id":"cebpf4jnsgd1na2vs0mg"},{"bike_id":"489b672c-9f71-4c7e-abe4-e6dc15515dd7","system_id":"levelo_inurba_marseille","lat":43.31323,"lon":5.39714,"is_reserved":false,"is_disabled":false,"rental_uris":{"android":"levelo://app?vid=489b672c-9f71-4c7e-abe4-e6dc15515dd7","ios":"levelo://app?vid=489b672c-9f71-4c7e-abe4-e6dc15515dd7"},"vehicle_type_id":"4","last_reported":1731291105,"current_range_meters":32800,"station_id":"ce4bgvp2rcd13ifvqcu0","pricing_plan_id":"cebpf4jnsgd1na2vs0mg"},{"bike_id":"cf6d79fc-4a66-4fa3-85d2-00a7383ecc16","system_id":"levelo_inurba_marseille","lat":43.341405,"lon":5.409065,"is_reserved":false,"is_disabled":false,"rental_uris":{"android":"levelo://app?vid=cf6d79fc-4a66-4fa3-85d2-00a7383ecc16","ios":"levelo://app?vid=cf6d79fc-4a66-4fa3-85d2-00a7383ecc16"},"vehicle_type_id":"4","last_reported":1731291105,"current_range_meters":16000,"station_id":"ce4bhqh2rcd13ifvqhlg","pricing_plan_id":"cebpf4jnsgd1na2vs0mg"},{"bike_id":"aa20706e-8c7a-437d-8991-ef06613a0f1c","system_id":"levelo_inurba_marseille","lat":43.29228,"lon":5.39341,"is_reserved":false,"is_disabled":false,"rental_uris":{"android":"levelo://app?vid=aa20706e-8c7a-437d-8991-ef06613a0f1c","ios":"levelo://app?vid=aa20706e-8c7a-437d-8991-ef06613a0f1c"},"vehicle_type_id":"4","last_reported":1731291105,"current_range_meters":36000,"station_id":"","pricing_plan_id":"cebpf4jnsgd1na2vs0mg"},{"bike_id":"465ef657-63c6-4af2-8920-28c4dcb4d943","system_id":"levelo_inurba_marseille","lat":43.29035,"lon":5.39997,"is_reserved":false,"is_disabled":false,"rental_uris":{"android":"levelo://app?vid=465ef657-63c6-4af2-8920-28c4dcb4d943","ios":"levelo://app?vid=465ef657-63c6-4af2-8920-28c4dcb4d943"},"vehicle_type_id":"4","last_reported":1731291105,"current_range_meters":39200,"station_id":"ce4bh392rcd13ifvqdm0","pricing_plan_id":"cebpf4jnsgd1na2vs0mg"},{"bike_id":"0845e7cd-2a20-421e-b3c5-0522b6ef9837","system_id":"levelo_inurba_marseille","lat":43.30805,"lon":5.3817,"is_reserved":false,"is_disabled":false,"rental_uris":{"android":"levelo://app?vid=0845e7cd-2a20-421e-b3c5-0522b6ef9837","ios":"levelo://app?vid=0845e7cd-2a20-421e-b3c5-0522b6ef9837"},"vehicle_type_id":"4","last_reported":1731291105,"current_range_meters":39200,"station_id":"ce4bgt12rcd13ifvqce0","pricing_plan_id":"cebpf4jnsgd1na2vs0mg"},{"bike_id":"f1c64ce5-248f-4955-8b9f-2a336ccdbe36","system_id":"levelo_inurba_marseille","lat":43.301,"lon":5.39091,"is_reserved":false,"is_disabled":false,"rental_uris":{"android":"levelo://app?vid=f1c64ce5-248f-4955-8b9f-2a336ccdbe36","ios":"levelo://app?vid=f1c64ce5-248f-4955-8b9f-2a336ccdbe36"},"vehicle_type_id":"4","last_reported":1731291105,"current_range_meters":34000,"station_id":"ce4bh192rcd13ifvqdb0","pricing_plan_id":"cebpf4jnsgd1na2vs0mg"},{"bike_id":"85e2f4f3-6aa2-4c02-8cb0-3f10017cc61a","system_id":"levelo_inurba_marseille","lat":43.25087,"lon":5.39519,"is_reserved":false,"is_disabled":false,"rental_uris":{"android":"levelo://app?vid=85e2f4f3-6aa2-4c02-8cb0-3f10017cc61a","ios":"levelo://app?vid=85e2f4f3-6aa2-4c02-8cb0-3f10017cc61a"},"vehicle_type_id":"4","last_reported":1731291105,"current_range_meters":39200,"station_id":"ce4bhm12rcd13ifvqgkg","pricing_plan_id":"cebpf4jnsgd1na2vs0mg"},{"bike_id":"010f34fa-5fe4-441f-a433-65d10dd050db","system_id":"levelo_inurba_marseille","lat":43.29543,"lon":5.42272,"is_reserved":false,"is_disabled":false,"rental_uris":{"android":"levelo://app?vid=010f34fa-5fe4-441f-a433-65d10dd050db","ios":"levelo://app?vid=010f34fa-5fe4-441f-a433-65d10dd050db"},"vehicle_type_id":"4","last_reported":1731291105,"current_range_meters":38400,"station_id":"ce4bhph2rcd13ifvqhdg","pricing_plan_id":"cebpf4jnsgd1na2vs0mg"},{"bike_id":"66aad50d-29b7-4c87-a666-47475f7dc35f","system_id":"levelo_inurba_marseille","lat":43.30786,"lon":5.37662,"is_reserved":false,"is_disabled":false,"rental_uris":{"android":"levelo://app?vid=66aad50d-29b7-4c87-a666-47475f7dc35f","ios":"levelo://app?vid=66aad50d-29b7-4c87-a666-47475f7dc35f"},"vehicle_type_id":"4","last_reported":1731291105,"current_range_meters":38800,"station_id":"ce4bgv92rcd13ifvqcq0","pricing_plan_id":"cebpf4jnsgd1na2vs0mg"},{"bike_id":"02e5dafe-fcef-4405-9cf5-47651341713d","system_id":"levelo_inurba_marseille","lat":43.24167,"lon":5.36389,"is_reserved":false,"is_disabled":false,"rental_uris":{"android":"levelo://app?vid=02e5dafe-fcef-4405-9cf5-47651341713d","ios":"levelo://app?vid=02e5dafe-fcef-4405-9cf5-47651341713d"},"vehicle_type_id":"4","last_reported":1731291105,"current_range_meters":6000,"station_id":"cpo36qri1sfpv3e86is0","pricing_plan_id":"cebpf4jnsgd1na2vs0mg"},{"bike_id":"1738d94f-8cb1-44cf-affb-0b3bc5528744","system_id":"levelo_inurba_marseille","lat":43.31719,"lon":5.42401,"is_reserved":false,"is_disabled":false,"rental_uris":{"android":"levelo://app?vid=1738d94f-8cb1-44cf-affb-0b3bc5528744","ios":"levelo://app?vid=1738d94f-8cb1-44cf-affb-0b3bc5528744"},"vehicle_type_id":"4","last_reported":1731291105,"current_range_meters":23200,"station_id":"ce4bhp92rcd13ifvqhbg","pricing_plan_id":"cebpf4jnsgd1na2vs0mg"},{"bike_id":"f8cfdd82-8d04-4431-ab55-2f120a65a0f5","system_id":"levelo_inurba_marseille","lat":43.29876,"lon":5.39728,"is_reserved":false,"is_disabled":false,"rental_uris":{"android":"levelo://app?vid=f8cfdd82-8d04-4431-ab55-2f120a65a0f5","ios":"levelo://app?vid=f8cfdd82-8d04-4431-ab55-2f120a65a0f5"},"vehicle_type_id":"4","last_reported":1731291105,"current_range_meters":26800,"station_id":"ce4bh0h2rcd13ifvqd50","pricing_plan_id":"cebpf4jnsgd1na2vs0mg"},{"bike_id":"dacde8a9-ad80-4f71-8bfb-b2a2057659f8","system_id":"levelo_inurba_marseille","lat":43.30914,"lon":5.36843,"is_reserved":false,"is_disabled":false,"rental_uris":{"android":"levelo://app?vid=dacde8a9-ad80-4f71-8bfb-b2a2057659f8","ios":"levelo://app?vid=dacde8a9-ad80-4f71-8bfb-b2a2057659f8"},"vehicle_type_id":"4","last_reported":1731291105,"current_range_meters":38000,"station_id":"ce4bgn92rcd13ifvqbvg","pricing_plan_id":"cebpf4jnsgd1na2vs0mg"},{"bike_id":"29474779-dc90-4ba2-b48c-911f6e0c5c08","system_id":"levelo_inurba_marseille","lat":43.30432,"lon":5.38902,"is_reserved":false,"is_disabled":false,"rental_uris":{"android":"levelo://app?vid=29474779-dc90-4ba2-b48c-911f6e0c5c08","ios":"levelo://app?vid=29474779-dc90-4ba2-b48c-911f6e0c5c08"},"vehicle_type_id":"4","last_reported":1731291105,"current_range_meters":32400,"station_id":"ce4bgk12rcd13ifvqbi0","pricing_plan_id":"cebpf4jnsgd1na2vs0mg"},{"bike_id":"47c8651c-41a7-4b07-b3d0-de53e215e982","system_id":"levelo_inurba_marseille","lat":43.33594,"lon":5.41034,"is_reserved":false,"is_disabled":false,"rental_uris":{"android":"levelo://app?vid=47c8651c-41a7-4b07-b3d0-de53e215e982","ios":"levelo://app?vid=47c8651c-41a7-4b07-b3d0-de53e215e982"},"vehicle_type_id":"4","last_reported":1731291105,"current_range_meters":14000,"station_id":"ce4bhqh2rcd13ifvqhmg","pricing_plan_id":"cebpf4jnsgd1na2vs0mg"},{"bike_id":"8bac9053-3887-4a8c-beaf-c9a3ca84e1f9","system_id":"levelo_inurba_marseille","lat":43.29911,"lon":5.37439,"is_reserved":false,"is_disabled":false,"rental_uris":{"android":"levelo://app?vid=8bac9053-3887-4a8c-beaf-c9a3ca84e1f9","ios":"levelo://app?vid=8bac9053-3887-4a8c-beaf-c9a3ca84e1f9"},"vehicle_type_id":"4","last_reported":1731291105,"current_range_meters":36800,"station_id":"ce4bgjh2rcd13ifvqbg0","pricing_plan_id":"cebpf4jnsgd1na2vs0mg"},{"bike_id":"7c4f5f1c-61d2-4950-845d-ba73306a290c","system_id":"levelo_inurba_marseille","lat":43.28462,"lon":5.35884,"is_reserved":false,"is_disabled":false,"rental_uris":{"android":"levelo://app?vid=7c4f5f1c-61d2-4950-845d-ba73306a290c","ios":"levelo://app?vid=7c4f5f1c-61d2-4950-845d-ba73306a290c"},"vehicle_type_id":"4","last_reported":1731291105,"current_range_meters":24400,"station_id":"ce4bhah2rcd13ifvqei0","pricing_plan_id":"cebpf4jnsgd1na2vs0mg"},{"bike_id":"13ffe9c4-6949-472d-af45-8d12943493b7","system_id":"levelo_inurba_marseille","lat":43.24672,"lon":5.38158,"is_reserved":false,"is_disabled":false,"rental_uris":{"android":"levelo://app?vid=13ffe9c4-6949-472d-af45-8d12943493b7","ios":"levelo://app?vid=13ffe9c4-6949-472d-af45-8d12943493b7"},"vehicle_type_id":"4","last_reported":1731291105,"current_range_meters":8000,"station_id":"ce4bhih2rcd13ifvqfr0","pricing_plan_id":"cebpf4jnsgd1na2vs0mg"},{"bike_id":"61ebae1e-7e43-4156-bc77-b929042392dc","system_id":"levelo_inurba_marseille","lat":43.29161,"lon":5.37186,"is_reserved":false,"is_disabled":false,"rental_uris":{"android":"levelo://app?vid=61ebae1e-7e43-4156-bc77-b929042392dc","ios":"levelo://app?vid=61ebae1e-7e43-4156-bc77-b929042392dc"},"vehicle_type_id":"4","last_reported":1731291105,"current_range_meters":36400,"station_id":"ce4bha92rcd13ifvqeh0","pricing_plan_id":"cebpf4jnsgd1na2vs0mg"},{"bike_id":"22dd4144-58a7-41da-8ce7-7bbdff661f8f","system_id":"levelo_inurba_marseille","lat":43.30648,"lon":5.40074,"is_reserved":false,"is_disabled":false,"rental_uris":{"android":"levelo://app?vid=22dd4144-58a7-41da-8ce7-7bbdff661f8f","ios":"levelo://app?vid=22dd4144-58a7-41da-8ce7-7bbdff661f8f"},"vehicle_type_id":"4","last_reported":1731291105,"current_range_meters":38000,"station_id":"ce4bh112rcd13ifvqda0","pricing_plan_id":"cebpf4jnsgd1na2vs0mg"},{"bike_id":"88d3f98d-5593-457e-b86b-279db7794a34","system_id":"levelo_inurba_marseille","lat":43.33029,"lon":5.39044,"is_reserved":false,"is_disabled":false,"rental_uris":{"android":"levelo://app?vid=88d3f98d-5593-457e-b86b-279db7794a34","ios":"levelo://app?vid=88d3f98d-5593-457e-b86b-279db7794a34"},"vehicle_type_id":"4","last_reported":1731291105,"current_range_meters":39200,"station_id":"ce4bhr92rcd13ifvqhrg","pricing_plan_id":"cebpf4jnsgd1na2vs0mg"},{"bike_id":"ff5eba47-f448-475d-b524-e9477f18a564","system_id":"levelo_inurba_marseille","lat":43.28405,"lon":5.37527,"is_reserved":false,"is_disabled":false,"rental_uris":{"android":"levelo://app?vid=ff5eba47-f448-475d-b524-e9477f18a564","ios":"levelo://app?vid=ff5eba47-f448-475d-b524-e9477f18a564"},"vehicle_type_id":"4","last_reported":1731291105,"current_range_meters":12800,"station_id":"ce4bh412rcd13ifvqds0","pricing_plan_id":"cebpf4jnsgd1na2vs0mg"},{"bike_id":"290f68a1-8ec1-403d-b59a-20fe2755ec72","system_id":"levelo_inurba_marseille","lat":43.2724,"lon":5.39218,"is_reserved":false,"is_disabled":false,"rental_uris":{"android":"levelo://app?vid=290f68a1-8ec1-403d-b59a-20fe2755ec72","ios":"levelo://app?vid=290f68a1-8ec1-403d-b59a-20fe2755ec72"},"vehicle_type_id":"4","last_reported":1731291105,"current_range_meters":38800,"station_id":"ce4bhhp2rcd13ifvqfm0","pricing_plan_id":"cebpf4jnsgd1na2vs0mg"},{"bike_id":"41ed6bb9-c2dc-4fdb-81de-0d1d0083b405","system_id":"levelo_inurba_marseille","lat":43.27315,"lon":5.39106,"is_reserved":false,"is_disabled":false,"rental_uris":{"android":"levelo://app?vid=41ed6bb9-c2dc-4fdb-81de-0d1d0083b405","ios":"levelo://app?vid=41ed6bb9-c2dc-4fdb-81de-0d1d0083b405"},"vehicle_type_id":"4","last_reported":1731291105,"current_range_meters":38800,"station_id":"ce4bhgp2rcd13ifvqfe0","pricing_plan_id":"cebpf4jnsgd1na2vs0mg"},{"bike_id":"25f2aab5-1c14-47cc-acc5-4aeebede3bf6","system_id":"levelo_inurba_marseille","lat":43.29248,"lon":5.40917,"is_reserved":false,"is_disabled":false,"rental_uris":{"android":"levelo://app?vid=25f2aab5-1c14-47cc-acc5-4aeebede3bf6","ios":"levelo://app?vid=25f2aab5-1c14-47cc-acc5-4aeebede3bf6"},"vehicle_type_id":"4","last_reported":1731291105,"current_range_meters":31200,"station_id":"ce4bh192rcd13ifvqdc0","pricing_plan_id":"cebpf4jnsgd1na2vs0mg"},{"bike_id":"ff826d5f-1eb1-45da-a41f-ba2e15664aa6","system_id":"levelo_inurba_marseille","lat":43.25804,"lon":5.39405,"is_reserved":false,"is_disabled":false,"rental_uris":{"android":"levelo://app?vid=ff826d5f-1eb1-45da-a41f-ba2e15664aa6","ios":"levelo://app?vid=ff826d5f-1eb1-45da-a41f-ba2e15664aa6"},"vehicle_type_id":"4","last_reported":1731291105,"current_range_meters":12800,"station_id":"ce4bhip2rcd13ifvqft0","pricing_plan_id":"cebpf4jnsgd1na2vs0mg"},{"bike_id":"074e5901-560c-49ff-a076-fa4ceefcae6d","system_id":"levelo_inurba_marseille","lat":43.29715,"lon":5.36603,"is_reserved":false,"is_disabled":false,"rental_uris":{"android":"levelo://app?vid=074e5901-560c-49ff-a076-fa4ceefcae6d","ios":"levelo://app?vid=074e5901-560c-49ff-a076-fa4ceefcae6d"},"vehicle_type_id":"4","last_reported":1731291105,"current_range_meters":30000,"station_id":"ce4bgn12rcd13ifvqbt0","pricing_plan_id":"cebpf4jnsgd1na2vs0mg"},{"bike_id":"1ee9f643-eb82-4de4-8408-716174a84576","system_id":"levelo_inurba_marseille","lat":43.310725,"lon":5.38355,"is_reserved":false,"is_disabled":false,"rental_uris":{"android":"levelo://app?vid=1ee9f643-eb82-4de4-8408-716174a84576","ios":"levelo://app?vid=1ee9f643-eb82-4de4-8408-716174a84576"},"vehicle_type_id":"4","last_reported":1731291105,"current_range_meters":22400,"station_id":"ce4bgv92rcd13ifvqcr0","pricing_plan_id":"cebpf4jnsgd1na2vs0mg"},{"bike_id":"b8cdbc72-fb69-4a3a-8350-1fcbc7da926b","system_id":"levelo_inurba_marseille","lat":43.25862,"lon":5.39897,"is_reserved":false,"is_disabled":false,"rental_uris":{"android":"levelo://app?vid=b8cdbc72-fb69-4a3a-8350-1fcbc7da926b","ios":"levelo://app?vid=b8cdbc72-fb69-4a3a-8350-1fcbc7da926b"},"vehicle_type_id":"4","last_reported":1731291105,"current_range_meters":38800,"station_id":"ce4bhl92rcd13ifvqghg","pricing_plan_id":"cebpf4jnsgd1na2vs0mg"},{"bike_id":"ca6bc757-afb2-47ae-8348-d50290e625d2","system_id":"levelo_inurba_marseille","lat":43.24814,"lon":5.37456,"is_reserved":false,"is_disabled":false,"rental_uris":{"android":"levelo://app?vid=ca6bc757-afb2-47ae-8348-d50290e625d2","ios":"levelo://app?vid=ca6bc757-afb2-47ae-8348-d50290e625d2"},"vehicle_type_id":"4","last_reported":1731291105,"current_range_meters":31200,"station_id":"ce4bhgh2rcd13ifvqfb0","pricing_plan_id":"cebpf4jnsgd1na2vs0mg"},{"bike_id":"da77c34d-7889-4891-a3fb-3bbc62c64651","system_id":"levelo_inurba_marseille","lat":43.25119,"lon":5.40373,"is_reserved":false,"is_disabled":false,"rental_uris":{"android":"levelo://app?vid=da77c34d-7889-4891-a3fb-3bbc62c64651","ios":"levelo://app?vid=da77c34d-7889-4891-a3fb-3bbc62c64651"},"vehicle_type_id":"4","last_reported":1731291105,"current_range_meters":7200,"station_id":"ce4bhlh2rcd13ifvqgig","pricing_plan_id":"cebpf4jnsgd1na2vs0mg"},{"bike_id":"7c0cb028-e14a-4ce8-9521-fd167b9559e4","system_id":"levelo_inurba_marseille","lat":43.29288,"lon":5.40938,"is_reserved":false,"is_disabled":false,"rental_uris":{"android":"levelo://app?vid=7c0cb028-e14a-4ce8-9521-fd167b9559e4","ios":"levelo://app?vid=7c0cb028-e14a-4ce8-9521-fd167b9559e4"},"vehicle_type_id":"4","last_reported":1731291105,"current_range_meters":28000,"station_id":"ce4bh192rcd13ifvqdc0","pricing_plan_id":"cebpf4jnsgd1na2vs0mg"},{"bike_id":"e50300dd-a5fd-457f-bdfb-d648184a3057","system_id":"levelo_inurba_marseille","lat":43.30444,"lon":5.38897,"is_reserved":false,"is_disabled":false,"rental_uris":{"android":"levelo://app?vid=e50300dd-a5fd-457f-bdfb-d648184a3057","ios":"levelo://app?vid=e50300dd-a5fd-457f-bdfb-d648184a3057"},"vehicle_type_id":"4","last_reported":1731291105,"current_range_meters":26000,"station_id":"ce4bgk12rcd13ifvqbi0","pricing_plan_id":"cebpf4jnsgd1na2vs0mg"},{"bike_id":"c248e6ea-a25f-4c63-bbcb-77234e8dbe04","system_id":"levelo_inurba_marseille","lat":43.2872,"lon":5.37943,"is_reserved":false,"is_disabled":false,"rental_uris":{"android":"levelo://app?vid=c248e6ea-a25f-4c63-bbcb-77234e8dbe04","ios":"levelo://app?vid=c248e6ea-a25f-4c63-bbcb-77234e8dbe04"},"vehicle_type_id":"4","last_reported":1731291105,"current_range_meters":36000,"station_id":"ce4bh9p2rcd13ifvqec0","pricing_plan_id":"cebpf4jnsgd1na2vs0mg"},{"bike_id":"e738de8b-a66f-4c15-a663-5e44be3697c6","system_id":"levelo_inurba_marseille","lat":43.27328,"lon":5.39077,"is_reserved":false,"is_disabled":false,"rental_uris":{"android":"levelo://app?vid=e738de8b-a66f-4c15-a663-5e44be3697c6","ios":"levelo://app?vid=e738de8b-a66f-4c15-a663-5e44be3697c6"},"vehicle_type_id":"4","last_reported":1731291105,"current_range_meters":36400,"station_id":"ce4bhgp2rcd13ifvqfe0","pricing_plan_id":"cebpf4jnsgd1na2vs0mg"},{"bike_id":"677ac035-8000-41aa-9513-47cb01ad048c","system_id":"levelo_inurba_marseille","lat":43.29442,"lon":5.39769,"is_reserved":false,"is_disabled":false,"rental_uris":{"android":"levelo://app?vid=677ac035-8000-41aa-9513-47cb01ad048c","ios":"levelo://app?vid=677ac035-8000-41aa-9513-47cb01ad048c"},"vehicle_type_id":"4","last_reported":1731291105,"current_range_meters":38800,"station_id":"ce4bh3h2rcd13ifvqdo0","pricing_plan_id":"cebpf4jnsgd1na2vs0mg"},{"bike_id":"6e437b1e-b003-45f0-8ca3-93ff649327af","system_id":"levelo_inurba_marseille","lat":43.2794,"lon":5.41026,"is_reserved":false,"is_disabled":false,"rental_uris":{"android":"levelo://app?vid=6e437b1e-b003-45f0-8ca3-93ff649327af","ios":"levelo://app?vid=6e437b1e-b003-45f0-8ca3-93ff649327af"},"vehicle_type_id":"4","last_reported":1731291105,"current_range_meters":38800,"station_id":"ce4bhnp2rcd13ifvqh0g","pricing_plan_id":"cebpf4jnsgd1na2vs0mg"},{"bike_id":"7861581a-cdb5-44de-a95a-5c779ebd5422","system_id":"levelo_inurba_marseille","lat":43.31204,"lon":5.36831,"is_reserved":false,"is_disabled":false,"rental_uris":{"android":"levelo://app?vid=7861581a-cdb5-44de-a95a-5c779ebd5422","ios":"levelo://app?vid=7861581a-cdb5-44de-a95a-5c779ebd5422"},"vehicle_type_id":"4","last_reported":1731291105,"current_range_meters":28400,"station_id":"ce4bgl92rcd13ifvqbq0","pricing_plan_id":"cebpf4jnsgd1na2vs0mg"},{"bike_id":"f204905c-7b94-45eb-bd5e-9b72157ae1f2","system_id":"levelo_inurba_marseille","lat":43.23195,"lon":5.39969,"is_reserved":false,"is_disabled":false,"rental_uris":{"android":"levelo://app?vid=f204905c-7b94-45eb-bd5e-9b72157ae1f2","ios":"levelo://app?vid=f204905c-7b94-45eb-bd5e-9b72157ae1f2"},"vehicle_type_id":"4","last_reported":1731291105,"current_range_meters":37600,"station_id":"ce4bhn12rcd13ifvqgqg","pricing_plan_id":"cebpf4jnsgd1na2vs0mg"},{"bike_id":"d088e21c-5930-4768-8086-cf979e55d33e","system_id":"levelo_inurba_marseille","lat":43.30157,"lon":5.39901,"is_reserved":false,"is_disabled":false,"rental_uris":{"android":"levelo://app?vid=d088e21c-5930-4768-8086-cf979e55d33e","ios":"levelo://app?vid=d088e21c-5930-4768-8086-cf979e55d33e"},"vehicle_type_id":"4","last_reported":1731291105,"current_range_meters":28800,"station_id":"ce4bh0h2rcd13ifvqd40","pricing_plan_id":"cebpf4jnsgd1na2vs0mg"},{"bike_id":"feffc8ab-2e7b-4bb0-84fc-9bb951b4758b","system_id":"levelo_inurba_marseille","lat":43.3108,"lon":5.4243,"is_reserved":false,"is_disabled":false,"rental_uris":{"android":"levelo://app?vid=feffc8ab-2e7b-4bb0-84fc-9bb951b4758b","ios":"levelo://app?vid=feffc8ab-2e7b-4bb0-84fc-9bb951b4758b"},"vehicle_type_id":"4","last_reported":1731291105,"current_range_meters":19200,"station_id":"ce4bhp92rcd13ifvqhag","pricing_plan_id":"cebpf4jnsgd1na2vs0mg"},{"bike_id":"4b53c73b-555f-42e8-90ce-4cd91ba65607","system_id":"levelo_inurba_marseille","lat":43.31767,"lon":5.39021,"is_reserved":false,"is_disabled":false,"rental_uris":{"android":"levelo://app?vid=4b53c73b-555f-42e8-90ce-4cd91ba65607","ios":"levelo://app?vid=4b53c73b-555f-42e8-90ce-4cd91ba65607"},"vehicle_type_id":"4","last_reported":1731291105,"current_range_meters":38800,"station_id":"ce4bhqp2rcd13ifvqhng","pricing_plan_id":"cebpf4jnsgd1na2vs0mg"},{"bike_id":"3666b1af-87b9-4489-9568-7face666dc1b","system_id":"levelo_inurba_marseille","lat":43.30424,"lon":5.39753,"is_reserved":false,"is_disabled":false,"rental_uris":{"android":"levelo://app?vid=3666b1af-87b9-4489-9568-7face666dc1b","ios":"levelo://app?vid=3666b1af-87b9-4489-9568-7face666dc1b"},"vehicle_type_id":"4","last_reported":1731291105,"current_range_meters":8800,"station_id":"ce4bh092rcd13ifvqd20","pricing_plan_id":"cebpf4jnsgd1na2vs0mg"},{"bike_id":"7c040458-0d9d-4dba-8be9-eb133f22a51b","system_id":"levelo_inurba_marseille","lat":43.31175,"lon":5.38707,"is_reserved":false,"is_disabled":false,"rental_uris":{"android":"levelo://app?vid=7c040458-0d9d-4dba-8be9-eb133f22a51b","ios":"levelo://app?vid=7c040458-0d9d-4dba-8be9-eb133f22a51b"},"vehicle_type_id":"4","last_reported":1731291105,"current_range_meters":38800,"station_id":"ce4bgv12rcd13ifvqcp0","pricing_plan_id":"cebpf4jnsgd1na2vs0mg"},{"bike_id":"820a30a6-4b5c-45ec-9763-3d0da061e275","system_id":"levelo_inurba_marseille","lat":43.30813,"lon":5.38152,"is_reserved":false,"is_disabled":false,"rental_uris":{"android":"levelo://app?vid=820a30a6-4b5c-45ec-9763-3d0da061e275","ios":"levelo://app?vid=820a30a6-4b5c-45ec-9763-3d0da061e275"},"vehicle_type_id":"4","last_reported":1731291105,"current_range_meters":38400,"station_id":"ce4bgt12rcd13ifvqce0","pricing_plan_id":"cebpf4jnsgd1na2vs0mg"},{"bike_id":"3415faaa-c111-4a6c-a879-a8c962906233","system_id":"levelo_inurba_marseille","lat":43.27053,"lon":5.40268,"is_reserved":false,"is_disabled":false,"rental_uris":{"android":"levelo://app?vid=3415faaa-c111-4a6c-a879-a8c962906233","ios":"levelo://app?vid=3415faaa-c111-4a6c-a879-a8c962906233"},"vehicle_type_id":"4","last_reported":1731291105,"current_range_meters":38800,"station_id":"ce4bhk92rcd13ifvqgc0","pricing_plan_id":"cebpf4jnsgd1na2vs0mg"},{"bike_id":"181fa628-fd06-4339-88f4-5d411c857699","system_id":"levelo_inurba_marseille","lat":43.27071,"lon":5.42267,"is_reserved":false,"is_disabled":false,"rental_uris":{"android":"levelo://app?vid=181fa628-fd06-4339-88f4-5d411c857699","ios":"levelo://app?vid=181fa628-fd06-4339-88f4-5d411c857699"},"vehicle_type_id":"4","last_reported":1731291105,"current_range_meters":6000,"station_id":"ce4bhk92rcd13ifvqgb0","pricing_plan_id":"cebpf4jnsgd1na2vs0mg"},{"bike_id":"f054ca35-33b8-4b86-b110-2f02434cfd09","system_id":"levelo_inurba_marseille","lat":43.29628,"lon":5.40589,"is_reserved":false,"is_disabled":false,"rental_uris":{"android":"levelo://app?vid=f054ca35-33b8-4b86-b110-2f02434cfd09","ios":"levelo://app?vid=f054ca35-33b8-4b86-b110-2f02434cfd09"},"vehicle_type_id":"4","last_reported":1731291105,"current_range_meters":38800,"station_id":"ce4bh0h2rcd13ifvqd60","pricing_plan_id":"cebpf4jnsgd1na2vs0mg"},{"bike_id":"22931996-5e95-4c2e-a240-6c53909b536c","system_id":"levelo_inurba_marseille","lat":43.26211,"lon":5.3745,"is_reserved":false,"is_disabled":false,"rental_uris":{"android":"levelo://app?vid=22931996-5e95-4c2e-a240-6c53909b536c","ios":"levelo://app?vid=22931996-5e95-4c2e-a240-6c53909b536c"},"vehicle_type_id":"4","last_reported":1731291105,"current_range_meters":17200,"station_id":"ce4bhgp2rcd13ifvqfc0","pricing_plan_id":"cebpf4jnsgd1na2vs0mg"},{"bike_id":"e193da84-3188-45b5-9fe0-86924a122ac2","system_id":"levelo_inurba_marseille","lat":43.25122,"lon":5.40333,"is_reserved":false,"is_disabled":false,"rental_uris":{"android":"levelo://app?vid=e193da84-3188-45b5-9fe0-86924a122ac2","ios":"levelo://app?vid=e193da84-3188-45b5-9fe0-86924a122ac2"},"vehicle_type_id":"4","last_reported":1731291105,"current_range_meters":38400,"station_id":"ce4bhlh2rcd13ifvqgig","pricing_plan_id":"cebpf4jnsgd1na2vs0mg"},{"bike_id":"9a5eb101-92a2-4eeb-93bd-8d070d90c1ea","system_id":"levelo_inurba_marseille","lat":43.30432,"lon":5.42528,"is_reserved":false,"is_disabled":false,"rental_uris":{"android":"levelo://app?vid=9a5eb101-92a2-4eeb-93bd-8d070d90c1ea","ios":"levelo://app?vid=9a5eb101-92a2-4eeb-93bd-8d070d90c1ea"},"vehicle_type_id":"4","last_reported":1731291105,"current_range_meters":8800,"station_id":"","pricing_plan_id":"cebpf4jnsgd1na2vs0mg"},{"bike_id":"33f53d94-2d39-42ab-b5e0-2103f3cec381","system_id":"levelo_inurba_marseille","lat":43.247761,"lon":5.375352,"is_reserved":false,"is_disabled":false,"rental_uris":{"android":"levelo://app?vid=33f53d94-2d39-42ab-b5e0-2103f3cec381","ios":"levelo://app?vid=33f53d94-2d39-42ab-b5e0-2103f3cec381"},"vehicle_type_id":"4","last_reported":1731291105,"current_range_meters":34800,"station_id":"ce4bhlp2rcd13ifvqgjg","pricing_plan_id":"cebpf4jnsgd1na2vs0mg"},{"bike_id":"f8832153-4ccb-40b2-8435-a55cdb609e52","system_id":"levelo_inurba_marseille","lat":43.30887,"lon":5.39621,"is_reserved":false,"is_disabled":false,"rental_uris":{"android":"levelo://app?vid=f8832153-4ccb-40b2-8435-a55cdb609e52","ios":"levelo://app?vid=f8832153-4ccb-40b2-8435-a55cdb609e52"},"vehicle_type_id":"4","last_reported":1731291105,"current_range_meters":14000,"station_id":"ce4bh012rcd13ifvqcv0","pricing_plan_id":"cebpf4jnsgd1na2vs0mg"},{"bike_id":"5574c5c0-6884-4d99-8cb9-177fa8d343fc","system_id":"levelo_inurba_marseille","lat":43.30413,"lon":5.4128,"is_reserved":false,"is_disabled":false,"rental_uris":{"android":"levelo://app?vid=5574c5c0-6884-4d99-8cb9-177fa8d343fc","ios":"levelo://app?vid=5574c5c0-6884-4d99-8cb9-177fa8d343fc"},"vehicle_type_id":"4","last_reported":1731291105,"current_range_meters":3600,"station_id":"ce4bhop2rcd13ifvqh8g","pricing_plan_id":"cebpf4jnsgd1na2vs0mg"},{"bike_id":"32814224-bb9d-4e01-8ff4-51a08a384423","system_id":"levelo_inurba_marseille","lat":43.30589,"lon":5.37234,"is_reserved":false,"is_disabled":false,"rental_uris":{"android":"levelo://app?vid=32814224-bb9d-4e01-8ff4-51a08a384423","ios":"levelo://app?vid=32814224-bb9d-4e01-8ff4-51a08a384423"},"vehicle_type_id":"4","last_reported":1731291105,"current_range_meters":36400,"station_id":"ce4bgqh2rcd13ifvqc4g","pricing_plan_id":"cebpf4jnsgd1na2vs0mg"},{"bike_id":"df1a0c9f-5c99-4cc6-8e61-e78185fcde03","system_id":"levelo_inurba_marseille","lat":43.25081,"lon":5.39514,"is_reserved":false,"is_disabled":false,"rental_uris":{"android":"levelo://app?vid=df1a0c9f-5c99-4cc6-8e61-e78185fcde03","ios":"levelo://app?vid=df1a0c9f-5c99-4cc6-8e61-e78185fcde03"},"vehicle_type_id":"4","last_reported":1731291105,"current_range_meters":10000,"station_id":"ce4bhm12rcd13ifvqgkg","pricing_plan_id":"cebpf4jnsgd1na2vs0mg"},{"bike_id":"de74e5d6-266e-4837-8def-696d0fbea764","system_id":"levelo_inurba_marseille","lat":43.30303,"lon":5.39229,"is_reserved":false,"is_disabled":false,"rental_uris":{"android":"levelo://app?vid=de74e5d6-266e-4837-8def-696d0fbea764","ios":"levelo://app?vid=de74e5d6-266e-4837-8def-696d0fbea764"},"vehicle_type_id":"4","last_reported":1731291105,"current_range_meters":38800,"station_id":"ce4bgkh2rcd13ifvqbk0","pricing_plan_id":"cebpf4jnsgd1na2vs0mg"},{"bike_id":"4c39aa19-0c48-4846-ae4a-17bcc31d5e1d","system_id":"levelo_inurba_marseille","lat":43.32358,"lon":5.38878,"is_reserved":false,"is_disabled":false,"rental_uris":{"android":"levelo://app?vid=4c39aa19-0c48-4846-ae4a-17bcc31d5e1d","ios":"levelo://app?vid=4c39aa19-0c48-4846-ae4a-17bcc31d5e1d"},"vehicle_type_id":"4","last_reported":1731291105,"current_range_meters":9600,"station_id":"ce4bhqp2rcd13ifvqhog","pricing_plan_id":"cebpf4jnsgd1na2vs0mg"},{"bike_id":"287fd0be-4793-485a-a6d7-acce331a2220","system_id":"levelo_inurba_marseille","lat":43.26483,"lon":5.39553,"is_reserved":false,"is_disabled":false,"rental_uris":{"android":"levelo://app?vid=287fd0be-4793-485a-a6d7-acce331a2220","ios":"levelo://app?vid=287fd0be-4793-485a-a6d7-acce331a2220"},"vehicle_type_id":"4","last_reported":1731291105,"current_range_meters":38000,"station_id":"ce4bhi12rcd13ifvqfq0","pricing_plan_id":"cebpf4jnsgd1na2vs0mg"},{"bike_id":"d1d7a58c-6198-42c5-91ce-d708d38d99a2","system_id":"levelo_inurba_marseille","lat":43.30873,"lon":5.39616,"is_reserved":false,"is_disabled":false,"rental_uris":{"android":"levelo://app?vid=d1d7a58c-6198-42c5-91ce-d708d38d99a2","ios":"levelo://app?vid=d1d7a58c-6198-42c5-91ce-d708d38d99a2"},"vehicle_type_id":"4","last_reported":1731291105,"current_range_meters":39200,"station_id":"ce4bh012rcd13ifvqcv0","pricing_plan_id":"cebpf4jnsgd1na2vs0mg"},{"bike_id":"e7201826-80f7-490b-93a0-25d91f0a9986","system_id":"levelo_inurba_marseille","lat":43.29839,"lon":5.36272,"is_reserved":false,"is_disabled":false,"rental_uris":{"android":"levelo://app?vid=e7201826-80f7-490b-93a0-25d91f0a9986","ios":"levelo://app?vid=e7201826-80f7-490b-93a0-25d91f0a9986"},"vehicle_type_id":"4","last_reported":1731291105,"current_range_meters":38000,"station_id":"ce4bgpp2rcd13ifvqc3g","pricing_plan_id":"cebpf4jnsgd1na2vs0mg"},{"bike_id":"1e7fd650-28c5-42ee-9922-4070c0acdb85","system_id":"levelo_inurba_marseille","lat":43.27487,"lon":5.4246,"is_reserved":false,"is_disabled":false,"rental_uris":{"android":"levelo://app?vid=1e7fd650-28c5-42ee-9922-4070c0acdb85","ios":"levelo://app?vid=1e7fd650-28c5-42ee-9922-4070c0acdb85"},"vehicle_type_id":"4","last_reported":1731291105,"current_range_meters":36400,"station_id":"ce4bhn92rcd13ifvqgrg","pricing_plan_id":"cebpf4jnsgd1na2vs0mg"},{"bike_id":"4354d198-8275-4a44-8752-9f5d47bfaac7","system_id":"levelo_inurba_marseille","lat":43.29873,"lon":5.38142,"is_reserved":false,"is_disabled":false,"rental_uris":{"android":"levelo://app?vid=4354d198-8275-4a44-8752-9f5d47bfaac7","ios":"levelo://app?vid=4354d198-8275-4a44-8752-9f5d47bfaac7"},"vehicle_type_id":"4","last_reported":1731291105,"current_range_meters":37600,"station_id":"ce4bgj12rcd13ifvqbc0","pricing_plan_id":"cebpf4jnsgd1na2vs0mg"},{"bike_id":"afe37d67-d439-4b2e-995f-511a7480bb51","system_id":"levelo_inurba_marseille","lat":43.26561,"lon":5.39008,"is_reserved":false,"is_disabled":false,"rental_uris":{"android":"levelo://app?vid=afe37d67-d439-4b2e-995f-511a7480bb51","ios":"levelo://app?vid=afe37d67-d439-4b2e-995f-511a7480bb51"},"vehicle_type_id":"4","last_reported":1731291105,"current_range_meters":38000,"station_id":"ce4bhe12rcd13ifvqf30","pricing_plan_id":"cebpf4jnsgd1na2vs0mg"},{"bike_id":"a0c7ccd2-4ee1-482d-96e8-0a58feb4eeb1","system_id":"levelo_inurba_marseille","lat":43.25104,"lon":5.40322,"is_reserved":false,"is_disabled":false,"rental_uris":{"android":"levelo://app?vid=a0c7ccd2-4ee1-482d-96e8-0a58feb4eeb1","ios":"levelo://app?vid=a0c7ccd2-4ee1-482d-96e8-0a58feb4eeb1"},"vehicle_type_id":"4","last_reported":1731291105,"current_range_meters":38400,"station_id":"ce4bhlh2rcd13ifvqgig","pricing_plan_id":"cebpf4jnsgd1na2vs0mg"},{"bike_id":"a83a36a4-9bfa-4d89-b35d-a4d64766c566","system_id":"levelo_inurba_marseille","lat":43.29442,"lon":5.39784,"is_reserved":false,"is_disabled":false,"rental_uris":{"android":"levelo://app?vid=a83a36a4-9bfa-4d89-b35d-a4d64766c566","ios":"levelo://app?vid=a83a36a4-9bfa-4d89-b35d-a4d64766c566"},"vehicle_type_id":"4","last_reported":1731291105,"current_range_meters":38400,"station_id":"ce4bh3h2rcd13ifvqdo0","pricing_plan_id":"cebpf4jnsgd1na2vs0mg"},{"bike_id":"0fbff871-faec-4856-9eae-856706ec94f1","system_id":"levelo_inurba_marseille","lat":43.27553,"lon":5.38413,"is_reserved":false,"is_disabled":false,"rental_uris":{"android":"levelo://app?vid=0fbff871-faec-4856-9eae-856706ec94f1","ios":"levelo://app?vid=0fbff871-faec-4856-9eae-856706ec94f1"},"vehicle_type_id":"4","last_reported":1731291105,"current_range_meters":38800,"station_id":"ce4bhh92rcd13ifvqfi0","pricing_plan_id":"cebpf4jnsgd1na2vs0mg"},{"bike_id":"ada9c1c5-a5a1-4aea-9fb9-213fda53ee37","system_id":"levelo_inurba_marseille","lat":43.30945,"lon":5.39005,"is_reserved":false,"is_disabled":false,"rental_uris":{"android":"levelo://app?vid=ada9c1c5-a5a1-4aea-9fb9-213fda53ee37","ios":"levelo://app?vid=ada9c1c5-a5a1-4aea-9fb9-213fda53ee37"},"vehicle_type_id":"4","last_reported":1731291105,"current_range_meters":38800,"station_id":"ce4bgup2rcd13ifvqco0","pricing_plan_id":"cebpf4jnsgd1na2vs0mg"},{"bike_id":"c86f9753-23bf-4b0b-99f7-a3303d896d97","system_id":"levelo_inurba_marseille","lat":43.23185,"lon":5.39971,"is_reserved":false,"is_disabled":false,"rental_uris":{"android":"levelo://app?vid=c86f9753-23bf-4b0b-99f7-a3303d896d97","ios":"levelo://app?vid=c86f9753-23bf-4b0b-99f7-a3303d896d97"},"vehicle_type_id":"4","last_reported":1731291105,"current_range_meters":6400,"station_id":"ce4bhn12rcd13ifvqgqg","pricing_plan_id":"cebpf4jnsgd1na2vs0mg"},{"bike_id":"5ab9d430-3d2b-4a66-870b-567fac89b27f","system_id":"levelo_inurba_marseille","lat":43.31315,"lon":5.39721,"is_reserved":false,"is_disabled":false,"rental_uris":{"android":"levelo://app?vid=5ab9d430-3d2b-4a66-870b-567fac89b27f","ios":"levelo://app?vid=5ab9d430-3d2b-4a66-870b-567fac89b27f"},"vehicle_type_id":"4","last_reported":1731291105,"current_range_meters":38800,"station_id":"ce4bgvp2rcd13ifvqcu0","pricing_plan_id":"cebpf4jnsgd1na2vs0mg"},{"bike_id":"76c697fa-c979-4e90-992d-e5e1fd0a4584","system_id":"levelo_inurba_marseille","lat":43.31275,"lon":5.40169,"is_reserved":false,"is_disabled":false,"rental_uris":{"android":"levelo://app?vid=76c697fa-c979-4e90-992d-e5e1fd0a4584","ios":"levelo://app?vid=76c697fa-c979-4e90-992d-e5e1fd0a4584"},"vehicle_type_id":"4","last_reported":1731291105,"current_range_meters":8400,"station_id":"ce4bh092rcd13ifvqd30","pricing_plan_id":"cebpf4jnsgd1na2vs0mg"},{"bike_id":"6a748616-373e-479c-abc1-afb22301214a","system_id":"levelo_inurba_marseille","lat":43.28677,"lon":5.40014,"is_reserved":false,"is_disabled":false,"rental_uris":{"android":"levelo://app?vid=6a748616-373e-479c-abc1-afb22301214a","ios":"levelo://app?vid=6a748616-373e-479c-abc1-afb22301214a"},"vehicle_type_id":"4","last_reported":1731291105,"current_range_meters":16800,"station_id":"ce4bho92rcd13ifvqh3g","pricing_plan_id":"cebpf4jnsgd1na2vs0mg"},{"bike_id":"07704a86-dbed-425a-854d-11b1a4e3d84c","system_id":"levelo_inurba_marseille","lat":43.33773,"lon":5.37474,"is_reserved":false,"is_disabled":false,"rental_uris":{"android":"levelo://app?vid=07704a86-dbed-425a-854d-11b1a4e3d84c","ios":"levelo://app?vid=07704a86-dbed-425a-854d-11b1a4e3d84c"},"vehicle_type_id":"4","last_reported":1731291105,"current_range_meters":27600,"station_id":"","pricing_plan_id":"cebpf4jnsgd1na2vs0mg"},{"bike_id":"7f46cd3b-a965-4d3c-8c9c-6534a4901f2f","system_id":"levelo_inurba_marseille","lat":43.30442,"lon":5.38887,"is_reserved":false,"is_disabled":false,"rental_uris":{"android":"levelo://app?vid=7f46cd3b-a965-4d3c-8c9c-6534a4901f2f","ios":"levelo://app?vid=7f46cd3b-a965-4d3c-8c9c-6534a4901f2f"},"vehicle_type_id":"4","last_reported":1731291105,"current_range_meters":37600,"station_id":"ce4bgk12rcd13ifvqbi0","pricing_plan_id":"cebpf4jnsgd1na2vs0mg"},{"bike_id":"3937b7ab-3518-4666-aab1-233738354c10","system_id":"levelo_inurba_marseille","lat":43.30907,"lon":5.3721,"is_reserved":false,"is_disabled":false,"rental_uris":{"android":"levelo://app?vid=3937b7ab-3518-4666-aab1-233738354c10","ios":"levelo://app?vid=3937b7ab-3518-4666-aab1-233738354c10"},"vehicle_type_id":"4","last_reported":1731291105,"current_range_meters":9600,"station_id":"ce4bguh2rcd13ifvqckg","pricing_plan_id":"cebpf4jnsgd1na2vs0mg"},{"bike_id":"0b74ce83-e6b1-4485-8ca6-3897f29a426e","system_id":"levelo_inurba_marseille","lat":43.23956,"lon":5.36619,"is_reserved":false,"is_disabled":false,"rental_uris":{"android":"levelo://app?vid=0b74ce83-e6b1-4485-8ca6-3897f29a426e","ios":"levelo://app?vid=0b74ce83-e6b1-4485-8ca6-3897f29a426e"},"vehicle_type_id":"4","last_reported":1731291105,"current_range_meters":6000,"station_id":"ce4bhi12rcd13ifvqfp0","pricing_plan_id":"cebpf4jnsgd1na2vs0mg"},{"bike_id":"0651e938-1c66-49f6-b919-1a33e9626503","system_id":"levelo_inurba_marseille","lat":43.31141,"lon":5.37754,"is_reserved":false,"is_disabled":false,"rental_uris":{"android":"levelo://app?vid=0651e938-1c66-49f6-b919-1a33e9626503","ios":"levelo://app?vid=0651e938-1c66-49f6-b919-1a33e9626503"},"vehicle_type_id":"4","last_reported":1731291105,"current_range_meters":36800,"station_id":"ce4bgt92rcd13ifvqcg0","pricing_plan_id":"cebpf4jnsgd1na2vs0mg"},{"bike_id":"6a1a5935-385d-4baa-b1a0-aaf8e0d922fa","system_id":"levelo_inurba_marseille","lat":43.23185,"lon":5.39986,"is_reserved":false,"is_disabled":false,"rental_uris":{"android":"levelo://app?vid=6a1a5935-385d-4baa-b1a0-aaf8e0d922fa","ios":"levelo://app?vid=6a1a5935-385d-4baa-b1a0-aaf8e0d922fa"},"vehicle_type_id":"4","last_reported":1731291105,"current_range_meters":10000,"station_id":"ce4bhn12rcd13ifvqgqg","pricing_plan_id":"cebpf4jnsgd1na2vs0mg"},{"bike_id":"e8ba0b51-9b96-4e09-bf52-7a0da55cd7db","system_id":"levelo_inurba_marseille","lat":43.32008,"lon":5.3815,"is_reserved":false,"is_disabled":false,"rental_uris":{"android":"levelo://app?vid=e8ba0b51-9b96-4e09-bf52-7a0da55cd7db","ios":"levelo://app?vid=e8ba0b51-9b96-4e09-bf52-7a0da55cd7db"},"vehicle_type_id":"4","last_reported":1731291105,"current_range_meters":25600,"station_id":"ce4bhr12rcd13ifvqhpg","pricing_plan_id":"cebpf4jnsgd1na2vs0mg"},{"bike_id":"3d39d700-7173-4a12-8921-aec2f5a130a7","system_id":"levelo_inurba_marseille","lat":43.304169,"lon":5.39745,"is_reserved":false,"is_disabled":false,"rental_uris":{"android":"levelo://app?vid=3d39d700-7173-4a12-8921-aec2f5a130a7","ios":"levelo://app?vid=3d39d700-7173-4a12-8921-aec2f5a130a7"},"vehicle_type_id":"4","last_reported":1731291105,"current_range_meters":12400,"station_id":"ce4bh092rcd13ifvqd20","pricing_plan_id":"cebpf4jnsgd1na2vs0mg"},{"bike_id":"471c24df-c195-43ad-89b8-0d470fc104ba","system_id":"levelo_inurba_marseille","lat":43.31892,"lon":5.40749,"is_reserved":false,"is_disabled":false,"rental_uris":{"android":"levelo://app?vid=471c24df-c195-43ad-89b8-0d470fc104ba","ios":"levelo://app?vid=471c24df-c195-43ad-89b8-0d470fc104ba"},"vehicle_type_id":"4","last_reported":1731291105,"current_range_meters":38000,"station_id":"ce4bhq12rcd13ifvqhig","pricing_plan_id":"cebpf4jnsgd1na2vs0mg"},{"bike_id":"f1b9fdca-0b00-4a64-b2ce-c65cccf45aa1","system_id":"levelo_inurba_marseille","lat":43.29731,"lon":5.37693,"is_reserved":false,"is_disabled":false,"rental_uris":{"android":"levelo://app?vid=f1b9fdca-0b00-4a64-b2ce-c65cccf45aa1","ios":"levelo://app?vid=f1b9fdca-0b00-4a64-b2ce-c65cccf45aa1"},"vehicle_type_id":"4","last_reported":1731291105,"current_range_meters":34000,"station_id":"ce4bgkh2rcd13ifvqbl0","pricing_plan_id":"cebpf4jnsgd1na2vs0mg"},{"bike_id":"baac3be3-010c-4ab7-b814-2af962c842f8","system_id":"levelo_inurba_marseille","lat":43.28345,"lon":5.37537,"is_reserved":false,"is_disabled":false,"rental_uris":{"android":"levelo://app?vid=baac3be3-010c-4ab7-b814-2af962c842f8","ios":"levelo://app?vid=baac3be3-010c-4ab7-b814-2af962c842f8"},"vehicle_type_id":"4","last_reported":1731291105,"current_range_meters":24000,"station_id":"","pricing_plan_id":"cebpf4jnsgd1na2vs0mg"},{"bike_id":"f0235109-590b-484a-84ac-e33c050c0124","system_id":"levelo_inurba_marseille","lat":43.25108,"lon":5.40324,"is_reserved":false,"is_disabled":false,"rental_uris":{"android":"levelo://app?vid=f0235109-590b-484a-84ac-e33c050c0124","ios":"levelo://app?vid=f0235109-590b-484a-84ac-e33c050c0124"},"vehicle_type_id":"4","last_reported":1731291105,"current_range_meters":24400,"station_id":"ce4bhlh2rcd13ifvqgig","pricing_plan_id":"cebpf4jnsgd1na2vs0mg"},{"bike_id":"969227a2-98bf-4ab5-b6d3-e479d8b3607b","system_id":"levelo_inurba_marseille","lat":43.31536,"lon":5.3802,"is_reserved":false,"is_disabled":false,"rental_uris":{"android":"levelo://app?vid=969227a2-98bf-4ab5-b6d3-e479d8b3607b","ios":"levelo://app?vid=969227a2-98bf-4ab5-b6d3-e479d8b3607b"},"vehicle_type_id":"4","last_reported":1731291105,"current_range_meters":24400,"station_id":"ce4bhsp2rcd13ifvqi50","pricing_plan_id":"cebpf4jnsgd1na2vs0mg"},{"bike_id":"f5293701-df9b-4a3c-bf61-d686249e5d80","system_id":"levelo_inurba_marseille","lat":43.25876,"lon":5.39912,"is_reserved":false,"is_disabled":false,"rental_uris":{"android":"levelo://app?vid=f5293701-df9b-4a3c-bf61-d686249e5d80","ios":"levelo://app?vid=f5293701-df9b-4a3c-bf61-d686249e5d80"},"vehicle_type_id":"4","last_reported":1731291105,"current_range_meters":35200,"station_id":"ce4bhl92rcd13ifvqghg","pricing_plan_id":"cebpf4jnsgd1na2vs0mg"},{"bike_id":"c7991350-f502-47da-856b-da455b7bdad1","system_id":"levelo_inurba_marseille","lat":43.23154,"lon":5.43714,"is_reserved":false,"is_disabled":false,"rental_uris":{"android":"levelo://app?vid=c7991350-f502-47da-856b-da455b7bdad1","ios":"levelo://app?vid=c7991350-f502-47da-856b-da455b7bdad1"},"vehicle_type_id":"4","last_reported":1731291105,"current_range_meters":38000,"station_id":"ce4bhmp2rcd13ifvqgog","pricing_plan_id":"cebpf4jnsgd1na2vs0mg"},{"bike_id":"6cde4c04-b0af-4388-b53d-81ed2ec25717","system_id":"levelo_inurba_marseille","lat":43.31897,"lon":5.40719,"is_reserved":false,"is_disabled":false,"rental_uris":{"android":"levelo://app?vid=6cde4c04-b0af-4388-b53d-81ed2ec25717","ios":"levelo://app?vid=6cde4c04-b0af-4388-b53d-81ed2ec25717"},"vehicle_type_id":"4","last_reported":1731291105,"current_range_meters":38800,"station_id":"ce4bhq12rcd13ifvqhig","pricing_plan_id":"cebpf4jnsgd1na2vs0mg"},{"bike_id":"8bc1e43e-b37b-49c8-8367-5379902b4936","system_id":"levelo_inurba_marseille","lat":43.30918,"lon":5.40138,"is_reserved":false,"is_disabled":false,"rental_uris":{"android":"levelo://app?vid=8bc1e43e-b37b-49c8-8367-5379902b4936","ios":"levelo://app?vid=8bc1e43e-b37b-49c8-8367-5379902b4936"},"vehicle_type_id":"4","last_reported":1731291105,"current_range_meters":38800,"station_id":"ce4bgvp2rcd13ifvqct0","pricing_plan_id":"cebpf4jnsgd1na2vs0mg"},{"bike_id":"7c59c113-339d-4f9b-b12b-18190bdaf895","system_id":"levelo_inurba_marseille","lat":43.25088,"lon":5.39514,"is_reserved":false,"is_disabled":false,"rental_uris":{"android":"levelo://app?vid=7c59c113-339d-4f9b-b12b-18190bdaf895","ios":"levelo://app?vid=7c59c113-339d-4f9b-b12b-18190bdaf895"},"vehicle_type_id":"4","last_reported":1731291105,"current_range_meters":39200,"station_id":"ce4bhm12rcd13ifvqgkg","pricing_plan_id":"cebpf4jnsgd1na2vs0mg"},{"bike_id":"f231988b-c677-4d61-8d18-d58a52fe96b5","system_id":"levelo_inurba_marseille","lat":43.25502,"lon":5.37655,"is_reserved":false,"is_disabled":false,"rental_uris":{"android":"levelo://app?vid=f231988b-c677-4d61-8d18-d58a52fe96b5","ios":"levelo://app?vid=f231988b-c677-4d61-8d18-d58a52fe96b5"},"vehicle_type_id":"4","last_reported":1731291105,"current_range_meters":38000,"station_id":"ce4bhh12rcd13ifvqff0","pricing_plan_id":"cebpf4jnsgd1na2vs0mg"},{"bike_id":"a2a4cf47-31fa-4fcc-9655-0f590765a862","system_id":"levelo_inurba_marseille","lat":43.30297,"lon":5.39211,"is_reserved":false,"is_disabled":false,"rental_uris":{"android":"levelo://app?vid=a2a4cf47-31fa-4fcc-9655-0f590765a862","ios":"levelo://app?vid=a2a4cf47-31fa-4fcc-9655-0f590765a862"},"vehicle_type_id":"4","last_reported":1731291105,"current_range_meters":34000,"station_id":"ce4bgkh2rcd13ifvqbk0","pricing_plan_id":"cebpf4jnsgd1na2vs0mg"},{"bike_id":"ab88d134-9b82-458a-a8c5-5574dab0724b","system_id":"levelo_inurba_marseille","lat":43.30324,"lon":5.36899,"is_reserved":false,"is_disabled":false,"rental_uris":{"android":"levelo://app?vid=ab88d134-9b82-458a-a8c5-5574dab0724b","ios":"levelo://app?vid=ab88d134-9b82-458a-a8c5-5574dab0724b"},"vehicle_type_id":"4","last_reported":1731291105,"current_range_meters":16000,"station_id":"ce4bgqh2rcd13ifvqc5g","pricing_plan_id":"cebpf4jnsgd1na2vs0mg"},{"bike_id":"2247684c-edc2-405a-aa03-95b9e51392c0","system_id":"levelo_inurba_marseille","lat":43.29233,"lon":5.40898,"is_reserved":false,"is_disabled":false,"rental_uris":{"android":"levelo://app?vid=2247684c-edc2-405a-aa03-95b9e51392c0","ios":"levelo://app?vid=2247684c-edc2-405a-aa03-95b9e51392c0"},"vehicle_type_id":"4","last_reported":1731291105,"current_range_meters":38000,"station_id":"ce4bh192rcd13ifvqdc0","pricing_plan_id":"cebpf4jnsgd1na2vs0mg"},{"bike_id":"85f3ddc3-1af9-4244-a6e8-4949da19964c","system_id":"levelo_inurba_marseille","lat":43.27069,"lon":5.42269,"is_reserved":false,"is_disabled":false,"rental_uris":{"android":"levelo://app?vid=85f3ddc3-1af9-4244-a6e8-4949da19964c","ios":"levelo://app?vid=85f3ddc3-1af9-4244-a6e8-4949da19964c"},"vehicle_type_id":"4","last_reported":1731291105,"current_range_meters":38800,"station_id":"ce4bhk92rcd13ifvqgb0","pricing_plan_id":"cebpf4jnsgd1na2vs0mg"},{"bike_id":"c51379d8-4ea9-46bf-a61b-9108abbdf7d2","system_id":"levelo_inurba_marseille","lat":43.28378,"lon":5.38627,"is_reserved":false,"is_disabled":false,"rental_uris":{"android":"levelo://app?vid=c51379d8-4ea9-46bf-a61b-9108abbdf7d2","ios":"levelo://app?vid=c51379d8-4ea9-46bf-a61b-9108abbdf7d2"},"vehicle_type_id":"4","last_reported":1731291105,"current_range_meters":22000,"station_id":"ce4bh492rcd13ifvqdvg","pricing_plan_id":"cebpf4jnsgd1na2vs0mg"},{"bike_id":"e550835f-6ecd-4a76-9b7c-29cc81fd1c2e","system_id":"levelo_inurba_marseille","lat":43.28703,"lon":5.37393,"is_reserved":false,"is_disabled":false,"rental_uris":{"android":"levelo://app?vid=e550835f-6ecd-4a76-9b7c-29cc81fd1c2e","ios":"levelo://app?vid=e550835f-6ecd-4a76-9b7c-29cc81fd1c2e"},"vehicle_type_id":"4","last_reported":1731291105,"current_range_meters":36000,"station_id":"ce4bh3p2rcd13ifvqdq0","pricing_plan_id":"cebpf4jnsgd1na2vs0mg"},{"bike_id":"61a098cd-cff4-4dec-98aa-0dde3bc5e154","system_id":"levelo_inurba_marseille","lat":43.2868,"lon":5.36359,"is_reserved":false,"is_disabled":false,"rental_uris":{"android":"levelo://app?vid=61a098cd-cff4-4dec-98aa-0dde3bc5e154","ios":"levelo://app?vid=61a098cd-cff4-4dec-98aa-0dde3bc5e154"},"vehicle_type_id":"4","last_reported":1731291105,"current_range_meters":28800,"station_id":"ce4bhah2rcd13ifvqej0","pricing_plan_id":"cebpf4jnsgd1na2vs0mg"},{"bike_id":"8dcf02e1-fbf0-4847-8c74-d48888faa266","system_id":"levelo_inurba_marseille","lat":43.30531,"lon":5.38915,"is_reserved":false,"is_disabled":false,"rental_uris":{"android":"levelo://app?vid=8dcf02e1-fbf0-4847-8c74-d48888faa266","ios":"levelo://app?vid=8dcf02e1-fbf0-4847-8c74-d48888faa266"},"vehicle_type_id":"4","last_reported":1731291105,"current_range_meters":36800,"station_id":"ce4bgk12rcd13ifvqbi0","pricing_plan_id":"cebpf4jnsgd1na2vs0mg"},{"bike_id":"e89d6ba5-505d-48b6-a958-6c9465b76c98","system_id":"levelo_inurba_marseille","lat":43.27951,"lon":5.4104,"is_reserved":false,"is_disabled":false,"rental_uris":{"android":"levelo://app?vid=e89d6ba5-505d-48b6-a958-6c9465b76c98","ios":"levelo://app?vid=e89d6ba5-505d-48b6-a958-6c9465b76c98"},"vehicle_type_id":"4","last_reported":1731291105,"current_range_meters":22400,"station_id":"ce4bhnp2rcd13ifvqh0g","pricing_plan_id":"cebpf4jnsgd1na2vs0mg"},{"bike_id":"e4fa8573-ade7-4c29-a9a6-6377a8c68851","system_id":"levelo_inurba_marseille","lat":43.30412,"lon":5.41282,"is_reserved":false,"is_disabled":false,"rental_uris":{"android":"levelo://app?vid=e4fa8573-ade7-4c29-a9a6-6377a8c68851","ios":"levelo://app?vid=e4fa8573-ade7-4c29-a9a6-6377a8c68851"},"vehicle_type_id":"4","last_reported":1731291105,"current_range_meters":28000,"station_id":"ce4bhop2rcd13ifvqh8g","pricing_plan_id":"cebpf4jnsgd1na2vs0mg"},{"bike_id":"dac021be-548c-4b6a-9a70-535acb3e6011","system_id":"levelo_inurba_marseille","lat":43.29898,"lon":5.43646,"is_reserved":false,"is_disabled":false,"rental_uris":{"android":"levelo://app?vid=dac021be-548c-4b6a-9a70-535acb3e6011","ios":"levelo://app?vid=dac021be-548c-4b6a-9a70-535acb3e6011"},"vehicle_type_id":"4","last_reported":1731291105,"current_range_meters":34800,"station_id":"ce4bhpp2rcd13ifvqhfg","pricing_plan_id":"cebpf4jnsgd1na2vs0mg"},{"bike_id":"fecdd1f9-9ba9-40fe-8ffd-765c3531dbdd","system_id":"levelo_inurba_marseille","lat":43.26567,"lon":5.39,"is_reserved":false,"is_disabled":false,"rental_uris":{"android":"levelo://app?vid=fecdd1f9-9ba9-40fe-8ffd-765c3531dbdd","ios":"levelo://app?vid=fecdd1f9-9ba9-40fe-8ffd-765c3531dbdd"},"vehicle_type_id":"4","last_reported":1731291105,"current_range_meters":38800,"station_id":"ce4bhe12rcd13ifvqf30","pricing_plan_id":"cebpf4jnsgd1na2vs0mg"},{"bike_id":"bc1f8083-69e6-4682-ac5c-20386c9ae2ee","system_id":"levelo_inurba_marseille","lat":43.25726,"lon":5.41087,"is_reserved":false,"is_disabled":false,"rental_uris":{"android":"levelo://app?vid=bc1f8083-69e6-4682-ac5c-20386c9ae2ee","ios":"levelo://app?vid=bc1f8083-69e6-4682-ac5c-20386c9ae2ee"},"vehicle_type_id":"4","last_reported":1731291105,"current_range_meters":19600,"station_id":"ce4bhkp2rcd13ifvqgd0","pricing_plan_id":"cebpf4jnsgd1na2vs0mg"},{"bike_id":"817e9135-f248-4cc1-8820-67b2629e906a","system_id":"levelo_inurba_marseille","lat":43.26817,"lon":5.40267,"is_reserved":false,"is_disabled":false,"rental_uris":{"android":"levelo://app?vid=817e9135-f248-4cc1-8820-67b2629e906a","ios":"levelo://app?vid=817e9135-f248-4cc1-8820-67b2629e906a"},"vehicle_type_id":"4","last_reported":1731291105,"current_range_meters":33600,"station_id":"ce501612rcd8frsf0b60","pricing_plan_id":"cebpf4jnsgd1na2vs0mg"},{"bike_id":"76cb7de1-c6cf-46f4-817f-a13daaf098d0","system_id":"levelo_inurba_marseille","lat":43.31537,"lon":5.38038,"is_reserved":false,"is_disabled":false,"rental_uris":{"android":"levelo://app?vid=76cb7de1-c6cf-46f4-817f-a13daaf098d0","ios":"levelo://app?vid=76cb7de1-c6cf-46f4-817f-a13daaf098d0"},"vehicle_type_id":"4","last_reported":1731291105,"current_range_meters":38800,"station_id":"ce4bhsp2rcd13ifvqi50","pricing_plan_id":"cebpf4jnsgd1na2vs0mg"},{"bike_id":"65602cb3-86cf-4913-8a65-8420040fc777","system_id":"levelo_inurba_marseille","lat":43.28706,"lon":5.39986,"is_reserved":false,"is_disabled":false,"rental_uris":{"android":"levelo://app?vid=65602cb3-86cf-4913-8a65-8420040fc777","ios":"levelo://app?vid=65602cb3-86cf-4913-8a65-8420040fc777"},"vehicle_type_id":"4","last_reported":1731291105,"current_range_meters":24000,"station_id":"ce4bho92rcd13ifvqh3g","pricing_plan_id":"cebpf4jnsgd1na2vs0mg"},{"bike_id":"a09b38a1-decd-415a-9b42-f45745940871","system_id":"levelo_inurba_marseille","lat":43.3045,"lon":5.38891,"is_reserved":false,"is_disabled":false,"rental_uris":{"android":"levelo://app?vid=a09b38a1-decd-415a-9b42-f45745940871","ios":"levelo://app?vid=a09b38a1-decd-415a-9b42-f45745940871"},"vehicle_type_id":"4","last_reported":1731291105,"current_range_meters":17600,"station_id":"ce4bgk12rcd13ifvqbi0","pricing_plan_id":"cebpf4jnsgd1na2vs0mg"},{"bike_id":"b085bf05-4012-4af0-91c2-493e112ef1f8","system_id":"levelo_inurba_marseille","lat":43.28408,"lon":5.37516,"is_reserved":false,"is_disabled":false,"rental_uris":{"android":"levelo://app?vid=b085bf05-4012-4af0-91c2-493e112ef1f8","ios":"levelo://app?vid=b085bf05-4012-4af0-91c2-493e112ef1f8"},"vehicle_type_id":"4","last_reported":1731291105,"current_range_meters":30000,"station_id":"ce4bh412rcd13ifvqds0","pricing_plan_id":"cebpf4jnsgd1na2vs0mg"},{"bike_id":"6b3c2e95-0821-4e1c-b4c4-408fdbaa8562","system_id":"levelo_inurba_marseille","lat":43.28955,"lon":5.39629,"is_reserved":false,"is_disabled":false,"rental_uris":{"android":"levelo://app?vid=6b3c2e95-0821-4e1c-b4c4-408fdbaa8562","ios":"levelo://app?vid=6b3c2e95-0821-4e1c-b4c4-408fdbaa8562"},"vehicle_type_id":"4","last_reported":1731291105,"current_range_meters":28800,"station_id":"ce4bh3h2rcd13ifvqdn0","pricing_plan_id":"cebpf4jnsgd1na2vs0mg"},{"bike_id":"d5990e19-0551-4ad3-8c2a-d80513ba61ae","system_id":"levelo_inurba_marseille","lat":43.23192,"lon":5.35538,"is_reserved":false,"is_disabled":false,"rental_uris":{"android":"levelo://app?vid=d5990e19-0551-4ad3-8c2a-d80513ba61ae","ios":"levelo://app?vid=d5990e19-0551-4ad3-8c2a-d80513ba61ae"},"vehicle_type_id":"4","last_reported":1731291105,"current_range_meters":30800,"station_id":"ce4bhu92rcd13ifvqi70","pricing_plan_id":"cebpf4jnsgd1na2vs0mg"},{"bike_id":"9946aa26-6457-42d1-9487-09066fab49dc","system_id":"levelo_inurba_marseille","lat":43.31175,"lon":5.38707,"is_reserved":false,"is_disabled":false,"rental_uris":{"android":"levelo://app?vid=9946aa26-6457-42d1-9487-09066fab49dc","ios":"levelo://app?vid=9946aa26-6457-42d1-9487-09066fab49dc"},"vehicle_type_id":"4","last_reported":1731291105,"current_range_meters":37600,"station_id":"ce4bgv12rcd13ifvqcp0","pricing_plan_id":"cebpf4jnsgd1na2vs0mg"},{"bike_id":"67ffc1e7-b9f0-4355-84e9-ce9125ee48de","system_id":"levelo_inurba_marseille","lat":43.31999,"lon":5.38161,"is_reserved":false,"is_disabled":false,"rental_uris":{"android":"levelo://app?vid=67ffc1e7-b9f0-4355-84e9-ce9125ee48de","ios":"levelo://app?vid=67ffc1e7-b9f0-4355-84e9-ce9125ee48de"},"vehicle_type_id":"4","last_reported":1731291105,"current_range_meters":38800,"station_id":"ce4bhr12rcd13ifvqhpg","pricing_plan_id":"cebpf4jnsgd1na2vs0mg"},{"bike_id":"c318665b-22d1-4dd0-93d5-afcbdf1ec912","system_id":"levelo_inurba_marseille","lat":43.27206,"lon":5.39191,"is_reserved":false,"is_disabled":false,"rental_uris":{"android":"levelo://app?vid=c318665b-22d1-4dd0-93d5-afcbdf1ec912","ios":"levelo://app?vid=c318665b-22d1-4dd0-93d5-afcbdf1ec912"},"vehicle_type_id":"4","last_reported":1731291105,"current_range_meters":38800,"station_id":"ce4bhhp2rcd13ifvqfm0","pricing_plan_id":"cebpf4jnsgd1na2vs0mg"},{"bike_id":"f8a80f2d-b549-46ec-a2ef-7f7a2490b738","system_id":"levelo_inurba_marseille","lat":43.26783,"lon":5.39425,"is_reserved":false,"is_disabled":false,"rental_uris":{"android":"levelo://app?vid=f8a80f2d-b549-46ec-a2ef-7f7a2490b738","ios":"levelo://app?vid=f8a80f2d-b549-46ec-a2ef-7f7a2490b738"},"vehicle_type_id":"4","last_reported":1731291105,"current_range_meters":37600,"station_id":"ce4bhh12rcd13ifvqfg0","pricing_plan_id":"cebpf4jnsgd1na2vs0mg"},{"bike_id":"73ae6848-5f67-4151-95f7-52ff0eee278d","system_id":"levelo_inurba_marseille","lat":43.30879,"lon":5.37192,"is_reserved":false,"is_disabled":false,"rental_uris":{"android":"levelo://app?vid=73ae6848-5f67-4151-95f7-52ff0eee278d","ios":"levelo://app?vid=73ae6848-5f67-4151-95f7-52ff0eee278d"},"vehicle_type_id":"4","last_reported":1731291105,"current_range_meters":38800,"station_id":"ce4bguh2rcd13ifvqckg","pricing_plan_id":"cebpf4jnsgd1na2vs0mg"},{"bike_id":"2881358d-7684-4053-924d-79115f4d5a66","system_id":"levelo_inurba_marseille","lat":43.3133,"lon":5.39705,"is_reserved":false,"is_disabled":false,"rental_uris":{"android":"levelo://app?vid=2881358d-7684-4053-924d-79115f4d5a66","ios":"levelo://app?vid=2881358d-7684-4053-924d-79115f4d5a66"},"vehicle_type_id":"4","last_reported":1731291105,"current_range_meters":28000,"station_id":"ce4bgvp2rcd13ifvqcu0","pricing_plan_id":"cebpf4jnsgd1na2vs0mg"},{"bike_id":"8148020f-1c2c-4fe4-8adc-b4b937986edf","system_id":"levelo_inurba_marseille","lat":43.34064,"lon":5.40964,"is_reserved":false,"is_disabled":false,"rental_uris":{"android":"levelo://app?vid=8148020f-1c2c-4fe4-8adc-b4b937986edf","ios":"levelo://app?vid=8148020f-1c2c-4fe4-8adc-b4b937986edf"},"vehicle_type_id":"4","last_reported":1731291105,"current_range_meters":37600,"station_id":"","pricing_plan_id":"cebpf4jnsgd1na2vs0mg"},{"bike_id":"a4a63e3d-ff54-4ff1-abba-5e07e77c0f6e","system_id":"levelo_inurba_marseille","lat":43.30788,"lon":5.38147,"is_reserved":false,"is_disabled":false,"rental_uris":{"android":"levelo://app?vid=a4a63e3d-ff54-4ff1-abba-5e07e77c0f6e","ios":"levelo://app?vid=a4a63e3d-ff54-4ff1-abba-5e07e77c0f6e"},"vehicle_type_id":"4","last_reported":1731291105,"current_range_meters":39200,"station_id":"ce4bgt12rcd13ifvqce0","pricing_plan_id":"cebpf4jnsgd1na2vs0mg"},{"bike_id":"0720132e-7bdf-43b1-9783-11d9414873d5","system_id":"levelo_inurba_marseille","lat":43.26036,"lon":5.37541,"is_reserved":false,"is_disabled":false,"rental_uris":{"android":"levelo://app?vid=0720132e-7bdf-43b1-9783-11d9414873d5","ios":"levelo://app?vid=0720132e-7bdf-43b1-9783-11d9414873d5"},"vehicle_type_id":"4","last_reported":1731291105,"current_range_meters":37600,"station_id":"ce4bhgh2rcd13ifvqfa0","pricing_plan_id":"cebpf4jnsgd1na2vs0mg"},{"bike_id":"15126981-6d35-42cb-954b-f5f1f52e3d20","system_id":"levelo_inurba_marseille","lat":43.30215,"lon":5.38949,"is_reserved":false,"is_disabled":false,"rental_uris":{"android":"levelo://app?vid=15126981-6d35-42cb-954b-f5f1f52e3d20","ios":"levelo://app?vid=15126981-6d35-42cb-954b-f5f1f52e3d20"},"vehicle_type_id":"4","last_reported":1731291105,"current_range_meters":33200,"station_id":"","pricing_plan_id":"cebpf4jnsgd1na2vs0mg"},{"bike_id":"203a15c9-60df-4940-9b77-9de40b0c35c9","system_id":"levelo_inurba_marseille","lat":43.28697,"lon":5.37907,"is_reserved":false,"is_disabled":false,"rental_uris":{"android":"levelo://app?vid=203a15c9-60df-4940-9b77-9de40b0c35c9","ios":"levelo://app?vid=203a15c9-60df-4940-9b77-9de40b0c35c9"},"vehicle_type_id":"4","last_reported":1731291105,"current_range_meters":36000,"station_id":"ce4bh9p2rcd13ifvqec0","pricing_plan_id":"cebpf4jnsgd1na2vs0mg"},{"bike_id":"ecb2a974-e4b0-4ec6-9a12-c0201c9679b2","system_id":"levelo_inurba_marseille","lat":43.24652,"lon":5.38893,"is_reserved":false,"is_disabled":false,"rental_uris":{"android":"levelo://app?vid=ecb2a974-e4b0-4ec6-9a12-c0201c9679b2","ios":"levelo://app?vid=ecb2a974-e4b0-4ec6-9a12-c0201c9679b2"},"vehicle_type_id":"4","last_reported":1731291105,"current_range_meters":12800,"station_id":"ce4bhg12rcd13ifvqf60","pricing_plan_id":"cebpf4jnsgd1na2vs0mg"},{"bike_id":"1fd38c58-71ed-4c76-9880-1f474d0cab1f","system_id":"levelo_inurba_marseille","lat":43.29714,"lon":5.36603,"is_reserved":false,"is_disabled":false,"rental_uris":{"android":"levelo://app?vid=1fd38c58-71ed-4c76-9880-1f474d0cab1f","ios":"levelo://app?vid=1fd38c58-71ed-4c76-9880-1f474d0cab1f"},"vehicle_type_id":"4","last_reported":1731291105,"current_range_meters":39200,"station_id":"ce4bgn12rcd13ifvqbt0","pricing_plan_id":"cebpf4jnsgd1na2vs0mg"},{"bike_id":"9ab3b81e-4cd0-44e1-aa28-4461d425e0c0","system_id":"levelo_inurba_marseille","lat":43.32652,"lon":5.40991,"is_reserved":false,"is_disabled":false,"rental_uris":{"android":"levelo://app?vid=9ab3b81e-4cd0-44e1-aa28-4461d425e0c0","ios":"levelo://app?vid=9ab3b81e-4cd0-44e1-aa28-4461d425e0c0"},"vehicle_type_id":"4","last_reported":1731291105,"current_range_meters":35600,"station_id":"ce4bhpp2rcd13ifvqhgg","pricing_plan_id":"cebpf4jnsgd1na2vs0mg"},{"bike_id":"1f445bdb-6cba-4bc4-a07e-aa67ee26774c","system_id":"levelo_inurba_marseille","lat":43.30878,"lon":5.39638,"is_reserved":false,"is_disabled":false,"rental_uris":{"android":"levelo://app?vid=1f445bdb-6cba-4bc4-a07e-aa67ee26774c","ios":"levelo://app?vid=1f445bdb-6cba-4bc4-a07e-aa67ee26774c"},"vehicle_type_id":"4","last_reported":1731291105,"current_range_meters":39200,"station_id":"ce4bh012rcd13ifvqcv0","pricing_plan_id":"cebpf4jnsgd1na2vs0mg"},{"bike_id":"bedfe257-ec8e-44aa-a6ac-c456d43815ff","system_id":"levelo_inurba_marseille","lat":43.33614,"lon":5.41016,"is_reserved":false,"is_disabled":false,"rental_uris":{"android":"levelo://app?vid=bedfe257-ec8e-44aa-a6ac-c456d43815ff","ios":"levelo://app?vid=bedfe257-ec8e-44aa-a6ac-c456d43815ff"},"vehicle_type_id":"4","last_reported":1731291105,"current_range_meters":38800,"station_id":"ce4bhqh2rcd13ifvqhmg","pricing_plan_id":"cebpf4jnsgd1na2vs0mg"},{"bike_id":"ac659186-70a1-4190-99a4-216b54d87779","system_id":"levelo_inurba_marseille","lat":43.23154,"lon":5.437,"is_reserved":false,"is_disabled":false,"rental_uris":{"android":"levelo://app?vid=ac659186-70a1-4190-99a4-216b54d87779","ios":"levelo://app?vid=ac659186-70a1-4190-99a4-216b54d87779"},"vehicle_type_id":"4","last_reported":1731291105,"current_range_meters":38400,"station_id":"ce4bhmp2rcd13ifvqgog","pricing_plan_id":"cebpf4jnsgd1na2vs0mg"},{"bike_id":"147e98c8-cfbc-409b-b1d4-630c22736e97","system_id":"levelo_inurba_marseille","lat":43.27983,"lon":5.41649,"is_reserved":false,"is_disabled":false,"rental_uris":{"android":"levelo://app?vid=147e98c8-cfbc-409b-b1d4-630c22736e97","ios":"levelo://app?vid=147e98c8-cfbc-409b-b1d4-630c22736e97"},"vehicle_type_id":"4","last_reported":1731291105,"current_range_meters":37600,"station_id":"ce4bho12rcd13ifvqh1g","pricing_plan_id":"cebpf4jnsgd1na2vs0mg"},{"bike_id":"b72ca6e7-47e9-42be-9a97-b74e22acdc0e","system_id":"levelo_inurba_marseille","lat":43.32103,"lon":5.36779,"is_reserved":false,"is_disabled":false,"rental_uris":{"android":"levelo://app?vid=b72ca6e7-47e9-42be-9a97-b74e22acdc0e","ios":"levelo://app?vid=b72ca6e7-47e9-42be-9a97-b74e22acdc0e"},"vehicle_type_id":"4","last_reported":1731291105,"current_range_meters":34800,"station_id":"ce4bhrh2rcd13ifvqhug","pricing_plan_id":"cebpf4jnsgd1na2vs0mg"},{"bike_id":"7024ce52-1f8d-40a4-a011-f7ed9c1f0afc","system_id":"levelo_inurba_marseille","lat":43.28706,"lon":5.37903,"is_reserved":false,"is_disabled":false,"rental_uris":{"android":"levelo://app?vid=7024ce52-1f8d-40a4-a011-f7ed9c1f0afc","ios":"levelo://app?vid=7024ce52-1f8d-40a4-a011-f7ed9c1f0afc"},"vehicle_type_id":"4","last_reported":1731291105,"current_range_meters":33600,"station_id":"ce4bh9p2rcd13ifvqec0","pricing_plan_id":"cebpf4jnsgd1na2vs0mg"},{"bike_id":"cba560a9-225e-4f01-8c18-fb95478c098b","system_id":"levelo_inurba_marseille","lat":43.264636,"lon":5.380511,"is_reserved":false,"is_disabled":false,"rental_uris":{"android":"levelo://app?vid=cba560a9-225e-4f01-8c18-fb95478c098b","ios":"levelo://app?vid=cba560a9-225e-4f01-8c18-fb95478c098b"},"vehicle_type_id":"4","last_reported":1731291105,"current_range_meters":32000,"station_id":"","pricing_plan_id":"cebpf4jnsgd1na2vs0mg"},{"bike_id":"293a36bf-54a5-4d24-979e-5fcee2691167","system_id":"levelo_inurba_marseille","lat":43.2795,"lon":5.41064,"is_reserved":false,"is_disabled":false,"rental_uris":{"android":"levelo://app?vid=293a36bf-54a5-4d24-979e-5fcee2691167","ios":"levelo://app?vid=293a36bf-54a5-4d24-979e-5fcee2691167"},"vehicle_type_id":"4","last_reported":1731291105,"current_range_meters":20400,"station_id":"ce4bhnp2rcd13ifvqh0g","pricing_plan_id":"cebpf4jnsgd1na2vs0mg"},{"bike_id":"5b50ad0b-7b1d-4337-8f35-81a0ca32ef00","system_id":"levelo_inurba_marseille","lat":43.28264,"lon":5.35063,"is_reserved":false,"is_disabled":false,"rental_uris":{"android":"levelo://app?vid=5b50ad0b-7b1d-4337-8f35-81a0ca32ef00","ios":"levelo://app?vid=5b50ad0b-7b1d-4337-8f35-81a0ca32ef00"},"vehicle_type_id":"4","last_reported":1731291105,"current_range_meters":29600,"station_id":"ce4bhbp2rcd13ifvqerg","pricing_plan_id":"cebpf4jnsgd1na2vs0mg"},{"bike_id":"c0adf7cc-ad53-4b30-988f-c0e3f3eb38b8","system_id":"levelo_inurba_marseille","lat":43.28104,"lon":5.37828,"is_reserved":false,"is_disabled":false,"rental_uris":{"android":"levelo://app?vid=c0adf7cc-ad53-4b30-988f-c0e3f3eb38b8","ios":"levelo://app?vid=c0adf7cc-ad53-4b30-988f-c0e3f3eb38b8"},"vehicle_type_id":"4","last_reported":1731291105,"current_range_meters":39200,"station_id":"ce4bha12rcd13ifvqee0","pricing_plan_id":"cebpf4jnsgd1na2vs0mg"},{"bike_id":"3bc699be-d107-4989-8d28-d8ecfe5f1c37","system_id":"levelo_inurba_marseille","lat":43.2781,"lon":5.40707,"is_reserved":false,"is_disabled":false,"rental_uris":{"android":"levelo://app?vid=3bc699be-d107-4989-8d28-d8ecfe5f1c37","ios":"levelo://app?vid=3bc699be-d107-4989-8d28-d8ecfe5f1c37"},"vehicle_type_id":"4","last_reported":1731291105,"current_range_meters":11600,"station_id":"ce4bhnh2rcd13ifvqgtg","pricing_plan_id":"cebpf4jnsgd1na2vs0mg"},{"bike_id":"978b27a1-ff5f-4e80-946e-a015e21a600f","system_id":"levelo_inurba_marseille","lat":43.28697,"lon":5.39978,"is_reserved":false,"is_disabled":false,"rental_uris":{"android":"levelo://app?vid=978b27a1-ff5f-4e80-946e-a015e21a600f","ios":"levelo://app?vid=978b27a1-ff5f-4e80-946e-a015e21a600f"},"vehicle_type_id":"4","last_reported":1731291105,"current_range_meters":14400,"station_id":"ce4bho92rcd13ifvqh3g","pricing_plan_id":"cebpf4jnsgd1na2vs0mg"},{"bike_id":"ecf991fb-272f-48ac-bfd3-028c5c875379","system_id":"levelo_inurba_marseille","lat":43.32648,"lon":5.40992,"is_reserved":false,"is_disabled":false,"rental_uris":{"android":"levelo://app?vid=ecf991fb-272f-48ac-bfd3-028c5c875379","ios":"levelo://app?vid=ecf991fb-272f-48ac-bfd3-028c5c875379"},"vehicle_type_id":"4","last_reported":1731291105,"current_range_meters":22000,"station_id":"ce4bhpp2rcd13ifvqhgg","pricing_plan_id":"cebpf4jnsgd1na2vs0mg"},{"bike_id":"1a192119-c608-4fab-b583-ecb6d7ae0bb4","system_id":"levelo_inurba_marseille","lat":43.29091,"lon":5.38139,"is_reserved":false,"is_disabled":false,"rental_uris":{"android":"levelo://app?vid=1a192119-c608-4fab-b583-ecb6d7ae0bb4","ios":"levelo://app?vid=1a192119-c608-4fab-b583-ecb6d7ae0bb4"},"vehicle_type_id":"4","last_reported":1731291105,"current_range_meters":38800,"station_id":"ce4bh512rcd13ifvqe2g","pricing_plan_id":"cebpf4jnsgd1na2vs0mg"},{"bike_id":"901a8ee9-a86a-49aa-b9b0-44d3ae03326a","system_id":"levelo_inurba_marseille","lat":43.31713,"lon":5.43703,"is_reserved":false,"is_disabled":false,"rental_uris":{"android":"levelo://app?vid=901a8ee9-a86a-49aa-b9b0-44d3ae03326a","ios":"levelo://app?vid=901a8ee9-a86a-49aa-b9b0-44d3ae03326a"},"vehicle_type_id":"4","last_reported":1731291105,"current_range_meters":9600,"station_id":"ce4bhp92rcd13ifvqhcg","pricing_plan_id":"cebpf4jnsgd1na2vs0mg"},{"bike_id":"52a71ef5-8ef7-4a13-9edb-b931936b8cfb","system_id":"levelo_inurba_marseille","lat":43.33723,"lon":5.39181,"is_reserved":false,"is_disabled":false,"rental_uris":{"android":"levelo://app?vid=52a71ef5-8ef7-4a13-9edb-b931936b8cfb","ios":"levelo://app?vid=52a71ef5-8ef7-4a13-9edb-b931936b8cfb"},"vehicle_type_id":"4","last_reported":1731291105,"current_range_meters":32400,"station_id":"ce4bhr92rcd13ifvqhsg","pricing_plan_id":"cebpf4jnsgd1na2vs0mg"},