{"last_updated":1745825724,"ttl":60,"version":"2.2","data":{"bikes":[{"bike_id":"41b05d77-2013-4df5-80e4-8b572f340efc","system_id":"levelo_inurba_marseille","lat":43.29261,"lon":5.37615,"is_reserved":false,"is_disabled":false,"rental_uris":{"android":"levelo://app?vid=41b05d77-2013-4df5-80e4-8b572f340efc","ios":"levelo://app?vid=41b05d77-2013-4df5-80e4-8b572f340efc"},"vehicle_type_id":"4","last_reported":1745825724,"current_range_meters":2800,"station_id":"ce4bgi12rcd13ifvqb80","pricing_plan_id":"cebpf4jnsgd1na2vs0mg"},{"bike_id":"40169073-7ba9-4bc1-a2d3-7e0838ac0d26","system_id":"levelo_inurba_marseille","lat":43.24085,"lon":5.3775,"is_reserved":false,"is_disabled":false,"rental_uris":{"android":"levelo://app?vid=40169073-7ba9-4bc1-a2d3-7e0838ac0d26","ios":"levelo://app?vid=40169073-7ba9-4bc1-a2d3-7e0838ac0d26"},"vehicle_type_id":"4","last_reported":1745825724,"current_range_meters":2800,"station_id":"ce4bhnp2rcd13ifvqgvg","pricing_plan_id":"cebpf4jnsgd1na2vs0mg"},{"bike_id":"f199fad3-2809-4e1e-b75f-62d5f42261d5","system_id":"levelo_inurba_marseille","lat":43.299652,"lon":5.371725,"is_reserved":false,"is_disabled":false,"rental_uris":{"android":"levelo://app?vid=f199fad3-2809-4e1e-b75f-62d5f42261d5","ios":"levelo://app?vid=f199fad3-2809-4e1e-b75f-62d5f42261d5"},"vehicle_type_id":"4","last_reported":1745825724,"current_range_meters":2000,"station_id":"ce4bgr92rcd13ifvqc7g","pricing_plan_id":"cebpf4jnsgd1na2vs0mg"},{"bike_id":"c456dba9-4a66-4701-a1ef-40e449cc4417","system_id":"levelo_inurba_marseille","lat":43.292943,"lon":5.374367,"is_reserved":false,"is_disabled":false,"rental_uris":{"android":"levelo://app?vid=c456dba9-4a66-4701-a1ef-40e449cc4417","ios":"levelo://app?vid=c456dba9-4a66-4701-a1ef-40e449cc4417"},"vehicle_type_id":"4","last_reported":1745825724,"current_range_meters":2800,"station_id":"ce4bgi12rcd13ifvqb70","pricing_plan_id":"cebpf4jnsgd1na2vs0mg"},{"bike_id":"308ce0d7-54d5-4aec-879f-da2149307f93","system_id":"levelo_inurba_marseille","lat":43.22509,"lon":5.3477,"is_reserved":false,"is_disabled":true,"rental_uris":{"android":"levelo://app?vid=308ce0d7-54d5-4aec-879f-da2149307f93","ios":"levelo://app?vid=308ce0d7-54d5-4aec-879f-da2149307f93"},"vehicle_type_id":"4","last_reported":1745825724,"current_range_meters":3200,"station_id":"st_cvj5dfep6f1abm77gieg","pricing_plan_id":"cebpf4jnsgd1na2vs0mg"},{"bike_id":"0e589e36-d1e2-47f2-aa94-dc1103f604dc","system_id":"levelo_inurba_marseille","lat":43.30142,"lon":5.37417,"is_reserved":false,"is_disabled":false,"rental_uris":{"android":"levelo://app?vid=0e589e36-d1e2-47f2-aa94-dc1103f604dc","ios":"levelo://app?vid=0e589e36-d1e2-47f2-aa94-dc1103f604dc"},"vehicle_type_id":"4","last_reported":1745825724,"current_range_meters":3200,"station_id":"ce4bgs92rcd13ifvqcc0","pricing_plan_id":"cebpf4jnsgd1na2vs0mg"},{"bike_id":"40eb78fe-b829-4d7a-a2d6-48e71817752c","system_id":"levelo_inurba_marseille","lat":43.294957,"lon":5.375358,"is_reserved":false,"is_disabled":false,"rental_uris":{"android":"levelo://app?vid=40eb78fe-b829-4d7a-a2d6-48e71817752c","ios":"levelo://app?vid=40eb78fe-b829-4d7a-a2d6-48e71817752c"},"vehicle_type_id":"4","last_reported":1745825724,"current_range_meters":2800,"station_id":"ce4bgkp2rcd13ifvqbmg","pricing_plan_id":"cebpf4jnsgd1na2vs0mg"},{"bike_id":"8ffc521d-de6e-41e4-8743-ca5b66eb0465","system_id":"levelo_inurba_marseille","lat":43.28439,"lon":5.3727,"is_reserved":false,"is_disabled":false,"rental_uris":{"android":"levelo://app?vid=8ffc521d-de6e-41e4-8743-ca5b66eb0465","ios":"levelo://app?vid=8ffc521d-de6e-41e4-8743-ca5b66eb0465"},"vehicle_type_id":"4","last_reported":1745825724,"current_range_meters":3600,"station_id":"ce4bht12rcd13ifvqi60","pricing_plan_id":"cebpf4jnsgd1na2vs0mg"},{"bike_id":"042a36cf-a68c-4f02-8fbe-a3d4f36fa492","system_id":"levelo_inurba_marseille","lat":43.21209,"lon":5.3507,"is_reserved":false,"is_disabled":false,"rental_uris":{"android":"levelo://app?vid=042a36cf-a68c-4f02-8fbe-a3d4f36fa492","ios":"levelo://app?vid=042a36cf-a68c-4f02-8fbe-a3d4f36fa492"},"vehicle_type_id":"4","last_reported":1745825724,"current_range_meters":3600,"station_id":"st_cvj6sg6p6f1abm77japg","pricing_plan_id":"cebpf4jnsgd1na2vs0mg"},{"bike_id":"c626a24e-65dc-464b-a551-b06879f57165","system_id":"levelo_inurba_marseille","lat":43.30912,"lon":5.3685,"is_reserved":false,"is_disabled":false,"rental_uris":{"android":"levelo://app?vid=c626a24e-65dc-464b-a551-b06879f57165","ios":"levelo://app?vid=c626a24e-65dc-464b-a551-b06879f57165"},"vehicle_type_id":"4","last_reported":1745825724,"current_range_meters":4000,"station_id":"ce4bgn92rcd13ifvqbvg","pricing_plan_id":"cebpf4jnsgd1na2vs0mg"},{"bike_id":"82016555-1022-467f-b7e9-084b6d838aac","system_id":"levelo_inurba_marseille","lat":43.25554,"lon":5.37613,"is_reserved":false,"is_disabled":false,"rental_uris":{"android":"levelo://app?vid=82016555-1022-467f-b7e9-084b6d838aac","ios":"levelo://app?vid=82016555-1022-467f-b7e9-084b6d838aac"},"vehicle_type_id":"4","last_reported":1745825724,"current_range_meters":4400,"station_id":"","pricing_plan_id":"cebpf4jnsgd1na2vs0mg"},{"bike_id":"2d4820d4-569a-4ec0-b000-e82a960dd30b","system_id":"levelo_inurba_marseille","lat":43.23151,"lon":5.35549,"is_reserved":false,"is_disabled":true,"rental_uris":{"android":"levelo://app?vid=2d4820d4-569a-4ec0-b000-e82a960dd30b","ios":"levelo://app?vid=2d4820d4-569a-4ec0-b000-e82a960dd30b"},"vehicle_type_id":"4","last_reported":1745825724,"current_range_meters":4400,"station_id":"ce4bhu92rcd13ifvqi70","pricing_plan_id":"cebpf4jnsgd1na2vs0mg"},{"bike_id":"bd2c1650-6042-4730-b212-cf6ba4fc525a","system_id":"levelo_inurba_marseille","lat":43.30949,"lon":5.39032,"is_reserved":false,"is_disabled":true,"rental_uris":{"android":"levelo://app?vid=bd2c1650-6042-4730-b212-cf6ba4fc525a","ios":"levelo://app?vid=bd2c1650-6042-4730-b212-cf6ba4fc525a"},"vehicle_type_id":"4","last_reported":1745825724,"current_range_meters":4400,"station_id":"ce4bgup2rcd13ifvqco0","pricing_plan_id":"cebpf4jnsgd1na2vs0mg"},{"bike_id":"b203106f-15ad-4224-a9bb-aef6d708468c","system_id":"levelo_inurba_marseille","lat":43.27505,"lon":5.42445,"is_reserved":false,"is_disabled":false,"rental_uris":{"android":"levelo://app?vid=b203106f-15ad-4224-a9bb-aef6d708468c","ios":"levelo://app?vid=b203106f-15ad-4224-a9bb-aef6d708468c"},"vehicle_type_id":"4","last_reported":1745825724,"current_range_meters":4400,"station_id":"ce4bhn92rcd13ifvqgrg","pricing_plan_id":"cebpf4jnsgd1na2vs0mg"},{"bike_id":"c1b1b433-bcb9-4a7d-8963-3218bcdcba1e","system_id":"levelo_inurba_marseille","lat":43.23361,"lon":5.36058,"is_reserved":false,"is_disabled":false,"rental_uris":{"android":"levelo://app?vid=c1b1b433-bcb9-4a7d-8963-3218bcdcba1e","ios":"levelo://app?vid=c1b1b433-bcb9-4a7d-8963-3218bcdcba1e"},"vehicle_type_id":"4","last_reported":1745825724,"current_range_meters":4400,"station_id":"","pricing_plan_id":"cebpf4jnsgd1na2vs0mg"},{"bike_id":"81159e63-3b35-42d5-8e59-a6400c53568e","system_id":"levelo_inurba_marseille","lat":43.21775,"lon":5.34588,"is_reserved":false,"is_disabled":false,"rental_uris":{"android":"levelo://app?vid=81159e63-3b35-42d5-8e59-a6400c53568e","ios":"levelo://app?vid=81159e63-3b35-42d5-8e59-a6400c53568e"},"vehicle_type_id":"4","last_reported":1745825724,"current_range_meters":4800,"station_id":"st_cvj6r9ubvosntc0bgbag","pricing_plan_id":"cebpf4jnsgd1na2vs0mg"},{"bike_id":"5e7994ff-43da-4f9a-9cbb-bc7b4cd53cd4","system_id":"levelo_inurba_marseille","lat":43.24083,"lon":5.37715,"is_reserved":false,"is_disabled":false,"rental_uris":{"android":"levelo://app?vid=5e7994ff-43da-4f9a-9cbb-bc7b4cd53cd4","ios":"levelo://app?vid=5e7994ff-43da-4f9a-9cbb-bc7b4cd53cd4"},"vehicle_type_id":"4","last_reported":1745825724,"current_range_meters":4800,"station_id":"ce4bhnp2rcd13ifvqgvg","pricing_plan_id":"cebpf4jnsgd1na2vs0mg"},{"bike_id":"5eb024a8-a62f-44c6-9487-11a1a04e61a8","system_id":"levelo_inurba_marseille","lat":43.26226,"lon":5.40449,"is_reserved":false,"is_disabled":false,"rental_uris":{"android":"levelo://app?vid=5eb024a8-a62f-44c6-9487-11a1a04e61a8","ios":"levelo://app?vid=5eb024a8-a62f-44c6-9487-11a1a04e61a8"},"vehicle_type_id":"4","last_reported":1745825724,"current_range_meters":4800,"station_id":"ce4bhmh2rcd13ifvqgmg","pricing_plan_id":"cebpf4jnsgd1na2vs0mg"},{"bike_id":"c15df8fc-8cb9-4944-9a49-2df32e045cae","system_id":"levelo_inurba_marseille","lat":43.313332,"lon":5.367252,"is_reserved":false,"is_disabled":false,"rental_uris":{"android":"levelo://app?vid=c15df8fc-8cb9-4944-9a49-2df32e045cae","ios":"levelo://app?vid=c15df8fc-8cb9-4944-9a49-2df32e045cae"},"vehicle_type_id":"4","last_reported":1745825724,"current_range_meters":4800,"station_id":"ce4bgr92rcd13ifvqc6g","pricing_plan_id":"cebpf4jnsgd1na2vs0mg"},{"bike_id":"4a5edcf1-6727-4c60-8f88-19c6d2a1f8fa","system_id":"levelo_inurba_marseille","lat":43.22931,"lon":5.35375,"is_reserved":false,"is_disabled":false,"rental_uris":{"android":"levelo://app?vid=4a5edcf1-6727-4c60-8f88-19c6d2a1f8fa","ios":"levelo://app?vid=4a5edcf1-6727-4c60-8f88-19c6d2a1f8fa"},"vehicle_type_id":"4","last_reported":1745825724,"current_range_meters":4800,"station_id":"cpo3532slgdg3j2ikp40","pricing_plan_id":"cebpf4jnsgd1na2vs0mg"},{"bike_id":"5d830342-dbd1-44aa-bd2b-f1f4117876cd","system_id":"levelo_inurba_marseille","lat":43.31495,"lon":5.37297,"is_reserved":false,"is_disabled":false,"rental_uris":{"android":"levelo://app?vid=5d830342-dbd1-44aa-bd2b-f1f4117876cd","ios":"levelo://app?vid=5d830342-dbd1-44aa-bd2b-f1f4117876cd"},"vehicle_type_id":"4","last_reported":1745825724,"current_range_meters":5600,"station_id":"ce4bgt12rcd13ifvqcd0","pricing_plan_id":"cebpf4jnsgd1na2vs0mg"},{"bike_id":"3ece744f-2d63-4a7b-b220-b45136aa1bdc","system_id":"levelo_inurba_marseille","lat":43.28611,"lon":5.37064,"is_reserved":false,"is_disabled":false,"rental_uris":{"android":"levelo://app?vid=3ece744f-2d63-4a7b-b220-b45136aa1bdc","ios":"levelo://app?vid=3ece744f-2d63-4a7b-b220-b45136aa1bdc"},"vehicle_type_id":"4","last_reported":1745825724,"current_range_meters":5600,"station_id":"ce4bht12rcd13ifvqi60","pricing_plan_id":"cebpf4jnsgd1na2vs0mg"},{"bike_id":"464faafa-932e-4119-bec3-4f8ff81e8c99","system_id":"levelo_inurba_marseille","lat":43.30947,"lon":5.39046,"is_reserved":false,"is_disabled":false,"rental_uris":{"android":"levelo://app?vid=464faafa-932e-4119-bec3-4f8ff81e8c99","ios":"levelo://app?vid=464faafa-932e-4119-bec3-4f8ff81e8c99"},"vehicle_type_id":"4","last_reported":1745825724,"current_range_meters":5600,"station_id":"ce4bgup2rcd13ifvqco0","pricing_plan_id":"cebpf4jnsgd1na2vs0mg"},{"bike_id":"d803668a-3484-4fb4-8632-6b12a0889c3c","system_id":"levelo_inurba_marseille","lat":43.24076,"lon":5.37745,"is_reserved":false,"is_disabled":false,"rental_uris":{"android":"levelo://app?vid=d803668a-3484-4fb4-8632-6b12a0889c3c","ios":"levelo://app?vid=d803668a-3484-4fb4-8632-6b12a0889c3c"},"vehicle_type_id":"4","last_reported":1745825724,"current_range_meters":6000,"station_id":"ce4bhnp2rcd13ifvqgvg","pricing_plan_id":"cebpf4jnsgd1na2vs0mg"},{"bike_id":"bc40d57c-778a-44d6-b329-85c26839a817","system_id":"levelo_inurba_marseille","lat":43.31573,"lon":5.38523,"is_reserved":false,"is_disabled":true,"rental_uris":{"android":"levelo://app?vid=bc40d57c-778a-44d6-b329-85c26839a817","ios":"levelo://app?vid=bc40d57c-778a-44d6-b329-85c26839a817"},"vehicle_type_id":"4","last_reported":1745825724,"current_range_meters":6000,"station_id":"","pricing_plan_id":"cebpf4jnsgd1na2vs0mg"},{"bike_id":"cf6ec47c-bcb7-43da-a2f5-7144fabd8db5","system_id":"levelo_inurba_marseille","lat":43.23152,"lon":5.43724,"is_reserved":false,"is_disabled":false,"rental_uris":{"android":"levelo://app?vid=cf6ec47c-bcb7-43da-a2f5-7144fabd8db5","ios":"levelo://app?vid=cf6ec47c-bcb7-43da-a2f5-7144fabd8db5"},"vehicle_type_id":"4","last_reported":1745825724,"current_range_meters":6400,"station_id":"ce4bhmp2rcd13ifvqgog","pricing_plan_id":"cebpf4jnsgd1na2vs0mg"},{"bike_id":"c596ab54-4f89-4649-a442-12778ac8adc4","system_id":"levelo_inurba_marseille","lat":43.31726,"lon":5.43697,"is_reserved":false,"is_disabled":true,"rental_uris":{"android":"levelo://app?vid=c596ab54-4f89-4649-a442-12778ac8adc4","ios":"levelo://app?vid=c596ab54-4f89-4649-a442-12778ac8adc4"},"vehicle_type_id":"4","last_reported":1745825724,"current_range_meters":6400,"station_id":"ce4bhp92rcd13ifvqhcg","pricing_plan_id":"cebpf4jnsgd1na2vs0mg"},{"bike_id":"a715c494-c78f-45db-82ec-28f47473c92c","system_id":"levelo_inurba_marseille","lat":43.297065,"lon":5.376944,"is_reserved":false,"is_disabled":false,"rental_uris":{"android":"levelo://app?vid=a715c494-c78f-45db-82ec-28f47473c92c","ios":"levelo://app?vid=a715c494-c78f-45db-82ec-28f47473c92c"},"vehicle_type_id":"4","last_reported":1745825724,"current_range_meters":6400,"station_id":"ce4bgkh2rcd13ifvqbl0","pricing_plan_id":"cebpf4jnsgd1na2vs0mg"},{"bike_id":"bd5883a4-34de-4768-82e5-6e8a298f1212","system_id":"levelo_inurba_marseille","lat":43.25935,"lon":5.4091,"is_reserved":false,"is_disabled":false,"rental_uris":{"android":"levelo://app?vid=bd5883a4-34de-4768-82e5-6e8a298f1212","ios":"levelo://app?vid=bd5883a4-34de-4768-82e5-6e8a298f1212"},"vehicle_type_id":"4","last_reported":1745825724,"current_range_meters":6400,"station_id":"ce4bhm92rcd13ifvqglg","pricing_plan_id":"cebpf4jnsgd1na2vs0mg"},{"bike_id":"5ddba1f1-1747-4179-b91f-b8778028cd60","system_id":"levelo_inurba_marseille","lat":43.25619,"lon":5.41177,"is_reserved":false,"is_disabled":false,"rental_uris":{"android":"levelo://app?vid=5ddba1f1-1747-4179-b91f-b8778028cd60","ios":"levelo://app?vid=5ddba1f1-1747-4179-b91f-b8778028cd60"},"vehicle_type_id":"4","last_reported":1745825724,"current_range_meters":6400,"station_id":"","pricing_plan_id":"cebpf4jnsgd1na2vs0mg"},{"bike_id":"28519469-55a8-45cb-8f5f-dbe6da9b0aff","system_id":"levelo_inurba_marseille","lat":43.25947,"lon":5.40888,"is_reserved":false,"is_disabled":false,"rental_uris":{"android":"levelo://app?vid=28519469-55a8-45cb-8f5f-dbe6da9b0aff","ios":"levelo://app?vid=28519469-55a8-45cb-8f5f-dbe6da9b0aff"},"vehicle_type_id":"4","last_reported":1745825724,"current_range_meters":6400,"station_id":"ce4bhm92rcd13ifvqglg","pricing_plan_id":"cebpf4jnsgd1na2vs0mg"},{"bike_id":"647eceb0-396c-4b66-9b6a-15942a39bd89","system_id":"levelo_inurba_marseille","lat":43.2417,"lon":5.36394,"is_reserved":false,"is_disabled":false,"rental_uris":{"android":"levelo://app?vid=647eceb0-396c-4b66-9b6a-15942a39bd89","ios":"levelo://app?vid=647eceb0-396c-4b66-9b6a-15942a39bd89"},"vehicle_type_id":"4","last_reported":1745825724,"current_range_meters":6800,"station_id":"cpo36qri1sfpv3e86is0","pricing_plan_id":"cebpf4jnsgd1na2vs0mg"},{"bike_id":"ee4b8cc4-1bda-40d1-a6f9-1454781afd38","system_id":"levelo_inurba_marseille","lat":43.28679,"lon":5.36345,"is_reserved":false,"is_disabled":true,"rental_uris":{"android":"levelo://app?vid=ee4b8cc4-1bda-40d1-a6f9-1454781afd38","ios":"levelo://app?vid=ee4b8cc4-1bda-40d1-a6f9-1454781afd38"},"vehicle_type_id":"4","last_reported":1745825724,"current_range_meters":6800,"station_id":"ce4bhah2rcd13ifvqej0","pricing_plan_id":"cebpf4jnsgd1na2vs0mg"},{"bike_id":"dcf15a01-6840-4133-bc5b-5de56c121466","system_id":"levelo_inurba_marseille","lat":43.24106,"lon":5.37753,"is_reserved":false,"is_disabled":false,"rental_uris":{"android":"levelo://app?vid=dcf15a01-6840-4133-bc5b-5de56c121466","ios":"levelo://app?vid=dcf15a01-6840-4133-bc5b-5de56c121466"},"vehicle_type_id":"4","last_reported":1745825724,"current_range_meters":6800,"station_id":"ce4bhnp2rcd13ifvqgvg","pricing_plan_id":"cebpf4jnsgd1na2vs0mg"},{"bike_id":"64d4c2a4-c8f7-4762-af83-98c376c7623f","system_id":"levelo_inurba_marseille","lat":43.21761,"lon":5.3459,"is_reserved":false,"is_disabled":false,"rental_uris":{"android":"levelo://app?vid=64d4c2a4-c8f7-4762-af83-98c376c7623f","ios":"levelo://app?vid=64d4c2a4-c8f7-4762-af83-98c376c7623f"},"vehicle_type_id":"4","last_reported":1745825724,"current_range_meters":6800,"station_id":"st_cvj6r9ubvosntc0bgbag","pricing_plan_id":"cebpf4jnsgd1na2vs0mg"},{"bike_id":"721ac694-ddc1-45a4-93fe-2aef08d4b564","system_id":"levelo_inurba_marseille","lat":43.24193,"lon":5.36379,"is_reserved":false,"is_disabled":false,"rental_uris":{"android":"levelo://app?vid=721ac694-ddc1-45a4-93fe-2aef08d4b564","ios":"levelo://app?vid=721ac694-ddc1-45a4-93fe-2aef08d4b564"},"vehicle_type_id":"4","last_reported":1745825724,"current_range_meters":6800,"station_id":"cpo36qri1sfpv3e86is0","pricing_plan_id":"cebpf4jnsgd1na2vs0mg"},{"bike_id":"df363c04-c897-45e2-b1be-12b35e1c1443","system_id":"levelo_inurba_marseille","lat":43.33721,"lon":5.3918,"is_reserved":false,"is_disabled":false,"rental_uris":{"android":"levelo://app?vid=df363c04-c897-45e2-b1be-12b35e1c1443","ios":"levelo://app?vid=df363c04-c897-45e2-b1be-12b35e1c1443"},"vehicle_type_id":"4","last_reported":1745825724,"current_range_meters":6800,"station_id":"ce4bhr92rcd13ifvqhsg","pricing_plan_id":"cebpf4jnsgd1na2vs0mg"},{"bike_id":"cd5002bd-e571-41f2-8ef4-b16c27da09d1","system_id":"levelo_inurba_marseille","lat":43.26135,"lon":5.38724,"is_reserved":false,"is_disabled":false,"rental_uris":{"android":"levelo://app?vid=cd5002bd-e571-41f2-8ef4-b16c27da09d1","ios":"levelo://app?vid=cd5002bd-e571-41f2-8ef4-b16c27da09d1"},"vehicle_type_id":"4","last_reported":1745825724,"current_range_meters":6800,"station_id":"","pricing_plan_id":"cebpf4jnsgd1na2vs0mg"},{"bike_id":"dfafb523-9094-4b1d-8aa3-15dd89c87312","system_id":"levelo_inurba_marseille","lat":43.27496,"lon":5.42456,"is_reserved":false,"is_disabled":false,"rental_uris":{"android":"levelo://app?vid=dfafb523-9094-4b1d-8aa3-15dd89c87312","ios":"levelo://app?vid=dfafb523-9094-4b1d-8aa3-15dd89c87312"},"vehicle_type_id":"4","last_reported":1745825724,"current_range_meters":6800,"station_id":"ce4bhn92rcd13ifvqgrg","pricing_plan_id":"cebpf4jnsgd1na2vs0mg"},{"bike_id":"a6051c0f-2d64-4371-b801-c4a9da08ef56","system_id":"levelo_inurba_marseille","lat":43.25936,"lon":5.4091,"is_reserved":false,"is_disabled":false,"rental_uris":{"android":"levelo://app?vid=a6051c0f-2d64-4371-b801-c4a9da08ef56","ios":"levelo://app?vid=a6051c0f-2d64-4371-b801-c4a9da08ef56"},"vehicle_type_id":"4","last_reported":1745825724,"current_range_meters":7200,"station_id":"ce4bhm92rcd13ifvqglg","pricing_plan_id":"cebpf4jnsgd1na2vs0mg"},{"bike_id":"85ae7515-226c-474a-a3b0-de62bd0e68d2","system_id":"levelo_inurba_marseille","lat":43.325371,"lon":5.414218,"is_reserved":false,"is_disabled":false,"rental_uris":{"android":"levelo://app?vid=85ae7515-226c-474a-a3b0-de62bd0e68d2","ios":"levelo://app?vid=85ae7515-226c-474a-a3b0-de62bd0e68d2"},"vehicle_type_id":"4","last_reported":1745825724,"current_range_meters":7200,"station_id":"ce4bhq12rcd13ifvqhhg","pricing_plan_id":"cebpf4jnsgd1na2vs0mg"},{"bike_id":"6d943d83-df2f-41fc-bb8f-a3f73ea659a5","system_id":"levelo_inurba_marseille","lat":43.30592,"lon":5.36654,"is_reserved":false,"is_disabled":false,"rental_uris":{"android":"levelo://app?vid=6d943d83-df2f-41fc-bb8f-a3f73ea659a5","ios":"levelo://app?vid=6d943d83-df2f-41fc-bb8f-a3f73ea659a5"},"vehicle_type_id":"4","last_reported":1745825724,"current_range_meters":8000,"station_id":"","pricing_plan_id":"cebpf4jnsgd1na2vs0mg"},{"bike_id":"2bf8891a-67d5-4ade-8521-c6ee5a62bdd9","system_id":"levelo_inurba_marseille","lat":43.337444,"lon":5.374475,"is_reserved":false,"is_disabled":false,"rental_uris":{"android":"levelo://app?vid=2bf8891a-67d5-4ade-8521-c6ee5a62bdd9","ios":"levelo://app?vid=2bf8891a-67d5-4ade-8521-c6ee5a62bdd9"},"vehicle_type_id":"4","last_reported":1745825724,"current_range_meters":8000,"station_id":"","pricing_plan_id":"cebpf4jnsgd1na2vs0mg"},{"bike_id":"574c21c3-5de9-4bfa-a3aa-ac4e3698f0a7","system_id":"levelo_inurba_marseille","lat":43.27199,"lon":5.39193,"is_reserved":false,"is_disabled":true,"rental_uris":{"android":"levelo://app?vid=574c21c3-5de9-4bfa-a3aa-ac4e3698f0a7","ios":"levelo://app?vid=574c21c3-5de9-4bfa-a3aa-ac4e3698f0a7"},"vehicle_type_id":"4","last_reported":1745825724,"current_range_meters":8000,"station_id":"ce4bhhp2rcd13ifvqfm0","pricing_plan_id":"cebpf4jnsgd1na2vs0mg"},{"bike_id":"554c7222-d609-4841-a832-33adb157bebb","system_id":"levelo_inurba_marseille","lat":43.2119,"lon":5.35074,"is_reserved":false,"is_disabled":false,"rental_uris":{"android":"levelo://app?vid=554c7222-d609-4841-a832-33adb157bebb","ios":"levelo://app?vid=554c7222-d609-4841-a832-33adb157bebb"},"vehicle_type_id":"4","last_reported":1745825724,"current_range_meters":8000,"station_id":"st_cvj6sg6p6f1abm77japg","pricing_plan_id":"cebpf4jnsgd1na2vs0mg"},{"bike_id":"643991b3-96e1-47c8-acb4-2ceb4ec24140","system_id":"levelo_inurba_marseille","lat":43.255875,"lon":5.38246,"is_reserved":false,"is_disabled":false,"rental_uris":{"android":"levelo://app?vid=643991b3-96e1-47c8-acb4-2ceb4ec24140","ios":"levelo://app?vid=643991b3-96e1-47c8-acb4-2ceb4ec24140"},"vehicle_type_id":"4","last_reported":1745825724,"current_range_meters":8000,"station_id":"ce4bhih2rcd13ifvqfs0","pricing_plan_id":"cebpf4jnsgd1na2vs0mg"},{"bike_id":"91474842-32bf-45c2-856a-80fd91d22aa5","system_id":"levelo_inurba_marseille","lat":43.21193,"lon":5.35079,"is_reserved":false,"is_disabled":false,"rental_uris":{"android":"levelo://app?vid=91474842-32bf-45c2-856a-80fd91d22aa5","ios":"levelo://app?vid=91474842-32bf-45c2-856a-80fd91d22aa5"},"vehicle_type_id":"4","last_reported":1745825724,"current_range_meters":8000,"station_id":"st_cvj6sg6p6f1abm77japg","pricing_plan_id":"cebpf4jnsgd1na2vs0mg"},{"bike_id":"aae164b7-1114-49aa-b004-978d7030ee91","system_id":"levelo_inurba_marseille","lat":43.250063,"lon":5.38929,"is_reserved":false,"is_disabled":false,"rental_uris":{"android":"levelo://app?vid=aae164b7-1114-49aa-b004-978d7030ee91","ios":"levelo://app?vid=aae164b7-1114-49aa-b004-978d7030ee91"},"vehicle_type_id":"4","last_reported":1745825724,"current_range_meters":8000,"station_id":"ce4bhgp2rcd13ifvqfd0","pricing_plan_id":"cebpf4jnsgd1na2vs0mg"},{"bike_id":"0053b840-de47-4900-98aa-cc8575176b05","system_id":"levelo_inurba_marseille","lat":43.2417,"lon":5.36415,"is_reserved":false,"is_disabled":true,"rental_uris":{"android":"levelo://app?vid=0053b840-de47-4900-98aa-cc8575176b05","ios":"levelo://app?vid=0053b840-de47-4900-98aa-cc8575176b05"},"vehicle_type_id":"4","last_reported":1745825724,"current_range_meters":8400,"station_id":"cpo36qri1sfpv3e86is0","pricing_plan_id":"cebpf4jnsgd1na2vs0mg"},{"bike_id":"23266d2c-888a-4107-b38b-9eeba7fbec21","system_id":"levelo_inurba_marseille","lat":43.30945,"lon":5.36883,"is_reserved":false,"is_disabled":false,"rental_uris":{"android":"levelo://app?vid=23266d2c-888a-4107-b38b-9eeba7fbec21","ios":"levelo://app?vid=23266d2c-888a-4107-b38b-9eeba7fbec21"},"vehicle_type_id":"4","last_reported":1745825724,"current_range_meters":8400,"station_id":"ce4bgn92rcd13ifvqbvg","pricing_plan_id":"cebpf4jnsgd1na2vs0mg"},{"bike_id":"ddd72306-b9a1-4b69-902d-1899abfcac3a","system_id":"levelo_inurba_marseille","lat":43.30956,"lon":5.39098,"is_reserved":false,"is_disabled":false,"rental_uris":{"android":"levelo://app?vid=ddd72306-b9a1-4b69-902d-1899abfcac3a","ios":"levelo://app?vid=ddd72306-b9a1-4b69-902d-1899abfcac3a"},"vehicle_type_id":"4","last_reported":1745825724,"current_range_meters":8400,"station_id":"ce4bgup2rcd13ifvqco0","pricing_plan_id":"cebpf4jnsgd1na2vs0mg"},{"bike_id":"209c6466-c0b1-4e0d-b4f4-59055eae5912","system_id":"levelo_inurba_marseille","lat":43.25133,"lon":5.40362,"is_reserved":false,"is_disabled":true,"rental_uris":{"android":"levelo://app?vid=209c6466-c0b1-4e0d-b4f4-59055eae5912","ios":"levelo://app?vid=209c6466-c0b1-4e0d-b4f4-59055eae5912"},"vehicle_type_id":"4","last_reported":1745825724,"current_range_meters":8400,"station_id":"ce4bhlh2rcd13ifvqgig","pricing_plan_id":"cebpf4jnsgd1na2vs0mg"},{"bike_id":"6dfce707-29ae-4b35-a336-de5c1e641a79","system_id":"levelo_inurba_marseille","lat":43.25932,"lon":5.40903,"is_reserved":false,"is_disabled":false,"rental_uris":{"android":"levelo://app?vid=6dfce707-29ae-4b35-a336-de5c1e641a79","ios":"levelo://app?vid=6dfce707-29ae-4b35-a336-de5c1e641a79"},"vehicle_type_id":"4","last_reported":1745825724,"current_range_meters":8800,"station_id":"ce4bhm92rcd13ifvqglg","pricing_plan_id":"cebpf4jnsgd1na2vs0mg"},{"bike_id":"433bc301-b315-431c-bc08-ef7d5c147876","system_id":"levelo_inurba_marseille","lat":43.27503,"lon":5.42461,"is_reserved":false,"is_disabled":false,"rental_uris":{"android":"levelo://app?vid=433bc301-b315-431c-bc08-ef7d5c147876","ios":"levelo://app?vid=433bc301-b315-431c-bc08-ef7d5c147876"},"vehicle_type_id":"4","last_reported":1745825724,"current_range_meters":8800,"station_id":"ce4bhn92rcd13ifvqgrg","pricing_plan_id":"cebpf4jnsgd1na2vs0mg"},{"bike_id":"f1c32247-5907-434f-9d9e-fa14c8d8e8b3","system_id":"levelo_inurba_marseille","lat":43.22946,"lon":5.35401,"is_reserved":false,"is_disabled":false,"rental_uris":{"android":"levelo://app?vid=f1c32247-5907-434f-9d9e-fa14c8d8e8b3","ios":"levelo://app?vid=f1c32247-5907-434f-9d9e-fa14c8d8e8b3"},"vehicle_type_id":"4","last_reported":1745825724,"current_range_meters":8800,"station_id":"cpo3532slgdg3j2ikp40","pricing_plan_id":"cebpf4jnsgd1na2vs0mg"},{"bike_id":"44530a1d-b48a-47f5-a929-63b20a3c24dc","system_id":"levelo_inurba_marseille","lat":43.24169,"lon":5.36402,"is_reserved":false,"is_disabled":false,"rental_uris":{"android":"levelo://app?vid=44530a1d-b48a-47f5-a929-63b20a3c24dc","ios":"levelo://app?vid=44530a1d-b48a-47f5-a929-63b20a3c24dc"},"vehicle_type_id":"4","last_reported":1745825724,"current_range_meters":8800,"station_id":"cpo36qri1sfpv3e86is0","pricing_plan_id":"cebpf4jnsgd1na2vs0mg"},{"bike_id":"21a5b78b-6652-49fa-a8ee-70531791ccf1","system_id":"levelo_inurba_marseille","lat":43.24917,"lon":5.42531,"is_reserved":false,"is_disabled":false,"rental_uris":{"android":"levelo://app?vid=21a5b78b-6652-49fa-a8ee-70531791ccf1","ios":"levelo://app?vid=21a5b78b-6652-49fa-a8ee-70531791ccf1"},"vehicle_type_id":"4","last_reported":1745825724,"current_range_meters":8800,"station_id":"","pricing_plan_id":"cebpf4jnsgd1na2vs0mg"},{"bike_id":"421b49dd-4883-4fde-a6cc-820c0e591712","system_id":"levelo_inurba_marseille","lat":43.26558,"lon":5.37281,"is_reserved":false,"is_disabled":false,"rental_uris":{"android":"levelo://app?vid=421b49dd-4883-4fde-a6cc-820c0e591712","ios":"levelo://app?vid=421b49dd-4883-4fde-a6cc-820c0e591712"},"vehicle_type_id":"4","last_reported":1745825724,"current_range_meters":8800,"station_id":"ce4bhg12rcd13ifvqf70","pricing_plan_id":"cebpf4jnsgd1na2vs0mg"},{"bike_id":"8840b7d1-badd-45b4-91db-50feaeb6b7ed","system_id":"levelo_inurba_marseille","lat":43.31063,"lon":5.36747,"is_reserved":false,"is_disabled":false,"rental_uris":{"android":"levelo://app?vid=8840b7d1-badd-45b4-91db-50feaeb6b7ed","ios":"levelo://app?vid=8840b7d1-badd-45b4-91db-50feaeb6b7ed"},"vehicle_type_id":"4","last_reported":1745825724,"current_range_meters":8800,"station_id":"","pricing_plan_id":"cebpf4jnsgd1na2vs0mg"},{"bike_id":"ccbc05ba-b0ef-4db0-808d-f2883ccf3635","system_id":"levelo_inurba_marseille","lat":43.30911,"lon":5.36853,"is_reserved":false,"is_disabled":false,"rental_uris":{"android":"levelo://app?vid=ccbc05ba-b0ef-4db0-808d-f2883ccf3635","ios":"levelo://app?vid=ccbc05ba-b0ef-4db0-808d-f2883ccf3635"},"vehicle_type_id":"4","last_reported":1745825724,"current_range_meters":9200,"station_id":"ce4bgn92rcd13ifvqbvg","pricing_plan_id":"cebpf4jnsgd1na2vs0mg"},{"bike_id":"fdd9d905-ea67-4e0c-a688-07fad60f3dec","system_id":"levelo_inurba_marseille","lat":43.31878,"lon":5.40736,"is_reserved":false,"is_disabled":false,"rental_uris":{"android":"levelo://app?vid=fdd9d905-ea67-4e0c-a688-07fad60f3dec","ios":"levelo://app?vid=fdd9d905-ea67-4e0c-a688-07fad60f3dec"},"vehicle_type_id":"4","last_reported":1745825724,"current_range_meters":9200,"station_id":"ce4bhq12rcd13ifvqhig","pricing_plan_id":"cebpf4jnsgd1na2vs0mg"},{"bike_id":"a2821e4b-6f3f-4af9-b90c-282961cf9824","system_id":"levelo_inurba_marseille","lat":43.231446,"lon":5.437268,"is_reserved":false,"is_disabled":false,"rental_uris":{"android":"levelo://app?vid=a2821e4b-6f3f-4af9-b90c-282961cf9824","ios":"levelo://app?vid=a2821e4b-6f3f-4af9-b90c-282961cf9824"},"vehicle_type_id":"4","last_reported":1745825724,"current_range_meters":9200,"station_id":"ce4bhmp2rcd13ifvqgog","pricing_plan_id":"cebpf4jnsgd1na2vs0mg"},{"bike_id":"70b7e66d-d0f4-4050-904e-313ca4f5c5b4","system_id":"levelo_inurba_marseille","lat":43.27814,"lon":5.40715,"is_reserved":false,"is_disabled":false,"rental_uris":{"android":"levelo://app?vid=70b7e66d-d0f4-4050-904e-313ca4f5c5b4","ios":"levelo://app?vid=70b7e66d-d0f4-4050-904e-313ca4f5c5b4"},"vehicle_type_id":"4","last_reported":1745825724,"current_range_meters":9600,"station_id":"ce4bhnh2rcd13ifvqgtg","pricing_plan_id":"cebpf4jnsgd1na2vs0mg"},{"bike_id":"ddb99f1d-6f1d-4296-bde2-00ea42316cff","system_id":"levelo_inurba_marseille","lat":43.24069,"lon":5.37762,"is_reserved":false,"is_disabled":false,"rental_uris":{"android":"levelo://app?vid=ddb99f1d-6f1d-4296-bde2-00ea42316cff","ios":"levelo://app?vid=ddb99f1d-6f1d-4296-bde2-00ea42316cff"},"vehicle_type_id":"4","last_reported":1745825724,"current_range_meters":9600,"station_id":"ce4bhnp2rcd13ifvqgvg","pricing_plan_id":"cebpf4jnsgd1na2vs0mg"},{"bike_id":"066db76a-5325-4e21-bcd6-d9f9587d54f5","system_id":"levelo_inurba_marseille","lat":43.28974,"lon":5.37818,"is_reserved":false,"is_disabled":false,"rental_uris":{"android":"levelo://app?vid=066db76a-5325-4e21-bcd6-d9f9587d54f5","ios":"levelo://app?vid=066db76a-5325-4e21-bcd6-d9f9587d54f5"},"vehicle_type_id":"4","last_reported":1745825724,"current_range_meters":9600,"station_id":"ce4bh9p2rcd13ifvqed0","pricing_plan_id":"cebpf4jnsgd1na2vs0mg"},{"bike_id":"a2e988ca-4cad-46d4-8096-1d1b1de4b0e4","system_id":"levelo_inurba_marseille","lat":43.32367,"lon":5.36751,"is_reserved":false,"is_disabled":false,"rental_uris":{"android":"levelo://app?vid=a2e988ca-4cad-46d4-8096-1d1b1de4b0e4","ios":"levelo://app?vid=a2e988ca-4cad-46d4-8096-1d1b1de4b0e4"},"vehicle_type_id":"4","last_reported":1745825724,"current_range_meters":9600,"station_id":"ce4bhsh2rcd13ifvqi2g","pricing_plan_id":"cebpf4jnsgd1na2vs0mg"},{"bike_id":"32c14b53-363d-4908-a995-479e48b776b8","system_id":"levelo_inurba_marseille","lat":43.31493,"lon":5.37307,"is_reserved":false,"is_disabled":false,"rental_uris":{"android":"levelo://app?vid=32c14b53-363d-4908-a995-479e48b776b8","ios":"levelo://app?vid=32c14b53-363d-4908-a995-479e48b776b8"},"vehicle_type_id":"4","last_reported":1745825724,"current_range_meters":9600,"station_id":"ce4bgt12rcd13ifvqcd0","pricing_plan_id":"cebpf4jnsgd1na2vs0mg"},{"bike_id":"7626ed72-c0f8-4eb9-adb3-f027b3fcb3d9","system_id":"levelo_inurba_marseille","lat":43.24652,"lon":5.38207,"is_reserved":false,"is_disabled":false,"rental_uris":{"android":"levelo://app?vid=7626ed72-c0f8-4eb9-adb3-f027b3fcb3d9","ios":"levelo://app?vid=7626ed72-c0f8-4eb9-adb3-f027b3fcb3d9"},"vehicle_type_id":"4","last_reported":1745825724,"current_range_meters":9600,"station_id":"ce4bhih2rcd13ifvqfr0","pricing_plan_id":"cebpf4jnsgd1na2vs0mg"},{"bike_id":"8235d872-096e-497c-a719-c2fcbf16281e","system_id":"levelo_inurba_marseille","lat":43.24649,"lon":5.38915,"is_reserved":false,"is_disabled":false,"rental_uris":{"android":"levelo://app?vid=8235d872-096e-497c-a719-c2fcbf16281e","ios":"levelo://app?vid=8235d872-096e-497c-a719-c2fcbf16281e"},"vehicle_type_id":"4","last_reported":1745825724,"current_range_meters":9600,"station_id":"ce4bhg12rcd13ifvqf60","pricing_plan_id":"cebpf4jnsgd1na2vs0mg"},{"bike_id":"5532f965-c6d3-4b05-86f5-39e95c151ce7","system_id":"levelo_inurba_marseille","lat":43.27493,"lon":5.4245,"is_reserved":false,"is_disabled":false,"rental_uris":{"android":"levelo://app?vid=5532f965-c6d3-4b05-86f5-39e95c151ce7","ios":"levelo://app?vid=5532f965-c6d3-4b05-86f5-39e95c151ce7"},"vehicle_type_id":"4","last_reported":1745825724,"current_range_meters":9600,"station_id":"ce4bhn92rcd13ifvqgrg","pricing_plan_id":"cebpf4jnsgd1na2vs0mg"},{"bike_id":"f3a80f53-1f62-4bf0-a35c-7a4a221b72d9","system_id":"levelo_inurba_marseille","lat":43.29042,"lon":5.3996,"is_reserved":false,"is_disabled":false,"rental_uris":{"android":"levelo://app?vid=f3a80f53-1f62-4bf0-a35c-7a4a221b72d9","ios":"levelo://app?vid=f3a80f53-1f62-4bf0-a35c-7a4a221b72d9"},"vehicle_type_id":"4","last_reported":1745825724,"current_range_meters":9600,"station_id":"ce4bh392rcd13ifvqdm0","pricing_plan_id":"cebpf4jnsgd1na2vs0mg"},{"bike_id":"560f12bb-1614-4d7c-b78e-ccf5bdec9ea6","system_id":"levelo_inurba_marseille","lat":43.2849,"lon":5.35884,"is_reserved":false,"is_disabled":true,"rental_uris":{"android":"levelo://app?vid=560f12bb-1614-4d7c-b78e-ccf5bdec9ea6","ios":"levelo://app?vid=560f12bb-1614-4d7c-b78e-ccf5bdec9ea6"},"vehicle_type_id":"4","last_reported":1745825724,"current_range_meters":9600,"station_id":"ce4bhah2rcd13ifvqei0","pricing_plan_id":"cebpf4jnsgd1na2vs0mg"},{"bike_id":"717cabec-6d1e-4fbd-94f4-9e9366fab599","system_id":"levelo_inurba_marseille","lat":43.22509,"lon":5.34779,"is_reserved":false,"is_disabled":true,"rental_uris":{"android":"levelo://app?vid=717cabec-6d1e-4fbd-94f4-9e9366fab599","ios":"levelo://app?vid=717cabec-6d1e-4fbd-94f4-9e9366fab599"},"vehicle_type_id":"4","last_reported":1745825724,"current_range_meters":10000,"station_id":"st_cvj5dfep6f1abm77gieg","pricing_plan_id":"cebpf4jnsgd1na2vs0mg"},{"bike_id":"50ac2bf0-0c02-4af7-9fad-13a38f7fe2b8","system_id":"levelo_inurba_marseille","lat":43.28112,"lon":5.37812,"is_reserved":false,"is_disabled":false,"rental_uris":{"android":"levelo://app?vid=50ac2bf0-0c02-4af7-9fad-13a38f7fe2b8","ios":"levelo://app?vid=50ac2bf0-0c02-4af7-9fad-13a38f7fe2b8"},"vehicle_type_id":"4","last_reported":1745825724,"current_range_meters":10000,"station_id":"ce4bha12rcd13ifvqee0","pricing_plan_id":"cebpf4jnsgd1na2vs0mg"},{"bike_id":"1b8329cc-a8f3-40b2-8c60-c73d6675565f","system_id":"levelo_inurba_marseille","lat":43.32661,"lon":5.409867,"is_reserved":false,"is_disabled":false,"rental_uris":{"android":"levelo://app?vid=1b8329cc-a8f3-40b2-8c60-c73d6675565f","ios":"levelo://app?vid=1b8329cc-a8f3-40b2-8c60-c73d6675565f"},"vehicle_type_id":"4","last_reported":1745825724,"current_range_meters":9600,"station_id":"ce4bhpp2rcd13ifvqhgg","pricing_plan_id":"cebpf4jnsgd1na2vs0mg"},{"bike_id":"9150f107-827a-42d1-9f2d-866908e41f8e","system_id":"levelo_inurba_marseille","lat":43.256,"lon":5.38234,"is_reserved":false,"is_disabled":false,"rental_uris":{"android":"levelo://app?vid=9150f107-827a-42d1-9f2d-866908e41f8e","ios":"levelo://app?vid=9150f107-827a-42d1-9f2d-866908e41f8e"},"vehicle_type_id":"4","last_reported":1745825724,"current_range_meters":10000,"station_id":"ce4bhih2rcd13ifvqfs0","pricing_plan_id":"cebpf4jnsgd1na2vs0mg"},{"bike_id":"dabeb7d9-4666-458f-aa43-8bae2163a31c","system_id":"levelo_inurba_marseille","lat":43.24086,"lon":5.3775,"is_reserved":false,"is_disabled":false,"rental_uris":{"android":"levelo://app?vid=dabeb7d9-4666-458f-aa43-8bae2163a31c","ios":"levelo://app?vid=dabeb7d9-4666-458f-aa43-8bae2163a31c"},"vehicle_type_id":"4","last_reported":1745825724,"current_range_meters":10000,"station_id":"ce4bhnp2rcd13ifvqgvg","pricing_plan_id":"cebpf4jnsgd1na2vs0mg"},{"bike_id":"a88cbd0f-a9df-4737-bdd4-2fd00272eb56","system_id":"levelo_inurba_marseille","lat":43.296074,"lon":5.371708,"is_reserved":false,"is_disabled":false,"rental_uris":{"android":"levelo://app?vid=a88cbd0f-a9df-4737-bdd4-2fd00272eb56","ios":"levelo://app?vid=a88cbd0f-a9df-4737-bdd4-2fd00272eb56"},"vehicle_type_id":"4","last_reported":1745825724,"current_range_meters":10000,"station_id":"ce4bgpp2rcd13ifvqc3g","pricing_plan_id":"cebpf4jnsgd1na2vs0mg"},{"bike_id":"c44359c8-072b-49ec-9d24-257f4ce313ed","system_id":"levelo_inurba_marseille","lat":43.286652,"lon":5.373756,"is_reserved":false,"is_disabled":true,"rental_uris":{"android":"levelo://app?vid=c44359c8-072b-49ec-9d24-257f4ce313ed","ios":"levelo://app?vid=c44359c8-072b-49ec-9d24-257f4ce313ed"},"vehicle_type_id":"4","last_reported":1745825724,"current_range_meters":10000,"station_id":"ce4bh3p2rcd13ifvqdq0","pricing_plan_id":"cebpf4jnsgd1na2vs0mg"},{"bike_id":"6d593226-0a2e-46d4-8de3-9c8bd9d3e674","system_id":"levelo_inurba_marseille","lat":43.295969,"lon":5.377071,"is_reserved":false,"is_disabled":true,"rental_uris":{"android":"levelo://app?vid=6d593226-0a2e-46d4-8de3-9c8bd9d3e674","ios":"levelo://app?vid=6d593226-0a2e-46d4-8de3-9c8bd9d3e674"},"vehicle_type_id":"4","last_reported":1745825724,"current_range_meters":10000,"station_id":"ce4bgi92rcd13ifvqb90","pricing_plan_id":"cebpf4jnsgd1na2vs0mg"},{"bike_id":"fe7cf037-1a33-48b5-9cbb-f6edeb7148d2","system_id":"levelo_inurba_marseille","lat":43.27813,"lon":5.40719,"is_reserved":false,"is_disabled":false,"rental_uris":{"android":"levelo://app?vid=fe7cf037-1a33-48b5-9cbb-f6edeb7148d2","ios":"levelo://app?vid=fe7cf037-1a33-48b5-9cbb-f6edeb7148d2"},"vehicle_type_id":"4","last_reported":1745825724,"current_range_meters":10000,"station_id":"ce4bhnh2rcd13ifvqgtg","pricing_plan_id":"cebpf4jnsgd1na2vs0mg"},{"bike_id":"9be74817-799c-4116-9b3e-35355b061a51","system_id":"levelo_inurba_marseille","lat":43.26688,"lon":5.38272,"is_reserved":false,"is_disabled":false,"rental_uris":{"android":"levelo://app?vid=9be74817-799c-4116-9b3e-35355b061a51","ios":"levelo://app?vid=9be74817-799c-4116-9b3e-35355b061a51"},"vehicle_type_id":"4","last_reported":1745825724,"current_range_meters":10000,"station_id":"ce4bhg92rcd13ifvqf90","pricing_plan_id":"cebpf4jnsgd1na2vs0mg"},{"bike_id":"b330c3b4-8203-49c9-a4bf-5485d09a1d2d","system_id":"levelo_inurba_marseille","lat":43.30208,"lon":5.39457,"is_reserved":false,"is_disabled":true,"rental_uris":{"android":"levelo://app?vid=b330c3b4-8203-49c9-a4bf-5485d09a1d2d","ios":"levelo://app?vid=b330c3b4-8203-49c9-a4bf-5485d09a1d2d"},"vehicle_type_id":"4","last_reported":1745825724,"current_range_meters":10000,"station_id":"ce4bh0p2rcd13ifvqd70","pricing_plan_id":"cebpf4jnsgd1na2vs0mg"},{"bike_id":"120612f1-1aac-4f5d-a2b0-db2d4bb2fde3","system_id":"levelo_inurba_marseille","lat":43.313373,"lon":5.367147,"is_reserved":false,"is_disabled":false,"rental_uris":{"android":"levelo://app?vid=120612f1-1aac-4f5d-a2b0-db2d4bb2fde3","ios":"levelo://app?vid=120612f1-1aac-4f5d-a2b0-db2d4bb2fde3"},"vehicle_type_id":"4","last_reported":1745825724,"current_range_meters":10000,"station_id":"ce4bgr92rcd13ifvqc6g","pricing_plan_id":"cebpf4jnsgd1na2vs0mg"},{"bike_id":"6303aeb8-901b-4f8f-8588-7c345791c8ea","system_id":"levelo_inurba_marseille","lat":43.247418,"lon":5.411711,"is_reserved":false,"is_disabled":false,"rental_uris":{"android":"levelo://app?vid=6303aeb8-901b-4f8f-8588-7c345791c8ea","ios":"levelo://app?vid=6303aeb8-901b-4f8f-8588-7c345791c8ea"},"vehicle_type_id":"4","last_reported":1745825724,"current_range_meters":10800,"station_id":"","pricing_plan_id":"cebpf4jnsgd1na2vs0mg"},{"bike_id":"03bd42f6-231b-41f0-967c-979162658d23","system_id":"levelo_inurba_marseille","lat":43.24676,"lon":5.38176,"is_reserved":false,"is_disabled":false,"rental_uris":{"android":"levelo://app?vid=03bd42f6-231b-41f0-967c-979162658d23","ios":"levelo://app?vid=03bd42f6-231b-41f0-967c-979162658d23"},"vehicle_type_id":"4","last_reported":1745825724,"current_range_meters":10800,"station_id":"ce4bhih2rcd13ifvqfr0","pricing_plan_id":"cebpf4jnsgd1na2vs0mg"},{"bike_id":"8fe71085-f5fe-4b9e-98ab-c022a486b2f1","system_id":"levelo_inurba_marseille","lat":43.30946,"lon":5.39036,"is_reserved":false,"is_disabled":false,"rental_uris":{"android":"levelo://app?vid=8fe71085-f5fe-4b9e-98ab-c022a486b2f1","ios":"levelo://app?vid=8fe71085-f5fe-4b9e-98ab-c022a486b2f1"},"vehicle_type_id":"4","last_reported":1745825724,"current_range_meters":10800,"station_id":"ce4bgup2rcd13ifvqco0","pricing_plan_id":"cebpf4jnsgd1na2vs0mg"},{"bike_id":"a6292043-eafa-4e45-9bdf-436734c8f384","system_id":"levelo_inurba_marseille","lat":43.2593,"lon":5.40866,"is_reserved":false,"is_disabled":false,"rental_uris":{"android":"levelo://app?vid=a6292043-eafa-4e45-9bdf-436734c8f384","ios":"levelo://app?vid=a6292043-eafa-4e45-9bdf-436734c8f384"},"vehicle_type_id":"4","last_reported":1745825724,"current_range_meters":10800,"station_id":"ce4bhm92rcd13ifvqglg","pricing_plan_id":"cebpf4jnsgd1na2vs0mg"},{"bike_id":"a5903229-b31f-421f-9c07-ee7e22bcdbb0","system_id":"levelo_inurba_marseille","lat":43.21197,"lon":5.35074,"is_reserved":false,"is_disabled":false,"rental_uris":{"android":"levelo://app?vid=a5903229-b31f-421f-9c07-ee7e22bcdbb0","ios":"levelo://app?vid=a5903229-b31f-421f-9c07-ee7e22bcdbb0"},"vehicle_type_id":"4","last_reported":1745825724,"current_range_meters":10800,"station_id":"","pricing_plan_id":"cebpf4jnsgd1na2vs0mg"},{"bike_id":"1ed37c97-aa7f-4318-8fcb-201929e4d410","system_id":"levelo_inurba_marseille","lat":43.3091,"lon":5.36847,"is_reserved":false,"is_disabled":false,"rental_uris":{"android":"levelo://app?vid=1ed37c97-aa7f-4318-8fcb-201929e4d410","ios":"levelo://app?vid=1ed37c97-aa7f-4318-8fcb-201929e4d410"},"vehicle_type_id":"4","last_reported":1745825724,"current_range_meters":10000,"station_id":"ce4bgn92rcd13ifvqbvg","pricing_plan_id":"cebpf4jnsgd1na2vs0mg"},{"bike_id":"3d934169-6946-46cc-87a4-ce5d03b77075","system_id":"levelo_inurba_marseille","lat":43.21721,"lon":5.34547,"is_reserved":false,"is_disabled":false,"rental_uris":{"android":"levelo://app?vid=3d934169-6946-46cc-87a4-ce5d03b77075","ios":"levelo://app?vid=3d934169-6946-46cc-87a4-ce5d03b77075"},"vehicle_type_id":"4","last_reported":1745825724,"current_range_meters":10800,"station_id":"st_cvj6r9ubvosntc0bgbag","pricing_plan_id":"cebpf4jnsgd1na2vs0mg"},{"bike_id":"7de599b5-5e9f-4569-af91-eefb340eb465","system_id":"levelo_inurba_marseille","lat":43.28725,"lon":5.37929,"is_reserved":false,"is_disabled":false,"rental_uris":{"android":"levelo://app?vid=7de599b5-5e9f-4569-af91-eefb340eb465","ios":"levelo://app?vid=7de599b5-5e9f-4569-af91-eefb340eb465"},"vehicle_type_id":"4","last_reported":1745825724,"current_range_meters":10800,"station_id":"ce4bh9p2rcd13ifvqec0","pricing_plan_id":"cebpf4jnsgd1na2vs0mg"},{"bike_id":"b34aafc0-4c6a-4c24-91d2-549a5cf6defc","system_id":"levelo_inurba_marseille","lat":43.32482,"lon":5.36589,"is_reserved":false,"is_disabled":false,"rental_uris":{"android":"levelo://app?vid=b34aafc0-4c6a-4c24-91d2-549a5cf6defc","ios":"levelo://app?vid=b34aafc0-4c6a-4c24-91d2-549a5cf6defc"},"vehicle_type_id":"4","last_reported":1745825724,"current_range_meters":10800,"station_id":"ce4bhs12rcd13ifvqhvg","pricing_plan_id":"cebpf4jnsgd1na2vs0mg"},{"bike_id":"f6dfa10f-57d6-431d-946b-fdae254519b3","system_id":"levelo_inurba_marseille","lat":43.29271,"lon":5.37618,"is_reserved":false,"is_disabled":false,"rental_uris":{"android":"levelo://app?vid=f6dfa10f-57d6-431d-946b-fdae254519b3","ios":"levelo://app?vid=f6dfa10f-57d6-431d-946b-fdae254519b3"},"vehicle_type_id":"4","last_reported":1745825724,"current_range_meters":7200,"station_id":"ce4bgi12rcd13ifvqb80","pricing_plan_id":"cebpf4jnsgd1na2vs0mg"},{"bike_id":"0d777af5-4166-475a-a6b9-6a0197032592","system_id":"levelo_inurba_marseille","lat":43.23275,"lon":5.35216,"is_reserved":false,"is_disabled":false,"rental_uris":{"android":"levelo://app?vid=0d777af5-4166-475a-a6b9-6a0197032592","ios":"levelo://app?vid=0d777af5-4166-475a-a6b9-6a0197032592"},"vehicle_type_id":"4","last_reported":1745825724,"current_range_meters":11200,"station_id":"","pricing_plan_id":"cebpf4jnsgd1na2vs0mg"},{"bike_id":"1fa5d4b5-753c-4c37-987a-c4d4da64e8ed","system_id":"levelo_inurba_marseille","lat":43.30902,"lon":5.37199,"is_reserved":false,"is_disabled":false,"rental_uris":{"android":"levelo://app?vid=1fa5d4b5-753c-4c37-987a-c4d4da64e8ed","ios":"levelo://app?vid=1fa5d4b5-753c-4c37-987a-c4d4da64e8ed"},"vehicle_type_id":"4","last_reported":1745825724,"current_range_meters":11200,"station_id":"ce4bguh2rcd13ifvqckg","pricing_plan_id":"cebpf4jnsgd1na2vs0mg"},{"bike_id":"8aabf225-868d-4073-a238-cf7324314202","system_id":"levelo_inurba_marseille","lat":43.31332,"lon":5.36709,"is_reserved":false,"is_disabled":false,"rental_uris":{"android":"levelo://app?vid=8aabf225-868d-4073-a238-cf7324314202","ios":"levelo://app?vid=8aabf225-868d-4073-a238-cf7324314202"},"vehicle_type_id":"4","last_reported":1745825724,"current_range_meters":11200,"station_id":"ce4bgr92rcd13ifvqc6g","pricing_plan_id":"cebpf4jnsgd1na2vs0mg"},{"bike_id":"66c568d9-e810-46d6-9083-90c057b49842","system_id":"levelo_inurba_marseille","lat":43.30907,"lon":5.36845,"is_reserved":false,"is_disabled":false,"rental_uris":{"android":"levelo://app?vid=66c568d9-e810-46d6-9083-90c057b49842","ios":"levelo://app?vid=66c568d9-e810-46d6-9083-90c057b49842"},"vehicle_type_id":"4","last_reported":1745825724,"current_range_meters":11200,"station_id":"ce4bgn92rcd13ifvqbvg","pricing_plan_id":"cebpf4jnsgd1na2vs0mg"},{"bike_id":"a6ef5e73-9c2a-4c3a-b853-48e28d6dc161","system_id":"levelo_inurba_marseille","lat":43.31711,"lon":5.43705,"is_reserved":false,"is_disabled":true,"rental_uris":{"android":"levelo://app?vid=a6ef5e73-9c2a-4c3a-b853-48e28d6dc161","ios":"levelo://app?vid=a6ef5e73-9c2a-4c3a-b853-48e28d6dc161"},"vehicle_type_id":"4","last_reported":1745825724,"current_range_meters":11200,"station_id":"ce4bhp92rcd13ifvqhcg","pricing_plan_id":"cebpf4jnsgd1na2vs0mg"},{"bike_id":"ae181aa2-a4b2-4317-81bf-674fbc16e222","system_id":"levelo_inurba_marseille","lat":43.267801,"lon":5.39407,"is_reserved":false,"is_disabled":false,"rental_uris":{"android":"levelo://app?vid=ae181aa2-a4b2-4317-81bf-674fbc16e222","ios":"levelo://app?vid=ae181aa2-a4b2-4317-81bf-674fbc16e222"},"vehicle_type_id":"4","last_reported":1745825724,"current_range_meters":11200,"station_id":"ce4bhip2rcd13ifvqft0","pricing_plan_id":"cebpf4jnsgd1na2vs0mg"},{"bike_id":"3bf2ec85-ef78-4281-9685-db44e16af610","system_id":"levelo_inurba_marseille","lat":43.26925,"lon":5.40263,"is_reserved":false,"is_disabled":false,"rental_uris":{"android":"levelo://app?vid=3bf2ec85-ef78-4281-9685-db44e16af610","ios":"levelo://app?vid=3bf2ec85-ef78-4281-9685-db44e16af610"},"vehicle_type_id":"4","last_reported":1745825724,"current_range_meters":10800,"station_id":"cjm6bp8fraef2m0cb0m0","pricing_plan_id":"cebpf4jnsgd1na2vs0mg"},{"bike_id":"0aca75c7-0552-4900-81d3-fa28c6ee7d8f","system_id":"levelo_inurba_marseille","lat":43.30906,"lon":5.36846,"is_reserved":false,"is_disabled":false,"rental_uris":{"android":"levelo://app?vid=0aca75c7-0552-4900-81d3-fa28c6ee7d8f","ios":"levelo://app?vid=0aca75c7-0552-4900-81d3-fa28c6ee7d8f"},"vehicle_type_id":"4","last_reported":1745825724,"current_range_meters":11600,"station_id":"ce4bgn92rcd13ifvqbvg","pricing_plan_id":"cebpf4jnsgd1na2vs0mg"},{"bike_id":"d1627ee4-2700-4707-80b1-826519498471","system_id":"levelo_inurba_marseille","lat":43.31234,"lon":5.36844,"is_reserved":false,"is_disabled":false,"rental_uris":{"android":"levelo://app?vid=d1627ee4-2700-4707-80b1-826519498471","ios":"levelo://app?vid=d1627ee4-2700-4707-80b1-826519498471"},"vehicle_type_id":"4","last_reported":1745825724,"current_range_meters":11600,"station_id":"ce4bgl92rcd13ifvqbq0","pricing_plan_id":"cebpf4jnsgd1na2vs0mg"},{"bike_id":"7d9d71eb-8ba7-4605-b116-8faf9c5372e2","system_id":"levelo_inurba_marseille","lat":43.3134,"lon":5.36718,"is_reserved":false,"is_disabled":false,"rental_uris":{"android":"levelo://app?vid=7d9d71eb-8ba7-4605-b116-8faf9c5372e2","ios":"levelo://app?vid=7d9d71eb-8ba7-4605-b116-8faf9c5372e2"},"vehicle_type_id":"4","last_reported":1745825724,"current_range_meters":12000,"station_id":"ce4bgr92rcd13ifvqc6g","pricing_plan_id":"cebpf4jnsgd1na2vs0mg"},{"bike_id":"f360aaad-e350-49e9-8191-58ce4616eb13","system_id":"levelo_inurba_marseille","lat":43.21232,"lon":5.35053,"is_reserved":false,"is_disabled":true,"rental_uris":{"android":"levelo://app?vid=f360aaad-e350-49e9-8191-58ce4616eb13","ios":"levelo://app?vid=f360aaad-e350-49e9-8191-58ce4616eb13"},"vehicle_type_id":"4","last_reported":1745825724,"current_range_meters":12000,"station_id":"","pricing_plan_id":"cebpf4jnsgd1na2vs0mg"},{"bike_id":"45d09500-4580-4832-b2a0-d173ab8318b9","system_id":"levelo_inurba_marseille","lat":43.32466,"lon":5.36597,"is_reserved":false,"is_disabled":false,"rental_uris":{"android":"levelo://app?vid=45d09500-4580-4832-b2a0-d173ab8318b9","ios":"levelo://app?vid=45d09500-4580-4832-b2a0-d173ab8318b9"},"vehicle_type_id":"4","last_reported":1745825724,"current_range_meters":12000,"station_id":"ce4bhs12rcd13ifvqhvg","pricing_plan_id":"cebpf4jnsgd1na2vs0mg"},{"bike_id":"a1300fa1-43f7-47bc-be68-1621591c429e","system_id":"levelo_inurba_marseille","lat":43.25009,"lon":5.38916,"is_reserved":false,"is_disabled":true,"rental_uris":{"android":"levelo://app?vid=a1300fa1-43f7-47bc-be68-1621591c429e","ios":"levelo://app?vid=a1300fa1-43f7-47bc-be68-1621591c429e"},"vehicle_type_id":"4","last_reported":1745825724,"current_range_meters":12400,"station_id":"ce4bhgp2rcd13ifvqfd0","pricing_plan_id":"cebpf4jnsgd1na2vs0mg"},{"bike_id":"a95cb05a-9f99-4cf7-95b5-08d65a276daf","system_id":"levelo_inurba_marseille","lat":43.25937,"lon":5.40908,"is_reserved":false,"is_disabled":false,"rental_uris":{"android":"levelo://app?vid=a95cb05a-9f99-4cf7-95b5-08d65a276daf","ios":"levelo://app?vid=a95cb05a-9f99-4cf7-95b5-08d65a276daf"},"vehicle_type_id":"4","last_reported":1745825724,"current_range_meters":12000,"station_id":"ce4bhm92rcd13ifvqglg","pricing_plan_id":"cebpf4jnsgd1na2vs0mg"},{"bike_id":"bdba2434-6c26-4555-ad7c-0c9f407e93f3","system_id":"levelo_inurba_marseille","lat":43.32659,"lon":5.40983,"is_reserved":false,"is_disabled":false,"rental_uris":{"android":"levelo://app?vid=bdba2434-6c26-4555-ad7c-0c9f407e93f3","ios":"levelo://app?vid=bdba2434-6c26-4555-ad7c-0c9f407e93f3"},"vehicle_type_id":"4","last_reported":1745825724,"current_range_meters":12800,"station_id":"ce4bhpp2rcd13ifvqhgg","pricing_plan_id":"cebpf4jnsgd1na2vs0mg"},{"bike_id":"647355cc-822f-41e4-b0fe-856d5a69a337","system_id":"levelo_inurba_marseille","lat":43.21189,"lon":5.35072,"is_reserved":false,"is_disabled":false,"rental_uris":{"android":"levelo://app?vid=647355cc-822f-41e4-b0fe-856d5a69a337","ios":"levelo://app?vid=647355cc-822f-41e4-b0fe-856d5a69a337"},"vehicle_type_id":"4","last_reported":1745825724,"current_range_meters":13600,"station_id":"st_cvj6sg6p6f1abm77japg","pricing_plan_id":"cebpf4jnsgd1na2vs0mg"},{"bike_id":"4046a82f-66e8-4b55-bd0a-356edea772d8","system_id":"levelo_inurba_marseille","lat":43.30604,"lon":5.38176,"is_reserved":false,"is_disabled":true,"rental_uris":{"android":"levelo://app?vid=4046a82f-66e8-4b55-bd0a-356edea772d8","ios":"levelo://app?vid=4046a82f-66e8-4b55-bd0a-356edea772d8"},"vehicle_type_id":"4","last_reported":1745825724,"current_range_meters":13600,"station_id":"","pricing_plan_id":"cebpf4jnsgd1na2vs0mg"},{"bike_id":"f4ed5be5-9099-4161-b476-315574d1bdde","system_id":"levelo_inurba_marseille","lat":43.30179,"lon":5.37412,"is_reserved":false,"is_disabled":false,"rental_uris":{"android":"levelo://app?vid=f4ed5be5-9099-4161-b476-315574d1bdde","ios":"levelo://app?vid=f4ed5be5-9099-4161-b476-315574d1bdde"},"vehicle_type_id":"4","last_reported":1745825724,"current_range_meters":13600,"station_id":"ce4bgs92rcd13ifvqcc0","pricing_plan_id":"cebpf4jnsgd1na2vs0mg"},{"bike_id":"90df2698-1fee-4a30-95f1-a5d4275d6069","system_id":"levelo_inurba_marseille","lat":43.2606,"lon":5.394,"is_reserved":false,"is_disabled":false,"rental_uris":{"android":"levelo://app?vid=90df2698-1fee-4a30-95f1-a5d4275d6069","ios":"levelo://app?vid=90df2698-1fee-4a30-95f1-a5d4275d6069"},"vehicle_type_id":"4","last_reported":1745825724,"current_range_meters":12800,"station_id":"ce4bhh92rcd13ifvqfj0","pricing_plan_id":"cebpf4jnsgd1na2vs0mg"},{"bike_id":"cd0f2066-2131-483e-8894-a2aa66a75e48","system_id":"levelo_inurba_marseille","lat":43.25937,"lon":5.40905,"is_reserved":false,"is_disabled":false,"rental_uris":{"android":"levelo://app?vid=cd0f2066-2131-483e-8894-a2aa66a75e48","ios":"levelo://app?vid=cd0f2066-2131-483e-8894-a2aa66a75e48"},"vehicle_type_id":"4","last_reported":1745825724,"current_range_meters":13600,"station_id":"ce4bhm92rcd13ifvqglg","pricing_plan_id":"cebpf4jnsgd1na2vs0mg"},{"bike_id":"55d85d15-2e7f-4581-8029-f1a8547a972e","system_id":"levelo_inurba_marseille","lat":43.27499,"lon":5.42458,"is_reserved":false,"is_disabled":false,"rental_uris":{"android":"levelo://app?vid=55d85d15-2e7f-4581-8029-f1a8547a972e","ios":"levelo://app?vid=55d85d15-2e7f-4581-8029-f1a8547a972e"},"vehicle_type_id":"4","last_reported":1745825724,"current_range_meters":13600,"station_id":"ce4bhn92rcd13ifvqgrg","pricing_plan_id":"cebpf4jnsgd1na2vs0mg"},{"bike_id":"97fd7a4c-36e8-401d-b12d-1b4015a01ebe","system_id":"levelo_inurba_marseille","lat":43.26549,"lon":5.4221,"is_reserved":false,"is_disabled":false,"rental_uris":{"android":"levelo://app?vid=97fd7a4c-36e8-401d-b12d-1b4015a01ebe","ios":"levelo://app?vid=97fd7a4c-36e8-401d-b12d-1b4015a01ebe"},"vehicle_type_id":"4","last_reported":1745825724,"current_range_meters":13600,"station_id":"","pricing_plan_id":"cebpf4jnsgd1na2vs0mg"},{"bike_id":"d8e186e0-8d9f-4c16-bb12-3c50f63fd666","system_id":"levelo_inurba_marseille","lat":43.275,"lon":5.42441,"is_reserved":false,"is_disabled":false,"rental_uris":{"android":"levelo://app?vid=d8e186e0-8d9f-4c16-bb12-3c50f63fd666","ios":"levelo://app?vid=d8e186e0-8d9f-4c16-bb12-3c50f63fd666"},"vehicle_type_id":"4","last_reported":1745825724,"current_range_meters":13600,"station_id":"ce4bhn92rcd13ifvqgrg","pricing_plan_id":"cebpf4jnsgd1na2vs0mg"},{"bike_id":"1acedf12-292b-4588-b258-0df8ce6ec883","system_id":"levelo_inurba_marseille","lat":43.31418,"lon":5.36664,"is_reserved":false,"is_disabled":false,"rental_uris":{"android":"levelo://app?vid=1acedf12-292b-4588-b258-0df8ce6ec883","ios":"levelo://app?vid=1acedf12-292b-4588-b258-0df8ce6ec883"},"vehicle_type_id":"4","last_reported":1745825724,"current_range_meters":13600,"station_id":"ce4bgr92rcd13ifvqc6g","pricing_plan_id":"cebpf4jnsgd1na2vs0mg"},{"bike_id":"0751584f-4f0b-405c-b365-1165b3eebe77","system_id":"levelo_inurba_marseille","lat":43.24073,"lon":5.37756,"is_reserved":false,"is_disabled":false,"rental_uris":{"android":"levelo://app?vid=0751584f-4f0b-405c-b365-1165b3eebe77","ios":"levelo://app?vid=0751584f-4f0b-405c-b365-1165b3eebe77"},"vehicle_type_id":"4","last_reported":1745825724,"current_range_meters":13600,"station_id":"ce4bhnp2rcd13ifvqgvg","pricing_plan_id":"cebpf4jnsgd1na2vs0mg"},{"bike_id":"e63470cb-2da1-4d74-be7f-61316f219b7e","system_id":"levelo_inurba_marseille","lat":43.25556,"lon":5.38226,"is_reserved":false,"is_disabled":true,"rental_uris":{"android":"levelo://app?vid=e63470cb-2da1-4d74-be7f-61316f219b7e","ios":"levelo://app?vid=e63470cb-2da1-4d74-be7f-61316f219b7e"},"vehicle_type_id":"4","last_reported":1745825724,"current_range_meters":14000,"station_id":"ce4bhih2rcd13ifvqfs0","pricing_plan_id":"cebpf4jnsgd1na2vs0mg"},{"bike_id":"a1dae727-0afb-4f15-9af8-d8e456b2ba75","system_id":"levelo_inurba_marseille","lat":43.2603,"lon":5.37551,"is_reserved":false,"is_disabled":false,"rental_uris":{"android":"levelo://app?vid=a1dae727-0afb-4f15-9af8-d8e456b2ba75","ios":"levelo://app?vid=a1dae727-0afb-4f15-9af8-d8e456b2ba75"},"vehicle_type_id":"4","last_reported":1745825724,"current_range_meters":14000,"station_id":"ce4bhgh2rcd13ifvqfa0","pricing_plan_id":"cebpf4jnsgd1na2vs0mg"},{"bike_id":"766d928e-850b-4883-bc81-023c382cdd41","system_id":"levelo_inurba_marseille","lat":43.25112,"lon":5.40278,"is_reserved":false,"is_disabled":false,"rental_uris":{"android":"levelo://app?vid=766d928e-850b-4883-bc81-023c382cdd41","ios":"levelo://app?vid=766d928e-850b-4883-bc81-023c382cdd41"},"vehicle_type_id":"4","last_reported":1745825724,"current_range_meters":14000,"station_id":"ce4bhlh2rcd13ifvqgig","pricing_plan_id":"cebpf4jnsgd1na2vs0mg"},{"bike_id":"7cb17432-a062-465f-85a4-b60c350ddacd","system_id":"levelo_inurba_marseille","lat":43.29575,"lon":5.37502,"is_reserved":false,"is_disabled":true,"rental_uris":{"android":"levelo://app?vid=7cb17432-a062-465f-85a4-b60c350ddacd","ios":"levelo://app?vid=7cb17432-a062-465f-85a4-b60c350ddacd"},"vehicle_type_id":"4","last_reported":1745825724,"current_range_meters":14000,"station_id":"ce4bgh92rcd13ifvqb50","pricing_plan_id":"cebpf4jnsgd1na2vs0mg"},{"bike_id":"ca9e5dc4-a036-48ac-a1cc-7c0534c10ba0","system_id":"levelo_inurba_marseille","lat":43.27211,"lon":5.39181,"is_reserved":false,"is_disabled":false,"rental_uris":{"android":"levelo://app?vid=ca9e5dc4-a036-48ac-a1cc-7c0534c10ba0","ios":"levelo://app?vid=ca9e5dc4-a036-48ac-a1cc-7c0534c10ba0"},"vehicle_type_id":"4","last_reported":1745825724,"current_range_meters":14000,"station_id":"ce4bhhp2rcd13ifvqfm0","pricing_plan_id":"cebpf4jnsgd1na2vs0mg"},{"bike_id":"3f5f2c9a-9e49-4b78-9b1b-0708da9fec39","system_id":"levelo_inurba_marseille","lat":43.22496,"lon":5.34781,"is_reserved":false,"is_disabled":true,"rental_uris":{"android":"levelo://app?vid=3f5f2c9a-9e49-4b78-9b1b-0708da9fec39","ios":"levelo://app?vid=3f5f2c9a-9e49-4b78-9b1b-0708da9fec39"},"vehicle_type_id":"4","last_reported":1745825724,"current_range_meters":14400,"station_id":"st_cvj5dfep6f1abm77gieg","pricing_plan_id":"cebpf4jnsgd1na2vs0mg"},{"bike_id":"2e7ac15a-983b-44da-a8d0-533b1e803195","system_id":"levelo_inurba_marseille","lat":43.25578,"lon":5.38234,"is_reserved":false,"is_disabled":false,"rental_uris":{"android":"levelo://app?vid=2e7ac15a-983b-44da-a8d0-533b1e803195","ios":"levelo://app?vid=2e7ac15a-983b-44da-a8d0-533b1e803195"},"vehicle_type_id":"4","last_reported":1745825724,"current_range_meters":14400,"station_id":"ce4bhih2rcd13ifvqfs0","pricing_plan_id":"cebpf4jnsgd1na2vs0mg"},{"bike_id":"cdefb1fb-f28b-4051-a0f5-a9451436b4ed","system_id":"levelo_inurba_marseille","lat":43.25851,"lon":5.38596,"is_reserved":false,"is_disabled":false,"rental_uris":{"android":"levelo://app?vid=cdefb1fb-f28b-4051-a0f5-a9451436b4ed","ios":"levelo://app?vid=cdefb1fb-f28b-4051-a0f5-a9451436b4ed"},"vehicle_type_id":"4","last_reported":1745825724,"current_range_meters":14400,"station_id":"","pricing_plan_id":"cebpf4jnsgd1na2vs0mg"},{"bike_id":"683b45fe-d6d7-4560-ae22-95bdbf4d269a","system_id":"levelo_inurba_marseille","lat":43.21744,"lon":5.3463,"is_reserved":false,"is_disabled":true,"rental_uris":{"android":"levelo://app?vid=683b45fe-d6d7-4560-ae22-95bdbf4d269a","ios":"levelo://app?vid=683b45fe-d6d7-4560-ae22-95bdbf4d269a"},"vehicle_type_id":"4","last_reported":1745825724,"current_range_meters":14400,"station_id":"st_cvj6r9ubvosntc0bgbag","pricing_plan_id":"cebpf4jnsgd1na2vs0mg"},{"bike_id":"7d4859bb-6fe0-424f-a942-9c856aafc025","system_id":"levelo_inurba_marseille","lat":43.31469,"lon":5.37324,"is_reserved":false,"is_disabled":false,"rental_uris":{"android":"levelo://app?vid=7d4859bb-6fe0-424f-a942-9c856aafc025","ios":"levelo://app?vid=7d4859bb-6fe0-424f-a942-9c856aafc025"},"vehicle_type_id":"4","last_reported":1745825724,"current_range_meters":14400,"station_id":"ce4bgt12rcd13ifvqcd0","pricing_plan_id":"cebpf4jnsgd1na2vs0mg"},{"bike_id":"f8b82dd5-2d85-4846-8b9d-5afc30043cf6","system_id":"levelo_inurba_marseille","lat":43.22486,"lon":5.34771,"is_reserved":false,"is_disabled":false,"rental_uris":{"android":"levelo://app?vid=f8b82dd5-2d85-4846-8b9d-5afc30043cf6","ios":"levelo://app?vid=f8b82dd5-2d85-4846-8b9d-5afc30043cf6"},"vehicle_type_id":"4","last_reported":1745825724,"current_range_meters":14400,"station_id":"st_cvj5dfep6f1abm77gieg","pricing_plan_id":"cebpf4jnsgd1na2vs0mg"},{"bike_id":"a7d0e65a-8f8f-4b5c-915f-3f024f66f39f","system_id":"levelo_inurba_marseille","lat":43.29931,"lon":5.37462,"is_reserved":false,"is_disabled":false,"rental_uris":{"android":"levelo://app?vid=a7d0e65a-8f8f-4b5c-915f-3f024f66f39f","ios":"levelo://app?vid=a7d0e65a-8f8f-4b5c-915f-3f024f66f39f"},"vehicle_type_id":"4","last_reported":1745825724,"current_range_meters":14400,"station_id":"ce4bgjh2rcd13ifvqbg0","pricing_plan_id":"cebpf4jnsgd1na2vs0mg"},{"bike_id":"2d8ee308-03ed-4761-9d96-95839d6c6deb","system_id":"levelo_inurba_marseille","lat":43.28602,"lon":5.37067,"is_reserved":false,"is_disabled":false,"rental_uris":{"android":"levelo://app?vid=2d8ee308-03ed-4761-9d96-95839d6c6deb","ios":"levelo://app?vid=2d8ee308-03ed-4761-9d96-95839d6c6deb"},"vehicle_type_id":"4","last_reported":1745825724,"current_range_meters":14400,"station_id":"ce4bht12rcd13ifvqi60","pricing_plan_id":"cebpf4jnsgd1na2vs0mg"},{"bike_id":"c2b73ca7-2177-4884-92fb-50d9dc5f5bf4","system_id":"levelo_inurba_marseille","lat":43.3137,"lon":5.36678,"is_reserved":false,"is_disabled":false,"rental_uris":{"android":"levelo://app?vid=c2b73ca7-2177-4884-92fb-50d9dc5f5bf4","ios":"levelo://app?vid=c2b73ca7-2177-4884-92fb-50d9dc5f5bf4"},"vehicle_type_id":"4","last_reported":1745825724,"current_range_meters":14400,"station_id":"ce4bgr92rcd13ifvqc6g","pricing_plan_id":"cebpf4jnsgd1na2vs0mg"},{"bike_id":"68666489-e1df-4e5c-a796-6c912255d073","system_id":"levelo_inurba_marseille","lat":43.30535,"lon":5.3671,"is_reserved":false,"is_disabled":false,"rental_uris":{"android":"levelo://app?vid=68666489-e1df-4e5c-a796-6c912255d073","ios":"levelo://app?vid=68666489-e1df-4e5c-a796-6c912255d073"},"vehicle_type_id":"4","last_reported":1745825724,"current_range_meters":14800,"station_id":"ce4bgrp2rcd13ifvqc9g","pricing_plan_id":"cebpf4jnsgd1na2vs0mg"},{"bike_id":"5a6ac1ef-2dc1-443e-9eb7-7c540b3b79a7","system_id":"levelo_inurba_marseille","lat":43.31479,"lon":5.37291,"is_reserved":false,"is_disabled":false,"rental_uris":{"android":"levelo://app?vid=5a6ac1ef-2dc1-443e-9eb7-7c540b3b79a7","ios":"levelo://app?vid=5a6ac1ef-2dc1-443e-9eb7-7c540b3b79a7"},"vehicle_type_id":"4","last_reported":1745825724,"current_range_meters":14800,"station_id":"ce4bgt12rcd13ifvqcd0","pricing_plan_id":"cebpf4jnsgd1na2vs0mg"},{"bike_id":"5a983abf-1f6f-4a2d-880b-bac58e63b800","system_id":"levelo_inurba_marseille","lat":43.27819,"lon":5.4072,"is_reserved":false,"is_disabled":true,"rental_uris":{"android":"levelo://app?vid=5a983abf-1f6f-4a2d-880b-bac58e63b800","ios":"levelo://app?vid=5a983abf-1f6f-4a2d-880b-bac58e63b800"},"vehicle_type_id":"4","last_reported":1745825724,"current_range_meters":14800,"station_id":"ce4bhnh2rcd13ifvqgtg","pricing_plan_id":"cebpf4jnsgd1na2vs0mg"},{"bike_id":"181ed326-b471-49b5-9f00-acd48cb5b299","system_id":"levelo_inurba_marseille","lat":43.28271,"lon":5.3504,"is_reserved":false,"is_disabled":true,"rental_uris":{"android":"levelo://app?vid=181ed326-b471-49b5-9f00-acd48cb5b299","ios":"levelo://app?vid=181ed326-b471-49b5-9f00-acd48cb5b299"},"vehicle_type_id":"4","last_reported":1745825724,"current_range_meters":14800,"station_id":"ce4bhbp2rcd13ifvqerg","pricing_plan_id":"cebpf4jnsgd1na2vs0mg"},{"bike_id":"6a3ad0ca-897c-414f-a69a-aae8b2ea7b61","system_id":"levelo_inurba_marseille","lat":43.2175,"lon":5.34606,"is_reserved":false,"is_disabled":false,"rental_uris":{"android":"levelo://app?vid=6a3ad0ca-897c-414f-a69a-aae8b2ea7b61","ios":"levelo://app?vid=6a3ad0ca-897c-414f-a69a-aae8b2ea7b61"},"vehicle_type_id":"4","last_reported":1745825724,"current_range_meters":14800,"station_id":"st_cvj6r9ubvosntc0bgbag","pricing_plan_id":"cebpf4jnsgd1na2vs0mg"},{"bike_id":"d191afe5-6634-4675-8baf-d4b29fe56b24","system_id":"levelo_inurba_marseille","lat":43.29974,"lon":5.37171,"is_reserved":false,"is_disabled":false,"rental_uris":{"android":"levelo://app?vid=d191afe5-6634-4675-8baf-d4b29fe56b24","ios":"levelo://app?vid=d191afe5-6634-4675-8baf-d4b29fe56b24"},"vehicle_type_id":"4","last_reported":1745825724,"current_range_meters":14800,"station_id":"ce4bgr92rcd13ifvqc7g","pricing_plan_id":"cebpf4jnsgd1na2vs0mg"},{"bike_id":"3312f35b-5552-474a-bc8d-a3b1e08d641d","system_id":"levelo_inurba_marseille","lat":43.25934,"lon":5.40909,"is_reserved":false,"is_disabled":false,"rental_uris":{"android":"levelo://app?vid=3312f35b-5552-474a-bc8d-a3b1e08d641d","ios":"levelo://app?vid=3312f35b-5552-474a-bc8d-a3b1e08d641d"},"vehicle_type_id":"4","last_reported":1745825724,"current_range_meters":15200,"station_id":"ce4bhm92rcd13ifvqglg","pricing_plan_id":"cebpf4jnsgd1na2vs0mg"},{"bike_id":"b848c4e7-de6e-400e-8125-30100e4d51de","system_id":"levelo_inurba_marseille","lat":43.31374,"lon":5.36738,"is_reserved":false,"is_disabled":true,"rental_uris":{"android":"levelo://app?vid=b848c4e7-de6e-400e-8125-30100e4d51de","ios":"levelo://app?vid=b848c4e7-de6e-400e-8125-30100e4d51de"},"vehicle_type_id":"4","last_reported":1745825724,"current_range_meters":15200,"station_id":"ce4bgr92rcd13ifvqc6g","pricing_plan_id":"cebpf4jnsgd1na2vs0mg"},{"bike_id":"64d31352-50a3-4adb-84a1-11a507a29b64","system_id":"levelo_inurba_marseille","lat":43.2749,"lon":5.42451,"is_reserved":false,"is_disabled":false,"rental_uris":{"android":"levelo://app?vid=64d31352-50a3-4adb-84a1-11a507a29b64","ios":"levelo://app?vid=64d31352-50a3-4adb-84a1-11a507a29b64"},"vehicle_type_id":"4","last_reported":1745825724,"current_range_meters":15200,"station_id":"ce4bhn92rcd13ifvqgrg","pricing_plan_id":"cebpf4jnsgd1na2vs0mg"},{"bike_id":"a70cfd75-859c-4c7a-9fd1-536f362b9dae","system_id":"levelo_inurba_marseille","lat":43.31164,"lon":5.38727,"is_reserved":false,"is_disabled":false,"rental_uris":{"android":"levelo://app?vid=a70cfd75-859c-4c7a-9fd1-536f362b9dae","ios":"levelo://app?vid=a70cfd75-859c-4c7a-9fd1-536f362b9dae"},"vehicle_type_id":"4","last_reported":1745825724,"current_range_meters":14800,"station_id":"ce4bgv12rcd13ifvqcp0","pricing_plan_id":"cebpf4jnsgd1na2vs0mg"},{"bike_id":"b7e23e3a-d6af-470a-9882-d51f014b0a88","system_id":"levelo_inurba_marseille","lat":43.24062,"lon":5.37746,"is_reserved":false,"is_disabled":false,"rental_uris":{"android":"levelo://app?vid=b7e23e3a-d6af-470a-9882-d51f014b0a88","ios":"levelo://app?vid=b7e23e3a-d6af-470a-9882-d51f014b0a88"},"vehicle_type_id":"4","last_reported":1745825724,"current_range_meters":15200,"station_id":"ce4bhnp2rcd13ifvqgvg","pricing_plan_id":"cebpf4jnsgd1na2vs0mg"},{"bike_id":"79c2006f-b948-445c-b446-dc563f9e2348","system_id":"levelo_inurba_marseille","lat":43.29182,"lon":5.3931,"is_reserved":false,"is_disabled":true,"rental_uris":{"android":"levelo://app?vid=79c2006f-b948-445c-b446-dc563f9e2348","ios":"levelo://app?vid=79c2006f-b948-445c-b446-dc563f9e2348"},"vehicle_type_id":"4","last_reported":1745825724,"current_range_meters":16000,"station_id":"ce4bh192rcd13ifvqdd0","pricing_plan_id":"cebpf4jnsgd1na2vs0mg"},{"bike_id":"76eaa5b5-84d9-42ba-b292-1b4e276e6561","system_id":"levelo_inurba_marseille","lat":43.23964,"lon":5.36635,"is_reserved":false,"is_disabled":false,"rental_uris":{"android":"levelo://app?vid=76eaa5b5-84d9-42ba-b292-1b4e276e6561","ios":"levelo://app?vid=76eaa5b5-84d9-42ba-b292-1b4e276e6561"},"vehicle_type_id":"4","last_reported":1745825724,"current_range_meters":15200,"station_id":"ce4bhi12rcd13ifvqfp0","pricing_plan_id":"cebpf4jnsgd1na2vs0mg"},{"bike_id":"db9128d4-fa4b-4b3d-b5d8-0462404fa361","system_id":"levelo_inurba_marseille","lat":43.32093,"lon":5.36786,"is_reserved":false,"is_disabled":false,"rental_uris":{"android":"levelo://app?vid=db9128d4-fa4b-4b3d-b5d8-0462404fa361","ios":"levelo://app?vid=db9128d4-fa4b-4b3d-b5d8-0462404fa361"},"vehicle_type_id":"4","last_reported":1745825724,"current_range_meters":16000,"station_id":"ce4bhrh2rcd13ifvqhug","pricing_plan_id":"cebpf4jnsgd1na2vs0mg"},{"bike_id":"988d3e51-0f81-4d05-9256-41d5bf2a54ae","system_id":"levelo_inurba_marseille","lat":43.29699,"lon":5.36608,"is_reserved":false,"is_disabled":true,"rental_uris":{"android":"levelo://app?vid=988d3e51-0f81-4d05-9256-41d5bf2a54ae","ios":"levelo://app?vid=988d3e51-0f81-4d05-9256-41d5bf2a54ae"},"vehicle_type_id":"4","last_reported":1745825724,"current_range_meters":16000,"station_id":"ce4bgn12rcd13ifvqbt0","pricing_plan_id":"cebpf4jnsgd1na2vs0mg"},{"bike_id":"afd11bfc-1dcc-4e4b-8547-bcd93dfef0a3","system_id":"levelo_inurba_marseille","lat":43.26393,"lon":5.37494,"is_reserved":false,"is_disabled":true,"rental_uris":{"android":"levelo://app?vid=afd11bfc-1dcc-4e4b-8547-bcd93dfef0a3","ios":"levelo://app?vid=afd11bfc-1dcc-4e4b-8547-bcd93dfef0a3"},"vehicle_type_id":"4","last_reported":1745825724,"current_range_meters":16000,"station_id":"","pricing_plan_id":"cebpf4jnsgd1na2vs0mg"},{"bike_id":"44a87b4f-1ffd-47c0-8438-3b876b464663","system_id":"levelo_inurba_marseille","lat":43.30537,"lon":5.36711,"is_reserved":false,"is_disabled":false,"rental_uris":{"android":"levelo://app?vid=44a87b4f-1ffd-47c0-8438-3b876b464663","ios":"levelo://app?vid=44a87b4f-1ffd-47c0-8438-3b876b464663"},"vehicle_type_id":"4","last_reported":1745825724,"current_range_meters":15200,"station_id":"ce4bgrp2rcd13ifvqc9g","pricing_plan_id":"cebpf4jnsgd1na2vs0mg"},{"bike_id":"8ed43a6e-a317-49b1-9eb4-5625f8c6c959","system_id":"levelo_inurba_marseille","lat":43.24085,"lon":5.37725,"is_reserved":false,"is_disabled":false,"rental_uris":{"android":"levelo://app?vid=8ed43a6e-a317-49b1-9eb4-5625f8c6c959","ios":"levelo://app?vid=8ed43a6e-a317-49b1-9eb4-5625f8c6c959"},"vehicle_type_id":"4","last_reported":1745825724,"current_range_meters":16000,"station_id":"ce4bhnp2rcd13ifvqgvg","pricing_plan_id":"cebpf4jnsgd1na2vs0mg"},{"bike_id":"136a0e33-9d6f-489d-b0ca-8df01e71f4b0","system_id":"levelo_inurba_marseille","lat":43.29268,"lon":5.3761,"is_reserved":false,"is_disabled":false,"rental_uris":{"android":"levelo://app?vid=136a0e33-9d6f-489d-b0ca-8df01e71f4b0","ios":"levelo://app?vid=136a0e33-9d6f-489d-b0ca-8df01e71f4b0"},"vehicle_type_id":"4","last_reported":1745825724,"current_range_meters":16400,"station_id":"ce4bgi12rcd13ifvqb80","pricing_plan_id":"cebpf4jnsgd1na2vs0mg"},{"bike_id":"5d80cec4-cf0d-4b75-87cc-4649871dd5da","system_id":"levelo_inurba_marseille","lat":43.27491,"lon":5.42432,"is_reserved":false,"is_disabled":false,"rental_uris":{"android":"levelo://app?vid=5d80cec4-cf0d-4b75-87cc-4649871dd5da","ios":"levelo://app?vid=5d80cec4-cf0d-4b75-87cc-4649871dd5da"},"vehicle_type_id":"4","last_reported":1745825724,"current_range_meters":16400,"station_id":"ce4bhn92rcd13ifvqgrg","pricing_plan_id":"cebpf4jnsgd1na2vs0mg"},{"bike_id":"b45721df-1911-4bd0-96bb-0c84adb69cfd","system_id":"levelo_inurba_marseille","lat":43.23977,"lon":5.36626,"is_reserved":false,"is_disabled":false,"rental_uris":{"android":"levelo://app?vid=b45721df-1911-4bd0-96bb-0c84adb69cfd","ios":"levelo://app?vid=b45721df-1911-4bd0-96bb-0c84adb69cfd"},"vehicle_type_id":"4","last_reported":1745825724,"current_range_meters":16400,"station_id":"ce4bhi12rcd13ifvqfp0","pricing_plan_id":"cebpf4jnsgd1na2vs0mg"},{"bike_id":"4f789c73-5db5-4566-b1ae-8b66f9c692cb","system_id":"levelo_inurba_marseille","lat":43.24069,"lon":5.377,"is_reserved":false,"is_disabled":false,"rental_uris":{"android":"levelo://app?vid=4f789c73-5db5-4566-b1ae-8b66f9c692cb","ios":"levelo://app?vid=4f789c73-5db5-4566-b1ae-8b66f9c692cb"},"vehicle_type_id":"4","last_reported":1745825724,"current_range_meters":16400,"station_id":"ce4bhnp2rcd13ifvqgvg","pricing_plan_id":"cebpf4jnsgd1na2vs0mg"},{"bike_id":"d89a6a80-1dab-4bf3-bd35-932d6c948eb6","system_id":"levelo_inurba_marseille","lat":43.2315,"lon":5.43721,"is_reserved":false,"is_disabled":false,"rental_uris":{"android":"levelo://app?vid=d89a6a80-1dab-4bf3-bd35-932d6c948eb6","ios":"levelo://app?vid=d89a6a80-1dab-4bf3-bd35-932d6c948eb6"},"vehicle_type_id":"4","last_reported":1745825724,"current_range_meters":16400,"station_id":"ce4bhmp2rcd13ifvqgog","pricing_plan_id":"cebpf4jnsgd1na2vs0mg"},{"bike_id":"5f363fb2-65d6-4f54-a7e8-9f0969c18dcf","system_id":"levelo_inurba_marseille","lat":43.30521,"lon":5.36549,"is_reserved":false,"is_disabled":true,"rental_uris":{"android":"levelo://app?vid=5f363fb2-65d6-4f54-a7e8-9f0969c18dcf","ios":"levelo://app?vid=5f363fb2-65d6-4f54-a7e8-9f0969c18dcf"},"vehicle_type_id":"4","last_reported":1745825724,"current_range_meters":16800,"station_id":"ce4bgs12rcd13ifvqcag","pricing_plan_id":"cebpf4jnsgd1na2vs0mg"},{"bike_id":"9d88c5b4-4ead-4d6c-941e-ef004dd87938","system_id":"levelo_inurba_marseille","lat":43.27498,"lon":5.42453,"is_reserved":false,"is_disabled":false,"rental_uris":{"android":"levelo://app?vid=9d88c5b4-4ead-4d6c-941e-ef004dd87938","ios":"levelo://app?vid=9d88c5b4-4ead-4d6c-941e-ef004dd87938"},"vehicle_type_id":"4","last_reported":1745825724,"current_range_meters":16800,"station_id":"ce4bhn92rcd13ifvqgrg","pricing_plan_id":"cebpf4jnsgd1na2vs0mg"},{"bike_id":"b510b91a-9f74-4d8c-a1f0-97f261cf0db7","system_id":"levelo_inurba_marseille","lat":43.28618,"lon":5.35103,"is_reserved":false,"is_disabled":false,"rental_uris":{"android":"levelo://app?vid=b510b91a-9f74-4d8c-a1f0-97f261cf0db7","ios":"levelo://app?vid=b510b91a-9f74-4d8c-a1f0-97f261cf0db7"},"vehicle_type_id":"4","last_reported":1745825724,"current_range_meters":16800,"station_id":"ce4bhch2rcd13ifvqeug","pricing_plan_id":"cebpf4jnsgd1na2vs0mg"},{"bike_id":"d45d7969-4abe-4ea3-9a6b-f7c3fed3d127","system_id":"levelo_inurba_marseille","lat":43.31277,"lon":5.40159,"is_reserved":false,"is_disabled":false,"rental_uris":{"android":"levelo://app?vid=d45d7969-4abe-4ea3-9a6b-f7c3fed3d127","ios":"levelo://app?vid=d45d7969-4abe-4ea3-9a6b-f7c3fed3d127"},"vehicle_type_id":"4","last_reported":1745825724,"current_range_meters":16800,"station_id":"ce4bh3p2rcd13ifvqdp0","pricing_plan_id":"cebpf4jnsgd1na2vs0mg"},{"bike_id":"daa5fb12-4e0b-4bce-a6b1-6719a5e359ca","system_id":"levelo_inurba_marseille","lat":43.23168,"lon":5.43709,"is_reserved":false,"is_disabled":false,"rental_uris":{"android":"levelo://app?vid=daa5fb12-4e0b-4bce-a6b1-6719a5e359ca","ios":"levelo://app?vid=daa5fb12-4e0b-4bce-a6b1-6719a5e359ca"},"vehicle_type_id":"4","last_reported":1745825724,"current_range_meters":16800,"station_id":"ce4bhmp2rcd13ifvqgog","pricing_plan_id":"cebpf4jnsgd1na2vs0mg"},{"bike_id":"216e95be-0893-41e4-bf73-4804664c9843","system_id":"levelo_inurba_marseille","lat":43.31493,"lon":5.37309,"is_reserved":false,"is_disabled":false,"rental_uris":{"android":"levelo://app?vid=216e95be-0893-41e4-bf73-4804664c9843","ios":"levelo://app?vid=216e95be-0893-41e4-bf73-4804664c9843"},"vehicle_type_id":"4","last_reported":1745825724,"current_range_meters":16800,"station_id":"ce4bgt12rcd13ifvqcd0","pricing_plan_id":"cebpf4jnsgd1na2vs0mg"},{"bike_id":"93b5fb75-0714-49b9-ba10-c5d4bd11d5dd","system_id":"levelo_inurba_marseille","lat":43.31228,"lon":5.36876,"is_reserved":false,"is_disabled":false,"rental_uris":{"android":"levelo://app?vid=93b5fb75-0714-49b9-ba10-c5d4bd11d5dd","ios":"levelo://app?vid=93b5fb75-0714-49b9-ba10-c5d4bd11d5dd"},"vehicle_type_id":"4","last_reported":1745825724,"current_range_meters":17200,"station_id":"ce4bgl92rcd13ifvqbq0","pricing_plan_id":"cebpf4jnsgd1na2vs0mg"},{"bike_id":"854b6f67-ca9a-45bb-a87f-9accf64bf40e","system_id":"levelo_inurba_marseille","lat":43.27562,"lon":5.384115,"is_reserved":false,"is_disabled":true,"rental_uris":{"android":"levelo://app?vid=854b6f67-ca9a-45bb-a87f-9accf64bf40e","ios":"levelo://app?vid=854b6f67-ca9a-45bb-a87f-9accf64bf40e"},"vehicle_type_id":"4","last_reported":1745825724,"current_range_meters":17200,"station_id":"ce4bhh92rcd13ifvqfi0","pricing_plan_id":"cebpf4jnsgd1na2vs0mg"},{"bike_id":"9275afeb-620b-4a3c-83d1-31bc14709d93","system_id":"levelo_inurba_marseille","lat":43.28859,"lon":5.358417,"is_reserved":false,"is_disabled":true,"rental_uris":{"android":"levelo://app?vid=9275afeb-620b-4a3c-83d1-31bc14709d93","ios":"levelo://app?vid=9275afeb-620b-4a3c-83d1-31bc14709d93"},"vehicle_type_id":"4","last_reported":1745825724,"current_range_meters":17200,"station_id":"ce4bhb12rcd13ifvqem0","pricing_plan_id":"cebpf4jnsgd1na2vs0mg"},{"bike_id":"1ee07aab-6dfc-418c-b78d-0e2eb7042865","system_id":"levelo_inurba_marseille","lat":43.31348,"lon":5.36731,"is_reserved":false,"is_disabled":false,"rental_uris":{"android":"levelo://app?vid=1ee07aab-6dfc-418c-b78d-0e2eb7042865","ios":"levelo://app?vid=1ee07aab-6dfc-418c-b78d-0e2eb7042865"},"vehicle_type_id":"4","last_reported":1745825724,"current_range_meters":17200,"station_id":"ce4bgr92rcd13ifvqc6g","pricing_plan_id":"cebpf4jnsgd1na2vs0mg"},{"bike_id":"0292d40d-390a-445d-aff2-ec0181a3ae3a","system_id":"levelo_inurba_marseille","lat":43.240622,"lon":5.377668,"is_reserved":false,"is_disabled":false,"rental_uris":{"android":"levelo://app?vid=0292d40d-390a-445d-aff2-ec0181a3ae3a","ios":"levelo://app?vid=0292d40d-390a-445d-aff2-ec0181a3ae3a"},"vehicle_type_id":"4","last_reported":1745825724,"current_range_meters":17200,"station_id":"ce4bhnp2rcd13ifvqgvg","pricing_plan_id":"cebpf4jnsgd1na2vs0mg"},{"bike_id":"55c1d854-3d51-4d29-9506-b606c2c1e930","system_id":"levelo_inurba_marseille","lat":43.31517,"lon":5.37288,"is_reserved":false,"is_disabled":false,"rental_uris":{"android":"levelo://app?vid=55c1d854-3d51-4d29-9506-b606c2c1e930","ios":"levelo://app?vid=55c1d854-3d51-4d29-9506-b606c2c1e930"},"vehicle_type_id":"4","last_reported":1745825724,"current_range_meters":17200,"station_id":"ce4bgt12rcd13ifvqcd0","pricing_plan_id":"cebpf4jnsgd1na2vs0mg"},{"bike_id":"2b64409d-7793-48b4-bf2a-0f7c8b1ece81","system_id":"levelo_inurba_marseille","lat":43.26228,"lon":5.40445,"is_reserved":false,"is_disabled":false,"rental_uris":{"android":"levelo://app?vid=2b64409d-7793-48b4-bf2a-0f7c8b1ece81","ios":"levelo://app?vid=2b64409d-7793-48b4-bf2a-0f7c8b1ece81"},"vehicle_type_id":"4","last_reported":1745825724,"current_range_meters":17600,"station_id":"ce4bhmh2rcd13ifvqgmg","pricing_plan_id":"cebpf4jnsgd1na2vs0mg"},{"bike_id":"26e2563a-5614-46af-9839-4e09e7d33768","system_id":"levelo_inurba_marseille","lat":43.33613,"lon":5.410183,"is_reserved":false,"is_disabled":true,"rental_uris":{"android":"levelo://app?vid=26e2563a-5614-46af-9839-4e09e7d33768","ios":"levelo://app?vid=26e2563a-5614-46af-9839-4e09e7d33768"},"vehicle_type_id":"4","last_reported":1745825724,"current_range_meters":17600,"station_id":"ce4bhqh2rcd13ifvqhmg","pricing_plan_id":"cebpf4jnsgd1na2vs0mg"},{"bike_id":"2420ad39-a5b7-4ea3-b775-69cf92e1a47f","system_id":"levelo_inurba_marseille","lat":43.25949,"lon":5.40933,"is_reserved":false,"is_disabled":false,"rental_uris":{"android":"levelo://app?vid=2420ad39-a5b7-4ea3-b775-69cf92e1a47f","ios":"levelo://app?vid=2420ad39-a5b7-4ea3-b775-69cf92e1a47f"},"vehicle_type_id":"4","last_reported":1745825724,"current_range_meters":17600,"station_id":"ce4bhm92rcd13ifvqglg","pricing_plan_id":"cebpf4jnsgd1na2vs0mg"},{"bike_id":"4bf08038-f5c2-4f98-a256-2270055407f1","system_id":"levelo_inurba_marseille","lat":43.275,"lon":5.42445,"is_reserved":false,"is_disabled":false,"rental_uris":{"android":"levelo://app?vid=4bf08038-f5c2-4f98-a256-2270055407f1","ios":"levelo://app?vid=4bf08038-f5c2-4f98-a256-2270055407f1"},"vehicle_type_id":"4","last_reported":1745825724,"current_range_meters":17600,"station_id":"ce4bhn92rcd13ifvqgrg","pricing_plan_id":"cebpf4jnsgd1na2vs0mg"},{"bike_id":"fbc03d19-a211-4ddb-af30-993ad8f07efd","system_id":"levelo_inurba_marseille","lat":43.23962,"lon":5.36629,"is_reserved":false,"is_disabled":false,"rental_uris":{"android":"levelo://app?vid=fbc03d19-a211-4ddb-af30-993ad8f07efd","ios":"levelo://app?vid=fbc03d19-a211-4ddb-af30-993ad8f07efd"},"vehicle_type_id":"4","last_reported":1745825724,"current_range_meters":18000,"station_id":"ce4bhi12rcd13ifvqfp0","pricing_plan_id":"cebpf4jnsgd1na2vs0mg"},{"bike_id":"2c6a1031-ea6a-413a-99d4-1284f4eb777c","system_id":"levelo_inurba_marseille","lat":43.27067,"lon":5.42283,"is_reserved":false,"is_disabled":false,"rental_uris":{"android":"levelo://app?vid=2c6a1031-ea6a-413a-99d4-1284f4eb777c","ios":"levelo://app?vid=2c6a1031-ea6a-413a-99d4-1284f4eb777c"},"vehicle_type_id":"4","last_reported":1745825724,"current_range_meters":17600,"station_id":"ce4bhk92rcd13ifvqgb0","pricing_plan_id":"cebpf4jnsgd1na2vs0mg"},{"bike_id":"18b22a52-8a89-4304-b51a-c4a441f93c6a","system_id":"levelo_inurba_marseille","lat":43.31348,"lon":5.36714,"is_reserved":false,"is_disabled":false,"rental_uris":{"android":"levelo://app?vid=18b22a52-8a89-4304-b51a-c4a441f93c6a","ios":"levelo://app?vid=18b22a52-8a89-4304-b51a-c4a441f93c6a"},"vehicle_type_id":"4","last_reported":1745825724,"current_range_meters":18000,"station_id":"ce4bgr92rcd13ifvqc6g","pricing_plan_id":"cebpf4jnsgd1na2vs0mg"},{"bike_id":"6d4ec786-953c-4592-927f-14a18cec8d7c","system_id":"levelo_inurba_marseille","lat":43.27053,"lon":5.40261,"is_reserved":false,"is_disabled":false,"rental_uris":{"android":"levelo://app?vid=6d4ec786-953c-4592-927f-14a18cec8d7c","ios":"levelo://app?vid=6d4ec786-953c-4592-927f-14a18cec8d7c"},"vehicle_type_id":"4","last_reported":1745825724,"current_range_meters":18000,"station_id":"ce4bhk92rcd13ifvqgc0","pricing_plan_id":"cebpf4jnsgd1na2vs0mg"},{"bike_id":"bf37a270-8750-4c0e-bb8d-af5cb0b921c6","system_id":"levelo_inurba_marseille","lat":43.27208,"lon":5.39177,"is_reserved":false,"is_disabled":false,"rental_uris":{"android":"levelo://app?vid=bf37a270-8750-4c0e-bb8d-af5cb0b921c6","ios":"levelo://app?vid=bf37a270-8750-4c0e-bb8d-af5cb0b921c6"},"vehicle_type_id":"4","last_reported":1745825724,"current_range_meters":18000,"station_id":"ce4bhhp2rcd13ifvqfm0","pricing_plan_id":"cebpf4jnsgd1na2vs0mg"},{"bike_id":"e2db68dd-f47f-4e15-8fe0-c97738bddb69","system_id":"levelo_inurba_marseille","lat":43.2926,"lon":5.36845,"is_reserved":false,"is_disabled":true,"rental_uris":{"android":"levelo://app?vid=e2db68dd-f47f-4e15-8fe0-c97738bddb69","ios":"levelo://app?vid=e2db68dd-f47f-4e15-8fe0-c97738bddb69"},"vehicle_type_id":"4","last_reported":1745825724,"current_range_meters":18000,"station_id":"ce4bhbp2rcd13ifvqesg","pricing_plan_id":"cebpf4jnsgd1na2vs0mg"},{"bike_id":"d0084b40-0977-469b-a971-471d5dd9a078","system_id":"levelo_inurba_marseille","lat":43.25965,"lon":5.40939,"is_reserved":false,"is_disabled":false,"rental_uris":{"android":"levelo://app?vid=d0084b40-0977-469b-a971-471d5dd9a078","ios":"levelo://app?vid=d0084b40-0977-469b-a971-471d5dd9a078"},"vehicle_type_id":"4","last_reported":1745825724,"current_range_meters":18000,"station_id":"ce4bhm92rcd13ifvqglg","pricing_plan_id":"cebpf4jnsgd1na2vs0mg"},{"bike_id":"5878cc40-616d-495d-81e7-c7d92b216f7a","system_id":"levelo_inurba_marseille","lat":43.32534,"lon":5.41427,"is_reserved":false,"is_disabled":false,"rental_uris":{"android":"levelo://app?vid=5878cc40-616d-495d-81e7-c7d92b216f7a","ios":"levelo://app?vid=5878cc40-616d-495d-81e7-c7d92b216f7a"},"vehicle_type_id":"4","last_reported":1745825724,"current_range_meters":18000,"station_id":"ce4bhq12rcd13ifvqhhg","pricing_plan_id":"cebpf4jnsgd1na2vs0mg"},{"bike_id":"286ffa38-1138-4946-8bbc-70b23f286309","system_id":"levelo_inurba_marseille","lat":43.26994,"lon":5.40333,"is_reserved":false,"is_disabled":false,"rental_uris":{"android":"levelo://app?vid=286ffa38-1138-4946-8bbc-70b23f286309","ios":"levelo://app?vid=286ffa38-1138-4946-8bbc-70b23f286309"},"vehicle_type_id":"4","last_reported":1745825724,"current_range_meters":18000,"station_id":"","pricing_plan_id":"cebpf4jnsgd1na2vs0mg"},{"bike_id":"425564c4-f883-4f68-876f-947748498d1f","system_id":"levelo_inurba_marseille","lat":43.26931,"lon":5.40251,"is_reserved":false,"is_disabled":true,"rental_uris":{"android":"levelo://app?vid=425564c4-f883-4f68-876f-947748498d1f","ios":"levelo://app?vid=425564c4-f883-4f68-876f-947748498d1f"},"vehicle_type_id":"4","last_reported":1745825724,"current_range_meters":18000,"station_id":"cjm6bp8fraef2m0cb0m0","pricing_plan_id":"cebpf4jnsgd1na2vs0mg"},{"bike_id":"5a044894-5020-4a75-8360-b097818511e7","system_id":"levelo_inurba_marseille","lat":43.32545,"lon":5.41442,"is_reserved":false,"is_disabled":false,"rental_uris":{"android":"levelo://app?vid=5a044894-5020-4a75-8360-b097818511e7","ios":"levelo://app?vid=5a044894-5020-4a75-8360-b097818511e7"},"vehicle_type_id":"4","last_reported":1745825724,"current_range_meters":18000,"station_id":"ce4bhq12rcd13ifvqhhg","pricing_plan_id":"cebpf4jnsgd1na2vs0mg"},{"bike_id":"c4e882de-82cc-40fc-8fdc-d03d27c35a19","system_id":"levelo_inurba_marseille","lat":43.31149,"lon":5.37025,"is_reserved":false,"is_disabled":true,"rental_uris":{"android":"levelo://app?vid=c4e882de-82cc-40fc-8fdc-d03d27c35a19","ios":"levelo://app?vid=c4e882de-82cc-40fc-8fdc-d03d27c35a19"},"vehicle_type_id":"4","last_reported":1745825724,"current_range_meters":18000,"station_id":"","pricing_plan_id":"cebpf4jnsgd1na2vs0mg"},{"bike_id":"9cbcc298-7276-4faa-a3f3-5f54c8726ff4","system_id":"levelo_inurba_marseille","lat":43.24508,"lon":5.41211,"is_reserved":false,"is_disabled":false,"rental_uris":{"android":"levelo://app?vid=9cbcc298-7276-4faa-a3f3-5f54c8726ff4","ios":"levelo://app?vid=9cbcc298-7276-4faa-a3f3-5f54c8726ff4"},"vehicle_type_id":"4","last_reported":1745825724,"current_range_meters":18800,"station_id":"","pricing_plan_id":"cebpf4jnsgd1na2vs0mg"},{"bike_id":"2e95688e-dce1-46fb-aafa-e90ee8fb43ec","system_id":"levelo_inurba_marseille","lat":43.2315,"lon":5.43726,"is_reserved":false,"is_disabled":false,"rental_uris":{"android":"levelo://app?vid=2e95688e-dce1-46fb-aafa-e90ee8fb43ec","ios":"levelo://app?vid=2e95688e-dce1-46fb-aafa-e90ee8fb43ec"},"vehicle_type_id":"4","last_reported":1745825724,"current_range_meters":18800,"station_id":"ce4bhmp2rcd13ifvqgog","pricing_plan_id":"cebpf4jnsgd1na2vs0mg"},{"bike_id":"128ac9a8-8215-4975-996b-8ce4ff2f43b9","system_id":"levelo_inurba_marseille","lat":43.29898,"lon":5.43673,"is_reserved":false,"is_disabled":false,"rental_uris":{"android":"levelo://app?vid=128ac9a8-8215-4975-996b-8ce4ff2f43b9","ios":"levelo://app?vid=128ac9a8-8215-4975-996b-8ce4ff2f43b9"},"vehicle_type_id":"4","last_reported":1745825724,"current_range_meters":18800,"station_id":"ce4bhpp2rcd13ifvqhfg","pricing_plan_id":"cebpf4jnsgd1na2vs0mg"},{"bike_id":"b476c234-8106-48af-b5da-72e65aa42d40","system_id":"levelo_inurba_marseille","lat":43.24072,"lon":5.37762,"is_reserved":false,"is_disabled":false,"rental_uris":{"android":"levelo://app?vid=b476c234-8106-48af-b5da-72e65aa42d40","ios":"levelo://app?vid=b476c234-8106-48af-b5da-72e65aa42d40"},"vehicle_type_id":"4","last_reported":1745825724,"current_range_meters":18800,"station_id":"ce4bhnp2rcd13ifvqgvg","pricing_plan_id":"cebpf4jnsgd1na2vs0mg"},{"bike_id":"afc86eb4-aef4-40ce-b012-4b2597096a8c","system_id":"levelo_inurba_marseille","lat":43.27077,"lon":5.42286,"is_reserved":false,"is_disabled":false,"rental_uris":{"android":"levelo://app?vid=afc86eb4-aef4-40ce-b012-4b2597096a8c","ios":"levelo://app?vid=afc86eb4-aef4-40ce-b012-4b2597096a8c"},"vehicle_type_id":"4","last_reported":1745825724,"current_range_meters":18800,"station_id":"ce4bhk92rcd13ifvqgb0","pricing_plan_id":"cebpf4jnsgd1na2vs0mg"},{"bike_id":"d8b9b350-6636-4922-af94-8fbc6798af45","system_id":"levelo_inurba_marseille","lat":43.23969,"lon":5.36646,"is_reserved":false,"is_disabled":false,"rental_uris":{"android":"levelo://app?vid=d8b9b350-6636-4922-af94-8fbc6798af45","ios":"levelo://app?vid=d8b9b350-6636-4922-af94-8fbc6798af45"},"vehicle_type_id":"4","last_reported":1745825724,"current_range_meters":18800,"station_id":"ce4bhi12rcd13ifvqfp0","pricing_plan_id":"cebpf4jnsgd1na2vs0mg"},{"bike_id":"f3ba4d51-aab7-42f8-97f0-298fa1958d55","system_id":"levelo_inurba_marseille","lat":43.24065,"lon":5.37739,"is_reserved":false,"is_disabled":false,"rental_uris":{"android":"levelo://app?vid=f3ba4d51-aab7-42f8-97f0-298fa1958d55","ios":"levelo://app?vid=f3ba4d51-aab7-42f8-97f0-298fa1958d55"},"vehicle_type_id":"4","last_reported":1745825724,"current_range_meters":18800,"station_id":"ce4bhnp2rcd13ifvqgvg","pricing_plan_id":"cebpf4jnsgd1na2vs0mg"},{"bike_id":"673125e4-60be-44c8-a219-005b0fdf6e4d","system_id":"levelo_inurba_marseille","lat":43.323319,"lon":5.406195,"is_reserved":false,"is_disabled":false,"rental_uris":{"android":"levelo://app?vid=673125e4-60be-44c8-a219-005b0fdf6e4d","ios":"levelo://app?vid=673125e4-60be-44c8-a219-005b0fdf6e4d"},"vehicle_type_id":"4","last_reported":1745825724,"current_range_meters":19200,"station_id":"ce4bgup2rcd13ifvqco0","pricing_plan_id":"cebpf4jnsgd1na2vs0mg"},{"bike_id":"f977d8fc-a486-45df-8727-671d07539b11","system_id":"levelo_inurba_marseille","lat":43.26205,"lon":5.37916,"is_reserved":false,"is_disabled":true,"rental_uris":{"android":"levelo://app?vid=f977d8fc-a486-45df-8727-671d07539b11","ios":"levelo://app?vid=f977d8fc-a486-45df-8727-671d07539b11"},"vehicle_type_id":"4","last_reported":1745825724,"current_range_meters":19200,"station_id":"ce4bhjp2rcd13ifvqg90","pricing_plan_id":"cebpf4jnsgd1na2vs0mg"},{"bike_id":"86b6e83f-3914-44e8-8aed-0547cf152c0d","system_id":"levelo_inurba_marseille","lat":43.29306,"lon":5.37171,"is_reserved":false,"is_disabled":false,"rental_uris":{"android":"levelo://app?vid=86b6e83f-3914-44e8-8aed-0547cf152c0d","ios":"levelo://app?vid=86b6e83f-3914-44e8-8aed-0547cf152c0d"},"vehicle_type_id":"4","last_reported":1745825724,"current_range_meters":19200,"station_id":"ce4bgh92rcd13ifvqb40","pricing_plan_id":"cebpf4jnsgd1na2vs0mg"},{"bike_id":"8abf74ec-5bbf-4e1c-bd0e-cd0f7c214704","system_id":"levelo_inurba_marseille","lat":43.24084,"lon":5.37753,"is_reserved":false,"is_disabled":false,"rental_uris":{"android":"levelo://app?vid=8abf74ec-5bbf-4e1c-bd0e-cd0f7c214704","ios":"levelo://app?vid=8abf74ec-5bbf-4e1c-bd0e-cd0f7c214704"},"vehicle_type_id":"4","last_reported":1745825724,"current_range_meters":19200,"station_id":"ce4bhnp2rcd13ifvqgvg","pricing_plan_id":"cebpf4jnsgd1na2vs0mg"},{"bike_id":"406d7795-4188-429e-aaff-5816755cbb94","system_id":"levelo_inurba_marseille","lat":43.2932,"lon":5.3786,"is_reserved":false,"is_disabled":true,"rental_uris":{"android":"levelo://app?vid=406d7795-4188-429e-aaff-5816755cbb94","ios":"levelo://app?vid=406d7795-4188-429e-aaff-5816755cbb94"},"vehicle_type_id":"4","last_reported":1745825724,"current_range_meters":19200,"station_id":"ce4bgjh2rcd13ifvqbf0","pricing_plan_id":"cebpf4jnsgd1na2vs0mg"},{"bike_id":"f293a904-f0d6-417e-8725-f24f8146fc36","system_id":"levelo_inurba_marseille","lat":43.2917,"lon":5.37158,"is_reserved":false,"is_disabled":false,"rental_uris":{"android":"levelo://app?vid=f293a904-f0d6-417e-8725-f24f8146fc36","ios":"levelo://app?vid=f293a904-f0d6-417e-8725-f24f8146fc36"},"vehicle_type_id":"4","last_reported":1745825724,"current_range_meters":19200,"station_id":"ce4bha92rcd13ifvqeh0","pricing_plan_id":"cebpf4jnsgd1na2vs0mg"},{"bike_id":"612ec339-5c0c-4845-8098-280c341784c9","system_id":"levelo_inurba_marseille","lat":43.28971,"lon":5.3782,"is_reserved":false,"is_disabled":false,"rental_uris":{"android":"levelo://app?vid=612ec339-5c0c-4845-8098-280c341784c9","ios":"levelo://app?vid=612ec339-5c0c-4845-8098-280c341784c9"},"vehicle_type_id":"4","last_reported":1745825724,"current_range_meters":18800,"station_id":"ce4bh9p2rcd13ifvqed0","pricing_plan_id":"cebpf4jnsgd1na2vs0mg"},{"bike_id":"5d495411-3ee7-4391-8330-345e04f42bd5","system_id":"levelo_inurba_marseille","lat":43.29271,"lon":5.36837,"is_reserved":false,"is_disabled":true,"rental_uris":{"android":"levelo://app?vid=5d495411-3ee7-4391-8330-345e04f42bd5","ios":"levelo://app?vid=5d495411-3ee7-4391-8330-345e04f42bd5"},"vehicle_type_id":"4","last_reported":1745825724,"current_range_meters":19200,"station_id":"ce4bhbp2rcd13ifvqesg","pricing_plan_id":"cebpf4jnsgd1na2vs0mg"},{"bike_id":"b370297b-f398-4424-866d-9cc96e37e571","system_id":"levelo_inurba_marseille","lat":43.28423,"lon":5.3497,"is_reserved":false,"is_disabled":false,"rental_uris":{"android":"levelo://app?vid=b370297b-f398-4424-866d-9cc96e37e571","ios":"levelo://app?vid=b370297b-f398-4424-866d-9cc96e37e571"},"vehicle_type_id":"4","last_reported":1745825724,"current_range_meters":19200,"station_id":"ce4bhbh2rcd13ifvqepg","pricing_plan_id":"cebpf4jnsgd1na2vs0mg"},{"bike_id":"504af8b5-2522-4176-8201-9c37815f0fa0","system_id":"levelo_inurba_marseille","lat":43.23975,"lon":5.36632,"is_reserved":false,"is_disabled":false,"rental_uris":{"android":"levelo://app?vid=504af8b5-2522-4176-8201-9c37815f0fa0","ios":"levelo://app?vid=504af8b5-2522-4176-8201-9c37815f0fa0"},"vehicle_type_id":"4","last_reported":1745825724,"current_range_meters":19600,"station_id":"ce4bhi12rcd13ifvqfp0","pricing_plan_id":"cebpf4jnsgd1na2vs0mg"},{"bike_id":"88607013-d54d-4fa3-80df-dfcb90378789","system_id":"levelo_inurba_marseille","lat":43.29614,"lon":5.37724,"is_reserved":false,"is_disabled":false,"rental_uris":{"android":"levelo://app?vid=88607013-d54d-4fa3-80df-dfcb90378789","ios":"levelo://app?vid=88607013-d54d-4fa3-80df-dfcb90378789"},"vehicle_type_id":"4","last_reported":1745825724,"current_range_meters":20000,"station_id":"ce4bgi92rcd13ifvqb90","pricing_plan_id":"cebpf4jnsgd1na2vs0mg"},{"bike_id":"bbc1e6ba-0149-4cc5-9b05-0a83fb9f161f","system_id":"levelo_inurba_marseille","lat":43.241818,"lon":5.397249,"is_reserved":false,"is_disabled":false,"rental_uris":{"android":"levelo://app?vid=bbc1e6ba-0149-4cc5-9b05-0a83fb9f161f","ios":"levelo://app?vid=bbc1e6ba-0149-4cc5-9b05-0a83fb9f161f"},"vehicle_type_id":"4","last_reported":1745825724,"current_range_meters":19600,"station_id":"ce4bhn12rcd13ifvqgpg","pricing_plan_id":"cebpf4jnsgd1na2vs0mg"},{"bike_id":"97844153-0ffe-4cc3-91b7-b90f48d3247b","system_id":"levelo_inurba_marseille","lat":43.2781,"lon":5.40713,"is_reserved":false,"is_disabled":false,"rental_uris":{"android":"levelo://app?vid=97844153-0ffe-4cc3-91b7-b90f48d3247b","ios":"levelo://app?vid=97844153-0ffe-4cc3-91b7-b90f48d3247b"},"vehicle_type_id":"4","last_reported":1745825724,"current_range_meters":19600,"station_id":"ce4bhnh2rcd13ifvqgtg","pricing_plan_id":"cebpf4jnsgd1na2vs0mg"},{"bike_id":"327bb468-f0c1-43fa-a1ab-a22556483537","system_id":"levelo_inurba_marseille","lat":43.24077,"lon":5.37743,"is_reserved":false,"is_disabled":false,"rental_uris":{"android":"levelo://app?vid=327bb468-f0c1-43fa-a1ab-a22556483537","ios":"levelo://app?vid=327bb468-f0c1-43fa-a1ab-a22556483537"},"vehicle_type_id":"4","last_reported":1745825724,"current_range_meters":19600,"station_id":"ce4bhnp2rcd13ifvqgvg","pricing_plan_id":"cebpf4jnsgd1na2vs0mg"},{"bike_id":"da523d0f-7556-4f4d-80bc-35425e0b6d11","system_id":"levelo_inurba_marseille","lat":43.2969,"lon":5.373,"is_reserved":false,"is_disabled":false,"rental_uris":{"android":"levelo://app?vid=da523d0f-7556-4f4d-80bc-35425e0b6d11","ios":"levelo://app?vid=da523d0f-7556-4f4d-80bc-35425e0b6d11"},"vehicle_type_id":"4","last_reported":1745825724,"current_range_meters":19600,"station_id":"ce4bgk12rcd13ifvqbj0","pricing_plan_id":"cebpf4jnsgd1na2vs0mg"},{"bike_id":"e3638847-3a88-42f7-8abf-02858230aef5","system_id":"levelo_inurba_marseille","lat":43.31368,"lon":5.36701,"is_reserved":false,"is_disabled":false,"rental_uris":{"android":"levelo://app?vid=e3638847-3a88-42f7-8abf-02858230aef5","ios":"levelo://app?vid=e3638847-3a88-42f7-8abf-02858230aef5"},"vehicle_type_id":"4","last_reported":1745825724,"current_range_meters":19600,"station_id":"ce4bgr92rcd13ifvqc6g","pricing_plan_id":"cebpf4jnsgd1na2vs0mg"},{"bike_id":"525565eb-9198-47eb-9aa2-3d098070abfb","system_id":"levelo_inurba_marseille","lat":43.29896,"lon":5.4366,"is_reserved":false,"is_disabled":false,"rental_uris":{"android":"levelo://app?vid=525565eb-9198-47eb-9aa2-3d098070abfb","ios":"levelo://app?vid=525565eb-9198-47eb-9aa2-3d098070abfb"},"vehicle_type_id":"4","last_reported":1745825724,"current_range_meters":19600,"station_id":"ce4bhpp2rcd13ifvqhfg","pricing_plan_id":"cebpf4jnsgd1na2vs0mg"},{"bike_id":"2d7b50c2-e414-4e82-82a2-7035113690ad","system_id":"levelo_inurba_marseille","lat":43.31487,"lon":5.3727,"is_reserved":false,"is_disabled":false,"rental_uris":{"android":"levelo://app?vid=2d7b50c2-e414-4e82-82a2-7035113690ad","ios":"levelo://app?vid=2d7b50c2-e414-4e82-82a2-7035113690ad"},"vehicle_type_id":"4","last_reported":1745825724,"current_range_meters":19600,"station_id":"ce4bgt12rcd13ifvqcd0","pricing_plan_id":"cebpf4jnsgd1na2vs0mg"},{"bike_id":"dde3adb5-49db-409f-8f91-eb853ce9f70c","system_id":"levelo_inurba_marseille","lat":43.24184,"lon":5.36388,"is_reserved":false,"is_disabled":false,"rental_uris":{"android":"levelo://app?vid=dde3adb5-49db-409f-8f91-eb853ce9f70c","ios":"levelo://app?vid=dde3adb5-49db-409f-8f91-eb853ce9f70c"},"vehicle_type_id":"4","last_reported":1745825724,"current_range_meters":19600,"station_id":"cpo36qri1sfpv3e86is0","pricing_plan_id":"cebpf4jnsgd1na2vs0mg"},{"bike_id":"4cf772c2-9562-444e-879e-f7c1694d4850","system_id":"levelo_inurba_marseille","lat":43.324741,"lon":5.365779,"is_reserved":false,"is_disabled":false,"rental_uris":{"android":"levelo://app?vid=4cf772c2-9562-444e-879e-f7c1694d4850","ios":"levelo://app?vid=4cf772c2-9562-444e-879e-f7c1694d4850"},"vehicle_type_id":"4","last_reported":1745825724,"current_range_meters":20000,"station_id":"ce4bgrp2rcd13ifvqc9g","pricing_plan_id":"cebpf4jnsgd1na2vs0mg"},{"bike_id":"83f5961a-9047-4ef7-8793-d15969057385","system_id":"levelo_inurba_marseille","lat":43.3247,"lon":5.36562,"is_reserved":false,"is_disabled":false,"rental_uris":{"android":"levelo://app?vid=83f5961a-9047-4ef7-8793-d15969057385","ios":"levelo://app?vid=83f5961a-9047-4ef7-8793-d15969057385"},"vehicle_type_id":"4","last_reported":1745825724,"current_range_meters":19600,"station_id":"ce4bhs12rcd13ifvqhvg","pricing_plan_id":"cebpf4jnsgd1na2vs0mg"},{"bike_id":"be96cf12-1bfe-4b12-b9a9-b4a285b05aae","system_id":"levelo_inurba_marseille","lat":43.27503,"lon":5.42447,"is_reserved":false,"is_disabled":true,"rental_uris":{"android":"levelo://app?vid=be96cf12-1bfe-4b12-b9a9-b4a285b05aae","ios":"levelo://app?vid=be96cf12-1bfe-4b12-b9a9-b4a285b05aae"},"vehicle_type_id":"4","last_reported":1745825724,"current_range_meters":19600,"station_id":"ce4bhn92rcd13ifvqgrg","pricing_plan_id":"cebpf4jnsgd1na2vs0mg"},{"bike_id":"31b4d2c4-b898-421a-972e-28776bcd3997","system_id":"levelo_inurba_marseille","lat":43.2582,"lon":5.39423,"is_reserved":false,"is_disabled":false,"rental_uris":{"android":"levelo://app?vid=31b4d2c4-b898-421a-972e-28776bcd3997","ios":"levelo://app?vid=31b4d2c4-b898-421a-972e-28776bcd3997"},"vehicle_type_id":"4","last_reported":1745825724,"current_range_meters":20000,"station_id":"ce4bhip2rcd13ifvqft0","pricing_plan_id":"cebpf4jnsgd1na2vs0mg"},{"bike_id":"ca98f165-fd87-4ddb-bc96-99357eb2935e","system_id":"levelo_inurba_marseille","lat":43.33023,"lon":5.39039,"is_reserved":false,"is_disabled":false,"rental_uris":{"android":"levelo://app?vid=ca98f165-fd87-4ddb-bc96-99357eb2935e","ios":"levelo://app?vid=ca98f165-fd87-4ddb-bc96-99357eb2935e"},"vehicle_type_id":"4","last_reported":1745825724,"current_range_meters":19600,"station_id":"ce4bhr92rcd13ifvqhrg","pricing_plan_id":"cebpf4jnsgd1na2vs0mg"},{"bike_id":"a7a5c59b-8fdc-4ceb-a16c-2fd89466328d","system_id":"levelo_inurba_marseille","lat":43.321047,"lon":5.367823,"is_reserved":false,"is_disabled":false,"rental_uris":{"android":"levelo://app?vid=a7a5c59b-8fdc-4ceb-a16c-2fd89466328d","ios":"levelo://app?vid=a7a5c59b-8fdc-4ceb-a16c-2fd89466328d"},"vehicle_type_id":"4","last_reported":1745825724,"current_range_meters":20000,"station_id":"ce4bhrh2rcd13ifvqhug","pricing_plan_id":"cebpf4jnsgd1na2vs0mg"},{"bike_id":"16d7e174-a855-42f5-9b27-d79c11beade4","system_id":"levelo_inurba_marseille","lat":43.30536,"lon":5.367,"is_reserved":false,"is_disabled":false,"rental_uris":{"android":"levelo://app?vid=16d7e174-a855-42f5-9b27-d79c11beade4","ios":"levelo://app?vid=16d7e174-a855-42f5-9b27-d79c11beade4"},"vehicle_type_id":"4","last_reported":1745825724,"current_range_meters":20400,"station_id":"ce4bgrp2rcd13ifvqc9g","pricing_plan_id":"cebpf4jnsgd1na2vs0mg"},{"bike_id":"a8fe43d6-c4f0-4e11-8789-18c41ad3a7de","system_id":"levelo_inurba_marseille","lat":43.25008,"lon":5.38932,"is_reserved":false,"is_disabled":false,"rental_uris":{"android":"levelo://app?vid=a8fe43d6-c4f0-4e11-8789-18c41ad3a7de","ios":"levelo://app?vid=a8fe43d6-c4f0-4e11-8789-18c41ad3a7de"},"vehicle_type_id":"4","last_reported":1745825724,"current_range_meters":20000,"station_id":"ce4bhgp2rcd13ifvqfd0","pricing_plan_id":"cebpf4jnsgd1na2vs0mg"},{"bike_id":"64f1282c-137f-4364-a607-5fc9f99370f3","system_id":"levelo_inurba_marseille","lat":43.295135,"lon":5.364159,"is_reserved":false,"is_disabled":false,"rental_uris":{"android":"levelo://app?vid=64f1282c-137f-4364-a607-5fc9f99370f3","ios":"levelo://app?vid=64f1282c-137f-4364-a607-5fc9f99370f3"},"vehicle_type_id":"4","last_reported":1745825724,"current_range_meters":20000,"station_id":"ce4bgpp2rcd13ifvqc3g","pricing_plan_id":"cebpf4jnsgd1na2vs0mg"},{"bike_id":"9e724425-100b-414d-82c8-b62ced2f8a95","system_id":"levelo_inurba_marseille","lat":43.27634,"lon":5.42252,"is_reserved":false,"is_disabled":false,"rental_uris":{"android":"levelo://app?vid=9e724425-100b-414d-82c8-b62ced2f8a95","ios":"levelo://app?vid=9e724425-100b-414d-82c8-b62ced2f8a95"},