{"last_updated":1720127242,"ttl":30,"version":"2.2","data":{"bikes":[{"bike_id":"e0fe9732-80a6-47e7-bd84-7e01265701cb","system_id":"levelo_inurba_marseille","lat":43.312239,"lon":5.368562,"is_reserved":false,"is_disabled":false,"rental_uris":{"android":"levelo://app?vid=e0fe9732-80a6-47e7-bd84-7e01265701cb","ios":"levelo://app?vid=e0fe9732-80a6-47e7-bd84-7e01265701cb"},"vehicle_type_id":"4","last_reported":1720127242,"current_range_meters":23200,"station_id":"ce4bgl92rcd13ifvqbq0","pricing_plan_id":"cebpf4jnsgd1na2vs0mg"},{"bike_id":"83aa54c7-9c8b-441c-8082-e27c733fc111","system_id":"levelo_inurba_marseille","lat":43.31231,"lon":5.36864,"is_reserved":false,"is_disabled":false,"rental_uris":{"android":"levelo://app?vid=83aa54c7-9c8b-441c-8082-e27c733fc111","ios":"levelo://app?vid=83aa54c7-9c8b-441c-8082-e27c733fc111"},"vehicle_type_id":"4","last_reported":1720127242,"current_range_meters":0,"station_id":"ce4bgl92rcd13ifvqbq0","pricing_plan_id":"cebpf4jnsgd1na2vs0mg"},{"bike_id":"f3fc9c9b-8fbd-4a31-9f57-78fcfdf27241","system_id":"levelo_inurba_marseille","lat":43.3123,"lon":5.36869,"is_reserved":false,"is_disabled":false,"rental_uris":{"android":"levelo://app?vid=f3fc9c9b-8fbd-4a31-9f57-78fcfdf27241","ios":"levelo://app?vid=f3fc9c9b-8fbd-4a31-9f57-78fcfdf27241"},"vehicle_type_id":"4","last_reported":1720127242,"current_range_meters":0,"station_id":"ce4bgl92rcd13ifvqbq0","pricing_plan_id":"cebpf4jnsgd1na2vs0mg"},{"bike_id":"f8eafed0-e415-4e62-bba2-bdf98518b599","system_id":"levelo_inurba_marseille","lat":43.309076,"lon":5.368465,"is_reserved":false,"is_disabled":false,"rental_uris":{"android":"levelo://app?vid=f8eafed0-e415-4e62-bba2-bdf98518b599","ios":"levelo://app?vid=f8eafed0-e415-4e62-bba2-bdf98518b599"},"vehicle_type_id":"4","last_reported":1720127242,"current_range_meters":4400,"station_id":"ce4bgn92rcd13ifvqbvg","pricing_plan_id":"cebpf4jnsgd1na2vs0mg"},{"bike_id":"3f455974-5490-4b28-b13c-2999ebe6ef07","system_id":"levelo_inurba_marseille","lat":43.314899,"lon":5.37248,"is_reserved":false,"is_disabled":false,"rental_uris":{"android":"levelo://app?vid=3f455974-5490-4b28-b13c-2999ebe6ef07","ios":"levelo://app?vid=3f455974-5490-4b28-b13c-2999ebe6ef07"},"vehicle_type_id":"4","last_reported":1720127242,"current_range_meters":23200,"station_id":"","pricing_plan_id":"cebpf4jnsgd1na2vs0mg"},{"bike_id":"b40a1ac0-9023-47a1-a0f1-bb0584dfa60d","system_id":"levelo_inurba_marseille","lat":43.314811,"lon":5.373103,"is_reserved":false,"is_disabled":false,"rental_uris":{"android":"levelo://app?vid=b40a1ac0-9023-47a1-a0f1-bb0584dfa60d","ios":"levelo://app?vid=b40a1ac0-9023-47a1-a0f1-bb0584dfa60d"},"vehicle_type_id":"4","last_reported":1720127242,"current_range_meters":5200,"station_id":"ce4bgt12rcd13ifvqcd0","pricing_plan_id":"cebpf4jnsgd1na2vs0mg"},{"bike_id":"7b12bda5-2196-47c5-a579-e42611d40945","system_id":"levelo_inurba_marseille","lat":43.314811,"lon":5.373103,"is_reserved":false,"is_disabled":false,"rental_uris":{"android":"levelo://app?vid=7b12bda5-2196-47c5-a579-e42611d40945","ios":"levelo://app?vid=7b12bda5-2196-47c5-a579-e42611d40945"},"vehicle_type_id":"4","last_reported":1720127242,"current_range_meters":8000,"station_id":"ce4bgt12rcd13ifvqcd0","pricing_plan_id":"cebpf4jnsgd1na2vs0mg"},{"bike_id":"f231632e-f1cf-4ab5-81fc-e7b3271d69f4","system_id":"levelo_inurba_marseille","lat":43.31495,"lon":5.37312,"is_reserved":false,"is_disabled":false,"rental_uris":{"android":"levelo://app?vid=f231632e-f1cf-4ab5-81fc-e7b3271d69f4","ios":"levelo://app?vid=f231632e-f1cf-4ab5-81fc-e7b3271d69f4"},"vehicle_type_id":"4","last_reported":1720127242,"current_range_meters":4400,"station_id":"ce4bgt12rcd13ifvqcd0","pricing_plan_id":"cebpf4jnsgd1na2vs0mg"},{"bike_id":"622fcbc1-d910-408d-906c-ec1ece15dcc6","system_id":"levelo_inurba_marseille","lat":43.309039,"lon":5.371797,"is_reserved":false,"is_disabled":false,"rental_uris":{"android":"levelo://app?vid=622fcbc1-d910-408d-906c-ec1ece15dcc6","ios":"levelo://app?vid=622fcbc1-d910-408d-906c-ec1ece15dcc6"},"vehicle_type_id":"4","last_reported":1720127242,"current_range_meters":11200,"station_id":"ce4bguh2rcd13ifvqckg","pricing_plan_id":"cebpf4jnsgd1na2vs0mg"},{"bike_id":"dce666a7-bf84-4860-a269-9a9154c0778a","system_id":"levelo_inurba_marseille","lat":43.309034,"lon":5.371783,"is_reserved":false,"is_disabled":false,"rental_uris":{"android":"levelo://app?vid=dce666a7-bf84-4860-a269-9a9154c0778a","ios":"levelo://app?vid=dce666a7-bf84-4860-a269-9a9154c0778a"},"vehicle_type_id":"4","last_reported":1720127242,"current_range_meters":26800,"station_id":"ce4bguh2rcd13ifvqckg","pricing_plan_id":"cebpf4jnsgd1na2vs0mg"},{"bike_id":"349848a3-e5b4-4578-a123-dc3a41ab2283","system_id":"levelo_inurba_marseille","lat":43.309039,"lon":5.371797,"is_reserved":false,"is_disabled":false,"rental_uris":{"android":"levelo://app?vid=349848a3-e5b4-4578-a123-dc3a41ab2283","ios":"levelo://app?vid=349848a3-e5b4-4578-a123-dc3a41ab2283"},"vehicle_type_id":"4","last_reported":1720127242,"current_range_meters":12800,"station_id":"ce4bguh2rcd13ifvqckg","pricing_plan_id":"cebpf4jnsgd1na2vs0mg"},{"bike_id":"bd23f2aa-8557-4a6a-b032-fd11cddd255e","system_id":"levelo_inurba_marseille","lat":43.31299,"lon":5.37559,"is_reserved":false,"is_disabled":false,"rental_uris":{"android":"levelo://app?vid=bd23f2aa-8557-4a6a-b032-fd11cddd255e","ios":"levelo://app?vid=bd23f2aa-8557-4a6a-b032-fd11cddd255e"},"vehicle_type_id":"4","last_reported":1720127242,"current_range_meters":0,"station_id":"","pricing_plan_id":"cebpf4jnsgd1na2vs0mg"},{"bike_id":"de7c53f7-0d2e-4b35-9879-7e23a2754ff2","system_id":"levelo_inurba_marseille","lat":43.30868,"lon":5.37426,"is_reserved":false,"is_disabled":false,"rental_uris":{"android":"levelo://app?vid=de7c53f7-0d2e-4b35-9879-7e23a2754ff2","ios":"levelo://app?vid=de7c53f7-0d2e-4b35-9879-7e23a2754ff2"},"vehicle_type_id":"4","last_reported":1720127242,"current_range_meters":5200,"station_id":"","pricing_plan_id":"cebpf4jnsgd1na2vs0mg"},{"bike_id":"680354a0-47dd-4515-9af6-2f5bab6d1594","system_id":"levelo_inurba_marseille","lat":43.30546,"lon":5.36656,"is_reserved":false,"is_disabled":false,"rental_uris":{"android":"levelo://app?vid=680354a0-47dd-4515-9af6-2f5bab6d1594","ios":"levelo://app?vid=680354a0-47dd-4515-9af6-2f5bab6d1594"},"vehicle_type_id":"4","last_reported":1720127242,"current_range_meters":1200,"station_id":"","pricing_plan_id":"cebpf4jnsgd1na2vs0mg"},{"bike_id":"3ba495b4-b24b-49e8-b1ec-5530c5eec43e","system_id":"levelo_inurba_marseille","lat":43.30623,"lon":5.37219,"is_reserved":false,"is_disabled":false,"rental_uris":{"android":"levelo://app?vid=3ba495b4-b24b-49e8-b1ec-5530c5eec43e","ios":"levelo://app?vid=3ba495b4-b24b-49e8-b1ec-5530c5eec43e"},"vehicle_type_id":"4","last_reported":1720127242,"current_range_meters":28400,"station_id":"ce4bgqh2rcd13ifvqc4g","pricing_plan_id":"cebpf4jnsgd1na2vs0mg"},{"bike_id":"6ba70053-278e-4599-bf36-12d5f7de0bf8","system_id":"levelo_inurba_marseille","lat":43.305989,"lon":5.37225,"is_reserved":false,"is_disabled":false,"rental_uris":{"android":"levelo://app?vid=6ba70053-278e-4599-bf36-12d5f7de0bf8","ios":"levelo://app?vid=6ba70053-278e-4599-bf36-12d5f7de0bf8"},"vehicle_type_id":"4","last_reported":1720127242,"current_range_meters":6000,"station_id":"ce4bgqh2rcd13ifvqc4g","pricing_plan_id":"cebpf4jnsgd1na2vs0mg"},{"bike_id":"4259a270-dd9e-4f35-ba82-95eec34ca31c","system_id":"levelo_inurba_marseille","lat":43.311131,"lon":5.377651,"is_reserved":false,"is_disabled":false,"rental_uris":{"android":"levelo://app?vid=4259a270-dd9e-4f35-ba82-95eec34ca31c","ios":"levelo://app?vid=4259a270-dd9e-4f35-ba82-95eec34ca31c"},"vehicle_type_id":"4","last_reported":1720127242,"current_range_meters":18400,"station_id":"ce4bgt92rcd13ifvqcg0","pricing_plan_id":"cebpf4jnsgd1na2vs0mg"},{"bike_id":"b1308dc1-d042-47ec-bf78-0c4c40685304","system_id":"levelo_inurba_marseille","lat":43.311125,"lon":5.377624,"is_reserved":false,"is_disabled":false,"rental_uris":{"android":"levelo://app?vid=b1308dc1-d042-47ec-bf78-0c4c40685304","ios":"levelo://app?vid=b1308dc1-d042-47ec-bf78-0c4c40685304"},"vehicle_type_id":"4","last_reported":1720127242,"current_range_meters":8000,"station_id":"ce4bgt92rcd13ifvqcg0","pricing_plan_id":"cebpf4jnsgd1na2vs0mg"},{"bike_id":"9192b201-fab0-46f2-9778-e6e3ba8adf6b","system_id":"levelo_inurba_marseille","lat":43.311131,"lon":5.377651,"is_reserved":false,"is_disabled":false,"rental_uris":{"android":"levelo://app?vid=9192b201-fab0-46f2-9778-e6e3ba8adf6b","ios":"levelo://app?vid=9192b201-fab0-46f2-9778-e6e3ba8adf6b"},"vehicle_type_id":"4","last_reported":1720127242,"current_range_meters":12000,"station_id":"ce4bgt92rcd13ifvqcg0","pricing_plan_id":"cebpf4jnsgd1na2vs0mg"},{"bike_id":"16dc6578-3000-4940-a9ac-435de7708244","system_id":"levelo_inurba_marseille","lat":43.311125,"lon":5.377624,"is_reserved":false,"is_disabled":false,"rental_uris":{"android":"levelo://app?vid=16dc6578-3000-4940-a9ac-435de7708244","ios":"levelo://app?vid=16dc6578-3000-4940-a9ac-435de7708244"},"vehicle_type_id":"4","last_reported":1720127242,"current_range_meters":20400,"station_id":"ce4bgt92rcd13ifvqcg0","pricing_plan_id":"cebpf4jnsgd1na2vs0mg"},{"bike_id":"466e16ad-b92e-4a77-ba5b-7939810bb9be","system_id":"levelo_inurba_marseille","lat":43.311125,"lon":5.377624,"is_reserved":false,"is_disabled":false,"rental_uris":{"android":"levelo://app?vid=466e16ad-b92e-4a77-ba5b-7939810bb9be","ios":"levelo://app?vid=466e16ad-b92e-4a77-ba5b-7939810bb9be"},"vehicle_type_id":"4","last_reported":1720127242,"current_range_meters":7200,"station_id":"ce4bgt92rcd13ifvqcg0","pricing_plan_id":"cebpf4jnsgd1na2vs0mg"},{"bike_id":"9fafcd53-341c-4f87-bb22-9e3a6678fcd9","system_id":"levelo_inurba_marseille","lat":43.307945,"lon":5.376487,"is_reserved":false,"is_disabled":false,"rental_uris":{"android":"levelo://app?vid=9fafcd53-341c-4f87-bb22-9e3a6678fcd9","ios":"levelo://app?vid=9fafcd53-341c-4f87-bb22-9e3a6678fcd9"},"vehicle_type_id":"4","last_reported":1720127242,"current_range_meters":11200,"station_id":"ce4bgv92rcd13ifvqcq0","pricing_plan_id":"cebpf4jnsgd1na2vs0mg"},{"bike_id":"e5fe0802-711e-4d4c-8db4-9d52a39f9cab","system_id":"levelo_inurba_marseille","lat":43.307945,"lon":5.376487,"is_reserved":false,"is_disabled":false,"rental_uris":{"android":"levelo://app?vid=e5fe0802-711e-4d4c-8db4-9d52a39f9cab","ios":"levelo://app?vid=e5fe0802-711e-4d4c-8db4-9d52a39f9cab"},"vehicle_type_id":"4","last_reported":1720127242,"current_range_meters":16000,"station_id":"ce4bgv92rcd13ifvqcq0","pricing_plan_id":"cebpf4jnsgd1na2vs0mg"},{"bike_id":"52f57846-9175-4216-9033-4e7eae14e0ff","system_id":"levelo_inurba_marseille","lat":43.307945,"lon":5.376487,"is_reserved":false,"is_disabled":false,"rental_uris":{"android":"levelo://app?vid=52f57846-9175-4216-9033-4e7eae14e0ff","ios":"levelo://app?vid=52f57846-9175-4216-9033-4e7eae14e0ff"},"vehicle_type_id":"4","last_reported":1720127242,"current_range_meters":0,"station_id":"ce4bgv92rcd13ifvqcq0","pricing_plan_id":"cebpf4jnsgd1na2vs0mg"},{"bike_id":"c2d76df6-dd19-4322-96bd-03cd4f085766","system_id":"levelo_inurba_marseille","lat":43.307945,"lon":5.376487,"is_reserved":false,"is_disabled":false,"rental_uris":{"android":"levelo://app?vid=c2d76df6-dd19-4322-96bd-03cd4f085766","ios":"levelo://app?vid=c2d76df6-dd19-4322-96bd-03cd4f085766"},"vehicle_type_id":"4","last_reported":1720127242,"current_range_meters":6000,"station_id":"ce4bgv92rcd13ifvqcq0","pricing_plan_id":"cebpf4jnsgd1na2vs0mg"},{"bike_id":"4be21696-f010-415a-8b9d-35058a21ec62","system_id":"levelo_inurba_marseille","lat":43.307945,"lon":5.376487,"is_reserved":false,"is_disabled":false,"rental_uris":{"android":"levelo://app?vid=4be21696-f010-415a-8b9d-35058a21ec62","ios":"levelo://app?vid=4be21696-f010-415a-8b9d-35058a21ec62"},"vehicle_type_id":"4","last_reported":1720127242,"current_range_meters":4000,"station_id":"ce4bgv92rcd13ifvqcq0","pricing_plan_id":"cebpf4jnsgd1na2vs0mg"},{"bike_id":"1578f446-04d7-44ff-bfcd-c037189bc8ac","system_id":"levelo_inurba_marseille","lat":43.307945,"lon":5.376487,"is_reserved":false,"is_disabled":false,"rental_uris":{"android":"levelo://app?vid=1578f446-04d7-44ff-bfcd-c037189bc8ac","ios":"levelo://app?vid=1578f446-04d7-44ff-bfcd-c037189bc8ac"},"vehicle_type_id":"4","last_reported":1720127242,"current_range_meters":22000,"station_id":"ce4bgv92rcd13ifvqcq0","pricing_plan_id":"cebpf4jnsgd1na2vs0mg"},{"bike_id":"0623586b-2c49-4c25-a944-51fe07c45b28","system_id":"levelo_inurba_marseille","lat":43.307945,"lon":5.376487,"is_reserved":false,"is_disabled":false,"rental_uris":{"android":"levelo://app?vid=0623586b-2c49-4c25-a944-51fe07c45b28","ios":"levelo://app?vid=0623586b-2c49-4c25-a944-51fe07c45b28"},"vehicle_type_id":"4","last_reported":1720127242,"current_range_meters":0,"station_id":"ce4bgv92rcd13ifvqcq0","pricing_plan_id":"cebpf4jnsgd1na2vs0mg"},{"bike_id":"2823049b-dd6d-4cea-b547-643481004ebd","system_id":"levelo_inurba_marseille","lat":43.307945,"lon":5.376487,"is_reserved":false,"is_disabled":false,"rental_uris":{"android":"levelo://app?vid=2823049b-dd6d-4cea-b547-643481004ebd","ios":"levelo://app?vid=2823049b-dd6d-4cea-b547-643481004ebd"},"vehicle_type_id":"4","last_reported":1720127242,"current_range_meters":27600,"station_id":"ce4bgv92rcd13ifvqcq0","pricing_plan_id":"cebpf4jnsgd1na2vs0mg"},{"bike_id":"90d2c4e5-444d-4399-a5fe-955c77e14280","system_id":"levelo_inurba_marseille","lat":43.317075,"lon":5.377367,"is_reserved":false,"is_disabled":false,"rental_uris":{"android":"levelo://app?vid=90d2c4e5-444d-4399-a5fe-955c77e14280","ios":"levelo://app?vid=90d2c4e5-444d-4399-a5fe-955c77e14280"},"vehicle_type_id":"4","last_reported":1720127242,"current_range_meters":25600,"station_id":"ce4bgth2rcd13ifvqch0","pricing_plan_id":"cebpf4jnsgd1na2vs0mg"},{"bike_id":"d5e9af21-30ef-411c-a4aa-7cf6cf27bcb4","system_id":"levelo_inurba_marseille","lat":43.315289,"lon":5.380349,"is_reserved":false,"is_disabled":false,"rental_uris":{"android":"levelo://app?vid=d5e9af21-30ef-411c-a4aa-7cf6cf27bcb4","ios":"levelo://app?vid=d5e9af21-30ef-411c-a4aa-7cf6cf27bcb4"},"vehicle_type_id":"4","last_reported":1720127242,"current_range_meters":3200,"station_id":"ce4bhsp2rcd13ifvqi50","pricing_plan_id":"cebpf4jnsgd1na2vs0mg"},{"bike_id":"14d6c16c-6fce-49f1-8966-e842bc4cdd74","system_id":"levelo_inurba_marseille","lat":43.302506,"lon":5.36631,"is_reserved":false,"is_disabled":false,"rental_uris":{"android":"levelo://app?vid=14d6c16c-6fce-49f1-8966-e842bc4cdd74","ios":"levelo://app?vid=14d6c16c-6fce-49f1-8966-e842bc4cdd74"},"vehicle_type_id":"4","last_reported":1720127242,"current_range_meters":4400,"station_id":"","pricing_plan_id":"cebpf4jnsgd1na2vs0mg"},{"bike_id":"54f75e31-0ed7-467c-8b00-6643196cee81","system_id":"levelo_inurba_marseille","lat":43.308012,"lon":5.381511,"is_reserved":false,"is_disabled":false,"rental_uris":{"android":"levelo://app?vid=54f75e31-0ed7-467c-8b00-6643196cee81","ios":"levelo://app?vid=54f75e31-0ed7-467c-8b00-6643196cee81"},"vehicle_type_id":"4","last_reported":1720127242,"current_range_meters":23200,"station_id":"ce4bgt12rcd13ifvqce0","pricing_plan_id":"cebpf4jnsgd1na2vs0mg"},{"bike_id":"a8bb380c-c146-4670-b047-1ca690f6b3f0","system_id":"levelo_inurba_marseille","lat":43.308012,"lon":5.381511,"is_reserved":false,"is_disabled":false,"rental_uris":{"android":"levelo://app?vid=a8bb380c-c146-4670-b047-1ca690f6b3f0","ios":"levelo://app?vid=a8bb380c-c146-4670-b047-1ca690f6b3f0"},"vehicle_type_id":"4","last_reported":1720127242,"current_range_meters":5600,"station_id":"ce4bgt12rcd13ifvqce0","pricing_plan_id":"cebpf4jnsgd1na2vs0mg"},{"bike_id":"2421ec5c-d3bc-465b-87fb-6932060afb59","system_id":"levelo_inurba_marseille","lat":43.308012,"lon":5.381511,"is_reserved":false,"is_disabled":false,"rental_uris":{"android":"levelo://app?vid=2421ec5c-d3bc-465b-87fb-6932060afb59","ios":"levelo://app?vid=2421ec5c-d3bc-465b-87fb-6932060afb59"},"vehicle_type_id":"4","last_reported":1720127242,"current_range_meters":27600,"station_id":"ce4bgt12rcd13ifvqce0","pricing_plan_id":"cebpf4jnsgd1na2vs0mg"},{"bike_id":"09e6b61e-296d-4cb4-b7d0-45c250f14f05","system_id":"levelo_inurba_marseille","lat":43.308012,"lon":5.381511,"is_reserved":false,"is_disabled":false,"rental_uris":{"android":"levelo://app?vid=09e6b61e-296d-4cb4-b7d0-45c250f14f05","ios":"levelo://app?vid=09e6b61e-296d-4cb4-b7d0-45c250f14f05"},"vehicle_type_id":"4","last_reported":1720127242,"current_range_meters":25600,"station_id":"ce4bgt12rcd13ifvqce0","pricing_plan_id":"cebpf4jnsgd1na2vs0mg"},{"bike_id":"c1e36a30-7147-45a8-b8a4-b61a6d10f0f6","system_id":"levelo_inurba_marseille","lat":43.308012,"lon":5.381511,"is_reserved":false,"is_disabled":false,"rental_uris":{"android":"levelo://app?vid=c1e36a30-7147-45a8-b8a4-b61a6d10f0f6","ios":"levelo://app?vid=c1e36a30-7147-45a8-b8a4-b61a6d10f0f6"},"vehicle_type_id":"4","last_reported":1720127242,"current_range_meters":10000,"station_id":"ce4bgt12rcd13ifvqce0","pricing_plan_id":"cebpf4jnsgd1na2vs0mg"},{"bike_id":"e0b4590c-3d5f-4f32-bd33-6177aa9c8ed7","system_id":"levelo_inurba_marseille","lat":43.308012,"lon":5.381511,"is_reserved":false,"is_disabled":false,"rental_uris":{"android":"levelo://app?vid=e0b4590c-3d5f-4f32-bd33-6177aa9c8ed7","ios":"levelo://app?vid=e0b4590c-3d5f-4f32-bd33-6177aa9c8ed7"},"vehicle_type_id":"4","last_reported":1720127242,"current_range_meters":24800,"station_id":"ce4bgt12rcd13ifvqce0","pricing_plan_id":"cebpf4jnsgd1na2vs0mg"},{"bike_id":"f939fd04-a4f1-482e-a289-9dd7cb1440f0","system_id":"levelo_inurba_marseille","lat":43.308012,"lon":5.381511,"is_reserved":false,"is_disabled":false,"rental_uris":{"android":"levelo://app?vid=f939fd04-a4f1-482e-a289-9dd7cb1440f0","ios":"levelo://app?vid=f939fd04-a4f1-482e-a289-9dd7cb1440f0"},"vehicle_type_id":"4","last_reported":1720127242,"current_range_meters":2800,"station_id":"ce4bgt12rcd13ifvqce0","pricing_plan_id":"cebpf4jnsgd1na2vs0mg"},{"bike_id":"7a7d2fb1-56e0-4de2-8036-3c5ebf2b4d51","system_id":"levelo_inurba_marseille","lat":43.304606,"lon":5.379026,"is_reserved":false,"is_disabled":false,"rental_uris":{"android":"levelo://app?vid=7a7d2fb1-56e0-4de2-8036-3c5ebf2b4d51","ios":"levelo://app?vid=7a7d2fb1-56e0-4de2-8036-3c5ebf2b4d51"},"vehicle_type_id":"4","last_reported":1720127242,"current_range_meters":23600,"station_id":"ce4bgup2rcd13ifvqcn0","pricing_plan_id":"cebpf4jnsgd1na2vs0mg"},{"bike_id":"1049eca9-1c7a-4a81-93b2-741522f49e69","system_id":"levelo_inurba_marseille","lat":43.304606,"lon":5.379026,"is_reserved":false,"is_disabled":false,"rental_uris":{"android":"levelo://app?vid=1049eca9-1c7a-4a81-93b2-741522f49e69","ios":"levelo://app?vid=1049eca9-1c7a-4a81-93b2-741522f49e69"},"vehicle_type_id":"4","last_reported":1720127242,"current_range_meters":22400,"station_id":"ce4bgup2rcd13ifvqcn0","pricing_plan_id":"cebpf4jnsgd1na2vs0mg"},{"bike_id":"8ff8e8aa-e92f-4356-a43f-75c7e7329b50","system_id":"levelo_inurba_marseille","lat":43.304606,"lon":5.379026,"is_reserved":false,"is_disabled":false,"rental_uris":{"android":"levelo://app?vid=8ff8e8aa-e92f-4356-a43f-75c7e7329b50","ios":"levelo://app?vid=8ff8e8aa-e92f-4356-a43f-75c7e7329b50"},"vehicle_type_id":"4","last_reported":1720127242,"current_range_meters":18800,"station_id":"ce4bgup2rcd13ifvqcn0","pricing_plan_id":"cebpf4jnsgd1na2vs0mg"},{"bike_id":"960f9efb-dd2e-4a49-83bf-0c8901765a4e","system_id":"levelo_inurba_marseille","lat":43.324771,"lon":5.36557,"is_reserved":false,"is_disabled":false,"rental_uris":{"android":"levelo://app?vid=960f9efb-dd2e-4a49-83bf-0c8901765a4e","ios":"levelo://app?vid=960f9efb-dd2e-4a49-83bf-0c8901765a4e"},"vehicle_type_id":"4","last_reported":1720127242,"current_range_meters":13600,"station_id":"ce4bhs12rcd13ifvqhvg","pricing_plan_id":"cebpf4jnsgd1na2vs0mg"},{"bike_id":"c7c0808e-adaf-414a-bf36-ae5d8846299e","system_id":"levelo_inurba_marseille","lat":43.324771,"lon":5.36557,"is_reserved":false,"is_disabled":false,"rental_uris":{"android":"levelo://app?vid=c7c0808e-adaf-414a-bf36-ae5d8846299e","ios":"levelo://app?vid=c7c0808e-adaf-414a-bf36-ae5d8846299e"},"vehicle_type_id":"4","last_reported":1720127242,"current_range_meters":15200,"station_id":"ce4bhs12rcd13ifvqhvg","pricing_plan_id":"cebpf4jnsgd1na2vs0mg"},{"bike_id":"3687744d-2b43-435a-87b1-45caac60987c","system_id":"levelo_inurba_marseille","lat":43.324771,"lon":5.36557,"is_reserved":false,"is_disabled":false,"rental_uris":{"android":"levelo://app?vid=3687744d-2b43-435a-87b1-45caac60987c","ios":"levelo://app?vid=3687744d-2b43-435a-87b1-45caac60987c"},"vehicle_type_id":"4","last_reported":1720127242,"current_range_meters":16800,"station_id":"ce4bhs12rcd13ifvqhvg","pricing_plan_id":"cebpf4jnsgd1na2vs0mg"},{"bike_id":"2045d18f-c594-4cfc-aa7b-ab585e8c18e1","system_id":"levelo_inurba_marseille","lat":43.32477,"lon":5.36563,"is_reserved":false,"is_disabled":false,"rental_uris":{"android":"levelo://app?vid=2045d18f-c594-4cfc-aa7b-ab585e8c18e1","ios":"levelo://app?vid=2045d18f-c594-4cfc-aa7b-ab585e8c18e1"},"vehicle_type_id":"4","last_reported":1720127242,"current_range_meters":0,"station_id":"ce4bhs12rcd13ifvqhvg","pricing_plan_id":"cebpf4jnsgd1na2vs0mg"},{"bike_id":"9dfa2d46-ccc3-4486-888b-2011bd133407","system_id":"levelo_inurba_marseille","lat":43.324771,"lon":5.36557,"is_reserved":false,"is_disabled":false,"rental_uris":{"android":"levelo://app?vid=9dfa2d46-ccc3-4486-888b-2011bd133407","ios":"levelo://app?vid=9dfa2d46-ccc3-4486-888b-2011bd133407"},"vehicle_type_id":"4","last_reported":1720127242,"current_range_meters":11600,"station_id":"ce4bhs12rcd13ifvqhvg","pricing_plan_id":"cebpf4jnsgd1na2vs0mg"},{"bike_id":"acee9472-80e8-4f53-9a86-bbb98658c98f","system_id":"levelo_inurba_marseille","lat":43.32477,"lon":5.36559,"is_reserved":false,"is_disabled":false,"rental_uris":{"android":"levelo://app?vid=acee9472-80e8-4f53-9a86-bbb98658c98f","ios":"levelo://app?vid=acee9472-80e8-4f53-9a86-bbb98658c98f"},"vehicle_type_id":"4","last_reported":1720127242,"current_range_meters":8000,"station_id":"ce4bhs12rcd13ifvqhvg","pricing_plan_id":"cebpf4jnsgd1na2vs0mg"},{"bike_id":"42d846ad-1573-45a3-879f-90e7e4ecf032","system_id":"levelo_inurba_marseille","lat":43.32478,"lon":5.36564,"is_reserved":false,"is_disabled":false,"rental_uris":{"android":"levelo://app?vid=42d846ad-1573-45a3-879f-90e7e4ecf032","ios":"levelo://app?vid=42d846ad-1573-45a3-879f-90e7e4ecf032"},"vehicle_type_id":"4","last_reported":1720127242,"current_range_meters":5600,"station_id":"ce4bhs12rcd13ifvqhvg","pricing_plan_id":"cebpf4jnsgd1na2vs0mg"},{"bike_id":"8bc245b3-8c0e-4508-bd9d-05557133df8e","system_id":"levelo_inurba_marseille","lat":43.32483,"lon":5.36559,"is_reserved":false,"is_disabled":false,"rental_uris":{"android":"levelo://app?vid=8bc245b3-8c0e-4508-bd9d-05557133df8e","ios":"levelo://app?vid=8bc245b3-8c0e-4508-bd9d-05557133df8e"},"vehicle_type_id":"4","last_reported":1720127242,"current_range_meters":10400,"station_id":"ce4bhs12rcd13ifvqhvg","pricing_plan_id":"cebpf4jnsgd1na2vs0mg"},{"bike_id":"0d0a1a59-79c7-4749-a6ad-b98968b9d284","system_id":"levelo_inurba_marseille","lat":43.310804,"lon":5.38359,"is_reserved":false,"is_disabled":false,"rental_uris":{"android":"levelo://app?vid=0d0a1a59-79c7-4749-a6ad-b98968b9d284","ios":"levelo://app?vid=0d0a1a59-79c7-4749-a6ad-b98968b9d284"},"vehicle_type_id":"4","last_reported":1720127242,"current_range_meters":0,"station_id":"ce4bgv92rcd13ifvqcr0","pricing_plan_id":"cebpf4jnsgd1na2vs0mg"},{"bike_id":"ccc6f829-cc4e-44c4-a98e-ab17ff0cc728","system_id":"levelo_inurba_marseille","lat":43.310804,"lon":5.38359,"is_reserved":false,"is_disabled":false,"rental_uris":{"android":"levelo://app?vid=ccc6f829-cc4e-44c4-a98e-ab17ff0cc728","ios":"levelo://app?vid=ccc6f829-cc4e-44c4-a98e-ab17ff0cc728"},"vehicle_type_id":"4","last_reported":1720127242,"current_range_meters":0,"station_id":"ce4bgv92rcd13ifvqcr0","pricing_plan_id":"cebpf4jnsgd1na2vs0mg"},{"bike_id":"224df967-40dd-4290-aebd-2b384ff587c2","system_id":"levelo_inurba_marseille","lat":43.301429,"lon":5.37413,"is_reserved":false,"is_disabled":false,"rental_uris":{"android":"levelo://app?vid=224df967-40dd-4290-aebd-2b384ff587c2","ios":"levelo://app?vid=224df967-40dd-4290-aebd-2b384ff587c2"},"vehicle_type_id":"4","last_reported":1720127242,"current_range_meters":6400,"station_id":"ce4bgs92rcd13ifvqcc0","pricing_plan_id":"cebpf4jnsgd1na2vs0mg"},{"bike_id":"423ce2af-750d-453e-9fa4-1d0fd4a028b1","system_id":"levelo_inurba_marseille","lat":43.319935,"lon":5.381699,"is_reserved":false,"is_disabled":false,"rental_uris":{"android":"levelo://app?vid=423ce2af-750d-453e-9fa4-1d0fd4a028b1","ios":"levelo://app?vid=423ce2af-750d-453e-9fa4-1d0fd4a028b1"},"vehicle_type_id":"4","last_reported":1720127242,"current_range_meters":2400,"station_id":"ce4bhr12rcd13ifvqhpg","pricing_plan_id":"cebpf4jnsgd1na2vs0mg"},{"bike_id":"8eabb7f2-88ef-446d-bea8-a19ea90f19b1","system_id":"levelo_inurba_marseille","lat":43.31992,"lon":5.38147,"is_reserved":false,"is_disabled":false,"rental_uris":{"android":"levelo://app?vid=8eabb7f2-88ef-446d-bea8-a19ea90f19b1","ios":"levelo://app?vid=8eabb7f2-88ef-446d-bea8-a19ea90f19b1"},"vehicle_type_id":"4","last_reported":1720127242,"current_range_meters":0,"station_id":"ce4bhr12rcd13ifvqhpg","pricing_plan_id":"cebpf4jnsgd1na2vs0mg"},{"bike_id":"73bf41b4-5f18-4513-b2af-d0e107a79c4f","system_id":"levelo_inurba_marseille","lat":43.286961,"lon":5.373785,"is_reserved":false,"is_disabled":false,"rental_uris":{"android":"levelo://app?vid=73bf41b4-5f18-4513-b2af-d0e107a79c4f","ios":"levelo://app?vid=73bf41b4-5f18-4513-b2af-d0e107a79c4f"},"vehicle_type_id":"4","last_reported":1720127242,"current_range_meters":9600,"station_id":"ce4bh3p2rcd13ifvqdq0","pricing_plan_id":"cebpf4jnsgd1na2vs0mg"},{"bike_id":"864a4b4c-49ff-4957-99fd-43b40b0e2108","system_id":"levelo_inurba_marseille","lat":43.319935,"lon":5.381699,"is_reserved":false,"is_disabled":false,"rental_uris":{"android":"levelo://app?vid=864a4b4c-49ff-4957-99fd-43b40b0e2108","ios":"levelo://app?vid=864a4b4c-49ff-4957-99fd-43b40b0e2108"},"vehicle_type_id":"4","last_reported":1720127242,"current_range_meters":11200,"station_id":"ce4bhr12rcd13ifvqhpg","pricing_plan_id":"cebpf4jnsgd1na2vs0mg"},{"bike_id":"fa20b318-6101-4a86-b987-a5affca2a21f","system_id":"levelo_inurba_marseille","lat":43.319935,"lon":5.381699,"is_reserved":false,"is_disabled":false,"rental_uris":{"android":"levelo://app?vid=fa20b318-6101-4a86-b987-a5affca2a21f","ios":"levelo://app?vid=fa20b318-6101-4a86-b987-a5affca2a21f"},"vehicle_type_id":"4","last_reported":1720127242,"current_range_meters":0,"station_id":"ce4bhr12rcd13ifvqhpg","pricing_plan_id":"cebpf4jnsgd1na2vs0mg"},{"bike_id":"9cb34327-30ce-4621-ac95-3679c24886f7","system_id":"levelo_inurba_marseille","lat":43.319935,"lon":5.381699,"is_reserved":false,"is_disabled":false,"rental_uris":{"android":"levelo://app?vid=9cb34327-30ce-4621-ac95-3679c24886f7","ios":"levelo://app?vid=9cb34327-30ce-4621-ac95-3679c24886f7"},"vehicle_type_id":"4","last_reported":1720127242,"current_range_meters":1200,"station_id":"ce4bhr12rcd13ifvqhpg","pricing_plan_id":"cebpf4jnsgd1na2vs0mg"},{"bike_id":"9cd804ec-d915-42ad-9857-4da631cf0df7","system_id":"levelo_inurba_marseille","lat":43.319935,"lon":5.381699,"is_reserved":false,"is_disabled":false,"rental_uris":{"android":"levelo://app?vid=9cd804ec-d915-42ad-9857-4da631cf0df7","ios":"levelo://app?vid=9cd804ec-d915-42ad-9857-4da631cf0df7"},"vehicle_type_id":"4","last_reported":1720127242,"current_range_meters":6000,"station_id":"ce4bhr12rcd13ifvqhpg","pricing_plan_id":"cebpf4jnsgd1na2vs0mg"},{"bike_id":"ac5c3c72-54f4-4642-b2c6-74dac13b39ee","system_id":"levelo_inurba_marseille","lat":43.313571,"lon":5.384829,"is_reserved":false,"is_disabled":false,"rental_uris":{"android":"levelo://app?vid=ac5c3c72-54f4-4642-b2c6-74dac13b39ee","ios":"levelo://app?vid=ac5c3c72-54f4-4642-b2c6-74dac13b39ee"},"vehicle_type_id":"4","last_reported":1720127242,"current_range_meters":12400,"station_id":"ce4bgt92rcd13ifvqcf0","pricing_plan_id":"cebpf4jnsgd1na2vs0mg"},{"bike_id":"85e280d9-8f9b-42c4-b55a-6e640fca8d5b","system_id":"levelo_inurba_marseille","lat":43.31361,"lon":5.38486,"is_reserved":false,"is_disabled":false,"rental_uris":{"android":"levelo://app?vid=85e280d9-8f9b-42c4-b55a-6e640fca8d5b","ios":"levelo://app?vid=85e280d9-8f9b-42c4-b55a-6e640fca8d5b"},"vehicle_type_id":"4","last_reported":1720127242,"current_range_meters":2400,"station_id":"ce4bgt92rcd13ifvqcf0","pricing_plan_id":"cebpf4jnsgd1na2vs0mg"},{"bike_id":"d1164d70-2736-4934-a5b4-98dab7a1b60c","system_id":"levelo_inurba_marseille","lat":43.31365,"lon":5.38488,"is_reserved":false,"is_disabled":false,"rental_uris":{"android":"levelo://app?vid=d1164d70-2736-4934-a5b4-98dab7a1b60c","ios":"levelo://app?vid=d1164d70-2736-4934-a5b4-98dab7a1b60c"},"vehicle_type_id":"4","last_reported":1720127242,"current_range_meters":6400,"station_id":"ce4bgt92rcd13ifvqcf0","pricing_plan_id":"cebpf4jnsgd1na2vs0mg"},{"bike_id":"7cb0eda7-fbbd-4726-850b-c835de0cd184","system_id":"levelo_inurba_marseille","lat":43.313571,"lon":5.384829,"is_reserved":false,"is_disabled":false,"rental_uris":{"android":"levelo://app?vid=7cb0eda7-fbbd-4726-850b-c835de0cd184","ios":"levelo://app?vid=7cb0eda7-fbbd-4726-850b-c835de0cd184"},"vehicle_type_id":"4","last_reported":1720127242,"current_range_meters":10400,"station_id":"ce4bgt92rcd13ifvqcf0","pricing_plan_id":"cebpf4jnsgd1na2vs0mg"},{"bike_id":"a6e47b5c-0512-4fc6-a360-0c4f8ffe2a1c","system_id":"levelo_inurba_marseille","lat":43.299724,"lon":5.371829,"is_reserved":false,"is_disabled":false,"rental_uris":{"android":"levelo://app?vid=a6e47b5c-0512-4fc6-a360-0c4f8ffe2a1c","ios":"levelo://app?vid=a6e47b5c-0512-4fc6-a360-0c4f8ffe2a1c"},"vehicle_type_id":"4","last_reported":1720127242,"current_range_meters":0,"station_id":"ce4bgr92rcd13ifvqc7g","pricing_plan_id":"cebpf4jnsgd1na2vs0mg"},{"bike_id":"b87986ce-f506-4f81-89ef-948556ff0556","system_id":"levelo_inurba_marseille","lat":43.299222,"lon":5.365554,"is_reserved":false,"is_disabled":false,"rental_uris":{"android":"levelo://app?vid=b87986ce-f506-4f81-89ef-948556ff0556","ios":"levelo://app?vid=b87986ce-f506-4f81-89ef-948556ff0556"},"vehicle_type_id":"4","last_reported":1720127242,"current_range_meters":5600,"station_id":"ce4bgm92rcd13ifvqbr0","pricing_plan_id":"cebpf4jnsgd1na2vs0mg"},{"bike_id":"82488380-45c5-47db-a930-bb6bf54b99f6","system_id":"levelo_inurba_marseille","lat":43.299222,"lon":5.365554,"is_reserved":false,"is_disabled":false,"rental_uris":{"android":"levelo://app?vid=82488380-45c5-47db-a930-bb6bf54b99f6","ios":"levelo://app?vid=82488380-45c5-47db-a930-bb6bf54b99f6"},"vehicle_type_id":"4","last_reported":1720127242,"current_range_meters":12400,"station_id":"ce4bgm92rcd13ifvqbr0","pricing_plan_id":"cebpf4jnsgd1na2vs0mg"},{"bike_id":"cb222b59-3aa5-4be1-af2f-06161d22bba3","system_id":"levelo_inurba_marseille","lat":43.30392,"lon":5.38099,"is_reserved":false,"is_disabled":false,"rental_uris":{"android":"levelo://app?vid=cb222b59-3aa5-4be1-af2f-06161d22bba3","ios":"levelo://app?vid=cb222b59-3aa5-4be1-af2f-06161d22bba3"},"vehicle_type_id":"4","last_reported":1720127242,"current_range_meters":1600,"station_id":"","pricing_plan_id":"cebpf4jnsgd1na2vs0mg"},{"bike_id":"85fa2ec4-1b2c-4f79-b032-145e66100714","system_id":"levelo_inurba_marseille","lat":43.299724,"lon":5.371829,"is_reserved":false,"is_disabled":false,"rental_uris":{"android":"levelo://app?vid=85fa2ec4-1b2c-4f79-b032-145e66100714","ios":"levelo://app?vid=85fa2ec4-1b2c-4f79-b032-145e66100714"},"vehicle_type_id":"4","last_reported":1720127242,"current_range_meters":28000,"station_id":"ce4bgr92rcd13ifvqc7g","pricing_plan_id":"cebpf4jnsgd1na2vs0mg"},{"bike_id":"e2b78445-a5f8-4bd7-83db-ed6bb4ed7e68","system_id":"levelo_inurba_marseille","lat":43.301429,"lon":5.37413,"is_reserved":false,"is_disabled":false,"rental_uris":{"android":"levelo://app?vid=e2b78445-a5f8-4bd7-83db-ed6bb4ed7e68","ios":"levelo://app?vid=e2b78445-a5f8-4bd7-83db-ed6bb4ed7e68"},"vehicle_type_id":"4","last_reported":1720127242,"current_range_meters":2800,"station_id":"ce4bgs92rcd13ifvqcc0","pricing_plan_id":"cebpf4jnsgd1na2vs0mg"},{"bike_id":"58246673-9ca0-42db-8ff8-749080fb1a37","system_id":"levelo_inurba_marseille","lat":43.305364,"lon":5.384119,"is_reserved":false,"is_disabled":false,"rental_uris":{"android":"levelo://app?vid=58246673-9ca0-42db-8ff8-749080fb1a37","ios":"levelo://app?vid=58246673-9ca0-42db-8ff8-749080fb1a37"},"vehicle_type_id":"4","last_reported":1720127242,"current_range_meters":18400,"station_id":"ce4bgg92rcd13ifvqb30","pricing_plan_id":"cebpf4jnsgd1na2vs0mg"},{"bike_id":"cf8c59f4-a17e-447f-91a6-48290e263645","system_id":"levelo_inurba_marseille","lat":43.298433,"lon":5.362774,"is_reserved":false,"is_disabled":false,"rental_uris":{"android":"levelo://app?vid=cf8c59f4-a17e-447f-91a6-48290e263645","ios":"levelo://app?vid=cf8c59f4-a17e-447f-91a6-48290e263645"},"vehicle_type_id":"4","last_reported":1720127242,"current_range_meters":4800,"station_id":"ce4bgpp2rcd13ifvqc3g","pricing_plan_id":"cebpf4jnsgd1na2vs0mg"},{"bike_id":"e87de406-b70a-4c79-9f43-c8ec097d4b49","system_id":"levelo_inurba_marseille","lat":43.29845,"lon":5.36284,"is_reserved":false,"is_disabled":false,"rental_uris":{"android":"levelo://app?vid=e87de406-b70a-4c79-9f43-c8ec097d4b49","ios":"levelo://app?vid=e87de406-b70a-4c79-9f43-c8ec097d4b49"},"vehicle_type_id":"4","last_reported":1720127242,"current_range_meters":0,"station_id":"ce4bgpp2rcd13ifvqc3g","pricing_plan_id":"cebpf4jnsgd1na2vs0mg"},{"bike_id":"0dd54a4a-6855-41da-b136-a0d1e65208cd","system_id":"levelo_inurba_marseille","lat":43.299243,"lon":5.37481,"is_reserved":false,"is_disabled":false,"rental_uris":{"android":"levelo://app?vid=0dd54a4a-6855-41da-b136-a0d1e65208cd","ios":"levelo://app?vid=0dd54a4a-6855-41da-b136-a0d1e65208cd"},"vehicle_type_id":"4","last_reported":1720127242,"current_range_meters":12800,"station_id":"ce4bgjh2rcd13ifvqbg0","pricing_plan_id":"cebpf4jnsgd1na2vs0mg"},{"bike_id":"efa01555-b60d-4fb5-bae9-79905eb7277b","system_id":"levelo_inurba_marseille","lat":43.31176,"lon":5.38719,"is_reserved":false,"is_disabled":false,"rental_uris":{"android":"levelo://app?vid=efa01555-b60d-4fb5-bae9-79905eb7277b","ios":"levelo://app?vid=efa01555-b60d-4fb5-bae9-79905eb7277b"},"vehicle_type_id":"4","last_reported":1720127242,"current_range_meters":0,"station_id":"ce4bgv12rcd13ifvqcp0","pricing_plan_id":"cebpf4jnsgd1na2vs0mg"},{"bike_id":"2faaa9df-34aa-40a4-9df5-981b7f0595e9","system_id":"levelo_inurba_marseille","lat":43.29788,"lon":5.36285,"is_reserved":false,"is_disabled":false,"rental_uris":{"android":"levelo://app?vid=2faaa9df-34aa-40a4-9df5-981b7f0595e9","ios":"levelo://app?vid=2faaa9df-34aa-40a4-9df5-981b7f0595e9"},"vehicle_type_id":"4","last_reported":1720127242,"current_range_meters":8000,"station_id":"","pricing_plan_id":"cebpf4jnsgd1na2vs0mg"},{"bike_id":"f9d609af-9759-4874-898c-df13b3e7915b","system_id":"levelo_inurba_marseille","lat":43.322872,"lon":5.382756,"is_reserved":false,"is_disabled":false,"rental_uris":{"android":"levelo://app?vid=f9d609af-9759-4874-898c-df13b3e7915b","ios":"levelo://app?vid=f9d609af-9759-4874-898c-df13b3e7915b"},"vehicle_type_id":"4","last_reported":1720127242,"current_range_meters":16000,"station_id":"ce4bhr12rcd13ifvqhqg","pricing_plan_id":"cebpf4jnsgd1na2vs0mg"},{"bike_id":"4d2485fa-0d0c-4a36-a848-94524362c082","system_id":"levelo_inurba_marseille","lat":43.322872,"lon":5.382756,"is_reserved":false,"is_disabled":false,"rental_uris":{"android":"levelo://app?vid=4d2485fa-0d0c-4a36-a848-94524362c082","ios":"levelo://app?vid=4d2485fa-0d0c-4a36-a848-94524362c082"},"vehicle_type_id":"4","last_reported":1720127242,"current_range_meters":24000,"station_id":"ce4bhr12rcd13ifvqhqg","pricing_plan_id":"cebpf4jnsgd1na2vs0mg"},{"bike_id":"27a6bef8-9fa2-4c7c-a852-ef52da7f4c34","system_id":"levelo_inurba_marseille","lat":43.32292,"lon":5.38264,"is_reserved":false,"is_disabled":false,"rental_uris":{"android":"levelo://app?vid=27a6bef8-9fa2-4c7c-a852-ef52da7f4c34","ios":"levelo://app?vid=27a6bef8-9fa2-4c7c-a852-ef52da7f4c34"},"vehicle_type_id":"4","last_reported":1720127242,"current_range_meters":27200,"station_id":"ce4bhr12rcd13ifvqhqg","pricing_plan_id":"cebpf4jnsgd1na2vs0mg"},{"bike_id":"168e714e-e823-42af-9c55-6af5e7d76ac7","system_id":"levelo_inurba_marseille","lat":43.322872,"lon":5.382756,"is_reserved":false,"is_disabled":false,"rental_uris":{"android":"levelo://app?vid=168e714e-e823-42af-9c55-6af5e7d76ac7","ios":"levelo://app?vid=168e714e-e823-42af-9c55-6af5e7d76ac7"},"vehicle_type_id":"4","last_reported":1720127242,"current_range_meters":10400,"station_id":"ce4bhr12rcd13ifvqhqg","pricing_plan_id":"cebpf4jnsgd1na2vs0mg"},{"bike_id":"3c58d311-06e4-417b-b231-aece1a657628","system_id":"levelo_inurba_marseille","lat":43.322872,"lon":5.382756,"is_reserved":false,"is_disabled":false,"rental_uris":{"android":"levelo://app?vid=3c58d311-06e4-417b-b231-aece1a657628","ios":"levelo://app?vid=3c58d311-06e4-417b-b231-aece1a657628"},"vehicle_type_id":"4","last_reported":1720127242,"current_range_meters":20400,"station_id":"ce4bhr12rcd13ifvqhqg","pricing_plan_id":"cebpf4jnsgd1na2vs0mg"},{"bike_id":"b4e15e42-555d-4dfc-912e-9f76404a3017","system_id":"levelo_inurba_marseille","lat":43.322872,"lon":5.382756,"is_reserved":false,"is_disabled":false,"rental_uris":{"android":"levelo://app?vid=b4e15e42-555d-4dfc-912e-9f76404a3017","ios":"levelo://app?vid=b4e15e42-555d-4dfc-912e-9f76404a3017"},"vehicle_type_id":"4","last_reported":1720127242,"current_range_meters":2800,"station_id":"ce4bhr12rcd13ifvqhqg","pricing_plan_id":"cebpf4jnsgd1na2vs0mg"},{"bike_id":"11c063c4-4812-4091-b45f-253550621c6a","system_id":"levelo_inurba_marseille","lat":43.322872,"lon":5.382756,"is_reserved":false,"is_disabled":false,"rental_uris":{"android":"levelo://app?vid=11c063c4-4812-4091-b45f-253550621c6a","ios":"levelo://app?vid=11c063c4-4812-4091-b45f-253550621c6a"},"vehicle_type_id":"4","last_reported":1720127242,"current_range_meters":28400,"station_id":"ce4bhr12rcd13ifvqhqg","pricing_plan_id":"cebpf4jnsgd1na2vs0mg"},{"bike_id":"a3692e99-3ef4-41ff-a94c-e40fc272a060","system_id":"levelo_inurba_marseille","lat":43.296682,"lon":5.371693,"is_reserved":false,"is_disabled":false,"rental_uris":{"android":"levelo://app?vid=a3692e99-3ef4-41ff-a94c-e40fc272a060","ios":"levelo://app?vid=a3692e99-3ef4-41ff-a94c-e40fc272a060"},"vehicle_type_id":"4","last_reported":1720127242,"current_range_meters":16400,"station_id":"","pricing_plan_id":"cebpf4jnsgd1na2vs0mg"},{"bike_id":"0c845e77-91f9-4f53-b4c0-9cd585c05b3e","system_id":"levelo_inurba_marseille","lat":43.29663,"lon":5.36162,"is_reserved":false,"is_disabled":false,"rental_uris":{"android":"levelo://app?vid=0c845e77-91f9-4f53-b4c0-9cd585c05b3e","ios":"levelo://app?vid=0c845e77-91f9-4f53-b4c0-9cd585c05b3e"},"vehicle_type_id":"4","last_reported":1720127242,"current_range_meters":0,"station_id":"","pricing_plan_id":"cebpf4jnsgd1na2vs0mg"},{"bike_id":"b264de75-702e-43b0-821e-9b393bce1f32","system_id":"levelo_inurba_marseille","lat":43.2968,"lon":5.37291,"is_reserved":false,"is_disabled":false,"rental_uris":{"android":"levelo://app?vid=b264de75-702e-43b0-821e-9b393bce1f32","ios":"levelo://app?vid=b264de75-702e-43b0-821e-9b393bce1f32"},"vehicle_type_id":"4","last_reported":1720127242,"current_range_meters":400,"station_id":"ce4bgk12rcd13ifvqbj0","pricing_plan_id":"cebpf4jnsgd1na2vs0mg"},{"bike_id":"eb50f84a-36ee-4efa-bcbc-f2be1798d88d","system_id":"levelo_inurba_marseille","lat":43.29573,"lon":5.367355,"is_reserved":false,"is_disabled":false,"rental_uris":{"android":"levelo://app?vid=eb50f84a-36ee-4efa-bcbc-f2be1798d88d","ios":"levelo://app?vid=eb50f84a-36ee-4efa-bcbc-f2be1798d88d"},"vehicle_type_id":"4","last_reported":1720127242,"current_range_meters":22400,"station_id":"ce4bgph2rcd13ifvqc2g","pricing_plan_id":"cebpf4jnsgd1na2vs0mg"},{"bike_id":"67cfd7df-c52c-4f55-9f37-58b0e24b0f9d","system_id":"levelo_inurba_marseille","lat":43.296131,"lon":5.370791,"is_reserved":false,"is_disabled":false,"rental_uris":{"android":"levelo://app?vid=67cfd7df-c52c-4f55-9f37-58b0e24b0f9d","ios":"levelo://app?vid=67cfd7df-c52c-4f55-9f37-58b0e24b0f9d"},"vehicle_type_id":"4","last_reported":1720127242,"current_range_meters":28400,"station_id":"ce4bgnh2rcd13ifvqc0g","pricing_plan_id":"cebpf4jnsgd1na2vs0mg"},{"bike_id":"cb4071a1-9730-4352-9c8c-de710e873ecc","system_id":"levelo_inurba_marseille","lat":43.296131,"lon":5.370773,"is_reserved":false,"is_disabled":false,"rental_uris":{"android":"levelo://app?vid=cb4071a1-9730-4352-9c8c-de710e873ecc","ios":"levelo://app?vid=cb4071a1-9730-4352-9c8c-de710e873ecc"},"vehicle_type_id":"4","last_reported":1720127242,"current_range_meters":18000,"station_id":"ce4bgnh2rcd13ifvqc0g","pricing_plan_id":"cebpf4jnsgd1na2vs0mg"},{"bike_id":"70db1098-b1ad-487a-be0b-02d8c41da1e3","system_id":"levelo_inurba_marseille","lat":43.29573,"lon":5.367355,"is_reserved":false,"is_disabled":false,"rental_uris":{"android":"levelo://app?vid=70db1098-b1ad-487a-be0b-02d8c41da1e3","ios":"levelo://app?vid=70db1098-b1ad-487a-be0b-02d8c41da1e3"},"vehicle_type_id":"4","last_reported":1720127242,"current_range_meters":0,"station_id":"ce4bgph2rcd13ifvqc2g","pricing_plan_id":"cebpf4jnsgd1na2vs0mg"},{"bike_id":"865c7c1f-e107-4fee-b058-f628f4453a0e","system_id":"levelo_inurba_marseille","lat":43.29751,"lon":5.37719,"is_reserved":false,"is_disabled":false,"rental_uris":{"android":"levelo://app?vid=865c7c1f-e107-4fee-b058-f628f4453a0e","ios":"levelo://app?vid=865c7c1f-e107-4fee-b058-f628f4453a0e"},"vehicle_type_id":"4","last_reported":1720127242,"current_range_meters":30000,"station_id":"","pricing_plan_id":"cebpf4jnsgd1na2vs0mg"},{"bike_id":"c607b8a1-218a-40d3-bede-d9fcb2fa93b5","system_id":"levelo_inurba_marseille","lat":43.299028,"lon":5.381509,"is_reserved":false,"is_disabled":false,"rental_uris":{"android":"levelo://app?vid=c607b8a1-218a-40d3-bede-d9fcb2fa93b5","ios":"levelo://app?vid=c607b8a1-218a-40d3-bede-d9fcb2fa93b5"},"vehicle_type_id":"4","last_reported":1720127242,"current_range_meters":1200,"station_id":"ce4bgj12rcd13ifvqbc0","pricing_plan_id":"cebpf4jnsgd1na2vs0mg"},{"bike_id":"d5957130-3995-4884-8250-bef892108a36","system_id":"levelo_inurba_marseille","lat":43.296935,"lon":5.376544,"is_reserved":false,"is_disabled":false,"rental_uris":{"android":"levelo://app?vid=d5957130-3995-4884-8250-bef892108a36","ios":"levelo://app?vid=d5957130-3995-4884-8250-bef892108a36"},"vehicle_type_id":"4","last_reported":1720127242,"current_range_meters":20400,"station_id":"ce4bgkh2rcd13ifvqbl0","pricing_plan_id":"cebpf4jnsgd1na2vs0mg"},{"bike_id":"be58368d-3785-4f20-b50b-f3e95c52c191","system_id":"levelo_inurba_marseille","lat":43.309589,"lon":5.390258,"is_reserved":false,"is_disabled":false,"rental_uris":{"android":"levelo://app?vid=be58368d-3785-4f20-b50b-f3e95c52c191","ios":"levelo://app?vid=be58368d-3785-4f20-b50b-f3e95c52c191"},"vehicle_type_id":"4","last_reported":1720127242,"current_range_meters":7200,"station_id":"ce4bgup2rcd13ifvqco0","pricing_plan_id":"cebpf4jnsgd1na2vs0mg"},{"bike_id":"a8d0678e-d04d-4d00-909b-59b97a04a5b1","system_id":"levelo_inurba_marseille","lat":43.30954,"lon":5.39029,"is_reserved":false,"is_disabled":false,"rental_uris":{"android":"levelo://app?vid=a8d0678e-d04d-4d00-909b-59b97a04a5b1","ios":"levelo://app?vid=a8d0678e-d04d-4d00-909b-59b97a04a5b1"},"vehicle_type_id":"4","last_reported":1720127242,"current_range_meters":0,"station_id":"ce4bgup2rcd13ifvqco0","pricing_plan_id":"cebpf4jnsgd1na2vs0mg"},{"bike_id":"8042fe58-9079-4805-99f3-e7affd7de127","system_id":"levelo_inurba_marseille","lat":43.296935,"lon":5.376544,"is_reserved":false,"is_disabled":false,"rental_uris":{"android":"levelo://app?vid=8042fe58-9079-4805-99f3-e7affd7de127","ios":"levelo://app?vid=8042fe58-9079-4805-99f3-e7affd7de127"},"vehicle_type_id":"4","last_reported":1720127242,"current_range_meters":26000,"station_id":"ce4bgkh2rcd13ifvqbl0","pricing_plan_id":"cebpf4jnsgd1na2vs0mg"},{"bike_id":"b34f4bc3-1c9d-4632-a4a4-65280d65b5cd","system_id":"levelo_inurba_marseille","lat":43.296921,"lon":5.376579,"is_reserved":false,"is_disabled":false,"rental_uris":{"android":"levelo://app?vid=b34f4bc3-1c9d-4632-a4a4-65280d65b5cd","ios":"levelo://app?vid=b34f4bc3-1c9d-4632-a4a4-65280d65b5cd"},"vehicle_type_id":"4","last_reported":1720127242,"current_range_meters":20400,"station_id":"ce4bgkh2rcd13ifvqbl0","pricing_plan_id":"cebpf4jnsgd1na2vs0mg"},{"bike_id":"fa134aec-e694-4d3e-9350-dffaf323ad64","system_id":"levelo_inurba_marseille","lat":43.309589,"lon":5.390258,"is_reserved":false,"is_disabled":false,"rental_uris":{"android":"levelo://app?vid=fa134aec-e694-4d3e-9350-dffaf323ad64","ios":"levelo://app?vid=fa134aec-e694-4d3e-9350-dffaf323ad64"},"vehicle_type_id":"4","last_reported":1720127242,"current_range_meters":0,"station_id":"ce4bgup2rcd13ifvqco0","pricing_plan_id":"cebpf4jnsgd1na2vs0mg"},{"bike_id":"1b7b071f-5dc3-4680-88fd-e6ec14e4b679","system_id":"levelo_inurba_marseille","lat":43.30954,"lon":5.39034,"is_reserved":false,"is_disabled":false,"rental_uris":{"android":"levelo://app?vid=1b7b071f-5dc3-4680-88fd-e6ec14e4b679","ios":"levelo://app?vid=1b7b071f-5dc3-4680-88fd-e6ec14e4b679"},"vehicle_type_id":"4","last_reported":1720127242,"current_range_meters":0,"station_id":"ce4bgup2rcd13ifvqco0","pricing_plan_id":"cebpf4jnsgd1na2vs0mg"},{"bike_id":"3c30732f-7bbd-4c0b-b2be-9ddcad3eaa6c","system_id":"levelo_inurba_marseille","lat":43.309589,"lon":5.390258,"is_reserved":false,"is_disabled":false,"rental_uris":{"android":"levelo://app?vid=3c30732f-7bbd-4c0b-b2be-9ddcad3eaa6c","ios":"levelo://app?vid=3c30732f-7bbd-4c0b-b2be-9ddcad3eaa6c"},"vehicle_type_id":"4","last_reported":1720127242,"current_range_meters":27200,"station_id":"ce4bgup2rcd13ifvqco0","pricing_plan_id":"cebpf4jnsgd1na2vs0mg"},{"bike_id":"361b0d3a-a684-41af-be33-938b35a202f4","system_id":"levelo_inurba_marseille","lat":43.317557,"lon":5.390173,"is_reserved":false,"is_disabled":false,"rental_uris":{"android":"levelo://app?vid=361b0d3a-a684-41af-be33-938b35a202f4","ios":"levelo://app?vid=361b0d3a-a684-41af-be33-938b35a202f4"},"vehicle_type_id":"4","last_reported":1720127242,"current_range_meters":22800,"station_id":"ce4bhqp2rcd13ifvqhng","pricing_plan_id":"cebpf4jnsgd1na2vs0mg"},{"bike_id":"579b62f7-94fa-4034-bba2-59051aae40a3","system_id":"levelo_inurba_marseille","lat":43.317557,"lon":5.390173,"is_reserved":false,"is_disabled":false,"rental_uris":{"android":"levelo://app?vid=579b62f7-94fa-4034-bba2-59051aae40a3","ios":"levelo://app?vid=579b62f7-94fa-4034-bba2-59051aae40a3"},"vehicle_type_id":"4","last_reported":1720127242,"current_range_meters":27200,"station_id":"ce4bhqp2rcd13ifvqhng","pricing_plan_id":"cebpf4jnsgd1na2vs0mg"},{"bike_id":"441be55e-d35c-4513-9415-72c0a3b56052","system_id":"levelo_inurba_marseille","lat":43.30437,"lon":5.38832,"is_reserved":false,"is_disabled":false,"rental_uris":{"android":"levelo://app?vid=441be55e-d35c-4513-9415-72c0a3b56052","ios":"levelo://app?vid=441be55e-d35c-4513-9415-72c0a3b56052"},"vehicle_type_id":"4","last_reported":1720127242,"current_range_meters":31200,"station_id":"ce4bgk12rcd13ifvqbi0","pricing_plan_id":"cebpf4jnsgd1na2vs0mg"},{"bike_id":"d7bcff55-3d86-4784-8107-b9035d9483ab","system_id":"levelo_inurba_marseille","lat":43.304278,"lon":5.388868,"is_reserved":false,"is_disabled":false,"rental_uris":{"android":"levelo://app?vid=d7bcff55-3d86-4784-8107-b9035d9483ab","ios":"levelo://app?vid=d7bcff55-3d86-4784-8107-b9035d9483ab"},"vehicle_type_id":"4","last_reported":1720127242,"current_range_meters":5600,"station_id":"ce4bgk12rcd13ifvqbi0","pricing_plan_id":"cebpf4jnsgd1na2vs0mg"},{"bike_id":"d1b50f0b-7c34-4d48-b910-8de6931c413d","system_id":"levelo_inurba_marseille","lat":43.295748,"lon":5.37522,"is_reserved":false,"is_disabled":false,"rental_uris":{"android":"levelo://app?vid=d1b50f0b-7c34-4d48-b910-8de6931c413d","ios":"levelo://app?vid=d1b50f0b-7c34-4d48-b910-8de6931c413d"},"vehicle_type_id":"4","last_reported":1720127242,"current_range_meters":1600,"station_id":"ce4bgh92rcd13ifvqb50","pricing_plan_id":"cebpf4jnsgd1na2vs0mg"},{"bike_id":"b0892a09-3898-47f9-8f19-e68ec5dfeb9f","system_id":"levelo_inurba_marseille","lat":43.304274,"lon":5.388873,"is_reserved":false,"is_disabled":false,"rental_uris":{"android":"levelo://app?vid=b0892a09-3898-47f9-8f19-e68ec5dfeb9f","ios":"levelo://app?vid=b0892a09-3898-47f9-8f19-e68ec5dfeb9f"},"vehicle_type_id":"4","last_reported":1720127242,"current_range_meters":11200,"station_id":"ce4bgk12rcd13ifvqbi0","pricing_plan_id":"cebpf4jnsgd1na2vs0mg"},{"bike_id":"ae17aa48-bf6d-4761-b881-140b83cbcd64","system_id":"levelo_inurba_marseille","lat":43.304274,"lon":5.388873,"is_reserved":false,"is_disabled":false,"rental_uris":{"android":"levelo://app?vid=ae17aa48-bf6d-4761-b881-140b83cbcd64","ios":"levelo://app?vid=ae17aa48-bf6d-4761-b881-140b83cbcd64"},"vehicle_type_id":"4","last_reported":1720127242,"current_range_meters":17200,"station_id":"ce4bgk12rcd13ifvqbi0","pricing_plan_id":"cebpf4jnsgd1na2vs0mg"},{"bike_id":"12cbf50f-fc15-4083-b122-5ce20839da9f","system_id":"levelo_inurba_marseille","lat":43.295748,"lon":5.37522,"is_reserved":false,"is_disabled":false,"rental_uris":{"android":"levelo://app?vid=12cbf50f-fc15-4083-b122-5ce20839da9f","ios":"levelo://app?vid=12cbf50f-fc15-4083-b122-5ce20839da9f"},"vehicle_type_id":"4","last_reported":1720127242,"current_range_meters":23600,"station_id":"ce4bgh92rcd13ifvqb50","pricing_plan_id":"cebpf4jnsgd1na2vs0mg"},{"bike_id":"2921f3d1-8930-4a86-aed1-073d285e2a50","system_id":"levelo_inurba_marseille","lat":43.295748,"lon":5.37522,"is_reserved":false,"is_disabled":false,"rental_uris":{"android":"levelo://app?vid=2921f3d1-8930-4a86-aed1-073d285e2a50","ios":"levelo://app?vid=2921f3d1-8930-4a86-aed1-073d285e2a50"},"vehicle_type_id":"4","last_reported":1720127242,"current_range_meters":6800,"station_id":"ce4bgh92rcd13ifvqb50","pricing_plan_id":"cebpf4jnsgd1na2vs0mg"},{"bike_id":"2b561937-dab2-40c1-94ff-68bc7745a660","system_id":"levelo_inurba_marseille","lat":43.30434,"lon":5.38894,"is_reserved":false,"is_disabled":false,"rental_uris":{"android":"levelo://app?vid=2b561937-dab2-40c1-94ff-68bc7745a660","ios":"levelo://app?vid=2b561937-dab2-40c1-94ff-68bc7745a660"},"vehicle_type_id":"4","last_reported":1720127242,"current_range_meters":16000,"station_id":"ce4bgk12rcd13ifvqbi0","pricing_plan_id":"cebpf4jnsgd1na2vs0mg"},{"bike_id":"a30d0718-dc6b-4b5f-9b51-2419694df961","system_id":"levelo_inurba_marseille","lat":43.304274,"lon":5.388873,"is_reserved":false,"is_disabled":false,"rental_uris":{"android":"levelo://app?vid=a30d0718-dc6b-4b5f-9b51-2419694df961","ios":"levelo://app?vid=a30d0718-dc6b-4b5f-9b51-2419694df961"},"vehicle_type_id":"4","last_reported":1720127242,"current_range_meters":9200,"station_id":"ce4bgk12rcd13ifvqbi0","pricing_plan_id":"cebpf4jnsgd1na2vs0mg"},{"bike_id":"40347a15-54f8-4c6e-ad56-196c26af2a9c","system_id":"levelo_inurba_marseille","lat":43.296277,"lon":5.377108,"is_reserved":false,"is_disabled":false,"rental_uris":{"android":"levelo://app?vid=40347a15-54f8-4c6e-ad56-196c26af2a9c","ios":"levelo://app?vid=40347a15-54f8-4c6e-ad56-196c26af2a9c"},"vehicle_type_id":"4","last_reported":1720127242,"current_range_meters":0,"station_id":"ce4bgi92rcd13ifvqb90","pricing_plan_id":"cebpf4jnsgd1na2vs0mg"},{"bike_id":"bb540187-8c46-402a-b7ac-0a3fe3a511c9","system_id":"levelo_inurba_marseille","lat":43.295279,"lon":5.375048,"is_reserved":false,"is_disabled":false,"rental_uris":{"android":"levelo://app?vid=bb540187-8c46-402a-b7ac-0a3fe3a511c9","ios":"levelo://app?vid=bb540187-8c46-402a-b7ac-0a3fe3a511c9"},"vehicle_type_id":"4","last_reported":1720127242,"current_range_meters":20800,"station_id":"ce4bgkp2rcd13ifvqbmg","pricing_plan_id":"cebpf4jnsgd1na2vs0mg"},{"bike_id":"7813e630-ed38-4708-9402-47c5ed71d5d5","system_id":"levelo_inurba_marseille","lat":43.299724,"lon":5.384848,"is_reserved":false,"is_disabled":false,"rental_uris":{"android":"levelo://app?vid=7813e630-ed38-4708-9402-47c5ed71d5d5","ios":"levelo://app?vid=7813e630-ed38-4708-9402-47c5ed71d5d5"},"vehicle_type_id":"4","last_reported":1720127242,"current_range_meters":17600,"station_id":"ce4bgj92rcd13ifvqbd0","pricing_plan_id":"cebpf4jnsgd1na2vs0mg"},{"bike_id":"e311068e-bad8-4d31-bc63-521aa7e79c6c","system_id":"levelo_inurba_marseille","lat":43.301396,"lon":5.387812,"is_reserved":false,"is_disabled":false,"rental_uris":{"android":"levelo://app?vid=e311068e-bad8-4d31-bc63-521aa7e79c6c","ios":"levelo://app?vid=e311068e-bad8-4d31-bc63-521aa7e79c6c"},"vehicle_type_id":"4","last_reported":1720127242,"current_range_meters":0,"station_id":"ce4bghh2rcd13ifvqb60","pricing_plan_id":"cebpf4jnsgd1na2vs0mg"},{"bike_id":"bc2512f7-231b-41dd-8d08-6942bf080f20","system_id":"levelo_inurba_marseille","lat":43.301396,"lon":5.387812,"is_reserved":false,"is_disabled":false,"rental_uris":{"android":"levelo://app?vid=bc2512f7-231b-41dd-8d08-6942bf080f20","ios":"levelo://app?vid=bc2512f7-231b-41dd-8d08-6942bf080f20"},"vehicle_type_id":"4","last_reported":1720127242,"current_range_meters":24000,"station_id":"ce4bghh2rcd13ifvqb60","pricing_plan_id":"cebpf4jnsgd1na2vs0mg"},{"bike_id":"eda0cff3-65a3-4c80-9316-15d5ceb5ca1c","system_id":"levelo_inurba_marseille","lat":43.32368,"lon":5.38883,"is_reserved":false,"is_disabled":false,"rental_uris":{"android":"levelo://app?vid=eda0cff3-65a3-4c80-9316-15d5ceb5ca1c","ios":"levelo://app?vid=eda0cff3-65a3-4c80-9316-15d5ceb5ca1c"},"vehicle_type_id":"4","last_reported":1720127242,"current_range_meters":0,"station_id":"ce4bhqp2rcd13ifvqhog","pricing_plan_id":"cebpf4jnsgd1na2vs0mg"},{"bike_id":"102147b6-0071-4c78-881d-992cc9131325","system_id":"levelo_inurba_marseille","lat":43.32367,"lon":5.388836,"is_reserved":false,"is_disabled":false,"rental_uris":{"android":"levelo://app?vid=102147b6-0071-4c78-881d-992cc9131325","ios":"levelo://app?vid=102147b6-0071-4c78-881d-992cc9131325"},"vehicle_type_id":"4","last_reported":1720127242,"current_range_meters":0,"station_id":"ce4bhqp2rcd13ifvqhog","pricing_plan_id":"cebpf4jnsgd1na2vs0mg"},{"bike_id":"84092fce-8d6c-4909-8cc4-77e3304731b7","system_id":"levelo_inurba_marseille","lat":43.29338,"lon":5.37121,"is_reserved":false,"is_disabled":false,"rental_uris":{"android":"levelo://app?vid=84092fce-8d6c-4909-8cc4-77e3304731b7","ios":"levelo://app?vid=84092fce-8d6c-4909-8cc4-77e3304731b7"},"vehicle_type_id":"4","last_reported":1720127242,"current_range_meters":20400,"station_id":"","pricing_plan_id":"cebpf4jnsgd1na2vs0mg"},{"bike_id":"0d595b37-1ef5-4cb7-b6b0-f1e20b462e9b","system_id":"levelo_inurba_marseille","lat":43.286961,"lon":5.373785,"is_reserved":false,"is_disabled":false,"rental_uris":{"android":"levelo://app?vid=0d595b37-1ef5-4cb7-b6b0-f1e20b462e9b","ios":"levelo://app?vid=0d595b37-1ef5-4cb7-b6b0-f1e20b462e9b"},"vehicle_type_id":"4","last_reported":1720127242,"current_range_meters":5200,"station_id":"ce4bh3p2rcd13ifvqdq0","pricing_plan_id":"cebpf4jnsgd1na2vs0mg"},{"bike_id":"aed14557-ce4c-4413-ad2b-562d0e6494ab","system_id":"levelo_inurba_marseille","lat":43.29601,"lon":5.381084,"is_reserved":false,"is_disabled":false,"rental_uris":{"android":"levelo://app?vid=aed14557-ce4c-4413-ad2b-562d0e6494ab","ios":"levelo://app?vid=aed14557-ce4c-4413-ad2b-562d0e6494ab"},"vehicle_type_id":"4","last_reported":1720127242,"current_range_meters":22800,"station_id":"ce4bgl12rcd13ifvqbo0","pricing_plan_id":"cebpf4jnsgd1na2vs0mg"},{"bike_id":"2ad07817-edc1-4312-8ee7-446b76882985","system_id":"levelo_inurba_marseille","lat":43.29279,"lon":5.36841,"is_reserved":false,"is_disabled":false,"rental_uris":{"android":"levelo://app?vid=2ad07817-edc1-4312-8ee7-446b76882985","ios":"levelo://app?vid=2ad07817-edc1-4312-8ee7-446b76882985"},"vehicle_type_id":"4","last_reported":1720127242,"current_range_meters":30400,"station_id":"ce4bhbp2rcd13ifvqesg","pricing_plan_id":"cebpf4jnsgd1na2vs0mg"},{"bike_id":"61ef4e82-b647-4a94-96b5-48b175c17272","system_id":"levelo_inurba_marseille","lat":43.293259,"lon":5.371586,"is_reserved":false,"is_disabled":false,"rental_uris":{"android":"levelo://app?vid=61ef4e82-b647-4a94-96b5-48b175c17272","ios":"levelo://app?vid=61ef4e82-b647-4a94-96b5-48b175c17272"},"vehicle_type_id":"4","last_reported":1720127242,"current_range_meters":11200,"station_id":"ce4bgh92rcd13ifvqb40","pricing_plan_id":"cebpf4jnsgd1na2vs0mg"},{"bike_id":"f76effcf-a775-4aa0-b675-85b77938e798","system_id":"levelo_inurba_marseille","lat":43.292749,"lon":5.368402,"is_reserved":false,"is_disabled":false,"rental_uris":{"android":"levelo://app?vid=f76effcf-a775-4aa0-b675-85b77938e798","ios":"levelo://app?vid=f76effcf-a775-4aa0-b675-85b77938e798"},"vehicle_type_id":"4","last_reported":1720127242,"current_range_meters":0,"station_id":"ce4bhbp2rcd13ifvqesg","pricing_plan_id":"cebpf4jnsgd1na2vs0mg"},{"bike_id":"8aad59f1-7bb4-47f8-b9a3-5c3cca475041","system_id":"levelo_inurba_marseille","lat":43.292749,"lon":5.368402,"is_reserved":false,"is_disabled":false,"rental_uris":{"android":"levelo://app?vid=8aad59f1-7bb4-47f8-b9a3-5c3cca475041","ios":"levelo://app?vid=8aad59f1-7bb4-47f8-b9a3-5c3cca475041"},"vehicle_type_id":"4","last_reported":1720127242,"current_range_meters":22400,"station_id":"ce4bhbp2rcd13ifvqesg","pricing_plan_id":"cebpf4jnsgd1na2vs0mg"},{"bike_id":"3091d164-dd29-4084-af40-5d915d240fd9","system_id":"levelo_inurba_marseille","lat":43.305994,"lon":5.393687,"is_reserved":false,"is_disabled":false,"rental_uris":{"android":"levelo://app?vid=3091d164-dd29-4084-af40-5d915d240fd9","ios":"levelo://app?vid=3091d164-dd29-4084-af40-5d915d240fd9"},"vehicle_type_id":"4","last_reported":1720127242,"current_range_meters":800,"station_id":"ce4bh0p2rcd13ifvqd80","pricing_plan_id":"cebpf4jnsgd1na2vs0mg"},{"bike_id":"a9fb9d2f-a3bb-4ea3-bab5-dc14de46958c","system_id":"levelo_inurba_marseille","lat":43.305994,"lon":5.393687,"is_reserved":false,"is_disabled":false,"rental_uris":{"android":"levelo://app?vid=a9fb9d2f-a3bb-4ea3-bab5-dc14de46958c","ios":"levelo://app?vid=a9fb9d2f-a3bb-4ea3-bab5-dc14de46958c"},"vehicle_type_id":"4","last_reported":1720127242,"current_range_meters":7200,"station_id":"ce4bh0p2rcd13ifvqd80","pricing_plan_id":"cebpf4jnsgd1na2vs0mg"},{"bike_id":"c89b017d-8b44-4b6a-965c-4e9c8d4b23c9","system_id":"levelo_inurba_marseille","lat":43.29296,"lon":5.37467,"is_reserved":false,"is_disabled":false,"rental_uris":{"android":"levelo://app?vid=c89b017d-8b44-4b6a-965c-4e9c8d4b23c9","ios":"levelo://app?vid=c89b017d-8b44-4b6a-965c-4e9c8d4b23c9"},"vehicle_type_id":"4","last_reported":1720127242,"current_range_meters":0,"station_id":"ce4bgi12rcd13ifvqb70","pricing_plan_id":"cebpf4jnsgd1na2vs0mg"},{"bike_id":"e640207f-11eb-4638-9e39-2ea78f895257","system_id":"levelo_inurba_marseille","lat":43.30313,"lon":5.39201,"is_reserved":false,"is_disabled":false,"rental_uris":{"android":"levelo://app?vid=e640207f-11eb-4638-9e39-2ea78f895257","ios":"levelo://app?vid=e640207f-11eb-4638-9e39-2ea78f895257"},"vehicle_type_id":"4","last_reported":1720127242,"current_range_meters":8400,"station_id":"ce4bgkh2rcd13ifvqbk0","pricing_plan_id":"cebpf4jnsgd1na2vs0mg"},{"bike_id":"13c7ea49-27e1-4709-84c3-1cfcf4fec50b","system_id":"levelo_inurba_marseille","lat":43.29372,"lon":5.37845,"is_reserved":false,"is_disabled":false,"rental_uris":{"android":"levelo://app?vid=13c7ea49-27e1-4709-84c3-1cfcf4fec50b","ios":"levelo://app?vid=13c7ea49-27e1-4709-84c3-1cfcf4fec50b"},"vehicle_type_id":"4","last_reported":1720127242,"current_range_meters":20800,"station_id":"ce4bgjh2rcd13ifvqbf0","pricing_plan_id":"cebpf4jnsgd1na2vs0mg"},{"bike_id":"f4d4af43-eb25-438d-bb75-7c880cff231a","system_id":"levelo_inurba_marseille","lat":43.2936,"lon":5.37835,"is_reserved":false,"is_disabled":false,"rental_uris":{"android":"levelo://app?vid=f4d4af43-eb25-438d-bb75-7c880cff231a","ios":"levelo://app?vid=f4d4af43-eb25-438d-bb75-7c880cff231a"},"vehicle_type_id":"4","last_reported":1720127242,"current_range_meters":25200,"station_id":"ce4bgjh2rcd13ifvqbf0","pricing_plan_id":"cebpf4jnsgd1na2vs0mg"},{"bike_id":"f2d73ea4-000f-40d3-bcb7-51bae9e14047","system_id":"levelo_inurba_marseille","lat":43.300852,"lon":5.390859,"is_reserved":false,"is_disabled":false,"rental_uris":{"android":"levelo://app?vid=f2d73ea4-000f-40d3-bcb7-51bae9e14047","ios":"levelo://app?vid=f2d73ea4-000f-40d3-bcb7-51bae9e14047"},"vehicle_type_id":"4","last_reported":1720127242,"current_range_meters":2000,"station_id":"ce4bh192rcd13ifvqdb0","pricing_plan_id":"cebpf4jnsgd1na2vs0mg"},{"bike_id":"0a6fd546-220e-4ead-901c-75370c887723","system_id":"levelo_inurba_marseille","lat":43.2988,"lon":5.38897,"is_reserved":false,"is_disabled":false,"rental_uris":{"android":"levelo://app?vid=0a6fd546-220e-4ead-901c-75370c887723","ios":"levelo://app?vid=0a6fd546-220e-4ead-901c-75370c887723"},"vehicle_type_id":"4","last_reported":1720127242,"current_range_meters":1200,"station_id":"ce4bh392rcd13ifvqdl0","pricing_plan_id":"cebpf4jnsgd1na2vs0mg"},{"bike_id":"daa64c71-1b8f-470e-b2db-baef5d3920a0","system_id":"levelo_inurba_marseille","lat":43.291671,"lon":5.371575,"is_reserved":false,"is_disabled":false,"rental_uris":{"android":"levelo://app?vid=daa64c71-1b8f-470e-b2db-baef5d3920a0","ios":"levelo://app?vid=daa64c71-1b8f-470e-b2db-baef5d3920a0"},"vehicle_type_id":"4","last_reported":1720127242,"current_range_meters":0,"station_id":"ce4bha92rcd13ifvqeh0","pricing_plan_id":"cebpf4jnsgd1na2vs0mg"},{"bike_id":"b90d2320-a93a-4d67-90fc-7976332f1824","system_id":"levelo_inurba_marseille","lat":43.298825,"lon":5.38907,"is_reserved":false,"is_disabled":false,"rental_uris":{"android":"levelo://app?vid=b90d2320-a93a-4d67-90fc-7976332f1824","ios":"levelo://app?vid=b90d2320-a93a-4d67-90fc-7976332f1824"},"vehicle_type_id":"4","last_reported":1720127242,"current_range_meters":0,"station_id":"ce4bh392rcd13ifvqdl0","pricing_plan_id":"cebpf4jnsgd1na2vs0mg"},{"bike_id":"dee64bd3-9b10-4b25-a0ed-336169ea522a","system_id":"levelo_inurba_marseille","lat":43.29877,"lon":5.38907,"is_reserved":false,"is_disabled":false,"rental_uris":{"android":"levelo://app?vid=dee64bd3-9b10-4b25-a0ed-336169ea522a","ios":"levelo://app?vid=dee64bd3-9b10-4b25-a0ed-336169ea522a"},"vehicle_type_id":"4","last_reported":1720127242,"current_range_meters":30800,"station_id":"ce4bh392rcd13ifvqdl0","pricing_plan_id":"cebpf4jnsgd1na2vs0mg"},{"bike_id":"ca68f2b7-258d-46fd-a443-e460673acf84","system_id":"levelo_inurba_marseille","lat":43.29873,"lon":5.38903,"is_reserved":false,"is_disabled":false,"rental_uris":{"android":"levelo://app?vid=ca68f2b7-258d-46fd-a443-e460673acf84","ios":"levelo://app?vid=ca68f2b7-258d-46fd-a443-e460673acf84"},"vehicle_type_id":"4","last_reported":1720127242,"current_range_meters":8000,"station_id":"ce4bh392rcd13ifvqdl0","pricing_plan_id":"cebpf4jnsgd1na2vs0mg"},{"bike_id":"9f6e1c39-6609-4bb7-9ddb-6a5f57dcd8db","system_id":"levelo_inurba_marseille","lat":43.29529,"lon":5.385581,"is_reserved":false,"is_disabled":false,"rental_uris":{"android":"levelo://app?vid=9f6e1c39-6609-4bb7-9ddb-6a5f57dcd8db","ios":"levelo://app?vid=9f6e1c39-6609-4bb7-9ddb-6a5f57dcd8db"},"vehicle_type_id":"4","last_reported":1720127242,"current_range_meters":24800,"station_id":"ce4bgih2rcd13ifvqba0","pricing_plan_id":"cebpf4jnsgd1na2vs0mg"},{"bike_id":"d932611d-f8d4-4980-b541-18472b4eaafe","system_id":"levelo_inurba_marseille","lat":43.313291,"lon":5.396838,"is_reserved":false,"is_disabled":false,"rental_uris":{"android":"levelo://app?vid=d932611d-f8d4-4980-b541-18472b4eaafe","ios":"levelo://app?vid=d932611d-f8d4-4980-b541-18472b4eaafe"},"vehicle_type_id":"4","last_reported":1720127242,"current_range_meters":0,"station_id":"ce4bgvp2rcd13ifvqcu0","pricing_plan_id":"cebpf4jnsgd1na2vs0mg"},{"bike_id":"6510f648-da92-499c-922c-91af548dd715","system_id":"levelo_inurba_marseille","lat":43.291994,"lon":5.357886,"is_reserved":false,"is_disabled":false,"rental_uris":{"android":"levelo://app?vid=6510f648-da92-499c-922c-91af548dd715","ios":"levelo://app?vid=6510f648-da92-499c-922c-91af548dd715"},"vehicle_type_id":"4","last_reported":1720127242,"current_range_meters":4800,"station_id":"ce4bhb12rcd13ifvqel0","pricing_plan_id":"cebpf4jnsgd1na2vs0mg"},{"bike_id":"45a96e85-e813-43af-bcf0-5551498df255","system_id":"levelo_inurba_marseille","lat":43.313291,"lon":5.396838,"is_reserved":false,"is_disabled":false,"rental_uris":{"android":"levelo://app?vid=45a96e85-e813-43af-bcf0-5551498df255","ios":"levelo://app?vid=45a96e85-e813-43af-bcf0-5551498df255"},"vehicle_type_id":"4","last_reported":1720127242,"current_range_meters":10400,"station_id":"ce4bgvp2rcd13ifvqcu0","pricing_plan_id":"cebpf4jnsgd1na2vs0mg"},{"bike_id":"a77c903c-612c-46b7-a36a-f4368fb74aa0","system_id":"levelo_inurba_marseille","lat":43.313291,"lon":5.396838,"is_reserved":false,"is_disabled":false,"rental_uris":{"android":"levelo://app?vid=a77c903c-612c-46b7-a36a-f4368fb74aa0","ios":"levelo://app?vid=a77c903c-612c-46b7-a36a-f4368fb74aa0"},"vehicle_type_id":"4","last_reported":1720127242,"current_range_meters":25600,"station_id":"ce4bgvp2rcd13ifvqcu0","pricing_plan_id":"cebpf4jnsgd1na2vs0mg"},{"bike_id":"5fdc4ba0-320f-4ca0-bd22-858de6f10594","system_id":"levelo_inurba_marseille","lat":43.313291,"lon":5.396838,"is_reserved":false,"is_disabled":false,"rental_uris":{"android":"levelo://app?vid=5fdc4ba0-320f-4ca0-bd22-858de6f10594","ios":"levelo://app?vid=5fdc4ba0-320f-4ca0-bd22-858de6f10594"},"vehicle_type_id":"4","last_reported":1720127242,"current_range_meters":24400,"station_id":"ce4bgvp2rcd13ifvqcu0","pricing_plan_id":"cebpf4jnsgd1na2vs0mg"},{"bike_id":"98d35d76-8065-446a-93f1-ad9cf56cbd6a","system_id":"levelo_inurba_marseille","lat":43.313291,"lon":5.396838,"is_reserved":false,"is_disabled":false,"rental_uris":{"android":"levelo://app?vid=98d35d76-8065-446a-93f1-ad9cf56cbd6a","ios":"levelo://app?vid=98d35d76-8065-446a-93f1-ad9cf56cbd6a"},"vehicle_type_id":"4","last_reported":1720127242,"current_range_meters":0,"station_id":"ce4bgvp2rcd13ifvqcu0","pricing_plan_id":"cebpf4jnsgd1na2vs0mg"},{"bike_id":"093b937e-eb71-4ca0-adce-2345bd0016fb","system_id":"levelo_inurba_marseille","lat":43.313291,"lon":5.396838,"is_reserved":false,"is_disabled":false,"rental_uris":{"android":"levelo://app?vid=093b937e-eb71-4ca0-adce-2345bd0016fb","ios":"levelo://app?vid=093b937e-eb71-4ca0-adce-2345bd0016fb"},"vehicle_type_id":"4","last_reported":1720127242,"current_range_meters":7200,"station_id":"ce4bgvp2rcd13ifvqcu0","pricing_plan_id":"cebpf4jnsgd1na2vs0mg"},{"bike_id":"7031072b-d6ed-4594-a468-26b5d2f9aac4","system_id":"levelo_inurba_marseille","lat":43.313291,"lon":5.396838,"is_reserved":false,"is_disabled":false,"rental_uris":{"android":"levelo://app?vid=7031072b-d6ed-4594-a468-26b5d2f9aac4","ios":"levelo://app?vid=7031072b-d6ed-4594-a468-26b5d2f9aac4"},"vehicle_type_id":"4","last_reported":1720127242,"current_range_meters":3200,"station_id":"ce4bgvp2rcd13ifvqcu0","pricing_plan_id":"cebpf4jnsgd1na2vs0mg"},{"bike_id":"d4b25b4b-bd20-4ced-b53a-c01abd6658a9","system_id":"levelo_inurba_marseille","lat":43.313291,"lon":5.396838,"is_reserved":false,"is_disabled":false,"rental_uris":{"android":"levelo://app?vid=d4b25b4b-bd20-4ced-b53a-c01abd6658a9","ios":"levelo://app?vid=d4b25b4b-bd20-4ced-b53a-c01abd6658a9"},"vehicle_type_id":"4","last_reported":1720127242,"current_range_meters":800,"station_id":"ce4bgvp2rcd13ifvqcu0","pricing_plan_id":"cebpf4jnsgd1na2vs0mg"},{"bike_id":"5ede2a26-1ce0-4ca7-bd80-b5bf93f206b5","system_id":"levelo_inurba_marseille","lat":43.313291,"lon":5.396838,"is_reserved":false,"is_disabled":false,"rental_uris":{"android":"levelo://app?vid=5ede2a26-1ce0-4ca7-bd80-b5bf93f206b5","ios":"levelo://app?vid=5ede2a26-1ce0-4ca7-bd80-b5bf93f206b5"},"vehicle_type_id":"4","last_reported":1720127242,"current_range_meters":9600,"station_id":"ce4bgvp2rcd13ifvqcu0","pricing_plan_id":"cebpf4jnsgd1na2vs0mg"},{"bike_id":"ee8bc1dd-71c2-449b-ba74-9b15c31742cd","system_id":"levelo_inurba_marseille","lat":43.313291,"lon":5.396838,"is_reserved":false,"is_disabled":false,"rental_uris":{"android":"levelo://app?vid=ee8bc1dd-71c2-449b-ba74-9b15c31742cd","ios":"levelo://app?vid=ee8bc1dd-71c2-449b-ba74-9b15c31742cd"},"vehicle_type_id":"4","last_reported":1720127242,"current_range_meters":14400,"station_id":"ce4bgvp2rcd13ifvqcu0","pricing_plan_id":"cebpf4jnsgd1na2vs0mg"},{"bike_id":"240a642f-2938-46ed-90b3-7097a0b285ec","system_id":"levelo_inurba_marseille","lat":43.313291,"lon":5.396838,"is_reserved":false,"is_disabled":false,"rental_uris":{"android":"levelo://app?vid=240a642f-2938-46ed-90b3-7097a0b285ec","ios":"levelo://app?vid=240a642f-2938-46ed-90b3-7097a0b285ec"},"vehicle_type_id":"4","last_reported":1720127242,"current_range_meters":0,"station_id":"ce4bgvp2rcd13ifvqcu0","pricing_plan_id":"cebpf4jnsgd1na2vs0mg"},{"bike_id":"0361e190-e5ad-4e2a-9a69-a6e1ab0c6e9e","system_id":"levelo_inurba_marseille","lat":43.313291,"lon":5.396838,"is_reserved":false,"is_disabled":false,"rental_uris":{"android":"levelo://app?vid=0361e190-e5ad-4e2a-9a69-a6e1ab0c6e9e","ios":"levelo://app?vid=0361e190-e5ad-4e2a-9a69-a6e1ab0c6e9e"},"vehicle_type_id":"4","last_reported":1720127242,"current_range_meters":31200,"station_id":"ce4bgvp2rcd13ifvqcu0","pricing_plan_id":"cebpf4jnsgd1na2vs0mg"},{"bike_id":"fdcc88b8-d544-437a-9b95-51e43cae5aa7","system_id":"levelo_inurba_marseille","lat":43.29529,"lon":5.385581,"is_reserved":false,"is_disabled":false,"rental_uris":{"android":"levelo://app?vid=fdcc88b8-d544-437a-9b95-51e43cae5aa7","ios":"levelo://app?vid=fdcc88b8-d544-437a-9b95-51e43cae5aa7"},"vehicle_type_id":"4","last_reported":1720127242,"current_range_meters":26400,"station_id":"ce4bgih2rcd13ifvqba0","pricing_plan_id":"cebpf4jnsgd1na2vs0mg"},{"bike_id":"d20673d3-a487-446a-9c35-d67324c83d99","system_id":"levelo_inurba_marseille","lat":43.3089,"lon":5.39653,"is_reserved":false,"is_disabled":false,"rental_uris":{"android":"levelo://app?vid=d20673d3-a487-446a-9c35-d67324c83d99","ios":"levelo://app?vid=d20673d3-a487-446a-9c35-d67324c83d99"},"vehicle_type_id":"4","last_reported":1720127242,"current_range_meters":0,"station_id":"ce4bh012rcd13ifvqcv0","pricing_plan_id":"cebpf4jnsgd1na2vs0mg"},{"bike_id":"89e3427b-6aa9-4252-8b86-8d8bd4e338b1","system_id":"levelo_inurba_marseille","lat":43.30889,"lon":5.39655,"is_reserved":false,"is_disabled":false,"rental_uris":{"android":"levelo://app?vid=89e3427b-6aa9-4252-8b86-8d8bd4e338b1","ios":"levelo://app?vid=89e3427b-6aa9-4252-8b86-8d8bd4e338b1"},"vehicle_type_id":"4","last_reported":1720127242,"current_range_meters":0,"station_id":"ce4bh012rcd13ifvqcv0","pricing_plan_id":"cebpf4jnsgd1na2vs0mg"},{"bike_id":"998d4bc9-ae7f-4e77-ae5a-ffe045412175","system_id":"levelo_inurba_marseille","lat":43.29529,"lon":5.385581,"is_reserved":false,"is_disabled":false,"rental_uris":{"android":"levelo://app?vid=998d4bc9-ae7f-4e77-ae5a-ffe045412175","ios":"levelo://app?vid=998d4bc9-ae7f-4e77-ae5a-ffe045412175"},"vehicle_type_id":"4","last_reported":1720127242,"current_range_meters":31200,"station_id":"ce4bgih2rcd13ifvqba0","pricing_plan_id":"cebpf4jnsgd1na2vs0mg"},{"bike_id":"fd8a13f8-4287-43bb-8c4e-dbc619e61753","system_id":"levelo_inurba_marseille","lat":43.29529,"lon":5.385581,"is_reserved":false,"is_disabled":false,"rental_uris":{"android":"levelo://app?vid=fd8a13f8-4287-43bb-8c4e-dbc619e61753","ios":"levelo://app?vid=fd8a13f8-4287-43bb-8c4e-dbc619e61753"},"vehicle_type_id":"4","last_reported":1720127242,"current_range_meters":23600,"station_id":"ce4bgih2rcd13ifvqba0","pricing_plan_id":"cebpf4jnsgd1na2vs0mg"},{"bike_id":"7b1e4413-fbb3-48e8-9a62-0600c78fcc68","system_id":"levelo_inurba_marseille","lat":43.29529,"lon":5.385581,"is_reserved":false,"is_disabled":false,"rental_uris":{"android":"levelo://app?vid=7b1e4413-fbb3-48e8-9a62-0600c78fcc68","ios":"levelo://app?vid=7b1e4413-fbb3-48e8-9a62-0600c78fcc68"},"vehicle_type_id":"4","last_reported":1720127242,"current_range_meters":28400,"station_id":"ce4bgih2rcd13ifvqba0","pricing_plan_id":"cebpf4jnsgd1na2vs0mg"},{"bike_id":"8dfbbbe6-778c-4aa7-bbbd-0a29865c9464","system_id":"levelo_inurba_marseille","lat":43.29529,"lon":5.385581,"is_reserved":false,"is_disabled":false,"rental_uris":{"android":"levelo://app?vid=8dfbbbe6-778c-4aa7-bbbd-0a29865c9464","ios":"levelo://app?vid=8dfbbbe6-778c-4aa7-bbbd-0a29865c9464"},"vehicle_type_id":"4","last_reported":1720127242,"current_range_meters":12000,"station_id":"ce4bgih2rcd13ifvqba0","pricing_plan_id":"cebpf4jnsgd1na2vs0mg"},{"bike_id":"c26b155d-5fbc-4cb5-8464-64281290b6a8","system_id":"levelo_inurba_marseille","lat":43.29529,"lon":5.385581,"is_reserved":false,"is_disabled":false,"rental_uris":{"android":"levelo://app?vid=c26b155d-5fbc-4cb5-8464-64281290b6a8","ios":"levelo://app?vid=c26b155d-5fbc-4cb5-8464-64281290b6a8"},"vehicle_type_id":"4","last_reported":1720127242,"current_range_meters":6400,"station_id":"ce4bgih2rcd13ifvqba0","pricing_plan_id":"cebpf4jnsgd1na2vs0mg"},{"bike_id":"9cc25648-f3f7-4dd2-9789-eb9c38e87e89","system_id":"levelo_inurba_marseille","lat":43.29529,"lon":5.385581,"is_reserved":false,"is_disabled":false,"rental_uris":{"android":"levelo://app?vid=9cc25648-f3f7-4dd2-9789-eb9c38e87e89","ios":"levelo://app?vid=9cc25648-f3f7-4dd2-9789-eb9c38e87e89"},"vehicle_type_id":"4","last_reported":1720127242,"current_range_meters":27600,"station_id":"ce4bgih2rcd13ifvqba0","pricing_plan_id":"cebpf4jnsgd1na2vs0mg"},{"bike_id":"75a96834-d51a-41b2-aceb-9f0340ef5862","system_id":"levelo_inurba_marseille","lat":43.29529,"lon":5.385581,"is_reserved":false,"is_disabled":false,"rental_uris":{"android":"levelo://app?vid=75a96834-d51a-41b2-aceb-9f0340ef5862","ios":"levelo://app?vid=75a96834-d51a-41b2-aceb-9f0340ef5862"},"vehicle_type_id":"4","last_reported":1720127242,"current_range_meters":31600,"station_id":"ce4bgih2rcd13ifvqba0","pricing_plan_id":"cebpf4jnsgd1na2vs0mg"},{"bike_id":"9ef8f8ae-a7b7-420b-88de-c66fcbf83c0b","system_id":"levelo_inurba_marseille","lat":43.29529,"lon":5.385581,"is_reserved":false,"is_disabled":false,"rental_uris":{"android":"levelo://app?vid=9ef8f8ae-a7b7-420b-88de-c66fcbf83c0b","ios":"levelo://app?vid=9ef8f8ae-a7b7-420b-88de-c66fcbf83c0b"},"vehicle_type_id":"4","last_reported":1720127242,"current_range_meters":17600,"station_id":"ce4bgih2rcd13ifvqba0","pricing_plan_id":"cebpf4jnsgd1na2vs0mg"},{"bike_id":"4c47eec0-9447-4672-ae73-e3205efe3226","system_id":"levelo_inurba_marseille","lat":43.29529,"lon":5.385581,"is_reserved":false,"is_disabled":false,"rental_uris":{"android":"levelo://app?vid=4c47eec0-9447-4672-ae73-e3205efe3226","ios":"levelo://app?vid=4c47eec0-9447-4672-ae73-e3205efe3226"},"vehicle_type_id":"4","last_reported":1720127242,"current_range_meters":31600,"station_id":"ce4bgih2rcd13ifvqba0","pricing_plan_id":"cebpf4jnsgd1na2vs0mg"},{"bike_id":"bac6d9ee-326f-42d8-a5bf-a3925c0c1c77","system_id":"levelo_inurba_marseille","lat":43.29529,"lon":5.385581,"is_reserved":false,"is_disabled":false,"rental_uris":{"android":"levelo://app?vid=bac6d9ee-326f-42d8-a5bf-a3925c0c1c77","ios":"levelo://app?vid=bac6d9ee-326f-42d8-a5bf-a3925c0c1c77"},"vehicle_type_id":"4","last_reported":1720127242,"current_range_meters":31200,"station_id":"ce4bgih2rcd13ifvqba0","pricing_plan_id":"cebpf4jnsgd1na2vs0mg"},{"bike_id":"0d0d124c-fba2-4e10-9d54-fe1648bc1d10","system_id":"levelo_inurba_marseille","lat":43.29529,"lon":5.385581,"is_reserved":false,"is_disabled":false,"rental_uris":{"android":"levelo://app?vid=0d0d124c-fba2-4e10-9d54-fe1648bc1d10","ios":"levelo://app?vid=0d0d124c-fba2-4e10-9d54-fe1648bc1d10"},"vehicle_type_id":"4","last_reported":1720127242,"current_range_meters":1600,"station_id":"ce4bgih2rcd13ifvqba0","pricing_plan_id":"cebpf4jnsgd1na2vs0mg"},{"bike_id":"fd911dce-0af2-4c0f-bb2f-6290543c152d","system_id":"levelo_inurba_marseille","lat":43.290779,"lon":5.371482,"is_reserved":false,"is_disabled":false,"rental_uris":{"android":"levelo://app?vid=fd911dce-0af2-4c0f-bb2f-6290543c152d","ios":"levelo://app?vid=fd911dce-0af2-4c0f-bb2f-6290543c152d"},"vehicle_type_id":"4","last_reported":1720127242,"current_range_meters":2800,"station_id":"ce4bh5p2rcd13ifvqe4g","pricing_plan_id":"cebpf4jnsgd1na2vs0mg"},{"bike_id":"01e3d99b-98d8-4bd2-b614-39761ba49d9c","system_id":"levelo_inurba_marseille","lat":43.302008,"lon":5.394694,"is_reserved":false,"is_disabled":false,"rental_uris":{"android":"levelo://app?vid=01e3d99b-98d8-4bd2-b614-39761ba49d9c","ios":"levelo://app?vid=01e3d99b-98d8-4bd2-b614-39761ba49d9c"},"vehicle_type_id":"4","last_reported":1720127242,"current_range_meters":31200,"station_id":"ce4bh0p2rcd13ifvqd70","pricing_plan_id":"cebpf4jnsgd1na2vs0mg"},{"bike_id":"e2452d8f-6d9c-47a7-97d1-b8da3a51e169","system_id":"levelo_inurba_marseille","lat":43.302008,"lon":5.394694,"is_reserved":false,"is_disabled":false,"rental_uris":{"android":"levelo://app?vid=e2452d8f-6d9c-47a7-97d1-b8da3a51e169","ios":"levelo://app?vid=e2452d8f-6d9c-47a7-97d1-b8da3a51e169"},"vehicle_type_id":"4","last_reported":1720127242,"current_range_meters":26800,"station_id":"ce4bh0p2rcd13ifvqd70","pricing_plan_id":"cebpf4jnsgd1na2vs0mg"},{"bike_id":"58b56d55-4c1c-43bd-b46d-add476fa5ec2","system_id":"levelo_inurba_marseille","lat":43.294153,"lon":5.386305,"is_reserved":false,"is_disabled":false,"rental_uris":{"android":"levelo://app?vid=58b56d55-4c1c-43bd-b46d-add476fa5ec2","ios":"levelo://app?vid=58b56d55-4c1c-43bd-b46d-add476fa5ec2"},"vehicle_type_id":"4","last_reported":1720127242,"current_range_meters":24400,"station_id":"ce4bh2h2rcd13ifvqdh0","pricing_plan_id":"cebpf4jnsgd1na2vs0mg"},{"bike_id":"90a15c9e-446d-4417-8e9d-4b64b0c345cf","system_id":"levelo_inurba_marseille","lat":43.294153,"lon":5.386305,"is_reserved":false,"is_disabled":false,"rental_uris":{"android":"levelo://app?vid=90a15c9e-446d-4417-8e9d-4b64b0c345cf","ios":"levelo://app?vid=90a15c9e-446d-4417-8e9d-4b64b0c345cf"},"vehicle_type_id":"4","last_reported":1720127242,"current_range_meters":11200,"station_id":"ce4bh2h2rcd13ifvqdh0","pricing_plan_id":"cebpf4jnsgd1na2vs0mg"},{"bike_id":"115f2460-92fa-451b-9e68-5925410ca168","system_id":"levelo_inurba_marseille","lat":43.29424,"lon":5.38629,"is_reserved":false,"is_disabled":false,"rental_uris":{"android":"levelo://app?vid=115f2460-92fa-451b-9e68-5925410ca168","ios":"levelo://app?vid=115f2460-92fa-451b-9e68-5925410ca168"},"vehicle_type_id":"4","last_reported":1720127242,"current_range_meters":23600,"station_id":"ce4bh2h2rcd13ifvqdh0","pricing_plan_id":"cebpf4jnsgd1na2vs0mg"},{"bike_id":"e2076014-680a-4066-80f3-6b91d8d3b500","system_id":"levelo_inurba_marseille","lat":43.294153,"lon":5.386305,"is_reserved":false,"is_disabled":false,"rental_uris":{"android":"levelo://app?vid=e2076014-680a-4066-80f3-6b91d8d3b500","ios":"levelo://app?vid=e2076014-680a-4066-80f3-6b91d8d3b500"},"vehicle_type_id":"4","last_reported":1720127242,"current_range_meters":22000,"station_id":"ce4bh2h2rcd13ifvqdh0","pricing_plan_id":"cebpf4jnsgd1na2vs0mg"},{"bike_id":"38b2b3ad-c62c-4efa-9c23-a52320774bb3","system_id":"levelo_inurba_marseille","lat":43.29418,"lon":5.3862,"is_reserved":false,"is_disabled":false,"rental_uris":{"android":"levelo://app?vid=38b2b3ad-c62c-4efa-9c23-a52320774bb3","ios":"levelo://app?vid=38b2b3ad-c62c-4efa-9c23-a52320774bb3"},"vehicle_type_id":"4","last_reported":1720127242,"current_range_meters":2000,"station_id":"ce4bh2h2rcd13ifvqdh0","pricing_plan_id":"cebpf4jnsgd1na2vs0mg"},{"bike_id":"b250dea5-683b-4cd6-a594-c5f76f6a187f","system_id":"levelo_inurba_marseille","lat":43.294153,"lon":5.386305,"is_reserved":false,"is_disabled":false,"rental_uris":{"android":"levelo://app?vid=b250dea5-683b-4cd6-a594-c5f76f6a187f","ios":"levelo://app?vid=b250dea5-683b-4cd6-a594-c5f76f6a187f"},"vehicle_type_id":"4","last_reported":1720127242,"current_range_meters":11600,"station_id":"ce4bh2h2rcd13ifvqdh0","pricing_plan_id":"cebpf4jnsgd1na2vs0mg"},{"bike_id":"3a6faf99-abc2-4e42-a104-5dcdedc8b222","system_id":"levelo_inurba_marseille","lat":43.29418,"lon":5.38626,"is_reserved":false,"is_disabled":false,"rental_uris":{"android":"levelo://app?vid=3a6faf99-abc2-4e42-a104-5dcdedc8b222","ios":"levelo://app?vid=3a6faf99-abc2-4e42-a104-5dcdedc8b222"},"vehicle_type_id":"4","last_reported":1720127242,"current_range_meters":14000,"station_id":"ce4bh2h2rcd13ifvqdh0","pricing_plan_id":"cebpf4jnsgd1na2vs0mg"},{"bike_id":"18e73242-f329-470b-9475-e51496c5b8df","system_id":"levelo_inurba_marseille","lat":43.29417,"lon":5.38626,"is_reserved":false,"is_disabled":false,"rental_uris":{"android":"levelo://app?vid=18e73242-f329-470b-9475-e51496c5b8df","ios":"levelo://app?vid=18e73242-f329-470b-9475-e51496c5b8df"},"vehicle_type_id":"4","last_reported":1720127242,"current_range_meters":0,"station_id":"ce4bh2h2rcd13ifvqdh0","pricing_plan_id":"cebpf4jnsgd1na2vs0mg"},{"bike_id":"4841e106-3010-4a30-a12c-b906bf0c6f43","system_id":"levelo_inurba_marseille","lat":43.29418,"lon":5.38628,"is_reserved":false,"is_disabled":false,"rental_uris":{"android":"levelo://app?vid=4841e106-3010-4a30-a12c-b906bf0c6f43","ios":"levelo://app?vid=4841e106-3010-4a30-a12c-b906bf0c6f43"},"vehicle_type_id":"4","last_reported":1720127242,"current_range_meters":23600,"station_id":"ce4bh2h2rcd13ifvqdh0","pricing_plan_id":"cebpf4jnsgd1na2vs0mg"},{"bike_id":"ec52a7fa-7b6d-4d47-ae53-1eb07255fa67","system_id":"levelo_inurba_marseille","lat":43.29415,"lon":5.38626,"is_reserved":false,"is_disabled":false,"rental_uris":{"android":"levelo://app?vid=ec52a7fa-7b6d-4d47-ae53-1eb07255fa67","ios":"levelo://app?vid=ec52a7fa-7b6d-4d47-ae53-1eb07255fa67"},"vehicle_type_id":"4","last_reported":1720127242,"current_range_meters":0,"station_id":"ce4bh2h2rcd13ifvqdh0","pricing_plan_id":"cebpf4jnsgd1na2vs0mg"},{"bike_id":"8c265041-cbe1-4b08-a5e0-9ed1a8a2e167","system_id":"levelo_inurba_marseille","lat":43.294147,"lon":5.386297,"is_reserved":false,"is_disabled":false,"rental_uris":{"android":"levelo://app?vid=8c265041-cbe1-4b08-a5e0-9ed1a8a2e167","ios":"levelo://app?vid=8c265041-cbe1-4b08-a5e0-9ed1a8a2e167"},"vehicle_type_id":"4","last_reported":1720127242,"current_range_meters":20000,"station_id":"ce4bh2h2rcd13ifvqdh0","pricing_plan_id":"cebpf4jnsgd1na2vs0mg"},{"bike_id":"4a72428e-e8db-4eb1-a8ab-3b90a3119171","system_id":"levelo_inurba_marseille","lat":43.294153,"lon":5.386305,"is_reserved":false,"is_disabled":false,"rental_uris":{"android":"levelo://app?vid=4a72428e-e8db-4eb1-a8ab-3b90a3119171","ios":"levelo://app?vid=4a72428e-e8db-4eb1-a8ab-3b90a3119171"},"vehicle_type_id":"4","last_reported":1720127242,"current_range_meters":5600,"station_id":"ce4bh2h2rcd13ifvqdh0","pricing_plan_id":"cebpf4jnsgd1na2vs0mg"},{"bike_id":"8d50c6e0-79b0-4d44-8a8d-fbba3e894084","system_id":"levelo_inurba_marseille","lat":43.28949,"lon":5.36394,"is_reserved":false,"is_disabled":false,"rental_uris":{"android":"levelo://app?vid=8d50c6e0-79b0-4d44-8a8d-fbba3e894084","ios":"levelo://app?vid=8d50c6e0-79b0-4d44-8a8d-fbba3e894084"},"vehicle_type_id":"4","last_reported":1720127242,"current_range_meters":6000,"station_id":"ce4bhc92rcd13ifvqetg","pricing_plan_id":"cebpf4jnsgd1na2vs0mg"},{"bike_id":"dd2e4d47-a349-4e0a-bd31-7bd4e62e2e9a","system_id":"levelo_inurba_marseille","lat":43.289468,"lon":5.363719,"is_reserved":false,"is_disabled":false,"rental_uris":{"android":"levelo://app?vid=dd2e4d47-a349-4e0a-bd31-7bd4e62e2e9a","ios":"levelo://app?vid=dd2e4d47-a349-4e0a-bd31-7bd4e62e2e9a"},"vehicle_type_id":"4","last_reported":1720127242,"current_range_meters":0,"station_id":"ce4bhc92rcd13ifvqetg","pricing_plan_id":"cebpf4jnsgd1na2vs0mg"},{"bike_id":"d74a3162-637a-4ce4-98e7-628a03cabb75","system_id":"levelo_inurba_marseille","lat":43.289184,"lon":5.366408,"is_reserved":false,"is_disabled":false,"rental_uris":{"android":"levelo://app?vid=d74a3162-637a-4ce4-98e7-628a03cabb75","ios":"levelo://app?vid=d74a3162-637a-4ce4-98e7-628a03cabb75"},"vehicle_type_id":"4","last_reported":1720127242,"current_range_meters":29600,"station_id":"ce4bhap2rcd13ifvqek0","pricing_plan_id":"cebpf4jnsgd1na2vs0mg"},{"bike_id":"f7e33ad4-9301-4d39-8ae8-a53630e1e786","system_id":"levelo_inurba_marseille","lat":43.289468,"lon":5.363719,"is_reserved":false,"is_disabled":false,"rental_uris":{"android":"levelo://app?vid=f7e33ad4-9301-4d39-8ae8-a53630e1e786","ios":"levelo://app?vid=f7e33ad4-9301-4d39-8ae8-a53630e1e786"},"vehicle_type_id":"4","last_reported":1720127242,"current_range_meters":27200,"station_id":"ce4bhc92rcd13ifvqetg","pricing_plan_id":"cebpf4jnsgd1na2vs0mg"},{"bike_id":"0444ad9f-b06c-4c89-9ce0-2b6ba8b06601","system_id":"levelo_inurba_marseille","lat":43.289468,"lon":5.363719,"is_reserved":false,"is_disabled":false,"rental_uris":{"android":"levelo://app?vid=0444ad9f-b06c-4c89-9ce0-2b6ba8b06601","ios":"levelo://app?vid=0444ad9f-b06c-4c89-9ce0-2b6ba8b06601"},"vehicle_type_id":"4","last_reported":1720127242,"current_range_meters":400,"station_id":"ce4bhc92rcd13ifvqetg","pricing_plan_id":"cebpf4jnsgd1na2vs0mg"},{"bike_id":"fe389118-d6b6-44cd-a89b-e05661659e9c","system_id":"levelo_inurba_marseille","lat":43.304274,"lon":5.397513,"is_reserved":false,"is_disabled":false,"rental_uris":{"android":"levelo://app?vid=fe389118-d6b6-44cd-a89b-e05661659e9c","ios":"levelo://app?vid=fe389118-d6b6-44cd-a89b-e05661659e9c"},"vehicle_type_id":"4","last_reported":1720127242,"current_range_meters":2000,"station_id":"ce4bh092rcd13ifvqd20","pricing_plan_id":"cebpf4jnsgd1na2vs0mg"},{"bike_id":"6d9250ef-5fb0-49e7-9936-72abc2f15975","system_id":"levelo_inurba_marseille","lat":43.304296,"lon":5.397513,"is_reserved":false,"is_disabled":false,"rental_uris":{"android":"levelo://app?vid=6d9250ef-5fb0-49e7-9936-72abc2f15975","ios":"levelo://app?vid=6d9250ef-5fb0-49e7-9936-72abc2f15975"},"vehicle_type_id":"4","last_reported":1720127242,"current_range_meters":4000,"station_id":"ce4bh092rcd13ifvqd20","pricing_plan_id":"cebpf4jnsgd1na2vs0mg"},{"bike_id":"999330a8-1fc2-4b22-9f9e-287795ab05b8","system_id":"levelo_inurba_marseille","lat":43.292644,"lon":5.384257,"is_reserved":false,"is_disabled":false,"rental_uris":{"android":"levelo://app?vid=999330a8-1fc2-4b22-9f9e-287795ab05b8","ios":"levelo://app?vid=999330a8-1fc2-4b22-9f9e-287795ab05b8"},"vehicle_type_id":"4","last_reported":1720127242,"current_range_meters":24400,"station_id":"ce4bh692rcd13ifvqea0","pricing_plan_id":"cebpf4jnsgd1na2vs0mg"},{"bike_id":"5966a168-4d6c-4087-a147-30935a760c81","system_id":"levelo_inurba_marseille","lat":43.304296,"lon":5.397513,"is_reserved":false,"is_disabled":false,"rental_uris":{"android":"levelo://app?vid=5966a168-4d6c-4087-a147-30935a760c81","ios":"levelo://app?vid=5966a168-4d6c-4087-a147-30935a760c81"},"vehicle_type_id":"4","last_reported":1720127242,"current_range_meters":27600,"station_id":"ce4bh092rcd13ifvqd20","pricing_plan_id":"cebpf4jnsgd1na2vs0mg"},{"bike_id":"15d4c275-57c4-44ba-aba7-3254791205e5","system_id":"levelo_inurba_marseille","lat":43.29264,"lon":5.3845,"is_reserved":false,"is_disabled":false,"rental_uris":{"android":"levelo://app?vid=15d4c275-57c4-44ba-aba7-3254791205e5","ios":"levelo://app?vid=15d4c275-57c4-44ba-aba7-3254791205e5"},"vehicle_type_id":"4","last_reported":1720127242,"current_range_meters":4800,"station_id":"ce4bh692rcd13ifvqea0","pricing_plan_id":"cebpf4jnsgd1na2vs0mg"},{"bike_id":"70b94188-dd85-4287-bf31-5400cc27b276","system_id":"levelo_inurba_marseille","lat":43.292605,"lon":5.384485,"is_reserved":false,"is_disabled":false,"rental_uris":{"android":"levelo://app?vid=70b94188-dd85-4287-bf31-5400cc27b276","ios":"levelo://app?vid=70b94188-dd85-4287-bf31-5400cc27b276"},"vehicle_type_id":"4","last_reported":1720127242,"current_range_meters":29600,"station_id":"ce4bh692rcd13ifvqea0","pricing_plan_id":"cebpf4jnsgd1na2vs0mg"},{"bike_id":"e49804e4-bab2-4583-b4f5-763caecd1dda","system_id":"levelo_inurba_marseille","lat":43.290104,"lon":5.356111,"is_reserved":false,"is_disabled":false,"rental_uris":{"android":"levelo://app?vid=e49804e4-bab2-4583-b4f5-763caecd1dda","ios":"levelo://app?vid=e49804e4-bab2-4583-b4f5-763caecd1dda"},"vehicle_type_id":"4","last_reported":1720127242,"current_range_meters":18800,"station_id":"ce4bhb92rcd13ifvqen0","pricing_plan_id":"cebpf4jnsgd1na2vs0mg"},{"bike_id":"1973167d-95c9-4f55-989d-03d4e10e94d4","system_id":"levelo_inurba_marseille","lat":43.290995,"lon":5.381361,"is_reserved":false,"is_disabled":false,"rental_uris":{"android":"levelo://app?vid=1973167d-95c9-4f55-989d-03d4e10e94d4","ios":"levelo://app?vid=1973167d-95c9-4f55-989d-03d4e10e94d4"},"vehicle_type_id":"4","last_reported":1720127242,"current_range_meters":19200,"station_id":"ce4bh512rcd13ifvqe2g","pricing_plan_id":"cebpf4jnsgd1na2vs0mg"},{"bike_id":"2c527f6a-c6e3-40b2-9b78-c0ec67de08be","system_id":"levelo_inurba_marseille","lat":43.29098,"lon":5.38147,"is_reserved":false,"is_disabled":false,"rental_uris":{"android":"levelo://app?vid=2c527f6a-c6e3-40b2-9b78-c0ec67de08be","ios":"levelo://app?vid=2c527f6a-c6e3-40b2-9b78-c0ec67de08be"},"vehicle_type_id":"4","last_reported":1720127242,"current_range_meters":15200,"station_id":"ce4bh512rcd13ifvqe2g","pricing_plan_id":"cebpf4jnsgd1na2vs0mg"},{"bike_id":"bda306e8-1315-4ed8-965c-971ad947746e","system_id":"levelo_inurba_marseille","lat":43.290995,"lon":5.381361,"is_reserved":false,"is_disabled":false,"rental_uris":{"android":"levelo://app?vid=bda306e8-1315-4ed8-965c-971ad947746e","ios":"levelo://app?vid=bda306e8-1315-4ed8-965c-971ad947746e"},"vehicle_type_id":"4","last_reported":1720127242,"current_range_meters":800,"station_id":"ce4bh512rcd13ifvqe2g","pricing_plan_id":"cebpf4jnsgd1na2vs0mg"},{"bike_id":"d7071033-89fe-4940-9f86-3da55b36026b","system_id":"levelo_inurba_marseille","lat":43.29093,"lon":5.38139,"is_reserved":false,"is_disabled":false,"rental_uris":{"android":"levelo://app?vid=d7071033-89fe-4940-9f86-3da55b36026b","ios":"levelo://app?vid=d7071033-89fe-4940-9f86-3da55b36026b"},"vehicle_type_id":"4","last_reported":1720127242,"current_range_meters":1200,"station_id":"ce4bh512rcd13ifvqe2g","pricing_plan_id":"cebpf4jnsgd1na2vs0mg"},{"bike_id":"62775164-33fc-40c1-a7c0-2e1ad84a85f2","system_id":"levelo_inurba_marseille","lat":43.29785,"lon":5.39336,"is_reserved":false,"is_disabled":false,"rental_uris":{"android":"levelo://app?vid=62775164-33fc-40c1-a7c0-2e1ad84a85f2","ios":"levelo://app?vid=62775164-33fc-40c1-a7c0-2e1ad84a85f2"},"vehicle_type_id":"4","last_reported":1720127242,"current_range_meters":24000,"station_id":"chh1huq6cuj3fo74tm60","pricing_plan_id":"cebpf4jnsgd1na2vs0mg"},{"bike_id":"c8c3c8b1-8974-41fe-9313-9630f8fd3f34","system_id":"levelo_inurba_marseille","lat":43.297815,"lon":5.393548,"is_reserved":false,"is_disabled":false,"rental_uris":{"android":"levelo://app?vid=c8c3c8b1-8974-41fe-9313-9630f8fd3f34","ios":"levelo://app?vid=c8c3c8b1-8974-41fe-9313-9630f8fd3f34"},"vehicle_type_id":"4","last_reported":1720127242,"current_range_meters":10800,"station_id":"chh1huq6cuj3fo74tm60","pricing_plan_id":"cebpf4jnsgd1na2vs0mg"},{"bike_id":"1ea07acc-53cd-4a05-8944-2cabe3b66ac6","system_id":"levelo_inurba_marseille","lat":43.289741,"lon":5.378306,"is_reserved":false,"is_disabled":false,"rental_uris":{"android":"levelo://app?vid=1ea07acc-53cd-4a05-8944-2cabe3b66ac6","ios":"levelo://app?vid=1ea07acc-53cd-4a05-8944-2cabe3b66ac6"},"vehicle_type_id":"4","last_reported":1720127242,"current_range_meters":800,"station_id":"ce4bh9p2rcd13ifvqed0","pricing_plan_id":"cebpf4jnsgd1na2vs0mg"},{"bike_id":"336f817d-db7c-4438-969e-b723fe86688c","system_id":"levelo_inurba_marseille","lat":43.330442,"lon":5.389148,"is_reserved":false,"is_disabled":false,"rental_uris":{"android":"levelo://app?vid=336f817d-db7c-4438-969e-b723fe86688c","ios":"levelo://app?vid=336f817d-db7c-4438-969e-b723fe86688c"},"vehicle_type_id":"4","last_reported":1720127242,"current_range_meters":10400,"station_id":"ce4bhr92rcd13ifvqhrg","pricing_plan_id":"cebpf4jnsgd1na2vs0mg"},{"bike_id":"fcf3232f-0cdf-42e9-a06a-8ac3905ce0c8","system_id":"levelo_inurba_marseille","lat":43.330442,"lon":5.389148,"is_reserved":false,"is_disabled":false,"rental_uris":{"android":"levelo://app?vid=fcf3232f-0cdf-42e9-a06a-8ac3905ce0c8","ios":"levelo://app?vid=fcf3232f-0cdf-42e9-a06a-8ac3905ce0c8"},"vehicle_type_id":"4","last_reported":1720127242,"current_range_meters":16400,"station_id":"ce4bhr92rcd13ifvqhrg","pricing_plan_id":"cebpf4jnsgd1na2vs0mg"},{"bike_id":"7fe70591-06e0-4acd-873c-93a4e6b906b6","system_id":"levelo_inurba_marseille","lat":43.330442,"lon":5.389148,"is_reserved":false,"is_disabled":false,"rental_uris":{"android":"levelo://app?vid=7fe70591-06e0-4acd-873c-93a4e6b906b6","ios":"levelo://app?vid=7fe70591-06e0-4acd-873c-93a4e6b906b6"},"vehicle_type_id":"4","last_reported":1720127242,"current_range_meters":800,"station_id":"ce4bhr92rcd13ifvqhrg","pricing_plan_id":"cebpf4jnsgd1na2vs0mg"},{"bike_id":"c41e3f2d-2567-4532-b23c-102cf90dbeaf","system_id":"levelo_inurba_marseille","lat":43.330442,"lon":5.389148,"is_reserved":false,"is_disabled":false,"rental_uris":{"android":"levelo://app?vid=c41e3f2d-2567-4532-b23c-102cf90dbeaf","ios":"levelo://app?vid=c41e3f2d-2567-4532-b23c-102cf90dbeaf"},"vehicle_type_id":"4","last_reported":1720127242,"current_range_meters":15200,"station_id":"ce4bhr92rcd13ifvqhrg","pricing_plan_id":"cebpf4jnsgd1na2vs0mg"},{"bike_id":"3081c7ad-dc5e-4c48-b099-7de88145ab1a","system_id":"levelo_inurba_marseille","lat":43.330442,"lon":5.389148,"is_reserved":false,"is_disabled":false,"rental_uris":{"android":"levelo://app?vid=3081c7ad-dc5e-4c48-b099-7de88145ab1a","ios":"levelo://app?vid=3081c7ad-dc5e-4c48-b099-7de88145ab1a"},"vehicle_type_id":"4","last_reported":1720127242,"current_range_meters":23600,"station_id":"ce4bhr92rcd13ifvqhrg","pricing_plan_id":"cebpf4jnsgd1na2vs0mg"},{"bike_id":"11d3711c-0058-4123-aec4-30a9956911bf","system_id":"levelo_inurba_marseille","lat":43.289741,"lon":5.378306,"is_reserved":false,"is_disabled":false,"rental_uris":{"android":"levelo://app?vid=11d3711c-0058-4123-aec4-30a9956911bf","ios":"levelo://app?vid=11d3711c-0058-4123-aec4-30a9956911bf"},"vehicle_type_id":"4","last_reported":1720127242,"current_range_meters":29600,"station_id":"ce4bh9p2rcd13ifvqed0","pricing_plan_id":"cebpf4jnsgd1na2vs0mg"},{"bike_id":"80228491-db5a-425d-97c5-71c57c805796","system_id":"levelo_inurba_marseille","lat":43.290094,"lon":5.381264,"is_reserved":false,"is_disabled":false,"rental_uris":{"android":"levelo://app?vid=80228491-db5a-425d-97c5-71c57c805796","ios":"levelo://app?vid=80228491-db5a-425d-97c5-71c57c805796"},"vehicle_type_id":"4","last_reported":1720127242,"current_range_meters":25200,"station_id":"ce4bh4p2rcd13ifvqe1g","pricing_plan_id":"cebpf4jnsgd1na2vs0mg"},{"bike_id":"e0211ad6-48b1-40fe-b064-559b2baada49","system_id":"levelo_inurba_marseille","lat":43.290094,"lon":5.381264,"is_reserved":false,"is_disabled":false,"rental_uris":{"android":"levelo://app?vid=e0211ad6-48b1-40fe-b064-559b2baada49","ios":"levelo://app?vid=e0211ad6-48b1-40fe-b064-559b2baada49"},"vehicle_type_id":"4","last_reported":1720127242,"current_range_meters":400,"station_id":"ce4bh4p2rcd13ifvqe1g","pricing_plan_id":"cebpf4jnsgd1na2vs0mg"},{"bike_id":"1bbe3b21-ba53-4061-a12d-2b4939dca36c","system_id":"levelo_inurba_marseille","lat":43.290094,"lon":5.381264,"is_reserved":false,"is_disabled":false,"rental_uris":{"android":"levelo://app?vid=1bbe3b21-ba53-4061-a12d-2b4939dca36c","ios":"levelo://app?vid=1bbe3b21-ba53-4061-a12d-2b4939dca36c"},"vehicle_type_id":"4","last_reported":1720127242,"current_range_meters":0,"station_id":"ce4bh4p2rcd13ifvqe1g","pricing_plan_id":"cebpf4jnsgd1na2vs0mg"},{"bike_id":"5f3173eb-a6f6-4b4d-b0b6-d9262dff1d1e","system_id":"levelo_inurba_marseille","lat":43.2901,"lon":5.381269,"is_reserved":false,"is_disabled":false,"rental_uris":{"android":"levelo://app?vid=5f3173eb-a6f6-4b4d-b0b6-d9262dff1d1e","ios":"levelo://app?vid=5f3173eb-a6f6-4b4d-b0b6-d9262dff1d1e"},"vehicle_type_id":"4","last_reported":1720127242,"current_range_meters":0,"station_id":"ce4bh4p2rcd13ifvqe1g","pricing_plan_id":"cebpf4jnsgd1na2vs0mg"},{"bike_id":"843ecdb3-308d-4cad-a332-10a45af8eca8","system_id":"levelo_inurba_marseille","lat":43.2885,"lon":5.35857,"is_reserved":false,"is_disabled":false,"rental_uris":{"android":"levelo://app?vid=843ecdb3-308d-4cad-a332-10a45af8eca8","ios":"levelo://app?vid=843ecdb3-308d-4cad-a332-10a45af8eca8"},"vehicle_type_id":"4","last_reported":1720127242,"current_range_meters":17200,"station_id":"ce4bhb12rcd13ifvqem0","pricing_plan_id":"cebpf4jnsgd1na2vs0mg"},{"bike_id":"9d7fe841-cbe1-4188-a16c-4672dfb65486","system_id":"levelo_inurba_marseille","lat":43.28856,"lon":5.358371,"is_reserved":false,"is_disabled":false,"rental_uris":{"android":"levelo://app?vid=9d7fe841-cbe1-4188-a16c-4672dfb65486","ios":"levelo://app?vid=9d7fe841-cbe1-4188-a16c-4672dfb65486"},"vehicle_type_id":"4","last_reported":1720127242,"current_range_meters":4400,"station_id":"ce4bhb12rcd13ifvqem0","pricing_plan_id":"cebpf4jnsgd1na2vs0mg"},{"bike_id":"35a5c68b-3f3a-4b64-a20d-faa7c7efd968","system_id":"levelo_inurba_marseille","lat":43.33729,"lon":5.37388,"is_reserved":false,"is_disabled":false,"rental_uris":{"android":"levelo://app?vid=35a5c68b-3f3a-4b64-a20d-faa7c7efd968","ios":"levelo://app?vid=35a5c68b-3f3a-4b64-a20d-faa7c7efd968"},"vehicle_type_id":"4","last_reported":1720127242,"current_range_meters":29600,"station_id":"","pricing_plan_id":"cebpf4jnsgd1na2vs0mg"},{"bike_id":"61a124c6-7fd1-45f5-954d-3c86c43c368d","system_id":"levelo_inurba_marseille","lat":43.3374,"lon":5.37444,"is_reserved":false,"is_disabled":false,"rental_uris":{"android":"levelo://app?vid=61a124c6-7fd1-45f5-954d-3c86c43c368d","ios":"levelo://app?vid=61a124c6-7fd1-45f5-954d-3c86c43c368d"},"vehicle_type_id":"4","last_reported":1720127242,"current_range_meters":26800,"station_id":"","pricing_plan_id":"cebpf4jnsgd1na2vs0mg"},{"bike_id":"e1596da8-3841-488f-adf9-c63dc2bd8292","system_id":"levelo_inurba_marseille","lat":43.3374,"lon":5.37448,"is_reserved":false,"is_disabled":false,"rental_uris":{"android":"levelo://app?vid=e1596da8-3841-488f-adf9-c63dc2bd8292","ios":"levelo://app?vid=e1596da8-3841-488f-adf9-c63dc2bd8292"},"vehicle_type_id":"4","last_reported":1720127242,"current_range_meters":3600,"station_id":"","pricing_plan_id":"cebpf4jnsgd1na2vs0mg"},{"bike_id":"967ccb9d-cc43-4aba-8a14-0fca8191b339","system_id":"levelo_inurba_marseille","lat":43.312747,"lon":5.401683,"is_reserved":false,"is_disabled":false,"rental_uris":{"android":"levelo://app?vid=967ccb9d-cc43-4aba-8a14-0fca8191b339","ios":"levelo://app?vid=967ccb9d-cc43-4aba-8a14-0fca8191b339"},"vehicle_type_id":"4","last_reported":1720127242,"current_range_meters":0,"station_id":"ce4bh092rcd13ifvqd30","pricing_plan_id":"cebpf4jnsgd1na2vs0mg"},{"bike_id":"668b6270-367b-4f6c-b750-d67dec44cb4f","system_id":"levelo_inurba_marseille","lat":43.337436,"lon":5.374544,"is_reserved":false,"is_disabled":false,"rental_uris":{"android":"levelo://app?vid=668b6270-367b-4f6c-b750-d67dec44cb4f","ios":"levelo://app?vid=668b6270-367b-4f6c-b750-d67dec44cb4f"},"vehicle_type_id":"4","last_reported":1720127242,"current_range_meters":24400,"station_id":"","pricing_plan_id":"cebpf4jnsgd1na2vs0mg"},{"bike_id":"350dfeb4-3df7-47ec-bb69-08ad5482c10c","system_id":"levelo_inurba_marseille","lat":43.337483,"lon":5.374414,"is_reserved":false,"is_disabled":false,"rental_uris":{"android":"levelo://app?vid=350dfeb4-3df7-47ec-bb69-08ad5482c10c","ios":"levelo://app?vid=350dfeb4-3df7-47ec-bb69-08ad5482c10c"},"vehicle_type_id":"4","last_reported":1720127242,"current_range_meters":28800,"station_id":"","pricing_plan_id":"cebpf4jnsgd1na2vs0mg"},{"bike_id":"f7b90582-72ef-44b9-be3c-10965a5f20f8","system_id":"levelo_inurba_marseille","lat":43.337524,"lon":5.374469,"is_reserved":false,"is_disabled":false,"rental_uris":{"android":"levelo://app?vid=f7b90582-72ef-44b9-be3c-10965a5f20f8","ios":"levelo://app?vid=f7b90582-72ef-44b9-be3c-10965a5f20f8"},"vehicle_type_id":"4","last_reported":1720127242,"current_range_meters":24800,"station_id":"","pricing_plan_id":"cebpf4jnsgd1na2vs0mg"},{"bike_id":"95f91891-7abb-4bc1-ad3a-80dd3e134f8e","system_id":"levelo_inurba_marseille","lat":43.337573,"lon":5.374437,"is_reserved":false,"is_disabled":false,"rental_uris":{"android":"levelo://app?vid=95f91891-7abb-4bc1-ad3a-80dd3e134f8e","ios":"levelo://app?vid=95f91891-7abb-4bc1-ad3a-80dd3e134f8e"},"vehicle_type_id":"4","last_reported":1720127242,"current_range_meters":29200,"station_id":"","pricing_plan_id":"cebpf4jnsgd1na2vs0mg"},