{"last_updated":1769509009,"ttl":60,"version":"2.2","data":{"bikes":[{"bike_id":"4f9646d0-e890-4075-9fb7-8871574ea59d","system_id":"levelo_inurba_marseille","lat":43.25022,"lon":5.38924,"is_reserved":false,"is_disabled":false,"rental_uris":{"android":"levelo://app?vid=4f9646d0-e890-4075-9fb7-8871574ea59d","ios":"levelo://app?vid=4f9646d0-e890-4075-9fb7-8871574ea59d"},"vehicle_type_id":"4","last_reported":1769509009,"current_range_meters":2800,"station_id":"","pricing_plan_id":"cebpf4jnsgd1na2vs0mg"},{"bike_id":"0554af7b-4d97-4b09-bc8a-ccbbde3b5abf","system_id":"levelo_inurba_marseille","lat":43.24092,"lon":5.37765,"is_reserved":false,"is_disabled":true,"rental_uris":{"android":"levelo://app?vid=0554af7b-4d97-4b09-bc8a-ccbbde3b5abf","ios":"levelo://app?vid=0554af7b-4d97-4b09-bc8a-ccbbde3b5abf"},"vehicle_type_id":"4","last_reported":1769509009,"current_range_meters":2800,"station_id":"ce4bhnp2rcd13ifvqgvg","pricing_plan_id":"cebpf4jnsgd1na2vs0mg"},{"bike_id":"aad7b803-dfd1-4ecc-bb70-a7763853720c","system_id":"levelo_inurba_marseille","lat":43.26685,"lon":5.3827,"is_reserved":false,"is_disabled":false,"rental_uris":{"android":"levelo://app?vid=aad7b803-dfd1-4ecc-bb70-a7763853720c","ios":"levelo://app?vid=aad7b803-dfd1-4ecc-bb70-a7763853720c"},"vehicle_type_id":"4","last_reported":1769509009,"current_range_meters":2800,"station_id":"ce4bhg92rcd13ifvqf90","pricing_plan_id":"cebpf4jnsgd1na2vs0mg"},{"bike_id":"87fa385e-b2b0-424a-b2ce-8af5f303f89a","system_id":"levelo_inurba_marseille","lat":43.31187,"lon":5.38522,"is_reserved":false,"is_disabled":false,"rental_uris":{"android":"levelo://app?vid=87fa385e-b2b0-424a-b2ce-8af5f303f89a","ios":"levelo://app?vid=87fa385e-b2b0-424a-b2ce-8af5f303f89a"},"vehicle_type_id":"4","last_reported":1769509009,"current_range_meters":2800,"station_id":"","pricing_plan_id":"cebpf4jnsgd1na2vs0mg"},{"bike_id":"1d4557f2-9194-433e-908c-7af0a931319a","system_id":"levelo_inurba_marseille","lat":43.25504,"lon":5.37668,"is_reserved":false,"is_disabled":false,"rental_uris":{"android":"levelo://app?vid=1d4557f2-9194-433e-908c-7af0a931319a","ios":"levelo://app?vid=1d4557f2-9194-433e-908c-7af0a931319a"},"vehicle_type_id":"4","last_reported":1769509009,"current_range_meters":3200,"station_id":"ce4bhh12rcd13ifvqff0","pricing_plan_id":"cebpf4jnsgd1na2vs0mg"},{"bike_id":"8fcc7dfb-9afa-4b40-8aed-c00c1dd819d8","system_id":"levelo_inurba_marseille","lat":43.31108,"lon":5.37826,"is_reserved":false,"is_disabled":false,"rental_uris":{"android":"levelo://app?vid=8fcc7dfb-9afa-4b40-8aed-c00c1dd819d8","ios":"levelo://app?vid=8fcc7dfb-9afa-4b40-8aed-c00c1dd819d8"},"vehicle_type_id":"4","last_reported":1769509009,"current_range_meters":3200,"station_id":"ce4bgt92rcd13ifvqcg0","pricing_plan_id":"cebpf4jnsgd1na2vs0mg"},{"bike_id":"a31c88fe-eab3-4a9e-bb85-de943818a780","system_id":"levelo_inurba_marseille","lat":43.23777,"lon":5.36639,"is_reserved":false,"is_disabled":false,"rental_uris":{"android":"levelo://app?vid=a31c88fe-eab3-4a9e-bb85-de943818a780","ios":"levelo://app?vid=a31c88fe-eab3-4a9e-bb85-de943818a780"},"vehicle_type_id":"4","last_reported":1769509009,"current_range_meters":3200,"station_id":"st_d3nk18o9ro0c73en2l3g","pricing_plan_id":"cebpf4jnsgd1na2vs0mg"},{"bike_id":"2e7dad9e-9695-44d6-bc96-ef3eee5dfbfa","system_id":"levelo_inurba_marseille","lat":43.31413,"lon":5.3668,"is_reserved":false,"is_disabled":false,"rental_uris":{"android":"levelo://app?vid=2e7dad9e-9695-44d6-bc96-ef3eee5dfbfa","ios":"levelo://app?vid=2e7dad9e-9695-44d6-bc96-ef3eee5dfbfa"},"vehicle_type_id":"4","last_reported":1769509009,"current_range_meters":3200,"station_id":"","pricing_plan_id":"cebpf4jnsgd1na2vs0mg"},{"bike_id":"a85c4dff-4d0e-447f-be35-ab46b7400fe4","system_id":"levelo_inurba_marseille","lat":43.24812,"lon":5.37457,"is_reserved":false,"is_disabled":false,"rental_uris":{"android":"levelo://app?vid=a85c4dff-4d0e-447f-be35-ab46b7400fe4","ios":"levelo://app?vid=a85c4dff-4d0e-447f-be35-ab46b7400fe4"},"vehicle_type_id":"4","last_reported":1769509009,"current_range_meters":3200,"station_id":"ce4bhgh2rcd13ifvqfb0","pricing_plan_id":"cebpf4jnsgd1na2vs0mg"},{"bike_id":"2b83d5a6-059e-4465-ab85-f21543e1c30e","system_id":"levelo_inurba_marseille","lat":43.2395,"lon":5.36673,"is_reserved":false,"is_disabled":false,"rental_uris":{"android":"levelo://app?vid=2b83d5a6-059e-4465-ab85-f21543e1c30e","ios":"levelo://app?vid=2b83d5a6-059e-4465-ab85-f21543e1c30e"},"vehicle_type_id":"4","last_reported":1769509009,"current_range_meters":3200,"station_id":"ce4bhi12rcd13ifvqfp0","pricing_plan_id":"cebpf4jnsgd1na2vs0mg"},{"bike_id":"4cb54212-116b-4feb-9622-3a7d6acefd1b","system_id":"levelo_inurba_marseille","lat":43.23183,"lon":5.39991,"is_reserved":false,"is_disabled":false,"rental_uris":{"android":"levelo://app?vid=4cb54212-116b-4feb-9622-3a7d6acefd1b","ios":"levelo://app?vid=4cb54212-116b-4feb-9622-3a7d6acefd1b"},"vehicle_type_id":"4","last_reported":1769509009,"current_range_meters":3200,"station_id":"ce4bhn12rcd13ifvqgqg","pricing_plan_id":"cebpf4jnsgd1na2vs0mg"},{"bike_id":"1b209641-906c-4eed-9c8f-89dbf4074863","system_id":"levelo_inurba_marseille","lat":43.2955,"lon":5.42283,"is_reserved":false,"is_disabled":false,"rental_uris":{"android":"levelo://app?vid=1b209641-906c-4eed-9c8f-89dbf4074863","ios":"levelo://app?vid=1b209641-906c-4eed-9c8f-89dbf4074863"},"vehicle_type_id":"4","last_reported":1769509009,"current_range_meters":3200,"station_id":"ce4bhph2rcd13ifvqhdg","pricing_plan_id":"cebpf4jnsgd1na2vs0mg"},{"bike_id":"93c7ca3c-2e02-4311-a0d1-b461f66e2ced","system_id":"levelo_inurba_marseille","lat":43.314982,"lon":5.373115,"is_reserved":false,"is_disabled":false,"rental_uris":{"android":"levelo://app?vid=93c7ca3c-2e02-4311-a0d1-b461f66e2ced","ios":"levelo://app?vid=93c7ca3c-2e02-4311-a0d1-b461f66e2ced"},"vehicle_type_id":"4","last_reported":1769509009,"current_range_meters":3600,"station_id":"","pricing_plan_id":"cebpf4jnsgd1na2vs0mg"},{"bike_id":"908b886e-cc4b-4226-b372-446a0d3f1b77","system_id":"levelo_inurba_marseille","lat":43.23194,"lon":5.35559,"is_reserved":false,"is_disabled":false,"rental_uris":{"android":"levelo://app?vid=908b886e-cc4b-4226-b372-446a0d3f1b77","ios":"levelo://app?vid=908b886e-cc4b-4226-b372-446a0d3f1b77"},"vehicle_type_id":"4","last_reported":1769509009,"current_range_meters":3600,"station_id":"ce4bhu92rcd13ifvqi70","pricing_plan_id":"cebpf4jnsgd1na2vs0mg"},{"bike_id":"4300228c-a74d-4d37-940c-46e3542698e2","system_id":"levelo_inurba_marseille","lat":43.252373,"lon":5.406192,"is_reserved":false,"is_disabled":false,"rental_uris":{"android":"levelo://app?vid=4300228c-a74d-4d37-940c-46e3542698e2","ios":"levelo://app?vid=4300228c-a74d-4d37-940c-46e3542698e2"},"vehicle_type_id":"4","last_reported":1769509009,"current_range_meters":3600,"station_id":"ce4bhdp2rcd13ifvqf20","pricing_plan_id":"cebpf4jnsgd1na2vs0mg"},{"bike_id":"bf450fa3-4173-4dab-9209-a7b83c70437b","system_id":"levelo_inurba_marseille","lat":43.30476,"lon":5.37917,"is_reserved":false,"is_disabled":false,"rental_uris":{"android":"levelo://app?vid=bf450fa3-4173-4dab-9209-a7b83c70437b","ios":"levelo://app?vid=bf450fa3-4173-4dab-9209-a7b83c70437b"},"vehicle_type_id":"4","last_reported":1769509009,"current_range_meters":3600,"station_id":"ce4bgup2rcd13ifvqcn0","pricing_plan_id":"cebpf4jnsgd1na2vs0mg"},{"bike_id":"77c28fe0-5ae7-4aac-b4aa-5a886888a2e9","system_id":"levelo_inurba_marseille","lat":43.2794,"lon":5.41052,"is_reserved":false,"is_disabled":false,"rental_uris":{"android":"levelo://app?vid=77c28fe0-5ae7-4aac-b4aa-5a886888a2e9","ios":"levelo://app?vid=77c28fe0-5ae7-4aac-b4aa-5a886888a2e9"},"vehicle_type_id":"4","last_reported":1769509009,"current_range_meters":3600,"station_id":"ce4bhnp2rcd13ifvqh0g","pricing_plan_id":"cebpf4jnsgd1na2vs0mg"},{"bike_id":"03628ce2-f90f-4215-9e8f-4d1a2c153b49","system_id":"levelo_inurba_marseille","lat":43.24558,"lon":5.37338,"is_reserved":false,"is_disabled":false,"rental_uris":{"android":"levelo://app?vid=03628ce2-f90f-4215-9e8f-4d1a2c153b49","ios":"levelo://app?vid=03628ce2-f90f-4215-9e8f-4d1a2c153b49"},"vehicle_type_id":"4","last_reported":1769509009,"current_range_meters":3600,"station_id":"","pricing_plan_id":"cebpf4jnsgd1na2vs0mg"},{"bike_id":"a57ac1b9-36db-4721-8a5f-8013a4daf2e4","system_id":"levelo_inurba_marseille","lat":43.29794,"lon":5.44047,"is_reserved":false,"is_disabled":false,"rental_uris":{"android":"levelo://app?vid=a57ac1b9-36db-4721-8a5f-8013a4daf2e4","ios":"levelo://app?vid=a57ac1b9-36db-4721-8a5f-8013a4daf2e4"},"vehicle_type_id":"4","last_reported":1769509009,"current_range_meters":3600,"station_id":"","pricing_plan_id":"cebpf4jnsgd1na2vs0mg"},{"bike_id":"736929a0-d6a8-4f12-8769-fcb0d31195b2","system_id":"levelo_inurba_marseille","lat":43.27849,"lon":5.40382,"is_reserved":false,"is_disabled":false,"rental_uris":{"android":"levelo://app?vid=736929a0-d6a8-4f12-8769-fcb0d31195b2","ios":"levelo://app?vid=736929a0-d6a8-4f12-8769-fcb0d31195b2"},"vehicle_type_id":"4","last_reported":1769509009,"current_range_meters":3600,"station_id":"","pricing_plan_id":"cebpf4jnsgd1na2vs0mg"},{"bike_id":"e73f1781-62f4-4a23-b153-6815bc29f05e","system_id":"levelo_inurba_marseille","lat":43.29318,"lon":5.41194,"is_reserved":false,"is_disabled":false,"rental_uris":{"android":"levelo://app?vid=e73f1781-62f4-4a23-b153-6815bc29f05e","ios":"levelo://app?vid=e73f1781-62f4-4a23-b153-6815bc29f05e"},"vehicle_type_id":"4","last_reported":1769509009,"current_range_meters":3600,"station_id":"","pricing_plan_id":"cebpf4jnsgd1na2vs0mg"},{"bike_id":"74f1086e-5d41-4227-9df7-7d4ec143062b","system_id":"levelo_inurba_marseille","lat":43.30798,"lon":5.38162,"is_reserved":false,"is_disabled":false,"rental_uris":{"android":"levelo://app?vid=74f1086e-5d41-4227-9df7-7d4ec143062b","ios":"levelo://app?vid=74f1086e-5d41-4227-9df7-7d4ec143062b"},"vehicle_type_id":"4","last_reported":1769509009,"current_range_meters":4000,"station_id":"ce4bgt12rcd13ifvqce0","pricing_plan_id":"cebpf4jnsgd1na2vs0mg"},{"bike_id":"8d9ad3d9-4c15-4c30-abee-db463e2f96fd","system_id":"levelo_inurba_marseille","lat":43.30609,"lon":5.39352,"is_reserved":false,"is_disabled":false,"rental_uris":{"android":"levelo://app?vid=8d9ad3d9-4c15-4c30-abee-db463e2f96fd","ios":"levelo://app?vid=8d9ad3d9-4c15-4c30-abee-db463e2f96fd"},"vehicle_type_id":"4","last_reported":1769509009,"current_range_meters":4000,"station_id":"ce4bh0p2rcd13ifvqd80","pricing_plan_id":"cebpf4jnsgd1na2vs0mg"},{"bike_id":"d0e989b6-ff01-49d6-9700-5a9dd7c3ac5f","system_id":"levelo_inurba_marseille","lat":43.27204,"lon":5.39168,"is_reserved":false,"is_disabled":false,"rental_uris":{"android":"levelo://app?vid=d0e989b6-ff01-49d6-9700-5a9dd7c3ac5f","ios":"levelo://app?vid=d0e989b6-ff01-49d6-9700-5a9dd7c3ac5f"},"vehicle_type_id":"4","last_reported":1769509009,"current_range_meters":4000,"station_id":"ce4bhhp2rcd13ifvqfm0","pricing_plan_id":"cebpf4jnsgd1na2vs0mg"},{"bike_id":"d3171628-f276-40c2-8bba-b7bc2baa35b0","system_id":"levelo_inurba_marseille","lat":43.24067,"lon":5.37763,"is_reserved":false,"is_disabled":false,"rental_uris":{"android":"levelo://app?vid=d3171628-f276-40c2-8bba-b7bc2baa35b0","ios":"levelo://app?vid=d3171628-f276-40c2-8bba-b7bc2baa35b0"},"vehicle_type_id":"4","last_reported":1769509009,"current_range_meters":4000,"station_id":"ce4bhnp2rcd13ifvqgvg","pricing_plan_id":"cebpf4jnsgd1na2vs0mg"},{"bike_id":"9a3bd7cd-c173-401e-aeca-1c31c6626124","system_id":"levelo_inurba_marseille","lat":43.25513,"lon":5.3766,"is_reserved":false,"is_disabled":false,"rental_uris":{"android":"levelo://app?vid=9a3bd7cd-c173-401e-aeca-1c31c6626124","ios":"levelo://app?vid=9a3bd7cd-c173-401e-aeca-1c31c6626124"},"vehicle_type_id":"4","last_reported":1769509009,"current_range_meters":4000,"station_id":"ce4bhh12rcd13ifvqff0","pricing_plan_id":"cebpf4jnsgd1na2vs0mg"},{"bike_id":"db9c03c2-9b01-4225-936a-49087960dd5e","system_id":"levelo_inurba_marseille","lat":43.29496,"lon":5.43315,"is_reserved":false,"is_disabled":false,"rental_uris":{"android":"levelo://app?vid=db9c03c2-9b01-4225-936a-49087960dd5e","ios":"levelo://app?vid=db9c03c2-9b01-4225-936a-49087960dd5e"},"vehicle_type_id":"4","last_reported":1769509009,"current_range_meters":4400,"station_id":"st_d3j5ugp08ojc73fj9d10","pricing_plan_id":"cebpf4jnsgd1na2vs0mg"},{"bike_id":"5b91b93d-b3ae-4751-8498-b1dabc506a1f","system_id":"levelo_inurba_marseille","lat":43.24476,"lon":5.42546,"is_reserved":false,"is_disabled":false,"rental_uris":{"android":"levelo://app?vid=5b91b93d-b3ae-4751-8498-b1dabc506a1f","ios":"levelo://app?vid=5b91b93d-b3ae-4751-8498-b1dabc506a1f"},"vehicle_type_id":"4","last_reported":1769509009,"current_range_meters":4400,"station_id":"st_d4a3vfp97mjs738cd8kg","pricing_plan_id":"cebpf4jnsgd1na2vs0mg"},{"bike_id":"baba95ea-c4ee-4958-b729-8215b2b843c8","system_id":"levelo_inurba_marseille","lat":43.33157,"lon":5.37692,"is_reserved":false,"is_disabled":false,"rental_uris":{"android":"levelo://app?vid=baba95ea-c4ee-4958-b729-8215b2b843c8","ios":"levelo://app?vid=baba95ea-c4ee-4958-b729-8215b2b843c8"},"vehicle_type_id":"4","last_reported":1769509009,"current_range_meters":4400,"station_id":"st_d46cu089ee8s73dldbu0","pricing_plan_id":"cebpf4jnsgd1na2vs0mg"},{"bike_id":"898169fa-29c0-4349-a185-41ab96475b8a","system_id":"levelo_inurba_marseille","lat":43.250035,"lon":5.389104,"is_reserved":false,"is_disabled":false,"rental_uris":{"android":"levelo://app?vid=898169fa-29c0-4349-a185-41ab96475b8a","ios":"levelo://app?vid=898169fa-29c0-4349-a185-41ab96475b8a"},"vehicle_type_id":"4","last_reported":1769509009,"current_range_meters":4400,"station_id":"ce4bhgp2rcd13ifvqfd0","pricing_plan_id":"cebpf4jnsgd1na2vs0mg"},{"bike_id":"062ac5f5-90b2-4964-8a95-05a79098170a","system_id":"levelo_inurba_marseille","lat":43.244642,"lon":5.425339,"is_reserved":false,"is_disabled":false,"rental_uris":{"android":"levelo://app?vid=062ac5f5-90b2-4964-8a95-05a79098170a","ios":"levelo://app?vid=062ac5f5-90b2-4964-8a95-05a79098170a"},"vehicle_type_id":"4","last_reported":1769509009,"current_range_meters":4400,"station_id":"","pricing_plan_id":"cebpf4jnsgd1na2vs0mg"},{"bike_id":"9ab8ecac-aeb3-4a0c-a494-377ef9a5914e","system_id":"levelo_inurba_marseille","lat":43.28426,"lon":5.35002,"is_reserved":false,"is_disabled":false,"rental_uris":{"android":"levelo://app?vid=9ab8ecac-aeb3-4a0c-a494-377ef9a5914e","ios":"levelo://app?vid=9ab8ecac-aeb3-4a0c-a494-377ef9a5914e"},"vehicle_type_id":"4","last_reported":1769509009,"current_range_meters":4400,"station_id":"ce4bhbh2rcd13ifvqepg","pricing_plan_id":"cebpf4jnsgd1na2vs0mg"},{"bike_id":"cfb67ada-34b1-419c-91f0-868c9be1a48b","system_id":"levelo_inurba_marseille","lat":43.24176,"lon":5.36422,"is_reserved":false,"is_disabled":false,"rental_uris":{"android":"levelo://app?vid=cfb67ada-34b1-419c-91f0-868c9be1a48b","ios":"levelo://app?vid=cfb67ada-34b1-419c-91f0-868c9be1a48b"},"vehicle_type_id":"4","last_reported":1769509009,"current_range_meters":4800,"station_id":"cpo36qri1sfpv3e86is0","pricing_plan_id":"cebpf4jnsgd1na2vs0mg"},{"bike_id":"daab4c5f-eb65-4192-89dd-6363e81a674d","system_id":"levelo_inurba_marseille","lat":43.27533,"lon":5.40951,"is_reserved":false,"is_disabled":false,"rental_uris":{"android":"levelo://app?vid=daab4c5f-eb65-4192-89dd-6363e81a674d","ios":"levelo://app?vid=daab4c5f-eb65-4192-89dd-6363e81a674d"},"vehicle_type_id":"4","last_reported":1769509009,"current_range_meters":4800,"station_id":"","pricing_plan_id":"cebpf4jnsgd1na2vs0mg"},{"bike_id":"2e56e0de-f8d6-44d0-a2bc-1be0c0e19b40","system_id":"levelo_inurba_marseille","lat":43.2847,"lon":5.35007,"is_reserved":false,"is_disabled":false,"rental_uris":{"android":"levelo://app?vid=2e56e0de-f8d6-44d0-a2bc-1be0c0e19b40","ios":"levelo://app?vid=2e56e0de-f8d6-44d0-a2bc-1be0c0e19b40"},"vehicle_type_id":"4","last_reported":1769509009,"current_range_meters":4800,"station_id":"ce4bhbh2rcd13ifvqepg","pricing_plan_id":"cebpf4jnsgd1na2vs0mg"},{"bike_id":"ccf326ac-ae0a-4ffb-a071-520b4c6f402c","system_id":"levelo_inurba_marseille","lat":43.332727,"lon":5.379568,"is_reserved":false,"is_disabled":false,"rental_uris":{"android":"levelo://app?vid=ccf326ac-ae0a-4ffb-a071-520b4c6f402c","ios":"levelo://app?vid=ccf326ac-ae0a-4ffb-a071-520b4c6f402c"},"vehicle_type_id":"4","last_reported":1769509009,"current_range_meters":4800,"station_id":"","pricing_plan_id":"cebpf4jnsgd1na2vs0mg"},{"bike_id":"c060f6fe-9c22-4601-a3d6-b324dc7e883d","system_id":"levelo_inurba_marseille","lat":43.229276,"lon":5.353771,"is_reserved":false,"is_disabled":false,"rental_uris":{"android":"levelo://app?vid=c060f6fe-9c22-4601-a3d6-b324dc7e883d","ios":"levelo://app?vid=c060f6fe-9c22-4601-a3d6-b324dc7e883d"},"vehicle_type_id":"4","last_reported":1769509009,"current_range_meters":4800,"station_id":"cpo3532slgdg3j2ikp40","pricing_plan_id":"cebpf4jnsgd1na2vs0mg"},{"bike_id":"79b6158d-49ea-4914-8da1-643529c2d44f","system_id":"levelo_inurba_marseille","lat":43.24666,"lon":5.38876,"is_reserved":false,"is_disabled":false,"rental_uris":{"android":"levelo://app?vid=79b6158d-49ea-4914-8da1-643529c2d44f","ios":"levelo://app?vid=79b6158d-49ea-4914-8da1-643529c2d44f"},"vehicle_type_id":"4","last_reported":1769509009,"current_range_meters":5600,"station_id":"ce4bhg12rcd13ifvqf60","pricing_plan_id":"cebpf4jnsgd1na2vs0mg"},{"bike_id":"e495c2f5-f80d-4df9-82ae-75a42acd9c16","system_id":"levelo_inurba_marseille","lat":43.27997,"lon":5.40004,"is_reserved":false,"is_disabled":false,"rental_uris":{"android":"levelo://app?vid=e495c2f5-f80d-4df9-82ae-75a42acd9c16","ios":"levelo://app?vid=e495c2f5-f80d-4df9-82ae-75a42acd9c16"},"vehicle_type_id":"4","last_reported":1769509009,"current_range_meters":5600,"station_id":"ce4bho92rcd13ifvqh4g","pricing_plan_id":"cebpf4jnsgd1na2vs0mg"},{"bike_id":"539af392-7350-492a-86ff-031e626096d7","system_id":"levelo_inurba_marseille","lat":43.32359,"lon":5.36742,"is_reserved":false,"is_disabled":false,"rental_uris":{"android":"levelo://app?vid=539af392-7350-492a-86ff-031e626096d7","ios":"levelo://app?vid=539af392-7350-492a-86ff-031e626096d7"},"vehicle_type_id":"4","last_reported":1769509009,"current_range_meters":5600,"station_id":"ce4bhsh2rcd13ifvqi2g","pricing_plan_id":"cebpf4jnsgd1na2vs0mg"},{"bike_id":"f90a7cba-5743-45de-a991-86993c3511a7","system_id":"levelo_inurba_marseille","lat":43.32351,"lon":5.36744,"is_reserved":false,"is_disabled":false,"rental_uris":{"android":"levelo://app?vid=f90a7cba-5743-45de-a991-86993c3511a7","ios":"levelo://app?vid=f90a7cba-5743-45de-a991-86993c3511a7"},"vehicle_type_id":"4","last_reported":1769509009,"current_range_meters":5600,"station_id":"ce4bhsh2rcd13ifvqi2g","pricing_plan_id":"cebpf4jnsgd1na2vs0mg"},{"bike_id":"0bd3fd33-ca42-4b1b-b0cd-6ec4b1ecd569","system_id":"levelo_inurba_marseille","lat":43.32599,"lon":5.37801,"is_reserved":false,"is_disabled":false,"rental_uris":{"android":"levelo://app?vid=0bd3fd33-ca42-4b1b-b0cd-6ec4b1ecd569","ios":"levelo://app?vid=0bd3fd33-ca42-4b1b-b0cd-6ec4b1ecd569"},"vehicle_type_id":"4","last_reported":1769509009,"current_range_meters":5600,"station_id":"","pricing_plan_id":"cebpf4jnsgd1na2vs0mg"},{"bike_id":"a0bfe93e-aea3-4bb7-8cfa-e184d63cadd4","system_id":"levelo_inurba_marseille","lat":43.269554,"lon":5.386356,"is_reserved":false,"is_disabled":false,"rental_uris":{"android":"levelo://app?vid=a0bfe93e-aea3-4bb7-8cfa-e184d63cadd4","ios":"levelo://app?vid=a0bfe93e-aea3-4bb7-8cfa-e184d63cadd4"},"vehicle_type_id":"4","last_reported":1769509009,"current_range_meters":5600,"station_id":"ce4bhh92rcd13ifvqfh0","pricing_plan_id":"cebpf4jnsgd1na2vs0mg"},{"bike_id":"4c5e84a3-878b-4e80-a848-d4891b4199bc","system_id":"levelo_inurba_marseille","lat":43.32345,"lon":5.36723,"is_reserved":false,"is_disabled":false,"rental_uris":{"android":"levelo://app?vid=4c5e84a3-878b-4e80-a848-d4891b4199bc","ios":"levelo://app?vid=4c5e84a3-878b-4e80-a848-d4891b4199bc"},"vehicle_type_id":"4","last_reported":1769509009,"current_range_meters":5600,"station_id":"ce4bhsh2rcd13ifvqi2g","pricing_plan_id":"cebpf4jnsgd1na2vs0mg"},{"bike_id":"61f9b512-dfe2-4c6f-b9eb-0a539aacc6ab","system_id":"levelo_inurba_marseille","lat":43.29895,"lon":5.43662,"is_reserved":false,"is_disabled":false,"rental_uris":{"android":"levelo://app?vid=61f9b512-dfe2-4c6f-b9eb-0a539aacc6ab","ios":"levelo://app?vid=61f9b512-dfe2-4c6f-b9eb-0a539aacc6ab"},"vehicle_type_id":"4","last_reported":1769509009,"current_range_meters":5600,"station_id":"ce4bhpp2rcd13ifvqhfg","pricing_plan_id":"cebpf4jnsgd1na2vs0mg"},{"bike_id":"a0e00311-6a2a-4749-989e-1f05cbea3e71","system_id":"levelo_inurba_marseille","lat":43.313388,"lon":5.367107,"is_reserved":false,"is_disabled":false,"rental_uris":{"android":"levelo://app?vid=a0e00311-6a2a-4749-989e-1f05cbea3e71","ios":"levelo://app?vid=a0e00311-6a2a-4749-989e-1f05cbea3e71"},"vehicle_type_id":"4","last_reported":1769509009,"current_range_meters":5600,"station_id":"ce4bgr92rcd13ifvqc6g","pricing_plan_id":"cebpf4jnsgd1na2vs0mg"},{"bike_id":"62689e11-30b2-4cf7-a0a0-b39283952b26","system_id":"levelo_inurba_marseille","lat":43.24467,"lon":5.42528,"is_reserved":false,"is_disabled":false,"rental_uris":{"android":"levelo://app?vid=62689e11-30b2-4cf7-a0a0-b39283952b26","ios":"levelo://app?vid=62689e11-30b2-4cf7-a0a0-b39283952b26"},"vehicle_type_id":"4","last_reported":1769509009,"current_range_meters":5600,"station_id":"st_d4a3vfp97mjs738cd8kg","pricing_plan_id":"cebpf4jnsgd1na2vs0mg"},{"bike_id":"ede5eae9-eb5f-4ac9-bc61-3fa74fdf714e","system_id":"levelo_inurba_marseille","lat":43.292739,"lon":5.368508,"is_reserved":false,"is_disabled":false,"rental_uris":{"android":"levelo://app?vid=ede5eae9-eb5f-4ac9-bc61-3fa74fdf714e","ios":"levelo://app?vid=ede5eae9-eb5f-4ac9-bc61-3fa74fdf714e"},"vehicle_type_id":"4","last_reported":1769509009,"current_range_meters":5600,"station_id":"ce4bhbp2rcd13ifvqesg","pricing_plan_id":"cebpf4jnsgd1na2vs0mg"},{"bike_id":"5be68105-477a-4926-9923-7b5ffbb88956","system_id":"levelo_inurba_marseille","lat":43.28555,"lon":5.441,"is_reserved":false,"is_disabled":false,"rental_uris":{"android":"levelo://app?vid=5be68105-477a-4926-9923-7b5ffbb88956","ios":"levelo://app?vid=5be68105-477a-4926-9923-7b5ffbb88956"},"vehicle_type_id":"4","last_reported":1769509009,"current_range_meters":5600,"station_id":"st_d3j3df2ikq2c7380ej80","pricing_plan_id":"cebpf4jnsgd1na2vs0mg"},{"bike_id":"fcf7a98f-1fd5-4e85-9314-c14ad8323d94","system_id":"levelo_inurba_marseille","lat":43.3116,"lon":5.39367,"is_reserved":false,"is_disabled":false,"rental_uris":{"android":"levelo://app?vid=fcf7a98f-1fd5-4e85-9314-c14ad8323d94","ios":"levelo://app?vid=fcf7a98f-1fd5-4e85-9314-c14ad8323d94"},"vehicle_type_id":"4","last_reported":1769509009,"current_range_meters":6000,"station_id":"","pricing_plan_id":"cebpf4jnsgd1na2vs0mg"},{"bike_id":"abe3f4a1-7241-420f-a757-2993be441687","system_id":"levelo_inurba_marseille","lat":43.2893,"lon":5.364,"is_reserved":false,"is_disabled":false,"rental_uris":{"android":"levelo://app?vid=abe3f4a1-7241-420f-a757-2993be441687","ios":"levelo://app?vid=abe3f4a1-7241-420f-a757-2993be441687"},"vehicle_type_id":"4","last_reported":1769509009,"current_range_meters":6000,"station_id":"ce4bhc92rcd13ifvqetg","pricing_plan_id":"cebpf4jnsgd1na2vs0mg"},{"bike_id":"ddf0627f-8ae1-4070-900d-7896689996f7","system_id":"levelo_inurba_marseille","lat":43.249942,"lon":5.389374,"is_reserved":false,"is_disabled":false,"rental_uris":{"android":"levelo://app?vid=ddf0627f-8ae1-4070-900d-7896689996f7","ios":"levelo://app?vid=ddf0627f-8ae1-4070-900d-7896689996f7"},"vehicle_type_id":"4","last_reported":1769509009,"current_range_meters":6000,"station_id":"ce4bhgp2rcd13ifvqfd0","pricing_plan_id":"cebpf4jnsgd1na2vs0mg"},{"bike_id":"628d1d29-948b-4815-bc3f-a0ef2ac1c781","system_id":"levelo_inurba_marseille","lat":43.24168,"lon":5.36393,"is_reserved":false,"is_disabled":false,"rental_uris":{"android":"levelo://app?vid=628d1d29-948b-4815-bc3f-a0ef2ac1c781","ios":"levelo://app?vid=628d1d29-948b-4815-bc3f-a0ef2ac1c781"},"vehicle_type_id":"4","last_reported":1769509009,"current_range_meters":6000,"station_id":"cpo36qri1sfpv3e86is0","pricing_plan_id":"cebpf4jnsgd1na2vs0mg"},{"bike_id":"74975ee5-cc21-4f8d-8ef0-3c4b42557576","system_id":"levelo_inurba_marseille","lat":43.32126,"lon":5.36775,"is_reserved":false,"is_disabled":false,"rental_uris":{"android":"levelo://app?vid=74975ee5-cc21-4f8d-8ef0-3c4b42557576","ios":"levelo://app?vid=74975ee5-cc21-4f8d-8ef0-3c4b42557576"},"vehicle_type_id":"4","last_reported":1769509009,"current_range_meters":6000,"station_id":"ce4bhrh2rcd13ifvqhug","pricing_plan_id":"cebpf4jnsgd1na2vs0mg"},{"bike_id":"b42265f2-22a6-4dc7-a5e2-a1d7b80fef7e","system_id":"levelo_inurba_marseille","lat":43.29595,"lon":5.3776,"is_reserved":false,"is_disabled":false,"rental_uris":{"android":"levelo://app?vid=b42265f2-22a6-4dc7-a5e2-a1d7b80fef7e","ios":"levelo://app?vid=b42265f2-22a6-4dc7-a5e2-a1d7b80fef7e"},"vehicle_type_id":"4","last_reported":1769509009,"current_range_meters":6000,"station_id":"","pricing_plan_id":"cebpf4jnsgd1na2vs0mg"},{"bike_id":"fe78e212-9570-4f43-bb59-7c32b282ccdf","system_id":"levelo_inurba_marseille","lat":43.27004,"lon":5.38776,"is_reserved":false,"is_disabled":false,"rental_uris":{"android":"levelo://app?vid=fe78e212-9570-4f43-bb59-7c32b282ccdf","ios":"levelo://app?vid=fe78e212-9570-4f43-bb59-7c32b282ccdf"},"vehicle_type_id":"4","last_reported":1769509009,"current_range_meters":6000,"station_id":"","pricing_plan_id":"cebpf4jnsgd1na2vs0mg"},{"bike_id":"88ffd3a2-1506-480b-abc1-f9282e869380","system_id":"levelo_inurba_marseille","lat":43.25116,"lon":5.39632,"is_reserved":false,"is_disabled":false,"rental_uris":{"android":"levelo://app?vid=88ffd3a2-1506-480b-abc1-f9282e869380","ios":"levelo://app?vid=88ffd3a2-1506-480b-abc1-f9282e869380"},"vehicle_type_id":"4","last_reported":1769509009,"current_range_meters":6000,"station_id":"ce4bhm12rcd13ifvqgkg","pricing_plan_id":"cebpf4jnsgd1na2vs0mg"},{"bike_id":"376d69a1-6c6a-4847-9e8d-b0a51343ba06","system_id":"levelo_inurba_marseille","lat":43.29592,"lon":5.3798,"is_reserved":false,"is_disabled":false,"rental_uris":{"android":"levelo://app?vid=376d69a1-6c6a-4847-9e8d-b0a51343ba06","ios":"levelo://app?vid=376d69a1-6c6a-4847-9e8d-b0a51343ba06"},"vehicle_type_id":"4","last_reported":1769509009,"current_range_meters":6000,"station_id":"","pricing_plan_id":"cebpf4jnsgd1na2vs0mg"},{"bike_id":"a240423c-4d7e-41a8-a549-8c46c4bdd550","system_id":"levelo_inurba_marseille","lat":43.248064,"lon":5.374733,"is_reserved":false,"is_disabled":false,"rental_uris":{"android":"levelo://app?vid=a240423c-4d7e-41a8-a549-8c46c4bdd550","ios":"levelo://app?vid=a240423c-4d7e-41a8-a549-8c46c4bdd550"},"vehicle_type_id":"4","last_reported":1769509009,"current_range_meters":6000,"station_id":"ce4bhgh2rcd13ifvqfb0","pricing_plan_id":"cebpf4jnsgd1na2vs0mg"},{"bike_id":"f88d705c-fd5d-47fd-9cec-4cc11d33b889","system_id":"levelo_inurba_marseille","lat":43.28412,"lon":5.35005,"is_reserved":false,"is_disabled":false,"rental_uris":{"android":"levelo://app?vid=f88d705c-fd5d-47fd-9cec-4cc11d33b889","ios":"levelo://app?vid=f88d705c-fd5d-47fd-9cec-4cc11d33b889"},"vehicle_type_id":"4","last_reported":1769509009,"current_range_meters":6000,"station_id":"ce4bhbh2rcd13ifvqepg","pricing_plan_id":"cebpf4jnsgd1na2vs0mg"},{"bike_id":"b93c0378-1697-47c4-b3e0-0ec8bc5ee0f3","system_id":"levelo_inurba_marseille","lat":43.26375,"lon":5.41063,"is_reserved":false,"is_disabled":false,"rental_uris":{"android":"levelo://app?vid=b93c0378-1697-47c4-b3e0-0ec8bc5ee0f3","ios":"levelo://app?vid=b93c0378-1697-47c4-b3e0-0ec8bc5ee0f3"},"vehicle_type_id":"4","last_reported":1769509009,"current_range_meters":6000,"station_id":"st_d4e5ca6na9uc73bfl5fg","pricing_plan_id":"cebpf4jnsgd1na2vs0mg"},{"bike_id":"5c18bca9-46cd-42a4-bd07-ba7493ce75f5","system_id":"levelo_inurba_marseille","lat":43.24643,"lon":5.43148,"is_reserved":false,"is_disabled":false,"rental_uris":{"android":"levelo://app?vid=5c18bca9-46cd-42a4-bd07-ba7493ce75f5","ios":"levelo://app?vid=5c18bca9-46cd-42a4-bd07-ba7493ce75f5"},"vehicle_type_id":"4","last_reported":1769509009,"current_range_meters":6000,"station_id":"st_d2m6c4gdas8pm72e190g","pricing_plan_id":"cebpf4jnsgd1na2vs0mg"},{"bike_id":"f845e441-1ca1-4fde-889e-45a681c017c7","system_id":"levelo_inurba_marseille","lat":43.24537,"lon":5.39532,"is_reserved":false,"is_disabled":false,"rental_uris":{"android":"levelo://app?vid=f845e441-1ca1-4fde-889e-45a681c017c7","ios":"levelo://app?vid=f845e441-1ca1-4fde-889e-45a681c017c7"},"vehicle_type_id":"4","last_reported":1769509009,"current_range_meters":6400,"station_id":"ce4bhlp2rcd13ifvqgjg","pricing_plan_id":"cebpf4jnsgd1na2vs0mg"},{"bike_id":"cd32b736-566b-4d35-8940-26c8819f750b","system_id":"levelo_inurba_marseille","lat":43.24969,"lon":5.38946,"is_reserved":false,"is_disabled":false,"rental_uris":{"android":"levelo://app?vid=cd32b736-566b-4d35-8940-26c8819f750b","ios":"levelo://app?vid=cd32b736-566b-4d35-8940-26c8819f750b"},"vehicle_type_id":"4","last_reported":1769509009,"current_range_meters":6400,"station_id":"ce4bhgp2rcd13ifvqfd0","pricing_plan_id":"cebpf4jnsgd1na2vs0mg"},{"bike_id":"4982447f-e072-41ab-8515-f50997651ddc","system_id":"levelo_inurba_marseille","lat":43.23057,"lon":5.35485,"is_reserved":false,"is_disabled":false,"rental_uris":{"android":"levelo://app?vid=4982447f-e072-41ab-8515-f50997651ddc","ios":"levelo://app?vid=4982447f-e072-41ab-8515-f50997651ddc"},"vehicle_type_id":"4","last_reported":1769509009,"current_range_meters":6400,"station_id":"cpo3342slgdg3j2ifvpg","pricing_plan_id":"cebpf4jnsgd1na2vs0mg"},{"bike_id":"56076317-b66a-45ba-b3b6-c261c650aa84","system_id":"levelo_inurba_marseille","lat":43.29668,"lon":5.37828,"is_reserved":false,"is_disabled":false,"rental_uris":{"android":"levelo://app?vid=56076317-b66a-45ba-b3b6-c261c650aa84","ios":"levelo://app?vid=56076317-b66a-45ba-b3b6-c261c650aa84"},"vehicle_type_id":"4","last_reported":1769509009,"current_range_meters":6400,"station_id":"","pricing_plan_id":"cebpf4jnsgd1na2vs0mg"},{"bike_id":"aaf68de7-a8ba-4f2c-b543-643a8694a695","system_id":"levelo_inurba_marseille","lat":43.248054,"lon":5.374532,"is_reserved":false,"is_disabled":false,"rental_uris":{"android":"levelo://app?vid=aaf68de7-a8ba-4f2c-b543-643a8694a695","ios":"levelo://app?vid=aaf68de7-a8ba-4f2c-b543-643a8694a695"},"vehicle_type_id":"4","last_reported":1769509009,"current_range_meters":6400,"station_id":"ce4bhgh2rcd13ifvqfb0","pricing_plan_id":"cebpf4jnsgd1na2vs0mg"},{"bike_id":"780f37c1-f90d-49a0-a2ac-cb1a69ad708a","system_id":"levelo_inurba_marseille","lat":43.25942,"lon":5.40913,"is_reserved":false,"is_disabled":false,"rental_uris":{"android":"levelo://app?vid=780f37c1-f90d-49a0-a2ac-cb1a69ad708a","ios":"levelo://app?vid=780f37c1-f90d-49a0-a2ac-cb1a69ad708a"},"vehicle_type_id":"4","last_reported":1769509009,"current_range_meters":6400,"station_id":"ce4bhm92rcd13ifvqglg","pricing_plan_id":"cebpf4jnsgd1na2vs0mg"},{"bike_id":"3bca37a8-657e-4ef7-a516-6ec9505d6d82","system_id":"levelo_inurba_marseille","lat":43.29271,"lon":5.36854,"is_reserved":false,"is_disabled":false,"rental_uris":{"android":"levelo://app?vid=3bca37a8-657e-4ef7-a516-6ec9505d6d82","ios":"levelo://app?vid=3bca37a8-657e-4ef7-a516-6ec9505d6d82"},"vehicle_type_id":"4","last_reported":1769509009,"current_range_meters":6400,"station_id":"ce4bhbp2rcd13ifvqesg","pricing_plan_id":"cebpf4jnsgd1na2vs0mg"},{"bike_id":"39c45b00-edbc-4039-9410-db409ff71c29","system_id":"levelo_inurba_marseille","lat":43.30488,"lon":5.37253,"is_reserved":false,"is_disabled":false,"rental_uris":{"android":"levelo://app?vid=39c45b00-edbc-4039-9410-db409ff71c29","ios":"levelo://app?vid=39c45b00-edbc-4039-9410-db409ff71c29"},"vehicle_type_id":"4","last_reported":1769509009,"current_range_meters":6400,"station_id":"","pricing_plan_id":"cebpf4jnsgd1na2vs0mg"},{"bike_id":"15ffb544-9cf9-4c83-98f5-22f43ecc1d4c","system_id":"levelo_inurba_marseille","lat":43.30802,"lon":5.40501,"is_reserved":false,"is_disabled":false,"rental_uris":{"android":"levelo://app?vid=15ffb544-9cf9-4c83-98f5-22f43ecc1d4c","ios":"levelo://app?vid=15ffb544-9cf9-4c83-98f5-22f43ecc1d4c"},"vehicle_type_id":"4","last_reported":1769509009,"current_range_meters":6400,"station_id":"","pricing_plan_id":"cebpf4jnsgd1na2vs0mg"},{"bike_id":"fbbfdfb0-2a68-42b1-8e98-f01f0f60526d","system_id":"levelo_inurba_marseille","lat":43.280774,"lon":5.396704,"is_reserved":false,"is_disabled":false,"rental_uris":{"android":"levelo://app?vid=fbbfdfb0-2a68-42b1-8e98-f01f0f60526d","ios":"levelo://app?vid=fbbfdfb0-2a68-42b1-8e98-f01f0f60526d"},"vehicle_type_id":"4","last_reported":1769509009,"current_range_meters":6400,"station_id":"ce4bho12rcd13ifvqh2g","pricing_plan_id":"cebpf4jnsgd1na2vs0mg"},{"bike_id":"65c2cffa-6fb7-4bc9-8df2-f7bde8bca8f1","system_id":"levelo_inurba_marseille","lat":43.25742,"lon":5.41103,"is_reserved":false,"is_disabled":false,"rental_uris":{"android":"levelo://app?vid=65c2cffa-6fb7-4bc9-8df2-f7bde8bca8f1","ios":"levelo://app?vid=65c2cffa-6fb7-4bc9-8df2-f7bde8bca8f1"},"vehicle_type_id":"4","last_reported":1769509009,"current_range_meters":6400,"station_id":"ce4bhkp2rcd13ifvqgd0","pricing_plan_id":"cebpf4jnsgd1na2vs0mg"},{"bike_id":"83229c2b-47c2-43e1-9a4d-fdb7e325248b","system_id":"levelo_inurba_marseille","lat":43.29801,"lon":5.38082,"is_reserved":false,"is_disabled":false,"rental_uris":{"android":"levelo://app?vid=83229c2b-47c2-43e1-9a4d-fdb7e325248b","ios":"levelo://app?vid=83229c2b-47c2-43e1-9a4d-fdb7e325248b"},"vehicle_type_id":"4","last_reported":1769509009,"current_range_meters":6400,"station_id":"ce4bgip2rcd13ifvqbb0","pricing_plan_id":"cebpf4jnsgd1na2vs0mg"},{"bike_id":"1b26e38f-d77a-41b0-93f4-12776fa12921","system_id":"levelo_inurba_marseille","lat":43.23151,"lon":5.43722,"is_reserved":false,"is_disabled":false,"rental_uris":{"android":"levelo://app?vid=1b26e38f-d77a-41b0-93f4-12776fa12921","ios":"levelo://app?vid=1b26e38f-d77a-41b0-93f4-12776fa12921"},"vehicle_type_id":"4","last_reported":1769509009,"current_range_meters":6800,"station_id":"ce4bhmp2rcd13ifvqgog","pricing_plan_id":"cebpf4jnsgd1na2vs0mg"},{"bike_id":"cc827cf5-4f3f-4ac3-aba7-6f8c4601f689","system_id":"levelo_inurba_marseille","lat":43.24165,"lon":5.36454,"is_reserved":false,"is_disabled":false,"rental_uris":{"android":"levelo://app?vid=cc827cf5-4f3f-4ac3-aba7-6f8c4601f689","ios":"levelo://app?vid=cc827cf5-4f3f-4ac3-aba7-6f8c4601f689"},"vehicle_type_id":"4","last_reported":1769509009,"current_range_meters":6800,"station_id":"cpo36qri1sfpv3e86is0","pricing_plan_id":"cebpf4jnsgd1na2vs0mg"},{"bike_id":"b778e9ae-9e5d-422f-9aa0-c2aebe5892bf","system_id":"levelo_inurba_marseille","lat":43.32353,"lon":5.36736,"is_reserved":false,"is_disabled":false,"rental_uris":{"android":"levelo://app?vid=b778e9ae-9e5d-422f-9aa0-c2aebe5892bf","ios":"levelo://app?vid=b778e9ae-9e5d-422f-9aa0-c2aebe5892bf"},"vehicle_type_id":"4","last_reported":1769509009,"current_range_meters":6800,"station_id":"ce4bhsh2rcd13ifvqi2g","pricing_plan_id":"cebpf4jnsgd1na2vs0mg"},{"bike_id":"4f438dad-01fc-4a34-afef-9521fac04b4f","system_id":"levelo_inurba_marseille","lat":43.32345,"lon":5.36748,"is_reserved":false,"is_disabled":false,"rental_uris":{"android":"levelo://app?vid=4f438dad-01fc-4a34-afef-9521fac04b4f","ios":"levelo://app?vid=4f438dad-01fc-4a34-afef-9521fac04b4f"},"vehicle_type_id":"4","last_reported":1769509009,"current_range_meters":6800,"station_id":"ce4bhsh2rcd13ifvqi2g","pricing_plan_id":"cebpf4jnsgd1na2vs0mg"},{"bike_id":"d67989f5-ff99-4625-8cc4-0e0a77727709","system_id":"levelo_inurba_marseille","lat":43.30165,"lon":5.38081,"is_reserved":false,"is_disabled":false,"rental_uris":{"android":"levelo://app?vid=d67989f5-ff99-4625-8cc4-0e0a77727709","ios":"levelo://app?vid=d67989f5-ff99-4625-8cc4-0e0a77727709"},"vehicle_type_id":"4","last_reported":1769509009,"current_range_meters":6800,"station_id":"ce4bgjp2rcd13ifvqbh0","pricing_plan_id":"cebpf4jnsgd1na2vs0mg"},{"bike_id":"8dc1c371-7a8b-4d40-96de-5f21b3f68e5e","system_id":"levelo_inurba_marseille","lat":43.29917,"lon":5.37506,"is_reserved":false,"is_disabled":false,"rental_uris":{"android":"levelo://app?vid=8dc1c371-7a8b-4d40-96de-5f21b3f68e5e","ios":"levelo://app?vid=8dc1c371-7a8b-4d40-96de-5f21b3f68e5e"},"vehicle_type_id":"4","last_reported":1769509009,"current_range_meters":6800,"station_id":"ce4bgjh2rcd13ifvqbg0","pricing_plan_id":"cebpf4jnsgd1na2vs0mg"},{"bike_id":"5073c588-fd69-4546-b19e-c25ee2532fa0","system_id":"levelo_inurba_marseille","lat":43.32453,"lon":5.3659,"is_reserved":false,"is_disabled":false,"rental_uris":{"android":"levelo://app?vid=5073c588-fd69-4546-b19e-c25ee2532fa0","ios":"levelo://app?vid=5073c588-fd69-4546-b19e-c25ee2532fa0"},"vehicle_type_id":"4","last_reported":1769509009,"current_range_meters":6800,"station_id":"ce4bhs12rcd13ifvqhvg","pricing_plan_id":"cebpf4jnsgd1na2vs0mg"},{"bike_id":"ddac16df-da7b-4c1e-8c96-25bd2dbc1226","system_id":"levelo_inurba_marseille","lat":43.32336,"lon":5.36772,"is_reserved":false,"is_disabled":false,"rental_uris":{"android":"levelo://app?vid=ddac16df-da7b-4c1e-8c96-25bd2dbc1226","ios":"levelo://app?vid=ddac16df-da7b-4c1e-8c96-25bd2dbc1226"},"vehicle_type_id":"4","last_reported":1769509009,"current_range_meters":6800,"station_id":"ce4bhsh2rcd13ifvqi2g","pricing_plan_id":"cebpf4jnsgd1na2vs0mg"},{"bike_id":"c8bb2a08-170b-4c3f-9a7c-8d580e9bd3cc","system_id":"levelo_inurba_marseille","lat":43.24487,"lon":5.42529,"is_reserved":false,"is_disabled":false,"rental_uris":{"android":"levelo://app?vid=c8bb2a08-170b-4c3f-9a7c-8d580e9bd3cc","ios":"levelo://app?vid=c8bb2a08-170b-4c3f-9a7c-8d580e9bd3cc"},"vehicle_type_id":"4","last_reported":1769509009,"current_range_meters":6800,"station_id":"st_d4a3vfp97mjs738cd8kg","pricing_plan_id":"cebpf4jnsgd1na2vs0mg"},{"bike_id":"70dd2d29-2135-4780-baf2-04ac8d4f2412","system_id":"levelo_inurba_marseille","lat":43.30315,"lon":5.36909,"is_reserved":false,"is_disabled":false,"rental_uris":{"android":"levelo://app?vid=70dd2d29-2135-4780-baf2-04ac8d4f2412","ios":"levelo://app?vid=70dd2d29-2135-4780-baf2-04ac8d4f2412"},"vehicle_type_id":"4","last_reported":1769509009,"current_range_meters":6800,"station_id":"ce4bgqh2rcd13ifvqc5g","pricing_plan_id":"cebpf4jnsgd1na2vs0mg"},{"bike_id":"fb8934f6-9dab-439c-acce-05fcdc10c589","system_id":"levelo_inurba_marseille","lat":43.24944,"lon":5.40498,"is_reserved":false,"is_disabled":false,"rental_uris":{"android":"levelo://app?vid=fb8934f6-9dab-439c-acce-05fcdc10c589","ios":"levelo://app?vid=fb8934f6-9dab-439c-acce-05fcdc10c589"},"vehicle_type_id":"4","last_reported":1769509009,"current_range_meters":6800,"station_id":"st_d2ngiaodas8pm72gd1h0","pricing_plan_id":"cebpf4jnsgd1na2vs0mg"},{"bike_id":"10ed2664-109e-43f4-9dbd-256742a1695f","system_id":"levelo_inurba_marseille","lat":43.30176,"lon":5.3662,"is_reserved":false,"is_disabled":false,"rental_uris":{"android":"levelo://app?vid=10ed2664-109e-43f4-9dbd-256742a1695f","ios":"levelo://app?vid=10ed2664-109e-43f4-9dbd-256742a1695f"},"vehicle_type_id":"4","last_reported":1769509009,"current_range_meters":6800,"station_id":"ce4bgrh2rcd13ifvqc8g","pricing_plan_id":"cebpf4jnsgd1na2vs0mg"},{"bike_id":"07a2347d-c3fa-4015-bf16-4148ed3d013b","system_id":"levelo_inurba_marseille","lat":43.27309,"lon":5.39102,"is_reserved":false,"is_disabled":false,"rental_uris":{"android":"levelo://app?vid=07a2347d-c3fa-4015-bf16-4148ed3d013b","ios":"levelo://app?vid=07a2347d-c3fa-4015-bf16-4148ed3d013b"},"vehicle_type_id":"4","last_reported":1769509009,"current_range_meters":6800,"station_id":"ce4bhgp2rcd13ifvqfe0","pricing_plan_id":"cebpf4jnsgd1na2vs0mg"},{"bike_id":"2ab5b368-a6ef-4f3e-96aa-581a041e83a0","system_id":"levelo_inurba_marseille","lat":43.26682,"lon":5.38286,"is_reserved":false,"is_disabled":false,"rental_uris":{"android":"levelo://app?vid=2ab5b368-a6ef-4f3e-96aa-581a041e83a0","ios":"levelo://app?vid=2ab5b368-a6ef-4f3e-96aa-581a041e83a0"},"vehicle_type_id":"4","last_reported":1769509009,"current_range_meters":6800,"station_id":"ce4bhg92rcd13ifvqf90","pricing_plan_id":"cebpf4jnsgd1na2vs0mg"},{"bike_id":"97d1eda0-a9af-4c4a-9c8b-3b1301d74ec8","system_id":"levelo_inurba_marseille","lat":43.22934,"lon":5.35382,"is_reserved":false,"is_disabled":false,"rental_uris":{"android":"levelo://app?vid=97d1eda0-a9af-4c4a-9c8b-3b1301d74ec8","ios":"levelo://app?vid=97d1eda0-a9af-4c4a-9c8b-3b1301d74ec8"},"vehicle_type_id":"4","last_reported":1769509009,"current_range_meters":7200,"station_id":"cpo3532slgdg3j2ikp40","pricing_plan_id":"cebpf4jnsgd1na2vs0mg"},{"bike_id":"c1d76fe7-8229-49b0-8dae-038c2bf0b5b7","system_id":"levelo_inurba_marseille","lat":43.30906,"lon":5.40338,"is_reserved":false,"is_disabled":false,"rental_uris":{"android":"levelo://app?vid=c1d76fe7-8229-49b0-8dae-038c2bf0b5b7","ios":"levelo://app?vid=c1d76fe7-8229-49b0-8dae-038c2bf0b5b7"},"vehicle_type_id":"4","last_reported":1769509009,"current_range_meters":7200,"station_id":"","pricing_plan_id":"cebpf4jnsgd1na2vs0mg"},{"bike_id":"e1b65952-cf23-4d4c-bb61-476f12fae8d2","system_id":"levelo_inurba_marseille","lat":43.23195,"lon":5.35564,"is_reserved":false,"is_disabled":false,"rental_uris":{"android":"levelo://app?vid=e1b65952-cf23-4d4c-bb61-476f12fae8d2","ios":"levelo://app?vid=e1b65952-cf23-4d4c-bb61-476f12fae8d2"},"vehicle_type_id":"4","last_reported":1769509009,"current_range_meters":7200,"station_id":"ce4bhu92rcd13ifvqi70","pricing_plan_id":"cebpf4jnsgd1na2vs0mg"},{"bike_id":"054e163b-1e47-4a0a-a038-a7939885860e","system_id":"levelo_inurba_marseille","lat":43.32347,"lon":5.36748,"is_reserved":false,"is_disabled":false,"rental_uris":{"android":"levelo://app?vid=054e163b-1e47-4a0a-a038-a7939885860e","ios":"levelo://app?vid=054e163b-1e47-4a0a-a038-a7939885860e"},"vehicle_type_id":"4","last_reported":1769509009,"current_range_meters":7200,"station_id":"ce4bhsh2rcd13ifvqi2g","pricing_plan_id":"cebpf4jnsgd1na2vs0mg"},{"bike_id":"c91f91f3-98b3-4fcf-bd93-581840c2823a","system_id":"levelo_inurba_marseille","lat":43.28452,"lon":5.39207,"is_reserved":false,"is_disabled":false,"rental_uris":{"android":"levelo://app?vid=c91f91f3-98b3-4fcf-bd93-581840c2823a","ios":"levelo://app?vid=c91f91f3-98b3-4fcf-bd93-581840c2823a"},"vehicle_type_id":"4","last_reported":1769509009,"current_range_meters":7200,"station_id":"ce4bhoh2rcd13ifvqh5g","pricing_plan_id":"cebpf4jnsgd1na2vs0mg"},{"bike_id":"1e6ae573-7b0d-4ca7-8d21-23950df7df4a","system_id":"levelo_inurba_marseille","lat":43.28543,"lon":5.441159,"is_reserved":false,"is_disabled":false,"rental_uris":{"android":"levelo://app?vid=1e6ae573-7b0d-4ca7-8d21-23950df7df4a","ios":"levelo://app?vid=1e6ae573-7b0d-4ca7-8d21-23950df7df4a"},"vehicle_type_id":"4","last_reported":1769509009,"current_range_meters":7200,"station_id":"st_d3j3df2ikq2c7380ej80","pricing_plan_id":"cebpf4jnsgd1na2vs0mg"},{"bike_id":"f39628e7-f451-4af8-80af-ee31b074b0b2","system_id":"levelo_inurba_marseille","lat":43.29817,"lon":5.44067,"is_reserved":false,"is_disabled":false,"rental_uris":{"android":"levelo://app?vid=f39628e7-f451-4af8-80af-ee31b074b0b2","ios":"levelo://app?vid=f39628e7-f451-4af8-80af-ee31b074b0b2"},"vehicle_type_id":"4","last_reported":1769509009,"current_range_meters":7200,"station_id":"st_d3jp68qikq2c7381ktn0","pricing_plan_id":"cebpf4jnsgd1na2vs0mg"},{"bike_id":"04ddf445-c90e-4eb2-b7e0-2646a674cd14","system_id":"levelo_inurba_marseille","lat":43.24818,"lon":5.37465,"is_reserved":false,"is_disabled":false,"rental_uris":{"android":"levelo://app?vid=04ddf445-c90e-4eb2-b7e0-2646a674cd14","ios":"levelo://app?vid=04ddf445-c90e-4eb2-b7e0-2646a674cd14"},"vehicle_type_id":"4","last_reported":1769509009,"current_range_meters":7200,"station_id":"ce4bhgh2rcd13ifvqfb0","pricing_plan_id":"cebpf4jnsgd1na2vs0mg"},{"bike_id":"095fe064-5c29-454d-9324-b990504256cb","system_id":"levelo_inurba_marseille","lat":43.244,"lon":5.37059,"is_reserved":false,"is_disabled":false,"rental_uris":{"android":"levelo://app?vid=095fe064-5c29-454d-9324-b990504256cb","ios":"levelo://app?vid=095fe064-5c29-454d-9324-b990504256cb"},"vehicle_type_id":"4","last_reported":1769509009,"current_range_meters":7200,"station_id":"ce4bhhh2rcd13ifvqfk0","pricing_plan_id":"cebpf4jnsgd1na2vs0mg"},{"bike_id":"cd48c5bb-be72-4c52-8ee1-4e73c659ff42","system_id":"levelo_inurba_marseille","lat":43.23972,"lon":5.36627,"is_reserved":false,"is_disabled":false,"rental_uris":{"android":"levelo://app?vid=cd48c5bb-be72-4c52-8ee1-4e73c659ff42","ios":"levelo://app?vid=cd48c5bb-be72-4c52-8ee1-4e73c659ff42"},"vehicle_type_id":"4","last_reported":1769509009,"current_range_meters":7200,"station_id":"ce4bhi12rcd13ifvqfp0","pricing_plan_id":"cebpf4jnsgd1na2vs0mg"},{"bike_id":"8631421d-21a9-439a-82c3-3764ee3e564c","system_id":"levelo_inurba_marseille","lat":43.271939,"lon":5.410018,"is_reserved":false,"is_disabled":false,"rental_uris":{"android":"levelo://app?vid=8631421d-21a9-439a-82c3-3764ee3e564c","ios":"levelo://app?vid=8631421d-21a9-439a-82c3-3764ee3e564c"},"vehicle_type_id":"4","last_reported":1769509009,"current_range_meters":7200,"station_id":"ce4bhl12rcd13ifvqgf0","pricing_plan_id":"cebpf4jnsgd1na2vs0mg"},{"bike_id":"2abdbc45-a66e-4faf-971c-b57d8f806d8d","system_id":"levelo_inurba_marseille","lat":43.2848,"lon":5.48403,"is_reserved":false,"is_disabled":false,"rental_uris":{"android":"levelo://app?vid=2abdbc45-a66e-4faf-971c-b57d8f806d8d","ios":"levelo://app?vid=2abdbc45-a66e-4faf-971c-b57d8f806d8d"},"vehicle_type_id":"4","last_reported":1769509009,"current_range_meters":7200,"station_id":"st_d3svhcjqgbts73a3dn0g","pricing_plan_id":"cebpf4jnsgd1na2vs0mg"},{"bike_id":"baa5c63c-ea26-4bb9-a783-b792d2f4e0ff","system_id":"levelo_inurba_marseille","lat":43.30554,"lon":5.36542,"is_reserved":false,"is_disabled":false,"rental_uris":{"android":"levelo://app?vid=baa5c63c-ea26-4bb9-a783-b792d2f4e0ff","ios":"levelo://app?vid=baa5c63c-ea26-4bb9-a783-b792d2f4e0ff"},"vehicle_type_id":"4","last_reported":1769509009,"current_range_meters":7200,"station_id":"ce4bgs12rcd13ifvqcag","pricing_plan_id":"cebpf4jnsgd1na2vs0mg"},{"bike_id":"6403e3cb-b3e3-41e8-bf9f-1d4a6c92aa6b","system_id":"levelo_inurba_marseille","lat":43.29581,"lon":5.39262,"is_reserved":false,"is_disabled":false,"rental_uris":{"android":"levelo://app?vid=6403e3cb-b3e3-41e8-bf9f-1d4a6c92aa6b","ios":"levelo://app?vid=6403e3cb-b3e3-41e8-bf9f-1d4a6c92aa6b"},"vehicle_type_id":"4","last_reported":1769509009,"current_range_meters":7200,"station_id":"","pricing_plan_id":"cebpf4jnsgd1na2vs0mg"},{"bike_id":"c3616682-88ec-472f-b28b-1fbb837fa9d1","system_id":"levelo_inurba_marseille","lat":43.24177,"lon":5.36393,"is_reserved":false,"is_disabled":false,"rental_uris":{"android":"levelo://app?vid=c3616682-88ec-472f-b28b-1fbb837fa9d1","ios":"levelo://app?vid=c3616682-88ec-472f-b28b-1fbb837fa9d1"},"vehicle_type_id":"4","last_reported":1769509009,"current_range_meters":7200,"station_id":"cpo36qri1sfpv3e86is0","pricing_plan_id":"cebpf4jnsgd1na2vs0mg"},{"bike_id":"71e4063f-a131-40b9-b906-a778662b6ea8","system_id":"levelo_inurba_marseille","lat":43.2398,"lon":5.36687,"is_reserved":false,"is_disabled":false,"rental_uris":{"android":"levelo://app?vid=71e4063f-a131-40b9-b906-a778662b6ea8","ios":"levelo://app?vid=71e4063f-a131-40b9-b906-a778662b6ea8"},"vehicle_type_id":"4","last_reported":1769509009,"current_range_meters":7200,"station_id":"","pricing_plan_id":"cebpf4jnsgd1na2vs0mg"},{"bike_id":"34490c13-8bcf-415c-b9e5-3eb81df8b667","system_id":"levelo_inurba_marseille","lat":43.26031,"lon":5.37557,"is_reserved":false,"is_disabled":false,"rental_uris":{"android":"levelo://app?vid=34490c13-8bcf-415c-b9e5-3eb81df8b667","ios":"levelo://app?vid=34490c13-8bcf-415c-b9e5-3eb81df8b667"},"vehicle_type_id":"4","last_reported":1769509009,"current_range_meters":7200,"station_id":"ce4bhgh2rcd13ifvqfa0","pricing_plan_id":"cebpf4jnsgd1na2vs0mg"},{"bike_id":"bed981e9-239a-4c8e-b1c1-b226709af449","system_id":"levelo_inurba_marseille","lat":43.26559,"lon":5.37296,"is_reserved":false,"is_disabled":false,"rental_uris":{"android":"levelo://app?vid=bed981e9-239a-4c8e-b1c1-b226709af449","ios":"levelo://app?vid=bed981e9-239a-4c8e-b1c1-b226709af449"},"vehicle_type_id":"4","last_reported":1769509009,"current_range_meters":8000,"station_id":"ce4bhg12rcd13ifvqf70","pricing_plan_id":"cebpf4jnsgd1na2vs0mg"},{"bike_id":"d8fe5977-167d-4d79-bb8d-a90abddb5736","system_id":"levelo_inurba_marseille","lat":43.24797,"lon":5.3746,"is_reserved":false,"is_disabled":false,"rental_uris":{"android":"levelo://app?vid=d8fe5977-167d-4d79-bb8d-a90abddb5736","ios":"levelo://app?vid=d8fe5977-167d-4d79-bb8d-a90abddb5736"},"vehicle_type_id":"4","last_reported":1769509009,"current_range_meters":8000,"station_id":"ce4bhgh2rcd13ifvqfb0","pricing_plan_id":"cebpf4jnsgd1na2vs0mg"},{"bike_id":"07334ae3-a27a-46ae-b685-938785481481","system_id":"levelo_inurba_marseille","lat":43.29793,"lon":5.44082,"is_reserved":false,"is_disabled":false,"rental_uris":{"android":"levelo://app?vid=07334ae3-a27a-46ae-b685-938785481481","ios":"levelo://app?vid=07334ae3-a27a-46ae-b685-938785481481"},"vehicle_type_id":"4","last_reported":1769509009,"current_range_meters":8000,"station_id":"st_d3jp68qikq2c7381ktn0","pricing_plan_id":"cebpf4jnsgd1na2vs0mg"},{"bike_id":"e2300383-c671-48a0-9420-860a0772480d","system_id":"levelo_inurba_marseille","lat":43.28919,"lon":5.3964,"is_reserved":false,"is_disabled":false,"rental_uris":{"android":"levelo://app?vid=e2300383-c671-48a0-9420-860a0772480d","ios":"levelo://app?vid=e2300383-c671-48a0-9420-860a0772480d"},"vehicle_type_id":"4","last_reported":1769509009,"current_range_meters":8000,"station_id":"ce4bh3h2rcd13ifvqdn0","pricing_plan_id":"cebpf4jnsgd1na2vs0mg"},{"bike_id":"ccb8f850-15c8-4a47-a07e-b172230b2bf2","system_id":"levelo_inurba_marseille","lat":43.24469,"lon":5.42541,"is_reserved":false,"is_disabled":false,"rental_uris":{"android":"levelo://app?vid=ccb8f850-15c8-4a47-a07e-b172230b2bf2","ios":"levelo://app?vid=ccb8f850-15c8-4a47-a07e-b172230b2bf2"},"vehicle_type_id":"4","last_reported":1769509009,"current_range_meters":8000,"station_id":"st_d4a3vfp97mjs738cd8kg","pricing_plan_id":"cebpf4jnsgd1na2vs0mg"},{"bike_id":"12a4c848-5bc6-4c48-a91a-071c8c9b217e","system_id":"levelo_inurba_marseille","lat":43.23144,"lon":5.4373,"is_reserved":false,"is_disabled":false,"rental_uris":{"android":"levelo://app?vid=12a4c848-5bc6-4c48-a91a-071c8c9b217e","ios":"levelo://app?vid=12a4c848-5bc6-4c48-a91a-071c8c9b217e"},"vehicle_type_id":"4","last_reported":1769509009,"current_range_meters":8000,"station_id":"ce4bhmp2rcd13ifvqgog","pricing_plan_id":"cebpf4jnsgd1na2vs0mg"},{"bike_id":"6d06c21c-b3a0-4a4c-b24e-191f22182658","system_id":"levelo_inurba_marseille","lat":43.2464,"lon":5.4315,"is_reserved":false,"is_disabled":false,"rental_uris":{"android":"levelo://app?vid=6d06c21c-b3a0-4a4c-b24e-191f22182658","ios":"levelo://app?vid=6d06c21c-b3a0-4a4c-b24e-191f22182658"},"vehicle_type_id":"4","last_reported":1769509009,"current_range_meters":8000,"station_id":"st_d2m6c4gdas8pm72e190g","pricing_plan_id":"cebpf4jnsgd1na2vs0mg"},{"bike_id":"eeb1ed29-7960-4c83-a50f-c7aaec57dce0","system_id":"levelo_inurba_marseille","lat":43.25102,"lon":5.40335,"is_reserved":false,"is_disabled":false,"rental_uris":{"android":"levelo://app?vid=eeb1ed29-7960-4c83-a50f-c7aaec57dce0","ios":"levelo://app?vid=eeb1ed29-7960-4c83-a50f-c7aaec57dce0"},"vehicle_type_id":"4","last_reported":1769509009,"current_range_meters":8000,"station_id":"ce4bhlh2rcd13ifvqgig","pricing_plan_id":"cebpf4jnsgd1na2vs0mg"},{"bike_id":"3bff5cec-8847-4371-9dcf-08e0ac5a358c","system_id":"levelo_inurba_marseille","lat":43.25015,"lon":5.38925,"is_reserved":false,"is_disabled":false,"rental_uris":{"android":"levelo://app?vid=3bff5cec-8847-4371-9dcf-08e0ac5a358c","ios":"levelo://app?vid=3bff5cec-8847-4371-9dcf-08e0ac5a358c"},"vehicle_type_id":"4","last_reported":1769509009,"current_range_meters":8000,"station_id":"ce4bhgp2rcd13ifvqfd0","pricing_plan_id":"cebpf4jnsgd1na2vs0mg"},{"bike_id":"0a917590-6b4e-4b88-99ee-7e491b0efa7e","system_id":"levelo_inurba_marseille","lat":43.25582,"lon":5.38218,"is_reserved":false,"is_disabled":false,"rental_uris":{"android":"levelo://app?vid=0a917590-6b4e-4b88-99ee-7e491b0efa7e","ios":"levelo://app?vid=0a917590-6b4e-4b88-99ee-7e491b0efa7e"},"vehicle_type_id":"4","last_reported":1769509009,"current_range_meters":8000,"station_id":"ce4bhih2rcd13ifvqfs0","pricing_plan_id":"cebpf4jnsgd1na2vs0mg"},{"bike_id":"20aa12dc-f764-4df4-9849-0e6572012126","system_id":"levelo_inurba_marseille","lat":43.26364,"lon":5.41065,"is_reserved":false,"is_disabled":false,"rental_uris":{"android":"levelo://app?vid=20aa12dc-f764-4df4-9849-0e6572012126","ios":"levelo://app?vid=20aa12dc-f764-4df4-9849-0e6572012126"},"vehicle_type_id":"4","last_reported":1769509009,"current_range_meters":8400,"station_id":"st_d4e5ca6na9uc73bfl5fg","pricing_plan_id":"cebpf4jnsgd1na2vs0mg"},{"bike_id":"f42e584b-9bb4-4887-8e5f-678edd30bac0","system_id":"levelo_inurba_marseille","lat":43.29626,"lon":5.37162,"is_reserved":false,"is_disabled":true,"rental_uris":{"android":"levelo://app?vid=f42e584b-9bb4-4887-8e5f-678edd30bac0","ios":"levelo://app?vid=f42e584b-9bb4-4887-8e5f-678edd30bac0"},"vehicle_type_id":"4","last_reported":1769509009,"current_range_meters":8400,"station_id":"ce4bgnh2rcd13ifvqc0g","pricing_plan_id":"cebpf4jnsgd1na2vs0mg"},{"bike_id":"db3d65b0-4e84-4a43-9c44-21aea7fdce10","system_id":"levelo_inurba_marseille","lat":43.26217,"lon":5.40466,"is_reserved":false,"is_disabled":false,"rental_uris":{"android":"levelo://app?vid=db3d65b0-4e84-4a43-9c44-21aea7fdce10","ios":"levelo://app?vid=db3d65b0-4e84-4a43-9c44-21aea7fdce10"},"vehicle_type_id":"4","last_reported":1769509009,"current_range_meters":8400,"station_id":"ce4bhmh2rcd13ifvqgmg","pricing_plan_id":"cebpf4jnsgd1na2vs0mg"},{"bike_id":"9f67ded3-5bd4-42b1-804d-1d8686581410","system_id":"levelo_inurba_marseille","lat":43.26369,"lon":5.41082,"is_reserved":false,"is_disabled":false,"rental_uris":{"android":"levelo://app?vid=9f67ded3-5bd4-42b1-804d-1d8686581410","ios":"levelo://app?vid=9f67ded3-5bd4-42b1-804d-1d8686581410"},"vehicle_type_id":"4","last_reported":1769509009,"current_range_meters":8400,"station_id":"st_d4e5ca6na9uc73bfl5fg","pricing_plan_id":"cebpf4jnsgd1na2vs0mg"},{"bike_id":"17134061-e4e9-4273-beab-6957abe51ed8","system_id":"levelo_inurba_marseille","lat":43.28374,"lon":5.38105,"is_reserved":false,"is_disabled":false,"rental_uris":{"android":"levelo://app?vid=17134061-e4e9-4273-beab-6957abe51ed8","ios":"levelo://app?vid=17134061-e4e9-4273-beab-6957abe51ed8"},"vehicle_type_id":"4","last_reported":1769509009,"current_range_meters":8400,"station_id":"ce4bh412rcd13ifvqdr0","pricing_plan_id":"cebpf4jnsgd1na2vs0mg"},{"bike_id":"64f3f307-4445-49b0-a4d2-13895bd53a04","system_id":"levelo_inurba_marseille","lat":43.298469,"lon":5.36301,"is_reserved":false,"is_disabled":false,"rental_uris":{"android":"levelo://app?vid=64f3f307-4445-49b0-a4d2-13895bd53a04","ios":"levelo://app?vid=64f3f307-4445-49b0-a4d2-13895bd53a04"},"vehicle_type_id":"4","last_reported":1769509009,"current_range_meters":8400,"station_id":"ce4bgpp2rcd13ifvqc3g","pricing_plan_id":"cebpf4jnsgd1na2vs0mg"},{"bike_id":"cd97a287-f3db-4bb8-af84-655827a2ff9f","system_id":"levelo_inurba_marseille","lat":43.23151,"lon":5.43717,"is_reserved":false,"is_disabled":false,"rental_uris":{"android":"levelo://app?vid=cd97a287-f3db-4bb8-af84-655827a2ff9f","ios":"levelo://app?vid=cd97a287-f3db-4bb8-af84-655827a2ff9f"},"vehicle_type_id":"4","last_reported":1769509009,"current_range_meters":8400,"station_id":"ce4bhmp2rcd13ifvqgog","pricing_plan_id":"cebpf4jnsgd1na2vs0mg"},{"bike_id":"dd17e14d-0564-4393-a6fd-cb7a120675c0","system_id":"levelo_inurba_marseille","lat":43.24486,"lon":5.42535,"is_reserved":false,"is_disabled":false,"rental_uris":{"android":"levelo://app?vid=dd17e14d-0564-4393-a6fd-cb7a120675c0","ios":"levelo://app?vid=dd17e14d-0564-4393-a6fd-cb7a120675c0"},"vehicle_type_id":"4","last_reported":1769509009,"current_range_meters":8400,"station_id":"st_d4a3vfp97mjs738cd8kg","pricing_plan_id":"cebpf4jnsgd1na2vs0mg"},{"bike_id":"75187644-40dc-4ee3-bf2b-301af78a34ee","system_id":"levelo_inurba_marseille","lat":43.29282,"lon":5.37168,"is_reserved":false,"is_disabled":false,"rental_uris":{"android":"levelo://app?vid=75187644-40dc-4ee3-bf2b-301af78a34ee","ios":"levelo://app?vid=75187644-40dc-4ee3-bf2b-301af78a34ee"},"vehicle_type_id":"4","last_reported":1769509009,"current_range_meters":8400,"station_id":"ce4bgh92rcd13ifvqb40","pricing_plan_id":"cebpf4jnsgd1na2vs0mg"},{"bike_id":"c975306b-28df-4a0a-947e-2a9bfa44b4eb","system_id":"levelo_inurba_marseille","lat":43.3139,"lon":5.36693,"is_reserved":false,"is_disabled":false,"rental_uris":{"android":"levelo://app?vid=c975306b-28df-4a0a-947e-2a9bfa44b4eb","ios":"levelo://app?vid=c975306b-28df-4a0a-947e-2a9bfa44b4eb"},"vehicle_type_id":"4","last_reported":1769509009,"current_range_meters":8400,"station_id":"","pricing_plan_id":"cebpf4jnsgd1na2vs0mg"},{"bike_id":"0af0de00-bbfa-40fd-9e78-0231ad8b2ef1","system_id":"levelo_inurba_marseille","lat":43.26668,"lon":5.38265,"is_reserved":false,"is_disabled":false,"rental_uris":{"android":"levelo://app?vid=0af0de00-bbfa-40fd-9e78-0231ad8b2ef1","ios":"levelo://app?vid=0af0de00-bbfa-40fd-9e78-0231ad8b2ef1"},"vehicle_type_id":"4","last_reported":1769509009,"current_range_meters":8400,"station_id":"","pricing_plan_id":"cebpf4jnsgd1na2vs0mg"},{"bike_id":"03a56725-7b1b-46e3-a656-af9cba3f6e05","system_id":"levelo_inurba_marseille","lat":43.29909,"lon":5.3815,"is_reserved":false,"is_disabled":false,"rental_uris":{"android":"levelo://app?vid=03a56725-7b1b-46e3-a656-af9cba3f6e05","ios":"levelo://app?vid=03a56725-7b1b-46e3-a656-af9cba3f6e05"},"vehicle_type_id":"4","last_reported":1769509009,"current_range_meters":8400,"station_id":"ce4bgj12rcd13ifvqbc0","pricing_plan_id":"cebpf4jnsgd1na2vs0mg"},{"bike_id":"a2440d1b-a3a8-413d-afc2-b2eb2991ca06","system_id":"levelo_inurba_marseille","lat":43.33161,"lon":5.37693,"is_reserved":false,"is_disabled":false,"rental_uris":{"android":"levelo://app?vid=a2440d1b-a3a8-413d-afc2-b2eb2991ca06","ios":"levelo://app?vid=a2440d1b-a3a8-413d-afc2-b2eb2991ca06"},"vehicle_type_id":"4","last_reported":1769509009,"current_range_meters":8400,"station_id":"st_d46cu089ee8s73dldbu0","pricing_plan_id":"cebpf4jnsgd1na2vs0mg"},{"bike_id":"f955be94-4aed-4a94-a304-cf3933e2e92e","system_id":"levelo_inurba_marseille","lat":43.33165,"lon":5.37691,"is_reserved":false,"is_disabled":false,"rental_uris":{"android":"levelo://app?vid=f955be94-4aed-4a94-a304-cf3933e2e92e","ios":"levelo://app?vid=f955be94-4aed-4a94-a304-cf3933e2e92e"},"vehicle_type_id":"4","last_reported":1769509009,"current_range_meters":8400,"station_id":"st_d46cu089ee8s73dldbu0","pricing_plan_id":"cebpf4jnsgd1na2vs0mg"},{"bike_id":"73fc0ed2-33b8-469f-9d74-8809de49ae7e","system_id":"levelo_inurba_marseille","lat":43.2605,"lon":5.3938,"is_reserved":false,"is_disabled":false,"rental_uris":{"android":"levelo://app?vid=73fc0ed2-33b8-469f-9d74-8809de49ae7e","ios":"levelo://app?vid=73fc0ed2-33b8-469f-9d74-8809de49ae7e"},"vehicle_type_id":"4","last_reported":1769509009,"current_range_meters":8400,"station_id":"ce4bhh92rcd13ifvqfj0","pricing_plan_id":"cebpf4jnsgd1na2vs0mg"},{"bike_id":"e87551f7-d06a-4b80-aa7a-e3b2490a54b4","system_id":"levelo_inurba_marseille","lat":43.25555,"lon":5.38275,"is_reserved":false,"is_disabled":false,"rental_uris":{"android":"levelo://app?vid=e87551f7-d06a-4b80-aa7a-e3b2490a54b4","ios":"levelo://app?vid=e87551f7-d06a-4b80-aa7a-e3b2490a54b4"},"vehicle_type_id":"4","last_reported":1769509009,"current_range_meters":8400,"station_id":"ce4bhih2rcd13ifvqfs0","pricing_plan_id":"cebpf4jnsgd1na2vs0mg"},{"bike_id":"34d50b3c-5ce8-4f73-8561-7d8c5e669e11","system_id":"levelo_inurba_marseille","lat":43.30528,"lon":5.36719,"is_reserved":false,"is_disabled":false,"rental_uris":{"android":"levelo://app?vid=34d50b3c-5ce8-4f73-8561-7d8c5e669e11","ios":"levelo://app?vid=34d50b3c-5ce8-4f73-8561-7d8c5e669e11"},"vehicle_type_id":"4","last_reported":1769509009,"current_range_meters":8400,"station_id":"ce4bgrp2rcd13ifvqc9g","pricing_plan_id":"cebpf4jnsgd1na2vs0mg"},{"bike_id":"449affbd-aaf8-41d6-bed7-0d41a00c111d","system_id":"levelo_inurba_marseille","lat":43.33295,"lon":5.36646,"is_reserved":false,"is_disabled":false,"rental_uris":{"android":"levelo://app?vid=449affbd-aaf8-41d6-bed7-0d41a00c111d","ios":"levelo://app?vid=449affbd-aaf8-41d6-bed7-0d41a00c111d"},"vehicle_type_id":"4","last_reported":1769509009,"current_range_meters":8400,"station_id":"","pricing_plan_id":"cebpf4jnsgd1na2vs0mg"},{"bike_id":"714c7faf-43d7-457f-b582-17748fcb1b27","system_id":"levelo_inurba_marseille","lat":43.284813,"lon":5.38568,"is_reserved":false,"is_disabled":false,"rental_uris":{"android":"levelo://app?vid=714c7faf-43d7-457f-b582-17748fcb1b27","ios":"levelo://app?vid=714c7faf-43d7-457f-b582-17748fcb1b27"},"vehicle_type_id":"4","last_reported":1769509009,"current_range_meters":8400,"station_id":"ce4bh8p2rcd13ifvqeb0","pricing_plan_id":"cebpf4jnsgd1na2vs0mg"},{"bike_id":"e373adb8-40da-473b-ba87-82ec4d13e540","system_id":"levelo_inurba_marseille","lat":43.29717,"lon":5.37701,"is_reserved":false,"is_disabled":true,"rental_uris":{"android":"levelo://app?vid=e373adb8-40da-473b-ba87-82ec4d13e540","ios":"levelo://app?vid=e373adb8-40da-473b-ba87-82ec4d13e540"},"vehicle_type_id":"4","last_reported":1769509009,"current_range_meters":8400,"station_id":"ce4bgkh2rcd13ifvqbl0","pricing_plan_id":"cebpf4jnsgd1na2vs0mg"},{"bike_id":"1bd44af8-a399-4717-b391-e0e7ede0d4bc","system_id":"levelo_inurba_marseille","lat":43.288618,"lon":5.425145,"is_reserved":false,"is_disabled":false,"rental_uris":{"android":"levelo://app?vid=1bd44af8-a399-4717-b391-e0e7ede0d4bc","ios":"levelo://app?vid=1bd44af8-a399-4717-b391-e0e7ede0d4bc"},"vehicle_type_id":"4","last_reported":1769509009,"current_range_meters":8400,"station_id":"","pricing_plan_id":"cebpf4jnsgd1na2vs0mg"},{"bike_id":"192a6d8c-37c3-4e68-b00d-c50eeed89a4d","system_id":"levelo_inurba_marseille","lat":43.28269,"lon":5.35061,"is_reserved":false,"is_disabled":false,"rental_uris":{"android":"levelo://app?vid=192a6d8c-37c3-4e68-b00d-c50eeed89a4d","ios":"levelo://app?vid=192a6d8c-37c3-4e68-b00d-c50eeed89a4d"},"vehicle_type_id":"4","last_reported":1769509009,"current_range_meters":8400,"station_id":"ce4bhbp2rcd13ifvqerg","pricing_plan_id":"cebpf4jnsgd1na2vs0mg"},{"bike_id":"e1d814f1-8a4b-47bd-b805-780af94a9b38","system_id":"levelo_inurba_marseille","lat":43.30646,"lon":5.43178,"is_reserved":false,"is_disabled":false,"rental_uris":{"android":"levelo://app?vid=e1d814f1-8a4b-47bd-b805-780af94a9b38","ios":"levelo://app?vid=e1d814f1-8a4b-47bd-b805-780af94a9b38"},"vehicle_type_id":"4","last_reported":1769509009,"current_range_meters":8400,"station_id":"","pricing_plan_id":"cebpf4jnsgd1na2vs0mg"},{"bike_id":"54d081f6-38f7-4279-8b0a-0a86123d9943","system_id":"levelo_inurba_marseille","lat":43.26682,"lon":5.38285,"is_reserved":false,"is_disabled":false,"rental_uris":{"android":"levelo://app?vid=54d081f6-38f7-4279-8b0a-0a86123d9943","ios":"levelo://app?vid=54d081f6-38f7-4279-8b0a-0a86123d9943"},"vehicle_type_id":"4","last_reported":1769509009,"current_range_meters":8400,"station_id":"ce4bhg92rcd13ifvqf90","pricing_plan_id":"cebpf4jnsgd1na2vs0mg"},{"bike_id":"ea69a913-e76f-49f6-ae49-eb321b351e6d","system_id":"levelo_inurba_marseille","lat":43.27829,"lon":5.39217,"is_reserved":false,"is_disabled":false,"rental_uris":{"android":"levelo://app?vid=ea69a913-e76f-49f6-ae49-eb321b351e6d","ios":"levelo://app?vid=ea69a913-e76f-49f6-ae49-eb321b351e6d"},"vehicle_type_id":"4","last_reported":1769509009,"current_range_meters":8400,"station_id":"ce4bhjp2rcd13ifvqga0","pricing_plan_id":"cebpf4jnsgd1na2vs0mg"},{"bike_id":"b17b5124-beec-4a5a-bebf-2b8f718a1349","system_id":"levelo_inurba_marseille","lat":43.23202,"lon":5.35553,"is_reserved":false,"is_disabled":false,"rental_uris":{"android":"levelo://app?vid=b17b5124-beec-4a5a-bebf-2b8f718a1349","ios":"levelo://app?vid=b17b5124-beec-4a5a-bebf-2b8f718a1349"},"vehicle_type_id":"4","last_reported":1769509009,"current_range_meters":8400,"station_id":"ce4bhu92rcd13ifvqi70","pricing_plan_id":"cebpf4jnsgd1na2vs0mg"},{"bike_id":"6b4c2cb5-5f9e-4113-aa57-12bc075351c0","system_id":"levelo_inurba_marseille","lat":43.29939,"lon":5.36535,"is_reserved":false,"is_disabled":false,"rental_uris":{"android":"levelo://app?vid=6b4c2cb5-5f9e-4113-aa57-12bc075351c0","ios":"levelo://app?vid=6b4c2cb5-5f9e-4113-aa57-12bc075351c0"},"vehicle_type_id":"4","last_reported":1769509009,"current_range_meters":8800,"station_id":"ce4bgm92rcd13ifvqbr0","pricing_plan_id":"cebpf4jnsgd1na2vs0mg"},{"bike_id":"7d6a87cd-873d-44b2-a109-0e549332afd0","system_id":"levelo_inurba_marseille","lat":43.30296,"lon":5.36908,"is_reserved":false,"is_disabled":false,"rental_uris":{"android":"levelo://app?vid=7d6a87cd-873d-44b2-a109-0e549332afd0","ios":"levelo://app?vid=7d6a87cd-873d-44b2-a109-0e549332afd0"},"vehicle_type_id":"4","last_reported":1769509009,"current_range_meters":8800,"station_id":"ce4bgqh2rcd13ifvqc5g","pricing_plan_id":"cebpf4jnsgd1na2vs0mg"},{"bike_id":"ef6051ae-368e-462d-a97e-97d412ed7150","system_id":"levelo_inurba_marseille","lat":43.26693,"lon":5.38252,"is_reserved":false,"is_disabled":false,"rental_uris":{"android":"levelo://app?vid=ef6051ae-368e-462d-a97e-97d412ed7150","ios":"levelo://app?vid=ef6051ae-368e-462d-a97e-97d412ed7150"},"vehicle_type_id":"4","last_reported":1769509009,"current_range_meters":8800,"station_id":"ce4bhg92rcd13ifvqf90","pricing_plan_id":"cebpf4jnsgd1na2vs0mg"},{"bike_id":"dbf2d5fa-0067-4d78-8d50-7328128e1b0e","system_id":"levelo_inurba_marseille","lat":43.25823,"lon":5.39426,"is_reserved":false,"is_disabled":false,"rental_uris":{"android":"levelo://app?vid=dbf2d5fa-0067-4d78-8d50-7328128e1b0e","ios":"levelo://app?vid=dbf2d5fa-0067-4d78-8d50-7328128e1b0e"},"vehicle_type_id":"4","last_reported":1769509009,"current_range_meters":8800,"station_id":"ce4bhip2rcd13ifvqft0","pricing_plan_id":"cebpf4jnsgd1na2vs0mg"},{"bike_id":"48fc7424-9f8b-452e-b985-2922c5d3a016","system_id":"levelo_inurba_marseille","lat":43.23171,"lon":5.43717,"is_reserved":false,"is_disabled":false,"rental_uris":{"android":"levelo://app?vid=48fc7424-9f8b-452e-b985-2922c5d3a016","ios":"levelo://app?vid=48fc7424-9f8b-452e-b985-2922c5d3a016"},"vehicle_type_id":"4","last_reported":1769509009,"current_range_meters":8800,"station_id":"ce4bhmp2rcd13ifvqgog","pricing_plan_id":"cebpf4jnsgd1na2vs0mg"},{"bike_id":"44d0616f-fc20-438d-9b08-1efcaa3d0a1f","system_id":"levelo_inurba_marseille","lat":43.30552,"lon":5.36545,"is_reserved":false,"is_disabled":false,"rental_uris":{"android":"levelo://app?vid=44d0616f-fc20-438d-9b08-1efcaa3d0a1f","ios":"levelo://app?vid=44d0616f-fc20-438d-9b08-1efcaa3d0a1f"},"vehicle_type_id":"4","last_reported":1769509009,"current_range_meters":8800,"station_id":"ce4bgs12rcd13ifvqcag","pricing_plan_id":"cebpf4jnsgd1na2vs0mg"},{"bike_id":"71fea5dc-d0de-4a78-a167-9b14189de85c","system_id":"levelo_inurba_marseille","lat":43.28388,"lon":5.34995,"is_reserved":false,"is_disabled":false,"rental_uris":{"android":"levelo://app?vid=71fea5dc-d0de-4a78-a167-9b14189de85c","ios":"levelo://app?vid=71fea5dc-d0de-4a78-a167-9b14189de85c"},"vehicle_type_id":"4","last_reported":1769509009,"current_range_meters":8800,"station_id":"ce4bhbh2rcd13ifvqepg","pricing_plan_id":"cebpf4jnsgd1na2vs0mg"},{"bike_id":"932f24ce-afa3-48f4-a501-0bac81547b63","system_id":"levelo_inurba_marseille","lat":43.28296,"lon":5.35071,"is_reserved":false,"is_disabled":false,"rental_uris":{"android":"levelo://app?vid=932f24ce-afa3-48f4-a501-0bac81547b63","ios":"levelo://app?vid=932f24ce-afa3-48f4-a501-0bac81547b63"},"vehicle_type_id":"4","last_reported":1769509009,"current_range_meters":8800,"station_id":"ce4bhbp2rcd13ifvqerg","pricing_plan_id":"cebpf4jnsgd1na2vs0mg"},{"bike_id":"0d68e9fb-c6a8-4cfc-8dfd-fffb5cc1d283","system_id":"levelo_inurba_marseille","lat":43.30435,"lon":5.37924,"is_reserved":false,"is_disabled":false,"rental_uris":{"android":"levelo://app?vid=0d68e9fb-c6a8-4cfc-8dfd-fffb5cc1d283","ios":"levelo://app?vid=0d68e9fb-c6a8-4cfc-8dfd-fffb5cc1d283"},"vehicle_type_id":"4","last_reported":1769509009,"current_range_meters":8800,"station_id":"ce4bgup2rcd13ifvqcn0","pricing_plan_id":"cebpf4jnsgd1na2vs0mg"},{"bike_id":"0ea3d740-957a-41cd-8123-81078ac58473","system_id":"levelo_inurba_marseille","lat":43.28394,"lon":5.34985,"is_reserved":false,"is_disabled":false,"rental_uris":{"android":"levelo://app?vid=0ea3d740-957a-41cd-8123-81078ac58473","ios":"levelo://app?vid=0ea3d740-957a-41cd-8123-81078ac58473"},"vehicle_type_id":"4","last_reported":1769509009,"current_range_meters":8800,"station_id":"ce4bhbh2rcd13ifvqepg","pricing_plan_id":"cebpf4jnsgd1na2vs0mg"},{"bike_id":"66d53e2f-2a0c-4a26-af49-177c6a70a302","system_id":"levelo_inurba_marseille","lat":43.25433,"lon":5.39582,"is_reserved":false,"is_disabled":false,"rental_uris":{"android":"levelo://app?vid=66d53e2f-2a0c-4a26-af49-177c6a70a302","ios":"levelo://app?vid=66d53e2f-2a0c-4a26-af49-177c6a70a302"},"vehicle_type_id":"4","last_reported":1769509009,"current_range_meters":9200,"station_id":"","pricing_plan_id":"cebpf4jnsgd1na2vs0mg"},{"bike_id":"a090f217-c0b5-4937-b895-df9e45427430","system_id":"levelo_inurba_marseille","lat":43.27203,"lon":5.39171,"is_reserved":false,"is_disabled":false,"rental_uris":{"android":"levelo://app?vid=a090f217-c0b5-4937-b895-df9e45427430","ios":"levelo://app?vid=a090f217-c0b5-4937-b895-df9e45427430"},"vehicle_type_id":"4","last_reported":1769509009,"current_range_meters":9200,"station_id":"ce4bhhp2rcd13ifvqfm0","pricing_plan_id":"cebpf4jnsgd1na2vs0mg"},{"bike_id":"643ff0a2-5272-414a-94e9-d471da996199","system_id":"levelo_inurba_marseille","lat":43.23152,"lon":5.4372,"is_reserved":false,"is_disabled":false,"rental_uris":{"android":"levelo://app?vid=643ff0a2-5272-414a-94e9-d471da996199","ios":"levelo://app?vid=643ff0a2-5272-414a-94e9-d471da996199"},"vehicle_type_id":"4","last_reported":1769509009,"current_range_meters":9200,"station_id":"ce4bhmp2rcd13ifvqgog","pricing_plan_id":"cebpf4jnsgd1na2vs0mg"},{"bike_id":"6486cff7-cfc1-4dca-901e-7bdd8dbcdbcf","system_id":"levelo_inurba_marseille","lat":43.28838,"lon":5.37679,"is_reserved":false,"is_disabled":false,"rental_uris":{"android":"levelo://app?vid=6486cff7-cfc1-4dca-901e-7bdd8dbcdbcf","ios":"levelo://app?vid=6486cff7-cfc1-4dca-901e-7bdd8dbcdbcf"},"vehicle_type_id":"4","last_reported":1769509009,"current_range_meters":9200,"station_id":"","pricing_plan_id":"cebpf4jnsgd1na2vs0mg"},{"bike_id":"989810a9-27ca-4ac1-8c2b-903502fc4908","system_id":"levelo_inurba_marseille","lat":43.28721,"lon":5.36084,"is_reserved":false,"is_disabled":false,"rental_uris":{"android":"levelo://app?vid=989810a9-27ca-4ac1-8c2b-903502fc4908","ios":"levelo://app?vid=989810a9-27ca-4ac1-8c2b-903502fc4908"},"vehicle_type_id":"4","last_reported":1769509009,"current_range_meters":9200,"station_id":"cki0cbj6b192h4jlfktg","pricing_plan_id":"cebpf4jnsgd1na2vs0mg"},{"bike_id":"d1c43644-7810-4148-a97a-875d3c52e1cb","system_id":"levelo_inurba_marseille","lat":43.22563,"lon":5.41629,"is_reserved":false,"is_disabled":false,"rental_uris":{"android":"levelo://app?vid=d1c43644-7810-4148-a97a-875d3c52e1cb","ios":"levelo://app?vid=d1c43644-7810-4148-a97a-875d3c52e1cb"},"vehicle_type_id":"4","last_reported":1769509009,"current_range_meters":9200,"station_id":"st_d2o4gvlbi1j2169b742g","pricing_plan_id":"cebpf4jnsgd1na2vs0mg"},{"bike_id":"c4c65483-928d-4a76-9b45-c09e6bea22a8","system_id":"levelo_inurba_marseille","lat":43.25918,"lon":5.40898,"is_reserved":false,"is_disabled":false,"rental_uris":{"android":"levelo://app?vid=c4c65483-928d-4a76-9b45-c09e6bea22a8","ios":"levelo://app?vid=c4c65483-928d-4a76-9b45-c09e6bea22a8"},"vehicle_type_id":"4","last_reported":1769509009,"current_range_meters":9200,"station_id":"ce4bhm92rcd13ifvqglg","pricing_plan_id":"cebpf4jnsgd1na2vs0mg"},{"bike_id":"68f2dc2b-6261-4160-bfc2-dac04be9d668","system_id":"levelo_inurba_marseille","lat":43.25577,"lon":5.38234,"is_reserved":false,"is_disabled":false,"rental_uris":{"android":"levelo://app?vid=68f2dc2b-6261-4160-bfc2-dac04be9d668","ios":"levelo://app?vid=68f2dc2b-6261-4160-bfc2-dac04be9d668"},"vehicle_type_id":"4","last_reported":1769509009,"current_range_meters":9200,"station_id":"ce4bhih2rcd13ifvqfs0","pricing_plan_id":"cebpf4jnsgd1na2vs0mg"},{"bike_id":"d815de99-dc62-4dc1-9b11-2df23d3fe849","system_id":"levelo_inurba_marseille","lat":43.24074,"lon":5.37767,"is_reserved":false,"is_disabled":true,"rental_uris":{"android":"levelo://app?vid=d815de99-dc62-4dc1-9b11-2df23d3fe849","ios":"levelo://app?vid=d815de99-dc62-4dc1-9b11-2df23d3fe849"},"vehicle_type_id":"4","last_reported":1769509009,"current_range_meters":9200,"station_id":"ce4bhnp2rcd13ifvqgvg","pricing_plan_id":"cebpf4jnsgd1na2vs0mg"},{"bike_id":"62d61854-c952-4fc5-aa7c-2e7ddb81286c","system_id":"levelo_inurba_marseille","lat":43.299655,"lon":5.384987,"is_reserved":false,"is_disabled":false,"rental_uris":{"android":"levelo://app?vid=62d61854-c952-4fc5-aa7c-2e7ddb81286c","ios":"levelo://app?vid=62d61854-c952-4fc5-aa7c-2e7ddb81286c"},"vehicle_type_id":"4","last_reported":1769509009,"current_range_meters":9200,"station_id":"ce4bgj92rcd13ifvqbd0","pricing_plan_id":"cebpf4jnsgd1na2vs0mg"},{"bike_id":"13c4edaa-6a80-4dba-98b1-af4d09d7942d","system_id":"levelo_inurba_marseille","lat":43.2834,"lon":5.38641,"is_reserved":false,"is_disabled":false,"rental_uris":{"android":"levelo://app?vid=13c4edaa-6a80-4dba-98b1-af4d09d7942d","ios":"levelo://app?vid=13c4edaa-6a80-4dba-98b1-af4d09d7942d"},"vehicle_type_id":"4","last_reported":1769509009,"current_range_meters":9200,"station_id":"ce4bh492rcd13ifvqdvg","pricing_plan_id":"cebpf4jnsgd1na2vs0mg"},{"bike_id":"53dd677c-fd23-47dc-9c10-22e083ce7bb6","system_id":"levelo_inurba_marseille","lat":43.28619,"lon":5.39877,"is_reserved":false,"is_disabled":false,"rental_uris":{"android":"levelo://app?vid=53dd677c-fd23-47dc-9c10-22e083ce7bb6","ios":"levelo://app?vid=53dd677c-fd23-47dc-9c10-22e083ce7bb6"},"vehicle_type_id":"4","last_reported":1769509009,"current_range_meters":9200,"station_id":"st_d4a7ka997mjs738ck50g","pricing_plan_id":"cebpf4jnsgd1na2vs0mg"},{"bike_id":"eb0bf08a-b6cc-4ac8-8e1f-c82dd2a6df2f","system_id":"levelo_inurba_marseille","lat":43.32349,"lon":5.36742,"is_reserved":false,"is_disabled":false,"rental_uris":{"android":"levelo://app?vid=eb0bf08a-b6cc-4ac8-8e1f-c82dd2a6df2f","ios":"levelo://app?vid=eb0bf08a-b6cc-4ac8-8e1f-c82dd2a6df2f"},"vehicle_type_id":"4","last_reported":1769509009,"current_range_meters":9200,"station_id":"ce4bhsh2rcd13ifvqi2g","pricing_plan_id":"cebpf4jnsgd1na2vs0mg"},{"bike_id":"40c00ce8-9696-4dc1-a876-a27469c259e5","system_id":"levelo_inurba_marseille","lat":43.23147,"lon":5.43729,"is_reserved":false,"is_disabled":false,"rental_uris":{"android":"levelo://app?vid=40c00ce8-9696-4dc1-a876-a27469c259e5","ios":"levelo://app?vid=40c00ce8-9696-4dc1-a876-a27469c259e5"},"vehicle_type_id":"4","last_reported":1769509009,"current_range_meters":9200,"station_id":"ce4bhmp2rcd13ifvqgog","pricing_plan_id":"cebpf4jnsgd1na2vs0mg"},{"bike_id":"6a8dfbe8-c78e-4934-a1d1-5fd879ba7233","system_id":"levelo_inurba_marseille","lat":43.23141,"lon":5.4372,"is_reserved":false,"is_disabled":false,"rental_uris":{"android":"levelo://app?vid=6a8dfbe8-c78e-4934-a1d1-5fd879ba7233","ios":"levelo://app?vid=6a8dfbe8-c78e-4934-a1d1-5fd879ba7233"},"vehicle_type_id":"4","last_reported":1769509009,"current_range_meters":9200,"station_id":"ce4bhmp2rcd13ifvqgog","pricing_plan_id":"cebpf4jnsgd1na2vs0mg"},{"bike_id":"74dfc5f5-8832-48ba-8d68-0ef0fa100d72","system_id":"levelo_inurba_marseille","lat":43.25573,"lon":5.38248,"is_reserved":false,"is_disabled":false,"rental_uris":{"android":"levelo://app?vid=74dfc5f5-8832-48ba-8d68-0ef0fa100d72","ios":"levelo://app?vid=74dfc5f5-8832-48ba-8d68-0ef0fa100d72"},"vehicle_type_id":"4","last_reported":1769509009,"current_range_meters":9200,"station_id":"ce4bhih2rcd13ifvqfs0","pricing_plan_id":"cebpf4jnsgd1na2vs0mg"},{"bike_id":"9a8ad0af-897e-45a4-9788-4bc766c7219b","system_id":"levelo_inurba_marseille","lat":43.27608,"lon":5.36125,"is_reserved":false,"is_disabled":false,"rental_uris":{"android":"levelo://app?vid=9a8ad0af-897e-45a4-9788-4bc766c7219b","ios":"levelo://app?vid=9a8ad0af-897e-45a4-9788-4bc766c7219b"},"vehicle_type_id":"4","last_reported":1769509009,"current_range_meters":9600,"station_id":"ce4bgj92rcd13ifvqbe0","pricing_plan_id":"cebpf4jnsgd1na2vs0mg"},{"bike_id":"394b0442-b227-4817-82ee-24bf4442a5ce","system_id":"levelo_inurba_marseille","lat":43.30759,"lon":5.42465,"is_reserved":false,"is_disabled":false,"rental_uris":{"android":"levelo://app?vid=394b0442-b227-4817-82ee-24bf4442a5ce","ios":"levelo://app?vid=394b0442-b227-4817-82ee-24bf4442a5ce"},"vehicle_type_id":"4","last_reported":1769509009,"current_range_meters":9600,"station_id":"st_cvj6ca6bvosntc0bfgr0","pricing_plan_id":"cebpf4jnsgd1na2vs0mg"},{"bike_id":"e97d0a7c-09a0-4de9-8b12-4f01b9fc223b","system_id":"levelo_inurba_marseille","lat":43.29755,"lon":5.38028,"is_reserved":false,"is_disabled":false,"rental_uris":{"android":"levelo://app?vid=e97d0a7c-09a0-4de9-8b12-4f01b9fc223b","ios":"levelo://app?vid=e97d0a7c-09a0-4de9-8b12-4f01b9fc223b"},"vehicle_type_id":"4","last_reported":1769509009,"current_range_meters":9600,"station_id":"","pricing_plan_id":"cebpf4jnsgd1na2vs0mg"},{"bike_id":"61b05433-dc61-4d2d-8b87-05604eef790d","system_id":"levelo_inurba_marseille","lat":43.31084,"lon":5.42435,"is_reserved":false,"is_disabled":false,"rental_uris":{"android":"levelo://app?vid=61b05433-dc61-4d2d-8b87-05604eef790d","ios":"levelo://app?vid=61b05433-dc61-4d2d-8b87-05604eef790d"},"vehicle_type_id":"4","last_reported":1769509009,"current_range_meters":9600,"station_id":"ce4bhp92rcd13ifvqhag","pricing_plan_id":"cebpf4jnsgd1na2vs0mg"},{"bike_id":"4ceba446-ad1c-421f-8a0d-e0aa42271ae3","system_id":"levelo_inurba_marseille","lat":43.29011,"lon":5.38127,"is_reserved":false,"is_disabled":false,"rental_uris":{"android":"levelo://app?vid=4ceba446-ad1c-421f-8a0d-e0aa42271ae3","ios":"levelo://app?vid=4ceba446-ad1c-421f-8a0d-e0aa42271ae3"},"vehicle_type_id":"4","last_reported":1769509009,"current_range_meters":9600,"station_id":"ce4bh4p2rcd13ifvqe1g","pricing_plan_id":"cebpf4jnsgd1na2vs0mg"},{"bike_id":"ca9f6eb0-f9f5-49e5-9e86-cf723b24fa90","system_id":"levelo_inurba_marseille","lat":43.30467,"lon":5.37921,"is_reserved":false,"is_disabled":false,"rental_uris":{"android":"levelo://app?vid=ca9f6eb0-f9f5-49e5-9e86-cf723b24fa90","ios":"levelo://app?vid=ca9f6eb0-f9f5-49e5-9e86-cf723b24fa90"},"vehicle_type_id":"4","last_reported":1769509009,"current_range_meters":9600,"station_id":"ce4bgup2rcd13ifvqcn0","pricing_plan_id":"cebpf4jnsgd1na2vs0mg"},{"bike_id":"e9235946-11f5-4ac6-bd5d-2a1780cfab40","system_id":"levelo_inurba_marseille","lat":43.26545,"lon":5.37309,"is_reserved":false,"is_disabled":false,"rental_uris":{"android":"levelo://app?vid=e9235946-11f5-4ac6-bd5d-2a1780cfab40","ios":"levelo://app?vid=e9235946-11f5-4ac6-bd5d-2a1780cfab40"},"vehicle_type_id":"4","last_reported":1769509009,"current_range_meters":9600,"station_id":"ce4bhg12rcd13ifvqf70","pricing_plan_id":"cebpf4jnsgd1na2vs0mg"},{"bike_id":"8495eddb-1f68-4905-af01-2235cc8d9e9f","system_id":"levelo_inurba_marseille","lat":43.3132,"lon":5.39702,"is_reserved":false,"is_disabled":false,"rental_uris":{"android":"levelo://app?vid=8495eddb-1f68-4905-af01-2235cc8d9e9f","ios":"levelo://app?vid=8495eddb-1f68-4905-af01-2235cc8d9e9f"},"vehicle_type_id":"4","last_reported":1769509009,"current_range_meters":9600,"station_id":"ce4bgvp2rcd13ifvqcu0","pricing_plan_id":"cebpf4jnsgd1na2vs0mg"},{"bike_id":"d0f42ee2-a714-4fb2-8e10-0f955cdf931e","system_id":"levelo_inurba_marseille","lat":43.25826,"lon":5.39438,"is_reserved":false,"is_disabled":false,"rental_uris":{"android":"levelo://app?vid=d0f42ee2-a714-4fb2-8e10-0f955cdf931e","ios":"levelo://app?vid=d0f42ee2-a714-4fb2-8e10-0f955cdf931e"},"vehicle_type_id":"4","last_reported":1769509009,"current_range_meters":9600,"station_id":"ce4bhip2rcd13ifvqft0","pricing_plan_id":"cebpf4jnsgd1na2vs0mg"},{"bike_id":"177ff191-340b-40a9-acfc-e00889c16601","system_id":"levelo_inurba_marseille","lat":43.29564,"lon":5.37521,"is_reserved":false,"is_disabled":false,"rental_uris":{"android":"levelo://app?vid=177ff191-340b-40a9-acfc-e00889c16601","ios":"levelo://app?vid=177ff191-340b-40a9-acfc-e00889c16601"},"vehicle_type_id":"4","last_reported":1769509009,"current_range_meters":9600,"station_id":"ce4bgh92rcd13ifvqb50","pricing_plan_id":"cebpf4jnsgd1na2vs0mg"},{"bike_id":"cb8cde94-651e-4099-b2de-f4490841b080","system_id":"levelo_inurba_marseille","lat":43.24165,"lon":5.36389,"is_reserved":false,"is_disabled":false,"rental_uris":{"android":"levelo://app?vid=cb8cde94-651e-4099-b2de-f4490841b080","ios":"levelo://app?vid=cb8cde94-651e-4099-b2de-f4490841b080"},"vehicle_type_id":"4","last_reported":1769509009,"current_range_meters":9600,"station_id":"cpo36qri1sfpv3e86is0","pricing_plan_id":"cebpf4jnsgd1na2vs0mg"},{"bike_id":"799847f3-00d6-4dac-8773-c8f7acf031bb","system_id":"levelo_inurba_marseille","lat":43.31452,"lon":5.37241,"is_reserved":false,"is_disabled":false,"rental_uris":{"android":"levelo://app?vid=799847f3-00d6-4dac-8773-c8f7acf031bb","ios":"levelo://app?vid=799847f3-00d6-4dac-8773-c8f7acf031bb"},"vehicle_type_id":"4","last_reported":1769509009,"current_range_meters":9600,"station_id":"","pricing_plan_id":"cebpf4jnsgd1na2vs0mg"},{"bike_id":"521b2eb3-b391-4d68-ba33-b27e56e26e81","system_id":"levelo_inurba_marseille","lat":43.29789,"lon":5.37105,"is_reserved":false,"is_disabled":false,"rental_uris":{"android":"levelo://app?vid=521b2eb3-b391-4d68-ba33-b27e56e26e81","ios":"levelo://app?vid=521b2eb3-b391-4d68-ba33-b27e56e26e81"},"vehicle_type_id":"4","last_reported":1769509009,"current_range_meters":9600,"station_id":"ce4bgop2rcd13ifvqc1g","pricing_plan_id":"cebpf4jnsgd1na2vs0mg"},{"bike_id":"ca66d378-9d1e-4b95-930f-e2b25ff469f9","system_id":"levelo_inurba_marseille","lat":43.33156,"lon":5.37698,"is_reserved":false,"is_disabled":false,"rental_uris":{"android":"levelo://app?vid=ca66d378-9d1e-4b95-930f-e2b25ff469f9","ios":"levelo://app?vid=ca66d378-9d1e-4b95-930f-e2b25ff469f9"},"vehicle_type_id":"4","last_reported":1769509009,"current_range_meters":9600,"station_id":"st_d46cu089ee8s73dldbu0","pricing_plan_id":"cebpf4jnsgd1na2vs0mg"},{"bike_id":"4ac32cce-9a4a-4925-b8a1-b5782f48ec8f","system_id":"levelo_inurba_marseille","lat":43.29825,"lon":5.36273,"is_reserved":false,"is_disabled":false,"rental_uris":{"android":"levelo://app?vid=4ac32cce-9a4a-4925-b8a1-b5782f48ec8f","ios":"levelo://app?vid=4ac32cce-9a4a-4925-b8a1-b5782f48ec8f"},"vehicle_type_id":"4","last_reported":1769509009,"current_range_meters":9600,"station_id":"ce4bgpp2rcd13ifvqc3g","pricing_plan_id":"cebpf4jnsgd1na2vs0mg"},{"bike_id":"cd344f5c-4fef-4be8-8a35-1b59ed47f3e1","system_id":"levelo_inurba_marseille","lat":43.24548,"lon":5.39529,"is_reserved":false,"is_disabled":false,"rental_uris":{"android":"levelo://app?vid=cd344f5c-4fef-4be8-8a35-1b59ed47f3e1","ios":"levelo://app?vid=cd344f5c-4fef-4be8-8a35-1b59ed47f3e1"},"vehicle_type_id":"4","last_reported":1769509009,"current_range_meters":9600,"station_id":"ce4bhlp2rcd13ifvqgjg","pricing_plan_id":"cebpf4jnsgd1na2vs0mg"},{"bike_id":"bc6c800a-6928-4bf7-8745-f31ca6747acf","system_id":"levelo_inurba_marseille","lat":43.32307,"lon":5.36777,"is_reserved":false,"is_disabled":false,"rental_uris":{"android":"levelo://app?vid=bc6c800a-6928-4bf7-8745-f31ca6747acf","ios":"levelo://app?vid=bc6c800a-6928-4bf7-8745-f31ca6747acf"},"vehicle_type_id":"4","last_reported":1769509009,"current_range_meters":10000,"station_id":"ce4bhsh2rcd13ifvqi2g","pricing_plan_id":"cebpf4jnsgd1na2vs0mg"},{"bike_id":"de0a745b-ff98-4422-bea1-113796d1108a","system_id":"levelo_inurba_marseille","lat":43.24676,"lon":5.3816,"is_reserved":false,"is_disabled":false,"rental_uris":{"android":"levelo://app?vid=de0a745b-ff98-4422-bea1-113796d1108a","ios":"levelo://app?vid=de0a745b-ff98-4422-bea1-113796d1108a"},"vehicle_type_id":"4","last_reported":1769509009,"current_range_meters":10000,"station_id":"ce4bhih2rcd13ifvqfr0","pricing_plan_id":"cebpf4jnsgd1na2vs0mg"},{"bike_id":"48ac7849-98f4-4e69-b9f0-0586eb7d8ef9","system_id":"levelo_inurba_marseille","lat":43.2982,"lon":5.4406,"is_reserved":false,"is_disabled":false,"rental_uris":{"android":"levelo://app?vid=48ac7849-98f4-4e69-b9f0-0586eb7d8ef9","ios":"levelo://app?vid=48ac7849-98f4-4e69-b9f0-0586eb7d8ef9"},"vehicle_type_id":"4","last_reported":1769509009,"current_range_meters":10000,"station_id":"","pricing_plan_id":"cebpf4jnsgd1na2vs0mg"},{"bike_id":"b4a5d2da-950b-4190-a8a9-bd35b9354540","system_id":"levelo_inurba_marseille","lat":43.32505,"lon":5.38329,"is_reserved":false,"is_disabled":false,"rental_uris":{"android":"levelo://app?vid=b4a5d2da-950b-4190-a8a9-bd35b9354540","ios":"levelo://app?vid=b4a5d2da-950b-4190-a8a9-bd35b9354540"},"vehicle_type_id":"4","last_reported":1769509009,"current_range_meters":10000,"station_id":"st_d4asgbiv49dc73anf9m0","pricing_plan_id":"cebpf4jnsgd1na2vs0mg"},{"bike_id":"0e599b21-4e1c-4cd9-989e-c7593b95c46e","system_id":"levelo_inurba_marseille","lat":43.26774,"lon":5.39619,"is_reserved":false,"is_disabled":false,"rental_uris":{"android":"levelo://app?vid=0e599b21-4e1c-4cd9-989e-c7593b95c46e","ios":"levelo://app?vid=0e599b21-4e1c-4cd9-989e-c7593b95c46e"},"vehicle_type_id":"4","last_reported":1769509009,"current_range_meters":10000,"station_id":"","pricing_plan_id":"cebpf4jnsgd1na2vs0mg"},{"bike_id":"0a645314-1e38-4b75-8e0b-3c3cedbd8c06","system_id":"levelo_inurba_marseille","lat":43.28607,"lon":5.39876,"is_reserved":false,"is_disabled":false,"rental_uris":{"android":"levelo://app?vid=0a645314-1e38-4b75-8e0b-3c3cedbd8c06","ios":"levelo://app?vid=0a645314-1e38-4b75-8e0b-3c3cedbd8c06"},"vehicle_type_id":"4","last_reported":1769509009,"current_range_meters":10000,"station_id":"st_d4a7ka997mjs738ck50g","pricing_plan_id":"cebpf4jnsgd1na2vs0mg"},{"bike_id":"fd37e3f8-f653-4032-a18b-5d54517be452","system_id":"levelo_inurba_marseille","lat":43.314817,"lon":5.372975,"is_reserved":false,"is_disabled":false,"rental_uris":{"android":"levelo://app?vid=fd37e3f8-f653-4032-a18b-5d54517be452","ios":"levelo://app?vid=fd37e3f8-f653-4032-a18b-5d54517be452"},"vehicle_type_id":"4","last_reported":1769509009,"current_range_meters":10000,"station_id":"ce4bgt12rcd13ifvqcd0","pricing_plan_id":"cebpf4jnsgd1na2vs0mg"},{"bike_id":"b748a815-2807-4ebd-98f9-910458cc2ed2","system_id":"levelo_inurba_marseille","lat":43.29615,"lon":5.37729,"is_reserved":false,"is_disabled":false,"rental_uris":{"android":"levelo://app?vid=b748a815-2807-4ebd-98f9-910458cc2ed2","ios":"levelo://app?vid=b748a815-2807-4ebd-98f9-910458cc2ed2"},"vehicle_type_id":"4","last_reported":1769509009,"current_range_meters":10000,"station_id":"ce4bgi92rcd13ifvqb90","pricing_plan_id":"cebpf4jnsgd1na2vs0mg"},{"bike_id":"13994f9f-4bf7-453c-86f0-dad910bb7fe2","system_id":"levelo_inurba_marseille","lat":43.3172,"lon":5.404556,"is_reserved":false,"is_disabled":false,"rental_uris":{"android":"levelo://app?vid=13994f9f-4bf7-453c-86f0-dad910bb7fe2","ios":"levelo://app?vid=13994f9f-4bf7-453c-86f0-dad910bb7fe2"},"vehicle_type_id":"4","last_reported":1769509009,"current_range_meters":10000,"station_id":"ce4bh012rcd13ifvqd00","pricing_plan_id":"cebpf4jnsgd1na2vs0mg"},{"bike_id":"b2073835-8071-45e6-8329-8ada17d59494","system_id":"levelo_inurba_marseille","lat":43.29967,"lon":5.37193,"is_reserved":false,"is_disabled":false,"rental_uris":{"android":"levelo://app?vid=b2073835-8071-45e6-8329-8ada17d59494","ios":"levelo://app?vid=b2073835-8071-45e6-8329-8ada17d59494"},"vehicle_type_id":"4","last_reported":1769509009,"current_range_meters":10000,"station_id":"ce4bgr92rcd13ifvqc7g","pricing_plan_id":"cebpf4jnsgd1na2vs0mg"},{"bike_id":"762080ff-9460-4403-b5cb-9005c9f445ba","system_id":"levelo_inurba_marseille","lat":43.24813,"lon":5.37468,"is_reserved":false,"is_disabled":false,"rental_uris":{"android":"levelo://app?vid=762080ff-9460-4403-b5cb-9005c9f445ba","ios":"levelo://app?vid=762080ff-9460-4403-b5cb-9005c9f445ba"},"vehicle_type_id":"4","last_reported":1769509009,"current_range_meters":10000,"station_id":"ce4bhgh2rcd13ifvqfb0","pricing_plan_id":"cebpf4jnsgd1na2vs0mg"},{"bike_id":"e93193ad-4e10-4fde-b0f5-3507ab09bfe1","system_id":"levelo_inurba_marseille","lat":43.33145,"lon":5.37694,"is_reserved":false,"is_disabled":false,"rental_uris":{"android":"levelo://app?vid=e93193ad-4e10-4fde-b0f5-3507ab09bfe1","ios":"levelo://app?vid=e93193ad-4e10-4fde-b0f5-3507ab09bfe1"},"vehicle_type_id":"4","last_reported":1769509009,"current_range_meters":10000,"station_id":"st_d46cu089ee8s73dldbu0","pricing_plan_id":"cebpf4jnsgd1na2vs0mg"},{"bike_id":"b7ba63ef-8d28-4c2f-985f-557a01349fd8","system_id":"levelo_inurba_marseille","lat":43.27182,"lon":5.40999,"is_reserved":false,"is_disabled":false,"rental_uris":{"android":"levelo://app?vid=b7ba63ef-8d28-4c2f-985f-557a01349fd8","ios":"levelo://app?vid=b7ba63ef-8d28-4c2f-985f-557a01349fd8"},"vehicle_type_id":"4","last_reported":1769509009,"current_range_meters":10000,"station_id":"ce4bhl12rcd13ifvqgf0","pricing_plan_id":"cebpf4jnsgd1na2vs0mg"},{"bike_id":"8835c2e4-9651-4a75-98c9-c410b5836b98","system_id":"levelo_inurba_marseille","lat":43.28565,"lon":5.44132,"is_reserved":false,"is_disabled":false,"rental_uris":{"android":"levelo://app?vid=8835c2e4-9651-4a75-98c9-c410b5836b98","ios":"levelo://app?vid=8835c2e4-9651-4a75-98c9-c410b5836b98"},"vehicle_type_id":"4","last_reported":1769509009,"current_range_meters":10000,"station_id":"st_d3j3df2ikq2c7380ej80","pricing_plan_id":"cebpf4jnsgd1na2vs0mg"},{"bike_id":"9fd72da4-67fe-4f28-a93f-5818f963e85b","system_id":"levelo_inurba_marseille","lat":43.25079,"lon":5.39497,"is_reserved":false,"is_disabled":false,"rental_uris":{"android":"levelo://app?vid=9fd72da4-67fe-4f28-a93f-5818f963e85b","ios":"levelo://app?vid=9fd72da4-67fe-4f28-a93f-5818f963e85b"},"vehicle_type_id":"4","last_reported":1769509009,"current_range_meters":10800,"station_id":"ce4bhm12rcd13ifvqgkg","pricing_plan_id":"cebpf4jnsgd1na2vs0mg"},{"bike_id":"fe18431d-53df-4614-883d-fffa52f224b1","system_id":"levelo_inurba_marseille","lat":43.332,"lon":5.40271,"is_reserved":false,"is_disabled":false,"rental_uris":{"android":"levelo://app?vid=fe18431d-53df-4614-883d-fffa52f224b1","ios":"levelo://app?vid=fe18431d-53df-4614-883d-fffa52f224b1"},"vehicle_type_id":"4","last_reported":1769509009,"current_range_meters":10800,"station_id":"","pricing_plan_id":"cebpf4jnsgd1na2vs0mg"},{"bike_id":"4c3ee580-76cd-41db-ab53-f7d8d1ee494a","system_id":"levelo_inurba_marseille","lat":43.30125,"lon":5.43115,"is_reserved":false,"is_disabled":false,"rental_uris":{"android":"levelo://app?vid=4c3ee580-76cd-41db-ab53-f7d8d1ee494a","ios":"levelo://app?vid=4c3ee580-76cd-41db-ab53-f7d8d1ee494a"},"vehicle_type_id":"4","last_reported":1769509009,"current_range_meters":10800,"station_id":"st_d3js3co5814s73ftftug","pricing_plan_id":"cebpf4jnsgd1na2vs0mg"},{"bike_id":"dc47f27c-80c4-4aef-9f7e-137ae5f6aaab","system_id":"levelo_inurba_marseille","lat":43.2404,"lon":5.37789,"is_reserved":false,"is_disabled":false,"rental_uris":{"android":"levelo://app?vid=dc47f27c-80c4-4aef-9f7e-137ae5f6aaab","ios":"levelo://app?vid=dc47f27c-80c4-4aef-9f7e-137ae5f6aaab"},"vehicle_type_id":"4","last_reported":1769509009,"current_range_meters":10800,"station_id":"ce4bhnp2rcd13ifvqgvg","pricing_plan_id":"cebpf4jnsgd1na2vs0mg"},{"bike_id":"f6e405d3-8a9d-4261-8d95-49e5d5fcb5c0","system_id":"levelo_inurba_marseille","lat":43.32486,"lon":5.36576,"is_reserved":false,"is_disabled":false,"rental_uris":{"android":"levelo://app?vid=f6e405d3-8a9d-4261-8d95-49e5d5fcb5c0","ios":"levelo://app?vid=f6e405d3-8a9d-4261-8d95-49e5d5fcb5c0"},"vehicle_type_id":"4","last_reported":1769509009,"current_range_meters":10800,"station_id":"ce4bhs12rcd13ifvqhvg","pricing_plan_id":"cebpf4jnsgd1na2vs0mg"},{"bike_id":"c5a027ec-7291-4eaa-9cfc-7f41b39ae3b8","system_id":"levelo_inurba_marseille","lat":43.2827,"lon":5.35082,"is_reserved":false,"is_disabled":false,"rental_uris":{"android":"levelo://app?vid=c5a027ec-7291-4eaa-9cfc-7f41b39ae3b8","ios":"levelo://app?vid=c5a027ec-7291-4eaa-9cfc-7f41b39ae3b8"},"vehicle_type_id":"4","last_reported":1769509009,"current_range_meters":10800,"station_id":"ce4bhbp2rcd13ifvqerg","pricing_plan_id":"cebpf4jnsgd1na2vs0mg"},{"bike_id":"1a56152d-f93b-4ba8-94fe-9709967df90d","system_id":"levelo_inurba_marseille","lat":43.23965,"lon":5.3663,"is_reserved":false,"is_disabled":false,"rental_uris":{"android":"levelo://app?vid=1a56152d-f93b-4ba8-94fe-9709967df90d","ios":"levelo://app?vid=1a56152d-f93b-4ba8-94fe-9709967df90d"},"vehicle_type_id":"4","last_reported":1769509009,"current_range_meters":10800,"station_id":"ce4bhi12rcd13ifvqfp0","pricing_plan_id":"cebpf4jnsgd1na2vs0mg"},{"bike_id":"7d22752a-f133-4083-b6bb-f6a2946f2ca7","system_id":"levelo_inurba_marseille","lat":43.29534,"lon":5.37532,"is_reserved":false,"is_disabled":false,"rental_uris":{"android":"levelo://app?vid=7d22752a-f133-4083-b6bb-f6a2946f2ca7","ios":"levelo://app?vid=7d22752a-f133-4083-b6bb-f6a2946f2ca7"},"vehicle_type_id":"4","last_reported":1769509009,"current_range_meters":10800,"station_id":"ce4bgkp2rcd13ifvqbmg","pricing_plan_id":"cebpf4jnsgd1na2vs0mg"},{"bike_id":"ea593747-46f8-4f1d-ad75-e03de719f0f9","system_id":"levelo_inurba_marseille","lat":43.30902,"lon":5.36864,"is_reserved":false,"is_disabled":false,"rental_uris":{"android":"levelo://app?vid=ea593747-46f8-4f1d-ad75-e03de719f0f9","ios":"levelo://app?vid=ea593747-46f8-4f1d-ad75-e03de719f0f9"},"vehicle_type_id":"4","last_reported":1769509009,"current_range_meters":10800,"station_id":"ce4bgn92rcd13ifvqbvg","pricing_plan_id":"cebpf4jnsgd1na2vs0mg"},{"bike_id":"7d07bdde-d244-4e30-ac69-3d19598e5a7c","system_id":"levelo_inurba_marseille","lat":43.2996,"lon":5.37221,"is_reserved":false,"is_disabled":false,"rental_uris":{"android":"levelo://app?vid=7d07bdde-d244-4e30-ac69-3d19598e5a7c","ios":"levelo://app?vid=7d07bdde-d244-4e30-ac69-3d19598e5a7c"},"vehicle_type_id":"4","last_reported":1769509009,"current_range_meters":10800,"station_id":"ce4bgr92rcd13ifvqc7g","pricing_plan_id":"cebpf4jnsgd1na2vs0mg"},{"bike_id":"d46471ec-377c-410e-b3fb-8093e216c936","system_id":"levelo_inurba_marseille","lat":43.33155,"lon":5.37695,"is_reserved":false,"is_disabled":false,"rental_uris":{"android":"levelo://app?vid=d46471ec-377c-410e-b3fb-8093e216c936","ios":"levelo://app?vid=d46471ec-377c-410e-b3fb-8093e216c936"},"vehicle_type_id":"4","last_reported":1769509009,"current_range_meters":10800,"station_id":"st_d46cu089ee8s73dldbu0","pricing_plan_id":"cebpf4jnsgd1na2vs0mg"},{"bike_id":"6c21ba36-56d3-4886-aea5-bc3a1110a460","system_id":"levelo_inurba_marseille","lat":43.29912,"lon":5.3814,"is_reserved":false,"is_disabled":false,"rental_uris":{"android":"levelo://app?vid=6c21ba36-56d3-4886-aea5-bc3a1110a460","ios":"levelo://app?vid=6c21ba36-56d3-4886-aea5-bc3a1110a460"},"vehicle_type_id":"4","last_reported":1769509009,"current_range_meters":11200,"station_id":"ce4bgj12rcd13ifvqbc0","pricing_plan_id":"cebpf4jnsgd1na2vs0mg"},{"bike_id":"293bf7b7-0f0f-4323-bd4b-aa8698c6c665","system_id":"levelo_inurba_marseille","lat":43.23141,"lon":5.43734,"is_reserved":false,"is_disabled":false,"rental_uris":{"android":"levelo://app?vid=293bf7b7-0f0f-4323-bd4b-aa8698c6c665","ios":"levelo://app?vid=293bf7b7-0f0f-4323-bd4b-aa8698c6c665"},"vehicle_type_id":"4","last_reported":1769509009,"current_range_meters":11200,"station_id":"ce4bhmp2rcd13ifvqgog","pricing_plan_id":"cebpf4jnsgd1na2vs0mg"},{"bike_id":"57ba8264-2f36-40a0-84a9-adc727c65354","system_id":"levelo_inurba_marseille","lat":43.29067,"lon":5.40044,"is_reserved":false,"is_disabled":false,"rental_uris":{"android":"levelo://app?vid=57ba8264-2f36-40a0-84a9-adc727c65354","ios":"levelo://app?vid=57ba8264-2f36-40a0-84a9-adc727c65354"},"vehicle_type_id":"4","last_reported":1769509009,"current_range_meters":11200,"station_id":"","pricing_plan_id":"cebpf4jnsgd1na2vs0mg"},{"bike_id":"6d0f3590-1f08-4309-8a81-86f2ba4719cc","system_id":"levelo_inurba_marseille","lat":43.23141,"lon":5.4373,"is_reserved":false,"is_disabled":false,"rental_uris":{"android":"levelo://app?vid=6d0f3590-1f08-4309-8a81-86f2ba4719cc","ios":"levelo://app?vid=6d0f3590-1f08-4309-8a81-86f2ba4719cc"},"vehicle_type_id":"4","last_reported":1769509009,"current_range_meters":11200,"station_id":"ce4bhmp2rcd13ifvqgog","pricing_plan_id":"cebpf4jnsgd1na2vs0mg"},{"bike_id":"be73f9f8-39c5-4042-b9a4-d2b74c307907","system_id":"levelo_inurba_marseille","lat":43.31365,"lon":5.36718,"is_reserved":false,"is_disabled":false,"rental_uris":{"android":"levelo://app?vid=be73f9f8-39c5-4042-b9a4-d2b74c307907","ios":"levelo://app?vid=be73f9f8-39c5-4042-b9a4-d2b74c307907"},"vehicle_type_id":"4","last_reported":1769509009,"current_range_meters":11200,"station_id":"ce4bgr92rcd13ifvqc6g","pricing_plan_id":"cebpf4jnsgd1na2vs0mg"},{"bike_id":"8e2b31b0-98c9-4daf-8d18-30fc830a8a7a","system_id":"levelo_inurba_marseille","lat":43.29056,"lon":5.40016,"is_reserved":false,"is_disabled":false,"rental_uris":{"android":"levelo://app?vid=8e2b31b0-98c9-4daf-8d18-30fc830a8a7a","ios":"levelo://app?vid=8e2b31b0-98c9-4daf-8d18-30fc830a8a7a"},"vehicle_type_id":"4","last_reported":1769509009,"current_range_meters":11200,"station_id":"ce4bh392rcd13ifvqdm0","pricing_plan_id":"cebpf4jnsgd1na2vs0mg"},{"bike_id":"690311ac-da8d-43f3-b9e5-4e7d467ee486","system_id":"levelo_inurba_marseille","lat":43.323527,"lon":5.367321,"is_reserved":false,"is_disabled":false,"rental_uris":{"android":"levelo://app?vid=690311ac-da8d-43f3-b9e5-4e7d467ee486","ios":"levelo://app?vid=690311ac-da8d-43f3-b9e5-4e7d467ee486"},"vehicle_type_id":"4","last_reported":1769509009,"current_range_meters":11200,"station_id":"ce4bhsh2rcd13ifvqi2g","pricing_plan_id":"cebpf4jnsgd1na2vs0mg"},{"bike_id":"d9f56a61-1a13-4a92-b34c-7b199d4cd125","system_id":"levelo_inurba_marseille","lat":43.2797,"lon":5.41067,"is_reserved":false,"is_disabled":true,"rental_uris":{"android":"levelo://app?vid=d9f56a61-1a13-4a92-b34c-7b199d4cd125","ios":"levelo://app?vid=d9f56a61-1a13-4a92-b34c-7b199d4cd125"},"vehicle_type_id":"4","last_reported":1769509009,"current_range_meters":11200,"station_id":"ce4bhnp2rcd13ifvqh0g","pricing_plan_id":"cebpf4jnsgd1na2vs0mg"},{"bike_id":"8adf422e-1d31-4a04-96dd-dc48c4174bee","system_id":"levelo_inurba_marseille","lat":43.2554,"lon":5.37715,"is_reserved":false,"is_disabled":false,"rental_uris":{"android":"levelo://app?vid=8adf422e-1d31-4a04-96dd-dc48c4174bee","ios":"levelo://app?vid=8adf422e-1d31-4a04-96dd-dc48c4174bee"},"vehicle_type_id":"4","last_reported":1769509009,"current_range_meters":11200,"station_id":"ce4bhh12rcd13ifvqff0","pricing_plan_id":"cebpf4jnsgd1na2vs0mg"},{"bike_id":"e6a5661d-144e-4a59-aee1-bebd9c95c655","system_id":"levelo_inurba_marseille","lat":43.250029,"lon":5.389146,"is_reserved":false,"is_disabled":false,"rental_uris":{"android":"levelo://app?vid=e6a5661d-144e-4a59-aee1-bebd9c95c655","ios":"levelo://app?vid=e6a5661d-144e-4a59-aee1-bebd9c95c655"},"vehicle_type_id":"4","last_reported":1769509009,"current_range_meters":11200,"station_id":"ce4bhgp2rcd13ifvqfd0","pricing_plan_id":"cebpf4jnsgd1na2vs0mg"},{"bike_id":"9153da11-3434-49ff-9f6b-3162b117c603","system_id":"levelo_inurba_marseille","lat":43.286328,"lon":5.398954,"is_reserved":false,"is_disabled":false,"rental_uris":{"android":"levelo://app?vid=9153da11-3434-49ff-9f6b-3162b117c603","ios":"levelo://app?vid=9153da11-3434-49ff-9f6b-3162b117c603"},"vehicle_type_id":"4","last_reported":1769509009,"current_range_meters":11200,"station_id":"","pricing_plan_id":"cebpf4jnsgd1na2vs0mg"},{"bike_id":"c4022380-aeb3-4eb7-aebb-d6d5d62ffff3","system_id":"levelo_inurba_marseille","lat":43.246334,"lon":5.431463,"is_reserved":false,"is_disabled":false,"rental_uris":{"android":"levelo://app?vid=c4022380-aeb3-4eb7-aebb-d6d5d62ffff3","ios":"levelo://app?vid=c4022380-aeb3-4eb7-aebb-d6d5d62ffff3"},"vehicle_type_id":"4","last_reported":1769509009,"current_range_meters":11200,"station_id":"st_d2m6c4gdas8pm72e190g","pricing_plan_id":"cebpf4jnsgd1na2vs0mg"},