{"last_updated":1683414404,"ttl":30,"version":"2.2","data":{"bikes":[{"bike_id":"7f91af93-875b-43a6-8e39-c43573e763a6","system_id":"levelo_inurba_marseille","lat":43.312239,"lon":5.368562,"is_reserved":false,"is_disabled":false,"rental_uris":{"android":"levelo://app?vid=7f91af93-875b-43a6-8e39-c43573e763a6","ios":"levelo://app?vid=7f91af93-875b-43a6-8e39-c43573e763a6"},"vehicle_type_id":"4","last_reported":1683414404,"current_range_meters":24800,"station_id":"ce4bgl92rcd13ifvqbq0","pricing_plan_id":"free"},{"bike_id":"71a3dbcc-c74d-4bae-9fea-667d6a8a562a","system_id":"levelo_inurba_marseille","lat":43.312239,"lon":5.368562,"is_reserved":false,"is_disabled":false,"rental_uris":{"android":"levelo://app?vid=71a3dbcc-c74d-4bae-9fea-667d6a8a562a","ios":"levelo://app?vid=71a3dbcc-c74d-4bae-9fea-667d6a8a562a"},"vehicle_type_id":"4","last_reported":1683414404,"current_range_meters":31200,"station_id":"ce4bgl92rcd13ifvqbq0","pricing_plan_id":"free"},{"bike_id":"4562b18f-6b3f-4432-a6f6-2b43e1886bfb","system_id":"levelo_inurba_marseille","lat":43.312239,"lon":5.368562,"is_reserved":false,"is_disabled":false,"rental_uris":{"android":"levelo://app?vid=4562b18f-6b3f-4432-a6f6-2b43e1886bfb","ios":"levelo://app?vid=4562b18f-6b3f-4432-a6f6-2b43e1886bfb"},"vehicle_type_id":"4","last_reported":1683414404,"current_range_meters":11200,"station_id":"ce4bgl92rcd13ifvqbq0","pricing_plan_id":"free"},{"bike_id":"3b581a37-817e-4647-8743-9a0251f77bc3","system_id":"levelo_inurba_marseille","lat":43.31478,"lon":5.3731,"is_reserved":false,"is_disabled":false,"rental_uris":{"android":"levelo://app?vid=3b581a37-817e-4647-8743-9a0251f77bc3","ios":"levelo://app?vid=3b581a37-817e-4647-8743-9a0251f77bc3"},"vehicle_type_id":"4","last_reported":1683414404,"current_range_meters":3600,"station_id":"ce4bgt12rcd13ifvqcd0","pricing_plan_id":"free"},{"bike_id":"617985df-9fd6-4213-aac4-811a5c72d6a5","system_id":"levelo_inurba_marseille","lat":43.31483,"lon":5.37307,"is_reserved":false,"is_disabled":false,"rental_uris":{"android":"levelo://app?vid=617985df-9fd6-4213-aac4-811a5c72d6a5","ios":"levelo://app?vid=617985df-9fd6-4213-aac4-811a5c72d6a5"},"vehicle_type_id":"4","last_reported":1683414404,"current_range_meters":9600,"station_id":"ce4bgt12rcd13ifvqcd0","pricing_plan_id":"free"},{"bike_id":"7eeef4f9-5b08-4550-aa17-8a3841b3d2aa","system_id":"levelo_inurba_marseille","lat":43.31483,"lon":5.37309,"is_reserved":false,"is_disabled":false,"rental_uris":{"android":"levelo://app?vid=7eeef4f9-5b08-4550-aa17-8a3841b3d2aa","ios":"levelo://app?vid=7eeef4f9-5b08-4550-aa17-8a3841b3d2aa"},"vehicle_type_id":"4","last_reported":1683414404,"current_range_meters":14000,"station_id":"ce4bgt12rcd13ifvqcd0","pricing_plan_id":"free"},{"bike_id":"ec987c41-ba7f-4931-adc2-686045bfea48","system_id":"levelo_inurba_marseille","lat":43.314811,"lon":5.373103,"is_reserved":false,"is_disabled":false,"rental_uris":{"android":"levelo://app?vid=ec987c41-ba7f-4931-adc2-686045bfea48","ios":"levelo://app?vid=ec987c41-ba7f-4931-adc2-686045bfea48"},"vehicle_type_id":"4","last_reported":1683414404,"current_range_meters":18400,"station_id":"ce4bgt12rcd13ifvqcd0","pricing_plan_id":"free"},{"bike_id":"a15c0cfa-64f4-471f-b37c-89e979a865ff","system_id":"levelo_inurba_marseille","lat":43.314811,"lon":5.373103,"is_reserved":false,"is_disabled":false,"rental_uris":{"android":"levelo://app?vid=a15c0cfa-64f4-471f-b37c-89e979a865ff","ios":"levelo://app?vid=a15c0cfa-64f4-471f-b37c-89e979a865ff"},"vehicle_type_id":"4","last_reported":1683414404,"current_range_meters":18400,"station_id":"ce4bgt12rcd13ifvqcd0","pricing_plan_id":"free"},{"bike_id":"19143d40-0da8-48f9-8856-e8a2c4d3ca6b","system_id":"levelo_inurba_marseille","lat":43.308614,"lon":5.372098,"is_reserved":false,"is_disabled":false,"rental_uris":{"android":"levelo://app?vid=19143d40-0da8-48f9-8856-e8a2c4d3ca6b","ios":"levelo://app?vid=19143d40-0da8-48f9-8856-e8a2c4d3ca6b"},"vehicle_type_id":"4","last_reported":1683414404,"current_range_meters":2400,"station_id":"ce4bguh2rcd13ifvqckg","pricing_plan_id":"free"},{"bike_id":"8eb86c4d-e0c7-4281-8428-6b158ae722ba","system_id":"levelo_inurba_marseille","lat":43.31927,"lon":5.36762,"is_reserved":false,"is_disabled":false,"rental_uris":{"android":"levelo://app?vid=8eb86c4d-e0c7-4281-8428-6b158ae722ba","ios":"levelo://app?vid=8eb86c4d-e0c7-4281-8428-6b158ae722ba"},"vehicle_type_id":"4","last_reported":1683414404,"current_range_meters":13200,"station_id":"","pricing_plan_id":"free"},{"bike_id":"caea2489-5a5d-4f00-8e78-8c319f8ed68e","system_id":"levelo_inurba_marseille","lat":43.3057,"lon":5.36553,"is_reserved":false,"is_disabled":false,"rental_uris":{"android":"levelo://app?vid=caea2489-5a5d-4f00-8e78-8c319f8ed68e","ios":"levelo://app?vid=caea2489-5a5d-4f00-8e78-8c319f8ed68e"},"vehicle_type_id":"4","last_reported":1683414404,"current_range_meters":4800,"station_id":"","pricing_plan_id":"free"},{"bike_id":"692d6c67-f71a-4d21-b15f-e5cb89228b9d","system_id":"levelo_inurba_marseille","lat":43.30547,"lon":5.367,"is_reserved":false,"is_disabled":false,"rental_uris":{"android":"levelo://app?vid=692d6c67-f71a-4d21-b15f-e5cb89228b9d","ios":"levelo://app?vid=692d6c67-f71a-4d21-b15f-e5cb89228b9d"},"vehicle_type_id":"4","last_reported":1683414404,"current_range_meters":12000,"station_id":"","pricing_plan_id":"free"},{"bike_id":"69ab87af-c40c-451b-b8fe-8017b9bae672","system_id":"levelo_inurba_marseille","lat":43.30543,"lon":5.36703,"is_reserved":false,"is_disabled":false,"rental_uris":{"android":"levelo://app?vid=69ab87af-c40c-451b-b8fe-8017b9bae672","ios":"levelo://app?vid=69ab87af-c40c-451b-b8fe-8017b9bae672"},"vehicle_type_id":"4","last_reported":1683414404,"current_range_meters":0,"station_id":"ce4bgrp2rcd13ifvqc9g","pricing_plan_id":"free"},{"bike_id":"5880e6c2-fdf8-4b7c-85de-e0c7bc951827","system_id":"levelo_inurba_marseille","lat":43.305989,"lon":5.37225,"is_reserved":false,"is_disabled":false,"rental_uris":{"android":"levelo://app?vid=5880e6c2-fdf8-4b7c-85de-e0c7bc951827","ios":"levelo://app?vid=5880e6c2-fdf8-4b7c-85de-e0c7bc951827"},"vehicle_type_id":"4","last_reported":1683414404,"current_range_meters":20000,"station_id":"ce4bgqh2rcd13ifvqc4g","pricing_plan_id":"free"},{"bike_id":"c649ba95-529c-42c8-b11a-96105bdfdc67","system_id":"levelo_inurba_marseille","lat":43.311131,"lon":5.377651,"is_reserved":false,"is_disabled":false,"rental_uris":{"android":"levelo://app?vid=c649ba95-529c-42c8-b11a-96105bdfdc67","ios":"levelo://app?vid=c649ba95-529c-42c8-b11a-96105bdfdc67"},"vehicle_type_id":"4","last_reported":1683414404,"current_range_meters":13600,"station_id":"ce4bgt92rcd13ifvqcg0","pricing_plan_id":"free"},{"bike_id":"a629806c-0288-4eb5-9434-6693fed72f8e","system_id":"levelo_inurba_marseille","lat":43.311131,"lon":5.377651,"is_reserved":false,"is_disabled":false,"rental_uris":{"android":"levelo://app?vid=a629806c-0288-4eb5-9434-6693fed72f8e","ios":"levelo://app?vid=a629806c-0288-4eb5-9434-6693fed72f8e"},"vehicle_type_id":"4","last_reported":1683414404,"current_range_meters":9600,"station_id":"ce4bgt92rcd13ifvqcg0","pricing_plan_id":"free"},{"bike_id":"b03c1e35-46ce-46b7-80ce-6af12ad4543b","system_id":"levelo_inurba_marseille","lat":43.311131,"lon":5.377651,"is_reserved":false,"is_disabled":false,"rental_uris":{"android":"levelo://app?vid=b03c1e35-46ce-46b7-80ce-6af12ad4543b","ios":"levelo://app?vid=b03c1e35-46ce-46b7-80ce-6af12ad4543b"},"vehicle_type_id":"4","last_reported":1683414404,"current_range_meters":17600,"station_id":"ce4bgt92rcd13ifvqcg0","pricing_plan_id":"free"},{"bike_id":"df72dee3-ccf6-473b-9d33-15c55dd5b988","system_id":"levelo_inurba_marseille","lat":43.311131,"lon":5.377651,"is_reserved":false,"is_disabled":false,"rental_uris":{"android":"levelo://app?vid=df72dee3-ccf6-473b-9d33-15c55dd5b988","ios":"levelo://app?vid=df72dee3-ccf6-473b-9d33-15c55dd5b988"},"vehicle_type_id":"4","last_reported":1683414404,"current_range_meters":8400,"station_id":"ce4bgt92rcd13ifvqcg0","pricing_plan_id":"free"},{"bike_id":"2baac9e0-4e70-4d42-a81c-439aaa9919c9","system_id":"levelo_inurba_marseille","lat":43.30863,"lon":5.37766,"is_reserved":false,"is_disabled":false,"rental_uris":{"android":"levelo://app?vid=2baac9e0-4e70-4d42-a81c-439aaa9919c9","ios":"levelo://app?vid=2baac9e0-4e70-4d42-a81c-439aaa9919c9"},"vehicle_type_id":"4","last_reported":1683414404,"current_range_meters":6000,"station_id":"","pricing_plan_id":"free"},{"bike_id":"e6101ce1-0f88-4505-8dc1-3e194351cd9a","system_id":"levelo_inurba_marseille","lat":43.317075,"lon":5.377367,"is_reserved":false,"is_disabled":false,"rental_uris":{"android":"levelo://app?vid=e6101ce1-0f88-4505-8dc1-3e194351cd9a","ios":"levelo://app?vid=e6101ce1-0f88-4505-8dc1-3e194351cd9a"},"vehicle_type_id":"4","last_reported":1683414404,"current_range_meters":30400,"station_id":"ce4bgth2rcd13ifvqch0","pricing_plan_id":"free"},{"bike_id":"0fcc3bc2-6ba4-4650-bf96-4cf18964f223","system_id":"levelo_inurba_marseille","lat":43.317075,"lon":5.377367,"is_reserved":false,"is_disabled":false,"rental_uris":{"android":"levelo://app?vid=0fcc3bc2-6ba4-4650-bf96-4cf18964f223","ios":"levelo://app?vid=0fcc3bc2-6ba4-4650-bf96-4cf18964f223"},"vehicle_type_id":"4","last_reported":1683414404,"current_range_meters":31200,"station_id":"ce4bgth2rcd13ifvqch0","pricing_plan_id":"free"},{"bike_id":"82ee987f-ee8f-4a2b-8643-a39f7d1c6ad5","system_id":"levelo_inurba_marseille","lat":43.30304,"lon":5.368987,"is_reserved":false,"is_disabled":false,"rental_uris":{"android":"levelo://app?vid=82ee987f-ee8f-4a2b-8643-a39f7d1c6ad5","ios":"levelo://app?vid=82ee987f-ee8f-4a2b-8643-a39f7d1c6ad5"},"vehicle_type_id":"4","last_reported":1683414404,"current_range_meters":26400,"station_id":"ce4bgqh2rcd13ifvqc5g","pricing_plan_id":"free"},{"bike_id":"33d5c5a2-67d0-49a6-921e-22888a0f188b","system_id":"levelo_inurba_marseille","lat":43.303046,"lon":5.368981,"is_reserved":false,"is_disabled":false,"rental_uris":{"android":"levelo://app?vid=33d5c5a2-67d0-49a6-921e-22888a0f188b","ios":"levelo://app?vid=33d5c5a2-67d0-49a6-921e-22888a0f188b"},"vehicle_type_id":"4","last_reported":1683414404,"current_range_meters":9200,"station_id":"ce4bgqh2rcd13ifvqc5g","pricing_plan_id":"free"},{"bike_id":"9e697835-2b41-40f0-836a-48ec6c6c7108","system_id":"levelo_inurba_marseille","lat":43.315289,"lon":5.380349,"is_reserved":false,"is_disabled":false,"rental_uris":{"android":"levelo://app?vid=9e697835-2b41-40f0-836a-48ec6c6c7108","ios":"levelo://app?vid=9e697835-2b41-40f0-836a-48ec6c6c7108"},"vehicle_type_id":"4","last_reported":1683414404,"current_range_meters":10400,"station_id":"ce4bhsp2rcd13ifvqi50","pricing_plan_id":"free"},{"bike_id":"de6da774-24ca-4773-b57e-34a94356e536","system_id":"levelo_inurba_marseille","lat":43.301939,"lon":5.366286,"is_reserved":false,"is_disabled":false,"rental_uris":{"android":"levelo://app?vid=de6da774-24ca-4773-b57e-34a94356e536","ios":"levelo://app?vid=de6da774-24ca-4773-b57e-34a94356e536"},"vehicle_type_id":"4","last_reported":1683414404,"current_range_meters":3200,"station_id":"ce4bgrh2rcd13ifvqc8g","pricing_plan_id":"free"},{"bike_id":"f6351fa2-f816-47b1-975d-aea90323641b","system_id":"levelo_inurba_marseille","lat":43.308012,"lon":5.381511,"is_reserved":false,"is_disabled":false,"rental_uris":{"android":"levelo://app?vid=f6351fa2-f816-47b1-975d-aea90323641b","ios":"levelo://app?vid=f6351fa2-f816-47b1-975d-aea90323641b"},"vehicle_type_id":"4","last_reported":1683414404,"current_range_meters":3200,"station_id":"ce4bgt12rcd13ifvqce0","pricing_plan_id":"free"},{"bike_id":"735db315-86c0-4415-86a5-2e460158fbcf","system_id":"levelo_inurba_marseille","lat":43.30802,"lon":5.38147,"is_reserved":false,"is_disabled":false,"rental_uris":{"android":"levelo://app?vid=735db315-86c0-4415-86a5-2e460158fbcf","ios":"levelo://app?vid=735db315-86c0-4415-86a5-2e460158fbcf"},"vehicle_type_id":"4","last_reported":1683414404,"current_range_meters":18400,"station_id":"ce4bgt12rcd13ifvqce0","pricing_plan_id":"free"},{"bike_id":"28a8889a-7aa7-4f58-8c4f-a97995396cc2","system_id":"levelo_inurba_marseille","lat":43.30797,"lon":5.38146,"is_reserved":false,"is_disabled":false,"rental_uris":{"android":"levelo://app?vid=28a8889a-7aa7-4f58-8c4f-a97995396cc2","ios":"levelo://app?vid=28a8889a-7aa7-4f58-8c4f-a97995396cc2"},"vehicle_type_id":"4","last_reported":1683414404,"current_range_meters":14800,"station_id":"ce4bgt12rcd13ifvqce0","pricing_plan_id":"free"},{"bike_id":"12d101a6-7079-47e4-96eb-31df13af5ab6","system_id":"levelo_inurba_marseille","lat":43.308012,"lon":5.381511,"is_reserved":false,"is_disabled":false,"rental_uris":{"android":"levelo://app?vid=12d101a6-7079-47e4-96eb-31df13af5ab6","ios":"levelo://app?vid=12d101a6-7079-47e4-96eb-31df13af5ab6"},"vehicle_type_id":"4","last_reported":1683414404,"current_range_meters":18000,"station_id":"ce4bgt12rcd13ifvqce0","pricing_plan_id":"free"},{"bike_id":"f25f4f1b-94b8-4324-9385-61d5ed784b3b","system_id":"levelo_inurba_marseille","lat":43.308012,"lon":5.381511,"is_reserved":false,"is_disabled":false,"rental_uris":{"android":"levelo://app?vid=f25f4f1b-94b8-4324-9385-61d5ed784b3b","ios":"levelo://app?vid=f25f4f1b-94b8-4324-9385-61d5ed784b3b"},"vehicle_type_id":"4","last_reported":1683414404,"current_range_meters":7200,"station_id":"ce4bgt12rcd13ifvqce0","pricing_plan_id":"free"},{"bike_id":"bf78e937-7883-4bab-b261-dec8e19b82a5","system_id":"levelo_inurba_marseille","lat":43.308012,"lon":5.381511,"is_reserved":false,"is_disabled":false,"rental_uris":{"android":"levelo://app?vid=bf78e937-7883-4bab-b261-dec8e19b82a5","ios":"levelo://app?vid=bf78e937-7883-4bab-b261-dec8e19b82a5"},"vehicle_type_id":"4","last_reported":1683414404,"current_range_meters":24400,"station_id":"ce4bgt12rcd13ifvqce0","pricing_plan_id":"free"},{"bike_id":"5d515ba4-c936-4bd9-a073-e90179fd330e","system_id":"levelo_inurba_marseille","lat":43.308012,"lon":5.381511,"is_reserved":false,"is_disabled":false,"rental_uris":{"android":"levelo://app?vid=5d515ba4-c936-4bd9-a073-e90179fd330e","ios":"levelo://app?vid=5d515ba4-c936-4bd9-a073-e90179fd330e"},"vehicle_type_id":"4","last_reported":1683414404,"current_range_meters":800,"station_id":"ce4bgt12rcd13ifvqce0","pricing_plan_id":"free"},{"bike_id":"d8327f7e-a5dc-4005-abd3-a71ddf8bd4a2","system_id":"levelo_inurba_marseille","lat":43.308012,"lon":5.381511,"is_reserved":false,"is_disabled":false,"rental_uris":{"android":"levelo://app?vid=d8327f7e-a5dc-4005-abd3-a71ddf8bd4a2","ios":"levelo://app?vid=d8327f7e-a5dc-4005-abd3-a71ddf8bd4a2"},"vehicle_type_id":"4","last_reported":1683414404,"current_range_meters":11600,"station_id":"ce4bgt12rcd13ifvqce0","pricing_plan_id":"free"},{"bike_id":"f9d4a628-88ac-453e-9d35-8dc6d0abd2ee","system_id":"levelo_inurba_marseille","lat":43.308012,"lon":5.381511,"is_reserved":false,"is_disabled":false,"rental_uris":{"android":"levelo://app?vid=f9d4a628-88ac-453e-9d35-8dc6d0abd2ee","ios":"levelo://app?vid=f9d4a628-88ac-453e-9d35-8dc6d0abd2ee"},"vehicle_type_id":"4","last_reported":1683414404,"current_range_meters":5600,"station_id":"ce4bgt12rcd13ifvqce0","pricing_plan_id":"free"},{"bike_id":"db100ee9-c49b-4ee7-aa34-9346bb696bf7","system_id":"levelo_inurba_marseille","lat":43.308012,"lon":5.381511,"is_reserved":false,"is_disabled":false,"rental_uris":{"android":"levelo://app?vid=db100ee9-c49b-4ee7-aa34-9346bb696bf7","ios":"levelo://app?vid=db100ee9-c49b-4ee7-aa34-9346bb696bf7"},"vehicle_type_id":"4","last_reported":1683414404,"current_range_meters":20400,"station_id":"ce4bgt12rcd13ifvqce0","pricing_plan_id":"free"},{"bike_id":"dc496bd1-a355-4a89-9b8c-6a828e356364","system_id":"levelo_inurba_marseille","lat":43.308012,"lon":5.381511,"is_reserved":false,"is_disabled":false,"rental_uris":{"android":"levelo://app?vid=dc496bd1-a355-4a89-9b8c-6a828e356364","ios":"levelo://app?vid=dc496bd1-a355-4a89-9b8c-6a828e356364"},"vehicle_type_id":"4","last_reported":1683414404,"current_range_meters":26400,"station_id":"ce4bgt12rcd13ifvqce0","pricing_plan_id":"free"},{"bike_id":"4f0fe11f-64b2-43fc-840e-2fa4616e46f3","system_id":"levelo_inurba_marseille","lat":43.30801,"lon":5.38164,"is_reserved":false,"is_disabled":false,"rental_uris":{"android":"levelo://app?vid=4f0fe11f-64b2-43fc-840e-2fa4616e46f3","ios":"levelo://app?vid=4f0fe11f-64b2-43fc-840e-2fa4616e46f3"},"vehicle_type_id":"4","last_reported":1683414404,"current_range_meters":0,"station_id":"ce4bgt12rcd13ifvqce0","pricing_plan_id":"free"},{"bike_id":"ed12c0d8-2667-4d0c-9f97-d9b219fe4186","system_id":"levelo_inurba_marseille","lat":43.30799,"lon":5.38163,"is_reserved":false,"is_disabled":false,"rental_uris":{"android":"levelo://app?vid=ed12c0d8-2667-4d0c-9f97-d9b219fe4186","ios":"levelo://app?vid=ed12c0d8-2667-4d0c-9f97-d9b219fe4186"},"vehicle_type_id":"4","last_reported":1683414404,"current_range_meters":1200,"station_id":"ce4bgt12rcd13ifvqce0","pricing_plan_id":"free"},{"bike_id":"caa46269-6068-40e0-9a74-33cf5f0f2dc7","system_id":"levelo_inurba_marseille","lat":43.304606,"lon":5.379026,"is_reserved":false,"is_disabled":false,"rental_uris":{"android":"levelo://app?vid=caa46269-6068-40e0-9a74-33cf5f0f2dc7","ios":"levelo://app?vid=caa46269-6068-40e0-9a74-33cf5f0f2dc7"},"vehicle_type_id":"4","last_reported":1683414404,"current_range_meters":16000,"station_id":"ce4bgup2rcd13ifvqcn0","pricing_plan_id":"free"},{"bike_id":"59321605-5215-436c-a4de-a4a33468d277","system_id":"levelo_inurba_marseille","lat":43.313571,"lon":5.384829,"is_reserved":false,"is_disabled":false,"rental_uris":{"android":"levelo://app?vid=59321605-5215-436c-a4de-a4a33468d277","ios":"levelo://app?vid=59321605-5215-436c-a4de-a4a33468d277"},"vehicle_type_id":"4","last_reported":1683414404,"current_range_meters":1600,"station_id":"ce4bgt92rcd13ifvqcf0","pricing_plan_id":"free"},{"bike_id":"bceed4ac-a7e8-4273-b0be-c977601983f3","system_id":"levelo_inurba_marseille","lat":43.313571,"lon":5.384829,"is_reserved":false,"is_disabled":false,"rental_uris":{"android":"levelo://app?vid=bceed4ac-a7e8-4273-b0be-c977601983f3","ios":"levelo://app?vid=bceed4ac-a7e8-4273-b0be-c977601983f3"},"vehicle_type_id":"4","last_reported":1683414404,"current_range_meters":13200,"station_id":"ce4bgt92rcd13ifvqcf0","pricing_plan_id":"free"},{"bike_id":"81c545f8-449b-4293-bc98-e17ca6d79314","system_id":"levelo_inurba_marseille","lat":43.313571,"lon":5.384829,"is_reserved":false,"is_disabled":false,"rental_uris":{"android":"levelo://app?vid=81c545f8-449b-4293-bc98-e17ca6d79314","ios":"levelo://app?vid=81c545f8-449b-4293-bc98-e17ca6d79314"},"vehicle_type_id":"4","last_reported":1683414404,"current_range_meters":10400,"station_id":"ce4bgt92rcd13ifvqcf0","pricing_plan_id":"free"},{"bike_id":"9c03582b-25d2-497b-afed-91a56ab1c36a","system_id":"levelo_inurba_marseille","lat":43.313571,"lon":5.384829,"is_reserved":false,"is_disabled":false,"rental_uris":{"android":"levelo://app?vid=9c03582b-25d2-497b-afed-91a56ab1c36a","ios":"levelo://app?vid=9c03582b-25d2-497b-afed-91a56ab1c36a"},"vehicle_type_id":"4","last_reported":1683414404,"current_range_meters":2400,"station_id":"ce4bgt92rcd13ifvqcf0","pricing_plan_id":"free"},{"bike_id":"cc586232-4c64-48d8-be7f-2b3abf9cba14","system_id":"levelo_inurba_marseille","lat":43.313571,"lon":5.384829,"is_reserved":false,"is_disabled":false,"rental_uris":{"android":"levelo://app?vid=cc586232-4c64-48d8-be7f-2b3abf9cba14","ios":"levelo://app?vid=cc586232-4c64-48d8-be7f-2b3abf9cba14"},"vehicle_type_id":"4","last_reported":1683414404,"current_range_meters":4000,"station_id":"ce4bgt92rcd13ifvqcf0","pricing_plan_id":"free"},{"bike_id":"aed94c78-5cf9-43d3-9843-33866eeb9417","system_id":"levelo_inurba_marseille","lat":43.313571,"lon":5.384829,"is_reserved":false,"is_disabled":false,"rental_uris":{"android":"levelo://app?vid=aed94c78-5cf9-43d3-9843-33866eeb9417","ios":"levelo://app?vid=aed94c78-5cf9-43d3-9843-33866eeb9417"},"vehicle_type_id":"4","last_reported":1683414404,"current_range_meters":3200,"station_id":"ce4bgt92rcd13ifvqcf0","pricing_plan_id":"free"},{"bike_id":"288109fe-ed3a-4d3d-bf48-cbcad35de74f","system_id":"levelo_inurba_marseille","lat":43.313571,"lon":5.384829,"is_reserved":false,"is_disabled":false,"rental_uris":{"android":"levelo://app?vid=288109fe-ed3a-4d3d-bf48-cbcad35de74f","ios":"levelo://app?vid=288109fe-ed3a-4d3d-bf48-cbcad35de74f"},"vehicle_type_id":"4","last_reported":1683414404,"current_range_meters":30800,"station_id":"ce4bgt92rcd13ifvqcf0","pricing_plan_id":"free"},{"bike_id":"3c2a907d-0a1c-4099-84a4-bf45ea947b06","system_id":"levelo_inurba_marseille","lat":43.313571,"lon":5.384829,"is_reserved":false,"is_disabled":false,"rental_uris":{"android":"levelo://app?vid=3c2a907d-0a1c-4099-84a4-bf45ea947b06","ios":"levelo://app?vid=3c2a907d-0a1c-4099-84a4-bf45ea947b06"},"vehicle_type_id":"4","last_reported":1683414404,"current_range_meters":7200,"station_id":"ce4bgt92rcd13ifvqcf0","pricing_plan_id":"free"},{"bike_id":"a85b848b-1c4d-47ba-aa76-c27d1762a076","system_id":"levelo_inurba_marseille","lat":43.31375,"lon":5.38492,"is_reserved":false,"is_disabled":false,"rental_uris":{"android":"levelo://app?vid=a85b848b-1c4d-47ba-aa76-c27d1762a076","ios":"levelo://app?vid=a85b848b-1c4d-47ba-aa76-c27d1762a076"},"vehicle_type_id":"4","last_reported":1683414404,"current_range_meters":5600,"station_id":"ce4bgt92rcd13ifvqcf0","pricing_plan_id":"free"},{"bike_id":"16b378fc-a64b-4339-ae98-9e0df643b7d3","system_id":"levelo_inurba_marseille","lat":43.313571,"lon":5.384829,"is_reserved":false,"is_disabled":false,"rental_uris":{"android":"levelo://app?vid=16b378fc-a64b-4339-ae98-9e0df643b7d3","ios":"levelo://app?vid=16b378fc-a64b-4339-ae98-9e0df643b7d3"},"vehicle_type_id":"4","last_reported":1683414404,"current_range_meters":12800,"station_id":"ce4bgt92rcd13ifvqcf0","pricing_plan_id":"free"},{"bike_id":"aea7f314-6e7f-460e-beee-6f08abd0d35a","system_id":"levelo_inurba_marseille","lat":43.31365,"lon":5.38494,"is_reserved":false,"is_disabled":false,"rental_uris":{"android":"levelo://app?vid=aea7f314-6e7f-460e-beee-6f08abd0d35a","ios":"levelo://app?vid=aea7f314-6e7f-460e-beee-6f08abd0d35a"},"vehicle_type_id":"4","last_reported":1683414404,"current_range_meters":19200,"station_id":"ce4bgt92rcd13ifvqcf0","pricing_plan_id":"free"},{"bike_id":"e51ae06d-8ef8-4b93-a071-0c598f1b9e7a","system_id":"levelo_inurba_marseille","lat":43.313571,"lon":5.384829,"is_reserved":false,"is_disabled":false,"rental_uris":{"android":"levelo://app?vid=e51ae06d-8ef8-4b93-a071-0c598f1b9e7a","ios":"levelo://app?vid=e51ae06d-8ef8-4b93-a071-0c598f1b9e7a"},"vehicle_type_id":"4","last_reported":1683414404,"current_range_meters":6400,"station_id":"ce4bgt92rcd13ifvqcf0","pricing_plan_id":"free"},{"bike_id":"5eb6a42b-9020-473f-9746-1bd7036bbec2","system_id":"levelo_inurba_marseille","lat":43.29933,"lon":5.36556,"is_reserved":false,"is_disabled":false,"rental_uris":{"android":"levelo://app?vid=5eb6a42b-9020-473f-9746-1bd7036bbec2","ios":"levelo://app?vid=5eb6a42b-9020-473f-9746-1bd7036bbec2"},"vehicle_type_id":"4","last_reported":1683414404,"current_range_meters":4400,"station_id":"","pricing_plan_id":"free"},{"bike_id":"d564555f-95ac-4bee-8da6-2aa1f44fdf75","system_id":"levelo_inurba_marseille","lat":43.299222,"lon":5.365554,"is_reserved":false,"is_disabled":false,"rental_uris":{"android":"levelo://app?vid=d564555f-95ac-4bee-8da6-2aa1f44fdf75","ios":"levelo://app?vid=d564555f-95ac-4bee-8da6-2aa1f44fdf75"},"vehicle_type_id":"4","last_reported":1683414404,"current_range_meters":12800,"station_id":"ce4bgm92rcd13ifvqbr0","pricing_plan_id":"free"},{"bike_id":"56791214-18e8-4d1b-bd31-c9ee9f09665a","system_id":"levelo_inurba_marseille","lat":43.298433,"lon":5.362774,"is_reserved":false,"is_disabled":false,"rental_uris":{"android":"levelo://app?vid=56791214-18e8-4d1b-bd31-c9ee9f09665a","ios":"levelo://app?vid=56791214-18e8-4d1b-bd31-c9ee9f09665a"},"vehicle_type_id":"4","last_reported":1683414404,"current_range_meters":15600,"station_id":"ce4bgpp2rcd13ifvqc3g","pricing_plan_id":"free"},{"bike_id":"6e1ccea3-5afd-4d28-94d3-6330f3b29cb7","system_id":"levelo_inurba_marseille","lat":43.305364,"lon":5.384119,"is_reserved":false,"is_disabled":false,"rental_uris":{"android":"levelo://app?vid=6e1ccea3-5afd-4d28-94d3-6330f3b29cb7","ios":"levelo://app?vid=6e1ccea3-5afd-4d28-94d3-6330f3b29cb7"},"vehicle_type_id":"4","last_reported":1683414404,"current_range_meters":12400,"station_id":"ce4bgg92rcd13ifvqb30","pricing_plan_id":"free"},{"bike_id":"8b8d7a31-f70d-4725-8d34-b3d6ea93892e","system_id":"levelo_inurba_marseille","lat":43.305364,"lon":5.384119,"is_reserved":false,"is_disabled":false,"rental_uris":{"android":"levelo://app?vid=8b8d7a31-f70d-4725-8d34-b3d6ea93892e","ios":"levelo://app?vid=8b8d7a31-f70d-4725-8d34-b3d6ea93892e"},"vehicle_type_id":"4","last_reported":1683414404,"current_range_meters":2800,"station_id":"ce4bgg92rcd13ifvqb30","pricing_plan_id":"free"},{"bike_id":"aba50e0b-5c25-48f4-bd6d-440f8726f1f3","system_id":"levelo_inurba_marseille","lat":43.3029,"lon":5.38183,"is_reserved":false,"is_disabled":false,"rental_uris":{"android":"levelo://app?vid=aba50e0b-5c25-48f4-bd6d-440f8726f1f3","ios":"levelo://app?vid=aba50e0b-5c25-48f4-bd6d-440f8726f1f3"},"vehicle_type_id":"4","last_reported":1683414404,"current_range_meters":6000,"station_id":"","pricing_plan_id":"free"},{"bike_id":"844a6d8f-dc12-466f-b019-238a4a4ed0f8","system_id":"levelo_inurba_marseille","lat":43.305364,"lon":5.384119,"is_reserved":false,"is_disabled":false,"rental_uris":{"android":"levelo://app?vid=844a6d8f-dc12-466f-b019-238a4a4ed0f8","ios":"levelo://app?vid=844a6d8f-dc12-466f-b019-238a4a4ed0f8"},"vehicle_type_id":"4","last_reported":1683414404,"current_range_meters":800,"station_id":"ce4bgg92rcd13ifvqb30","pricing_plan_id":"free"},{"bike_id":"be1c07f8-2b7d-4865-9513-5d6169ea5218","system_id":"levelo_inurba_marseille","lat":43.305364,"lon":5.384119,"is_reserved":false,"is_disabled":false,"rental_uris":{"android":"levelo://app?vid=be1c07f8-2b7d-4865-9513-5d6169ea5218","ios":"levelo://app?vid=be1c07f8-2b7d-4865-9513-5d6169ea5218"},"vehicle_type_id":"4","last_reported":1683414404,"current_range_meters":12400,"station_id":"ce4bgg92rcd13ifvqb30","pricing_plan_id":"free"},{"bike_id":"0a3e5018-42cc-4b44-9ea5-5b1a1f4c2e73","system_id":"levelo_inurba_marseille","lat":43.311722,"lon":5.387247,"is_reserved":false,"is_disabled":false,"rental_uris":{"android":"levelo://app?vid=0a3e5018-42cc-4b44-9ea5-5b1a1f4c2e73","ios":"levelo://app?vid=0a3e5018-42cc-4b44-9ea5-5b1a1f4c2e73"},"vehicle_type_id":"4","last_reported":1683414404,"current_range_meters":31600,"station_id":"ce4bgv12rcd13ifvqcp0","pricing_plan_id":"free"},{"bike_id":"395a1951-c8db-44d0-bf4a-95f5910f235d","system_id":"levelo_inurba_marseille","lat":43.311722,"lon":5.387247,"is_reserved":false,"is_disabled":false,"rental_uris":{"android":"levelo://app?vid=395a1951-c8db-44d0-bf4a-95f5910f235d","ios":"levelo://app?vid=395a1951-c8db-44d0-bf4a-95f5910f235d"},"vehicle_type_id":"4","last_reported":1683414404,"current_range_meters":3600,"station_id":"ce4bgv12rcd13ifvqcp0","pricing_plan_id":"free"},{"bike_id":"fde2d51b-bca9-4bd9-888c-f5478e778443","system_id":"levelo_inurba_marseille","lat":43.311722,"lon":5.387247,"is_reserved":false,"is_disabled":false,"rental_uris":{"android":"levelo://app?vid=fde2d51b-bca9-4bd9-888c-f5478e778443","ios":"levelo://app?vid=fde2d51b-bca9-4bd9-888c-f5478e778443"},"vehicle_type_id":"4","last_reported":1683414404,"current_range_meters":31600,"station_id":"ce4bgv12rcd13ifvqcp0","pricing_plan_id":"free"},{"bike_id":"55413a9d-70fd-4ed3-a836-14ec7f2a0b70","system_id":"levelo_inurba_marseille","lat":43.311722,"lon":5.387247,"is_reserved":false,"is_disabled":false,"rental_uris":{"android":"levelo://app?vid=55413a9d-70fd-4ed3-a836-14ec7f2a0b70","ios":"levelo://app?vid=55413a9d-70fd-4ed3-a836-14ec7f2a0b70"},"vehicle_type_id":"4","last_reported":1683414404,"current_range_meters":31200,"station_id":"ce4bgv12rcd13ifvqcp0","pricing_plan_id":"free"},{"bike_id":"09905636-2fde-43db-a48a-c876f232e946","system_id":"levelo_inurba_marseille","lat":43.311722,"lon":5.387247,"is_reserved":false,"is_disabled":false,"rental_uris":{"android":"levelo://app?vid=09905636-2fde-43db-a48a-c876f232e946","ios":"levelo://app?vid=09905636-2fde-43db-a48a-c876f232e946"},"vehicle_type_id":"4","last_reported":1683414404,"current_range_meters":30000,"station_id":"ce4bgv12rcd13ifvqcp0","pricing_plan_id":"free"},{"bike_id":"c6df9136-baac-4e1c-8c69-11442cd3cd1f","system_id":"levelo_inurba_marseille","lat":43.299243,"lon":5.37481,"is_reserved":false,"is_disabled":false,"rental_uris":{"android":"levelo://app?vid=c6df9136-baac-4e1c-8c69-11442cd3cd1f","ios":"levelo://app?vid=c6df9136-baac-4e1c-8c69-11442cd3cd1f"},"vehicle_type_id":"4","last_reported":1683414404,"current_range_meters":22800,"station_id":"ce4bgjh2rcd13ifvqbg0","pricing_plan_id":"free"},{"bike_id":"b23af081-a138-4c49-8140-5658d6359947","system_id":"levelo_inurba_marseille","lat":43.311722,"lon":5.387247,"is_reserved":false,"is_disabled":false,"rental_uris":{"android":"levelo://app?vid=b23af081-a138-4c49-8140-5658d6359947","ios":"levelo://app?vid=b23af081-a138-4c49-8140-5658d6359947"},"vehicle_type_id":"4","last_reported":1683414404,"current_range_meters":9600,"station_id":"ce4bgv12rcd13ifvqcp0","pricing_plan_id":"free"},{"bike_id":"8c068111-e8b2-43d6-a16b-3a2446497765","system_id":"levelo_inurba_marseille","lat":43.311722,"lon":5.387247,"is_reserved":false,"is_disabled":false,"rental_uris":{"android":"levelo://app?vid=8c068111-e8b2-43d6-a16b-3a2446497765","ios":"levelo://app?vid=8c068111-e8b2-43d6-a16b-3a2446497765"},"vehicle_type_id":"4","last_reported":1683414404,"current_range_meters":22800,"station_id":"ce4bgv12rcd13ifvqcp0","pricing_plan_id":"free"},{"bike_id":"3b90d079-5e9b-4e96-959c-50f4a067e20c","system_id":"levelo_inurba_marseille","lat":43.311722,"lon":5.387247,"is_reserved":false,"is_disabled":false,"rental_uris":{"android":"levelo://app?vid=3b90d079-5e9b-4e96-959c-50f4a067e20c","ios":"levelo://app?vid=3b90d079-5e9b-4e96-959c-50f4a067e20c"},"vehicle_type_id":"4","last_reported":1683414404,"current_range_meters":21600,"station_id":"ce4bgv12rcd13ifvqcp0","pricing_plan_id":"free"},{"bike_id":"ee23a5e6-55ec-4d77-a76c-70f812e09101","system_id":"levelo_inurba_marseille","lat":43.29992,"lon":5.37743,"is_reserved":false,"is_disabled":false,"rental_uris":{"android":"levelo://app?vid=ee23a5e6-55ec-4d77-a76c-70f812e09101","ios":"levelo://app?vid=ee23a5e6-55ec-4d77-a76c-70f812e09101"},"vehicle_type_id":"4","last_reported":1683414404,"current_range_meters":18400,"station_id":"","pricing_plan_id":"free"},{"bike_id":"fa495c37-f7d4-465f-a146-0169143d7693","system_id":"levelo_inurba_marseille","lat":43.328371,"lon":5.366912,"is_reserved":false,"is_disabled":false,"rental_uris":{"android":"levelo://app?vid=fa495c37-f7d4-465f-a146-0169143d7693","ios":"levelo://app?vid=fa495c37-f7d4-465f-a146-0169143d7693"},"vehicle_type_id":"4","last_reported":1683414404,"current_range_meters":12800,"station_id":"ce4bhs92rcd13ifvqi0g","pricing_plan_id":"free"},{"bike_id":"cb03d0a7-8198-46ba-b8e4-07d3539f0078","system_id":"levelo_inurba_marseille","lat":43.328371,"lon":5.366912,"is_reserved":false,"is_disabled":false,"rental_uris":{"android":"levelo://app?vid=cb03d0a7-8198-46ba-b8e4-07d3539f0078","ios":"levelo://app?vid=cb03d0a7-8198-46ba-b8e4-07d3539f0078"},"vehicle_type_id":"4","last_reported":1683414404,"current_range_meters":17200,"station_id":"ce4bhs92rcd13ifvqi0g","pricing_plan_id":"free"},{"bike_id":"12d4b821-0cea-4e9f-935f-354ee9cd9e8b","system_id":"levelo_inurba_marseille","lat":43.32833,"lon":5.36693,"is_reserved":false,"is_disabled":false,"rental_uris":{"android":"levelo://app?vid=12d4b821-0cea-4e9f-935f-354ee9cd9e8b","ios":"levelo://app?vid=12d4b821-0cea-4e9f-935f-354ee9cd9e8b"},"vehicle_type_id":"4","last_reported":1683414404,"current_range_meters":22800,"station_id":"ce4bhs92rcd13ifvqi0g","pricing_plan_id":"free"},{"bike_id":"05c44ec8-9bf2-419a-aafa-32210ead3afe","system_id":"levelo_inurba_marseille","lat":43.32833,"lon":5.36684,"is_reserved":false,"is_disabled":false,"rental_uris":{"android":"levelo://app?vid=05c44ec8-9bf2-419a-aafa-32210ead3afe","ios":"levelo://app?vid=05c44ec8-9bf2-419a-aafa-32210ead3afe"},"vehicle_type_id":"4","last_reported":1683414404,"current_range_meters":28800,"station_id":"ce4bhs92rcd13ifvqi0g","pricing_plan_id":"free"},{"bike_id":"f7058cbd-13d6-4363-8a29-3f09f8ac5d4d","system_id":"levelo_inurba_marseille","lat":43.32833,"lon":5.3668,"is_reserved":false,"is_disabled":false,"rental_uris":{"android":"levelo://app?vid=f7058cbd-13d6-4363-8a29-3f09f8ac5d4d","ios":"levelo://app?vid=f7058cbd-13d6-4363-8a29-3f09f8ac5d4d"},"vehicle_type_id":"4","last_reported":1683414404,"current_range_meters":1600,"station_id":"ce4bhs92rcd13ifvqi0g","pricing_plan_id":"free"},{"bike_id":"58a4b5a9-3b99-4d17-87b0-5d38697b3565","system_id":"levelo_inurba_marseille","lat":43.32833,"lon":5.36677,"is_reserved":false,"is_disabled":false,"rental_uris":{"android":"levelo://app?vid=58a4b5a9-3b99-4d17-87b0-5d38697b3565","ios":"levelo://app?vid=58a4b5a9-3b99-4d17-87b0-5d38697b3565"},"vehicle_type_id":"4","last_reported":1683414404,"current_range_meters":13200,"station_id":"ce4bhs92rcd13ifvqi0g","pricing_plan_id":"free"},{"bike_id":"ebba5a22-7d26-47e7-9981-d6d3a5800b44","system_id":"levelo_inurba_marseille","lat":43.32834,"lon":5.36688,"is_reserved":false,"is_disabled":false,"rental_uris":{"android":"levelo://app?vid=ebba5a22-7d26-47e7-9981-d6d3a5800b44","ios":"levelo://app?vid=ebba5a22-7d26-47e7-9981-d6d3a5800b44"},"vehicle_type_id":"4","last_reported":1683414404,"current_range_meters":400,"station_id":"ce4bhs92rcd13ifvqi0g","pricing_plan_id":"free"},{"bike_id":"a530905d-c529-4875-b459-f28e3a7844a4","system_id":"levelo_inurba_marseille","lat":43.32834,"lon":5.36681,"is_reserved":false,"is_disabled":false,"rental_uris":{"android":"levelo://app?vid=a530905d-c529-4875-b459-f28e3a7844a4","ios":"levelo://app?vid=a530905d-c529-4875-b459-f28e3a7844a4"},"vehicle_type_id":"4","last_reported":1683414404,"current_range_meters":18000,"station_id":"ce4bhs92rcd13ifvqi0g","pricing_plan_id":"free"},{"bike_id":"73868a82-6310-47a2-b64f-e84244206b53","system_id":"levelo_inurba_marseille","lat":43.32834,"lon":5.36681,"is_reserved":false,"is_disabled":false,"rental_uris":{"android":"levelo://app?vid=73868a82-6310-47a2-b64f-e84244206b53","ios":"levelo://app?vid=73868a82-6310-47a2-b64f-e84244206b53"},"vehicle_type_id":"4","last_reported":1683414404,"current_range_meters":6400,"station_id":"ce4bhs92rcd13ifvqi0g","pricing_plan_id":"free"},{"bike_id":"c409266a-97dd-4c8e-b99d-6eca39371552","system_id":"levelo_inurba_marseille","lat":43.32836,"lon":5.36695,"is_reserved":false,"is_disabled":false,"rental_uris":{"android":"levelo://app?vid=c409266a-97dd-4c8e-b99d-6eca39371552","ios":"levelo://app?vid=c409266a-97dd-4c8e-b99d-6eca39371552"},"vehicle_type_id":"4","last_reported":1683414404,"current_range_meters":5200,"station_id":"ce4bhs92rcd13ifvqi0g","pricing_plan_id":"free"},{"bike_id":"30587bba-0482-49c5-ac3a-0b1318e8d80c","system_id":"levelo_inurba_marseille","lat":43.32836,"lon":5.36685,"is_reserved":false,"is_disabled":false,"rental_uris":{"android":"levelo://app?vid=30587bba-0482-49c5-ac3a-0b1318e8d80c","ios":"levelo://app?vid=30587bba-0482-49c5-ac3a-0b1318e8d80c"},"vehicle_type_id":"4","last_reported":1683414404,"current_range_meters":13600,"station_id":"ce4bhs92rcd13ifvqi0g","pricing_plan_id":"free"},{"bike_id":"aafcc005-5e38-4c52-a10d-6d0f89f0012b","system_id":"levelo_inurba_marseille","lat":43.302008,"lon":5.394694,"is_reserved":false,"is_disabled":false,"rental_uris":{"android":"levelo://app?vid=aafcc005-5e38-4c52-a10d-6d0f89f0012b","ios":"levelo://app?vid=aafcc005-5e38-4c52-a10d-6d0f89f0012b"},"vehicle_type_id":"4","last_reported":1683414404,"current_range_meters":2800,"station_id":"ce4bh0p2rcd13ifvqd70","pricing_plan_id":"free"},{"bike_id":"8d62d90c-94b0-4ccb-bf97-3a15972c88e2","system_id":"levelo_inurba_marseille","lat":43.299028,"lon":5.381509,"is_reserved":false,"is_disabled":false,"rental_uris":{"android":"levelo://app?vid=8d62d90c-94b0-4ccb-bf97-3a15972c88e2","ios":"levelo://app?vid=8d62d90c-94b0-4ccb-bf97-3a15972c88e2"},"vehicle_type_id":"4","last_reported":1683414404,"current_range_meters":16800,"station_id":"ce4bgj12rcd13ifvqbc0","pricing_plan_id":"free"},{"bike_id":"ddd9c6f0-56bb-4f0e-b23f-e719cb10416e","system_id":"levelo_inurba_marseille","lat":43.299028,"lon":5.381509,"is_reserved":false,"is_disabled":false,"rental_uris":{"android":"levelo://app?vid=ddd9c6f0-56bb-4f0e-b23f-e719cb10416e","ios":"levelo://app?vid=ddd9c6f0-56bb-4f0e-b23f-e719cb10416e"},"vehicle_type_id":"4","last_reported":1683414404,"current_range_meters":1200,"station_id":"ce4bgj12rcd13ifvqbc0","pricing_plan_id":"free"},{"bike_id":"bac21cc3-5eb1-4b10-ac25-2cffe6a18048","system_id":"levelo_inurba_marseille","lat":43.309589,"lon":5.390258,"is_reserved":false,"is_disabled":false,"rental_uris":{"android":"levelo://app?vid=bac21cc3-5eb1-4b10-ac25-2cffe6a18048","ios":"levelo://app?vid=bac21cc3-5eb1-4b10-ac25-2cffe6a18048"},"vehicle_type_id":"4","last_reported":1683414404,"current_range_meters":16400,"station_id":"ce4bgup2rcd13ifvqco0","pricing_plan_id":"free"},{"bike_id":"7d051964-17b7-41ec-9000-adc36e677db8","system_id":"levelo_inurba_marseille","lat":43.29705,"lon":5.37698,"is_reserved":false,"is_disabled":false,"rental_uris":{"android":"levelo://app?vid=7d051964-17b7-41ec-9000-adc36e677db8","ios":"levelo://app?vid=7d051964-17b7-41ec-9000-adc36e677db8"},"vehicle_type_id":"4","last_reported":1683414404,"current_range_meters":2400,"station_id":"","pricing_plan_id":"free"},{"bike_id":"3c403055-0603-4cbb-a016-6a0365b89d06","system_id":"levelo_inurba_marseille","lat":43.309589,"lon":5.390258,"is_reserved":false,"is_disabled":false,"rental_uris":{"android":"levelo://app?vid=3c403055-0603-4cbb-a016-6a0365b89d06","ios":"levelo://app?vid=3c403055-0603-4cbb-a016-6a0365b89d06"},"vehicle_type_id":"4","last_reported":1683414404,"current_range_meters":0,"station_id":"ce4bgup2rcd13ifvqco0","pricing_plan_id":"free"},{"bike_id":"dce96522-5fea-4ffc-83fc-c5a17bffe91a","system_id":"levelo_inurba_marseille","lat":43.296935,"lon":5.376544,"is_reserved":false,"is_disabled":false,"rental_uris":{"android":"levelo://app?vid=dce96522-5fea-4ffc-83fc-c5a17bffe91a","ios":"levelo://app?vid=dce96522-5fea-4ffc-83fc-c5a17bffe91a"},"vehicle_type_id":"4","last_reported":1683414404,"current_range_meters":20400,"station_id":"ce4bgkh2rcd13ifvqbl0","pricing_plan_id":"free"},{"bike_id":"05dc5714-a860-4080-b0cf-fc68f8bcf092","system_id":"levelo_inurba_marseille","lat":43.30955,"lon":5.39034,"is_reserved":false,"is_disabled":false,"rental_uris":{"android":"levelo://app?vid=05dc5714-a860-4080-b0cf-fc68f8bcf092","ios":"levelo://app?vid=05dc5714-a860-4080-b0cf-fc68f8bcf092"},"vehicle_type_id":"4","last_reported":1683414404,"current_range_meters":8000,"station_id":"ce4bgup2rcd13ifvqco0","pricing_plan_id":"free"},{"bike_id":"e2fc5a62-0634-4cb5-889e-1520208a3300","system_id":"levelo_inurba_marseille","lat":43.30954,"lon":5.39035,"is_reserved":false,"is_disabled":false,"rental_uris":{"android":"levelo://app?vid=e2fc5a62-0634-4cb5-889e-1520208a3300","ios":"levelo://app?vid=e2fc5a62-0634-4cb5-889e-1520208a3300"},"vehicle_type_id":"4","last_reported":1683414404,"current_range_meters":800,"station_id":"ce4bgup2rcd13ifvqco0","pricing_plan_id":"free"},{"bike_id":"2e6f7f5a-1b2c-43dd-bb35-a59336b7d4bc","system_id":"levelo_inurba_marseille","lat":43.30957,"lon":5.39036,"is_reserved":false,"is_disabled":false,"rental_uris":{"android":"levelo://app?vid=2e6f7f5a-1b2c-43dd-bb35-a59336b7d4bc","ios":"levelo://app?vid=2e6f7f5a-1b2c-43dd-bb35-a59336b7d4bc"},"vehicle_type_id":"4","last_reported":1683414404,"current_range_meters":4800,"station_id":"ce4bgup2rcd13ifvqco0","pricing_plan_id":"free"},{"bike_id":"23538473-e0f7-416e-82b6-b297ee973637","system_id":"levelo_inurba_marseille","lat":43.30945,"lon":5.39034,"is_reserved":false,"is_disabled":false,"rental_uris":{"android":"levelo://app?vid=23538473-e0f7-416e-82b6-b297ee973637","ios":"levelo://app?vid=23538473-e0f7-416e-82b6-b297ee973637"},"vehicle_type_id":"4","last_reported":1683414404,"current_range_meters":21600,"station_id":"ce4bgup2rcd13ifvqco0","pricing_plan_id":"free"},{"bike_id":"5f556b7c-b9bb-4db8-a158-1ced3c1ea202","system_id":"levelo_inurba_marseille","lat":43.309589,"lon":5.390258,"is_reserved":false,"is_disabled":false,"rental_uris":{"android":"levelo://app?vid=5f556b7c-b9bb-4db8-a158-1ced3c1ea202","ios":"levelo://app?vid=5f556b7c-b9bb-4db8-a158-1ced3c1ea202"},"vehicle_type_id":"4","last_reported":1683414404,"current_range_meters":24000,"station_id":"ce4bgup2rcd13ifvqco0","pricing_plan_id":"free"},{"bike_id":"6ee78b2e-ceae-4d6d-9854-179328b36d1b","system_id":"levelo_inurba_marseille","lat":43.309589,"lon":5.390258,"is_reserved":false,"is_disabled":false,"rental_uris":{"android":"levelo://app?vid=6ee78b2e-ceae-4d6d-9854-179328b36d1b","ios":"levelo://app?vid=6ee78b2e-ceae-4d6d-9854-179328b36d1b"},"vehicle_type_id":"4","last_reported":1683414404,"current_range_meters":20400,"station_id":"ce4bgup2rcd13ifvqco0","pricing_plan_id":"free"},{"bike_id":"d5e71ddf-05d1-49c4-9961-706a323add67","system_id":"levelo_inurba_marseille","lat":43.309589,"lon":5.390258,"is_reserved":false,"is_disabled":false,"rental_uris":{"android":"levelo://app?vid=d5e71ddf-05d1-49c4-9961-706a323add67","ios":"levelo://app?vid=d5e71ddf-05d1-49c4-9961-706a323add67"},"vehicle_type_id":"4","last_reported":1683414404,"current_range_meters":17200,"station_id":"ce4bgup2rcd13ifvqco0","pricing_plan_id":"free"},{"bike_id":"3cc3142b-80b4-4cf1-9880-2f35cd7c2654","system_id":"levelo_inurba_marseille","lat":43.30955,"lon":5.3905,"is_reserved":false,"is_disabled":false,"rental_uris":{"android":"levelo://app?vid=3cc3142b-80b4-4cf1-9880-2f35cd7c2654","ios":"levelo://app?vid=3cc3142b-80b4-4cf1-9880-2f35cd7c2654"},"vehicle_type_id":"4","last_reported":1683414404,"current_range_meters":28000,"station_id":"ce4bgup2rcd13ifvqco0","pricing_plan_id":"free"},{"bike_id":"44c87e8d-3234-44dd-92b0-a01058636e3b","system_id":"levelo_inurba_marseille","lat":43.29682,"lon":5.37692,"is_reserved":false,"is_disabled":false,"rental_uris":{"android":"levelo://app?vid=44c87e8d-3234-44dd-92b0-a01058636e3b","ios":"levelo://app?vid=44c87e8d-3234-44dd-92b0-a01058636e3b"},"vehicle_type_id":"4","last_reported":1683414404,"current_range_meters":10400,"station_id":"","pricing_plan_id":"free"},{"bike_id":"deabfcd6-c7b8-4753-9bb9-3a6548a65560","system_id":"levelo_inurba_marseille","lat":43.317557,"lon":5.390173,"is_reserved":false,"is_disabled":false,"rental_uris":{"android":"levelo://app?vid=deabfcd6-c7b8-4753-9bb9-3a6548a65560","ios":"levelo://app?vid=deabfcd6-c7b8-4753-9bb9-3a6548a65560"},"vehicle_type_id":"4","last_reported":1683414404,"current_range_meters":12800,"station_id":"ce4bhqp2rcd13ifvqhng","pricing_plan_id":"free"},{"bike_id":"17475d87-c719-44ab-9ebb-d5a050bb2e93","system_id":"levelo_inurba_marseille","lat":43.31758,"lon":5.39007,"is_reserved":false,"is_disabled":false,"rental_uris":{"android":"levelo://app?vid=17475d87-c719-44ab-9ebb-d5a050bb2e93","ios":"levelo://app?vid=17475d87-c719-44ab-9ebb-d5a050bb2e93"},"vehicle_type_id":"4","last_reported":1683414404,"current_range_meters":16000,"station_id":"ce4bhqp2rcd13ifvqhng","pricing_plan_id":"free"},{"bike_id":"1fd8c396-2076-4f0f-889d-f76e1e1804b8","system_id":"levelo_inurba_marseille","lat":43.31753,"lon":5.39016,"is_reserved":false,"is_disabled":false,"rental_uris":{"android":"levelo://app?vid=1fd8c396-2076-4f0f-889d-f76e1e1804b8","ios":"levelo://app?vid=1fd8c396-2076-4f0f-889d-f76e1e1804b8"},"vehicle_type_id":"4","last_reported":1683414404,"current_range_meters":0,"station_id":"ce4bhqp2rcd13ifvqhng","pricing_plan_id":"free"},{"bike_id":"e07bf578-a7b1-4fdf-b6ca-2df5788b2781","system_id":"levelo_inurba_marseille","lat":43.317557,"lon":5.390173,"is_reserved":false,"is_disabled":false,"rental_uris":{"android":"levelo://app?vid=e07bf578-a7b1-4fdf-b6ca-2df5788b2781","ios":"levelo://app?vid=e07bf578-a7b1-4fdf-b6ca-2df5788b2781"},"vehicle_type_id":"4","last_reported":1683414404,"current_range_meters":15200,"station_id":"ce4bhqp2rcd13ifvqhng","pricing_plan_id":"free"},{"bike_id":"165cf4ec-ee3c-4a5c-929b-636fc1f79c2d","system_id":"levelo_inurba_marseille","lat":43.3176,"lon":5.39018,"is_reserved":false,"is_disabled":false,"rental_uris":{"android":"levelo://app?vid=165cf4ec-ee3c-4a5c-929b-636fc1f79c2d","ios":"levelo://app?vid=165cf4ec-ee3c-4a5c-929b-636fc1f79c2d"},"vehicle_type_id":"4","last_reported":1683414404,"current_range_meters":17200,"station_id":"ce4bhqp2rcd13ifvqhng","pricing_plan_id":"free"},{"bike_id":"5e26388f-afcc-4ebc-9b1c-d20adac7f39a","system_id":"levelo_inurba_marseille","lat":43.31762,"lon":5.39019,"is_reserved":false,"is_disabled":false,"rental_uris":{"android":"levelo://app?vid=5e26388f-afcc-4ebc-9b1c-d20adac7f39a","ios":"levelo://app?vid=5e26388f-afcc-4ebc-9b1c-d20adac7f39a"},"vehicle_type_id":"4","last_reported":1683414404,"current_range_meters":19200,"station_id":"ce4bhqp2rcd13ifvqhng","pricing_plan_id":"free"},{"bike_id":"a9181e30-8413-4524-ac10-2185caa2b7ae","system_id":"levelo_inurba_marseille","lat":43.298037,"lon":5.381066,"is_reserved":false,"is_disabled":false,"rental_uris":{"android":"levelo://app?vid=a9181e30-8413-4524-ac10-2185caa2b7ae","ios":"levelo://app?vid=a9181e30-8413-4524-ac10-2185caa2b7ae"},"vehicle_type_id":"4","last_reported":1683414404,"current_range_meters":26400,"station_id":"ce4bgip2rcd13ifvqbb0","pricing_plan_id":"free"},{"bike_id":"0870e068-8124-4389-8ef3-a19fe7993d83","system_id":"levelo_inurba_marseille","lat":43.304278,"lon":5.388868,"is_reserved":false,"is_disabled":false,"rental_uris":{"android":"levelo://app?vid=0870e068-8124-4389-8ef3-a19fe7993d83","ios":"levelo://app?vid=0870e068-8124-4389-8ef3-a19fe7993d83"},"vehicle_type_id":"4","last_reported":1683414404,"current_range_meters":18800,"station_id":"ce4bgk12rcd13ifvqbi0","pricing_plan_id":"free"},{"bike_id":"6b53433e-89fc-4138-90d9-87250efd3a68","system_id":"levelo_inurba_marseille","lat":43.29569,"lon":5.37504,"is_reserved":false,"is_disabled":false,"rental_uris":{"android":"levelo://app?vid=6b53433e-89fc-4138-90d9-87250efd3a68","ios":"levelo://app?vid=6b53433e-89fc-4138-90d9-87250efd3a68"},"vehicle_type_id":"4","last_reported":1683414404,"current_range_meters":0,"station_id":"ce4bgh92rcd13ifvqb50","pricing_plan_id":"free"},{"bike_id":"5d2b3ed1-4a28-467a-8760-e19b5c8d4115","system_id":"levelo_inurba_marseille","lat":43.304278,"lon":5.388868,"is_reserved":false,"is_disabled":false,"rental_uris":{"android":"levelo://app?vid=5d2b3ed1-4a28-467a-8760-e19b5c8d4115","ios":"levelo://app?vid=5d2b3ed1-4a28-467a-8760-e19b5c8d4115"},"vehicle_type_id":"4","last_reported":1683414404,"current_range_meters":11600,"station_id":"ce4bgk12rcd13ifvqbi0","pricing_plan_id":"free"},{"bike_id":"ce98ea0e-2b71-470d-9d9e-23ec56ad3341","system_id":"levelo_inurba_marseille","lat":43.304278,"lon":5.388868,"is_reserved":false,"is_disabled":false,"rental_uris":{"android":"levelo://app?vid=ce98ea0e-2b71-470d-9d9e-23ec56ad3341","ios":"levelo://app?vid=ce98ea0e-2b71-470d-9d9e-23ec56ad3341"},"vehicle_type_id":"4","last_reported":1683414404,"current_range_meters":9600,"station_id":"ce4bgk12rcd13ifvqbi0","pricing_plan_id":"free"},{"bike_id":"e29007ff-0614-4ce9-9186-b3e5eac3e873","system_id":"levelo_inurba_marseille","lat":43.304278,"lon":5.388868,"is_reserved":false,"is_disabled":false,"rental_uris":{"android":"levelo://app?vid=e29007ff-0614-4ce9-9186-b3e5eac3e873","ios":"levelo://app?vid=e29007ff-0614-4ce9-9186-b3e5eac3e873"},"vehicle_type_id":"4","last_reported":1683414404,"current_range_meters":8800,"station_id":"ce4bgk12rcd13ifvqbi0","pricing_plan_id":"free"},{"bike_id":"332fe3ab-52e0-4cf1-a500-d76600a3542a","system_id":"levelo_inurba_marseille","lat":43.304278,"lon":5.388868,"is_reserved":false,"is_disabled":false,"rental_uris":{"android":"levelo://app?vid=332fe3ab-52e0-4cf1-a500-d76600a3542a","ios":"levelo://app?vid=332fe3ab-52e0-4cf1-a500-d76600a3542a"},"vehicle_type_id":"4","last_reported":1683414404,"current_range_meters":0,"station_id":"ce4bgk12rcd13ifvqbi0","pricing_plan_id":"free"},{"bike_id":"891f7c32-c5e8-46ec-836f-a52624253098","system_id":"levelo_inurba_marseille","lat":43.304278,"lon":5.388868,"is_reserved":false,"is_disabled":false,"rental_uris":{"android":"levelo://app?vid=891f7c32-c5e8-46ec-836f-a52624253098","ios":"levelo://app?vid=891f7c32-c5e8-46ec-836f-a52624253098"},"vehicle_type_id":"4","last_reported":1683414404,"current_range_meters":18000,"station_id":"ce4bgk12rcd13ifvqbi0","pricing_plan_id":"free"},{"bike_id":"50e5327d-7e03-4487-aaa5-917b66041ef0","system_id":"levelo_inurba_marseille","lat":43.304278,"lon":5.388868,"is_reserved":false,"is_disabled":false,"rental_uris":{"android":"levelo://app?vid=50e5327d-7e03-4487-aaa5-917b66041ef0","ios":"levelo://app?vid=50e5327d-7e03-4487-aaa5-917b66041ef0"},"vehicle_type_id":"4","last_reported":1683414404,"current_range_meters":24400,"station_id":"ce4bgk12rcd13ifvqbi0","pricing_plan_id":"free"},{"bike_id":"f0dcfd84-4222-444a-b26d-9f99a892695b","system_id":"levelo_inurba_marseille","lat":43.31452,"lon":5.39271,"is_reserved":false,"is_disabled":false,"rental_uris":{"android":"levelo://app?vid=f0dcfd84-4222-444a-b26d-9f99a892695b","ios":"levelo://app?vid=f0dcfd84-4222-444a-b26d-9f99a892695b"},"vehicle_type_id":"4","last_reported":1683414404,"current_range_meters":5200,"station_id":"","pricing_plan_id":"free"},{"bike_id":"77fc73ce-005d-4102-8661-60f4dfacc037","system_id":"levelo_inurba_marseille","lat":43.29601,"lon":5.381084,"is_reserved":false,"is_disabled":false,"rental_uris":{"android":"levelo://app?vid=77fc73ce-005d-4102-8661-60f4dfacc037","ios":"levelo://app?vid=77fc73ce-005d-4102-8661-60f4dfacc037"},"vehicle_type_id":"4","last_reported":1683414404,"current_range_meters":28000,"station_id":"ce4bgl12rcd13ifvqbo0","pricing_plan_id":"free"},{"bike_id":"d528f778-bd67-46b9-bcbc-65f32820e82f","system_id":"levelo_inurba_marseille","lat":43.293249,"lon":5.371578,"is_reserved":false,"is_disabled":false,"rental_uris":{"android":"levelo://app?vid=d528f778-bd67-46b9-bcbc-65f32820e82f","ios":"levelo://app?vid=d528f778-bd67-46b9-bcbc-65f32820e82f"},"vehicle_type_id":"4","last_reported":1683414404,"current_range_meters":2400,"station_id":"ce4bgh92rcd13ifvqb40","pricing_plan_id":"free"},{"bike_id":"09462f60-181d-4fb0-8308-64a9b89b3c7b","system_id":"levelo_inurba_marseille","lat":43.29273,"lon":5.36848,"is_reserved":false,"is_disabled":false,"rental_uris":{"android":"levelo://app?vid=09462f60-181d-4fb0-8308-64a9b89b3c7b","ios":"levelo://app?vid=09462f60-181d-4fb0-8308-64a9b89b3c7b"},"vehicle_type_id":"4","last_reported":1683414404,"current_range_meters":400,"station_id":"ce4bhbp2rcd13ifvqesg","pricing_plan_id":"free"},{"bike_id":"d66e3276-3871-4f07-9000-7e35bb962e11","system_id":"levelo_inurba_marseille","lat":43.293009,"lon":5.374584,"is_reserved":false,"is_disabled":false,"rental_uris":{"android":"levelo://app?vid=d66e3276-3871-4f07-9000-7e35bb962e11","ios":"levelo://app?vid=d66e3276-3871-4f07-9000-7e35bb962e11"},"vehicle_type_id":"4","last_reported":1683414404,"current_range_meters":19200,"station_id":"ce4bgi12rcd13ifvqb70","pricing_plan_id":"free"},{"bike_id":"983a0886-d1b1-4b4b-a73e-ee52d477bf8d","system_id":"levelo_inurba_marseille","lat":43.305994,"lon":5.393687,"is_reserved":false,"is_disabled":false,"rental_uris":{"android":"levelo://app?vid=983a0886-d1b1-4b4b-a73e-ee52d477bf8d","ios":"levelo://app?vid=983a0886-d1b1-4b4b-a73e-ee52d477bf8d"},"vehicle_type_id":"4","last_reported":1683414404,"current_range_meters":3600,"station_id":"ce4bh0p2rcd13ifvqd80","pricing_plan_id":"free"},{"bike_id":"137421f2-ef51-46d6-8b28-82dec724c14d","system_id":"levelo_inurba_marseille","lat":43.305994,"lon":5.393687,"is_reserved":false,"is_disabled":false,"rental_uris":{"android":"levelo://app?vid=137421f2-ef51-46d6-8b28-82dec724c14d","ios":"levelo://app?vid=137421f2-ef51-46d6-8b28-82dec724c14d"},"vehicle_type_id":"4","last_reported":1683414404,"current_range_meters":1200,"station_id":"ce4bh0p2rcd13ifvqd80","pricing_plan_id":"free"},{"bike_id":"4bbf8e8a-54d8-445b-9b52-774d19949d03","system_id":"levelo_inurba_marseille","lat":43.305994,"lon":5.393687,"is_reserved":false,"is_disabled":false,"rental_uris":{"android":"levelo://app?vid=4bbf8e8a-54d8-445b-9b52-774d19949d03","ios":"levelo://app?vid=4bbf8e8a-54d8-445b-9b52-774d19949d03"},"vehicle_type_id":"4","last_reported":1683414404,"current_range_meters":10000,"station_id":"ce4bh0p2rcd13ifvqd80","pricing_plan_id":"free"},{"bike_id":"f34218bc-3f5b-4379-946a-ac75bf6f001f","system_id":"levelo_inurba_marseille","lat":43.30304,"lon":5.39203,"is_reserved":false,"is_disabled":false,"rental_uris":{"android":"levelo://app?vid=f34218bc-3f5b-4379-946a-ac75bf6f001f","ios":"levelo://app?vid=f34218bc-3f5b-4379-946a-ac75bf6f001f"},"vehicle_type_id":"4","last_reported":1683414404,"current_range_meters":400,"station_id":"ce4bgkh2rcd13ifvqbk0","pricing_plan_id":"free"},{"bike_id":"98cb2c59-3e24-4676-a072-3517bbdb7d2e","system_id":"levelo_inurba_marseille","lat":43.30303,"lon":5.39207,"is_reserved":false,"is_disabled":false,"rental_uris":{"android":"levelo://app?vid=98cb2c59-3e24-4676-a072-3517bbdb7d2e","ios":"levelo://app?vid=98cb2c59-3e24-4676-a072-3517bbdb7d2e"},"vehicle_type_id":"4","last_reported":1683414404,"current_range_meters":9200,"station_id":"ce4bgkh2rcd13ifvqbk0","pricing_plan_id":"free"},{"bike_id":"dff1458e-65bf-4575-aec8-4be4b9832491","system_id":"levelo_inurba_marseille","lat":43.2936,"lon":5.37835,"is_reserved":false,"is_disabled":false,"rental_uris":{"android":"levelo://app?vid=dff1458e-65bf-4575-aec8-4be4b9832491","ios":"levelo://app?vid=dff1458e-65bf-4575-aec8-4be4b9832491"},"vehicle_type_id":"4","last_reported":1683414404,"current_range_meters":14400,"station_id":"ce4bgjh2rcd13ifvqbf0","pricing_plan_id":"free"},{"bike_id":"fc29bb47-7eec-402f-a028-c11edcf38b18","system_id":"levelo_inurba_marseille","lat":43.30297,"lon":5.39213,"is_reserved":false,"is_disabled":false,"rental_uris":{"android":"levelo://app?vid=fc29bb47-7eec-402f-a028-c11edcf38b18","ios":"levelo://app?vid=fc29bb47-7eec-402f-a028-c11edcf38b18"},"vehicle_type_id":"4","last_reported":1683414404,"current_range_meters":14000,"station_id":"ce4bgkh2rcd13ifvqbk0","pricing_plan_id":"free"},{"bike_id":"08c25787-f075-458f-92ab-7c089fdd2442","system_id":"levelo_inurba_marseille","lat":43.300852,"lon":5.390859,"is_reserved":false,"is_disabled":false,"rental_uris":{"android":"levelo://app?vid=08c25787-f075-458f-92ab-7c089fdd2442","ios":"levelo://app?vid=08c25787-f075-458f-92ab-7c089fdd2442"},"vehicle_type_id":"4","last_reported":1683414404,"current_range_meters":0,"station_id":"ce4bh192rcd13ifvqdb0","pricing_plan_id":"free"},{"bike_id":"e2300632-237a-4030-9e6e-935878b390b5","system_id":"levelo_inurba_marseille","lat":43.30085,"lon":5.390856,"is_reserved":false,"is_disabled":false,"rental_uris":{"android":"levelo://app?vid=e2300632-237a-4030-9e6e-935878b390b5","ios":"levelo://app?vid=e2300632-237a-4030-9e6e-935878b390b5"},"vehicle_type_id":"4","last_reported":1683414404,"current_range_meters":20400,"station_id":"ce4bh192rcd13ifvqdb0","pricing_plan_id":"free"},{"bike_id":"36a840bb-b453-45ce-a2e4-16709275aaf8","system_id":"levelo_inurba_marseille","lat":43.300852,"lon":5.390859,"is_reserved":false,"is_disabled":false,"rental_uris":{"android":"levelo://app?vid=36a840bb-b453-45ce-a2e4-16709275aaf8","ios":"levelo://app?vid=36a840bb-b453-45ce-a2e4-16709275aaf8"},"vehicle_type_id":"4","last_reported":1683414404,"current_range_meters":1600,"station_id":"ce4bh192rcd13ifvqdb0","pricing_plan_id":"free"},{"bike_id":"e6f27f9d-b233-4966-81da-126bd4cc91a8","system_id":"levelo_inurba_marseille","lat":43.298764,"lon":5.388973,"is_reserved":false,"is_disabled":false,"rental_uris":{"android":"levelo://app?vid=e6f27f9d-b233-4966-81da-126bd4cc91a8","ios":"levelo://app?vid=e6f27f9d-b233-4966-81da-126bd4cc91a8"},"vehicle_type_id":"4","last_reported":1683414404,"current_range_meters":30400,"station_id":"ce4bh392rcd13ifvqdl0","pricing_plan_id":"free"},{"bike_id":"17534716-2ef9-48b8-9f5c-6f701f72a0c6","system_id":"levelo_inurba_marseille","lat":43.298764,"lon":5.388973,"is_reserved":false,"is_disabled":false,"rental_uris":{"android":"levelo://app?vid=17534716-2ef9-48b8-9f5c-6f701f72a0c6","ios":"levelo://app?vid=17534716-2ef9-48b8-9f5c-6f701f72a0c6"},"vehicle_type_id":"4","last_reported":1683414404,"current_range_meters":26000,"station_id":"ce4bh392rcd13ifvqdl0","pricing_plan_id":"free"},{"bike_id":"a376eacf-b8d7-4c29-9245-9cc56ab98653","system_id":"levelo_inurba_marseille","lat":43.29882,"lon":5.38912,"is_reserved":false,"is_disabled":false,"rental_uris":{"android":"levelo://app?vid=a376eacf-b8d7-4c29-9245-9cc56ab98653","ios":"levelo://app?vid=a376eacf-b8d7-4c29-9245-9cc56ab98653"},"vehicle_type_id":"4","last_reported":1683414404,"current_range_meters":27200,"station_id":"ce4bh392rcd13ifvqdl0","pricing_plan_id":"free"},{"bike_id":"9b3271b1-9618-4fff-baa5-2834018f8a9e","system_id":"levelo_inurba_marseille","lat":43.298764,"lon":5.388973,"is_reserved":false,"is_disabled":false,"rental_uris":{"android":"levelo://app?vid=9b3271b1-9618-4fff-baa5-2834018f8a9e","ios":"levelo://app?vid=9b3271b1-9618-4fff-baa5-2834018f8a9e"},"vehicle_type_id":"4","last_reported":1683414404,"current_range_meters":31200,"station_id":"ce4bh392rcd13ifvqdl0","pricing_plan_id":"free"},{"bike_id":"30dc2cb8-6840-4f28-a8da-d0fb7e63f888","system_id":"levelo_inurba_marseille","lat":43.2988,"lon":5.38915,"is_reserved":false,"is_disabled":false,"rental_uris":{"android":"levelo://app?vid=30dc2cb8-6840-4f28-a8da-d0fb7e63f888","ios":"levelo://app?vid=30dc2cb8-6840-4f28-a8da-d0fb7e63f888"},"vehicle_type_id":"4","last_reported":1683414404,"current_range_meters":31200,"station_id":"ce4bh392rcd13ifvqdl0","pricing_plan_id":"free"},{"bike_id":"134215ce-8001-4c92-bbe6-5e06c0d207ea","system_id":"levelo_inurba_marseille","lat":43.298764,"lon":5.388973,"is_reserved":false,"is_disabled":false,"rental_uris":{"android":"levelo://app?vid=134215ce-8001-4c92-bbe6-5e06c0d207ea","ios":"levelo://app?vid=134215ce-8001-4c92-bbe6-5e06c0d207ea"},"vehicle_type_id":"4","last_reported":1683414404,"current_range_meters":31200,"station_id":"ce4bh392rcd13ifvqdl0","pricing_plan_id":"free"},{"bike_id":"16e5a73d-82b1-4862-aee1-32e07dda6962","system_id":"levelo_inurba_marseille","lat":43.291671,"lon":5.371575,"is_reserved":false,"is_disabled":false,"rental_uris":{"android":"levelo://app?vid=16e5a73d-82b1-4862-aee1-32e07dda6962","ios":"levelo://app?vid=16e5a73d-82b1-4862-aee1-32e07dda6962"},"vehicle_type_id":"4","last_reported":1683414404,"current_range_meters":4000,"station_id":"ce4bha92rcd13ifvqeh0","pricing_plan_id":"free"},{"bike_id":"90cc782d-be20-41fa-9baa-2dfb851cd186","system_id":"levelo_inurba_marseille","lat":43.309038,"lon":5.396546,"is_reserved":false,"is_disabled":false,"rental_uris":{"android":"levelo://app?vid=90cc782d-be20-41fa-9baa-2dfb851cd186","ios":"levelo://app?vid=90cc782d-be20-41fa-9baa-2dfb851cd186"},"vehicle_type_id":"4","last_reported":1683414404,"current_range_meters":8400,"station_id":"ce4bh012rcd13ifvqcv0","pricing_plan_id":"free"},{"bike_id":"e192e9cb-3e8d-4d58-a073-854d14f37dcc","system_id":"levelo_inurba_marseille","lat":43.313291,"lon":5.396838,"is_reserved":false,"is_disabled":false,"rental_uris":{"android":"levelo://app?vid=e192e9cb-3e8d-4d58-a073-854d14f37dcc","ios":"levelo://app?vid=e192e9cb-3e8d-4d58-a073-854d14f37dcc"},"vehicle_type_id":"4","last_reported":1683414404,"current_range_meters":18800,"station_id":"ce4bgvp2rcd13ifvqcu0","pricing_plan_id":"free"},{"bike_id":"26543a27-5e4c-4139-975a-3461b9ec9422","system_id":"levelo_inurba_marseille","lat":43.313291,"lon":5.396838,"is_reserved":false,"is_disabled":false,"rental_uris":{"android":"levelo://app?vid=26543a27-5e4c-4139-975a-3461b9ec9422","ios":"levelo://app?vid=26543a27-5e4c-4139-975a-3461b9ec9422"},"vehicle_type_id":"4","last_reported":1683414404,"current_range_meters":0,"station_id":"ce4bgvp2rcd13ifvqcu0","pricing_plan_id":"free"},{"bike_id":"fa230fcd-a127-4563-b9fc-b1bc978f8fe5","system_id":"levelo_inurba_marseille","lat":43.309038,"lon":5.396546,"is_reserved":false,"is_disabled":false,"rental_uris":{"android":"levelo://app?vid=fa230fcd-a127-4563-b9fc-b1bc978f8fe5","ios":"levelo://app?vid=fa230fcd-a127-4563-b9fc-b1bc978f8fe5"},"vehicle_type_id":"4","last_reported":1683414404,"current_range_meters":4400,"station_id":"ce4bh012rcd13ifvqcv0","pricing_plan_id":"free"},{"bike_id":"34e8f97f-7f7b-401a-a605-d20e69ba43c7","system_id":"levelo_inurba_marseille","lat":43.309038,"lon":5.396546,"is_reserved":false,"is_disabled":false,"rental_uris":{"android":"levelo://app?vid=34e8f97f-7f7b-401a-a605-d20e69ba43c7","ios":"levelo://app?vid=34e8f97f-7f7b-401a-a605-d20e69ba43c7"},"vehicle_type_id":"4","last_reported":1683414404,"current_range_meters":12400,"station_id":"ce4bh012rcd13ifvqcv0","pricing_plan_id":"free"},{"bike_id":"f305b8e8-df10-4821-80e2-fdeb757dcde9","system_id":"levelo_inurba_marseille","lat":43.313291,"lon":5.396838,"is_reserved":false,"is_disabled":false,"rental_uris":{"android":"levelo://app?vid=f305b8e8-df10-4821-80e2-fdeb757dcde9","ios":"levelo://app?vid=f305b8e8-df10-4821-80e2-fdeb757dcde9"},"vehicle_type_id":"4","last_reported":1683414404,"current_range_meters":24000,"station_id":"ce4bgvp2rcd13ifvqcu0","pricing_plan_id":"free"},{"bike_id":"52702192-13e7-43c8-9548-69f677554ad3","system_id":"levelo_inurba_marseille","lat":43.309038,"lon":5.396546,"is_reserved":false,"is_disabled":false,"rental_uris":{"android":"levelo://app?vid=52702192-13e7-43c8-9548-69f677554ad3","ios":"levelo://app?vid=52702192-13e7-43c8-9548-69f677554ad3"},"vehicle_type_id":"4","last_reported":1683414404,"current_range_meters":12800,"station_id":"ce4bh012rcd13ifvqcv0","pricing_plan_id":"free"},{"bike_id":"463ee983-db2c-4144-a9d9-430106455312","system_id":"levelo_inurba_marseille","lat":43.309038,"lon":5.396546,"is_reserved":false,"is_disabled":false,"rental_uris":{"android":"levelo://app?vid=463ee983-db2c-4144-a9d9-430106455312","ios":"levelo://app?vid=463ee983-db2c-4144-a9d9-430106455312"},"vehicle_type_id":"4","last_reported":1683414404,"current_range_meters":5200,"station_id":"ce4bh012rcd13ifvqcv0","pricing_plan_id":"free"},{"bike_id":"427dfb4d-5f76-41f1-b4ad-258239e502a0","system_id":"levelo_inurba_marseille","lat":43.309038,"lon":5.396546,"is_reserved":false,"is_disabled":false,"rental_uris":{"android":"levelo://app?vid=427dfb4d-5f76-41f1-b4ad-258239e502a0","ios":"levelo://app?vid=427dfb4d-5f76-41f1-b4ad-258239e502a0"},"vehicle_type_id":"4","last_reported":1683414404,"current_range_meters":30400,"station_id":"ce4bh012rcd13ifvqcv0","pricing_plan_id":"free"},{"bike_id":"cef18ba2-0469-4972-bccb-7df78dfeba14","system_id":"levelo_inurba_marseille","lat":43.313291,"lon":5.396838,"is_reserved":false,"is_disabled":false,"rental_uris":{"android":"levelo://app?vid=cef18ba2-0469-4972-bccb-7df78dfeba14","ios":"levelo://app?vid=cef18ba2-0469-4972-bccb-7df78dfeba14"},"vehicle_type_id":"4","last_reported":1683414404,"current_range_meters":6000,"station_id":"ce4bgvp2rcd13ifvqcu0","pricing_plan_id":"free"},{"bike_id":"4b707b3e-d471-4225-8f5c-bbd8d21c5079","system_id":"levelo_inurba_marseille","lat":43.309038,"lon":5.396546,"is_reserved":false,"is_disabled":false,"rental_uris":{"android":"levelo://app?vid=4b707b3e-d471-4225-8f5c-bbd8d21c5079","ios":"levelo://app?vid=4b707b3e-d471-4225-8f5c-bbd8d21c5079"},"vehicle_type_id":"4","last_reported":1683414404,"current_range_meters":3600,"station_id":"ce4bh012rcd13ifvqcv0","pricing_plan_id":"free"},{"bike_id":"ec919113-9412-4494-bdef-6cb8ebb9d53d","system_id":"levelo_inurba_marseille","lat":43.309038,"lon":5.396546,"is_reserved":false,"is_disabled":false,"rental_uris":{"android":"levelo://app?vid=ec919113-9412-4494-bdef-6cb8ebb9d53d","ios":"levelo://app?vid=ec919113-9412-4494-bdef-6cb8ebb9d53d"},"vehicle_type_id":"4","last_reported":1683414404,"current_range_meters":17200,"station_id":"ce4bh012rcd13ifvqcv0","pricing_plan_id":"free"},{"bike_id":"829cd36e-405b-4bf0-9fa8-f9dc567e5b73","system_id":"levelo_inurba_marseille","lat":43.309038,"lon":5.396546,"is_reserved":false,"is_disabled":false,"rental_uris":{"android":"levelo://app?vid=829cd36e-405b-4bf0-9fa8-f9dc567e5b73","ios":"levelo://app?vid=829cd36e-405b-4bf0-9fa8-f9dc567e5b73"},"vehicle_type_id":"4","last_reported":1683414404,"current_range_meters":20800,"station_id":"ce4bh012rcd13ifvqcv0","pricing_plan_id":"free"},{"bike_id":"0d8e2e14-757c-48db-bfaa-31441652fd95","system_id":"levelo_inurba_marseille","lat":43.309038,"lon":5.396546,"is_reserved":false,"is_disabled":false,"rental_uris":{"android":"levelo://app?vid=0d8e2e14-757c-48db-bfaa-31441652fd95","ios":"levelo://app?vid=0d8e2e14-757c-48db-bfaa-31441652fd95"},"vehicle_type_id":"4","last_reported":1683414404,"current_range_meters":24800,"station_id":"ce4bh012rcd13ifvqcv0","pricing_plan_id":"free"},{"bike_id":"58663711-157f-49f7-9fb5-f54567fc7ff5","system_id":"levelo_inurba_marseille","lat":43.309038,"lon":5.396546,"is_reserved":false,"is_disabled":false,"rental_uris":{"android":"levelo://app?vid=58663711-157f-49f7-9fb5-f54567fc7ff5","ios":"levelo://app?vid=58663711-157f-49f7-9fb5-f54567fc7ff5"},"vehicle_type_id":"4","last_reported":1683414404,"current_range_meters":8000,"station_id":"ce4bh012rcd13ifvqcv0","pricing_plan_id":"free"},{"bike_id":"81b10fd7-38a2-4844-b8ae-f1d6afe8066b","system_id":"levelo_inurba_marseille","lat":43.309038,"lon":5.396546,"is_reserved":false,"is_disabled":false,"rental_uris":{"android":"levelo://app?vid=81b10fd7-38a2-4844-b8ae-f1d6afe8066b","ios":"levelo://app?vid=81b10fd7-38a2-4844-b8ae-f1d6afe8066b"},"vehicle_type_id":"4","last_reported":1683414404,"current_range_meters":28400,"station_id":"ce4bh012rcd13ifvqcv0","pricing_plan_id":"free"},{"bike_id":"2ff00e26-bd0f-4799-8adf-35311ad4d465","system_id":"levelo_inurba_marseille","lat":43.29529,"lon":5.385581,"is_reserved":false,"is_disabled":false,"rental_uris":{"android":"levelo://app?vid=2ff00e26-bd0f-4799-8adf-35311ad4d465","ios":"levelo://app?vid=2ff00e26-bd0f-4799-8adf-35311ad4d465"},"vehicle_type_id":"4","last_reported":1683414404,"current_range_meters":8000,"station_id":"ce4bgih2rcd13ifvqba0","pricing_plan_id":"free"},{"bike_id":"9d22ace8-9d45-4477-8e3a-8f7d3f8eebf8","system_id":"levelo_inurba_marseille","lat":43.302008,"lon":5.394694,"is_reserved":false,"is_disabled":false,"rental_uris":{"android":"levelo://app?vid=9d22ace8-9d45-4477-8e3a-8f7d3f8eebf8","ios":"levelo://app?vid=9d22ace8-9d45-4477-8e3a-8f7d3f8eebf8"},"vehicle_type_id":"4","last_reported":1683414404,"current_range_meters":13600,"station_id":"ce4bh0p2rcd13ifvqd70","pricing_plan_id":"free"},{"bike_id":"c1cf59c5-6518-4c99-a3af-753315b9f8c1","system_id":"levelo_inurba_marseille","lat":43.302008,"lon":5.394694,"is_reserved":false,"is_disabled":false,"rental_uris":{"android":"levelo://app?vid=c1cf59c5-6518-4c99-a3af-753315b9f8c1","ios":"levelo://app?vid=c1cf59c5-6518-4c99-a3af-753315b9f8c1"},"vehicle_type_id":"4","last_reported":1683414404,"current_range_meters":12400,"station_id":"ce4bh0p2rcd13ifvqd70","pricing_plan_id":"free"},{"bike_id":"928068c3-8640-4af3-bda1-cf6aa497c085","system_id":"levelo_inurba_marseille","lat":43.302008,"lon":5.394694,"is_reserved":false,"is_disabled":false,"rental_uris":{"android":"levelo://app?vid=928068c3-8640-4af3-bda1-cf6aa497c085","ios":"levelo://app?vid=928068c3-8640-4af3-bda1-cf6aa497c085"},"vehicle_type_id":"4","last_reported":1683414404,"current_range_meters":9600,"station_id":"ce4bh0p2rcd13ifvqd70","pricing_plan_id":"free"},{"bike_id":"cd1c88c2-e5e8-44d2-aab2-c648e98b8aca","system_id":"levelo_inurba_marseille","lat":43.302008,"lon":5.394694,"is_reserved":false,"is_disabled":false,"rental_uris":{"android":"levelo://app?vid=cd1c88c2-e5e8-44d2-aab2-c648e98b8aca","ios":"levelo://app?vid=cd1c88c2-e5e8-44d2-aab2-c648e98b8aca"},"vehicle_type_id":"4","last_reported":1683414404,"current_range_meters":14400,"station_id":"ce4bh0p2rcd13ifvqd70","pricing_plan_id":"free"},{"bike_id":"7f654ebc-2903-4e1a-9fbf-e76cf9757490","system_id":"levelo_inurba_marseille","lat":43.302008,"lon":5.394694,"is_reserved":false,"is_disabled":false,"rental_uris":{"android":"levelo://app?vid=7f654ebc-2903-4e1a-9fbf-e76cf9757490","ios":"levelo://app?vid=7f654ebc-2903-4e1a-9fbf-e76cf9757490"},"vehicle_type_id":"4","last_reported":1683414404,"current_range_meters":8000,"station_id":"ce4bh0p2rcd13ifvqd70","pricing_plan_id":"free"},{"bike_id":"1d0e290a-b24f-4ef1-9ffb-1be46340d82e","system_id":"levelo_inurba_marseille","lat":43.302008,"lon":5.394694,"is_reserved":false,"is_disabled":false,"rental_uris":{"android":"levelo://app?vid=1d0e290a-b24f-4ef1-9ffb-1be46340d82e","ios":"levelo://app?vid=1d0e290a-b24f-4ef1-9ffb-1be46340d82e"},"vehicle_type_id":"4","last_reported":1683414404,"current_range_meters":4800,"station_id":"ce4bh0p2rcd13ifvqd70","pricing_plan_id":"free"},{"bike_id":"5f9d6eaf-ae7f-4b51-ad1b-3fe06689a960","system_id":"levelo_inurba_marseille","lat":43.29043,"lon":5.35914,"is_reserved":false,"is_disabled":false,"rental_uris":{"android":"levelo://app?vid=5f9d6eaf-ae7f-4b51-ad1b-3fe06689a960","ios":"levelo://app?vid=5f9d6eaf-ae7f-4b51-ad1b-3fe06689a960"},"vehicle_type_id":"4","last_reported":1683414404,"current_range_meters":4000,"station_id":"","pricing_plan_id":"free"},{"bike_id":"3667841a-4307-4f3e-82f2-a00d4672944d","system_id":"levelo_inurba_marseille","lat":43.290624,"lon":5.359245,"is_reserved":false,"is_disabled":false,"rental_uris":{"android":"levelo://app?vid=3667841a-4307-4f3e-82f2-a00d4672944d","ios":"levelo://app?vid=3667841a-4307-4f3e-82f2-a00d4672944d"},"vehicle_type_id":"4","last_reported":1683414404,"current_range_meters":30800,"station_id":"ce4bha92rcd13ifvqeg0","pricing_plan_id":"free"},{"bike_id":"7868aa35-e26f-4e11-8e52-e418c6bc8101","system_id":"levelo_inurba_marseille","lat":43.290624,"lon":5.359245,"is_reserved":false,"is_disabled":false,"rental_uris":{"android":"levelo://app?vid=7868aa35-e26f-4e11-8e52-e418c6bc8101","ios":"levelo://app?vid=7868aa35-e26f-4e11-8e52-e418c6bc8101"},"vehicle_type_id":"4","last_reported":1683414404,"current_range_meters":12400,"station_id":"ce4bha92rcd13ifvqeg0","pricing_plan_id":"free"},{"bike_id":"515dad00-5765-4a0e-9156-df12f240690e","system_id":"levelo_inurba_marseille","lat":43.294162,"lon":5.386292,"is_reserved":false,"is_disabled":false,"rental_uris":{"android":"levelo://app?vid=515dad00-5765-4a0e-9156-df12f240690e","ios":"levelo://app?vid=515dad00-5765-4a0e-9156-df12f240690e"},"vehicle_type_id":"4","last_reported":1683414404,"current_range_meters":0,"station_id":"ce4bh2h2rcd13ifvqdh0","pricing_plan_id":"free"},{"bike_id":"de96ad61-a79d-4057-89e5-e53702e6395d","system_id":"levelo_inurba_marseille","lat":43.304296,"lon":5.397513,"is_reserved":false,"is_disabled":false,"rental_uris":{"android":"levelo://app?vid=de96ad61-a79d-4057-89e5-e53702e6395d","ios":"levelo://app?vid=de96ad61-a79d-4057-89e5-e53702e6395d"},"vehicle_type_id":"4","last_reported":1683414404,"current_range_meters":400,"station_id":"ce4bh092rcd13ifvqd20","pricing_plan_id":"free"},{"bike_id":"edb4c22b-441a-40a7-88fb-40373b45342f","system_id":"levelo_inurba_marseille","lat":43.304296,"lon":5.397513,"is_reserved":false,"is_disabled":false,"rental_uris":{"android":"levelo://app?vid=edb4c22b-441a-40a7-88fb-40373b45342f","ios":"levelo://app?vid=edb4c22b-441a-40a7-88fb-40373b45342f"},"vehicle_type_id":"4","last_reported":1683414404,"current_range_meters":21600,"station_id":"ce4bh092rcd13ifvqd20","pricing_plan_id":"free"},{"bike_id":"c7d204ce-6619-491c-8812-dc4b0a6a663b","system_id":"levelo_inurba_marseille","lat":43.33041,"lon":5.38917,"is_reserved":false,"is_disabled":false,"rental_uris":{"android":"levelo://app?vid=c7d204ce-6619-491c-8812-dc4b0a6a663b","ios":"levelo://app?vid=c7d204ce-6619-491c-8812-dc4b0a6a663b"},"vehicle_type_id":"4","last_reported":1683414404,"current_range_meters":27200,"station_id":"ce4bhr92rcd13ifvqhrg","pricing_plan_id":"free"},{"bike_id":"10a8eeb7-4f93-4e8d-81bd-f27d3d4ef515","system_id":"levelo_inurba_marseille","lat":43.33041,"lon":5.38918,"is_reserved":false,"is_disabled":false,"rental_uris":{"android":"levelo://app?vid=10a8eeb7-4f93-4e8d-81bd-f27d3d4ef515","ios":"levelo://app?vid=10a8eeb7-4f93-4e8d-81bd-f27d3d4ef515"},"vehicle_type_id":"4","last_reported":1683414404,"current_range_meters":24400,"station_id":"ce4bhr92rcd13ifvqhrg","pricing_plan_id":"free"},{"bike_id":"d6233f8b-531d-433b-b8e9-589e3920c098","system_id":"levelo_inurba_marseille","lat":43.33044,"lon":5.38915,"is_reserved":false,"is_disabled":false,"rental_uris":{"android":"levelo://app?vid=d6233f8b-531d-433b-b8e9-589e3920c098","ios":"levelo://app?vid=d6233f8b-531d-433b-b8e9-589e3920c098"},"vehicle_type_id":"4","last_reported":1683414404,"current_range_meters":20000,"station_id":"ce4bhr92rcd13ifvqhrg","pricing_plan_id":"free"},{"bike_id":"da86836b-d020-456b-ad95-a73c452d8db8","system_id":"levelo_inurba_marseille","lat":43.33041,"lon":5.3892,"is_reserved":false,"is_disabled":false,"rental_uris":{"android":"levelo://app?vid=da86836b-d020-456b-ad95-a73c452d8db8","ios":"levelo://app?vid=da86836b-d020-456b-ad95-a73c452d8db8"},"vehicle_type_id":"4","last_reported":1683414404,"current_range_meters":23200,"station_id":"ce4bhr92rcd13ifvqhrg","pricing_plan_id":"free"},{"bike_id":"c6d8bc85-5d48-4175-a0b2-78b2152265a7","system_id":"levelo_inurba_marseille","lat":43.33043,"lon":5.38918,"is_reserved":false,"is_disabled":false,"rental_uris":{"android":"levelo://app?vid=c6d8bc85-5d48-4175-a0b2-78b2152265a7","ios":"levelo://app?vid=c6d8bc85-5d48-4175-a0b2-78b2152265a7"},"vehicle_type_id":"4","last_reported":1683414404,"current_range_meters":2000,"station_id":"ce4bhr92rcd13ifvqhrg","pricing_plan_id":"free"},{"bike_id":"d364d2ad-2c66-4587-a79b-ee0314a1a93f","system_id":"levelo_inurba_marseille","lat":43.33043,"lon":5.3892,"is_reserved":false,"is_disabled":false,"rental_uris":{"android":"levelo://app?vid=d364d2ad-2c66-4587-a79b-ee0314a1a93f","ios":"levelo://app?vid=d364d2ad-2c66-4587-a79b-ee0314a1a93f"},"vehicle_type_id":"4","last_reported":1683414404,"current_range_meters":15600,"station_id":"ce4bhr92rcd13ifvqhrg","pricing_plan_id":"free"},{"bike_id":"4da2ea4c-0587-4161-8586-452f9bca890c","system_id":"levelo_inurba_marseille","lat":43.33045,"lon":5.38918,"is_reserved":false,"is_disabled":false,"rental_uris":{"android":"levelo://app?vid=4da2ea4c-0587-4161-8586-452f9bca890c","ios":"levelo://app?vid=4da2ea4c-0587-4161-8586-452f9bca890c"},"vehicle_type_id":"4","last_reported":1683414404,"current_range_meters":18000,"station_id":"ce4bhr92rcd13ifvqhrg","pricing_plan_id":"free"},{"bike_id":"79be8b69-b2b1-4e6f-8dc0-7c017ae7ff07","system_id":"levelo_inurba_marseille","lat":43.33045,"lon":5.38918,"is_reserved":false,"is_disabled":false,"rental_uris":{"android":"levelo://app?vid=79be8b69-b2b1-4e6f-8dc0-7c017ae7ff07","ios":"levelo://app?vid=79be8b69-b2b1-4e6f-8dc0-7c017ae7ff07"},"vehicle_type_id":"4","last_reported":1683414404,"current_range_meters":22000,"station_id":"ce4bhr92rcd13ifvqhrg","pricing_plan_id":"free"},{"bike_id":"7c5f40d0-fbd9-4c76-bb42-238ce9a43ee9","system_id":"levelo_inurba_marseille","lat":43.33047,"lon":5.38915,"is_reserved":false,"is_disabled":false,"rental_uris":{"android":"levelo://app?vid=7c5f40d0-fbd9-4c76-bb42-238ce9a43ee9","ios":"levelo://app?vid=7c5f40d0-fbd9-4c76-bb42-238ce9a43ee9"},"vehicle_type_id":"4","last_reported":1683414404,"current_range_meters":4800,"station_id":"ce4bhr92rcd13ifvqhrg","pricing_plan_id":"free"},{"bike_id":"95f4e6b5-68f5-4202-946d-1e5a35b8c334","system_id":"levelo_inurba_marseille","lat":43.33043,"lon":5.38922,"is_reserved":false,"is_disabled":false,"rental_uris":{"android":"levelo://app?vid=95f4e6b5-68f5-4202-946d-1e5a35b8c334","ios":"levelo://app?vid=95f4e6b5-68f5-4202-946d-1e5a35b8c334"},"vehicle_type_id":"4","last_reported":1683414404,"current_range_meters":16000,"station_id":"ce4bhr92rcd13ifvqhrg","pricing_plan_id":"free"},{"bike_id":"2a4c9986-79e6-473a-9088-a22214a8de69","system_id":"levelo_inurba_marseille","lat":43.33046,"lon":5.38918,"is_reserved":false,"is_disabled":false,"rental_uris":{"android":"levelo://app?vid=2a4c9986-79e6-473a-9088-a22214a8de69","ios":"levelo://app?vid=2a4c9986-79e6-473a-9088-a22214a8de69"},"vehicle_type_id":"4","last_reported":1683414404,"current_range_meters":14400,"station_id":"ce4bhr92rcd13ifvqhrg","pricing_plan_id":"free"},{"bike_id":"496fc879-c6a2-4335-9eab-2fdd6a6f8bf1","system_id":"levelo_inurba_marseille","lat":43.33045,"lon":5.38926,"is_reserved":false,"is_disabled":false,"rental_uris":{"android":"levelo://app?vid=496fc879-c6a2-4335-9eab-2fdd6a6f8bf1","ios":"levelo://app?vid=496fc879-c6a2-4335-9eab-2fdd6a6f8bf1"},"vehicle_type_id":"4","last_reported":1683414404,"current_range_meters":14800,"station_id":"ce4bhr92rcd13ifvqhrg","pricing_plan_id":"free"},{"bike_id":"97b20ff8-71f2-4eb2-ae2e-5113582d114e","system_id":"levelo_inurba_marseille","lat":43.295169,"lon":5.390426,"is_reserved":false,"is_disabled":false,"rental_uris":{"android":"levelo://app?vid=97b20ff8-71f2-4eb2-ae2e-5113582d114e","ios":"levelo://app?vid=97b20ff8-71f2-4eb2-ae2e-5113582d114e"},"vehicle_type_id":"4","last_reported":1683414404,"current_range_meters":28800,"station_id":"ce4bh3p2rcd13ifvqdp0","pricing_plan_id":"free"},{"bike_id":"eebd6ac6-e4d6-4d28-9424-0fa5d8584e61","system_id":"levelo_inurba_marseille","lat":43.28856,"lon":5.358371,"is_reserved":false,"is_disabled":false,"rental_uris":{"android":"levelo://app?vid=eebd6ac6-e4d6-4d28-9424-0fa5d8584e61","ios":"levelo://app?vid=eebd6ac6-e4d6-4d28-9424-0fa5d8584e61"},"vehicle_type_id":"4","last_reported":1683414404,"current_range_meters":29600,"station_id":"ce4bhb12rcd13ifvqem0","pricing_plan_id":"free"},{"bike_id":"17199434-efdc-47ba-9cae-9d996ea10e9c","system_id":"levelo_inurba_marseille","lat":43.28856,"lon":5.358371,"is_reserved":false,"is_disabled":false,"rental_uris":{"android":"levelo://app?vid=17199434-efdc-47ba-9cae-9d996ea10e9c","ios":"levelo://app?vid=17199434-efdc-47ba-9cae-9d996ea10e9c"},"vehicle_type_id":"4","last_reported":1683414404,"current_range_meters":24400,"station_id":"ce4bhb12rcd13ifvqem0","pricing_plan_id":"free"},{"bike_id":"5175e040-a7b1-440d-bb6f-b8a2eaccabf6","system_id":"levelo_inurba_marseille","lat":43.28856,"lon":5.358371,"is_reserved":false,"is_disabled":false,"rental_uris":{"android":"levelo://app?vid=5175e040-a7b1-440d-bb6f-b8a2eaccabf6","ios":"levelo://app?vid=5175e040-a7b1-440d-bb6f-b8a2eaccabf6"},"vehicle_type_id":"4","last_reported":1683414404,"current_range_meters":6800,"station_id":"ce4bhb12rcd13ifvqem0","pricing_plan_id":"free"},{"bike_id":"20083ae5-f09f-4d10-9758-3cdd331d6a45","system_id":"levelo_inurba_marseille","lat":43.33739,"lon":5.37454,"is_reserved":false,"is_disabled":false,"rental_uris":{"android":"levelo://app?vid=20083ae5-f09f-4d10-9758-3cdd331d6a45","ios":"levelo://app?vid=20083ae5-f09f-4d10-9758-3cdd331d6a45"},"vehicle_type_id":"4","last_reported":1683414404,"current_range_meters":14000,"station_id":"","pricing_plan_id":"free"},{"bike_id":"d1338cde-b3d1-46b1-8800-7a50c92c327c","system_id":"levelo_inurba_marseille","lat":43.3375,"lon":5.3743,"is_reserved":false,"is_disabled":false,"rental_uris":{"android":"levelo://app?vid=d1338cde-b3d1-46b1-8800-7a50c92c327c","ios":"levelo://app?vid=d1338cde-b3d1-46b1-8800-7a50c92c327c"},"vehicle_type_id":"4","last_reported":1683414404,"current_range_meters":25600,"station_id":"","pricing_plan_id":"free"},{"bike_id":"34320fce-24bb-4291-be42-2c361aed67f0","system_id":"levelo_inurba_marseille","lat":43.33748,"lon":5.37448,"is_reserved":false,"is_disabled":false,"rental_uris":{"android":"levelo://app?vid=34320fce-24bb-4291-be42-2c361aed67f0","ios":"levelo://app?vid=34320fce-24bb-4291-be42-2c361aed67f0"},"vehicle_type_id":"4","last_reported":1683414404,"current_range_meters":22400,"station_id":"","pricing_plan_id":"free"},{"bike_id":"ab7b8dc5-9722-47e7-8a78-100d1a674f6d","system_id":"levelo_inurba_marseille","lat":43.33751,"lon":5.3746,"is_reserved":false,"is_disabled":false,"rental_uris":{"android":"levelo://app?vid=ab7b8dc5-9722-47e7-8a78-100d1a674f6d","ios":"levelo://app?vid=ab7b8dc5-9722-47e7-8a78-100d1a674f6d"},"vehicle_type_id":"4","last_reported":1683414404,"current_range_meters":5600,"station_id":"","pricing_plan_id":"free"},{"bike_id":"c7ca1285-2438-40b1-b3fb-b1369776e4df","system_id":"levelo_inurba_marseille","lat":43.30642,"lon":5.401031,"is_reserved":false,"is_disabled":false,"rental_uris":{"android":"levelo://app?vid=c7ca1285-2438-40b1-b3fb-b1369776e4df","ios":"levelo://app?vid=c7ca1285-2438-40b1-b3fb-b1369776e4df"},"vehicle_type_id":"4","last_reported":1683414404,"current_range_meters":3200,"station_id":"ce4bh112rcd13ifvqda0","pricing_plan_id":"free"},{"bike_id":"cc5900b6-b927-49fc-82db-4d13a3d02316","system_id":"levelo_inurba_marseille","lat":43.33752,"lon":5.37486,"is_reserved":false,"is_disabled":false,"rental_uris":{"android":"levelo://app?vid=cc5900b6-b927-49fc-82db-4d13a3d02316","ios":"levelo://app?vid=cc5900b6-b927-49fc-82db-4d13a3d02316"},"vehicle_type_id":"4","last_reported":1683414404,"current_range_meters":24800,"station_id":"","pricing_plan_id":"free"},{"bike_id":"53f935cd-b630-492e-87c0-24b47447c695","system_id":"levelo_inurba_marseille","lat":43.30642,"lon":5.401031,"is_reserved":false,"is_disabled":false,"rental_uris":{"android":"levelo://app?vid=53f935cd-b630-492e-87c0-24b47447c695","ios":"levelo://app?vid=53f935cd-b630-492e-87c0-24b47447c695"},"vehicle_type_id":"4","last_reported":1683414404,"current_range_meters":400,"station_id":"ce4bh112rcd13ifvqda0","pricing_plan_id":"free"},{"bike_id":"db84b57a-c242-4d31-93f3-e9f12005c4b3","system_id":"levelo_inurba_marseille","lat":43.33762,"lon":5.37494,"is_reserved":false,"is_disabled":false,"rental_uris":{"android":"levelo://app?vid=db84b57a-c242-4d31-93f3-e9f12005c4b3","ios":"levelo://app?vid=db84b57a-c242-4d31-93f3-e9f12005c4b3"},"vehicle_type_id":"4","last_reported":1683414404,"current_range_meters":25600,"station_id":"","pricing_plan_id":"free"},{"bike_id":"ee6ed9d0-a67f-4f59-816f-55e838d1a244","system_id":"levelo_inurba_marseille","lat":43.30642,"lon":5.401031,"is_reserved":false,"is_disabled":false,"rental_uris":{"android":"levelo://app?vid=ee6ed9d0-a67f-4f59-816f-55e838d1a244","ios":"levelo://app?vid=ee6ed9d0-a67f-4f59-816f-55e838d1a244"},"vehicle_type_id":"4","last_reported":1683414404,"current_range_meters":25200,"station_id":"ce4bh112rcd13ifvqda0","pricing_plan_id":"free"},{"bike_id":"fa47995e-f772-41c7-9eec-879a5406c745","system_id":"levelo_inurba_marseille","lat":43.30642,"lon":5.401031,"is_reserved":false,"is_disabled":false,"rental_uris":{"android":"levelo://app?vid=fa47995e-f772-41c7-9eec-879a5406c745","ios":"levelo://app?vid=fa47995e-f772-41c7-9eec-879a5406c745"},"vehicle_type_id":"4","last_reported":1683414404,"current_range_meters":12000,"station_id":"ce4bh112rcd13ifvqda0","pricing_plan_id":"free"},{"bike_id":"c452a78d-8a25-4dac-a034-b406e8dd2a51","system_id":"levelo_inurba_marseille","lat":43.28771,"lon":5.35932,"is_reserved":false,"is_disabled":false,"rental_uris":{"android":"levelo://app?vid=c452a78d-8a25-4dac-a034-b406e8dd2a51","ios":"levelo://app?vid=c452a78d-8a25-4dac-a034-b406e8dd2a51"},"vehicle_type_id":"4","last_reported":1683414404,"current_range_meters":3200,"station_id":"","pricing_plan_id":"free"},{"bike_id":"d33b7d22-efb6-4bc6-b347-f9651bc688d0","system_id":"levelo_inurba_marseille","lat":43.301117,"lon":5.398795,"is_reserved":false,"is_disabled":false,"rental_uris":{"android":"levelo://app?vid=d33b7d22-efb6-4bc6-b347-f9651bc688d0","ios":"levelo://app?vid=d33b7d22-efb6-4bc6-b347-f9651bc688d0"},"vehicle_type_id":"4","last_reported":1683414404,"current_range_meters":10800,"station_id":"ce4bh0h2rcd13ifvqd40","pricing_plan_id":"free"},{"bike_id":"515e453d-92db-43ff-a7f5-d78d4afad7f6","system_id":"levelo_inurba_marseille","lat":43.301117,"lon":5.398795,"is_reserved":false,"is_disabled":false,"rental_uris":{"android":"levelo://app?vid=515e453d-92db-43ff-a7f5-d78d4afad7f6","ios":"levelo://app?vid=515e453d-92db-43ff-a7f5-d78d4afad7f6"},"vehicle_type_id":"4","last_reported":1683414404,"current_range_meters":24400,"station_id":"ce4bh0h2rcd13ifvqd40","pricing_plan_id":"free"},{"bike_id":"1a3f2945-2f42-4f1b-9914-c425a48c5020","system_id":"levelo_inurba_marseille","lat":43.30137,"lon":5.39875,"is_reserved":false,"is_disabled":false,"rental_uris":{"android":"levelo://app?vid=1a3f2945-2f42-4f1b-9914-c425a48c5020","ios":"levelo://app?vid=1a3f2945-2f42-4f1b-9914-c425a48c5020"},"vehicle_type_id":"4","last_reported":1683414404,"current_range_meters":800,"station_id":"ce4bh0h2rcd13ifvqd40","pricing_plan_id":"free"},{"bike_id":"dc2ae00c-a98b-4361-a874-1f2475ae35f7","system_id":"levelo_inurba_marseille","lat":43.301117,"lon":5.398795,"is_reserved":false,"is_disabled":false,"rental_uris":{"android":"levelo://app?vid=dc2ae00c-a98b-4361-a874-1f2475ae35f7","ios":"levelo://app?vid=dc2ae00c-a98b-4361-a874-1f2475ae35f7"},"vehicle_type_id":"4","last_reported":1683414404,"current_range_meters":8400,"station_id":"ce4bh0h2rcd13ifvqd40","pricing_plan_id":"free"},{"bike_id":"c18d7587-a9a3-425b-ac20-3b1cc2c27991","system_id":"levelo_inurba_marseille","lat":43.286591,"lon":5.363346,"is_reserved":false,"is_disabled":false,"rental_uris":{"android":"levelo://app?vid=c18d7587-a9a3-425b-ac20-3b1cc2c27991","ios":"levelo://app?vid=c18d7587-a9a3-425b-ac20-3b1cc2c27991"},"vehicle_type_id":"4","last_reported":1683414404,"current_range_meters":20400,"station_id":"ce4bhah2rcd13ifvqej0","pricing_plan_id":"free"},{"bike_id":"19f2a36e-bdb4-4beb-a64b-3821d9d3d6af","system_id":"levelo_inurba_marseille","lat":43.286591,"lon":5.363346,"is_reserved":false,"is_disabled":false,"rental_uris":{"android":"levelo://app?vid=19f2a36e-bdb4-4beb-a64b-3821d9d3d6af","ios":"levelo://app?vid=19f2a36e-bdb4-4beb-a64b-3821d9d3d6af"},"vehicle_type_id":"4","last_reported":1683414404,"current_range_meters":2400,"station_id":"ce4bhah2rcd13ifvqej0","pricing_plan_id":"free"},{"bike_id":"66c7695f-8b25-48c4-8b0f-5d394e90be67","system_id":"levelo_inurba_marseille","lat":43.29869,"lon":5.39733,"is_reserved":false,"is_disabled":false,"rental_uris":{"android":"levelo://app?vid=66c7695f-8b25-48c4-8b0f-5d394e90be67","ios":"levelo://app?vid=66c7695f-8b25-48c4-8b0f-5d394e90be67"},"vehicle_type_id":"4","last_reported":1683414404,"current_range_meters":7200,"station_id":"ce4bh0h2rcd13ifvqd50","pricing_plan_id":"free"},{"bike_id":"a68a7a25-9970-409d-a46b-991bdb37d527","system_id":"levelo_inurba_marseille","lat":43.286591,"lon":5.363346,"is_reserved":false,"is_disabled":false,"rental_uris":{"android":"levelo://app?vid=a68a7a25-9970-409d-a46b-991bdb37d527","ios":"levelo://app?vid=a68a7a25-9970-409d-a46b-991bdb37d527"},"vehicle_type_id":"4","last_reported":1683414404,"current_range_meters":0,"station_id":"ce4bhah2rcd13ifvqej0","pricing_plan_id":"free"},{"bike_id":"33b412e3-58b5-4ca7-b021-0ec85a1e8b2c","system_id":"levelo_inurba_marseille","lat":43.298681,"lon":5.397225,"is_reserved":false,"is_disabled":false,"rental_uris":{"android":"levelo://app?vid=33b412e3-58b5-4ca7-b021-0ec85a1e8b2c","ios":"levelo://app?vid=33b412e3-58b5-4ca7-b021-0ec85a1e8b2c"},"vehicle_type_id":"4","last_reported":1683414404,"current_range_meters":7600,"station_id":"ce4bh0h2rcd13ifvqd50","pricing_plan_id":"free"},{"bike_id":"9fa28cc1-87d2-4a2d-97a9-fa4396184202","system_id":"levelo_inurba_marseille","lat":43.295194,"lon":5.39397,"is_reserved":false,"is_disabled":false,"rental_uris":{"android":"levelo://app?vid=9fa28cc1-87d2-4a2d-97a9-fa4396184202","ios":"levelo://app?vid=9fa28cc1-87d2-4a2d-97a9-fa4396184202"},"vehicle_type_id":"4","last_reported":1683414404,"current_range_meters":15600,"station_id":"ce4bh292rcd13ifvqdf0","pricing_plan_id":"free"},{"bike_id":"9af665ab-3d5a-4975-b771-9832b8e900f8","system_id":"levelo_inurba_marseille","lat":43.29523,"lon":5.39406,"is_reserved":false,"is_disabled":false,"rental_uris":{"android":"levelo://app?vid=9af665ab-3d5a-4975-b771-9832b8e900f8","ios":"levelo://app?vid=9af665ab-3d5a-4975-b771-9832b8e900f8"},"vehicle_type_id":"4","last_reported":1683414404,"current_range_meters":0,"station_id":"ce4bh292rcd13ifvqdf0","pricing_plan_id":"free"},{"bike_id":"06b9f748-2613-4fc6-9b12-a313c1189cd5","system_id":"levelo_inurba_marseille","lat":43.295194,"lon":5.39397,"is_reserved":false,"is_disabled":false,"rental_uris":{"android":"levelo://app?vid=06b9f748-2613-4fc6-9b12-a313c1189cd5","ios":"levelo://app?vid=06b9f748-2613-4fc6-9b12-a313c1189cd5"},"vehicle_type_id":"4","last_reported":1683414404,"current_range_meters":4000,"station_id":"ce4bh292rcd13ifvqdf0","pricing_plan_id":"free"},{"bike_id":"61ad6e0e-24ef-4a9d-9e04-e7d77b2a69ba","system_id":"levelo_inurba_marseille","lat":43.295194,"lon":5.39397,"is_reserved":false,"is_disabled":false,"rental_uris":{"android":"levelo://app?vid=61ad6e0e-24ef-4a9d-9e04-e7d77b2a69ba","ios":"levelo://app?vid=61ad6e0e-24ef-4a9d-9e04-e7d77b2a69ba"},"vehicle_type_id":"4","last_reported":1683414404,"current_range_meters":0,"station_id":"ce4bh292rcd13ifvqdf0","pricing_plan_id":"free"},{"bike_id":"a76d666e-7354-4a9b-b4d0-df6fea539e8d","system_id":"levelo_inurba_marseille","lat":43.290336,"lon":5.386425,"is_reserved":false,"is_disabled":false,"rental_uris":{"android":"levelo://app?vid=a76d666e-7354-4a9b-b4d0-df6fea539e8d","ios":"levelo://app?vid=a76d666e-7354-4a9b-b4d0-df6fea539e8d"},"vehicle_type_id":"4","last_reported":1683414404,"current_range_meters":400,"station_id":"ce4bh4p2rcd13ifvqe0g","pricing_plan_id":"free"},{"bike_id":"a69eb7b4-bedb-4850-a809-550ac62918c6","system_id":"levelo_inurba_marseille","lat":43.302759,"lon":5.400793,"is_reserved":false,"is_disabled":false,"rental_uris":{"android":"levelo://app?vid=a69eb7b4-bedb-4850-a809-550ac62918c6","ios":"levelo://app?vid=a69eb7b4-bedb-4850-a809-550ac62918c6"},"vehicle_type_id":"4","last_reported":1683414404,"current_range_meters":26800,"station_id":"ce4bgvh2rcd13ifvqcs0","pricing_plan_id":"free"},{"bike_id":"c6929fa2-46d3-42fb-a518-ff9697466fc2","system_id":"levelo_inurba_marseille","lat":43.302759,"lon":5.400793,"is_reserved":false,"is_disabled":false,"rental_uris":{"android":"levelo://app?vid=c6929fa2-46d3-42fb-a518-ff9697466fc2","ios":"levelo://app?vid=c6929fa2-46d3-42fb-a518-ff9697466fc2"},"vehicle_type_id":"4","last_reported":1683414404,"current_range_meters":0,"station_id":"ce4bgvh2rcd13ifvqcs0","pricing_plan_id":"free"},{"bike_id":"f276eb4b-52d6-491d-9203-89baf5ab4192","system_id":"levelo_inurba_marseille","lat":43.302759,"lon":5.400793,"is_reserved":false,"is_disabled":false,"rental_uris":{"android":"levelo://app?vid=f276eb4b-52d6-491d-9203-89baf5ab4192","ios":"levelo://app?vid=f276eb4b-52d6-491d-9203-89baf5ab4192"},"vehicle_type_id":"4","last_reported":1683414404,"current_range_meters":1200,"station_id":"ce4bgvh2rcd13ifvqcs0","pricing_plan_id":"free"},{"bike_id":"c2776e04-12e9-4e7f-9327-00922ef2ee21","system_id":"levelo_inurba_marseille","lat":43.286039,"lon":5.370679,"is_reserved":false,"is_disabled":false,"rental_uris":{"android":"levelo://app?vid=c2776e04-12e9-4e7f-9327-00922ef2ee21","ios":"levelo://app?vid=c2776e04-12e9-4e7f-9327-00922ef2ee21"},"vehicle_type_id":"4","last_reported":1683414404,"current_range_meters":24800,"station_id":"ce4bht12rcd13ifvqi60","pricing_plan_id":"free"},{"bike_id":"e19fd36f-2c84-4aee-bc6e-7d93411551cf","system_id":"levelo_inurba_marseille","lat":43.286039,"lon":5.370679,"is_reserved":false,"is_disabled":false,"rental_uris":{"android":"levelo://app?vid=e19fd36f-2c84-4aee-bc6e-7d93411551cf","ios":"levelo://app?vid=e19fd36f-2c84-4aee-bc6e-7d93411551cf"},"vehicle_type_id":"4","last_reported":1683414404,"current_range_meters":24000,"station_id":"ce4bht12rcd13ifvqi60","pricing_plan_id":"free"},{"bike_id":"de1be558-7599-41ce-bcff-0e33cb5fd8f4","system_id":"levelo_inurba_marseille","lat":43.286039,"lon":5.370679,"is_reserved":false,"is_disabled":false,"rental_uris":{"android":"levelo://app?vid=de1be558-7599-41ce-bcff-0e33cb5fd8f4","ios":"levelo://app?vid=de1be558-7599-41ce-bcff-0e33cb5fd8f4"},"vehicle_type_id":"4","last_reported":1683414404,"current_range_meters":6000,"station_id":"ce4bht12rcd13ifvqi60","pricing_plan_id":"free"},{"bike_id":"b7bef82f-73df-418a-981a-fd2d3cf06555","system_id":"levelo_inurba_marseille","lat":43.286039,"lon":5.370679,"is_reserved":false,"is_disabled":false,"rental_uris":{"android":"levelo://app?vid=b7bef82f-73df-418a-981a-fd2d3cf06555","ios":"levelo://app?vid=b7bef82f-73df-418a-981a-fd2d3cf06555"},"vehicle_type_id":"4","last_reported":1683414404,"current_range_meters":29200,"station_id":"ce4bht12rcd13ifvqi60","pricing_plan_id":"free"},{"bike_id":"c5a48fad-289b-4227-8730-ffb0bbb18bf1","system_id":"levelo_inurba_marseille","lat":43.286039,"lon":5.370679,"is_reserved":false,"is_disabled":false,"rental_uris":{"android":"levelo://app?vid=c5a48fad-289b-4227-8730-ffb0bbb18bf1","ios":"levelo://app?vid=c5a48fad-289b-4227-8730-ffb0bbb18bf1"},"vehicle_type_id":"4","last_reported":1683414404,"current_range_meters":13200,"station_id":"ce4bht12rcd13ifvqi60","pricing_plan_id":"free"},{"bike_id":"32f84f24-205f-4be1-b8bd-a259ffd2cdd3","system_id":"levelo_inurba_marseille","lat":43.286039,"lon":5.370679,"is_reserved":false,"is_disabled":false,"rental_uris":{"android":"levelo://app?vid=32f84f24-205f-4be1-b8bd-a259ffd2cdd3","ios":"levelo://app?vid=32f84f24-205f-4be1-b8bd-a259ffd2cdd3"},"vehicle_type_id":"4","last_reported":1683414404,"current_range_meters":4000,"station_id":"ce4bht12rcd13ifvqi60","pricing_plan_id":"free"},{"bike_id":"fe40c389-c80d-4035-8c26-96ab7662184d","system_id":"levelo_inurba_marseille","lat":43.286039,"lon":5.370681,"is_reserved":false,"is_disabled":false,"rental_uris":{"android":"levelo://app?vid=fe40c389-c80d-4035-8c26-96ab7662184d","ios":"levelo://app?vid=fe40c389-c80d-4035-8c26-96ab7662184d"},"vehicle_type_id":"4","last_reported":1683414404,"current_range_meters":400,"station_id":"ce4bht12rcd13ifvqi60","pricing_plan_id":"free"},{"bike_id":"7e2c13d1-71c8-4dd7-8a55-d0a913125d76","system_id":"levelo_inurba_marseille","lat":43.286039,"lon":5.370679,"is_reserved":false,"is_disabled":false,"rental_uris":{"android":"levelo://app?vid=7e2c13d1-71c8-4dd7-8a55-d0a913125d76","ios":"levelo://app?vid=7e2c13d1-71c8-4dd7-8a55-d0a913125d76"},"vehicle_type_id":"4","last_reported":1683414404,"current_range_meters":11200,"station_id":"ce4bht12rcd13ifvqi60","pricing_plan_id":"free"},{"bike_id":"e39d7518-08d0-4e6b-ae7a-f7e9afc80e96","system_id":"levelo_inurba_marseille","lat":43.286039,"lon":5.370679,"is_reserved":false,"is_disabled":false,"rental_uris":{"android":"levelo://app?vid=e39d7518-08d0-4e6b-ae7a-f7e9afc80e96","ios":"levelo://app?vid=e39d7518-08d0-4e6b-ae7a-f7e9afc80e96"},"vehicle_type_id":"4","last_reported":1683414404,"current_range_meters":21200,"station_id":"ce4bht12rcd13ifvqi60","pricing_plan_id":"free"},{"bike_id":"72fcf500-86ac-4948-acbe-7b5a204c71d4","system_id":"levelo_inurba_marseille","lat":43.286039,"lon":5.370679,"is_reserved":false,"is_disabled":false,"rental_uris":{"android":"levelo://app?vid=72fcf500-86ac-4948-acbe-7b5a204c71d4","ios":"levelo://app?vid=72fcf500-86ac-4948-acbe-7b5a204c71d4"},"vehicle_type_id":"4","last_reported":1683414404,"current_range_meters":400,"station_id":"ce4bht12rcd13ifvqi60","pricing_plan_id":"free"},{"bike_id":"9595f8bb-3022-4124-af91-4de45cac1c12","system_id":"levelo_inurba_marseille","lat":43.316517,"lon":5.404375,"is_reserved":false,"is_disabled":false,"rental_uris":{"android":"levelo://app?vid=9595f8bb-3022-4124-af91-4de45cac1c12","ios":"levelo://app?vid=9595f8bb-3022-4124-af91-4de45cac1c12"},"vehicle_type_id":"4","last_reported":1683414404,"current_range_meters":12400,"station_id":"ce4bh012rcd13ifvqd00","pricing_plan_id":"free"},{"bike_id":"0f662c26-1842-482b-84dd-cc2d70092d35","system_id":"levelo_inurba_marseille","lat":43.316517,"lon":5.404375,"is_reserved":false,"is_disabled":false,"rental_uris":{"android":"levelo://app?vid=0f662c26-1842-482b-84dd-cc2d70092d35","ios":"levelo://app?vid=0f662c26-1842-482b-84dd-cc2d70092d35"},"vehicle_type_id":"4","last_reported":1683414404,"current_range_meters":19600,"station_id":"ce4bh012rcd13ifvqd00","pricing_plan_id":"free"},{"bike_id":"9b58c03a-e056-4d5d-9897-00689f1be5e2","system_id":"levelo_inurba_marseille","lat":43.33473,"lon":5.38999,"is_reserved":false,"is_disabled":false,"rental_uris":{"android":"levelo://app?vid=9b58c03a-e056-4d5d-9897-00689f1be5e2","ios":"levelo://app?vid=9b58c03a-e056-4d5d-9897-00689f1be5e2"},"vehicle_type_id":"4","last_reported":1683414404,"current_range_meters":5600,"station_id":"","pricing_plan_id":"free"},{"bike_id":"27865f6e-c046-4416-9233-48156b6bae2c","system_id":"levelo_inurba_marseille","lat":43.33482,"lon":5.38984,"is_reserved":false,"is_disabled":false,"rental_uris":{"android":"levelo://app?vid=27865f6e-c046-4416-9233-48156b6bae2c","ios":"levelo://app?vid=27865f6e-c046-4416-9233-48156b6bae2c"},"vehicle_type_id":"4","last_reported":1683414404,"current_range_meters":28000,"station_id":"","pricing_plan_id":"free"},{"bike_id":"fc979ffa-0506-4393-856c-54aac242f38e","system_id":"levelo_inurba_marseille","lat":43.291994,"lon":5.392907,"is_reserved":false,"is_disabled":false,"rental_uris":{"android":"levelo://app?vid=fc979ffa-0506-4393-856c-54aac242f38e","ios":"levelo://app?vid=fc979ffa-0506-4393-856c-54aac242f38e"},"vehicle_type_id":"4","last_reported":1683414404,"current_range_meters":800,"station_id":"ce4bh192rcd13ifvqdd0","pricing_plan_id":"free"},{"bike_id":"e37676a9-38e1-4e54-99a0-0345590f0775","system_id":"levelo_inurba_marseille","lat":43.291994,"lon":5.392907,"is_reserved":false,"is_disabled":false,"rental_uris":{"android":"levelo://app?vid=e37676a9-38e1-4e54-99a0-0345590f0775","ios":"levelo://app?vid=e37676a9-38e1-4e54-99a0-0345590f0775"},"vehicle_type_id":"4","last_reported":1683414404,"current_range_meters":7600,"station_id":"ce4bh192rcd13ifvqdd0","pricing_plan_id":"free"},{"bike_id":"007c9210-e319-4cb4-bfbf-a907d96c2724","system_id":"levelo_inurba_marseille","lat":43.291994,"lon":5.392907,"is_reserved":false,"is_disabled":false,"rental_uris":{"android":"levelo://app?vid=007c9210-e319-4cb4-bfbf-a907d96c2724","ios":"levelo://app?vid=007c9210-e319-4cb4-bfbf-a907d96c2724"},"vehicle_type_id":"4","last_reported":1683414404,"current_range_meters":31200,"station_id":"ce4bh192rcd13ifvqdd0","pricing_plan_id":"free"},{"bike_id":"6926c071-9f13-4f56-8822-a59feb566fb1","system_id":"levelo_inurba_marseille","lat":43.29577,"lon":5.39834,"is_reserved":false,"is_disabled":false,"rental_uris":{"android":"levelo://app?vid=6926c071-9f13-4f56-8822-a59feb566fb1","ios":"levelo://app?vid=6926c071-9f13-4f56-8822-a59feb566fb1"},"vehicle_type_id":"4","last_reported":1683414404,"current_range_meters":23200,"station_id":"","pricing_plan_id":"free"},{"bike_id":"345e5a89-a1c9-44e2-b16a-749c5b961928","system_id":"levelo_inurba_marseille","lat":43.284534,"lon":5.358662,"is_reserved":false,"is_disabled":false,"rental_uris":{"android":"levelo://app?vid=345e5a89-a1c9-44e2-b16a-749c5b961928","ios":"levelo://app?vid=345e5a89-a1c9-44e2-b16a-749c5b961928"},"vehicle_type_id":"4","last_reported":1683414404,"current_range_meters":8000,"station_id":"ce4bhah2rcd13ifvqei0","pricing_plan_id":"free"},{"bike_id":"f932a76e-bb3a-43df-bc72-a77800070fd1","system_id":"levelo_inurba_marseille","lat":43.284534,"lon":5.358662,"is_reserved":false,"is_disabled":false,"rental_uris":{"android":"levelo://app?vid=f932a76e-bb3a-43df-bc72-a77800070fd1","ios":"levelo://app?vid=f932a76e-bb3a-43df-bc72-a77800070fd1"},"vehicle_type_id":"4","last_reported":1683414404,"current_range_meters":6000,"station_id":"ce4bhah2rcd13ifvqei0","pricing_plan_id":"free"},{"bike_id":"97cc32eb-c986-42e4-a5c4-471981490887","system_id":"levelo_inurba_marseille","lat":43.28486,"lon":5.37662,"is_reserved":false,"is_disabled":false,"rental_uris":{"android":"levelo://app?vid=97cc32eb-c986-42e4-a5c4-471981490887","ios":"levelo://app?vid=97cc32eb-c986-42e4-a5c4-471981490887"},"vehicle_type_id":"4","last_reported":1683414404,"current_range_meters":9600,"station_id":"","pricing_plan_id":"free"},