{"last_updated":1738321630,"ttl":60,"version":"2.2","data":{"bikes":[{"bike_id":"56219279-1c5e-4efe-819b-8ac0b6caa470","system_id":"levelo_inurba_marseille","lat":43.30355,"lon":5.41873,"is_reserved":false,"is_disabled":false,"rental_uris":{"android":"levelo://app?vid=56219279-1c5e-4efe-819b-8ac0b6caa470","ios":"levelo://app?vid=56219279-1c5e-4efe-819b-8ac0b6caa470"},"vehicle_type_id":"4","last_reported":1738321630,"current_range_meters":38800,"station_id":"ce4bhop2rcd13ifvqh7g","pricing_plan_id":"cebpf4jnsgd1na2vs0mg"},{"bike_id":"31270426-539a-44d7-942e-c2e16893d54c","system_id":"levelo_inurba_marseille","lat":43.29574,"lon":5.37507,"is_reserved":false,"is_disabled":false,"rental_uris":{"android":"levelo://app?vid=31270426-539a-44d7-942e-c2e16893d54c","ios":"levelo://app?vid=31270426-539a-44d7-942e-c2e16893d54c"},"vehicle_type_id":"4","last_reported":1738321630,"current_range_meters":37600,"station_id":"ce4bgh92rcd13ifvqb50","pricing_plan_id":"cebpf4jnsgd1na2vs0mg"},{"bike_id":"af2c35d1-2444-41c5-8dfa-778a63a41e71","system_id":"levelo_inurba_marseille","lat":43.25726,"lon":5.41111,"is_reserved":false,"is_disabled":false,"rental_uris":{"android":"levelo://app?vid=af2c35d1-2444-41c5-8dfa-778a63a41e71","ios":"levelo://app?vid=af2c35d1-2444-41c5-8dfa-778a63a41e71"},"vehicle_type_id":"4","last_reported":1738321630,"current_range_meters":39200,"station_id":"ce4bhkp2rcd13ifvqgd0","pricing_plan_id":"cebpf4jnsgd1na2vs0mg"},{"bike_id":"be084528-58dc-46cb-ab80-45bc5392f927","system_id":"levelo_inurba_marseille","lat":43.29775,"lon":5.37091,"is_reserved":false,"is_disabled":false,"rental_uris":{"android":"levelo://app?vid=be084528-58dc-46cb-ab80-45bc5392f927","ios":"levelo://app?vid=be084528-58dc-46cb-ab80-45bc5392f927"},"vehicle_type_id":"4","last_reported":1738321630,"current_range_meters":38000,"station_id":"ce4bgop2rcd13ifvqc1g","pricing_plan_id":"cebpf4jnsgd1na2vs0mg"},{"bike_id":"23790f80-161e-45c6-894a-af4959fd5c84","system_id":"levelo_inurba_marseille","lat":43.2953,"lon":5.39052,"is_reserved":false,"is_disabled":false,"rental_uris":{"android":"levelo://app?vid=23790f80-161e-45c6-894a-af4959fd5c84","ios":"levelo://app?vid=23790f80-161e-45c6-894a-af4959fd5c84"},"vehicle_type_id":"4","last_reported":1738321630,"current_range_meters":23200,"station_id":"ce4bh3p2rcd13ifvqdp0","pricing_plan_id":"cebpf4jnsgd1na2vs0mg"},{"bike_id":"5a269114-9421-4c4a-85c4-bcab1124bad7","system_id":"levelo_inurba_marseille","lat":43.27805,"lon":5.40707,"is_reserved":false,"is_disabled":false,"rental_uris":{"android":"levelo://app?vid=5a269114-9421-4c4a-85c4-bcab1124bad7","ios":"levelo://app?vid=5a269114-9421-4c4a-85c4-bcab1124bad7"},"vehicle_type_id":"4","last_reported":1738321630,"current_range_meters":36400,"station_id":"ce4bhnh2rcd13ifvqgtg","pricing_plan_id":"cebpf4jnsgd1na2vs0mg"},{"bike_id":"093102b0-e4b2-45ce-a2fc-e1bdf3d0c4ef","system_id":"levelo_inurba_marseille","lat":43.25922,"lon":5.4087,"is_reserved":false,"is_disabled":false,"rental_uris":{"android":"levelo://app?vid=093102b0-e4b2-45ce-a2fc-e1bdf3d0c4ef","ios":"levelo://app?vid=093102b0-e4b2-45ce-a2fc-e1bdf3d0c4ef"},"vehicle_type_id":"4","last_reported":1738321630,"current_range_meters":15200,"station_id":"ce4bhm92rcd13ifvqglg","pricing_plan_id":"cebpf4jnsgd1na2vs0mg"},{"bike_id":"f7f8117f-03ef-415e-85c6-2eeaf165e4f2","system_id":"levelo_inurba_marseille","lat":43.26227,"lon":5.40473,"is_reserved":false,"is_disabled":true,"rental_uris":{"android":"levelo://app?vid=f7f8117f-03ef-415e-85c6-2eeaf165e4f2","ios":"levelo://app?vid=f7f8117f-03ef-415e-85c6-2eeaf165e4f2"},"vehicle_type_id":"4","last_reported":1738321630,"current_range_meters":22800,"station_id":"ce4bhmh2rcd13ifvqgmg","pricing_plan_id":"cebpf4jnsgd1na2vs0mg"},{"bike_id":"685704c5-16c7-46eb-9c61-d2af1e48f785","system_id":"levelo_inurba_marseille","lat":43.2732,"lon":5.39111,"is_reserved":false,"is_disabled":false,"rental_uris":{"android":"levelo://app?vid=685704c5-16c7-46eb-9c61-d2af1e48f785","ios":"levelo://app?vid=685704c5-16c7-46eb-9c61-d2af1e48f785"},"vehicle_type_id":"4","last_reported":1738321630,"current_range_meters":28400,"station_id":"ce4bhgp2rcd13ifvqfe0","pricing_plan_id":"cebpf4jnsgd1na2vs0mg"},{"bike_id":"9bcc01d9-ea00-4d01-8457-e3e749e9bf21","system_id":"levelo_inurba_marseille","lat":43.27982,"lon":5.38751,"is_reserved":false,"is_disabled":false,"rental_uris":{"android":"levelo://app?vid=9bcc01d9-ea00-4d01-8457-e3e749e9bf21","ios":"levelo://app?vid=9bcc01d9-ea00-4d01-8457-e3e749e9bf21"},"vehicle_type_id":"4","last_reported":1738321630,"current_range_meters":29600,"station_id":"ce4bhg12rcd13ifvqf80","pricing_plan_id":"cebpf4jnsgd1na2vs0mg"},{"bike_id":"5288b697-1d1a-4c5e-b196-c2c2b6778b4f","system_id":"levelo_inurba_marseille","lat":43.27328,"lon":5.39077,"is_reserved":false,"is_disabled":false,"rental_uris":{"android":"levelo://app?vid=5288b697-1d1a-4c5e-b196-c2c2b6778b4f","ios":"levelo://app?vid=5288b697-1d1a-4c5e-b196-c2c2b6778b4f"},"vehicle_type_id":"4","last_reported":1738321630,"current_range_meters":32000,"station_id":"ce4bhgp2rcd13ifvqfe0","pricing_plan_id":"cebpf4jnsgd1na2vs0mg"},{"bike_id":"501d594d-8484-4910-8420-a9ab886e1f70","system_id":"levelo_inurba_marseille","lat":43.27033,"lon":5.4029,"is_reserved":false,"is_disabled":false,"rental_uris":{"android":"levelo://app?vid=501d594d-8484-4910-8420-a9ab886e1f70","ios":"levelo://app?vid=501d594d-8484-4910-8420-a9ab886e1f70"},"vehicle_type_id":"4","last_reported":1738321630,"current_range_meters":25200,"station_id":"ce4bhk92rcd13ifvqgc0","pricing_plan_id":"cebpf4jnsgd1na2vs0mg"},{"bike_id":"fa3194bc-cba3-4a81-849e-221c6763ff5b","system_id":"levelo_inurba_marseille","lat":43.29535,"lon":5.3753,"is_reserved":false,"is_disabled":false,"rental_uris":{"android":"levelo://app?vid=fa3194bc-cba3-4a81-849e-221c6763ff5b","ios":"levelo://app?vid=fa3194bc-cba3-4a81-849e-221c6763ff5b"},"vehicle_type_id":"4","last_reported":1738321630,"current_range_meters":37600,"station_id":"ce4bgkp2rcd13ifvqbmg","pricing_plan_id":"cebpf4jnsgd1na2vs0mg"},{"bike_id":"32c2be47-5997-40f8-b9d1-340939e2797c","system_id":"levelo_inurba_marseille","lat":43.27816,"lon":5.40714,"is_reserved":false,"is_disabled":false,"rental_uris":{"android":"levelo://app?vid=32c2be47-5997-40f8-b9d1-340939e2797c","ios":"levelo://app?vid=32c2be47-5997-40f8-b9d1-340939e2797c"},"vehicle_type_id":"4","last_reported":1738321630,"current_range_meters":6000,"station_id":"ce4bhnh2rcd13ifvqgtg","pricing_plan_id":"cebpf4jnsgd1na2vs0mg"},{"bike_id":"45c36d39-be96-4b78-92d3-f3f06ecc3969","system_id":"levelo_inurba_marseille","lat":43.30138,"lon":5.37418,"is_reserved":false,"is_disabled":false,"rental_uris":{"android":"levelo://app?vid=45c36d39-be96-4b78-92d3-f3f06ecc3969","ios":"levelo://app?vid=45c36d39-be96-4b78-92d3-f3f06ecc3969"},"vehicle_type_id":"4","last_reported":1738321630,"current_range_meters":38800,"station_id":"ce4bgs92rcd13ifvqcc0","pricing_plan_id":"cebpf4jnsgd1na2vs0mg"},{"bike_id":"1fbf3f20-0930-4b85-8900-561217e5a0eb","system_id":"levelo_inurba_marseille","lat":43.30416,"lon":5.41283,"is_reserved":false,"is_disabled":false,"rental_uris":{"android":"levelo://app?vid=1fbf3f20-0930-4b85-8900-561217e5a0eb","ios":"levelo://app?vid=1fbf3f20-0930-4b85-8900-561217e5a0eb"},"vehicle_type_id":"4","last_reported":1738321630,"current_range_meters":28400,"station_id":"ce4bhop2rcd13ifvqh8g","pricing_plan_id":"cebpf4jnsgd1na2vs0mg"},{"bike_id":"086c7782-679f-4d19-9aaa-d696ab0b8c4e","system_id":"levelo_inurba_marseille","lat":43.27822,"lon":5.40725,"is_reserved":false,"is_disabled":false,"rental_uris":{"android":"levelo://app?vid=086c7782-679f-4d19-9aaa-d696ab0b8c4e","ios":"levelo://app?vid=086c7782-679f-4d19-9aaa-d696ab0b8c4e"},"vehicle_type_id":"4","last_reported":1738321630,"current_range_meters":26800,"station_id":"ce4bhnh2rcd13ifvqgtg","pricing_plan_id":"cebpf4jnsgd1na2vs0mg"},{"bike_id":"93df7b93-bd44-4f48-9008-f5bad7152cc2","system_id":"levelo_inurba_marseille","lat":43.3017,"lon":5.38088,"is_reserved":false,"is_disabled":false,"rental_uris":{"android":"levelo://app?vid=93df7b93-bd44-4f48-9008-f5bad7152cc2","ios":"levelo://app?vid=93df7b93-bd44-4f48-9008-f5bad7152cc2"},"vehicle_type_id":"4","last_reported":1738321630,"current_range_meters":16000,"station_id":"ce4bgjp2rcd13ifvqbh0","pricing_plan_id":"cebpf4jnsgd1na2vs0mg"},{"bike_id":"befe1838-b5eb-4db0-aeea-9ea02214eae7","system_id":"levelo_inurba_marseille","lat":43.25083,"lon":5.39507,"is_reserved":false,"is_disabled":false,"rental_uris":{"android":"levelo://app?vid=befe1838-b5eb-4db0-aeea-9ea02214eae7","ios":"levelo://app?vid=befe1838-b5eb-4db0-aeea-9ea02214eae7"},"vehicle_type_id":"4","last_reported":1738321630,"current_range_meters":33600,"station_id":"ce4bhm12rcd13ifvqgkg","pricing_plan_id":"cebpf4jnsgd1na2vs0mg"},{"bike_id":"a2c2f7f6-53e1-41aa-a1bb-36c8d98a1715","system_id":"levelo_inurba_marseille","lat":43.27819,"lon":5.40735,"is_reserved":false,"is_disabled":false,"rental_uris":{"android":"levelo://app?vid=a2c2f7f6-53e1-41aa-a1bb-36c8d98a1715","ios":"levelo://app?vid=a2c2f7f6-53e1-41aa-a1bb-36c8d98a1715"},"vehicle_type_id":"4","last_reported":1738321630,"current_range_meters":38800,"station_id":"ce4bhnh2rcd13ifvqgtg","pricing_plan_id":"cebpf4jnsgd1na2vs0mg"},{"bike_id":"ab0ec696-ce2c-4f7f-a964-2e9c9f313854","system_id":"levelo_inurba_marseille","lat":43.23965,"lon":5.366274,"is_reserved":false,"is_disabled":false,"rental_uris":{"android":"levelo://app?vid=ab0ec696-ce2c-4f7f-a964-2e9c9f313854","ios":"levelo://app?vid=ab0ec696-ce2c-4f7f-a964-2e9c9f313854"},"vehicle_type_id":"4","last_reported":1738321630,"current_range_meters":28800,"station_id":"ce4bhi12rcd13ifvqfp0","pricing_plan_id":"cebpf4jnsgd1na2vs0mg"},{"bike_id":"829a5c18-e3aa-474e-929d-b261e900d889","system_id":"levelo_inurba_marseille","lat":43.2857,"lon":5.39499,"is_reserved":false,"is_disabled":false,"rental_uris":{"android":"levelo://app?vid=829a5c18-e3aa-474e-929d-b261e900d889","ios":"levelo://app?vid=829a5c18-e3aa-474e-929d-b261e900d889"},"vehicle_type_id":"4","last_reported":1738321630,"current_range_meters":16800,"station_id":"ce4bh292rcd13ifvqdg0","pricing_plan_id":"cebpf4jnsgd1na2vs0mg"},{"bike_id":"e99c90aa-e079-42e2-a963-1534829ba9c7","system_id":"levelo_inurba_marseille","lat":43.26211,"lon":5.374448,"is_reserved":false,"is_disabled":false,"rental_uris":{"android":"levelo://app?vid=e99c90aa-e079-42e2-a963-1534829ba9c7","ios":"levelo://app?vid=e99c90aa-e079-42e2-a963-1534829ba9c7"},"vehicle_type_id":"4","last_reported":1738321630,"current_range_meters":32000,"station_id":"ce4bhgp2rcd13ifvqfc0","pricing_plan_id":"cebpf4jnsgd1na2vs0mg"},{"bike_id":"d908ef3b-09f1-43ac-a5bc-eb4b647015c1","system_id":"levelo_inurba_marseille","lat":43.29221,"lon":5.36048,"is_reserved":false,"is_disabled":false,"rental_uris":{"android":"levelo://app?vid=d908ef3b-09f1-43ac-a5bc-eb4b647015c1","ios":"levelo://app?vid=d908ef3b-09f1-43ac-a5bc-eb4b647015c1"},"vehicle_type_id":"4","last_reported":1738321630,"current_range_meters":8800,"station_id":"ce4bhbh2rcd13ifvqeqg","pricing_plan_id":"cebpf4jnsgd1na2vs0mg"},{"bike_id":"472815ce-dd78-4e4c-82e8-cea31da48d22","system_id":"levelo_inurba_marseille","lat":43.33734,"lon":5.39189,"is_reserved":false,"is_disabled":false,"rental_uris":{"android":"levelo://app?vid=472815ce-dd78-4e4c-82e8-cea31da48d22","ios":"levelo://app?vid=472815ce-dd78-4e4c-82e8-cea31da48d22"},"vehicle_type_id":"4","last_reported":1738321630,"current_range_meters":39200,"station_id":"ce4bhr92rcd13ifvqhsg","pricing_plan_id":"cebpf4jnsgd1na2vs0mg"},{"bike_id":"cc47836a-b908-432f-8e0e-2f793407f141","system_id":"levelo_inurba_marseille","lat":43.2293,"lon":5.35378,"is_reserved":false,"is_disabled":false,"rental_uris":{"android":"levelo://app?vid=cc47836a-b908-432f-8e0e-2f793407f141","ios":"levelo://app?vid=cc47836a-b908-432f-8e0e-2f793407f141"},"vehicle_type_id":"4","last_reported":1738321630,"current_range_meters":10800,"station_id":"cpo3532slgdg3j2ikp40","pricing_plan_id":"cebpf4jnsgd1na2vs0mg"},{"bike_id":"866af598-ce00-4c4a-8cef-571d5a74515d","system_id":"levelo_inurba_marseille","lat":43.3091,"lon":5.3681,"is_reserved":false,"is_disabled":false,"rental_uris":{"android":"levelo://app?vid=866af598-ce00-4c4a-8cef-571d5a74515d","ios":"levelo://app?vid=866af598-ce00-4c4a-8cef-571d5a74515d"},"vehicle_type_id":"4","last_reported":1738321630,"current_range_meters":38800,"station_id":"ce4bgn92rcd13ifvqbvg","pricing_plan_id":"cebpf4jnsgd1na2vs0mg"},{"bike_id":"fe74346d-5132-48f7-b795-af0d4905ad40","system_id":"levelo_inurba_marseille","lat":43.28467,"lon":5.38419,"is_reserved":false,"is_disabled":false,"rental_uris":{"android":"levelo://app?vid=fe74346d-5132-48f7-b795-af0d4905ad40","ios":"levelo://app?vid=fe74346d-5132-48f7-b795-af0d4905ad40"},"vehicle_type_id":"4","last_reported":1738321630,"current_range_meters":38800,"station_id":"ce4bh512rcd13ifvqe3g","pricing_plan_id":"cebpf4jnsgd1na2vs0mg"},{"bike_id":"f6afaadc-8a64-4520-9e68-285b035334db","system_id":"levelo_inurba_marseille","lat":43.30557,"lon":5.36697,"is_reserved":false,"is_disabled":false,"rental_uris":{"android":"levelo://app?vid=f6afaadc-8a64-4520-9e68-285b035334db","ios":"levelo://app?vid=f6afaadc-8a64-4520-9e68-285b035334db"},"vehicle_type_id":"4","last_reported":1738321630,"current_range_meters":38800,"station_id":"ce4bgrp2rcd13ifvqc9g","pricing_plan_id":"cebpf4jnsgd1na2vs0mg"},{"bike_id":"5d4f5709-1ef7-4072-963f-e7d63b12f788","system_id":"levelo_inurba_marseille","lat":43.30125,"lon":5.37413,"is_reserved":false,"is_disabled":false,"rental_uris":{"android":"levelo://app?vid=5d4f5709-1ef7-4072-963f-e7d63b12f788","ios":"levelo://app?vid=5d4f5709-1ef7-4072-963f-e7d63b12f788"},"vehicle_type_id":"4","last_reported":1738321630,"current_range_meters":32000,"station_id":"ce4bgs92rcd13ifvqcc0","pricing_plan_id":"cebpf4jnsgd1na2vs0mg"},{"bike_id":"38a7a170-9c0f-4c7d-bbc1-33ebfe8d2a0d","system_id":"levelo_inurba_marseille","lat":43.2464,"lon":5.38921,"is_reserved":false,"is_disabled":false,"rental_uris":{"android":"levelo://app?vid=38a7a170-9c0f-4c7d-bbc1-33ebfe8d2a0d","ios":"levelo://app?vid=38a7a170-9c0f-4c7d-bbc1-33ebfe8d2a0d"},"vehicle_type_id":"4","last_reported":1738321630,"current_range_meters":39200,"station_id":"ce4bhg12rcd13ifvqf60","pricing_plan_id":"cebpf4jnsgd1na2vs0mg"},{"bike_id":"7fbc607b-e12b-47bd-a53f-1c18ac62adfd","system_id":"levelo_inurba_marseille","lat":43.27818,"lon":5.40715,"is_reserved":false,"is_disabled":false,"rental_uris":{"android":"levelo://app?vid=7fbc607b-e12b-47bd-a53f-1c18ac62adfd","ios":"levelo://app?vid=7fbc607b-e12b-47bd-a53f-1c18ac62adfd"},"vehicle_type_id":"4","last_reported":1738321630,"current_range_meters":33600,"station_id":"ce4bhnh2rcd13ifvqgtg","pricing_plan_id":"cebpf4jnsgd1na2vs0mg"},{"bike_id":"735cf356-6ca7-4c83-bf25-d301ccde8042","system_id":"levelo_inurba_marseille","lat":43.27189,"lon":5.40984,"is_reserved":false,"is_disabled":false,"rental_uris":{"android":"levelo://app?vid=735cf356-6ca7-4c83-bf25-d301ccde8042","ios":"levelo://app?vid=735cf356-6ca7-4c83-bf25-d301ccde8042"},"vehicle_type_id":"4","last_reported":1738321630,"current_range_meters":26800,"station_id":"ce4bhl12rcd13ifvqgf0","pricing_plan_id":"cebpf4jnsgd1na2vs0mg"},{"bike_id":"f34fcd93-0f66-400a-8f07-aa08bfa23861","system_id":"levelo_inurba_marseille","lat":43.25943,"lon":5.40887,"is_reserved":false,"is_disabled":false,"rental_uris":{"android":"levelo://app?vid=f34fcd93-0f66-400a-8f07-aa08bfa23861","ios":"levelo://app?vid=f34fcd93-0f66-400a-8f07-aa08bfa23861"},"vehicle_type_id":"4","last_reported":1738321630,"current_range_meters":38000,"station_id":"ce4bhm92rcd13ifvqglg","pricing_plan_id":"cebpf4jnsgd1na2vs0mg"},{"bike_id":"abeaed77-608d-47ae-b8e4-a2e36704ed2c","system_id":"levelo_inurba_marseille","lat":43.2706,"lon":5.40258,"is_reserved":false,"is_disabled":true,"rental_uris":{"android":"levelo://app?vid=abeaed77-608d-47ae-b8e4-a2e36704ed2c","ios":"levelo://app?vid=abeaed77-608d-47ae-b8e4-a2e36704ed2c"},"vehicle_type_id":"4","last_reported":1738321630,"current_range_meters":38000,"station_id":"","pricing_plan_id":"cebpf4jnsgd1na2vs0mg"},{"bike_id":"606053f9-3da2-4594-b4df-8e24b5fa812c","system_id":"levelo_inurba_marseille","lat":43.269344,"lon":5.402564,"is_reserved":false,"is_disabled":false,"rental_uris":{"android":"levelo://app?vid=606053f9-3da2-4594-b4df-8e24b5fa812c","ios":"levelo://app?vid=606053f9-3da2-4594-b4df-8e24b5fa812c"},"vehicle_type_id":"4","last_reported":1738321630,"current_range_meters":38000,"station_id":"cjm6bp8fraef2m0cb0m0","pricing_plan_id":"cebpf4jnsgd1na2vs0mg"},{"bike_id":"c3b60fbf-93d2-4381-9a10-c9fead286892","system_id":"levelo_inurba_marseille","lat":43.32485,"lon":5.36559,"is_reserved":false,"is_disabled":false,"rental_uris":{"android":"levelo://app?vid=c3b60fbf-93d2-4381-9a10-c9fead286892","ios":"levelo://app?vid=c3b60fbf-93d2-4381-9a10-c9fead286892"},"vehicle_type_id":"4","last_reported":1738321630,"current_range_meters":16800,"station_id":"ce4bhs12rcd13ifvqhvg","pricing_plan_id":"cebpf4jnsgd1na2vs0mg"},{"bike_id":"7bf0b083-5d7a-408e-adaa-18c38cfadd6e","system_id":"levelo_inurba_marseille","lat":43.22925,"lon":5.35392,"is_reserved":false,"is_disabled":false,"rental_uris":{"android":"levelo://app?vid=7bf0b083-5d7a-408e-adaa-18c38cfadd6e","ios":"levelo://app?vid=7bf0b083-5d7a-408e-adaa-18c38cfadd6e"},"vehicle_type_id":"4","last_reported":1738321630,"current_range_meters":12400,"station_id":"cpo3532slgdg3j2ikp40","pricing_plan_id":"cebpf4jnsgd1na2vs0mg"},{"bike_id":"db6fbd70-0883-4d40-9620-5ec6d01d53d8","system_id":"levelo_inurba_marseille","lat":43.27306,"lon":5.39103,"is_reserved":false,"is_disabled":false,"rental_uris":{"android":"levelo://app?vid=db6fbd70-0883-4d40-9620-5ec6d01d53d8","ios":"levelo://app?vid=db6fbd70-0883-4d40-9620-5ec6d01d53d8"},"vehicle_type_id":"4","last_reported":1738321630,"current_range_meters":23200,"station_id":"ce4bhgp2rcd13ifvqfe0","pricing_plan_id":"cebpf4jnsgd1na2vs0mg"},{"bike_id":"db14cd8a-5ba9-45f6-b197-f717b13b5230","system_id":"levelo_inurba_marseille","lat":43.29865,"lon":5.36285,"is_reserved":false,"is_disabled":false,"rental_uris":{"android":"levelo://app?vid=db14cd8a-5ba9-45f6-b197-f717b13b5230","ios":"levelo://app?vid=db14cd8a-5ba9-45f6-b197-f717b13b5230"},"vehicle_type_id":"4","last_reported":1738321630,"current_range_meters":38800,"station_id":"ce4bgpp2rcd13ifvqc3g","pricing_plan_id":"cebpf4jnsgd1na2vs0mg"},{"bike_id":"808232f1-e991-4dd8-8765-6f4f5aba4517","system_id":"levelo_inurba_marseille","lat":43.33595,"lon":5.40991,"is_reserved":false,"is_disabled":true,"rental_uris":{"android":"levelo://app?vid=808232f1-e991-4dd8-8765-6f4f5aba4517","ios":"levelo://app?vid=808232f1-e991-4dd8-8765-6f4f5aba4517"},"vehicle_type_id":"4","last_reported":1738321630,"current_range_meters":400,"station_id":"ce4bhqh2rcd13ifvqhmg","pricing_plan_id":"cebpf4jnsgd1na2vs0mg"},{"bike_id":"ba129d01-c854-426a-b56c-c7cb35ee6bf8","system_id":"levelo_inurba_marseille","lat":43.23147,"lon":5.43708,"is_reserved":false,"is_disabled":false,"rental_uris":{"android":"levelo://app?vid=ba129d01-c854-426a-b56c-c7cb35ee6bf8","ios":"levelo://app?vid=ba129d01-c854-426a-b56c-c7cb35ee6bf8"},"vehicle_type_id":"4","last_reported":1738321630,"current_range_meters":24800,"station_id":"ce4bhmp2rcd13ifvqgog","pricing_plan_id":"cebpf4jnsgd1na2vs0mg"},{"bike_id":"10d31094-e8d4-4e9d-bf6f-3c654bea52c2","system_id":"levelo_inurba_marseille","lat":43.281505,"lon":5.426366,"is_reserved":false,"is_disabled":false,"rental_uris":{"android":"levelo://app?vid=10d31094-e8d4-4e9d-bf6f-3c654bea52c2","ios":"levelo://app?vid=10d31094-e8d4-4e9d-bf6f-3c654bea52c2"},"vehicle_type_id":"4","last_reported":1738321630,"current_range_meters":6000,"station_id":"ce4bhnh2rcd13ifvqgug","pricing_plan_id":"cebpf4jnsgd1na2vs0mg"},{"bike_id":"cbf80fc8-83c3-4077-b70f-6754cc7f80e0","system_id":"levelo_inurba_marseille","lat":43.29332,"lon":5.37413,"is_reserved":false,"is_disabled":false,"rental_uris":{"android":"levelo://app?vid=cbf80fc8-83c3-4077-b70f-6754cc7f80e0","ios":"levelo://app?vid=cbf80fc8-83c3-4077-b70f-6754cc7f80e0"},"vehicle_type_id":"4","last_reported":1738321630,"current_range_meters":39200,"station_id":"ce4bgi12rcd13ifvqb70","pricing_plan_id":"cebpf4jnsgd1na2vs0mg"},{"bike_id":"0d0813fa-cc8c-457d-80e7-eddc6728ce08","system_id":"levelo_inurba_marseille","lat":43.27938,"lon":5.38688,"is_reserved":false,"is_disabled":false,"rental_uris":{"android":"levelo://app?vid=0d0813fa-cc8c-457d-80e7-eddc6728ce08","ios":"levelo://app?vid=0d0813fa-cc8c-457d-80e7-eddc6728ce08"},"vehicle_type_id":"4","last_reported":1738321630,"current_range_meters":38800,"station_id":"ce4bhg12rcd13ifvqf80","pricing_plan_id":"cebpf4jnsgd1na2vs0mg"},{"bike_id":"9f7cbc3c-6e0b-4442-8c70-64c0b2a1452e","system_id":"levelo_inurba_marseille","lat":43.23068,"lon":5.35492,"is_reserved":false,"is_disabled":false,"rental_uris":{"android":"levelo://app?vid=9f7cbc3c-6e0b-4442-8c70-64c0b2a1452e","ios":"levelo://app?vid=9f7cbc3c-6e0b-4442-8c70-64c0b2a1452e"},"vehicle_type_id":"4","last_reported":1738321630,"current_range_meters":8400,"station_id":"cpo3342slgdg3j2ifvpg","pricing_plan_id":"cebpf4jnsgd1na2vs0mg"},{"bike_id":"c8a3a0ed-dff2-4f3c-87dc-2e6b47b1ad28","system_id":"levelo_inurba_marseille","lat":43.337444,"lon":5.374475,"is_reserved":false,"is_disabled":true,"rental_uris":{"android":"levelo://app?vid=c8a3a0ed-dff2-4f3c-87dc-2e6b47b1ad28","ios":"levelo://app?vid=c8a3a0ed-dff2-4f3c-87dc-2e6b47b1ad28"},"vehicle_type_id":"4","last_reported":1738321630,"current_range_meters":0,"station_id":"","pricing_plan_id":"cebpf4jnsgd1na2vs0mg"},{"bike_id":"d24dc091-49b4-4297-b627-1765e1e24f78","system_id":"levelo_inurba_marseille","lat":43.29257,"lon":5.38449,"is_reserved":false,"is_disabled":false,"rental_uris":{"android":"levelo://app?vid=d24dc091-49b4-4297-b627-1765e1e24f78","ios":"levelo://app?vid=d24dc091-49b4-4297-b627-1765e1e24f78"},"vehicle_type_id":"4","last_reported":1738321630,"current_range_meters":17600,"station_id":"ce4bh692rcd13ifvqea0","pricing_plan_id":"cebpf4jnsgd1na2vs0mg"},{"bike_id":"fbb97694-117f-4f7a-83d1-bf70ceb17b6a","system_id":"levelo_inurba_marseille","lat":43.29269,"lon":5.38456,"is_reserved":false,"is_disabled":false,"rental_uris":{"android":"levelo://app?vid=fbb97694-117f-4f7a-83d1-bf70ceb17b6a","ios":"levelo://app?vid=fbb97694-117f-4f7a-83d1-bf70ceb17b6a"},"vehicle_type_id":"4","last_reported":1738321630,"current_range_meters":38000,"station_id":"ce4bh692rcd13ifvqea0","pricing_plan_id":"cebpf4jnsgd1na2vs0mg"},{"bike_id":"ddd5fa0f-cd6d-4a76-90ca-4879c17a21b9","system_id":"levelo_inurba_marseille","lat":43.295987,"lon":5.38102,"is_reserved":false,"is_disabled":false,"rental_uris":{"android":"levelo://app?vid=ddd5fa0f-cd6d-4a76-90ca-4879c17a21b9","ios":"levelo://app?vid=ddd5fa0f-cd6d-4a76-90ca-4879c17a21b9"},"vehicle_type_id":"4","last_reported":1738321630,"current_range_meters":29600,"station_id":"ce4bgl12rcd13ifvqbo0","pricing_plan_id":"cebpf4jnsgd1na2vs0mg"},{"bike_id":"7247902a-635d-4f06-9cf7-f11e089c2d38","system_id":"levelo_inurba_marseille","lat":43.26939,"lon":5.40278,"is_reserved":false,"is_disabled":false,"rental_uris":{"android":"levelo://app?vid=7247902a-635d-4f06-9cf7-f11e089c2d38","ios":"levelo://app?vid=7247902a-635d-4f06-9cf7-f11e089c2d38"},"vehicle_type_id":"4","last_reported":1738321630,"current_range_meters":37600,"station_id":"cjm6bp8fraef2m0cb0m0","pricing_plan_id":"cebpf4jnsgd1na2vs0mg"},{"bike_id":"78e1bc18-d7b0-4aef-8fa5-842bfface35a","system_id":"levelo_inurba_marseille","lat":43.26685,"lon":5.38268,"is_reserved":false,"is_disabled":false,"rental_uris":{"android":"levelo://app?vid=78e1bc18-d7b0-4aef-8fa5-842bfface35a","ios":"levelo://app?vid=78e1bc18-d7b0-4aef-8fa5-842bfface35a"},"vehicle_type_id":"4","last_reported":1738321630,"current_range_meters":39200,"station_id":"ce4bhg92rcd13ifvqf90","pricing_plan_id":"cebpf4jnsgd1na2vs0mg"},{"bike_id":"67bc6512-e550-4b02-a35f-fa00a80893a2","system_id":"levelo_inurba_marseille","lat":43.309391,"lon":5.372868,"is_reserved":false,"is_disabled":false,"rental_uris":{"android":"levelo://app?vid=67bc6512-e550-4b02-a35f-fa00a80893a2","ios":"levelo://app?vid=67bc6512-e550-4b02-a35f-fa00a80893a2"},"vehicle_type_id":"4","last_reported":1738321630,"current_range_meters":30800,"station_id":"","pricing_plan_id":"cebpf4jnsgd1na2vs0mg"},{"bike_id":"90394fde-9bd5-4f98-b24e-2ccaeea0ffdc","system_id":"levelo_inurba_marseille","lat":43.27815,"lon":5.40716,"is_reserved":false,"is_disabled":false,"rental_uris":{"android":"levelo://app?vid=90394fde-9bd5-4f98-b24e-2ccaeea0ffdc","ios":"levelo://app?vid=90394fde-9bd5-4f98-b24e-2ccaeea0ffdc"},"vehicle_type_id":"4","last_reported":1738321630,"current_range_meters":26800,"station_id":"ce4bhnh2rcd13ifvqgtg","pricing_plan_id":"cebpf4jnsgd1na2vs0mg"},{"bike_id":"32802d31-82e5-49aa-928e-45336ddb5e58","system_id":"levelo_inurba_marseille","lat":43.25009,"lon":5.38927,"is_reserved":false,"is_disabled":false,"rental_uris":{"android":"levelo://app?vid=32802d31-82e5-49aa-928e-45336ddb5e58","ios":"levelo://app?vid=32802d31-82e5-49aa-928e-45336ddb5e58"},"vehicle_type_id":"4","last_reported":1738321630,"current_range_meters":39200,"station_id":"ce4bhgp2rcd13ifvqfd0","pricing_plan_id":"cebpf4jnsgd1na2vs0mg"},{"bike_id":"d06240a3-8895-42e8-9212-5c068d44e9d2","system_id":"levelo_inurba_marseille","lat":43.2866,"lon":5.35082,"is_reserved":false,"is_disabled":false,"rental_uris":{"android":"levelo://app?vid=d06240a3-8895-42e8-9212-5c068d44e9d2","ios":"levelo://app?vid=d06240a3-8895-42e8-9212-5c068d44e9d2"},"vehicle_type_id":"4","last_reported":1738321630,"current_range_meters":26800,"station_id":"ce4bhch2rcd13ifvqeug","pricing_plan_id":"cebpf4jnsgd1na2vs0mg"},{"bike_id":"a730ad96-1643-4b28-8bdb-7f33f046a999","system_id":"levelo_inurba_marseille","lat":43.30173,"lon":5.37408,"is_reserved":false,"is_disabled":false,"rental_uris":{"android":"levelo://app?vid=a730ad96-1643-4b28-8bdb-7f33f046a999","ios":"levelo://app?vid=a730ad96-1643-4b28-8bdb-7f33f046a999"},"vehicle_type_id":"4","last_reported":1738321630,"current_range_meters":39200,"station_id":"ce4bgs92rcd13ifvqcc0","pricing_plan_id":"cebpf4jnsgd1na2vs0mg"},{"bike_id":"a7e1bb12-c60b-445a-9547-4b41c03d5f68","system_id":"levelo_inurba_marseille","lat":43.28158,"lon":5.42657,"is_reserved":false,"is_disabled":true,"rental_uris":{"android":"levelo://app?vid=a7e1bb12-c60b-445a-9547-4b41c03d5f68","ios":"levelo://app?vid=a7e1bb12-c60b-445a-9547-4b41c03d5f68"},"vehicle_type_id":"4","last_reported":1738321630,"current_range_meters":0,"station_id":"ce4bhnh2rcd13ifvqgug","pricing_plan_id":"cebpf4jnsgd1na2vs0mg"},{"bike_id":"5a255c87-4fb3-4d73-ad28-e1c35a0e619e","system_id":"levelo_inurba_marseille","lat":43.28997,"lon":5.35612,"is_reserved":false,"is_disabled":false,"rental_uris":{"android":"levelo://app?vid=5a255c87-4fb3-4d73-ad28-e1c35a0e619e","ios":"levelo://app?vid=5a255c87-4fb3-4d73-ad28-e1c35a0e619e"},"vehicle_type_id":"4","last_reported":1738321630,"current_range_meters":39200,"station_id":"ce4bhb92rcd13ifvqen0","pricing_plan_id":"cebpf4jnsgd1na2vs0mg"},{"bike_id":"0d0eefef-63b5-4557-addb-cac3f528bd64","system_id":"levelo_inurba_marseille","lat":43.31348,"lon":5.367268,"is_reserved":false,"is_disabled":false,"rental_uris":{"android":"levelo://app?vid=0d0eefef-63b5-4557-addb-cac3f528bd64","ios":"levelo://app?vid=0d0eefef-63b5-4557-addb-cac3f528bd64"},"vehicle_type_id":"4","last_reported":1738321630,"current_range_meters":22800,"station_id":"ce4bgr92rcd13ifvqc6g","pricing_plan_id":"cebpf4jnsgd1na2vs0mg"},{"bike_id":"a36de8bd-2e3e-4fb2-8780-295adcb078f0","system_id":"levelo_inurba_marseille","lat":43.26567,"lon":5.37283,"is_reserved":false,"is_disabled":false,"rental_uris":{"android":"levelo://app?vid=a36de8bd-2e3e-4fb2-8780-295adcb078f0","ios":"levelo://app?vid=a36de8bd-2e3e-4fb2-8780-295adcb078f0"},"vehicle_type_id":"4","last_reported":1738321630,"current_range_meters":33200,"station_id":"ce4bhg12rcd13ifvqf70","pricing_plan_id":"cebpf4jnsgd1na2vs0mg"},{"bike_id":"9838cc78-2b53-49d3-ae13-82df62c4fd64","system_id":"levelo_inurba_marseille","lat":43.28412,"lon":5.40934,"is_reserved":false,"is_disabled":true,"rental_uris":{"android":"levelo://app?vid=9838cc78-2b53-49d3-ae13-82df62c4fd64","ios":"levelo://app?vid=9838cc78-2b53-49d3-ae13-82df62c4fd64"},"vehicle_type_id":"4","last_reported":1738321630,"current_range_meters":0,"station_id":"","pricing_plan_id":"cebpf4jnsgd1na2vs0mg"},{"bike_id":"5ce6b42a-5d43-4d16-b34c-0410affa1292","system_id":"levelo_inurba_marseille","lat":43.30153,"lon":5.37429,"is_reserved":false,"is_disabled":false,"rental_uris":{"android":"levelo://app?vid=5ce6b42a-5d43-4d16-b34c-0410affa1292","ios":"levelo://app?vid=5ce6b42a-5d43-4d16-b34c-0410affa1292"},"vehicle_type_id":"4","last_reported":1738321630,"current_range_meters":34800,"station_id":"ce4bgs92rcd13ifvqcc0","pricing_plan_id":"cebpf4jnsgd1na2vs0mg"},{"bike_id":"a6b336c6-34d6-4b26-bccf-abefa3771ff1","system_id":"levelo_inurba_marseille","lat":43.2316,"lon":5.43747,"is_reserved":false,"is_disabled":false,"rental_uris":{"android":"levelo://app?vid=a6b336c6-34d6-4b26-bccf-abefa3771ff1","ios":"levelo://app?vid=a6b336c6-34d6-4b26-bccf-abefa3771ff1"},"vehicle_type_id":"4","last_reported":1738321630,"current_range_meters":38000,"station_id":"ce4bhmp2rcd13ifvqgog","pricing_plan_id":"cebpf4jnsgd1na2vs0mg"},{"bike_id":"9f6c79b2-892b-47dd-b852-741b9f20e95f","system_id":"levelo_inurba_marseille","lat":43.25071,"lon":5.3953,"is_reserved":false,"is_disabled":false,"rental_uris":{"android":"levelo://app?vid=9f6c79b2-892b-47dd-b852-741b9f20e95f","ios":"levelo://app?vid=9f6c79b2-892b-47dd-b852-741b9f20e95f"},"vehicle_type_id":"4","last_reported":1738321630,"current_range_meters":39200,"station_id":"ce4bhm12rcd13ifvqgkg","pricing_plan_id":"cebpf4jnsgd1na2vs0mg"},{"bike_id":"515644c8-15f1-4b1d-bf30-f2af731b28d7","system_id":"levelo_inurba_marseille","lat":43.2956,"lon":5.42282,"is_reserved":false,"is_disabled":false,"rental_uris":{"android":"levelo://app?vid=515644c8-15f1-4b1d-bf30-f2af731b28d7","ios":"levelo://app?vid=515644c8-15f1-4b1d-bf30-f2af731b28d7"},"vehicle_type_id":"4","last_reported":1738321630,"current_range_meters":38800,"station_id":"ce4bhph2rcd13ifvqhdg","pricing_plan_id":"cebpf4jnsgd1na2vs0mg"},{"bike_id":"c655a1c9-006c-45e2-aaed-72c55a308aea","system_id":"levelo_inurba_marseille","lat":43.27512,"lon":5.42471,"is_reserved":false,"is_disabled":false,"rental_uris":{"android":"levelo://app?vid=c655a1c9-006c-45e2-aaed-72c55a308aea","ios":"levelo://app?vid=c655a1c9-006c-45e2-aaed-72c55a308aea"},"vehicle_type_id":"4","last_reported":1738321630,"current_range_meters":26800,"station_id":"ce4bhn92rcd13ifvqgrg","pricing_plan_id":"cebpf4jnsgd1na2vs0mg"},{"bike_id":"3d3683d0-6fa2-4625-8b79-882bbb185c30","system_id":"levelo_inurba_marseille","lat":43.3229,"lon":5.38292,"is_reserved":false,"is_disabled":false,"rental_uris":{"android":"levelo://app?vid=3d3683d0-6fa2-4625-8b79-882bbb185c30","ios":"levelo://app?vid=3d3683d0-6fa2-4625-8b79-882bbb185c30"},"vehicle_type_id":"4","last_reported":1738321630,"current_range_meters":28000,"station_id":"ce4bhr12rcd13ifvqhqg","pricing_plan_id":"cebpf4jnsgd1na2vs0mg"},{"bike_id":"ad81921c-60b2-4219-864c-95e11d18e554","system_id":"levelo_inurba_marseille","lat":43.28607,"lon":5.37069,"is_reserved":false,"is_disabled":false,"rental_uris":{"android":"levelo://app?vid=ad81921c-60b2-4219-864c-95e11d18e554","ios":"levelo://app?vid=ad81921c-60b2-4219-864c-95e11d18e554"},"vehicle_type_id":"4","last_reported":1738321630,"current_range_meters":32400,"station_id":"ce4bht12rcd13ifvqi60","pricing_plan_id":"cebpf4jnsgd1na2vs0mg"},{"bike_id":"ad1098ba-277c-480c-a0e7-8081658bd46f","system_id":"levelo_inurba_marseille","lat":43.33604,"lon":5.40975,"is_reserved":false,"is_disabled":false,"rental_uris":{"android":"levelo://app?vid=ad1098ba-277c-480c-a0e7-8081658bd46f","ios":"levelo://app?vid=ad1098ba-277c-480c-a0e7-8081658bd46f"},"vehicle_type_id":"4","last_reported":1738321630,"current_range_meters":38400,"station_id":"ce4bhqh2rcd13ifvqhmg","pricing_plan_id":"cebpf4jnsgd1na2vs0mg"},{"bike_id":"94773afe-a938-40e3-8dfd-df42f2d79573","system_id":"levelo_inurba_marseille","lat":43.29703,"lon":5.36609,"is_reserved":false,"is_disabled":false,"rental_uris":{"android":"levelo://app?vid=94773afe-a938-40e3-8dfd-df42f2d79573","ios":"levelo://app?vid=94773afe-a938-40e3-8dfd-df42f2d79573"},"vehicle_type_id":"4","last_reported":1738321630,"current_range_meters":9200,"station_id":"ce4bgn12rcd13ifvqbt0","pricing_plan_id":"cebpf4jnsgd1na2vs0mg"},{"bike_id":"6e6e45f2-e416-4f48-9ebc-6a73a2332ac9","system_id":"levelo_inurba_marseille","lat":43.29537,"lon":5.39039,"is_reserved":false,"is_disabled":false,"rental_uris":{"android":"levelo://app?vid=6e6e45f2-e416-4f48-9ebc-6a73a2332ac9","ios":"levelo://app?vid=6e6e45f2-e416-4f48-9ebc-6a73a2332ac9"},"vehicle_type_id":"4","last_reported":1738321630,"current_range_meters":38800,"station_id":"ce4bh3p2rcd13ifvqdp0","pricing_plan_id":"cebpf4jnsgd1na2vs0mg"},{"bike_id":"81cbfe48-6e1a-420c-8b24-7c4f1fab9886","system_id":"levelo_inurba_marseille","lat":43.27196,"lon":5.40988,"is_reserved":false,"is_disabled":false,"rental_uris":{"android":"levelo://app?vid=81cbfe48-6e1a-420c-8b24-7c4f1fab9886","ios":"levelo://app?vid=81cbfe48-6e1a-420c-8b24-7c4f1fab9886"},"vehicle_type_id":"4","last_reported":1738321630,"current_range_meters":35600,"station_id":"ce4bhl12rcd13ifvqgf0","pricing_plan_id":"cebpf4jnsgd1na2vs0mg"},{"bike_id":"d979d8d2-ec65-47af-9229-e4270aab279a","system_id":"levelo_inurba_marseille","lat":43.230631,"lon":5.35497,"is_reserved":false,"is_disabled":false,"rental_uris":{"android":"levelo://app?vid=d979d8d2-ec65-47af-9229-e4270aab279a","ios":"levelo://app?vid=d979d8d2-ec65-47af-9229-e4270aab279a"},"vehicle_type_id":"4","last_reported":1738321630,"current_range_meters":9600,"station_id":"cpo3342slgdg3j2ifvpg","pricing_plan_id":"cebpf4jnsgd1na2vs0mg"},{"bike_id":"e88e1bee-6fcc-4c27-a321-411b1365e9ac","system_id":"levelo_inurba_marseille","lat":43.2797,"lon":5.3876,"is_reserved":false,"is_disabled":false,"rental_uris":{"android":"levelo://app?vid=e88e1bee-6fcc-4c27-a321-411b1365e9ac","ios":"levelo://app?vid=e88e1bee-6fcc-4c27-a321-411b1365e9ac"},"vehicle_type_id":"4","last_reported":1738321630,"current_range_meters":20800,"station_id":"ce4bhg12rcd13ifvqf80","pricing_plan_id":"cebpf4jnsgd1na2vs0mg"},{"bike_id":"f10d9b40-8520-41ee-b039-cd6e7d066065","system_id":"levelo_inurba_marseille","lat":43.26233,"lon":5.37475,"is_reserved":false,"is_disabled":false,"rental_uris":{"android":"levelo://app?vid=f10d9b40-8520-41ee-b039-cd6e7d066065","ios":"levelo://app?vid=f10d9b40-8520-41ee-b039-cd6e7d066065"},"vehicle_type_id":"4","last_reported":1738321630,"current_range_meters":33600,"station_id":"ce4bhgp2rcd13ifvqfc0","pricing_plan_id":"cebpf4jnsgd1na2vs0mg"},{"bike_id":"7dacd3f8-aad8-4674-bea1-60dcb6b675dc","system_id":"levelo_inurba_marseille","lat":43.29841,"lon":5.36277,"is_reserved":false,"is_disabled":false,"rental_uris":{"android":"levelo://app?vid=7dacd3f8-aad8-4674-bea1-60dcb6b675dc","ios":"levelo://app?vid=7dacd3f8-aad8-4674-bea1-60dcb6b675dc"},"vehicle_type_id":"4","last_reported":1738321630,"current_range_meters":38000,"station_id":"ce4bgpp2rcd13ifvqc3g","pricing_plan_id":"cebpf4jnsgd1na2vs0mg"},{"bike_id":"8f982301-5907-46b6-b1e8-1b8abf5c682a","system_id":"levelo_inurba_marseille","lat":43.262,"lon":5.37463,"is_reserved":false,"is_disabled":false,"rental_uris":{"android":"levelo://app?vid=8f982301-5907-46b6-b1e8-1b8abf5c682a","ios":"levelo://app?vid=8f982301-5907-46b6-b1e8-1b8abf5c682a"},"vehicle_type_id":"4","last_reported":1738321630,"current_range_meters":28800,"station_id":"ce4bhgp2rcd13ifvqfc0","pricing_plan_id":"cebpf4jnsgd1na2vs0mg"},{"bike_id":"efe7056c-0b9c-4a4c-83d6-452434e2f890","system_id":"levelo_inurba_marseille","lat":43.26932,"lon":5.38927,"is_reserved":false,"is_disabled":false,"rental_uris":{"android":"levelo://app?vid=efe7056c-0b9c-4a4c-83d6-452434e2f890","ios":"levelo://app?vid=efe7056c-0b9c-4a4c-83d6-452434e2f890"},"vehicle_type_id":"4","last_reported":1738321630,"current_range_meters":24000,"station_id":"ce4bhhh2rcd13ifvqfl0","pricing_plan_id":"cebpf4jnsgd1na2vs0mg"},{"bike_id":"9d3eff9f-0423-4b47-b820-fbe4fc45104a","system_id":"levelo_inurba_marseille","lat":43.30297,"lon":5.37709,"is_reserved":false,"is_disabled":false,"rental_uris":{"android":"levelo://app?vid=9d3eff9f-0423-4b47-b820-fbe4fc45104a","ios":"levelo://app?vid=9d3eff9f-0423-4b47-b820-fbe4fc45104a"},"vehicle_type_id":"4","last_reported":1738321630,"current_range_meters":32800,"station_id":"ce4bguh2rcd13ifvqcj0","pricing_plan_id":"cebpf4jnsgd1na2vs0mg"},{"bike_id":"7d6260ec-6d8c-4d5b-8950-1a493871014c","system_id":"levelo_inurba_marseille","lat":43.29904,"lon":5.43682,"is_reserved":false,"is_disabled":false,"rental_uris":{"android":"levelo://app?vid=7d6260ec-6d8c-4d5b-8950-1a493871014c","ios":"levelo://app?vid=7d6260ec-6d8c-4d5b-8950-1a493871014c"},"vehicle_type_id":"4","last_reported":1738321630,"current_range_meters":30400,"station_id":"ce4bhpp2rcd13ifvqhfg","pricing_plan_id":"cebpf4jnsgd1na2vs0mg"},{"bike_id":"1b91759c-57a8-4292-83bf-b6dd4cd08d36","system_id":"levelo_inurba_marseille","lat":43.2723,"lon":5.39221,"is_reserved":false,"is_disabled":false,"rental_uris":{"android":"levelo://app?vid=1b91759c-57a8-4292-83bf-b6dd4cd08d36","ios":"levelo://app?vid=1b91759c-57a8-4292-83bf-b6dd4cd08d36"},"vehicle_type_id":"4","last_reported":1738321630,"current_range_meters":38400,"station_id":"ce4bhhp2rcd13ifvqfm0","pricing_plan_id":"cebpf4jnsgd1na2vs0mg"},{"bike_id":"1b6fd190-21fa-4758-93db-00b7057d89a9","system_id":"levelo_inurba_marseille","lat":43.25733,"lon":5.41114,"is_reserved":false,"is_disabled":false,"rental_uris":{"android":"levelo://app?vid=1b6fd190-21fa-4758-93db-00b7057d89a9","ios":"levelo://app?vid=1b6fd190-21fa-4758-93db-00b7057d89a9"},"vehicle_type_id":"4","last_reported":1738321630,"current_range_meters":35200,"station_id":"ce4bhkp2rcd13ifvqgd0","pricing_plan_id":"cebpf4jnsgd1na2vs0mg"},{"bike_id":"2b23f237-33fe-4b62-96f9-57bc3344dc1b","system_id":"levelo_inurba_marseille","lat":43.30297,"lon":5.36897,"is_reserved":false,"is_disabled":false,"rental_uris":{"android":"levelo://app?vid=2b23f237-33fe-4b62-96f9-57bc3344dc1b","ios":"levelo://app?vid=2b23f237-33fe-4b62-96f9-57bc3344dc1b"},"vehicle_type_id":"4","last_reported":1738321630,"current_range_meters":10800,"station_id":"ce4bgqh2rcd13ifvqc5g","pricing_plan_id":"cebpf4jnsgd1na2vs0mg"},{"bike_id":"e0f67c8d-835e-4ea7-ad1d-ad5c926e53cb","system_id":"levelo_inurba_marseille","lat":43.29785,"lon":5.38104,"is_reserved":false,"is_disabled":false,"rental_uris":{"android":"levelo://app?vid=e0f67c8d-835e-4ea7-ad1d-ad5c926e53cb","ios":"levelo://app?vid=e0f67c8d-835e-4ea7-ad1d-ad5c926e53cb"},"vehicle_type_id":"4","last_reported":1738321630,"current_range_meters":28800,"station_id":"ce4bgip2rcd13ifvqbb0","pricing_plan_id":"cebpf4jnsgd1na2vs0mg"},{"bike_id":"f146f9df-aaf6-4155-b1e2-b24e483edca4","system_id":"levelo_inurba_marseille","lat":43.23963,"lon":5.36626,"is_reserved":false,"is_disabled":false,"rental_uris":{"android":"levelo://app?vid=f146f9df-aaf6-4155-b1e2-b24e483edca4","ios":"levelo://app?vid=f146f9df-aaf6-4155-b1e2-b24e483edca4"},"vehicle_type_id":"4","last_reported":1738321630,"current_range_meters":13600,"station_id":"ce4bhi12rcd13ifvqfp0","pricing_plan_id":"cebpf4jnsgd1na2vs0mg"},{"bike_id":"d8b1c3f9-ff6e-4179-8423-4ba0d2a2af0e","system_id":"levelo_inurba_marseille","lat":43.33724,"lon":5.39178,"is_reserved":false,"is_disabled":false,"rental_uris":{"android":"levelo://app?vid=d8b1c3f9-ff6e-4179-8423-4ba0d2a2af0e","ios":"levelo://app?vid=d8b1c3f9-ff6e-4179-8423-4ba0d2a2af0e"},"vehicle_type_id":"4","last_reported":1738321630,"current_range_meters":39200,"station_id":"ce4bhr92rcd13ifvqhsg","pricing_plan_id":"cebpf4jnsgd1na2vs0mg"},{"bike_id":"cfd4e234-2ace-40be-a744-86fa4e0924cb","system_id":"levelo_inurba_marseille","lat":43.29098,"lon":5.38134,"is_reserved":false,"is_disabled":false,"rental_uris":{"android":"levelo://app?vid=cfd4e234-2ace-40be-a744-86fa4e0924cb","ios":"levelo://app?vid=cfd4e234-2ace-40be-a744-86fa4e0924cb"},"vehicle_type_id":"4","last_reported":1738321630,"current_range_meters":26000,"station_id":"ce4bh512rcd13ifvqe2g","pricing_plan_id":"cebpf4jnsgd1na2vs0mg"},{"bike_id":"cd460659-2f7c-437c-a064-e071769e3883","system_id":"levelo_inurba_marseille","lat":43.31356,"lon":5.36752,"is_reserved":false,"is_disabled":false,"rental_uris":{"android":"levelo://app?vid=cd460659-2f7c-437c-a064-e071769e3883","ios":"levelo://app?vid=cd460659-2f7c-437c-a064-e071769e3883"},"vehicle_type_id":"4","last_reported":1738321630,"current_range_meters":36800,"station_id":"ce4bgr92rcd13ifvqc6g","pricing_plan_id":"cebpf4jnsgd1na2vs0mg"},{"bike_id":"165e3b0d-7743-4294-bc7c-13df3cfe9383","system_id":"levelo_inurba_marseille","lat":43.272,"lon":5.39213,"is_reserved":false,"is_disabled":true,"rental_uris":{"android":"levelo://app?vid=165e3b0d-7743-4294-bc7c-13df3cfe9383","ios":"levelo://app?vid=165e3b0d-7743-4294-bc7c-13df3cfe9383"},"vehicle_type_id":"4","last_reported":1738321630,"current_range_meters":37600,"station_id":"ce4bhhp2rcd13ifvqfm0","pricing_plan_id":"cebpf4jnsgd1na2vs0mg"},{"bike_id":"37a316fb-b3fd-47c4-b337-ae3ed2613770","system_id":"levelo_inurba_marseille","lat":43.25871,"lon":5.39934,"is_reserved":false,"is_disabled":false,"rental_uris":{"android":"levelo://app?vid=37a316fb-b3fd-47c4-b337-ae3ed2613770","ios":"levelo://app?vid=37a316fb-b3fd-47c4-b337-ae3ed2613770"},"vehicle_type_id":"4","last_reported":1738321630,"current_range_meters":38800,"station_id":"ce4bhl92rcd13ifvqghg","pricing_plan_id":"cebpf4jnsgd1na2vs0mg"},{"bike_id":"88d1113a-f926-41f2-80cb-f29b31142746","system_id":"levelo_inurba_marseille","lat":43.29307,"lon":5.37446,"is_reserved":false,"is_disabled":false,"rental_uris":{"android":"levelo://app?vid=88d1113a-f926-41f2-80cb-f29b31142746","ios":"levelo://app?vid=88d1113a-f926-41f2-80cb-f29b31142746"},"vehicle_type_id":"4","last_reported":1738321630,"current_range_meters":31200,"station_id":"ce4bgi12rcd13ifvqb70","pricing_plan_id":"cebpf4jnsgd1na2vs0mg"},{"bike_id":"dc9dcf1f-0cb9-46a4-aa5d-26f3541c35fe","system_id":"levelo_inurba_marseille","lat":43.30247,"lon":5.40056,"is_reserved":false,"is_disabled":false,"rental_uris":{"android":"levelo://app?vid=dc9dcf1f-0cb9-46a4-aa5d-26f3541c35fe","ios":"levelo://app?vid=dc9dcf1f-0cb9-46a4-aa5d-26f3541c35fe"},"vehicle_type_id":"4","last_reported":1738321630,"current_range_meters":17600,"station_id":"ce4bgvh2rcd13ifvqcs0","pricing_plan_id":"cebpf4jnsgd1na2vs0mg"},{"bike_id":"36812aa8-fed0-4b81-a6c0-4dab3fd29e3f","system_id":"levelo_inurba_marseille","lat":43.29375,"lon":5.37857,"is_reserved":false,"is_disabled":false,"rental_uris":{"android":"levelo://app?vid=36812aa8-fed0-4b81-a6c0-4dab3fd29e3f","ios":"levelo://app?vid=36812aa8-fed0-4b81-a6c0-4dab3fd29e3f"},"vehicle_type_id":"4","last_reported":1738321630,"current_range_meters":38400,"station_id":"ce4bgjh2rcd13ifvqbf0","pricing_plan_id":"cebpf4jnsgd1na2vs0mg"},{"bike_id":"5fe1723e-b040-42b2-968c-0f91cc4a35fb","system_id":"levelo_inurba_marseille","lat":43.31249,"lon":5.36879,"is_reserved":false,"is_disabled":false,"rental_uris":{"android":"levelo://app?vid=5fe1723e-b040-42b2-968c-0f91cc4a35fb","ios":"levelo://app?vid=5fe1723e-b040-42b2-968c-0f91cc4a35fb"},"vehicle_type_id":"4","last_reported":1738321630,"current_range_meters":38800,"station_id":"ce4bgl92rcd13ifvqbq0","pricing_plan_id":"cebpf4jnsgd1na2vs0mg"},{"bike_id":"987d394c-f4fd-420b-a640-a44b12cfb998","system_id":"levelo_inurba_marseille","lat":43.27205,"lon":5.39196,"is_reserved":false,"is_disabled":false,"rental_uris":{"android":"levelo://app?vid=987d394c-f4fd-420b-a640-a44b12cfb998","ios":"levelo://app?vid=987d394c-f4fd-420b-a640-a44b12cfb998"},"vehicle_type_id":"4","last_reported":1738321630,"current_range_meters":39200,"station_id":"ce4bhhp2rcd13ifvqfm0","pricing_plan_id":"cebpf4jnsgd1na2vs0mg"},{"bike_id":"ee2f7bfb-3705-464e-83a9-c7d8ae9c26d7","system_id":"levelo_inurba_marseille","lat":43.30296,"lon":5.36902,"is_reserved":false,"is_disabled":false,"rental_uris":{"android":"levelo://app?vid=ee2f7bfb-3705-464e-83a9-c7d8ae9c26d7","ios":"levelo://app?vid=ee2f7bfb-3705-464e-83a9-c7d8ae9c26d7"},"vehicle_type_id":"4","last_reported":1738321630,"current_range_meters":19600,"station_id":"ce4bgqh2rcd13ifvqc5g","pricing_plan_id":"cebpf4jnsgd1na2vs0mg"},{"bike_id":"2fabbbb3-c19e-4421-9987-c2175eb0d5d5","system_id":"levelo_inurba_marseille","lat":43.29278,"lon":5.36844,"is_reserved":false,"is_disabled":false,"rental_uris":{"android":"levelo://app?vid=2fabbbb3-c19e-4421-9987-c2175eb0d5d5","ios":"levelo://app?vid=2fabbbb3-c19e-4421-9987-c2175eb0d5d5"},"vehicle_type_id":"4","last_reported":1738321630,"current_range_meters":22800,"station_id":"ce4bhbp2rcd13ifvqesg","pricing_plan_id":"cebpf4jnsgd1na2vs0mg"},{"bike_id":"1dec9efd-4980-4fe7-9942-03afb846a5e9","system_id":"levelo_inurba_marseille","lat":43.25943,"lon":5.4093,"is_reserved":false,"is_disabled":false,"rental_uris":{"android":"levelo://app?vid=1dec9efd-4980-4fe7-9942-03afb846a5e9","ios":"levelo://app?vid=1dec9efd-4980-4fe7-9942-03afb846a5e9"},"vehicle_type_id":"4","last_reported":1738321630,"current_range_meters":9200,"station_id":"ce4bhm92rcd13ifvqglg","pricing_plan_id":"cebpf4jnsgd1na2vs0mg"},{"bike_id":"92da4d26-0347-4329-a990-2cee2c00956b","system_id":"levelo_inurba_marseille","lat":43.26684,"lon":5.38282,"is_reserved":false,"is_disabled":false,"rental_uris":{"android":"levelo://app?vid=92da4d26-0347-4329-a990-2cee2c00956b","ios":"levelo://app?vid=92da4d26-0347-4329-a990-2cee2c00956b"},"vehicle_type_id":"4","last_reported":1738321630,"current_range_meters":16000,"station_id":"ce4bhg92rcd13ifvqf90","pricing_plan_id":"cebpf4jnsgd1na2vs0mg"},{"bike_id":"d98678c3-7f26-4497-91c2-cba8237ee9ad","system_id":"levelo_inurba_marseille","lat":43.32547,"lon":5.41445,"is_reserved":false,"is_disabled":false,"rental_uris":{"android":"levelo://app?vid=d98678c3-7f26-4497-91c2-cba8237ee9ad","ios":"levelo://app?vid=d98678c3-7f26-4497-91c2-cba8237ee9ad"},"vehicle_type_id":"4","last_reported":1738321630,"current_range_meters":38800,"station_id":"ce4bhq12rcd13ifvqhhg","pricing_plan_id":"cebpf4jnsgd1na2vs0mg"},{"bike_id":"b326ab06-aa99-4ada-a5cd-f66550f3b28e","system_id":"levelo_inurba_marseille","lat":43.27072,"lon":5.42291,"is_reserved":false,"is_disabled":false,"rental_uris":{"android":"levelo://app?vid=b326ab06-aa99-4ada-a5cd-f66550f3b28e","ios":"levelo://app?vid=b326ab06-aa99-4ada-a5cd-f66550f3b28e"},"vehicle_type_id":"4","last_reported":1738321630,"current_range_meters":6800,"station_id":"ce4bhk92rcd13ifvqgb0","pricing_plan_id":"cebpf4jnsgd1na2vs0mg"},{"bike_id":"39fda13f-0f56-4d84-bd3a-f99078c8032f","system_id":"levelo_inurba_marseille","lat":43.2986,"lon":5.36309,"is_reserved":false,"is_disabled":true,"rental_uris":{"android":"levelo://app?vid=39fda13f-0f56-4d84-bd3a-f99078c8032f","ios":"levelo://app?vid=39fda13f-0f56-4d84-bd3a-f99078c8032f"},"vehicle_type_id":"4","last_reported":1738321630,"current_range_meters":38800,"station_id":"ce4bgpp2rcd13ifvqc3g","pricing_plan_id":"cebpf4jnsgd1na2vs0mg"},{"bike_id":"9fd2b53c-c176-4281-adad-9fc6e73930a3","system_id":"levelo_inurba_marseille","lat":43.24081,"lon":5.37756,"is_reserved":false,"is_disabled":false,"rental_uris":{"android":"levelo://app?vid=9fd2b53c-c176-4281-adad-9fc6e73930a3","ios":"levelo://app?vid=9fd2b53c-c176-4281-adad-9fc6e73930a3"},"vehicle_type_id":"4","last_reported":1738321630,"current_range_meters":38000,"station_id":"ce4bhnp2rcd13ifvqgvg","pricing_plan_id":"cebpf4jnsgd1na2vs0mg"},{"bike_id":"5419cc44-aa20-4356-a268-3d350eb2e261","system_id":"levelo_inurba_marseille","lat":43.26878,"lon":5.38621,"is_reserved":false,"is_disabled":false,"rental_uris":{"android":"levelo://app?vid=5419cc44-aa20-4356-a268-3d350eb2e261","ios":"levelo://app?vid=5419cc44-aa20-4356-a268-3d350eb2e261"},"vehicle_type_id":"4","last_reported":1738321630,"current_range_meters":27600,"station_id":"ce4bhh92rcd13ifvqfh0","pricing_plan_id":"cebpf4jnsgd1na2vs0mg"},{"bike_id":"5b14f240-fedb-46da-87e6-316138eaf05e","system_id":"levelo_inurba_marseille","lat":43.30277,"lon":5.37702,"is_reserved":false,"is_disabled":false,"rental_uris":{"android":"levelo://app?vid=5b14f240-fedb-46da-87e6-316138eaf05e","ios":"levelo://app?vid=5b14f240-fedb-46da-87e6-316138eaf05e"},"vehicle_type_id":"4","last_reported":1738321630,"current_range_meters":29600,"station_id":"ce4bguh2rcd13ifvqcj0","pricing_plan_id":"cebpf4jnsgd1na2vs0mg"},{"bike_id":"91f481b3-84ce-4cf7-944f-1b494608c070","system_id":"levelo_inurba_marseille","lat":43.26055,"lon":5.39398,"is_reserved":false,"is_disabled":false,"rental_uris":{"android":"levelo://app?vid=91f481b3-84ce-4cf7-944f-1b494608c070","ios":"levelo://app?vid=91f481b3-84ce-4cf7-944f-1b494608c070"},"vehicle_type_id":"4","last_reported":1738321630,"current_range_meters":38000,"station_id":"ce4bhh92rcd13ifvqfj0","pricing_plan_id":"cebpf4jnsgd1na2vs0mg"},{"bike_id":"64cc8768-bd97-4948-ab7a-b158c90df482","system_id":"levelo_inurba_marseille","lat":43.31695,"lon":5.40479,"is_reserved":false,"is_disabled":true,"rental_uris":{"android":"levelo://app?vid=64cc8768-bd97-4948-ab7a-b158c90df482","ios":"levelo://app?vid=64cc8768-bd97-4948-ab7a-b158c90df482"},"vehicle_type_id":"4","last_reported":1738321630,"current_range_meters":1200,"station_id":"ce4bh012rcd13ifvqd00","pricing_plan_id":"cebpf4jnsgd1na2vs0mg"},{"bike_id":"b47546f7-90c4-40f8-abd8-4029ca471b85","system_id":"levelo_inurba_marseille","lat":43.27375,"lon":5.36256,"is_reserved":false,"is_disabled":false,"rental_uris":{"android":"levelo://app?vid=b47546f7-90c4-40f8-abd8-4029ca471b85","ios":"levelo://app?vid=b47546f7-90c4-40f8-abd8-4029ca471b85"},"vehicle_type_id":"4","last_reported":1738321630,"current_range_meters":38000,"station_id":"ce4bhbh2rcd13ifvqeo0","pricing_plan_id":"cebpf4jnsgd1na2vs0mg"},{"bike_id":"2125c853-fec5-4b7f-9cc1-7d4128611209","system_id":"levelo_inurba_marseille","lat":43.30484,"lon":5.37898,"is_reserved":false,"is_disabled":false,"rental_uris":{"android":"levelo://app?vid=2125c853-fec5-4b7f-9cc1-7d4128611209","ios":"levelo://app?vid=2125c853-fec5-4b7f-9cc1-7d4128611209"},"vehicle_type_id":"4","last_reported":1738321630,"current_range_meters":30000,"station_id":"ce4bgup2rcd13ifvqcn0","pricing_plan_id":"cebpf4jnsgd1na2vs0mg"},{"bike_id":"e76772ad-4d7b-4743-aa72-133535f3d9df","system_id":"levelo_inurba_marseille","lat":43.296239,"lon":5.377045,"is_reserved":false,"is_disabled":true,"rental_uris":{"android":"levelo://app?vid=e76772ad-4d7b-4743-aa72-133535f3d9df","ios":"levelo://app?vid=e76772ad-4d7b-4743-aa72-133535f3d9df"},"vehicle_type_id":"4","last_reported":1738321630,"current_range_meters":0,"station_id":"","pricing_plan_id":"cebpf4jnsgd1na2vs0mg"},{"bike_id":"bbd9f5df-03c1-4998-810f-64b402aa9000","system_id":"levelo_inurba_marseille","lat":43.27954,"lon":5.38681,"is_reserved":false,"is_disabled":false,"rental_uris":{"android":"levelo://app?vid=bbd9f5df-03c1-4998-810f-64b402aa9000","ios":"levelo://app?vid=bbd9f5df-03c1-4998-810f-64b402aa9000"},"vehicle_type_id":"4","last_reported":1738321630,"current_range_meters":35600,"station_id":"ce4bhg12rcd13ifvqf80","pricing_plan_id":"cebpf4jnsgd1na2vs0mg"},{"bike_id":"ab2c796a-c23b-4a3a-9534-777b873d6a05","system_id":"levelo_inurba_marseille","lat":43.24186,"lon":5.36395,"is_reserved":false,"is_disabled":false,"rental_uris":{"android":"levelo://app?vid=ab2c796a-c23b-4a3a-9534-777b873d6a05","ios":"levelo://app?vid=ab2c796a-c23b-4a3a-9534-777b873d6a05"},"vehicle_type_id":"4","last_reported":1738321630,"current_range_meters":36800,"station_id":"cpo36qri1sfpv3e86is0","pricing_plan_id":"cebpf4jnsgd1na2vs0mg"},{"bike_id":"ab4028d4-d1f1-4508-84a0-60dff9317f88","system_id":"levelo_inurba_marseille","lat":43.27379,"lon":5.36254,"is_reserved":false,"is_disabled":false,"rental_uris":{"android":"levelo://app?vid=ab4028d4-d1f1-4508-84a0-60dff9317f88","ios":"levelo://app?vid=ab4028d4-d1f1-4508-84a0-60dff9317f88"},"vehicle_type_id":"4","last_reported":1738321630,"current_range_meters":14000,"station_id":"ce4bhbh2rcd13ifvqeo0","pricing_plan_id":"cebpf4jnsgd1na2vs0mg"},{"bike_id":"85ca8d8a-081f-4d45-8c06-cff34a7646af","system_id":"levelo_inurba_marseille","lat":43.29275,"lon":5.38443,"is_reserved":false,"is_disabled":false,"rental_uris":{"android":"levelo://app?vid=85ca8d8a-081f-4d45-8c06-cff34a7646af","ios":"levelo://app?vid=85ca8d8a-081f-4d45-8c06-cff34a7646af"},"vehicle_type_id":"4","last_reported":1738321630,"current_range_meters":32000,"station_id":"ce4bh692rcd13ifvqea0","pricing_plan_id":"cebpf4jnsgd1na2vs0mg"},{"bike_id":"58feef8f-17b5-470d-8151-c7a13f0dbe24","system_id":"levelo_inurba_marseille","lat":43.28399,"lon":5.3751,"is_reserved":false,"is_disabled":true,"rental_uris":{"android":"levelo://app?vid=58feef8f-17b5-470d-8151-c7a13f0dbe24","ios":"levelo://app?vid=58feef8f-17b5-470d-8151-c7a13f0dbe24"},"vehicle_type_id":"4","last_reported":1738321630,"current_range_meters":1200,"station_id":"ce4bh412rcd13ifvqds0","pricing_plan_id":"cebpf4jnsgd1na2vs0mg"},{"bike_id":"4cf14daa-b36f-441e-8455-ea00d3f594b0","system_id":"levelo_inurba_marseille","lat":43.30083,"lon":5.39079,"is_reserved":false,"is_disabled":false,"rental_uris":{"android":"levelo://app?vid=4cf14daa-b36f-441e-8455-ea00d3f594b0","ios":"levelo://app?vid=4cf14daa-b36f-441e-8455-ea00d3f594b0"},"vehicle_type_id":"4","last_reported":1738321630,"current_range_meters":27600,"station_id":"ce4bh192rcd13ifvqdb0","pricing_plan_id":"cebpf4jnsgd1na2vs0mg"},{"bike_id":"8178c7cd-e4fb-427f-b81c-4c8471f4af55","system_id":"levelo_inurba_marseille","lat":43.24082,"lon":5.37797,"is_reserved":false,"is_disabled":false,"rental_uris":{"android":"levelo://app?vid=8178c7cd-e4fb-427f-b81c-4c8471f4af55","ios":"levelo://app?vid=8178c7cd-e4fb-427f-b81c-4c8471f4af55"},"vehicle_type_id":"4","last_reported":1738321630,"current_range_meters":19600,"station_id":"ce4bhnp2rcd13ifvqgvg","pricing_plan_id":"cebpf4jnsgd1na2vs0mg"},{"bike_id":"59c84c8c-f740-4013-8df2-50bb9ed0c76d","system_id":"levelo_inurba_marseille","lat":43.25091,"lon":5.39536,"is_reserved":false,"is_disabled":false,"rental_uris":{"android":"levelo://app?vid=59c84c8c-f740-4013-8df2-50bb9ed0c76d","ios":"levelo://app?vid=59c84c8c-f740-4013-8df2-50bb9ed0c76d"},"vehicle_type_id":"4","last_reported":1738321630,"current_range_meters":39200,"station_id":"ce4bhm12rcd13ifvqgkg","pricing_plan_id":"cebpf4jnsgd1na2vs0mg"},{"bike_id":"5b34bc81-2182-4b43-b041-f6cef8d1c98a","system_id":"levelo_inurba_marseille","lat":43.30166,"lon":5.37441,"is_reserved":false,"is_disabled":false,"rental_uris":{"android":"levelo://app?vid=5b34bc81-2182-4b43-b041-f6cef8d1c98a","ios":"levelo://app?vid=5b34bc81-2182-4b43-b041-f6cef8d1c98a"},"vehicle_type_id":"4","last_reported":1738321630,"current_range_meters":28800,"station_id":"ce4bgs92rcd13ifvqcc0","pricing_plan_id":"cebpf4jnsgd1na2vs0mg"},{"bike_id":"b3f9d40e-c6c3-4e70-a1cf-be32056d433c","system_id":"levelo_inurba_marseille","lat":43.24392,"lon":5.37056,"is_reserved":false,"is_disabled":false,"rental_uris":{"android":"levelo://app?vid=b3f9d40e-c6c3-4e70-a1cf-be32056d433c","ios":"levelo://app?vid=b3f9d40e-c6c3-4e70-a1cf-be32056d433c"},"vehicle_type_id":"4","last_reported":1738321630,"current_range_meters":32000,"station_id":"ce4bhhh2rcd13ifvqfk0","pricing_plan_id":"cebpf4jnsgd1na2vs0mg"},{"bike_id":"d9ed5303-640c-4034-8a17-1ad90548a427","system_id":"levelo_inurba_marseille","lat":43.25081,"lon":5.39528,"is_reserved":false,"is_disabled":false,"rental_uris":{"android":"levelo://app?vid=d9ed5303-640c-4034-8a17-1ad90548a427","ios":"levelo://app?vid=d9ed5303-640c-4034-8a17-1ad90548a427"},"vehicle_type_id":"4","last_reported":1738321630,"current_range_meters":39200,"station_id":"ce4bhm12rcd13ifvqgkg","pricing_plan_id":"cebpf4jnsgd1na2vs0mg"},{"bike_id":"fc2dee61-6a5e-41ce-a75c-e2029dcb39bc","system_id":"levelo_inurba_marseille","lat":43.265543,"lon":5.372949,"is_reserved":false,"is_disabled":false,"rental_uris":{"android":"levelo://app?vid=fc2dee61-6a5e-41ce-a75c-e2029dcb39bc","ios":"levelo://app?vid=fc2dee61-6a5e-41ce-a75c-e2029dcb39bc"},"vehicle_type_id":"4","last_reported":1738321630,"current_range_meters":14400,"station_id":"ce4bhg12rcd13ifvqf70","pricing_plan_id":"cebpf4jnsgd1na2vs0mg"},{"bike_id":"f099780e-5154-4312-b743-b1d2c1afb968","system_id":"levelo_inurba_marseille","lat":43.30898,"lon":5.37206,"is_reserved":false,"is_disabled":false,"rental_uris":{"android":"levelo://app?vid=f099780e-5154-4312-b743-b1d2c1afb968","ios":"levelo://app?vid=f099780e-5154-4312-b743-b1d2c1afb968"},"vehicle_type_id":"4","last_reported":1738321630,"current_range_meters":39200,"station_id":"ce4bguh2rcd13ifvqckg","pricing_plan_id":"cebpf4jnsgd1na2vs0mg"},{"bike_id":"986eaebb-e8f5-43d4-8464-2e81a57414e8","system_id":"levelo_inurba_marseille","lat":43.29354,"lon":5.37885,"is_reserved":false,"is_disabled":false,"rental_uris":{"android":"levelo://app?vid=986eaebb-e8f5-43d4-8464-2e81a57414e8","ios":"levelo://app?vid=986eaebb-e8f5-43d4-8464-2e81a57414e8"},"vehicle_type_id":"4","last_reported":1738321630,"current_range_meters":21600,"station_id":"ce4bgjh2rcd13ifvqbf0","pricing_plan_id":"cebpf4jnsgd1na2vs0mg"},{"bike_id":"5351cdff-5940-4065-9c0b-ea2e2be03067","system_id":"levelo_inurba_marseille","lat":43.27064,"lon":5.40259,"is_reserved":false,"is_disabled":false,"rental_uris":{"android":"levelo://app?vid=5351cdff-5940-4065-9c0b-ea2e2be03067","ios":"levelo://app?vid=5351cdff-5940-4065-9c0b-ea2e2be03067"},"vehicle_type_id":"4","last_reported":1738321630,"current_range_meters":10000,"station_id":"ce4bhk92rcd13ifvqgc0","pricing_plan_id":"cebpf4jnsgd1na2vs0mg"},{"bike_id":"e8e1f7c6-d773-4c38-bfcc-4a6d773355ce","system_id":"levelo_inurba_marseille","lat":43.22964,"lon":5.35377,"is_reserved":false,"is_disabled":false,"rental_uris":{"android":"levelo://app?vid=e8e1f7c6-d773-4c38-bfcc-4a6d773355ce","ios":"levelo://app?vid=e8e1f7c6-d773-4c38-bfcc-4a6d773355ce"},"vehicle_type_id":"4","last_reported":1738321630,"current_range_meters":39200,"station_id":"cpo3532slgdg3j2ikp40","pricing_plan_id":"cebpf4jnsgd1na2vs0mg"},{"bike_id":"57b7807f-dadf-4a68-98f3-8bb7398bbe27","system_id":"levelo_inurba_marseille","lat":43.26935,"lon":5.40251,"is_reserved":false,"is_disabled":false,"rental_uris":{"android":"levelo://app?vid=57b7807f-dadf-4a68-98f3-8bb7398bbe27","ios":"levelo://app?vid=57b7807f-dadf-4a68-98f3-8bb7398bbe27"},"vehicle_type_id":"4","last_reported":1738321630,"current_range_meters":23200,"station_id":"cjm6bp8fraef2m0cb0m0","pricing_plan_id":"cebpf4jnsgd1na2vs0mg"},{"bike_id":"9c577c7e-bb6a-4366-a029-5d396357d344","system_id":"levelo_inurba_marseille","lat":43.29582,"lon":5.36744,"is_reserved":false,"is_disabled":false,"rental_uris":{"android":"levelo://app?vid=9c577c7e-bb6a-4366-a029-5d396357d344","ios":"levelo://app?vid=9c577c7e-bb6a-4366-a029-5d396357d344"},"vehicle_type_id":"4","last_reported":1738321630,"current_range_meters":37600,"station_id":"ce4bgph2rcd13ifvqc2g","pricing_plan_id":"cebpf4jnsgd1na2vs0mg"},{"bike_id":"a8724ee6-b513-4f53-b4c5-2a4d573c4309","system_id":"levelo_inurba_marseille","lat":43.31382,"lon":5.36722,"is_reserved":false,"is_disabled":false,"rental_uris":{"android":"levelo://app?vid=a8724ee6-b513-4f53-b4c5-2a4d573c4309","ios":"levelo://app?vid=a8724ee6-b513-4f53-b4c5-2a4d573c4309"},"vehicle_type_id":"4","last_reported":1738321630,"current_range_meters":28400,"station_id":"ce4bgr92rcd13ifvqc6g","pricing_plan_id":"cebpf4jnsgd1na2vs0mg"},{"bike_id":"e3d8a223-fb6b-449d-8e45-ad3295748cda","system_id":"levelo_inurba_marseille","lat":43.29414,"lon":5.38212,"is_reserved":false,"is_disabled":false,"rental_uris":{"android":"levelo://app?vid=e3d8a223-fb6b-449d-8e45-ad3295748cda","ios":"levelo://app?vid=e3d8a223-fb6b-449d-8e45-ad3295748cda"},"vehicle_type_id":"4","last_reported":1738321630,"current_range_meters":36400,"station_id":"","pricing_plan_id":"cebpf4jnsgd1na2vs0mg"},{"bike_id":"41d24e1c-342f-4898-bdb3-4f96e6cb45e4","system_id":"levelo_inurba_marseille","lat":43.30602,"lon":5.39368,"is_reserved":false,"is_disabled":false,"rental_uris":{"android":"levelo://app?vid=41d24e1c-342f-4898-bdb3-4f96e6cb45e4","ios":"levelo://app?vid=41d24e1c-342f-4898-bdb3-4f96e6cb45e4"},"vehicle_type_id":"4","last_reported":1738321630,"current_range_meters":6800,"station_id":"ce4bh0p2rcd13ifvqd80","pricing_plan_id":"cebpf4jnsgd1na2vs0mg"},{"bike_id":"8c799a96-0659-4afc-8449-085a82b9d554","system_id":"levelo_inurba_marseille","lat":43.30254,"lon":5.40079,"is_reserved":false,"is_disabled":false,"rental_uris":{"android":"levelo://app?vid=8c799a96-0659-4afc-8449-085a82b9d554","ios":"levelo://app?vid=8c799a96-0659-4afc-8449-085a82b9d554"},"vehicle_type_id":"4","last_reported":1738321630,"current_range_meters":27200,"station_id":"ce4bgvh2rcd13ifvqcs0","pricing_plan_id":"cebpf4jnsgd1na2vs0mg"},{"bike_id":"373bfe74-d76a-4cb7-9e90-95f400400236","system_id":"levelo_inurba_marseille","lat":43.3176,"lon":5.39011,"is_reserved":false,"is_disabled":false,"rental_uris":{"android":"levelo://app?vid=373bfe74-d76a-4cb7-9e90-95f400400236","ios":"levelo://app?vid=373bfe74-d76a-4cb7-9e90-95f400400236"},"vehicle_type_id":"4","last_reported":1738321630,"current_range_meters":39200,"station_id":"ce4bhqp2rcd13ifvqhng","pricing_plan_id":"cebpf4jnsgd1na2vs0mg"},{"bike_id":"de1813f4-44ef-456f-9b4c-749914e29e87","system_id":"levelo_inurba_marseille","lat":43.29661,"lon":5.37294,"is_reserved":false,"is_disabled":false,"rental_uris":{"android":"levelo://app?vid=de1813f4-44ef-456f-9b4c-749914e29e87","ios":"levelo://app?vid=de1813f4-44ef-456f-9b4c-749914e29e87"},"vehicle_type_id":"4","last_reported":1738321630,"current_range_meters":39200,"station_id":"ce4bgk12rcd13ifvqbj0","pricing_plan_id":"cebpf4jnsgd1na2vs0mg"},{"bike_id":"60335d1b-4a92-46bd-8eca-dffb02768c78","system_id":"levelo_inurba_marseille","lat":43.2503,"lon":5.38938,"is_reserved":false,"is_disabled":false,"rental_uris":{"android":"levelo://app?vid=60335d1b-4a92-46bd-8eca-dffb02768c78","ios":"levelo://app?vid=60335d1b-4a92-46bd-8eca-dffb02768c78"},"vehicle_type_id":"4","last_reported":1738321630,"current_range_meters":16400,"station_id":"ce4bhgp2rcd13ifvqfd0","pricing_plan_id":"cebpf4jnsgd1na2vs0mg"},{"bike_id":"60911234-26e8-4f42-acbb-88b4c360ca2e","system_id":"levelo_inurba_marseille","lat":43.24997,"lon":5.38937,"is_reserved":false,"is_disabled":false,"rental_uris":{"android":"levelo://app?vid=60911234-26e8-4f42-acbb-88b4c360ca2e","ios":"levelo://app?vid=60911234-26e8-4f42-acbb-88b4c360ca2e"},"vehicle_type_id":"4","last_reported":1738321630,"current_range_meters":31200,"station_id":"ce4bhgp2rcd13ifvqfd0","pricing_plan_id":"cebpf4jnsgd1na2vs0mg"},{"bike_id":"c837f71d-2688-466a-b96d-e6d4865e5925","system_id":"levelo_inurba_marseille","lat":43.30535,"lon":5.36697,"is_reserved":false,"is_disabled":false,"rental_uris":{"android":"levelo://app?vid=c837f71d-2688-466a-b96d-e6d4865e5925","ios":"levelo://app?vid=c837f71d-2688-466a-b96d-e6d4865e5925"},"vehicle_type_id":"4","last_reported":1738321630,"current_range_meters":38800,"station_id":"ce4bgrp2rcd13ifvqc9g","pricing_plan_id":"cebpf4jnsgd1na2vs0mg"},{"bike_id":"070218cf-5f55-4a87-b307-d0bbb1caf6f4","system_id":"levelo_inurba_marseille","lat":43.23193,"lon":5.39988,"is_reserved":false,"is_disabled":false,"rental_uris":{"android":"levelo://app?vid=070218cf-5f55-4a87-b307-d0bbb1caf6f4","ios":"levelo://app?vid=070218cf-5f55-4a87-b307-d0bbb1caf6f4"},"vehicle_type_id":"4","last_reported":1738321630,"current_range_meters":38800,"station_id":"ce4bhn12rcd13ifvqgqg","pricing_plan_id":"cebpf4jnsgd1na2vs0mg"},{"bike_id":"c0dd6acb-e111-4830-b706-614809304a0b","system_id":"levelo_inurba_marseille","lat":43.27498,"lon":5.4245,"is_reserved":false,"is_disabled":false,"rental_uris":{"android":"levelo://app?vid=c0dd6acb-e111-4830-b706-614809304a0b","ios":"levelo://app?vid=c0dd6acb-e111-4830-b706-614809304a0b"},"vehicle_type_id":"4","last_reported":1738321630,"current_range_meters":20800,"station_id":"ce4bhn92rcd13ifvqgrg","pricing_plan_id":"cebpf4jnsgd1na2vs0mg"},{"bike_id":"c2b1dc29-a452-4f95-92b6-c46c1343a7f0","system_id":"levelo_inurba_marseille","lat":43.23147,"lon":5.43725,"is_reserved":false,"is_disabled":false,"rental_uris":{"android":"levelo://app?vid=c2b1dc29-a452-4f95-92b6-c46c1343a7f0","ios":"levelo://app?vid=c2b1dc29-a452-4f95-92b6-c46c1343a7f0"},"vehicle_type_id":"4","last_reported":1738321630,"current_range_meters":18000,"station_id":"ce4bhmp2rcd13ifvqgog","pricing_plan_id":"cebpf4jnsgd1na2vs0mg"},{"bike_id":"71f34f72-d3b7-46a5-9bd4-1fe057b3152f","system_id":"levelo_inurba_marseille","lat":43.22947,"lon":5.35382,"is_reserved":false,"is_disabled":false,"rental_uris":{"android":"levelo://app?vid=71f34f72-d3b7-46a5-9bd4-1fe057b3152f","ios":"levelo://app?vid=71f34f72-d3b7-46a5-9bd4-1fe057b3152f"},"vehicle_type_id":"4","last_reported":1738321630,"current_range_meters":39200,"station_id":"cpo3532slgdg3j2ikp40","pricing_plan_id":"cebpf4jnsgd1na2vs0mg"},{"bike_id":"90445bf2-7643-45b5-b4a4-c3dfe9771bc9","system_id":"levelo_inurba_marseille","lat":43.31365,"lon":5.36725,"is_reserved":false,"is_disabled":false,"rental_uris":{"android":"levelo://app?vid=90445bf2-7643-45b5-b4a4-c3dfe9771bc9","ios":"levelo://app?vid=90445bf2-7643-45b5-b4a4-c3dfe9771bc9"},"vehicle_type_id":"4","last_reported":1738321630,"current_range_meters":38800,"station_id":"ce4bgr92rcd13ifvqc6g","pricing_plan_id":"cebpf4jnsgd1na2vs0mg"},{"bike_id":"20029bdd-9f9c-4ff9-86e4-5ba6ed30f46a","system_id":"levelo_inurba_marseille","lat":43.23148,"lon":5.43705,"is_reserved":false,"is_disabled":true,"rental_uris":{"android":"levelo://app?vid=20029bdd-9f9c-4ff9-86e4-5ba6ed30f46a","ios":"levelo://app?vid=20029bdd-9f9c-4ff9-86e4-5ba6ed30f46a"},"vehicle_type_id":"4","last_reported":1738321630,"current_range_meters":0,"station_id":"ce4bhmp2rcd13ifvqgog","pricing_plan_id":"cebpf4jnsgd1na2vs0mg"},{"bike_id":"9a420f87-7d7e-4781-b326-9c09400ca210","system_id":"levelo_inurba_marseille","lat":43.2621,"lon":5.37442,"is_reserved":false,"is_disabled":false,"rental_uris":{"android":"levelo://app?vid=9a420f87-7d7e-4781-b326-9c09400ca210","ios":"levelo://app?vid=9a420f87-7d7e-4781-b326-9c09400ca210"},"vehicle_type_id":"4","last_reported":1738321630,"current_range_meters":39200,"station_id":"ce4bhgp2rcd13ifvqfc0","pricing_plan_id":"cebpf4jnsgd1na2vs0mg"},{"bike_id":"c687eddb-4178-4e1d-94a4-28c26fdd7204","system_id":"levelo_inurba_marseille","lat":43.30394,"lon":5.36513,"is_reserved":false,"is_disabled":false,"rental_uris":{"android":"levelo://app?vid=c687eddb-4178-4e1d-94a4-28c26fdd7204","ios":"levelo://app?vid=c687eddb-4178-4e1d-94a4-28c26fdd7204"},"vehicle_type_id":"4","last_reported":1738321630,"current_range_meters":32800,"station_id":"","pricing_plan_id":"cebpf4jnsgd1na2vs0mg"},{"bike_id":"c7b7d5dc-fcd4-4974-ac80-02e658adb2bb","system_id":"levelo_inurba_marseille","lat":43.30144,"lon":5.38093,"is_reserved":false,"is_disabled":false,"rental_uris":{"android":"levelo://app?vid=c7b7d5dc-fcd4-4974-ac80-02e658adb2bb","ios":"levelo://app?vid=c7b7d5dc-fcd4-4974-ac80-02e658adb2bb"},"vehicle_type_id":"4","last_reported":1738321630,"current_range_meters":38800,"station_id":"ce4bgjp2rcd13ifvqbh0","pricing_plan_id":"cebpf4jnsgd1na2vs0mg"},{"bike_id":"7a8503ce-2278-4768-90d1-b87e022c42c6","system_id":"levelo_inurba_marseille","lat":43.286151,"lon":5.351103,"is_reserved":false,"is_disabled":false,"rental_uris":{"android":"levelo://app?vid=7a8503ce-2278-4768-90d1-b87e022c42c6","ios":"levelo://app?vid=7a8503ce-2278-4768-90d1-b87e022c42c6"},"vehicle_type_id":"4","last_reported":1738321630,"current_range_meters":37600,"station_id":"ce4bhch2rcd13ifvqeug","pricing_plan_id":"cebpf4jnsgd1na2vs0mg"},{"bike_id":"77982fa2-73f6-4a85-bb7c-67126c76cf24","system_id":"levelo_inurba_marseille","lat":43.30166,"lon":5.38074,"is_reserved":false,"is_disabled":false,"rental_uris":{"android":"levelo://app?vid=77982fa2-73f6-4a85-bb7c-67126c76cf24","ios":"levelo://app?vid=77982fa2-73f6-4a85-bb7c-67126c76cf24"},"vehicle_type_id":"4","last_reported":1738321630,"current_range_meters":38800,"station_id":"ce4bgjp2rcd13ifvqbh0","pricing_plan_id":"cebpf4jnsgd1na2vs0mg"},{"bike_id":"46fdb6e5-fcb2-4c4b-ab56-c91307ece41d","system_id":"levelo_inurba_marseille","lat":43.28339,"lon":5.38109,"is_reserved":false,"is_disabled":false,"rental_uris":{"android":"levelo://app?vid=46fdb6e5-fcb2-4c4b-ab56-c91307ece41d","ios":"levelo://app?vid=46fdb6e5-fcb2-4c4b-ab56-c91307ece41d"},"vehicle_type_id":"4","last_reported":1738321630,"current_range_meters":38800,"station_id":"ce4bh412rcd13ifvqdr0","pricing_plan_id":"cebpf4jnsgd1na2vs0mg"},{"bike_id":"45fd4a2a-a5dc-4b7e-962f-4641aedb60dd","system_id":"levelo_inurba_marseille","lat":43.27982,"lon":5.41664,"is_reserved":false,"is_disabled":false,"rental_uris":{"android":"levelo://app?vid=45fd4a2a-a5dc-4b7e-962f-4641aedb60dd","ios":"levelo://app?vid=45fd4a2a-a5dc-4b7e-962f-4641aedb60dd"},"vehicle_type_id":"4","last_reported":1738321630,"current_range_meters":38400,"station_id":"ce4bho12rcd13ifvqh1g","pricing_plan_id":"cebpf4jnsgd1na2vs0mg"},{"bike_id":"bbd37f25-b511-4ba3-9ad8-9c3bb19bb776","system_id":"levelo_inurba_marseille","lat":43.30306,"lon":5.36892,"is_reserved":false,"is_disabled":false,"rental_uris":{"android":"levelo://app?vid=bbd37f25-b511-4ba3-9ad8-9c3bb19bb776","ios":"levelo://app?vid=bbd37f25-b511-4ba3-9ad8-9c3bb19bb776"},"vehicle_type_id":"4","last_reported":1738321630,"current_range_meters":18800,"station_id":"ce4bgqh2rcd13ifvqc5g","pricing_plan_id":"cebpf4jnsgd1na2vs0mg"},{"bike_id":"69cb58b1-6d38-4008-9cdd-8e9af3af6735","system_id":"levelo_inurba_marseille","lat":43.30432,"lon":5.39754,"is_reserved":false,"is_disabled":false,"rental_uris":{"android":"levelo://app?vid=69cb58b1-6d38-4008-9cdd-8e9af3af6735","ios":"levelo://app?vid=69cb58b1-6d38-4008-9cdd-8e9af3af6735"},"vehicle_type_id":"4","last_reported":1738321630,"current_range_meters":38000,"station_id":"ce4bh092rcd13ifvqd20","pricing_plan_id":"cebpf4jnsgd1na2vs0mg"},{"bike_id":"3388de07-63e7-4f0f-a28f-4753adf55e62","system_id":"levelo_inurba_marseille","lat":43.29593,"lon":5.36759,"is_reserved":false,"is_disabled":false,"rental_uris":{"android":"levelo://app?vid=3388de07-63e7-4f0f-a28f-4753adf55e62","ios":"levelo://app?vid=3388de07-63e7-4f0f-a28f-4753adf55e62"},"vehicle_type_id":"4","last_reported":1738321630,"current_range_meters":39200,"station_id":"ce4bgph2rcd13ifvqc2g","pricing_plan_id":"cebpf4jnsgd1na2vs0mg"},{"bike_id":"4d213e19-460b-4ffc-abf2-31a900d6c917","system_id":"levelo_inurba_marseille","lat":43.27674,"lon":5.36091,"is_reserved":false,"is_disabled":false,"rental_uris":{"android":"levelo://app?vid=4d213e19-460b-4ffc-abf2-31a900d6c917","ios":"levelo://app?vid=4d213e19-460b-4ffc-abf2-31a900d6c917"},"vehicle_type_id":"4","last_reported":1738321630,"current_range_meters":38000,"station_id":"","pricing_plan_id":"cebpf4jnsgd1na2vs0mg"},{"bike_id":"95aee25f-5c57-4ea4-ae9b-fd75ffb2acea","system_id":"levelo_inurba_marseille","lat":43.23191,"lon":5.39989,"is_reserved":false,"is_disabled":false,"rental_uris":{"android":"levelo://app?vid=95aee25f-5c57-4ea4-ae9b-fd75ffb2acea","ios":"levelo://app?vid=95aee25f-5c57-4ea4-ae9b-fd75ffb2acea"},"vehicle_type_id":"4","last_reported":1738321630,"current_range_meters":22400,"station_id":"ce4bhn12rcd13ifvqgqg","pricing_plan_id":"cebpf4jnsgd1na2vs0mg"},{"bike_id":"8c893236-4e50-4d74-9aae-eef51dda8b0f","system_id":"levelo_inurba_marseille","lat":43.28127,"lon":5.37909,"is_reserved":false,"is_disabled":false,"rental_uris":{"android":"levelo://app?vid=8c893236-4e50-4d74-9aae-eef51dda8b0f","ios":"levelo://app?vid=8c893236-4e50-4d74-9aae-eef51dda8b0f"},"vehicle_type_id":"4","last_reported":1738321630,"current_range_meters":32800,"station_id":"ce4bha12rcd13ifvqee0","pricing_plan_id":"cebpf4jnsgd1na2vs0mg"},{"bike_id":"528fe304-774b-4f5e-99b0-3a6df52f7bd5","system_id":"levelo_inurba_marseille","lat":43.26956,"lon":5.40262,"is_reserved":false,"is_disabled":false,"rental_uris":{"android":"levelo://app?vid=528fe304-774b-4f5e-99b0-3a6df52f7bd5","ios":"levelo://app?vid=528fe304-774b-4f5e-99b0-3a6df52f7bd5"},"vehicle_type_id":"4","last_reported":1738321630,"current_range_meters":25200,"station_id":"cjm6bp8fraef2m0cb0m0","pricing_plan_id":"cebpf4jnsgd1na2vs0mg"},{"bike_id":"552210ee-044f-4d5d-b506-fd0ef93c2748","system_id":"levelo_inurba_marseille","lat":43.28866,"lon":5.35864,"is_reserved":false,"is_disabled":false,"rental_uris":{"android":"levelo://app?vid=552210ee-044f-4d5d-b506-fd0ef93c2748","ios":"levelo://app?vid=552210ee-044f-4d5d-b506-fd0ef93c2748"},"vehicle_type_id":"4","last_reported":1738321630,"current_range_meters":36800,"station_id":"ce4bhb12rcd13ifvqem0","pricing_plan_id":"cebpf4jnsgd1na2vs0mg"},{"bike_id":"09271d13-983c-4665-89b5-06913cfe0c7f","system_id":"levelo_inurba_marseille","lat":43.26198,"lon":5.37927,"is_reserved":false,"is_disabled":false,"rental_uris":{"android":"levelo://app?vid=09271d13-983c-4665-89b5-06913cfe0c7f","ios":"levelo://app?vid=09271d13-983c-4665-89b5-06913cfe0c7f"},"vehicle_type_id":"4","last_reported":1738321630,"current_range_meters":38800,"station_id":"ce4bhjp2rcd13ifvqg90","pricing_plan_id":"cebpf4jnsgd1na2vs0mg"},{"bike_id":"9d5f74b7-3de8-4c20-b923-b67e8066d887","system_id":"levelo_inurba_marseille","lat":43.2827,"lon":5.35066,"is_reserved":false,"is_disabled":false,"rental_uris":{"android":"levelo://app?vid=9d5f74b7-3de8-4c20-b923-b67e8066d887","ios":"levelo://app?vid=9d5f74b7-3de8-4c20-b923-b67e8066d887"},"vehicle_type_id":"4","last_reported":1738321630,"current_range_meters":21600,"station_id":"ce4bhbp2rcd13ifvqerg","pricing_plan_id":"cebpf4jnsgd1na2vs0mg"},{"bike_id":"ba1e8d7d-8e09-46a6-9069-ea3c3d66b9d2","system_id":"levelo_inurba_marseille","lat":43.30299,"lon":5.36907,"is_reserved":false,"is_disabled":false,"rental_uris":{"android":"levelo://app?vid=ba1e8d7d-8e09-46a6-9069-ea3c3d66b9d2","ios":"levelo://app?vid=ba1e8d7d-8e09-46a6-9069-ea3c3d66b9d2"},"vehicle_type_id":"4","last_reported":1738321630,"current_range_meters":34000,"station_id":"ce4bgqh2rcd13ifvqc5g","pricing_plan_id":"cebpf4jnsgd1na2vs0mg"},{"bike_id":"a12ae85b-f24f-4163-8f94-5bb5a813ed2c","system_id":"levelo_inurba_marseille","lat":43.3016,"lon":5.38104,"is_reserved":false,"is_disabled":false,"rental_uris":{"android":"levelo://app?vid=a12ae85b-f24f-4163-8f94-5bb5a813ed2c","ios":"levelo://app?vid=a12ae85b-f24f-4163-8f94-5bb5a813ed2c"},"vehicle_type_id":"4","last_reported":1738321630,"current_range_meters":37600,"station_id":"ce4bgjp2rcd13ifvqbh0","pricing_plan_id":"cebpf4jnsgd1na2vs0mg"},{"bike_id":"8beb01fe-6c68-473a-97bd-4c6d6b7318d1","system_id":"levelo_inurba_marseille","lat":43.29102,"lon":5.38115,"is_reserved":false,"is_disabled":false,"rental_uris":{"android":"levelo://app?vid=8beb01fe-6c68-473a-97bd-4c6d6b7318d1","ios":"levelo://app?vid=8beb01fe-6c68-473a-97bd-4c6d6b7318d1"},"vehicle_type_id":"4","last_reported":1738321630,"current_range_meters":14400,"station_id":"ce4bh512rcd13ifvqe2g","pricing_plan_id":"cebpf4jnsgd1na2vs0mg"},{"bike_id":"d16bf5d5-b0a7-4a76-889e-7caff8c35fa4","system_id":"levelo_inurba_marseille","lat":43.25015,"lon":5.38909,"is_reserved":false,"is_disabled":false,"rental_uris":{"android":"levelo://app?vid=d16bf5d5-b0a7-4a76-889e-7caff8c35fa4","ios":"levelo://app?vid=d16bf5d5-b0a7-4a76-889e-7caff8c35fa4"},"vehicle_type_id":"4","last_reported":1738321630,"current_range_meters":25200,"station_id":"ce4bhgp2rcd13ifvqfd0","pricing_plan_id":"cebpf4jnsgd1na2vs0mg"},{"bike_id":"bd8a828d-e634-4034-9cac-55889d5bbfa5","system_id":"levelo_inurba_marseille","lat":43.28161,"lon":5.42678,"is_reserved":false,"is_disabled":false,"rental_uris":{"android":"levelo://app?vid=bd8a828d-e634-4034-9cac-55889d5bbfa5","ios":"levelo://app?vid=bd8a828d-e634-4034-9cac-55889d5bbfa5"},"vehicle_type_id":"4","last_reported":1738321630,"current_range_meters":26800,"station_id":"ce4bhnh2rcd13ifvqgug","pricing_plan_id":"cebpf4jnsgd1na2vs0mg"},{"bike_id":"2cf95841-bc69-4d76-bb4f-dd1068032a77","system_id":"levelo_inurba_marseille","lat":43.29218,"lon":5.36062,"is_reserved":false,"is_disabled":false,"rental_uris":{"android":"levelo://app?vid=2cf95841-bc69-4d76-bb4f-dd1068032a77","ios":"levelo://app?vid=2cf95841-bc69-4d76-bb4f-dd1068032a77"},"vehicle_type_id":"4","last_reported":1738321630,"current_range_meters":25200,"station_id":"ce4bhbh2rcd13ifvqeqg","pricing_plan_id":"cebpf4jnsgd1na2vs0mg"},{"bike_id":"6f62346f-c4bf-4514-9be6-2d454717edd7","system_id":"levelo_inurba_marseille","lat":43.30336,"lon":5.41879,"is_reserved":false,"is_disabled":false,"rental_uris":{"android":"levelo://app?vid=6f62346f-c4bf-4514-9be6-2d454717edd7","ios":"levelo://app?vid=6f62346f-c4bf-4514-9be6-2d454717edd7"},"vehicle_type_id":"4","last_reported":1738321630,"current_range_meters":33200,"station_id":"ce4bhop2rcd13ifvqh7g","pricing_plan_id":"cebpf4jnsgd1na2vs0mg"},{"bike_id":"f9d35a32-65b2-4842-bd83-8cbe10324274","system_id":"levelo_inurba_marseille","lat":43.28629,"lon":5.35114,"is_reserved":false,"is_disabled":false,"rental_uris":{"android":"levelo://app?vid=f9d35a32-65b2-4842-bd83-8cbe10324274","ios":"levelo://app?vid=f9d35a32-65b2-4842-bd83-8cbe10324274"},"vehicle_type_id":"4","last_reported":1738321630,"current_range_meters":12800,"station_id":"ce4bhch2rcd13ifvqeug","pricing_plan_id":"cebpf4jnsgd1na2vs0mg"},{"bike_id":"4be0e3ed-4920-426e-8c80-bde8ae4a14d9","system_id":"levelo_inurba_marseille","lat":43.26931,"lon":5.38923,"is_reserved":false,"is_disabled":false,"rental_uris":{"android":"levelo://app?vid=4be0e3ed-4920-426e-8c80-bde8ae4a14d9","ios":"levelo://app?vid=4be0e3ed-4920-426e-8c80-bde8ae4a14d9"},"vehicle_type_id":"4","last_reported":1738321630,"current_range_meters":27600,"station_id":"ce4bhhh2rcd13ifvqfl0","pricing_plan_id":"cebpf4jnsgd1na2vs0mg"},{"bike_id":"47ea4b8c-b595-481f-a560-516bf56d6f4c","system_id":"levelo_inurba_marseille","lat":43.27915,"lon":5.39579,"is_reserved":false,"is_disabled":false,"rental_uris":{"android":"levelo://app?vid=47ea4b8c-b595-481f-a560-516bf56d6f4c","ios":"levelo://app?vid=47ea4b8c-b595-481f-a560-516bf56d6f4c"},"vehicle_type_id":"4","last_reported":1738321630,"current_range_meters":34800,"station_id":"ce4bhf92rcd13ifvqf40","pricing_plan_id":"cebpf4jnsgd1na2vs0mg"},{"bike_id":"a902961e-a3e1-44bd-8e8f-faac53a16a3b","system_id":"levelo_inurba_marseille","lat":43.28359,"lon":5.38114,"is_reserved":false,"is_disabled":false,"rental_uris":{"android":"levelo://app?vid=a902961e-a3e1-44bd-8e8f-faac53a16a3b","ios":"levelo://app?vid=a902961e-a3e1-44bd-8e8f-faac53a16a3b"},"vehicle_type_id":"4","last_reported":1738321630,"current_range_meters":8400,"station_id":"ce4bh412rcd13ifvqdr0","pricing_plan_id":"cebpf4jnsgd1na2vs0mg"},{"bike_id":"1045c39d-9f42-4b09-96ab-0331c7bf14c9","system_id":"levelo_inurba_marseille","lat":43.29585,"lon":5.36746,"is_reserved":false,"is_disabled":false,"rental_uris":{"android":"levelo://app?vid=1045c39d-9f42-4b09-96ab-0331c7bf14c9","ios":"levelo://app?vid=1045c39d-9f42-4b09-96ab-0331c7bf14c9"},"vehicle_type_id":"4","last_reported":1738321630,"current_range_meters":39200,"station_id":"ce4bgph2rcd13ifvqc2g","pricing_plan_id":"cebpf4jnsgd1na2vs0mg"},{"bike_id":"ad3cdf25-9963-4fac-b030-f249efcede1b","system_id":"levelo_inurba_marseille","lat":43.244,"lon":5.37044,"is_reserved":false,"is_disabled":false,"rental_uris":{"android":"levelo://app?vid=ad3cdf25-9963-4fac-b030-f249efcede1b","ios":"levelo://app?vid=ad3cdf25-9963-4fac-b030-f249efcede1b"},"vehicle_type_id":"4","last_reported":1738321630,"current_range_meters":18000,"station_id":"ce4bhhh2rcd13ifvqfk0","pricing_plan_id":"cebpf4jnsgd1na2vs0mg"},{"bike_id":"0ed39a79-e831-4aa5-ab3f-13a3ae3a3ee8","system_id":"levelo_inurba_marseille","lat":43.30542,"lon":5.36551,"is_reserved":false,"is_disabled":false,"rental_uris":{"android":"levelo://app?vid=0ed39a79-e831-4aa5-ab3f-13a3ae3a3ee8","ios":"levelo://app?vid=0ed39a79-e831-4aa5-ab3f-13a3ae3a3ee8"},"vehicle_type_id":"4","last_reported":1738321630,"current_range_meters":4000,"station_id":"ce4bgs12rcd13ifvqcag","pricing_plan_id":"cebpf4jnsgd1na2vs0mg"},{"bike_id":"56d6b97f-30a2-4c2a-8be6-a12a9fc19507","system_id":"levelo_inurba_marseille","lat":43.31756,"lon":5.39025,"is_reserved":false,"is_disabled":false,"rental_uris":{"android":"levelo://app?vid=56d6b97f-30a2-4c2a-8be6-a12a9fc19507","ios":"levelo://app?vid=56d6b97f-30a2-4c2a-8be6-a12a9fc19507"},"vehicle_type_id":"4","last_reported":1738321630,"current_range_meters":14000,"station_id":"ce4bhqp2rcd13ifvqhng","pricing_plan_id":"cebpf4jnsgd1na2vs0mg"},{"bike_id":"e7a8ab92-781b-454c-983c-b704077182bf","system_id":"levelo_inurba_marseille","lat":43.30042,"lon":5.41419,"is_reserved":false,"is_disabled":true,"rental_uris":{"android":"levelo://app?vid=e7a8ab92-781b-454c-983c-b704077182bf","ios":"levelo://app?vid=e7a8ab92-781b-454c-983c-b704077182bf"},"vehicle_type_id":"4","last_reported":1738321630,"current_range_meters":12000,"station_id":"","pricing_plan_id":"cebpf4jnsgd1na2vs0mg"},{"bike_id":"4a1e9f62-bab4-41dd-a460-5c9b1a6299cf","system_id":"levelo_inurba_marseille","lat":43.29594,"lon":5.3676,"is_reserved":false,"is_disabled":false,"rental_uris":{"android":"levelo://app?vid=4a1e9f62-bab4-41dd-a460-5c9b1a6299cf","ios":"levelo://app?vid=4a1e9f62-bab4-41dd-a460-5c9b1a6299cf"},"vehicle_type_id":"4","last_reported":1738321630,"current_range_meters":38800,"station_id":"ce4bgph2rcd13ifvqc2g","pricing_plan_id":"cebpf4jnsgd1na2vs0mg"},{"bike_id":"d2a61873-58f7-4bc8-abeb-3ce8c1c55c8d","system_id":"levelo_inurba_marseille","lat":43.27176,"lon":5.40995,"is_reserved":false,"is_disabled":false,"rental_uris":{"android":"levelo://app?vid=d2a61873-58f7-4bc8-abeb-3ce8c1c55c8d","ios":"levelo://app?vid=d2a61873-58f7-4bc8-abeb-3ce8c1c55c8d"},"vehicle_type_id":"4","last_reported":1738321630,"current_range_meters":12400,"station_id":"ce4bhl12rcd13ifvqgf0","pricing_plan_id":"cebpf4jnsgd1na2vs0mg"},{"bike_id":"7e05e471-985d-41f3-89ae-8270e66f0261","system_id":"levelo_inurba_marseille","lat":43.27431,"lon":5.39422,"is_reserved":false,"is_disabled":false,"rental_uris":{"android":"levelo://app?vid=7e05e471-985d-41f3-89ae-8270e66f0261","ios":"levelo://app?vid=7e05e471-985d-41f3-89ae-8270e66f0261"},"vehicle_type_id":"4","last_reported":1738321630,"current_range_meters":16000,"station_id":"ce4bhdp2rcd13ifvqf20","pricing_plan_id":"cebpf4jnsgd1na2vs0mg"},{"bike_id":"b61407a7-d93a-47a9-ae07-fdf92f9b0164","system_id":"levelo_inurba_marseille","lat":43.27621,"lon":5.36106,"is_reserved":false,"is_disabled":true,"rental_uris":{"android":"levelo://app?vid=b61407a7-d93a-47a9-ae07-fdf92f9b0164","ios":"levelo://app?vid=b61407a7-d93a-47a9-ae07-fdf92f9b0164"},"vehicle_type_id":"4","last_reported":1738321630,"current_range_meters":0,"station_id":"","pricing_plan_id":"cebpf4jnsgd1na2vs0mg"},{"bike_id":"4513872b-8c8e-44b3-b254-8fad0c767d47","system_id":"levelo_inurba_marseille","lat":43.24573,"lon":5.39554,"is_reserved":false,"is_disabled":false,"rental_uris":{"android":"levelo://app?vid=4513872b-8c8e-44b3-b254-8fad0c767d47","ios":"levelo://app?vid=4513872b-8c8e-44b3-b254-8fad0c767d47"},"vehicle_type_id":"4","last_reported":1738321630,"current_range_meters":38800,"station_id":"ce4bhlp2rcd13ifvqgjg","pricing_plan_id":"cebpf4jnsgd1na2vs0mg"},{"bike_id":"f7b9aaab-c942-46b4-bbc3-411d144e3b62","system_id":"levelo_inurba_marseille","lat":43.30463,"lon":5.37921,"is_reserved":false,"is_disabled":false,"rental_uris":{"android":"levelo://app?vid=f7b9aaab-c942-46b4-bbc3-411d144e3b62","ios":"levelo://app?vid=f7b9aaab-c942-46b4-bbc3-411d144e3b62"},"vehicle_type_id":"4","last_reported":1738321630,"current_range_meters":29600,"station_id":"ce4bgup2rcd13ifvqcn0","pricing_plan_id":"cebpf4jnsgd1na2vs0mg"},{"bike_id":"cfbb5204-c0e4-43d6-b3e4-9696e0ec11e8","system_id":"levelo_inurba_marseille","lat":43.25093,"lon":5.39516,"is_reserved":false,"is_disabled":false,"rental_uris":{"android":"levelo://app?vid=cfbb5204-c0e4-43d6-b3e4-9696e0ec11e8","ios":"levelo://app?vid=cfbb5204-c0e4-43d6-b3e4-9696e0ec11e8"},"vehicle_type_id":"4","last_reported":1738321630,"current_range_meters":12000,"station_id":"ce4bhm12rcd13ifvqgkg","pricing_plan_id":"cebpf4jnsgd1na2vs0mg"},{"bike_id":"8382186f-0d25-40e6-beca-2632cc8590f2","system_id":"levelo_inurba_marseille","lat":43.2955,"lon":5.42289,"is_reserved":false,"is_disabled":false,"rental_uris":{"android":"levelo://app?vid=8382186f-0d25-40e6-beca-2632cc8590f2","ios":"levelo://app?vid=8382186f-0d25-40e6-beca-2632cc8590f2"},"vehicle_type_id":"4","last_reported":1738321630,"current_range_meters":24800,"station_id":"ce4bhph2rcd13ifvqhdg","pricing_plan_id":"cebpf4jnsgd1na2vs0mg"},{"bike_id":"2c0b7118-bbc4-45ab-8e66-46d9bf6de98d","system_id":"levelo_inurba_marseille","lat":43.27059,"lon":5.40273,"is_reserved":false,"is_disabled":false,"rental_uris":{"android":"levelo://app?vid=2c0b7118-bbc4-45ab-8e66-46d9bf6de98d","ios":"levelo://app?vid=2c0b7118-bbc4-45ab-8e66-46d9bf6de98d"},"vehicle_type_id":"4","last_reported":1738321630,"current_range_meters":36800,"station_id":"ce4bhk92rcd13ifvqgc0","pricing_plan_id":"cebpf4jnsgd1na2vs0mg"},{"bike_id":"377886a1-3412-4318-b72f-3534a98d2b7c","system_id":"levelo_inurba_marseille","lat":43.28353,"lon":5.38125,"is_reserved":false,"is_disabled":false,"rental_uris":{"android":"levelo://app?vid=377886a1-3412-4318-b72f-3534a98d2b7c","ios":"levelo://app?vid=377886a1-3412-4318-b72f-3534a98d2b7c"},"vehicle_type_id":"4","last_reported":1738321630,"current_range_meters":38400,"station_id":"ce4bh412rcd13ifvqdr0","pricing_plan_id":"cebpf4jnsgd1na2vs0mg"},{"bike_id":"6a3cbb9f-8663-4702-ab2f-57714697fccd","system_id":"levelo_inurba_marseille","lat":43.30143,"lon":5.3744,"is_reserved":false,"is_disabled":false,"rental_uris":{"android":"levelo://app?vid=6a3cbb9f-8663-4702-ab2f-57714697fccd","ios":"levelo://app?vid=6a3cbb9f-8663-4702-ab2f-57714697fccd"},"vehicle_type_id":"4","last_reported":1738321630,"current_range_meters":28800,"station_id":"ce4bgs92rcd13ifvqcc0","pricing_plan_id":"cebpf4jnsgd1na2vs0mg"},{"bike_id":"fc061574-043e-4aba-9633-1642a78aeb3a","system_id":"levelo_inurba_marseille","lat":43.308,"lon":5.38162,"is_reserved":false,"is_disabled":true,"rental_uris":{"android":"levelo://app?vid=fc061574-043e-4aba-9633-1642a78aeb3a","ios":"levelo://app?vid=fc061574-043e-4aba-9633-1642a78aeb3a"},"vehicle_type_id":"4","last_reported":1738321630,"current_range_meters":11200,"station_id":"ce4bgt12rcd13ifvqce0","pricing_plan_id":"cebpf4jnsgd1na2vs0mg"},{"bike_id":"32b9f82d-d46a-4196-aa59-a12f990f6dce","system_id":"levelo_inurba_marseille","lat":43.27214,"lon":5.39182,"is_reserved":false,"is_disabled":false,"rental_uris":{"android":"levelo://app?vid=32b9f82d-d46a-4196-aa59-a12f990f6dce","ios":"levelo://app?vid=32b9f82d-d46a-4196-aa59-a12f990f6dce"},"vehicle_type_id":"4","last_reported":1738321630,"current_range_meters":38800,"station_id":"ce4bhhp2rcd13ifvqfm0","pricing_plan_id":"cebpf4jnsgd1na2vs0mg"},{"bike_id":"48f9eaca-f3e5-4116-991b-ef7f57ab7a25","system_id":"levelo_inurba_marseille","lat":43.29374,"lon":5.37858,"is_reserved":false,"is_disabled":true,"rental_uris":{"android":"levelo://app?vid=48f9eaca-f3e5-4116-991b-ef7f57ab7a25","ios":"levelo://app?vid=48f9eaca-f3e5-4116-991b-ef7f57ab7a25"},"vehicle_type_id":"4","last_reported":1738321630,"current_range_meters":25200,"station_id":"ce4bgjh2rcd13ifvqbf0","pricing_plan_id":"cebpf4jnsgd1na2vs0mg"},{"bike_id":"68e34b9b-7cbb-473a-935b-b3218e018ee2","system_id":"levelo_inurba_marseille","lat":43.31329,"lon":5.36761,"is_reserved":false,"is_disabled":false,"rental_uris":{"android":"levelo://app?vid=68e34b9b-7cbb-473a-935b-b3218e018ee2","ios":"levelo://app?vid=68e34b9b-7cbb-473a-935b-b3218e018ee2"},"vehicle_type_id":"4","last_reported":1738321630,"current_range_meters":24400,"station_id":"ce4bgr92rcd13ifvqc6g","pricing_plan_id":"cebpf4jnsgd1na2vs0mg"},{"bike_id":"32d9a329-7366-4eb8-8d55-73b5c99c70c3","system_id":"levelo_inurba_marseille","lat":43.23195,"lon":5.35548,"is_reserved":false,"is_disabled":false,"rental_uris":{"android":"levelo://app?vid=32d9a329-7366-4eb8-8d55-73b5c99c70c3","ios":"levelo://app?vid=32d9a329-7366-4eb8-8d55-73b5c99c70c3"},"vehicle_type_id":"4","last_reported":1738321630,"current_range_meters":39200,"station_id":"ce4bhu92rcd13ifvqi70","pricing_plan_id":"cebpf4jnsgd1na2vs0mg"},{"bike_id":"8f6095a3-8695-4ea3-b2b9-acf39dc7a44b","system_id":"levelo_inurba_marseille","lat":43.317521,"lon":5.390121,"is_reserved":false,"is_disabled":false,"rental_uris":{"android":"levelo://app?vid=8f6095a3-8695-4ea3-b2b9-acf39dc7a44b","ios":"levelo://app?vid=8f6095a3-8695-4ea3-b2b9-acf39dc7a44b"},"vehicle_type_id":"4","last_reported":1738321630,"current_range_meters":20400,"station_id":"ce4bhqp2rcd13ifvqhng","pricing_plan_id":"cebpf4jnsgd1na2vs0mg"},{"bike_id":"d7861766-e988-4bfb-97ef-8827400e38fd","system_id":"levelo_inurba_marseille","lat":43.23195,"lon":5.39986,"is_reserved":false,"is_disabled":false,"rental_uris":{"android":"levelo://app?vid=d7861766-e988-4bfb-97ef-8827400e38fd","ios":"levelo://app?vid=d7861766-e988-4bfb-97ef-8827400e38fd"},"vehicle_type_id":"4","last_reported":1738321630,"current_range_meters":38800,"station_id":"ce4bhn12rcd13ifvqgqg","pricing_plan_id":"cebpf4jnsgd1na2vs0mg"},{"bike_id":"0a2fd205-d616-4064-aa75-d4d529957d90","system_id":"levelo_inurba_marseille","lat":43.230641,"lon":5.355107,"is_reserved":false,"is_disabled":false,"rental_uris":{"android":"levelo://app?vid=0a2fd205-d616-4064-aa75-d4d529957d90","ios":"levelo://app?vid=0a2fd205-d616-4064-aa75-d4d529957d90"},"vehicle_type_id":"4","last_reported":1738321630,"current_range_meters":21600,"station_id":"cpo3342slgdg3j2ifvpg","pricing_plan_id":"cebpf4jnsgd1na2vs0mg"},{"bike_id":"ae2467d5-e440-4969-af46-8ffa89049d5b","system_id":"levelo_inurba_marseille","lat":43.28618,"lon":5.35107,"is_reserved":false,"is_disabled":false,"rental_uris":{"android":"levelo://app?vid=ae2467d5-e440-4969-af46-8ffa89049d5b","ios":"levelo://app?vid=ae2467d5-e440-4969-af46-8ffa89049d5b"},"vehicle_type_id":"4","last_reported":1738321630,"current_range_meters":37600,"station_id":"ce4bhch2rcd13ifvqeug","pricing_plan_id":"cebpf4jnsgd1na2vs0mg"},{"bike_id":"d3555a00-aebd-4cd5-b0cb-1da00d423369","system_id":"levelo_inurba_marseille","lat":43.30476,"lon":5.3826,"is_reserved":false,"is_disabled":false,"rental_uris":{"android":"levelo://app?vid=d3555a00-aebd-4cd5-b0cb-1da00d423369","ios":"levelo://app?vid=d3555a00-aebd-4cd5-b0cb-1da00d423369"},"vehicle_type_id":"4","last_reported":1738321630,"current_range_meters":17200,"station_id":"","pricing_plan_id":"cebpf4jnsgd1na2vs0mg"},{"bike_id":"94931f21-350d-4566-8bea-491f51e9a25d","system_id":"levelo_inurba_marseille","lat":43.26943,"lon":5.38929,"is_reserved":false,"is_disabled":false,"rental_uris":{"android":"levelo://app?vid=94931f21-350d-4566-8bea-491f51e9a25d","ios":"levelo://app?vid=94931f21-350d-4566-8bea-491f51e9a25d"},"vehicle_type_id":"4","last_reported":1738321630,"current_range_meters":38800,"station_id":"ce4bhhh2rcd13ifvqfl0","pricing_plan_id":"cebpf4jnsgd1na2vs0mg"},{"bike_id":"851692c4-6ece-4a71-ba19-f442921d2278","system_id":"levelo_inurba_marseille","lat":43.298996,"lon":5.43657,"is_reserved":false,"is_disabled":false,"rental_uris":{"android":"levelo://app?vid=851692c4-6ece-4a71-ba19-f442921d2278","ios":"levelo://app?vid=851692c4-6ece-4a71-ba19-f442921d2278"},"vehicle_type_id":"4","last_reported":1738321630,"current_range_meters":37600,"station_id":"ce4bhpp2rcd13ifvqhfg","pricing_plan_id":"cebpf4jnsgd1na2vs0mg"},{"bike_id":"3951c645-adcf-415f-8d33-5c5bc84c27c8","system_id":"levelo_inurba_marseille","lat":43.27821,"lon":5.40713,"is_reserved":false,"is_disabled":false,"rental_uris":{"android":"levelo://app?vid=3951c645-adcf-415f-8d33-5c5bc84c27c8","ios":"levelo://app?vid=3951c645-adcf-415f-8d33-5c5bc84c27c8"},"vehicle_type_id":"4","last_reported":1738321630,"current_range_meters":22400,"station_id":"ce4bhnh2rcd13ifvqgtg","pricing_plan_id":"cebpf4jnsgd1na2vs0mg"},{"bike_id":"298229e7-31d7-4ee6-9f26-e874640aeab1","system_id":"levelo_inurba_marseille","lat":43.27805,"lon":5.40703,"is_reserved":false,"is_disabled":false,"rental_uris":{"android":"levelo://app?vid=298229e7-31d7-4ee6-9f26-e874640aeab1","ios":"levelo://app?vid=298229e7-31d7-4ee6-9f26-e874640aeab1"},"vehicle_type_id":"4","last_reported":1738321630,"current_range_meters":20400,"station_id":"ce4bhnh2rcd13ifvqgtg","pricing_plan_id":"cebpf4jnsgd1na2vs0mg"},{"bike_id":"2dcea597-6175-45f7-be3e-2ee0705f08d3","system_id":"levelo_inurba_marseille","lat":43.26935,"lon":5.3893,"is_reserved":false,"is_disabled":false,"rental_uris":{"android":"levelo://app?vid=2dcea597-6175-45f7-be3e-2ee0705f08d3","ios":"levelo://app?vid=2dcea597-6175-45f7-be3e-2ee0705f08d3"},"vehicle_type_id":"4","last_reported":1738321630,"current_range_meters":39200,"station_id":"ce4bhhh2rcd13ifvqfl0","pricing_plan_id":"cebpf4jnsgd1na2vs0mg"},{"bike_id":"803e03d8-7d2e-4feb-ac46-774902d16dee","system_id":"levelo_inurba_marseille","lat":43.33759,"lon":5.37451,"is_reserved":false,"is_disabled":true,"rental_uris":{"android":"levelo://app?vid=803e03d8-7d2e-4feb-ac46-774902d16dee","ios":"levelo://app?vid=803e03d8-7d2e-4feb-ac46-774902d16dee"},"vehicle_type_id":"4","last_reported":1738321630,"current_range_meters":38000,"station_id":"","pricing_plan_id":"cebpf4jnsgd1na2vs0mg"},{"bike_id":"baa29b07-c929-4791-93f4-403cf3c9ae74","system_id":"levelo_inurba_marseille","lat":43.299198,"lon":5.374634,"is_reserved":false,"is_disabled":false,"rental_uris":{"android":"levelo://app?vid=baa29b07-c929-4791-93f4-403cf3c9ae74","ios":"levelo://app?vid=baa29b07-c929-4791-93f4-403cf3c9ae74"},"vehicle_type_id":"4","last_reported":1738321630,"current_range_meters":18000,"station_id":"ce4bgjh2rcd13ifvqbg0","pricing_plan_id":"cebpf4jnsgd1na2vs0mg"},{"bike_id":"59ddebd8-717f-4924-ba8f-19c88b19aba5","system_id":"levelo_inurba_marseille","lat":43.30457,"lon":5.3791,"is_reserved":false,"is_disabled":false,"rental_uris":{"android":"levelo://app?vid=59ddebd8-717f-4924-ba8f-19c88b19aba5","ios":"levelo://app?vid=59ddebd8-717f-4924-ba8f-19c88b19aba5"},"vehicle_type_id":"4","last_reported":1738321630,"current_range_meters":28800,"station_id":"ce4bgup2rcd13ifvqcn0","pricing_plan_id":"cebpf4jnsgd1na2vs0mg"},{"bike_id":"2b71c454-8942-4964-81ac-e061c9687ae7","system_id":"levelo_inurba_marseille","lat":43.29076,"lon":5.3816,"is_reserved":false,"is_disabled":false,"rental_uris":{"android":"levelo://app?vid=2b71c454-8942-4964-81ac-e061c9687ae7","ios":"levelo://app?vid=2b71c454-8942-4964-81ac-e061c9687ae7"},"vehicle_type_id":"4","last_reported":1738321630,"current_range_meters":27200,"station_id":"ce4bh512rcd13ifvqe2g","pricing_plan_id":"cebpf4jnsgd1na2vs0mg"},{"bike_id":"2e67c8ec-f0d5-490b-bd8f-035a09141f3b","system_id":"levelo_inurba_marseille","lat":43.30255,"lon":5.40083,"is_reserved":false,"is_disabled":false,"rental_uris":{"android":"levelo://app?vid=2e67c8ec-f0d5-490b-bd8f-035a09141f3b","ios":"levelo://app?vid=2e67c8ec-f0d5-490b-bd8f-035a09141f3b"},"vehicle_type_id":"4","last_reported":1738321630,"current_range_meters":28400,"station_id":"ce4bgvh2rcd13ifvqcs0","pricing_plan_id":"cebpf4jnsgd1na2vs0mg"},{"bike_id":"0096030d-0ec7-4a0e-9a44-cf1664e826e6","system_id":"levelo_inurba_marseille","lat":43.30148,"lon":5.3808,"is_reserved":false,"is_disabled":false,"rental_uris":{"android":"levelo://app?vid=0096030d-0ec7-4a0e-9a44-cf1664e826e6","ios":"levelo://app?vid=0096030d-0ec7-4a0e-9a44-cf1664e826e6"},"vehicle_type_id":"4","last_reported":1738321630,"current_range_meters":22000,"station_id":"ce4bgjp2rcd13ifvqbh0","pricing_plan_id":"cebpf4jnsgd1na2vs0mg"},{"bike_id":"138253f2-6ec5-4794-9b5c-878448242c21","system_id":"levelo_inurba_marseille","lat":43.27821,"lon":5.4071,"is_reserved":false,"is_disabled":false,"rental_uris":{"android":"levelo://app?vid=138253f2-6ec5-4794-9b5c-878448242c21","ios":"levelo://app?vid=138253f2-6ec5-4794-9b5c-878448242c21"},"vehicle_type_id":"4","last_reported":1738321630,"current_range_meters":30800,"station_id":"ce4bhnh2rcd13ifvqgtg","pricing_plan_id":"cebpf4jnsgd1na2vs0mg"},{"bike_id":"f0fe694a-a86b-4087-9f29-87ad2ef34bfa","system_id":"levelo_inurba_marseille","lat":43.28623,"lon":5.35102,"is_reserved":false,"is_disabled":false,"rental_uris":{"android":"levelo://app?vid=f0fe694a-a86b-4087-9f29-87ad2ef34bfa","ios":"levelo://app?vid=f0fe694a-a86b-4087-9f29-87ad2ef34bfa"},"vehicle_type_id":"4","last_reported":1738321630,"current_range_meters":24800,"station_id":"ce4bhch2rcd13ifvqeug","pricing_plan_id":"cebpf4jnsgd1na2vs0mg"},{"bike_id":"6337d338-3511-4993-ada0-12102998e834","system_id":"levelo_inurba_marseille","lat":43.23072,"lon":5.35493,"is_reserved":false,"is_disabled":false,"rental_uris":{"android":"levelo://app?vid=6337d338-3511-4993-ada0-12102998e834","ios":"levelo://app?vid=6337d338-3511-4993-ada0-12102998e834"},"vehicle_type_id":"4","last_reported":1738321630,"current_range_meters":16000,"station_id":"cpo3342slgdg3j2ifvpg","pricing_plan_id":"cebpf4jnsgd1na2vs0mg"},{"bike_id":"4212e48d-7f7b-425a-ab0a-0fcc961ebcb9","system_id":"levelo_inurba_marseille","lat":43.30913,"lon":5.36854,"is_reserved":false,"is_disabled":false,"rental_uris":{"android":"levelo://app?vid=4212e48d-7f7b-425a-ab0a-0fcc961ebcb9","ios":"levelo://app?vid=4212e48d-7f7b-425a-ab0a-0fcc961ebcb9"},"vehicle_type_id":"4","last_reported":1738321630,"current_range_meters":39200,"station_id":"ce4bgn92rcd13ifvqbvg","pricing_plan_id":"cebpf4jnsgd1na2vs0mg"},{"bike_id":"37766b3f-cbcb-444a-a1d7-e4f66144d5ac","system_id":"levelo_inurba_marseille","lat":43.30186,"lon":5.3809,"is_reserved":false,"is_disabled":false,"rental_uris":{"android":"levelo://app?vid=37766b3f-cbcb-444a-a1d7-e4f66144d5ac","ios":"levelo://app?vid=37766b3f-cbcb-444a-a1d7-e4f66144d5ac"},"vehicle_type_id":"4","last_reported":1738321630,"current_range_meters":39200,"station_id":"ce4bgjp2rcd13ifvqbh0","pricing_plan_id":"cebpf4jnsgd1na2vs0mg"},{"bike_id":"84683ab4-a317-4abe-8815-4b997e4bebd0","system_id":"levelo_inurba_marseille","lat":43.30542,"lon":5.36712,"is_reserved":false,"is_disabled":false,"rental_uris":{"android":"levelo://app?vid=84683ab4-a317-4abe-8815-4b997e4bebd0","ios":"levelo://app?vid=84683ab4-a317-4abe-8815-4b997e4bebd0"},"vehicle_type_id":"4","last_reported":1738321630,"current_range_meters":34000,"station_id":"ce4bgrp2rcd13ifvqc9g","pricing_plan_id":"cebpf4jnsgd1na2vs0mg"},{"bike_id":"d994d4a0-0318-4f4e-9986-d94426f50c25","system_id":"levelo_inurba_marseille","lat":43.26221,"lon":5.3749,"is_reserved":false,"is_disabled":false,"rental_uris":{"android":"levelo://app?vid=d994d4a0-0318-4f4e-9986-d94426f50c25","ios":"levelo://app?vid=d994d4a0-0318-4f4e-9986-d94426f50c25"},"vehicle_type_id":"4","last_reported":1738321630,"current_range_meters":39200,"station_id":"ce4bhgp2rcd13ifvqfc0","pricing_plan_id":"cebpf4jnsgd1na2vs0mg"},{"bike_id":"dbf33dd9-e631-47ec-b090-aae2633d2c98","system_id":"levelo_inurba_marseille","lat":43.29852,"lon":5.36283,"is_reserved":false,"is_disabled":false,"rental_uris":{"android":"levelo://app?vid=dbf33dd9-e631-47ec-b090-aae2633d2c98","ios":"levelo://app?vid=dbf33dd9-e631-47ec-b090-aae2633d2c98"},"vehicle_type_id":"4","last_reported":1738321630,"current_range_meters":38800,"station_id":"ce4bgpp2rcd13ifvqc3g","pricing_plan_id":"cebpf4jnsgd1na2vs0mg"},{"bike_id":"9900f1a4-6fec-4768-9689-365d0e3a621d","system_id":"levelo_inurba_marseille","lat":43.231927,"lon":5.39985,"is_reserved":false,"is_disabled":false,"rental_uris":{"android":"levelo://app?vid=9900f1a4-6fec-4768-9689-365d0e3a621d","ios":"levelo://app?vid=9900f1a4-6fec-4768-9689-365d0e3a621d"},"vehicle_type_id":"4","last_reported":1738321630,"current_range_meters":38800,"station_id":"ce4bhn12rcd13ifvqgqg","pricing_plan_id":"cebpf4jnsgd1na2vs0mg"},{"bike_id":"6630ca91-ca35-4e81-9c54-578b49e543d0","system_id":"levelo_inurba_marseille","lat":43.27809,"lon":5.40708,"is_reserved":false,"is_disabled":false,"rental_uris":{"android":"levelo://app?vid=6630ca91-ca35-4e81-9c54-578b49e543d0","ios":"levelo://app?vid=6630ca91-ca35-4e81-9c54-578b49e543d0"},"vehicle_type_id":"4","last_reported":1738321630,"current_range_meters":36000,"station_id":"ce4bhnh2rcd13ifvqgtg","pricing_plan_id":"cebpf4jnsgd1na2vs0mg"},