{"last_updated":1752845379,"ttl":60,"version":"2.2","data":{"bikes":[{"bike_id":"53b742a7-31ae-4272-9bba-7740339e2a2f","system_id":"levelo_inurba_marseille","lat":43.33747,"lon":5.37463,"is_reserved":false,"is_disabled":false,"rental_uris":{"android":"levelo://app?vid=53b742a7-31ae-4272-9bba-7740339e2a2f","ios":"levelo://app?vid=53b742a7-31ae-4272-9bba-7740339e2a2f"},"vehicle_type_id":"1","last_reported":1752845379,"current_range_meters":19600,"station_id":"","pricing_plan_id":"cebpf4jnsgd1na2vs0mg"},{"bike_id":"72970a57-5fb5-4bf5-80b6-aa52523271ee","system_id":"levelo_inurba_marseille","lat":43.292416,"lon":5.40895,"is_reserved":false,"is_disabled":false,"rental_uris":{"android":"levelo://app?vid=72970a57-5fb5-4bf5-80b6-aa52523271ee","ios":"levelo://app?vid=72970a57-5fb5-4bf5-80b6-aa52523271ee"},"vehicle_type_id":"4","last_reported":1752845379,"current_range_meters":2000,"station_id":"ce4bh192rcd13ifvqdc0","pricing_plan_id":"cebpf4jnsgd1na2vs0mg"},{"bike_id":"831d8714-8659-4bfd-b42c-cc8aaaae0846","system_id":"levelo_inurba_marseille","lat":43.29032,"lon":5.38658,"is_reserved":false,"is_disabled":false,"rental_uris":{"android":"levelo://app?vid=831d8714-8659-4bfd-b42c-cc8aaaae0846","ios":"levelo://app?vid=831d8714-8659-4bfd-b42c-cc8aaaae0846"},"vehicle_type_id":"4","last_reported":1752845379,"current_range_meters":2000,"station_id":"ce4bh4p2rcd13ifvqe0g","pricing_plan_id":"cebpf4jnsgd1na2vs0mg"},{"bike_id":"da581d50-8a7a-4fd1-b852-3e78907ad563","system_id":"levelo_inurba_marseille","lat":43.32472,"lon":5.40907,"is_reserved":false,"is_disabled":false,"rental_uris":{"android":"levelo://app?vid=da581d50-8a7a-4fd1-b852-3e78907ad563","ios":"levelo://app?vid=da581d50-8a7a-4fd1-b852-3e78907ad563"},"vehicle_type_id":"4","last_reported":1752845379,"current_range_meters":3200,"station_id":"","pricing_plan_id":"cebpf4jnsgd1na2vs0mg"},{"bike_id":"3578f760-a383-4508-b973-4301e15e0b04","system_id":"levelo_inurba_marseille","lat":43.281941,"lon":5.378604,"is_reserved":false,"is_disabled":false,"rental_uris":{"android":"levelo://app?vid=3578f760-a383-4508-b973-4301e15e0b04","ios":"levelo://app?vid=3578f760-a383-4508-b973-4301e15e0b04"},"vehicle_type_id":"4","last_reported":1752845379,"current_range_meters":3200,"station_id":"ce4bha12rcd13ifvqee0","pricing_plan_id":"cebpf4jnsgd1na2vs0mg"},{"bike_id":"c5eb6f98-8cfd-4e3a-8094-f0b7572c9591","system_id":"levelo_inurba_marseille","lat":43.28613,"lon":5.35103,"is_reserved":false,"is_disabled":false,"rental_uris":{"android":"levelo://app?vid=c5eb6f98-8cfd-4e3a-8094-f0b7572c9591","ios":"levelo://app?vid=c5eb6f98-8cfd-4e3a-8094-f0b7572c9591"},"vehicle_type_id":"4","last_reported":1752845379,"current_range_meters":3600,"station_id":"ce4bhch2rcd13ifvqeug","pricing_plan_id":"cebpf4jnsgd1na2vs0mg"},{"bike_id":"51de7427-7c78-40b8-b137-52d7c01a1b54","system_id":"levelo_inurba_marseille","lat":43.29885,"lon":5.43672,"is_reserved":false,"is_disabled":false,"rental_uris":{"android":"levelo://app?vid=51de7427-7c78-40b8-b137-52d7c01a1b54","ios":"levelo://app?vid=51de7427-7c78-40b8-b137-52d7c01a1b54"},"vehicle_type_id":"4","last_reported":1752845379,"current_range_meters":4000,"station_id":"ce4bhpp2rcd13ifvqhfg","pricing_plan_id":"cebpf4jnsgd1na2vs0mg"},{"bike_id":"c90e391b-ece5-4359-abd8-1b1e4cb9431b","system_id":"levelo_inurba_marseille","lat":43.31328,"lon":5.3969,"is_reserved":false,"is_disabled":false,"rental_uris":{"android":"levelo://app?vid=c90e391b-ece5-4359-abd8-1b1e4cb9431b","ios":"levelo://app?vid=c90e391b-ece5-4359-abd8-1b1e4cb9431b"},"vehicle_type_id":"4","last_reported":1752845379,"current_range_meters":4000,"station_id":"ce4bgvp2rcd13ifvqcu0","pricing_plan_id":"cebpf4jnsgd1na2vs0mg"},{"bike_id":"33bb16bb-5167-4bb6-95ef-aec3a1bd7aa2","system_id":"levelo_inurba_marseille","lat":43.31763,"lon":5.424276,"is_reserved":false,"is_disabled":false,"rental_uris":{"android":"levelo://app?vid=33bb16bb-5167-4bb6-95ef-aec3a1bd7aa2","ios":"levelo://app?vid=33bb16bb-5167-4bb6-95ef-aec3a1bd7aa2"},"vehicle_type_id":"4","last_reported":1752845379,"current_range_meters":4400,"station_id":"ce4bhp92rcd13ifvqhbg","pricing_plan_id":"cebpf4jnsgd1na2vs0mg"},{"bike_id":"962571da-5106-44af-8a29-b1bf39c98ca9","system_id":"levelo_inurba_marseille","lat":43.26572,"lon":5.39015,"is_reserved":false,"is_disabled":false,"rental_uris":{"android":"levelo://app?vid=962571da-5106-44af-8a29-b1bf39c98ca9","ios":"levelo://app?vid=962571da-5106-44af-8a29-b1bf39c98ca9"},"vehicle_type_id":"4","last_reported":1752845379,"current_range_meters":4400,"station_id":"ce4bhe12rcd13ifvqf30","pricing_plan_id":"cebpf4jnsgd1na2vs0mg"},{"bike_id":"ddb7d035-c658-4447-a0b0-9fbf2968e6f0","system_id":"levelo_inurba_marseille","lat":43.27318,"lon":5.39074,"is_reserved":false,"is_disabled":false,"rental_uris":{"android":"levelo://app?vid=ddb7d035-c658-4447-a0b0-9fbf2968e6f0","ios":"levelo://app?vid=ddb7d035-c658-4447-a0b0-9fbf2968e6f0"},"vehicle_type_id":"4","last_reported":1752845379,"current_range_meters":4000,"station_id":"ce4bhgp2rcd13ifvqfe0","pricing_plan_id":"cebpf4jnsgd1na2vs0mg"},{"bike_id":"185b49ac-a2cb-4856-952b-d131eea75416","system_id":"levelo_inurba_marseille","lat":43.30136,"lon":5.38055,"is_reserved":false,"is_disabled":false,"rental_uris":{"android":"levelo://app?vid=185b49ac-a2cb-4856-952b-d131eea75416","ios":"levelo://app?vid=185b49ac-a2cb-4856-952b-d131eea75416"},"vehicle_type_id":"4","last_reported":1752845379,"current_range_meters":4400,"station_id":"ce4bgjp2rcd13ifvqbh0","pricing_plan_id":"cebpf4jnsgd1na2vs0mg"},{"bike_id":"6919f8a9-9e4d-44a0-a1c6-2a5bf761196c","system_id":"levelo_inurba_marseille","lat":43.280447,"lon":5.36917,"is_reserved":false,"is_disabled":false,"rental_uris":{"android":"levelo://app?vid=6919f8a9-9e4d-44a0-a1c6-2a5bf761196c","ios":"levelo://app?vid=6919f8a9-9e4d-44a0-a1c6-2a5bf761196c"},"vehicle_type_id":"4","last_reported":1752845379,"current_range_meters":5600,"station_id":"ce4bha12rcd13ifvqef0","pricing_plan_id":"cebpf4jnsgd1na2vs0mg"},{"bike_id":"a4fd652b-34f8-4c68-a6e6-032a5cc5e418","system_id":"levelo_inurba_marseille","lat":43.312101,"lon":5.368567,"is_reserved":false,"is_disabled":false,"rental_uris":{"android":"levelo://app?vid=a4fd652b-34f8-4c68-a6e6-032a5cc5e418","ios":"levelo://app?vid=a4fd652b-34f8-4c68-a6e6-032a5cc5e418"},"vehicle_type_id":"4","last_reported":1752845379,"current_range_meters":6000,"station_id":"ce4bgl92rcd13ifvqbq0","pricing_plan_id":"cebpf4jnsgd1na2vs0mg"},{"bike_id":"116f00f2-b90d-4fbf-a0fb-dec19f088d8d","system_id":"levelo_inurba_marseille","lat":43.2901,"lon":5.356236,"is_reserved":false,"is_disabled":false,"rental_uris":{"android":"levelo://app?vid=116f00f2-b90d-4fbf-a0fb-dec19f088d8d","ios":"levelo://app?vid=116f00f2-b90d-4fbf-a0fb-dec19f088d8d"},"vehicle_type_id":"4","last_reported":1752845379,"current_range_meters":6000,"station_id":"ce4bhb92rcd13ifvqen0","pricing_plan_id":"cebpf4jnsgd1na2vs0mg"},{"bike_id":"87cce473-6e1d-4b5b-aca7-8e376480e160","system_id":"levelo_inurba_marseille","lat":43.29025,"lon":5.37579,"is_reserved":false,"is_disabled":false,"rental_uris":{"android":"levelo://app?vid=87cce473-6e1d-4b5b-aca7-8e376480e160","ios":"levelo://app?vid=87cce473-6e1d-4b5b-aca7-8e376480e160"},"vehicle_type_id":"4","last_reported":1752845379,"current_range_meters":6400,"station_id":"ce4bh692rcd13ifvqe90","pricing_plan_id":"cebpf4jnsgd1na2vs0mg"},{"bike_id":"81f88721-00d0-431c-83bf-446e11578408","system_id":"levelo_inurba_marseille","lat":43.225038,"lon":5.347854,"is_reserved":false,"is_disabled":false,"rental_uris":{"android":"levelo://app?vid=81f88721-00d0-431c-83bf-446e11578408","ios":"levelo://app?vid=81f88721-00d0-431c-83bf-446e11578408"},"vehicle_type_id":"4","last_reported":1752845379,"current_range_meters":6400,"station_id":"st_cvj5dfep6f1abm77gieg","pricing_plan_id":"cebpf4jnsgd1na2vs0mg"},{"bike_id":"9462f571-4b8d-4af2-b691-8c1118ea4204","system_id":"levelo_inurba_marseille","lat":43.29705,"lon":5.36607,"is_reserved":false,"is_disabled":false,"rental_uris":{"android":"levelo://app?vid=9462f571-4b8d-4af2-b691-8c1118ea4204","ios":"levelo://app?vid=9462f571-4b8d-4af2-b691-8c1118ea4204"},"vehicle_type_id":"4","last_reported":1752845379,"current_range_meters":6800,"station_id":"ce4bgn12rcd13ifvqbt0","pricing_plan_id":"cebpf4jnsgd1na2vs0mg"},{"bike_id":"297f8dc3-4642-4184-8069-6a643020a938","system_id":"levelo_inurba_marseille","lat":43.26952,"lon":5.38627,"is_reserved":false,"is_disabled":false,"rental_uris":{"android":"levelo://app?vid=297f8dc3-4642-4184-8069-6a643020a938","ios":"levelo://app?vid=297f8dc3-4642-4184-8069-6a643020a938"},"vehicle_type_id":"4","last_reported":1752845379,"current_range_meters":7200,"station_id":"ce4bhh92rcd13ifvqfh0","pricing_plan_id":"cebpf4jnsgd1na2vs0mg"},{"bike_id":"5bb2bd1b-8dab-4535-afea-fea337ba4064","system_id":"levelo_inurba_marseille","lat":43.29277,"lon":5.3684,"is_reserved":false,"is_disabled":false,"rental_uris":{"android":"levelo://app?vid=5bb2bd1b-8dab-4535-afea-fea337ba4064","ios":"levelo://app?vid=5bb2bd1b-8dab-4535-afea-fea337ba4064"},"vehicle_type_id":"4","last_reported":1752845379,"current_range_meters":7200,"station_id":"ce4bhbp2rcd13ifvqesg","pricing_plan_id":"cebpf4jnsgd1na2vs0mg"},{"bike_id":"41cedc46-3dbe-4dd1-9d5f-81eca1b2e0a7","system_id":"levelo_inurba_marseille","lat":43.26211,"lon":5.37447,"is_reserved":false,"is_disabled":false,"rental_uris":{"android":"levelo://app?vid=41cedc46-3dbe-4dd1-9d5f-81eca1b2e0a7","ios":"levelo://app?vid=41cedc46-3dbe-4dd1-9d5f-81eca1b2e0a7"},"vehicle_type_id":"4","last_reported":1752845379,"current_range_meters":7200,"station_id":"ce4bhgp2rcd13ifvqfc0","pricing_plan_id":"cebpf4jnsgd1na2vs0mg"},{"bike_id":"f859fbeb-1aa3-4df4-b962-d208704dfe30","system_id":"levelo_inurba_marseille","lat":43.23196,"lon":5.35562,"is_reserved":false,"is_disabled":false,"rental_uris":{"android":"levelo://app?vid=f859fbeb-1aa3-4df4-b962-d208704dfe30","ios":"levelo://app?vid=f859fbeb-1aa3-4df4-b962-d208704dfe30"},"vehicle_type_id":"4","last_reported":1752845379,"current_range_meters":8000,"station_id":"ce4bhu92rcd13ifvqi70","pricing_plan_id":"cebpf4jnsgd1na2vs0mg"},{"bike_id":"46633c71-3069-413b-8aee-6fcab410f81d","system_id":"levelo_inurba_marseille","lat":43.25419,"lon":5.37675,"is_reserved":false,"is_disabled":false,"rental_uris":{"android":"levelo://app?vid=46633c71-3069-413b-8aee-6fcab410f81d","ios":"levelo://app?vid=46633c71-3069-413b-8aee-6fcab410f81d"},"vehicle_type_id":"4","last_reported":1752845379,"current_range_meters":8000,"station_id":"ce4bhh12rcd13ifvqff0","pricing_plan_id":"cebpf4jnsgd1na2vs0mg"},{"bike_id":"537df271-1e3d-4ffc-ad70-ada379266803","system_id":"levelo_inurba_marseille","lat":43.217773,"lon":5.34606,"is_reserved":false,"is_disabled":false,"rental_uris":{"android":"levelo://app?vid=537df271-1e3d-4ffc-ad70-ada379266803","ios":"levelo://app?vid=537df271-1e3d-4ffc-ad70-ada379266803"},"vehicle_type_id":"4","last_reported":1752845379,"current_range_meters":8000,"station_id":"st_cvj6r9ubvosntc0bgbag","pricing_plan_id":"cebpf4jnsgd1na2vs0mg"},{"bike_id":"463f629f-c9b6-4e79-97a4-dc706543d47a","system_id":"levelo_inurba_marseille","lat":43.30528,"lon":5.36562,"is_reserved":false,"is_disabled":false,"rental_uris":{"android":"levelo://app?vid=463f629f-c9b6-4e79-97a4-dc706543d47a","ios":"levelo://app?vid=463f629f-c9b6-4e79-97a4-dc706543d47a"},"vehicle_type_id":"4","last_reported":1752845379,"current_range_meters":8000,"station_id":"ce4bgs12rcd13ifvqcag","pricing_plan_id":"cebpf4jnsgd1na2vs0mg"},{"bike_id":"4d45f1e9-194f-47b9-b021-5eab9e1c0b12","system_id":"levelo_inurba_marseille","lat":43.31183,"lon":5.36866,"is_reserved":false,"is_disabled":false,"rental_uris":{"android":"levelo://app?vid=4d45f1e9-194f-47b9-b021-5eab9e1c0b12","ios":"levelo://app?vid=4d45f1e9-194f-47b9-b021-5eab9e1c0b12"},"vehicle_type_id":"4","last_reported":1752845379,"current_range_meters":8000,"station_id":"ce4bgl92rcd13ifvqbq0","pricing_plan_id":"cebpf4jnsgd1na2vs0mg"},{"bike_id":"492a342b-8b39-40f5-a9e9-f57955cb0c52","system_id":"levelo_inurba_marseille","lat":43.28725,"lon":5.3608,"is_reserved":false,"is_disabled":false,"rental_uris":{"android":"levelo://app?vid=492a342b-8b39-40f5-a9e9-f57955cb0c52","ios":"levelo://app?vid=492a342b-8b39-40f5-a9e9-f57955cb0c52"},"vehicle_type_id":"4","last_reported":1752845379,"current_range_meters":7200,"station_id":"cki0cbj6b192h4jlfktg","pricing_plan_id":"cebpf4jnsgd1na2vs0mg"},{"bike_id":"e95b1477-33a1-48a7-a021-3878a6895222","system_id":"levelo_inurba_marseille","lat":43.21752,"lon":5.34595,"is_reserved":false,"is_disabled":false,"rental_uris":{"android":"levelo://app?vid=e95b1477-33a1-48a7-a021-3878a6895222","ios":"levelo://app?vid=e95b1477-33a1-48a7-a021-3878a6895222"},"vehicle_type_id":"4","last_reported":1752845379,"current_range_meters":8000,"station_id":"st_cvj6r9ubvosntc0bgbag","pricing_plan_id":"cebpf4jnsgd1na2vs0mg"},{"bike_id":"04d15a50-cb94-495c-969c-c09473f1fcda","system_id":"levelo_inurba_marseille","lat":43.296196,"lon":5.377039,"is_reserved":false,"is_disabled":true,"rental_uris":{"android":"levelo://app?vid=04d15a50-cb94-495c-969c-c09473f1fcda","ios":"levelo://app?vid=04d15a50-cb94-495c-969c-c09473f1fcda"},"vehicle_type_id":"4","last_reported":1752845379,"current_range_meters":8400,"station_id":"","pricing_plan_id":"cebpf4jnsgd1na2vs0mg"},{"bike_id":"3444bdc6-514a-4ba6-9650-f9073305e33d","system_id":"levelo_inurba_marseille","lat":43.29682,"lon":5.3698,"is_reserved":false,"is_disabled":false,"rental_uris":{"android":"levelo://app?vid=3444bdc6-514a-4ba6-9650-f9073305e33d","ios":"levelo://app?vid=3444bdc6-514a-4ba6-9650-f9073305e33d"},"vehicle_type_id":"4","last_reported":1752845379,"current_range_meters":8400,"station_id":"","pricing_plan_id":"cebpf4jnsgd1na2vs0mg"},{"bike_id":"8e6e1ca6-9684-4865-bcc2-4f4c40c74eff","system_id":"levelo_inurba_marseille","lat":43.29662,"lon":5.38767,"is_reserved":false,"is_disabled":false,"rental_uris":{"android":"levelo://app?vid=8e6e1ca6-9684-4865-bcc2-4f4c40c74eff","ios":"levelo://app?vid=8e6e1ca6-9684-4865-bcc2-4f4c40c74eff"},"vehicle_type_id":"4","last_reported":1752845379,"current_range_meters":8400,"station_id":"","pricing_plan_id":"cebpf4jnsgd1na2vs0mg"},{"bike_id":"555bc53e-5286-4fb6-9154-af42b3fd9792","system_id":"levelo_inurba_marseille","lat":43.30076,"lon":5.37289,"is_reserved":false,"is_disabled":false,"rental_uris":{"android":"levelo://app?vid=555bc53e-5286-4fb6-9154-af42b3fd9792","ios":"levelo://app?vid=555bc53e-5286-4fb6-9154-af42b3fd9792"},"vehicle_type_id":"4","last_reported":1752845379,"current_range_meters":8400,"station_id":"","pricing_plan_id":"cebpf4jnsgd1na2vs0mg"},{"bike_id":"d1b1ae6f-562f-42f0-a958-cbc912a1619d","system_id":"levelo_inurba_marseille","lat":43.27608,"lon":5.36108,"is_reserved":false,"is_disabled":true,"rental_uris":{"android":"levelo://app?vid=d1b1ae6f-562f-42f0-a958-cbc912a1619d","ios":"levelo://app?vid=d1b1ae6f-562f-42f0-a958-cbc912a1619d"},"vehicle_type_id":"4","last_reported":1752845379,"current_range_meters":8400,"station_id":"ce4bgj92rcd13ifvqbe0","pricing_plan_id":"cebpf4jnsgd1na2vs0mg"},{"bike_id":"73ba7542-4162-45d9-a9cf-6bfffb2a1c49","system_id":"levelo_inurba_marseille","lat":43.29256,"lon":5.36856,"is_reserved":false,"is_disabled":false,"rental_uris":{"android":"levelo://app?vid=73ba7542-4162-45d9-a9cf-6bfffb2a1c49","ios":"levelo://app?vid=73ba7542-4162-45d9-a9cf-6bfffb2a1c49"},"vehicle_type_id":"4","last_reported":1752845379,"current_range_meters":8400,"station_id":"ce4bhbp2rcd13ifvqesg","pricing_plan_id":"cebpf4jnsgd1na2vs0mg"},{"bike_id":"ae6d8102-8431-4d18-bb7b-702de6cd10f4","system_id":"levelo_inurba_marseille","lat":43.29002,"lon":5.35607,"is_reserved":false,"is_disabled":false,"rental_uris":{"android":"levelo://app?vid=ae6d8102-8431-4d18-bb7b-702de6cd10f4","ios":"levelo://app?vid=ae6d8102-8431-4d18-bb7b-702de6cd10f4"},"vehicle_type_id":"4","last_reported":1752845379,"current_range_meters":8800,"station_id":"ce4bhb92rcd13ifvqen0","pricing_plan_id":"cebpf4jnsgd1na2vs0mg"},{"bike_id":"28d27c17-e6ca-4cec-aec9-f1f6696b8a12","system_id":"levelo_inurba_marseille","lat":43.29929,"lon":5.43659,"is_reserved":false,"is_disabled":true,"rental_uris":{"android":"levelo://app?vid=28d27c17-e6ca-4cec-aec9-f1f6696b8a12","ios":"levelo://app?vid=28d27c17-e6ca-4cec-aec9-f1f6696b8a12"},"vehicle_type_id":"4","last_reported":1752845379,"current_range_meters":8800,"station_id":"","pricing_plan_id":"cebpf4jnsgd1na2vs0mg"},{"bike_id":"b315058f-ef7a-41a0-b37b-bd541cf7a96e","system_id":"levelo_inurba_marseille","lat":43.21751,"lon":5.34586,"is_reserved":false,"is_disabled":false,"rental_uris":{"android":"levelo://app?vid=b315058f-ef7a-41a0-b37b-bd541cf7a96e","ios":"levelo://app?vid=b315058f-ef7a-41a0-b37b-bd541cf7a96e"},"vehicle_type_id":"4","last_reported":1752845379,"current_range_meters":9200,"station_id":"st_cvj6r9ubvosntc0bgbag","pricing_plan_id":"cebpf4jnsgd1na2vs0mg"},{"bike_id":"79e00cba-979b-4370-b320-7e4857db9893","system_id":"levelo_inurba_marseille","lat":43.337444,"lon":5.374475,"is_reserved":false,"is_disabled":false,"rental_uris":{"android":"levelo://app?vid=79e00cba-979b-4370-b320-7e4857db9893","ios":"levelo://app?vid=79e00cba-979b-4370-b320-7e4857db9893"},"vehicle_type_id":"4","last_reported":1752845379,"current_range_meters":9200,"station_id":"","pricing_plan_id":"cebpf4jnsgd1na2vs0mg"},{"bike_id":"2010158f-76c1-4289-bd0b-d98a5437380a","system_id":"levelo_inurba_marseille","lat":43.31077,"lon":5.38348,"is_reserved":false,"is_disabled":false,"rental_uris":{"android":"levelo://app?vid=2010158f-76c1-4289-bd0b-d98a5437380a","ios":"levelo://app?vid=2010158f-76c1-4289-bd0b-d98a5437380a"},"vehicle_type_id":"4","last_reported":1752845379,"current_range_meters":9200,"station_id":"ce4bgv92rcd13ifvqcr0","pricing_plan_id":"cebpf4jnsgd1na2vs0mg"},{"bike_id":"2450bd03-be48-47f8-991a-1fc11dfcf078","system_id":"levelo_inurba_marseille","lat":43.24997,"lon":5.38932,"is_reserved":false,"is_disabled":false,"rental_uris":{"android":"levelo://app?vid=2450bd03-be48-47f8-991a-1fc11dfcf078","ios":"levelo://app?vid=2450bd03-be48-47f8-991a-1fc11dfcf078"},"vehicle_type_id":"4","last_reported":1752845379,"current_range_meters":9200,"station_id":"ce4bhgp2rcd13ifvqfd0","pricing_plan_id":"cebpf4jnsgd1na2vs0mg"},{"bike_id":"d1e94785-07c9-4567-977b-a1d086ccac8d","system_id":"levelo_inurba_marseille","lat":43.298997,"lon":5.436751,"is_reserved":false,"is_disabled":false,"rental_uris":{"android":"levelo://app?vid=d1e94785-07c9-4567-977b-a1d086ccac8d","ios":"levelo://app?vid=d1e94785-07c9-4567-977b-a1d086ccac8d"},"vehicle_type_id":"4","last_reported":1752845379,"current_range_meters":9600,"station_id":"ce4bhpp2rcd13ifvqhfg","pricing_plan_id":"cebpf4jnsgd1na2vs0mg"},{"bike_id":"fcf6bcb0-9b9c-4467-80b0-a4f81180fc24","system_id":"levelo_inurba_marseille","lat":43.30542,"lon":5.36559,"is_reserved":false,"is_disabled":false,"rental_uris":{"android":"levelo://app?vid=fcf6bcb0-9b9c-4467-80b0-a4f81180fc24","ios":"levelo://app?vid=fcf6bcb0-9b9c-4467-80b0-a4f81180fc24"},"vehicle_type_id":"4","last_reported":1752845379,"current_range_meters":9600,"station_id":"ce4bgs12rcd13ifvqcag","pricing_plan_id":"cebpf4jnsgd1na2vs0mg"},{"bike_id":"03a96cae-a45b-464d-a020-7fe1cf643dd0","system_id":"levelo_inurba_marseille","lat":43.27628,"lon":5.36103,"is_reserved":false,"is_disabled":false,"rental_uris":{"android":"levelo://app?vid=03a96cae-a45b-464d-a020-7fe1cf643dd0","ios":"levelo://app?vid=03a96cae-a45b-464d-a020-7fe1cf643dd0"},"vehicle_type_id":"4","last_reported":1752845379,"current_range_meters":9600,"station_id":"ce4bgj92rcd13ifvqbe0","pricing_plan_id":"cebpf4jnsgd1na2vs0mg"},{"bike_id":"07f5ae19-0925-43ef-aab4-48ec58bc62b9","system_id":"levelo_inurba_marseille","lat":43.31447,"lon":5.37461,"is_reserved":false,"is_disabled":false,"rental_uris":{"android":"levelo://app?vid=07f5ae19-0925-43ef-aab4-48ec58bc62b9","ios":"levelo://app?vid=07f5ae19-0925-43ef-aab4-48ec58bc62b9"},"vehicle_type_id":"4","last_reported":1752845379,"current_range_meters":9600,"station_id":"","pricing_plan_id":"cebpf4jnsgd1na2vs0mg"},{"bike_id":"b861e845-045e-4bb7-9260-06d3fafca4ef","system_id":"levelo_inurba_marseille","lat":43.298988,"lon":5.436755,"is_reserved":false,"is_disabled":false,"rental_uris":{"android":"levelo://app?vid=b861e845-045e-4bb7-9260-06d3fafca4ef","ios":"levelo://app?vid=b861e845-045e-4bb7-9260-06d3fafca4ef"},"vehicle_type_id":"4","last_reported":1752845379,"current_range_meters":10000,"station_id":"ce4bhpp2rcd13ifvqhfg","pricing_plan_id":"cebpf4jnsgd1na2vs0mg"},{"bike_id":"05a49a86-21b9-49c1-b3d7-44eb8c904301","system_id":"levelo_inurba_marseille","lat":43.29888,"lon":5.43667,"is_reserved":false,"is_disabled":false,"rental_uris":{"android":"levelo://app?vid=05a49a86-21b9-49c1-b3d7-44eb8c904301","ios":"levelo://app?vid=05a49a86-21b9-49c1-b3d7-44eb8c904301"},"vehicle_type_id":"4","last_reported":1752845379,"current_range_meters":10000,"station_id":"ce4bhpp2rcd13ifvqhfg","pricing_plan_id":"cebpf4jnsgd1na2vs0mg"},{"bike_id":"1c602dda-7702-4336-b4cc-56fc915a6c70","system_id":"levelo_inurba_marseille","lat":43.29968,"lon":5.38499,"is_reserved":false,"is_disabled":false,"rental_uris":{"android":"levelo://app?vid=1c602dda-7702-4336-b4cc-56fc915a6c70","ios":"levelo://app?vid=1c602dda-7702-4336-b4cc-56fc915a6c70"},"vehicle_type_id":"4","last_reported":1752845379,"current_range_meters":10000,"station_id":"ce4bgj92rcd13ifvqbd0","pricing_plan_id":"cebpf4jnsgd1na2vs0mg"},{"bike_id":"466f6b6f-6937-4b7c-b5a9-880e4053a5ae","system_id":"levelo_inurba_marseille","lat":43.29008,"lon":5.35612,"is_reserved":false,"is_disabled":false,"rental_uris":{"android":"levelo://app?vid=466f6b6f-6937-4b7c-b5a9-880e4053a5ae","ios":"levelo://app?vid=466f6b6f-6937-4b7c-b5a9-880e4053a5ae"},"vehicle_type_id":"4","last_reported":1752845379,"current_range_meters":9600,"station_id":"ce4bhb92rcd13ifvqen0","pricing_plan_id":"cebpf4jnsgd1na2vs0mg"},{"bike_id":"57ca2415-4331-49b1-89cc-de5f8e97de7e","system_id":"levelo_inurba_marseille","lat":43.30205,"lon":5.39473,"is_reserved":false,"is_disabled":false,"rental_uris":{"android":"levelo://app?vid=57ca2415-4331-49b1-89cc-de5f8e97de7e","ios":"levelo://app?vid=57ca2415-4331-49b1-89cc-de5f8e97de7e"},"vehicle_type_id":"4","last_reported":1752845379,"current_range_meters":10800,"station_id":"ce4bh0p2rcd13ifvqd70","pricing_plan_id":"cebpf4jnsgd1na2vs0mg"},{"bike_id":"2ac93549-5c94-4228-8eea-782a21384d10","system_id":"levelo_inurba_marseille","lat":43.29634,"lon":5.37793,"is_reserved":false,"is_disabled":false,"rental_uris":{"android":"levelo://app?vid=2ac93549-5c94-4228-8eea-782a21384d10","ios":"levelo://app?vid=2ac93549-5c94-4228-8eea-782a21384d10"},"vehicle_type_id":"4","last_reported":1752845379,"current_range_meters":10800,"station_id":"","pricing_plan_id":"cebpf4jnsgd1na2vs0mg"},{"bike_id":"cd9a60f5-5530-410e-8694-cc5564cdeb30","system_id":"levelo_inurba_marseille","lat":43.28487,"lon":5.38418,"is_reserved":false,"is_disabled":false,"rental_uris":{"android":"levelo://app?vid=cd9a60f5-5530-410e-8694-cc5564cdeb30","ios":"levelo://app?vid=cd9a60f5-5530-410e-8694-cc5564cdeb30"},"vehicle_type_id":"4","last_reported":1752845379,"current_range_meters":10800,"station_id":"ce4bh512rcd13ifvqe3g","pricing_plan_id":"cebpf4jnsgd1na2vs0mg"},{"bike_id":"5d95e05b-5d6f-4b0c-9387-1464fc6517b3","system_id":"levelo_inurba_marseille","lat":43.25491,"lon":5.37645,"is_reserved":false,"is_disabled":false,"rental_uris":{"android":"levelo://app?vid=5d95e05b-5d6f-4b0c-9387-1464fc6517b3","ios":"levelo://app?vid=5d95e05b-5d6f-4b0c-9387-1464fc6517b3"},"vehicle_type_id":"4","last_reported":1752845379,"current_range_meters":11200,"station_id":"ce4bhh12rcd13ifvqff0","pricing_plan_id":"cebpf4jnsgd1na2vs0mg"},{"bike_id":"4f1479a2-b7a2-44af-ad07-a1a455e5ee1e","system_id":"levelo_inurba_marseille","lat":43.27616,"lon":5.36104,"is_reserved":false,"is_disabled":false,"rental_uris":{"android":"levelo://app?vid=4f1479a2-b7a2-44af-ad07-a1a455e5ee1e","ios":"levelo://app?vid=4f1479a2-b7a2-44af-ad07-a1a455e5ee1e"},"vehicle_type_id":"4","last_reported":1752845379,"current_range_meters":11200,"station_id":"ce4bgj92rcd13ifvqbe0","pricing_plan_id":"cebpf4jnsgd1na2vs0mg"},{"bike_id":"802a5d0b-ef38-48ed-9f9c-da6a392a4bc2","system_id":"levelo_inurba_marseille","lat":43.287211,"lon":5.360787,"is_reserved":false,"is_disabled":false,"rental_uris":{"android":"levelo://app?vid=802a5d0b-ef38-48ed-9f9c-da6a392a4bc2","ios":"levelo://app?vid=802a5d0b-ef38-48ed-9f9c-da6a392a4bc2"},"vehicle_type_id":"4","last_reported":1752845379,"current_range_meters":11200,"station_id":"cki0cbj6b192h4jlfktg","pricing_plan_id":"cebpf4jnsgd1na2vs0mg"},{"bike_id":"6dc91733-f085-4047-b903-e2e2642fb516","system_id":"levelo_inurba_marseille","lat":43.31483,"lon":5.37309,"is_reserved":false,"is_disabled":false,"rental_uris":{"android":"levelo://app?vid=6dc91733-f085-4047-b903-e2e2642fb516","ios":"levelo://app?vid=6dc91733-f085-4047-b903-e2e2642fb516"},"vehicle_type_id":"4","last_reported":1752845379,"current_range_meters":10800,"station_id":"ce4bgt12rcd13ifvqcd0","pricing_plan_id":"cebpf4jnsgd1na2vs0mg"},{"bike_id":"9980ee6c-1e79-4af5-9f93-7034618b081a","system_id":"levelo_inurba_marseille","lat":43.305529,"lon":5.367227,"is_reserved":false,"is_disabled":true,"rental_uris":{"android":"levelo://app?vid=9980ee6c-1e79-4af5-9f93-7034618b081a","ios":"levelo://app?vid=9980ee6c-1e79-4af5-9f93-7034618b081a"},"vehicle_type_id":"4","last_reported":1752845379,"current_range_meters":11200,"station_id":"ce4bgrp2rcd13ifvqc9g","pricing_plan_id":"cebpf4jnsgd1na2vs0mg"},{"bike_id":"da891840-0cec-4ccc-961c-48903736c6fa","system_id":"levelo_inurba_marseille","lat":43.31139,"lon":5.37692,"is_reserved":false,"is_disabled":false,"rental_uris":{"android":"levelo://app?vid=da891840-0cec-4ccc-961c-48903736c6fa","ios":"levelo://app?vid=da891840-0cec-4ccc-961c-48903736c6fa"},"vehicle_type_id":"4","last_reported":1752845379,"current_range_meters":11200,"station_id":"","pricing_plan_id":"cebpf4jnsgd1na2vs0mg"},{"bike_id":"80dd3d4d-f5a7-407b-b6a9-8710a4dc9cdd","system_id":"levelo_inurba_marseille","lat":43.246582,"lon":5.381693,"is_reserved":false,"is_disabled":false,"rental_uris":{"android":"levelo://app?vid=80dd3d4d-f5a7-407b-b6a9-8710a4dc9cdd","ios":"levelo://app?vid=80dd3d4d-f5a7-407b-b6a9-8710a4dc9cdd"},"vehicle_type_id":"4","last_reported":1752845379,"current_range_meters":10800,"station_id":"ce4bhih2rcd13ifvqfr0","pricing_plan_id":"cebpf4jnsgd1na2vs0mg"},{"bike_id":"497d553d-7196-4c75-8289-1a27b8457752","system_id":"levelo_inurba_marseille","lat":43.28614,"lon":5.35105,"is_reserved":false,"is_disabled":false,"rental_uris":{"android":"levelo://app?vid=497d553d-7196-4c75-8289-1a27b8457752","ios":"levelo://app?vid=497d553d-7196-4c75-8289-1a27b8457752"},"vehicle_type_id":"4","last_reported":1752845379,"current_range_meters":11200,"station_id":"ce4bhch2rcd13ifvqeug","pricing_plan_id":"cebpf4jnsgd1na2vs0mg"},{"bike_id":"e22ce3f5-a4dc-4946-9662-b7a6cc6b98cd","system_id":"levelo_inurba_marseille","lat":43.251142,"lon":5.403199,"is_reserved":false,"is_disabled":false,"rental_uris":{"android":"levelo://app?vid=e22ce3f5-a4dc-4946-9662-b7a6cc6b98cd","ios":"levelo://app?vid=e22ce3f5-a4dc-4946-9662-b7a6cc6b98cd"},"vehicle_type_id":"4","last_reported":1752845379,"current_range_meters":11200,"station_id":"ce4bhlh2rcd13ifvqgig","pricing_plan_id":"cebpf4jnsgd1na2vs0mg"},{"bike_id":"8d636c2b-3039-4010-9ad3-43725312930f","system_id":"levelo_inurba_marseille","lat":43.29869,"lon":5.397277,"is_reserved":false,"is_disabled":false,"rental_uris":{"android":"levelo://app?vid=8d636c2b-3039-4010-9ad3-43725312930f","ios":"levelo://app?vid=8d636c2b-3039-4010-9ad3-43725312930f"},"vehicle_type_id":"4","last_reported":1752845379,"current_range_meters":11200,"station_id":"ce4bh0h2rcd13ifvqd50","pricing_plan_id":"cebpf4jnsgd1na2vs0mg"},{"bike_id":"e555b545-304c-4dce-8496-1643c0f2600e","system_id":"levelo_inurba_marseille","lat":43.337444,"lon":5.374475,"is_reserved":false,"is_disabled":false,"rental_uris":{"android":"levelo://app?vid=e555b545-304c-4dce-8496-1643c0f2600e","ios":"levelo://app?vid=e555b545-304c-4dce-8496-1643c0f2600e"},"vehicle_type_id":"4","last_reported":1752845379,"current_range_meters":11200,"station_id":"","pricing_plan_id":"cebpf4jnsgd1na2vs0mg"},{"bike_id":"9c837b99-081f-4caa-a8a3-7d6dc61e9d18","system_id":"levelo_inurba_marseille","lat":43.230644,"lon":5.354927,"is_reserved":false,"is_disabled":false,"rental_uris":{"android":"levelo://app?vid=9c837b99-081f-4caa-a8a3-7d6dc61e9d18","ios":"levelo://app?vid=9c837b99-081f-4caa-a8a3-7d6dc61e9d18"},"vehicle_type_id":"4","last_reported":1752845379,"current_range_meters":11600,"station_id":"cpo3342slgdg3j2ifvpg","pricing_plan_id":"cebpf4jnsgd1na2vs0mg"},{"bike_id":"255f63b3-d391-461e-9168-7b692342f2c5","system_id":"levelo_inurba_marseille","lat":43.21191,"lon":5.350745,"is_reserved":false,"is_disabled":false,"rental_uris":{"android":"levelo://app?vid=255f63b3-d391-461e-9168-7b692342f2c5","ios":"levelo://app?vid=255f63b3-d391-461e-9168-7b692342f2c5"},"vehicle_type_id":"4","last_reported":1752845379,"current_range_meters":11600,"station_id":"st_cvj6sg6p6f1abm77japg","pricing_plan_id":"cebpf4jnsgd1na2vs0mg"},{"bike_id":"78542920-49e9-40fe-96d3-993dfcd08813","system_id":"levelo_inurba_marseille","lat":43.28611,"lon":5.37064,"is_reserved":false,"is_disabled":false,"rental_uris":{"android":"levelo://app?vid=78542920-49e9-40fe-96d3-993dfcd08813","ios":"levelo://app?vid=78542920-49e9-40fe-96d3-993dfcd08813"},"vehicle_type_id":"4","last_reported":1752845379,"current_range_meters":11600,"station_id":"ce4bht12rcd13ifvqi60","pricing_plan_id":"cebpf4jnsgd1na2vs0mg"},{"bike_id":"531dca68-8617-41b0-a6cd-abffc94e1d45","system_id":"levelo_inurba_marseille","lat":43.3119,"lon":5.37351,"is_reserved":false,"is_disabled":false,"rental_uris":{"android":"levelo://app?vid=531dca68-8617-41b0-a6cd-abffc94e1d45","ios":"levelo://app?vid=531dca68-8617-41b0-a6cd-abffc94e1d45"},"vehicle_type_id":"4","last_reported":1752845379,"current_range_meters":11600,"station_id":"","pricing_plan_id":"cebpf4jnsgd1na2vs0mg"},{"bike_id":"0d87ca24-976c-4967-995f-815e40a697aa","system_id":"levelo_inurba_marseille","lat":43.32116,"lon":5.36781,"is_reserved":false,"is_disabled":false,"rental_uris":{"android":"levelo://app?vid=0d87ca24-976c-4967-995f-815e40a697aa","ios":"levelo://app?vid=0d87ca24-976c-4967-995f-815e40a697aa"},"vehicle_type_id":"4","last_reported":1752845379,"current_range_meters":12000,"station_id":"ce4bhrh2rcd13ifvqhug","pricing_plan_id":"cebpf4jnsgd1na2vs0mg"},{"bike_id":"dcf92b68-f28c-492f-b52a-170d73e2a7d5","system_id":"levelo_inurba_marseille","lat":43.2795,"lon":5.41041,"is_reserved":false,"is_disabled":false,"rental_uris":{"android":"levelo://app?vid=dcf92b68-f28c-492f-b52a-170d73e2a7d5","ios":"levelo://app?vid=dcf92b68-f28c-492f-b52a-170d73e2a7d5"},"vehicle_type_id":"4","last_reported":1752845379,"current_range_meters":12000,"station_id":"ce4bhnp2rcd13ifvqh0g","pricing_plan_id":"cebpf4jnsgd1na2vs0mg"},{"bike_id":"04d92065-80a0-4661-bcef-a922390ebdd1","system_id":"levelo_inurba_marseille","lat":43.22931,"lon":5.35375,"is_reserved":false,"is_disabled":false,"rental_uris":{"android":"levelo://app?vid=04d92065-80a0-4661-bcef-a922390ebdd1","ios":"levelo://app?vid=04d92065-80a0-4661-bcef-a922390ebdd1"},"vehicle_type_id":"4","last_reported":1752845379,"current_range_meters":12000,"station_id":"cpo3532slgdg3j2ikp40","pricing_plan_id":"cebpf4jnsgd1na2vs0mg"},{"bike_id":"30aaa527-b5d8-48c8-ba50-453cf21ddd86","system_id":"levelo_inurba_marseille","lat":43.292969,"lon":5.374297,"is_reserved":false,"is_disabled":false,"rental_uris":{"android":"levelo://app?vid=30aaa527-b5d8-48c8-ba50-453cf21ddd86","ios":"levelo://app?vid=30aaa527-b5d8-48c8-ba50-453cf21ddd86"},"vehicle_type_id":"4","last_reported":1752845379,"current_range_meters":12000,"station_id":"","pricing_plan_id":"cebpf4jnsgd1na2vs0mg"},{"bike_id":"e54582ed-ba92-4640-a97f-9e97144ce87f","system_id":"levelo_inurba_marseille","lat":43.32269,"lon":5.40648,"is_reserved":false,"is_disabled":false,"rental_uris":{"android":"levelo://app?vid=e54582ed-ba92-4640-a97f-9e97144ce87f","ios":"levelo://app?vid=e54582ed-ba92-4640-a97f-9e97144ce87f"},"vehicle_type_id":"4","last_reported":1752845379,"current_range_meters":12000,"station_id":"","pricing_plan_id":"cebpf4jnsgd1na2vs0mg"},{"bike_id":"9f041b94-e113-43f5-aa08-88e68c5302ee","system_id":"levelo_inurba_marseille","lat":43.305526,"lon":5.365672,"is_reserved":false,"is_disabled":false,"rental_uris":{"android":"levelo://app?vid=9f041b94-e113-43f5-aa08-88e68c5302ee","ios":"levelo://app?vid=9f041b94-e113-43f5-aa08-88e68c5302ee"},"vehicle_type_id":"4","last_reported":1752845379,"current_range_meters":12400,"station_id":"ce4bgs12rcd13ifvqcag","pricing_plan_id":"cebpf4jnsgd1na2vs0mg"},{"bike_id":"700f2f1f-d5d4-4e84-82ba-2de722855a24","system_id":"levelo_inurba_marseille","lat":43.31057,"lon":5.39635,"is_reserved":false,"is_disabled":false,"rental_uris":{"android":"levelo://app?vid=700f2f1f-d5d4-4e84-82ba-2de722855a24","ios":"levelo://app?vid=700f2f1f-d5d4-4e84-82ba-2de722855a24"},"vehicle_type_id":"4","last_reported":1752845379,"current_range_meters":12000,"station_id":"ce4bgjh2rcd13ifvqbf0","pricing_plan_id":"cebpf4jnsgd1na2vs0mg"},{"bike_id":"31d443a1-4ad1-4a72-ae37-7a7761dd81bf","system_id":"levelo_inurba_marseille","lat":43.337444,"lon":5.374475,"is_reserved":false,"is_disabled":false,"rental_uris":{"android":"levelo://app?vid=31d443a1-4ad1-4a72-ae37-7a7761dd81bf","ios":"levelo://app?vid=31d443a1-4ad1-4a72-ae37-7a7761dd81bf"},"vehicle_type_id":"4","last_reported":1752845379,"current_range_meters":12400,"station_id":"","pricing_plan_id":"cebpf4jnsgd1na2vs0mg"},{"bike_id":"9b7a5c76-646b-47e4-9aaf-9e0ac1e776a5","system_id":"levelo_inurba_marseille","lat":43.269393,"lon":5.402518,"is_reserved":false,"is_disabled":false,"rental_uris":{"android":"levelo://app?vid=9b7a5c76-646b-47e4-9aaf-9e0ac1e776a5","ios":"levelo://app?vid=9b7a5c76-646b-47e4-9aaf-9e0ac1e776a5"},"vehicle_type_id":"4","last_reported":1752845379,"current_range_meters":12400,"station_id":"","pricing_plan_id":"cebpf4jnsgd1na2vs0mg"},{"bike_id":"6eb9e6cb-86d6-4119-8702-04b062a7d664","system_id":"levelo_inurba_marseille","lat":43.31127,"lon":5.393835,"is_reserved":false,"is_disabled":false,"rental_uris":{"android":"levelo://app?vid=6eb9e6cb-86d6-4119-8702-04b062a7d664","ios":"levelo://app?vid=6eb9e6cb-86d6-4119-8702-04b062a7d664"},"vehicle_type_id":"4","last_reported":1752845379,"current_range_meters":12400,"station_id":"ce4bhqp2rcd13ifvqhng","pricing_plan_id":"cebpf4jnsgd1na2vs0mg"},{"bike_id":"842389b3-d97a-40d8-965e-c686d792b490","system_id":"levelo_inurba_marseille","lat":43.25592,"lon":5.38238,"is_reserved":false,"is_disabled":false,"rental_uris":{"android":"levelo://app?vid=842389b3-d97a-40d8-965e-c686d792b490","ios":"levelo://app?vid=842389b3-d97a-40d8-965e-c686d792b490"},"vehicle_type_id":"4","last_reported":1752845379,"current_range_meters":12400,"station_id":"ce4bhih2rcd13ifvqfs0","pricing_plan_id":"cebpf4jnsgd1na2vs0mg"},{"bike_id":"9926ebb3-b641-4ad8-afc5-63a07c72a680","system_id":"levelo_inurba_marseille","lat":43.30603,"lon":5.37215,"is_reserved":false,"is_disabled":false,"rental_uris":{"android":"levelo://app?vid=9926ebb3-b641-4ad8-afc5-63a07c72a680","ios":"levelo://app?vid=9926ebb3-b641-4ad8-afc5-63a07c72a680"},"vehicle_type_id":"4","last_reported":1752845379,"current_range_meters":12400,"station_id":"ce4bgqh2rcd13ifvqc4g","pricing_plan_id":"cebpf4jnsgd1na2vs0mg"},{"bike_id":"3e3ea796-dba7-4b02-b380-ab58b77a4b41","system_id":"levelo_inurba_marseille","lat":43.323608,"lon":5.367611,"is_reserved":false,"is_disabled":false,"rental_uris":{"android":"levelo://app?vid=3e3ea796-dba7-4b02-b380-ab58b77a4b41","ios":"levelo://app?vid=3e3ea796-dba7-4b02-b380-ab58b77a4b41"},"vehicle_type_id":"4","last_reported":1752845379,"current_range_meters":12800,"station_id":"ce4bhsh2rcd13ifvqi2g","pricing_plan_id":"cebpf4jnsgd1na2vs0mg"},{"bike_id":"396812a8-7b2d-4625-bca2-0e30528d0c67","system_id":"levelo_inurba_marseille","lat":43.28718,"lon":5.37934,"is_reserved":false,"is_disabled":false,"rental_uris":{"android":"levelo://app?vid=396812a8-7b2d-4625-bca2-0e30528d0c67","ios":"levelo://app?vid=396812a8-7b2d-4625-bca2-0e30528d0c67"},"vehicle_type_id":"4","last_reported":1752845379,"current_range_meters":12800,"station_id":"ce4bh9p2rcd13ifvqec0","pricing_plan_id":"cebpf4jnsgd1na2vs0mg"},{"bike_id":"b0dbc01d-301d-4282-821f-60d94a2f589d","system_id":"levelo_inurba_marseille","lat":43.28266,"lon":5.35066,"is_reserved":false,"is_disabled":false,"rental_uris":{"android":"levelo://app?vid=b0dbc01d-301d-4282-821f-60d94a2f589d","ios":"levelo://app?vid=b0dbc01d-301d-4282-821f-60d94a2f589d"},"vehicle_type_id":"4","last_reported":1752845379,"current_range_meters":13600,"station_id":"ce4bhbp2rcd13ifvqerg","pricing_plan_id":"cebpf4jnsgd1na2vs0mg"},{"bike_id":"b004baab-db70-453e-84a5-9312df4bd1d6","system_id":"levelo_inurba_marseille","lat":43.22496,"lon":5.34788,"is_reserved":false,"is_disabled":false,"rental_uris":{"android":"levelo://app?vid=b004baab-db70-453e-84a5-9312df4bd1d6","ios":"levelo://app?vid=b004baab-db70-453e-84a5-9312df4bd1d6"},"vehicle_type_id":"4","last_reported":1752845379,"current_range_meters":13600,"station_id":"st_cvj5dfep6f1abm77gieg","pricing_plan_id":"cebpf4jnsgd1na2vs0mg"},{"bike_id":"11382d84-ab38-44cd-808b-dcc900887fd0","system_id":"levelo_inurba_marseille","lat":43.30552,"lon":5.36543,"is_reserved":false,"is_disabled":false,"rental_uris":{"android":"levelo://app?vid=11382d84-ab38-44cd-808b-dcc900887fd0","ios":"levelo://app?vid=11382d84-ab38-44cd-808b-dcc900887fd0"},"vehicle_type_id":"4","last_reported":1752845379,"current_range_meters":13600,"station_id":"ce4bgs12rcd13ifvqcag","pricing_plan_id":"cebpf4jnsgd1na2vs0mg"},{"bike_id":"c657eca0-7786-4d09-a568-d94b65f566c7","system_id":"levelo_inurba_marseille","lat":43.239665,"lon":5.366264,"is_reserved":false,"is_disabled":false,"rental_uris":{"android":"levelo://app?vid=c657eca0-7786-4d09-a568-d94b65f566c7","ios":"levelo://app?vid=c657eca0-7786-4d09-a568-d94b65f566c7"},"vehicle_type_id":"4","last_reported":1752845379,"current_range_meters":13600,"station_id":"ce4bhi12rcd13ifvqfp0","pricing_plan_id":"cebpf4jnsgd1na2vs0mg"},{"bike_id":"1102e05f-f06e-414c-bc25-de937d56cb18","system_id":"levelo_inurba_marseille","lat":43.30279,"lon":5.37703,"is_reserved":false,"is_disabled":false,"rental_uris":{"android":"levelo://app?vid=1102e05f-f06e-414c-bc25-de937d56cb18","ios":"levelo://app?vid=1102e05f-f06e-414c-bc25-de937d56cb18"},"vehicle_type_id":"4","last_reported":1752845379,"current_range_meters":13600,"station_id":"ce4bguh2rcd13ifvqcj0","pricing_plan_id":"cebpf4jnsgd1na2vs0mg"},{"bike_id":"c6db0f6a-96fe-4e1d-8ded-c2ef38c9bab4","system_id":"levelo_inurba_marseille","lat":43.304183,"lon":5.412838,"is_reserved":false,"is_disabled":true,"rental_uris":{"android":"levelo://app?vid=c6db0f6a-96fe-4e1d-8ded-c2ef38c9bab4","ios":"levelo://app?vid=c6db0f6a-96fe-4e1d-8ded-c2ef38c9bab4"},"vehicle_type_id":"4","last_reported":1752845379,"current_range_meters":14000,"station_id":"ce4bhop2rcd13ifvqh8g","pricing_plan_id":"cebpf4jnsgd1na2vs0mg"},{"bike_id":"ef00ee27-9bf1-40a6-9b06-b88795860856","system_id":"levelo_inurba_marseille","lat":43.29878,"lon":5.39731,"is_reserved":false,"is_disabled":false,"rental_uris":{"android":"levelo://app?vid=ef00ee27-9bf1-40a6-9b06-b88795860856","ios":"levelo://app?vid=ef00ee27-9bf1-40a6-9b06-b88795860856"},"vehicle_type_id":"4","last_reported":1752845379,"current_range_meters":14000,"station_id":"ce4bh0h2rcd13ifvqd50","pricing_plan_id":"cebpf4jnsgd1na2vs0mg"},{"bike_id":"8e79a85b-71cd-44e2-9769-4ad285ff7c49","system_id":"levelo_inurba_marseille","lat":43.21749,"lon":5.34599,"is_reserved":false,"is_disabled":false,"rental_uris":{"android":"levelo://app?vid=8e79a85b-71cd-44e2-9769-4ad285ff7c49","ios":"levelo://app?vid=8e79a85b-71cd-44e2-9769-4ad285ff7c49"},"vehicle_type_id":"4","last_reported":1752845379,"current_range_meters":14000,"station_id":"st_cvj6r9ubvosntc0bgbag","pricing_plan_id":"cebpf4jnsgd1na2vs0mg"},{"bike_id":"01e4066f-4cdc-49dc-864a-c6bc39f187ae","system_id":"levelo_inurba_marseille","lat":43.271854,"lon":5.362776,"is_reserved":false,"is_disabled":false,"rental_uris":{"android":"levelo://app?vid=01e4066f-4cdc-49dc-864a-c6bc39f187ae","ios":"levelo://app?vid=01e4066f-4cdc-49dc-864a-c6bc39f187ae"},"vehicle_type_id":"4","last_reported":1752845379,"current_range_meters":14000,"station_id":"","pricing_plan_id":"cebpf4jnsgd1na2vs0mg"},{"bike_id":"f2484167-4c38-4146-abfd-ae6dfd486cbc","system_id":"levelo_inurba_marseille","lat":43.28417,"lon":5.34989,"is_reserved":false,"is_disabled":false,"rental_uris":{"android":"levelo://app?vid=f2484167-4c38-4146-abfd-ae6dfd486cbc","ios":"levelo://app?vid=f2484167-4c38-4146-abfd-ae6dfd486cbc"},"vehicle_type_id":"4","last_reported":1752845379,"current_range_meters":14000,"station_id":"ce4bhbh2rcd13ifvqepg","pricing_plan_id":"cebpf4jnsgd1na2vs0mg"},{"bike_id":"be60c88c-1453-4626-be80-200258f79626","system_id":"levelo_inurba_marseille","lat":43.231887,"lon":5.355485,"is_reserved":false,"is_disabled":false,"rental_uris":{"android":"levelo://app?vid=be60c88c-1453-4626-be80-200258f79626","ios":"levelo://app?vid=be60c88c-1453-4626-be80-200258f79626"},"vehicle_type_id":"4","last_reported":1752845379,"current_range_meters":14000,"station_id":"ce4bhu92rcd13ifvqi70","pricing_plan_id":"cebpf4jnsgd1na2vs0mg"},{"bike_id":"ce7bd25b-5213-4881-a28b-f582e6a1d712","system_id":"levelo_inurba_marseille","lat":43.3138,"lon":5.36699,"is_reserved":false,"is_disabled":true,"rental_uris":{"android":"levelo://app?vid=ce7bd25b-5213-4881-a28b-f582e6a1d712","ios":"levelo://app?vid=ce7bd25b-5213-4881-a28b-f582e6a1d712"},"vehicle_type_id":"4","last_reported":1752845379,"current_range_meters":14000,"station_id":"ce4bgr92rcd13ifvqc6g","pricing_plan_id":"cebpf4jnsgd1na2vs0mg"},{"bike_id":"00ecada3-8577-4c51-98e2-f760bc2bb718","system_id":"levelo_inurba_marseille","lat":43.294318,"lon":5.432293,"is_reserved":false,"is_disabled":false,"rental_uris":{"android":"levelo://app?vid=00ecada3-8577-4c51-98e2-f760bc2bb718","ios":"levelo://app?vid=00ecada3-8577-4c51-98e2-f760bc2bb718"},"vehicle_type_id":"4","last_reported":1752845379,"current_range_meters":14000,"station_id":"","pricing_plan_id":"cebpf4jnsgd1na2vs0mg"},{"bike_id":"5dda7472-9949-46fe-b9fa-ab272459a5d6","system_id":"levelo_inurba_marseille","lat":43.32325,"lon":5.36743,"is_reserved":false,"is_disabled":false,"rental_uris":{"android":"levelo://app?vid=5dda7472-9949-46fe-b9fa-ab272459a5d6","ios":"levelo://app?vid=5dda7472-9949-46fe-b9fa-ab272459a5d6"},"vehicle_type_id":"4","last_reported":1752845379,"current_range_meters":14000,"station_id":"ce4bhsh2rcd13ifvqi2g","pricing_plan_id":"cebpf4jnsgd1na2vs0mg"},{"bike_id":"347a5719-168a-42ac-83f4-48d049863cef","system_id":"levelo_inurba_marseille","lat":43.337444,"lon":5.374475,"is_reserved":false,"is_disabled":false,"rental_uris":{"android":"levelo://app?vid=347a5719-168a-42ac-83f4-48d049863cef","ios":"levelo://app?vid=347a5719-168a-42ac-83f4-48d049863cef"},"vehicle_type_id":"4","last_reported":1752845379,"current_range_meters":14000,"station_id":"ce4bhah2rcd13ifvqei0","pricing_plan_id":"cebpf4jnsgd1na2vs0mg"},{"bike_id":"b845130c-0fbf-48c7-8b7f-cde3eea74627","system_id":"levelo_inurba_marseille","lat":43.29523,"lon":5.39064,"is_reserved":false,"is_disabled":false,"rental_uris":{"android":"levelo://app?vid=b845130c-0fbf-48c7-8b7f-cde3eea74627","ios":"levelo://app?vid=b845130c-0fbf-48c7-8b7f-cde3eea74627"},"vehicle_type_id":"4","last_reported":1752845379,"current_range_meters":14000,"station_id":"ce4bh3p2rcd13ifvqdp0","pricing_plan_id":"cebpf4jnsgd1na2vs0mg"},{"bike_id":"5ac93e7c-286a-4c1e-b6c0-4e9963e5a9f8","system_id":"levelo_inurba_marseille","lat":43.211935,"lon":5.350755,"is_reserved":false,"is_disabled":false,"rental_uris":{"android":"levelo://app?vid=5ac93e7c-286a-4c1e-b6c0-4e9963e5a9f8","ios":"levelo://app?vid=5ac93e7c-286a-4c1e-b6c0-4e9963e5a9f8"},"vehicle_type_id":"4","last_reported":1752845379,"current_range_meters":14000,"station_id":"st_cvj6sg6p6f1abm77japg","pricing_plan_id":"cebpf4jnsgd1na2vs0mg"},{"bike_id":"ddf9d20f-08a3-422e-b249-ba701d5db642","system_id":"levelo_inurba_marseille","lat":43.28256,"lon":5.35066,"is_reserved":false,"is_disabled":false,"rental_uris":{"android":"levelo://app?vid=ddf9d20f-08a3-422e-b249-ba701d5db642","ios":"levelo://app?vid=ddf9d20f-08a3-422e-b249-ba701d5db642"},"vehicle_type_id":"4","last_reported":1752845379,"current_range_meters":14000,"station_id":"ce4bhbp2rcd13ifvqerg","pricing_plan_id":"cebpf4jnsgd1na2vs0mg"},{"bike_id":"2d95b47d-d06f-40a4-bb6e-c13e954e3c8f","system_id":"levelo_inurba_marseille","lat":43.27756,"lon":5.41431,"is_reserved":false,"is_disabled":false,"rental_uris":{"android":"levelo://app?vid=2d95b47d-d06f-40a4-bb6e-c13e954e3c8f","ios":"levelo://app?vid=2d95b47d-d06f-40a4-bb6e-c13e954e3c8f"},"vehicle_type_id":"4","last_reported":1752845379,"current_range_meters":14400,"station_id":"","pricing_plan_id":"cebpf4jnsgd1na2vs0mg"},{"bike_id":"6fd66afa-6637-4712-aa56-c95b48a08353","system_id":"levelo_inurba_marseille","lat":43.23138,"lon":5.43725,"is_reserved":false,"is_disabled":false,"rental_uris":{"android":"levelo://app?vid=6fd66afa-6637-4712-aa56-c95b48a08353","ios":"levelo://app?vid=6fd66afa-6637-4712-aa56-c95b48a08353"},"vehicle_type_id":"4","last_reported":1752845379,"current_range_meters":14400,"station_id":"ce4bhmp2rcd13ifvqgog","pricing_plan_id":"cebpf4jnsgd1na2vs0mg"},{"bike_id":"9e46aa88-7b19-47c3-b789-71b8902b53cb","system_id":"levelo_inurba_marseille","lat":43.28166,"lon":5.42626,"is_reserved":false,"is_disabled":false,"rental_uris":{"android":"levelo://app?vid=9e46aa88-7b19-47c3-b789-71b8902b53cb","ios":"levelo://app?vid=9e46aa88-7b19-47c3-b789-71b8902b53cb"},"vehicle_type_id":"4","last_reported":1752845379,"current_range_meters":14400,"station_id":"ce4bhnh2rcd13ifvqgug","pricing_plan_id":"cebpf4jnsgd1na2vs0mg"},{"bike_id":"3060254f-c7c7-45d0-aa09-f6923ee54908","system_id":"levelo_inurba_marseille","lat":43.23965,"lon":5.36635,"is_reserved":false,"is_disabled":false,"rental_uris":{"android":"levelo://app?vid=3060254f-c7c7-45d0-aa09-f6923ee54908","ios":"levelo://app?vid=3060254f-c7c7-45d0-aa09-f6923ee54908"},"vehicle_type_id":"4","last_reported":1752845379,"current_range_meters":14400,"station_id":"ce4bhi12rcd13ifvqfp0","pricing_plan_id":"cebpf4jnsgd1na2vs0mg"},{"bike_id":"30c7b948-4367-416f-8f92-7b75ae67fda0","system_id":"levelo_inurba_marseille","lat":43.2862,"lon":5.35106,"is_reserved":false,"is_disabled":false,"rental_uris":{"android":"levelo://app?vid=30c7b948-4367-416f-8f92-7b75ae67fda0","ios":"levelo://app?vid=30c7b948-4367-416f-8f92-7b75ae67fda0"},"vehicle_type_id":"4","last_reported":1752845379,"current_range_meters":14800,"station_id":"ce4bhch2rcd13ifvqeug","pricing_plan_id":"cebpf4jnsgd1na2vs0mg"},{"bike_id":"9faeaa47-307a-424f-9dcb-13f2a1af734d","system_id":"levelo_inurba_marseille","lat":43.29253,"lon":5.40901,"is_reserved":false,"is_disabled":false,"rental_uris":{"android":"levelo://app?vid=9faeaa47-307a-424f-9dcb-13f2a1af734d","ios":"levelo://app?vid=9faeaa47-307a-424f-9dcb-13f2a1af734d"},"vehicle_type_id":"4","last_reported":1752845379,"current_range_meters":14800,"station_id":"ce4bh192rcd13ifvqdc0","pricing_plan_id":"cebpf4jnsgd1na2vs0mg"},{"bike_id":"25f5b9c1-afde-49c7-a7b0-95e0862f6204","system_id":"levelo_inurba_marseille","lat":43.30151,"lon":5.38767,"is_reserved":false,"is_disabled":false,"rental_uris":{"android":"levelo://app?vid=25f5b9c1-afde-49c7-a7b0-95e0862f6204","ios":"levelo://app?vid=25f5b9c1-afde-49c7-a7b0-95e0862f6204"},"vehicle_type_id":"4","last_reported":1752845379,"current_range_meters":14800,"station_id":"ce4bghh2rcd13ifvqb60","pricing_plan_id":"cebpf4jnsgd1na2vs0mg"},{"bike_id":"b5b78919-a371-43b9-a0f1-4b045f996aa7","system_id":"levelo_inurba_marseille","lat":43.28275,"lon":5.35065,"is_reserved":false,"is_disabled":false,"rental_uris":{"android":"levelo://app?vid=b5b78919-a371-43b9-a0f1-4b045f996aa7","ios":"levelo://app?vid=b5b78919-a371-43b9-a0f1-4b045f996aa7"},"vehicle_type_id":"4","last_reported":1752845379,"current_range_meters":14800,"station_id":"ce4bhbp2rcd13ifvqerg","pricing_plan_id":"cebpf4jnsgd1na2vs0mg"},{"bike_id":"fbf0b7f2-f884-4bd3-a5fa-255e32e8eeed","system_id":"levelo_inurba_marseille","lat":43.24168,"lon":5.36393,"is_reserved":false,"is_disabled":false,"rental_uris":{"android":"levelo://app?vid=fbf0b7f2-f884-4bd3-a5fa-255e32e8eeed","ios":"levelo://app?vid=fbf0b7f2-f884-4bd3-a5fa-255e32e8eeed"},"vehicle_type_id":"4","last_reported":1752845379,"current_range_meters":14800,"station_id":"cpo36qri1sfpv3e86is0","pricing_plan_id":"cebpf4jnsgd1na2vs0mg"},{"bike_id":"764f53af-739b-43d6-bad4-a3231ab28e2c","system_id":"levelo_inurba_marseille","lat":43.255,"lon":5.37649,"is_reserved":false,"is_disabled":false,"rental_uris":{"android":"levelo://app?vid=764f53af-739b-43d6-bad4-a3231ab28e2c","ios":"levelo://app?vid=764f53af-739b-43d6-bad4-a3231ab28e2c"},"vehicle_type_id":"4","last_reported":1752845379,"current_range_meters":14800,"station_id":"ce4bhh12rcd13ifvqff0","pricing_plan_id":"cebpf4jnsgd1na2vs0mg"},{"bike_id":"5340329c-8bc5-4f60-a63c-3f485b4630ab","system_id":"levelo_inurba_marseille","lat":43.2842,"lon":5.35004,"is_reserved":false,"is_disabled":false,"rental_uris":{"android":"levelo://app?vid=5340329c-8bc5-4f60-a63c-3f485b4630ab","ios":"levelo://app?vid=5340329c-8bc5-4f60-a63c-3f485b4630ab"},"vehicle_type_id":"4","last_reported":1752845379,"current_range_meters":14800,"station_id":"ce4bhbh2rcd13ifvqepg","pricing_plan_id":"cebpf4jnsgd1na2vs0mg"},{"bike_id":"f9845309-24a1-4ef1-b92e-fc0bd4758c59","system_id":"levelo_inurba_marseille","lat":43.28942,"lon":5.36633,"is_reserved":false,"is_disabled":false,"rental_uris":{"android":"levelo://app?vid=f9845309-24a1-4ef1-b92e-fc0bd4758c59","ios":"levelo://app?vid=f9845309-24a1-4ef1-b92e-fc0bd4758c59"},"vehicle_type_id":"4","last_reported":1752845379,"current_range_meters":15200,"station_id":"ce4bhap2rcd13ifvqek0","pricing_plan_id":"cebpf4jnsgd1na2vs0mg"},{"bike_id":"6cd13d7f-1155-433a-bba2-9bb2be544c72","system_id":"levelo_inurba_marseille","lat":43.27071,"lon":5.4226,"is_reserved":false,"is_disabled":false,"rental_uris":{"android":"levelo://app?vid=6cd13d7f-1155-433a-bba2-9bb2be544c72","ios":"levelo://app?vid=6cd13d7f-1155-433a-bba2-9bb2be544c72"},"vehicle_type_id":"4","last_reported":1752845379,"current_range_meters":15200,"station_id":"ce4bhk92rcd13ifvqgb0","pricing_plan_id":"cebpf4jnsgd1na2vs0mg"},{"bike_id":"2a7a98a9-267b-4553-b0e0-13837c4af786","system_id":"levelo_inurba_marseille","lat":43.23064,"lon":5.35489,"is_reserved":false,"is_disabled":false,"rental_uris":{"android":"levelo://app?vid=2a7a98a9-267b-4553-b0e0-13837c4af786","ios":"levelo://app?vid=2a7a98a9-267b-4553-b0e0-13837c4af786"},"vehicle_type_id":"4","last_reported":1752845379,"current_range_meters":15200,"station_id":"cpo3342slgdg3j2ifvpg","pricing_plan_id":"cebpf4jnsgd1na2vs0mg"},{"bike_id":"eef93a3e-050a-4594-bd86-e7830dc7a0d1","system_id":"levelo_inurba_marseille","lat":43.29582,"lon":5.37522,"is_reserved":false,"is_disabled":false,"rental_uris":{"android":"levelo://app?vid=eef93a3e-050a-4594-bd86-e7830dc7a0d1","ios":"levelo://app?vid=eef93a3e-050a-4594-bd86-e7830dc7a0d1"},"vehicle_type_id":"4","last_reported":1752845379,"current_range_meters":15200,"station_id":"ce4bgh92rcd13ifvqb50","pricing_plan_id":"cebpf4jnsgd1na2vs0mg"},{"bike_id":"cfb52d04-9134-4c86-8269-771716b20f27","system_id":"levelo_inurba_marseille","lat":43.21196,"lon":5.35078,"is_reserved":false,"is_disabled":false,"rental_uris":{"android":"levelo://app?vid=cfb52d04-9134-4c86-8269-771716b20f27","ios":"levelo://app?vid=cfb52d04-9134-4c86-8269-771716b20f27"},"vehicle_type_id":"4","last_reported":1752845379,"current_range_meters":15200,"station_id":"st_cvj6sg6p6f1abm77japg","pricing_plan_id":"cebpf4jnsgd1na2vs0mg"},{"bike_id":"0249f434-70a5-4035-a8ac-79ab5eddbc78","system_id":"levelo_inurba_marseille","lat":43.26788,"lon":5.39415,"is_reserved":false,"is_disabled":false,"rental_uris":{"android":"levelo://app?vid=0249f434-70a5-4035-a8ac-79ab5eddbc78","ios":"levelo://app?vid=0249f434-70a5-4035-a8ac-79ab5eddbc78"},"vehicle_type_id":"4","last_reported":1752845379,"current_range_meters":16000,"station_id":"ce4bhh12rcd13ifvqfg0","pricing_plan_id":"cebpf4jnsgd1na2vs0mg"},{"bike_id":"05ffb198-c524-4752-acdb-f6f37268b918","system_id":"levelo_inurba_marseille","lat":43.284248,"lon":5.349778,"is_reserved":false,"is_disabled":false,"rental_uris":{"android":"levelo://app?vid=05ffb198-c524-4752-acdb-f6f37268b918","ios":"levelo://app?vid=05ffb198-c524-4752-acdb-f6f37268b918"},"vehicle_type_id":"4","last_reported":1752845379,"current_range_meters":16000,"station_id":"ce4bhbh2rcd13ifvqepg","pricing_plan_id":"cebpf4jnsgd1na2vs0mg"},{"bike_id":"ac0ed4be-466c-4caa-b855-3c6bbe5a11b5","system_id":"levelo_inurba_marseille","lat":43.26755,"lon":5.37174,"is_reserved":false,"is_disabled":false,"rental_uris":{"android":"levelo://app?vid=ac0ed4be-466c-4caa-b855-3c6bbe5a11b5","ios":"levelo://app?vid=ac0ed4be-466c-4caa-b855-3c6bbe5a11b5"},"vehicle_type_id":"4","last_reported":1752845379,"current_range_meters":16000,"station_id":"","pricing_plan_id":"cebpf4jnsgd1na2vs0mg"},{"bike_id":"f310b61a-0922-4b58-99ec-3c007edcb4df","system_id":"levelo_inurba_marseille","lat":43.27946,"lon":5.39599,"is_reserved":false,"is_disabled":false,"rental_uris":{"android":"levelo://app?vid=f310b61a-0922-4b58-99ec-3c007edcb4df","ios":"levelo://app?vid=f310b61a-0922-4b58-99ec-3c007edcb4df"},"vehicle_type_id":"4","last_reported":1752845379,"current_range_meters":16000,"station_id":"ce4bhf92rcd13ifvqf40","pricing_plan_id":"cebpf4jnsgd1na2vs0mg"},{"bike_id":"a67156ae-789e-45f5-ab3f-ed7d95b24540","system_id":"levelo_inurba_marseille","lat":43.21178,"lon":5.35087,"is_reserved":false,"is_disabled":false,"rental_uris":{"android":"levelo://app?vid=a67156ae-789e-45f5-ab3f-ed7d95b24540","ios":"levelo://app?vid=a67156ae-789e-45f5-ab3f-ed7d95b24540"},"vehicle_type_id":"4","last_reported":1752845379,"current_range_meters":16000,"station_id":"st_cvj6sg6p6f1abm77japg","pricing_plan_id":"cebpf4jnsgd1na2vs0mg"},{"bike_id":"edd0079d-996b-4ae3-9a31-d781f3a059ec","system_id":"levelo_inurba_marseille","lat":43.33786,"lon":5.37426,"is_reserved":false,"is_disabled":false,"rental_uris":{"android":"levelo://app?vid=edd0079d-996b-4ae3-9a31-d781f3a059ec","ios":"levelo://app?vid=edd0079d-996b-4ae3-9a31-d781f3a059ec"},"vehicle_type_id":"4","last_reported":1752845379,"current_range_meters":16000,"station_id":"","pricing_plan_id":"cebpf4jnsgd1na2vs0mg"},{"bike_id":"b7fe52dd-f025-4212-9e78-19e7f6f09593","system_id":"levelo_inurba_marseille","lat":43.21191,"lon":5.35084,"is_reserved":false,"is_disabled":false,"rental_uris":{"android":"levelo://app?vid=b7fe52dd-f025-4212-9e78-19e7f6f09593","ios":"levelo://app?vid=b7fe52dd-f025-4212-9e78-19e7f6f09593"},"vehicle_type_id":"4","last_reported":1752845379,"current_range_meters":16000,"station_id":"st_cvj6sg6p6f1abm77japg","pricing_plan_id":"cebpf4jnsgd1na2vs0mg"},{"bike_id":"019b6955-dda2-4312-bb23-dc748c15eed9","system_id":"levelo_inurba_marseille","lat":43.28267,"lon":5.35076,"is_reserved":false,"is_disabled":false,"rental_uris":{"android":"levelo://app?vid=019b6955-dda2-4312-bb23-dc748c15eed9","ios":"levelo://app?vid=019b6955-dda2-4312-bb23-dc748c15eed9"},"vehicle_type_id":"4","last_reported":1752845379,"current_range_meters":16000,"station_id":"ce4bhbp2rcd13ifvqerg","pricing_plan_id":"cebpf4jnsgd1na2vs0mg"},{"bike_id":"32f5afb1-15c9-4431-a998-25b3b86db8d1","system_id":"levelo_inurba_marseille","lat":43.27375,"lon":5.36259,"is_reserved":false,"is_disabled":false,"rental_uris":{"android":"levelo://app?vid=32f5afb1-15c9-4431-a998-25b3b86db8d1","ios":"levelo://app?vid=32f5afb1-15c9-4431-a998-25b3b86db8d1"},"vehicle_type_id":"4","last_reported":1752845379,"current_range_meters":16000,"station_id":"ce4bhbh2rcd13ifvqeo0","pricing_plan_id":"cebpf4jnsgd1na2vs0mg"},{"bike_id":"92409ae6-2f82-4eac-ab73-93e600233f58","system_id":"levelo_inurba_marseille","lat":43.29296,"lon":5.37459,"is_reserved":false,"is_disabled":false,"rental_uris":{"android":"levelo://app?vid=92409ae6-2f82-4eac-ab73-93e600233f58","ios":"levelo://app?vid=92409ae6-2f82-4eac-ab73-93e600233f58"},"vehicle_type_id":"4","last_reported":1752845379,"current_range_meters":16400,"station_id":"ce4bgi12rcd13ifvqb70","pricing_plan_id":"cebpf4jnsgd1na2vs0mg"},{"bike_id":"6f2b188d-268c-4dbe-b8a1-874e327f8d67","system_id":"levelo_inurba_marseille","lat":43.2994,"lon":5.36553,"is_reserved":false,"is_disabled":false,"rental_uris":{"android":"levelo://app?vid=6f2b188d-268c-4dbe-b8a1-874e327f8d67","ios":"levelo://app?vid=6f2b188d-268c-4dbe-b8a1-874e327f8d67"},"vehicle_type_id":"4","last_reported":1752845379,"current_range_meters":16400,"station_id":"ce4bgm92rcd13ifvqbr0","pricing_plan_id":"cebpf4jnsgd1na2vs0mg"},{"bike_id":"8ce9b80c-19c6-4985-81c6-50f285c26740","system_id":"levelo_inurba_marseille","lat":43.239639,"lon":5.366338,"is_reserved":false,"is_disabled":false,"rental_uris":{"android":"levelo://app?vid=8ce9b80c-19c6-4985-81c6-50f285c26740","ios":"levelo://app?vid=8ce9b80c-19c6-4985-81c6-50f285c26740"},"vehicle_type_id":"4","last_reported":1752845379,"current_range_meters":16400,"station_id":"ce4bhi12rcd13ifvqfp0","pricing_plan_id":"cebpf4jnsgd1na2vs0mg"},{"bike_id":"73371026-46a3-49ca-b5b5-2d6b90c8827c","system_id":"levelo_inurba_marseille","lat":43.299488,"lon":5.365132,"is_reserved":false,"is_disabled":false,"rental_uris":{"android":"levelo://app?vid=73371026-46a3-49ca-b5b5-2d6b90c8827c","ios":"levelo://app?vid=73371026-46a3-49ca-b5b5-2d6b90c8827c"},"vehicle_type_id":"4","last_reported":1752845379,"current_range_meters":16400,"station_id":"ce4bgm92rcd13ifvqbr0","pricing_plan_id":"cebpf4jnsgd1na2vs0mg"},{"bike_id":"f2113758-cb2c-4691-a1b4-e939940f922d","system_id":"levelo_inurba_marseille","lat":43.305467,"lon":5.366928,"is_reserved":false,"is_disabled":false,"rental_uris":{"android":"levelo://app?vid=f2113758-cb2c-4691-a1b4-e939940f922d","ios":"levelo://app?vid=f2113758-cb2c-4691-a1b4-e939940f922d"},"vehicle_type_id":"4","last_reported":1752845379,"current_range_meters":16400,"station_id":"ce4bgrp2rcd13ifvqc9g","pricing_plan_id":"cebpf4jnsgd1na2vs0mg"},{"bike_id":"ab40eab5-f236-4422-a5a5-b90da08304bc","system_id":"levelo_inurba_marseille","lat":43.30604,"lon":5.37229,"is_reserved":false,"is_disabled":false,"rental_uris":{"android":"levelo://app?vid=ab40eab5-f236-4422-a5a5-b90da08304bc","ios":"levelo://app?vid=ab40eab5-f236-4422-a5a5-b90da08304bc"},"vehicle_type_id":"4","last_reported":1752845379,"current_range_meters":16000,"station_id":"ce4bgqh2rcd13ifvqc4g","pricing_plan_id":"cebpf4jnsgd1na2vs0mg"},{"bike_id":"f912b01d-5976-4c4a-8a8c-80f04d12620b","system_id":"levelo_inurba_marseille","lat":43.27626,"lon":5.36105,"is_reserved":false,"is_disabled":false,"rental_uris":{"android":"levelo://app?vid=f912b01d-5976-4c4a-8a8c-80f04d12620b","ios":"levelo://app?vid=f912b01d-5976-4c4a-8a8c-80f04d12620b"},"vehicle_type_id":"4","last_reported":1752845379,"current_range_meters":16400,"station_id":"ce4bgj92rcd13ifvqbe0","pricing_plan_id":"cebpf4jnsgd1na2vs0mg"},{"bike_id":"ba9f3e38-527b-4abb-aed1-dabb2d5ce59f","system_id":"levelo_inurba_marseille","lat":43.26933,"lon":5.40248,"is_reserved":false,"is_disabled":false,"rental_uris":{"android":"levelo://app?vid=ba9f3e38-527b-4abb-aed1-dabb2d5ce59f","ios":"levelo://app?vid=ba9f3e38-527b-4abb-aed1-dabb2d5ce59f"},"vehicle_type_id":"4","last_reported":1752845379,"current_range_meters":16400,"station_id":"cjm6bp8fraef2m0cb0m0","pricing_plan_id":"cebpf4jnsgd1na2vs0mg"},{"bike_id":"605ed834-819b-43a6-99ff-85dfd5dbb3cb","system_id":"levelo_inurba_marseille","lat":43.305452,"lon":5.366986,"is_reserved":false,"is_disabled":false,"rental_uris":{"android":"levelo://app?vid=605ed834-819b-43a6-99ff-85dfd5dbb3cb","ios":"levelo://app?vid=605ed834-819b-43a6-99ff-85dfd5dbb3cb"},"vehicle_type_id":"4","last_reported":1752845379,"current_range_meters":16800,"station_id":"ce4bgrp2rcd13ifvqc9g","pricing_plan_id":"cebpf4jnsgd1na2vs0mg"},{"bike_id":"81b8982e-0de9-4985-b907-712e742b4afd","system_id":"levelo_inurba_marseille","lat":43.281921,"lon":5.403889,"is_reserved":false,"is_disabled":false,"rental_uris":{"android":"levelo://app?vid=81b8982e-0de9-4985-b907-712e742b4afd","ios":"levelo://app?vid=81b8982e-0de9-4985-b907-712e742b4afd"},"vehicle_type_id":"4","last_reported":1752845379,"current_range_meters":16800,"station_id":"","pricing_plan_id":"cebpf4jnsgd1na2vs0mg"},{"bike_id":"23d9606e-d810-4911-a318-24734d25283e","system_id":"levelo_inurba_marseille","lat":43.29725,"lon":5.37686,"is_reserved":false,"is_disabled":false,"rental_uris":{"android":"levelo://app?vid=23d9606e-d810-4911-a318-24734d25283e","ios":"levelo://app?vid=23d9606e-d810-4911-a318-24734d25283e"},"vehicle_type_id":"4","last_reported":1752845379,"current_range_meters":16800,"station_id":"ce4bgkh2rcd13ifvqbl0","pricing_plan_id":"cebpf4jnsgd1na2vs0mg"},{"bike_id":"fbd40d18-23c5-4949-b79a-4c8c789c9ae0","system_id":"levelo_inurba_marseille","lat":43.26557,"lon":5.37291,"is_reserved":false,"is_disabled":false,"rental_uris":{"android":"levelo://app?vid=fbd40d18-23c5-4949-b79a-4c8c789c9ae0","ios":"levelo://app?vid=fbd40d18-23c5-4949-b79a-4c8c789c9ae0"},"vehicle_type_id":"4","last_reported":1752845379,"current_range_meters":17200,"station_id":"ce4bhg12rcd13ifvqf70","pricing_plan_id":"cebpf4jnsgd1na2vs0mg"},{"bike_id":"dadd6356-567d-4390-b685-2bef0f59e600","system_id":"levelo_inurba_marseille","lat":43.30374,"lon":5.42484,"is_reserved":false,"is_disabled":false,"rental_uris":{"android":"levelo://app?vid=dadd6356-567d-4390-b685-2bef0f59e600","ios":"levelo://app?vid=dadd6356-567d-4390-b685-2bef0f59e600"},"vehicle_type_id":"4","last_reported":1752845379,"current_range_meters":17200,"station_id":"ce4bhoh2rcd13ifvqh6g","pricing_plan_id":"cebpf4jnsgd1na2vs0mg"},{"bike_id":"978ef16f-2db4-4544-b66f-199c1f3b9d02","system_id":"levelo_inurba_marseille","lat":43.231496,"lon":5.437148,"is_reserved":false,"is_disabled":false,"rental_uris":{"android":"levelo://app?vid=978ef16f-2db4-4544-b66f-199c1f3b9d02","ios":"levelo://app?vid=978ef16f-2db4-4544-b66f-199c1f3b9d02"},"vehicle_type_id":"4","last_reported":1752845379,"current_range_meters":17200,"station_id":"ce4bhmp2rcd13ifvqgog","pricing_plan_id":"cebpf4jnsgd1na2vs0mg"},{"bike_id":"96b68ee2-d486-4bf3-9bbc-e0fb11cf4a26","system_id":"levelo_inurba_marseille","lat":43.293097,"lon":5.371752,"is_reserved":false,"is_disabled":false,"rental_uris":{"android":"levelo://app?vid=96b68ee2-d486-4bf3-9bbc-e0fb11cf4a26","ios":"levelo://app?vid=96b68ee2-d486-4bf3-9bbc-e0fb11cf4a26"},"vehicle_type_id":"4","last_reported":1752845379,"current_range_meters":17200,"station_id":"ce4bgh92rcd13ifvqb40","pricing_plan_id":"cebpf4jnsgd1na2vs0mg"},{"bike_id":"52732541-0032-4bf3-80e5-745fd953f028","system_id":"levelo_inurba_marseille","lat":43.30285,"lon":5.37705,"is_reserved":false,"is_disabled":false,"rental_uris":{"android":"levelo://app?vid=52732541-0032-4bf3-80e5-745fd953f028","ios":"levelo://app?vid=52732541-0032-4bf3-80e5-745fd953f028"},"vehicle_type_id":"4","last_reported":1752845379,"current_range_meters":17200,"station_id":"ce4bguh2rcd13ifvqcj0","pricing_plan_id":"cebpf4jnsgd1na2vs0mg"},{"bike_id":"b55ec45b-73ff-46b9-a324-29e36c16b61f","system_id":"levelo_inurba_marseille","lat":43.33607,"lon":5.41035,"is_reserved":false,"is_disabled":false,"rental_uris":{"android":"levelo://app?vid=b55ec45b-73ff-46b9-a324-29e36c16b61f","ios":"levelo://app?vid=b55ec45b-73ff-46b9-a324-29e36c16b61f"},"vehicle_type_id":"4","last_reported":1752845379,"current_range_meters":16800,"station_id":"ce4bhqh2rcd13ifvqhmg","pricing_plan_id":"cebpf4jnsgd1na2vs0mg"},{"bike_id":"5ed7e33c-75eb-4f80-9ced-f5eee5190af4","system_id":"levelo_inurba_marseille","lat":43.29557,"lon":5.422826,"is_reserved":false,"is_disabled":false,"rental_uris":{"android":"levelo://app?vid=5ed7e33c-75eb-4f80-9ced-f5eee5190af4","ios":"levelo://app?vid=5ed7e33c-75eb-4f80-9ced-f5eee5190af4"},"vehicle_type_id":"4","last_reported":1752845379,"current_range_meters":17600,"station_id":"ce4bhph2rcd13ifvqhdg","pricing_plan_id":"cebpf4jnsgd1na2vs0mg"},{"bike_id":"42525367-a877-4c70-a7a3-fe01fcc356af","system_id":"levelo_inurba_marseille","lat":43.30795,"lon":5.42444,"is_reserved":false,"is_disabled":false,"rental_uris":{"android":"levelo://app?vid=42525367-a877-4c70-a7a3-fe01fcc356af","ios":"levelo://app?vid=42525367-a877-4c70-a7a3-fe01fcc356af"},"vehicle_type_id":"4","last_reported":1752845379,"current_range_meters":17600,"station_id":"st_cvj6ca6bvosntc0bfgr0","pricing_plan_id":"cebpf4jnsgd1na2vs0mg"},{"bike_id":"33b672b7-61f5-4e08-a760-3783dcdc4ad4","system_id":"levelo_inurba_marseille","lat":43.30186,"lon":5.36619,"is_reserved":false,"is_disabled":false,"rental_uris":{"android":"levelo://app?vid=33b672b7-61f5-4e08-a760-3783dcdc4ad4","ios":"levelo://app?vid=33b672b7-61f5-4e08-a760-3783dcdc4ad4"},"vehicle_type_id":"4","last_reported":1752845379,"current_range_meters":17600,"station_id":"ce4bgrh2rcd13ifvqc8g","pricing_plan_id":"cebpf4jnsgd1na2vs0mg"},{"bike_id":"afc91c81-7042-4270-a28e-07e325ae83c9","system_id":"levelo_inurba_marseille","lat":43.21191,"lon":5.3507,"is_reserved":false,"is_disabled":false,"rental_uris":{"android":"levelo://app?vid=afc91c81-7042-4270-a28e-07e325ae83c9","ios":"levelo://app?vid=afc91c81-7042-4270-a28e-07e325ae83c9"},"vehicle_type_id":"4","last_reported":1752845379,"current_range_meters":17600,"station_id":"st_cvj6sg6p6f1abm77japg","pricing_plan_id":"cebpf4jnsgd1na2vs0mg"},{"bike_id":"ed7f5c44-323e-4be9-b326-ca982cba487b","system_id":"levelo_inurba_marseille","lat":43.23193,"lon":5.35552,"is_reserved":false,"is_disabled":false,"rental_uris":{"android":"levelo://app?vid=ed7f5c44-323e-4be9-b326-ca982cba487b","ios":"levelo://app?vid=ed7f5c44-323e-4be9-b326-ca982cba487b"},"vehicle_type_id":"4","last_reported":1752845379,"current_range_meters":17200,"station_id":"ce4bhu92rcd13ifvqi70","pricing_plan_id":"cebpf4jnsgd1na2vs0mg"},{"bike_id":"06b46bd1-38ed-44f7-9ba1-67361d8158e7","system_id":"levelo_inurba_marseille","lat":43.28411,"lon":5.34994,"is_reserved":false,"is_disabled":false,"rental_uris":{"android":"levelo://app?vid=06b46bd1-38ed-44f7-9ba1-67361d8158e7","ios":"levelo://app?vid=06b46bd1-38ed-44f7-9ba1-67361d8158e7"},"vehicle_type_id":"4","last_reported":1752845379,"current_range_meters":17600,"station_id":"ce4bhbh2rcd13ifvqepg","pricing_plan_id":"cebpf4jnsgd1na2vs0mg"},{"bike_id":"2bd89c9d-a047-4387-bc8f-e7adabd8f2a9","system_id":"levelo_inurba_marseille","lat":43.225043,"lon":5.347852,"is_reserved":false,"is_disabled":false,"rental_uris":{"android":"levelo://app?vid=2bd89c9d-a047-4387-bc8f-e7adabd8f2a9","ios":"levelo://app?vid=2bd89c9d-a047-4387-bc8f-e7adabd8f2a9"},"vehicle_type_id":"4","last_reported":1752845379,"current_range_meters":17600,"station_id":"st_cvj5dfep6f1abm77gieg","pricing_plan_id":"cebpf4jnsgd1na2vs0mg"},{"bike_id":"1a794689-0399-4bd8-871c-778f85fe0438","system_id":"levelo_inurba_marseille","lat":43.274941,"lon":5.424538,"is_reserved":false,"is_disabled":false,"rental_uris":{"android":"levelo://app?vid=1a794689-0399-4bd8-871c-778f85fe0438","ios":"levelo://app?vid=1a794689-0399-4bd8-871c-778f85fe0438"},"vehicle_type_id":"4","last_reported":1752845379,"current_range_meters":17600,"station_id":"ce4bhn92rcd13ifvqgrg","pricing_plan_id":"cebpf4jnsgd1na2vs0mg"},{"bike_id":"5016f77e-53a9-4155-a2d9-8f4505a7613a","system_id":"levelo_inurba_marseille","lat":43.25757,"lon":5.41096,"is_reserved":false,"is_disabled":false,"rental_uris":{"android":"levelo://app?vid=5016f77e-53a9-4155-a2d9-8f4505a7613a","ios":"levelo://app?vid=5016f77e-53a9-4155-a2d9-8f4505a7613a"},"vehicle_type_id":"4","last_reported":1752845379,"current_range_meters":17600,"station_id":"","pricing_plan_id":"cebpf4jnsgd1na2vs0mg"},{"bike_id":"94c07cb2-0943-4d24-99f2-97bdab47aa3f","system_id":"levelo_inurba_marseille","lat":43.337444,"lon":5.374475,"is_reserved":false,"is_disabled":false,"rental_uris":{"android":"levelo://app?vid=94c07cb2-0943-4d24-99f2-97bdab47aa3f","ios":"levelo://app?vid=94c07cb2-0943-4d24-99f2-97bdab47aa3f"},"vehicle_type_id":"4","last_reported":1752845379,"current_range_meters":17600,"station_id":"","pricing_plan_id":"cebpf4jnsgd1na2vs0mg"},{"bike_id":"d031f0b0-0f9e-4281-bbd1-10be42e8137f","system_id":"levelo_inurba_marseille","lat":43.28442,"lon":5.39191,"is_reserved":false,"is_disabled":false,"rental_uris":{"android":"levelo://app?vid=d031f0b0-0f9e-4281-bbd1-10be42e8137f","ios":"levelo://app?vid=d031f0b0-0f9e-4281-bbd1-10be42e8137f"},"vehicle_type_id":"4","last_reported":1752845379,"current_range_meters":17600,"station_id":"ce4bhoh2rcd13ifvqh5g","pricing_plan_id":"cebpf4jnsgd1na2vs0mg"},{"bike_id":"558434c8-b1b4-4034-93c4-037d67d00a87","system_id":"levelo_inurba_marseille","lat":43.25485,"lon":5.37665,"is_reserved":false,"is_disabled":false,"rental_uris":{"android":"levelo://app?vid=558434c8-b1b4-4034-93c4-037d67d00a87","ios":"levelo://app?vid=558434c8-b1b4-4034-93c4-037d67d00a87"},"vehicle_type_id":"4","last_reported":1752845379,"current_range_meters":18000,"station_id":"ce4bhh12rcd13ifvqff0","pricing_plan_id":"cebpf4jnsgd1na2vs0mg"},{"bike_id":"fb4debf2-1f8f-411c-bd26-e8013aa9592a","system_id":"levelo_inurba_marseille","lat":43.273139,"lon":5.390726,"is_reserved":false,"is_disabled":false,"rental_uris":{"android":"levelo://app?vid=fb4debf2-1f8f-411c-bd26-e8013aa9592a","ios":"levelo://app?vid=fb4debf2-1f8f-411c-bd26-e8013aa9592a"},"vehicle_type_id":"4","last_reported":1752845379,"current_range_meters":18000,"station_id":"","pricing_plan_id":"cebpf4jnsgd1na2vs0mg"},{"bike_id":"27e87014-be31-43ba-9175-467d6d38fac5","system_id":"levelo_inurba_marseille","lat":43.29196,"lon":5.39314,"is_reserved":false,"is_disabled":false,"rental_uris":{"android":"levelo://app?vid=27e87014-be31-43ba-9175-467d6d38fac5","ios":"levelo://app?vid=27e87014-be31-43ba-9175-467d6d38fac5"},"vehicle_type_id":"4","last_reported":1752845379,"current_range_meters":18000,"station_id":"ce4bh192rcd13ifvqdd0","pricing_plan_id":"cebpf4jnsgd1na2vs0mg"},{"bike_id":"bd7f0af5-ae40-44b6-bc39-9b4e2b89534b","system_id":"levelo_inurba_marseille","lat":43.29868,"lon":5.39734,"is_reserved":false,"is_disabled":false,"rental_uris":{"android":"levelo://app?vid=bd7f0af5-ae40-44b6-bc39-9b4e2b89534b","ios":"levelo://app?vid=bd7f0af5-ae40-44b6-bc39-9b4e2b89534b"},"vehicle_type_id":"4","last_reported":1752845379,"current_range_meters":18000,"station_id":"","pricing_plan_id":"cebpf4jnsgd1na2vs0mg"},{"bike_id":"7fa8ed68-8cf6-4eac-8550-49e30b22f49e","system_id":"levelo_inurba_marseille","lat":43.30516,"lon":5.36548,"is_reserved":false,"is_disabled":false,"rental_uris":{"android":"levelo://app?vid=7fa8ed68-8cf6-4eac-8550-49e30b22f49e","ios":"levelo://app?vid=7fa8ed68-8cf6-4eac-8550-49e30b22f49e"},"vehicle_type_id":"4","last_reported":1752845379,"current_range_meters":18000,"station_id":"","pricing_plan_id":"cebpf4jnsgd1na2vs0mg"},{"bike_id":"1bea52eb-b99a-43e3-8fce-07ed497a87d3","system_id":"levelo_inurba_marseille","lat":43.32331,"lon":5.40626,"is_reserved":false,"is_disabled":false,"rental_uris":{"android":"levelo://app?vid=1bea52eb-b99a-43e3-8fce-07ed497a87d3","ios":"levelo://app?vid=1bea52eb-b99a-43e3-8fce-07ed497a87d3"},"vehicle_type_id":"4","last_reported":1752845379,"current_range_meters":18000,"station_id":"ce4bhq92rcd13ifvqhjg","pricing_plan_id":"cebpf4jnsgd1na2vs0mg"},{"bike_id":"1d219207-082f-4dad-98a2-fb16c401173b","system_id":"levelo_inurba_marseille","lat":43.26958,"lon":5.40215,"is_reserved":false,"is_disabled":false,"rental_uris":{"android":"levelo://app?vid=1d219207-082f-4dad-98a2-fb16c401173b","ios":"levelo://app?vid=1d219207-082f-4dad-98a2-fb16c401173b"},"vehicle_type_id":"4","last_reported":1752845379,"current_range_meters":18000,"station_id":"cjm6bp8fraef2m0cb0m0","pricing_plan_id":"cebpf4jnsgd1na2vs0mg"},{"bike_id":"b7f36c6b-307f-45a2-b644-3b94c5c6a8fa","system_id":"levelo_inurba_marseille","lat":43.24387,"lon":5.37059,"is_reserved":false,"is_disabled":false,"rental_uris":{"android":"levelo://app?vid=b7f36c6b-307f-45a2-b644-3b94c5c6a8fa","ios":"levelo://app?vid=b7f36c6b-307f-45a2-b644-3b94c5c6a8fa"},"vehicle_type_id":"4","last_reported":1752845379,"current_range_meters":18000,"station_id":"ce4bhhh2rcd13ifvqfk0","pricing_plan_id":"cebpf4jnsgd1na2vs0mg"},{"bike_id":"82fa2dd1-a60b-4609-896b-9efe58a19369","system_id":"levelo_inurba_marseille","lat":43.30537,"lon":5.3654,"is_reserved":false,"is_disabled":false,"rental_uris":{"android":"levelo://app?vid=82fa2dd1-a60b-4609-896b-9efe58a19369","ios":"levelo://app?vid=82fa2dd1-a60b-4609-896b-9efe58a19369"},"vehicle_type_id":"4","last_reported":1752845379,"current_range_meters":18000,"station_id":"ce4bgs12rcd13ifvqcag","pricing_plan_id":"cebpf4jnsgd1na2vs0mg"},{"bike_id":"d5cf0ddb-4301-4e01-9253-a4393d968d0a","system_id":"levelo_inurba_marseille","lat":43.22496,"lon":5.34775,"is_reserved":false,"is_disabled":false,"rental_uris":{"android":"levelo://app?vid=d5cf0ddb-4301-4e01-9253-a4393d968d0a","ios":"levelo://app?vid=d5cf0ddb-4301-4e01-9253-a4393d968d0a"},"vehicle_type_id":"4","last_reported":1752845379,"current_range_meters":18800,"station_id":"st_cvj5dfep6f1abm77gieg","pricing_plan_id":"cebpf4jnsgd1na2vs0mg"},{"bike_id":"f90f1efc-2add-4576-a300-db6e14a5c471","system_id":"levelo_inurba_marseille","lat":43.3213,"lon":5.3678,"is_reserved":false,"is_disabled":false,"rental_uris":{"android":"levelo://app?vid=f90f1efc-2add-4576-a300-db6e14a5c471","ios":"levelo://app?vid=f90f1efc-2add-4576-a300-db6e14a5c471"},"vehicle_type_id":"4","last_reported":1752845379,"current_range_meters":18800,"station_id":"ce4bhrh2rcd13ifvqhug","pricing_plan_id":"cebpf4jnsgd1na2vs0mg"},{"bike_id":"6bc7dc9e-3227-44ae-8a5c-33ce43b209e3","system_id":"levelo_inurba_marseille","lat":43.30581,"lon":5.37229,"is_reserved":false,"is_disabled":false,"rental_uris":{"android":"levelo://app?vid=6bc7dc9e-3227-44ae-8a5c-33ce43b209e3","ios":"levelo://app?vid=6bc7dc9e-3227-44ae-8a5c-33ce43b209e3"},"vehicle_type_id":"4","last_reported":1752845379,"current_range_meters":18800,"station_id":"ce4bgqh2rcd13ifvqc4g","pricing_plan_id":"cebpf4jnsgd1na2vs0mg"},{"bike_id":"9867a2be-4422-425f-8e53-715036c01913","system_id":"levelo_inurba_marseille","lat":43.29003,"lon":5.35616,"is_reserved":false,"is_disabled":false,"rental_uris":{"android":"levelo://app?vid=9867a2be-4422-425f-8e53-715036c01913","ios":"levelo://app?vid=9867a2be-4422-425f-8e53-715036c01913"},"vehicle_type_id":"4","last_reported":1752845379,"current_range_meters":18000,"station_id":"ce4bhb92rcd13ifvqen0","pricing_plan_id":"cebpf4jnsgd1na2vs0mg"},{"bike_id":"517efa0a-d2f0-4d8f-9538-d975f7c8d60a","system_id":"levelo_inurba_marseille","lat":43.28929,"lon":5.36631,"is_reserved":false,"is_disabled":false,"rental_uris":{"android":"levelo://app?vid=517efa0a-d2f0-4d8f-9538-d975f7c8d60a","ios":"levelo://app?vid=517efa0a-d2f0-4d8f-9538-d975f7c8d60a"},"vehicle_type_id":"4","last_reported":1752845379,"current_range_meters":18800,"station_id":"ce4bhap2rcd13ifvqek0","pricing_plan_id":"cebpf4jnsgd1na2vs0mg"},{"bike_id":"4647030d-4dca-4201-90eb-513b457026a7","system_id":"levelo_inurba_marseille","lat":43.29589,"lon":5.380988,"is_reserved":false,"is_disabled":false,"rental_uris":{"android":"levelo://app?vid=4647030d-4dca-4201-90eb-513b457026a7","ios":"levelo://app?vid=4647030d-4dca-4201-90eb-513b457026a7"},"vehicle_type_id":"4","last_reported":1752845379,"current_range_meters":18800,"station_id":"ce4bgl12rcd13ifvqbo0","pricing_plan_id":"cebpf4jnsgd1na2vs0mg"},{"bike_id":"7360b2c1-827d-4a45-ba07-948ef7d2fc35","system_id":"levelo_inurba_marseille","lat":43.229295,"lon":5.353761,"is_reserved":false,"is_disabled":false,"rental_uris":{"android":"levelo://app?vid=7360b2c1-827d-4a45-ba07-948ef7d2fc35","ios":"levelo://app?vid=7360b2c1-827d-4a45-ba07-948ef7d2fc35"},"vehicle_type_id":"4","last_reported":1752845379,"current_range_meters":18800,"station_id":"","pricing_plan_id":"cebpf4jnsgd1na2vs0mg"},{"bike_id":"96579d04-b9e9-484c-9b9a-af500e5e8552","system_id":"levelo_inurba_marseille","lat":43.32668,"lon":5.36391,"is_reserved":false,"is_disabled":false,"rental_uris":{"android":"levelo://app?vid=96579d04-b9e9-484c-9b9a-af500e5e8552","ios":"levelo://app?vid=96579d04-b9e9-484c-9b9a-af500e5e8552"},"vehicle_type_id":"4","last_reported":1752845379,"current_range_meters":18800,"station_id":"","pricing_plan_id":"cebpf4jnsgd1na2vs0mg"},{"bike_id":"b2ce6829-60e3-45db-9aef-7aa241d17ab6","system_id":"levelo_inurba_marseille","lat":43.30427,"lon":5.3889,"is_reserved":false,"is_disabled":false,"rental_uris":{"android":"levelo://app?vid=b2ce6829-60e3-45db-9aef-7aa241d17ab6","ios":"levelo://app?vid=b2ce6829-60e3-45db-9aef-7aa241d17ab6"},"vehicle_type_id":"4","last_reported":1752845379,"current_range_meters":19200,"station_id":"ce4bgk12rcd13ifvqbi0","pricing_plan_id":"cebpf4jnsgd1na2vs0mg"},{"bike_id":"cb7b541b-4aa0-476b-ac1b-c83b6acaa65d","system_id":"levelo_inurba_marseille","lat":43.24172,"lon":5.36389,"is_reserved":false,"is_disabled":false,"rental_uris":{"android":"levelo://app?vid=cb7b541b-4aa0-476b-ac1b-c83b6acaa65d","ios":"levelo://app?vid=cb7b541b-4aa0-476b-ac1b-c83b6acaa65d"},"vehicle_type_id":"4","last_reported":1752845379,"current_range_meters":19200,"station_id":"cpo36qri1sfpv3e86is0","pricing_plan_id":"cebpf4jnsgd1na2vs0mg"},{"bike_id":"df96bb07-9ea6-4ab9-8bea-0f64849d3fae","system_id":"levelo_inurba_marseille","lat":43.30423,"lon":5.41277,"is_reserved":false,"is_disabled":false,"rental_uris":{"android":"levelo://app?vid=df96bb07-9ea6-4ab9-8bea-0f64849d3fae","ios":"levelo://app?vid=df96bb07-9ea6-4ab9-8bea-0f64849d3fae"},"vehicle_type_id":"4","last_reported":1752845379,"current_range_meters":19200,"station_id":"ce4bhop2rcd13ifvqh8g","pricing_plan_id":"cebpf4jnsgd1na2vs0mg"},{"bike_id":"a7b92e07-0d22-4b45-8ef1-b763127c437f","system_id":"levelo_inurba_marseille","lat":43.3252,"lon":5.37558,"is_reserved":false,"is_disabled":false,"rental_uris":{"android":"levelo://app?vid=a7b92e07-0d22-4b45-8ef1-b763127c437f","ios":"levelo://app?vid=a7b92e07-0d22-4b45-8ef1-b763127c437f"},"vehicle_type_id":"4","last_reported":1752845379,"current_range_meters":19200,"station_id":"","pricing_plan_id":"cebpf4jnsgd1na2vs0mg"},{"bike_id":"28682a9d-1f72-4001-81b3-ec10d0784999","system_id":"levelo_inurba_marseille","lat":43.23164,"lon":5.43714,"is_reserved":false,"is_disabled":false,"rental_uris":{"android":"levelo://app?vid=28682a9d-1f72-4001-81b3-ec10d0784999","ios":"levelo://app?vid=28682a9d-1f72-4001-81b3-ec10d0784999"},"vehicle_type_id":"4","last_reported":1752845379,"current_range_meters":18800,"station_id":"ce4bhmp2rcd13ifvqgog","pricing_plan_id":"cebpf4jnsgd1na2vs0mg"},{"bike_id":"f6c97062-23b3-48e2-a347-34f6f8f3d30c","system_id":"levelo_inurba_marseille","lat":43.30424,"lon":5.41278,"is_reserved":false,"is_disabled":false,"rental_uris":{"android":"levelo://app?vid=f6c97062-23b3-48e2-a347-34f6f8f3d30c","ios":"levelo://app?vid=f6c97062-23b3-48e2-a347-34f6f8f3d30c"},"vehicle_type_id":"4","last_reported":1752845379,"current_range_meters":19200,"station_id":"ce4bhop2rcd13ifvqh8g","pricing_plan_id":"cebpf4jnsgd1na2vs0mg"},{"bike_id":"abce5b73-6a44-470b-9ebd-f0923e3d2689","system_id":"levelo_inurba_marseille","lat":43.30895,"lon":5.39663,"is_reserved":false,"is_disabled":false,"rental_uris":{"android":"levelo://app?vid=abce5b73-6a44-470b-9ebd-f0923e3d2689","ios":"levelo://app?vid=abce5b73-6a44-470b-9ebd-f0923e3d2689"},"vehicle_type_id":"4","last_reported":1752845379,"current_range_meters":19200,"station_id":"ce4bh012rcd13ifvqcv0","pricing_plan_id":"cebpf4jnsgd1na2vs0mg"},{"bike_id":"aacce92b-4365-4bf0-ae27-3a02b5869286","system_id":"levelo_inurba_marseille","lat":43.33719,"lon":5.39185,"is_reserved":false,"is_disabled":false,"rental_uris":{"android":"levelo://app?vid=aacce92b-4365-4bf0-ae27-3a02b5869286","ios":"levelo://app?vid=aacce92b-4365-4bf0-ae27-3a02b5869286"},"vehicle_type_id":"4","last_reported":1752845379,"current_range_meters":19600,"station_id":"ce4bhr92rcd13ifvqhsg","pricing_plan_id":"cebpf4jnsgd1na2vs0mg"},{"bike_id":"0d42bb12-ee97-4a32-a074-be6bc1214c8d","system_id":"levelo_inurba_marseille","lat":43.28266,"lon":5.35081,"is_reserved":false,"is_disabled":false,"rental_uris":{"android":"levelo://app?vid=0d42bb12-ee97-4a32-a074-be6bc1214c8d","ios":"levelo://app?vid=0d42bb12-ee97-4a32-a074-be6bc1214c8d"},"vehicle_type_id":"4","last_reported":1752845379,"current_range_meters":19600,"station_id":"ce4bhbp2rcd13ifvqerg","pricing_plan_id":"cebpf4jnsgd1na2vs0mg"},{"bike_id":"6b6a9480-15c5-491c-85cd-bc6a4033d806","system_id":"levelo_inurba_marseille","lat":43.24169,"lon":5.36397,"is_reserved":false,"is_disabled":false,"rental_uris":{"android":"levelo://app?vid=6b6a9480-15c5-491c-85cd-bc6a4033d806","ios":"levelo://app?vid=6b6a9480-15c5-491c-85cd-bc6a4033d806"},"vehicle_type_id":"4","last_reported":1752845379,"current_range_meters":19600,"station_id":"cpo36qri1sfpv3e86is0","pricing_plan_id":"cebpf4jnsgd1na2vs0mg"},{"bike_id":"8ed105f2-4066-4865-ab25-b4fd2acda0ca","system_id":"levelo_inurba_marseille","lat":43.25911,"lon":5.40889,"is_reserved":false,"is_disabled":false,"rental_uris":{"android":"levelo://app?vid=8ed105f2-4066-4865-ab25-b4fd2acda0ca","ios":"levelo://app?vid=8ed105f2-4066-4865-ab25-b4fd2acda0ca"},"vehicle_type_id":"4","last_reported":1752845379,"current_range_meters":19600,"station_id":"ce4bhm92rcd13ifvqglg","pricing_plan_id":"cebpf4jnsgd1na2vs0mg"},{"bike_id":"75c386ec-2b11-4ceb-a42e-98a6dc1d6c01","system_id":"levelo_inurba_marseille","lat":43.21234,"lon":5.35053,"is_reserved":false,"is_disabled":false,"rental_uris":{"android":"levelo://app?vid=75c386ec-2b11-4ceb-a42e-98a6dc1d6c01","ios":"levelo://app?vid=75c386ec-2b11-4ceb-a42e-98a6dc1d6c01"},"vehicle_type_id":"4","last_reported":1752845379,"current_range_meters":19600,"station_id":"","pricing_plan_id":"cebpf4jnsgd1na2vs0mg"},{"bike_id":"070514fe-927a-4fb0-9ca7-d8af1cc39ae0","system_id":"levelo_inurba_marseille","lat":43.28262,"lon":5.35063,"is_reserved":false,"is_disabled":false,"rental_uris":{"android":"levelo://app?vid=070514fe-927a-4fb0-9ca7-d8af1cc39ae0","ios":"levelo://app?vid=070514fe-927a-4fb0-9ca7-d8af1cc39ae0"},"vehicle_type_id":"4","last_reported":1752845379,"current_range_meters":19600,"station_id":"ce4bhbp2rcd13ifvqerg","pricing_plan_id":"cebpf4jnsgd1na2vs0mg"},{"bike_id":"f702adc8-24d1-4bd9-a014-dacd33778767","system_id":"levelo_inurba_marseille","lat":43.29362,"lon":5.3784,"is_reserved":false,"is_disabled":false,"rental_uris":{"android":"levelo://app?vid=f702adc8-24d1-4bd9-a014-dacd33778767","ios":"levelo://app?vid=f702adc8-24d1-4bd9-a014-dacd33778767"},"vehicle_type_id":"4","last_reported":1752845379,"current_range_meters":19600,"station_id":"ce4bgjh2rcd13ifvqbf0","pricing_plan_id":"cebpf4jnsgd1na2vs0mg"},{"bike_id":"2af720e5-780f-4f16-9448-c411cf8f356e","system_id":"levelo_inurba_marseille","lat":43.30282,"lon":5.37704,"is_reserved":false,"is_disabled":false,"rental_uris":{"android":"levelo://app?vid=2af720e5-780f-4f16-9448-c411cf8f356e","ios":"levelo://app?vid=2af720e5-780f-4f16-9448-c411cf8f356e"},"vehicle_type_id":"4","last_reported":1752845379,"current_range_meters":27600,"station_id":"ce4bguh2rcd13ifvqcj0","pricing_plan_id":"cebpf4jnsgd1na2vs0mg"},{"bike_id":"9da07ab1-07ba-4c70-9b3e-5095f2a8680b","system_id":"levelo_inurba_marseille","lat":43.30559,"lon":5.36497,"is_reserved":false,"is_disabled":false,"rental_uris":{"android":"levelo://app?vid=9da07ab1-07ba-4c70-9b3e-5095f2a8680b","ios":"levelo://app?vid=9da07ab1-07ba-4c70-9b3e-5095f2a8680b"},"vehicle_type_id":"4","last_reported":1752845379,"current_range_meters":19600,"station_id":"","pricing_plan_id":"cebpf4jnsgd1na2vs0mg"},{"bike_id":"10d391b5-c179-4f9b-944d-e8c56b01a775","system_id":"levelo_inurba_marseille","lat":43.21759,"lon":5.34593,"is_reserved":false,"is_disabled":false,"rental_uris":{"android":"levelo://app?vid=10d391b5-c179-4f9b-944d-e8c56b01a775","ios":"levelo://app?vid=10d391b5-c179-4f9b-944d-e8c56b01a775"},"vehicle_type_id":"4","last_reported":1752845379,"current_range_meters":19600,"station_id":"st_cvj6r9ubvosntc0bgbag","pricing_plan_id":"cebpf4jnsgd1na2vs0mg"},{"bike_id":"f667505e-318c-4382-8cee-56b1040e3ced","system_id":"levelo_inurba_marseille","lat":43.29035,"lon":5.3756,"is_reserved":false,"is_disabled":false,"rental_uris":{"android":"levelo://app?vid=f667505e-318c-4382-8cee-56b1040e3ced","ios":"levelo://app?vid=f667505e-318c-4382-8cee-56b1040e3ced"},"vehicle_type_id":"4","last_reported":1752845379,"current_range_meters":19600,"station_id":"ce4bh692rcd13ifvqe90","pricing_plan_id":"cebpf4jnsgd1na2vs0mg"},{"bike_id":"9eee562f-c74b-4c1a-8fa0-1792764207de","system_id":"levelo_inurba_marseille","lat":43.25487,"lon":5.37644,"is_reserved":false,"is_disabled":true,"rental_uris":{"android":"levelo://app?vid=9eee562f-c74b-4c1a-8fa0-1792764207de","ios":"levelo://app?vid=9eee562f-c74b-4c1a-8fa0-1792764207de"},"vehicle_type_id":"4","last_reported":1752845379,"current_range_meters":20000,"station_id":"ce4bhh12rcd13ifvqff0","pricing_plan_id":"cebpf4jnsgd1na2vs0mg"},{"bike_id":"33ab395a-ffc6-47bd-96a5-d8df1dd2d18e","system_id":"levelo_inurba_marseille","lat":43.217504,"lon":5.346025,"is_reserved":false,"is_disabled":false,"rental_uris":{"android":"levelo://app?vid=33ab395a-ffc6-47bd-96a5-d8df1dd2d18e","ios":"levelo://app?vid=33ab395a-ffc6-47bd-96a5-d8df1dd2d18e"},"vehicle_type_id":"4","last_reported":1752845379,"current_range_meters":20000,"station_id":"st_cvj6r9ubvosntc0bgbag","pricing_plan_id":"cebpf4jnsgd1na2vs0mg"},{"bike_id":"45dea0eb-918d-49f1-8341-001e35c226f0","system_id":"levelo_inurba_marseille","lat":43.21194,"lon":5.35083,"is_reserved":false,"is_disabled":false,"rental_uris":{"android":"levelo://app?vid=45dea0eb-918d-49f1-8341-001e35c226f0","ios":"levelo://app?vid=45dea0eb-918d-49f1-8341-001e35c226f0"},"vehicle_type_id":"4","last_reported":1752845379,"current_range_meters":20000,"station_id":"st_cvj6sg6p6f1abm77japg","pricing_plan_id":"cebpf4jnsgd1na2vs0mg"},{"bike_id":"9b834749-c833-498e-a4ba-f998b30922a8","system_id":"levelo_inurba_marseille","lat":43.29916,"lon":5.37482,"is_reserved":false,"is_disabled":false,"rental_uris":{"android":"levelo://app?vid=9b834749-c833-498e-a4ba-f998b30922a8","ios":"levelo://app?vid=9b834749-c833-498e-a4ba-f998b30922a8"},"vehicle_type_id":"4","last_reported":1752845379,"current_range_meters":20000,"station_id":"ce4bgjh2rcd13ifvqbg0","pricing_plan_id":"cebpf4jnsgd1na2vs0mg"},{"bike_id":"d2fa22aa-c34d-4a77-b023-d06add13aae8","system_id":"levelo_inurba_marseille","lat":43.2454,"lon":5.39534,"is_reserved":false,"is_disabled":false,"rental_uris":{"android":"levelo://app?vid=d2fa22aa-c34d-4a77-b023-d06add13aae8","ios":"levelo://app?vid=d2fa22aa-c34d-4a77-b023-d06add13aae8"},"vehicle_type_id":"4","last_reported":1752845379,"current_range_meters":20000,"station_id":"ce4bhlp2rcd13ifvqgjg","pricing_plan_id":"cebpf4jnsgd1na2vs0mg"},{"bike_id":"7a7fd7cf-f8b9-4749-b31b-4bd24165641e","system_id":"levelo_inurba_marseille","lat":43.26565,"lon":5.38997,"is_reserved":false,"is_disabled":false,"rental_uris":{"android":"levelo://app?vid=7a7fd7cf-f8b9-4749-b31b-4bd24165641e","ios":"levelo://app?vid=7a7fd7cf-f8b9-4749-b31b-4bd24165641e"},"vehicle_type_id":"4","last_reported":1752845379,"current_range_meters":20000,"station_id":"ce4bhe12rcd13ifvqf30","pricing_plan_id":"cebpf4jnsgd1na2vs0mg"},{"bike_id":"081a5af0-2ba4-49db-a305-d863e9ad59b5","system_id":"levelo_inurba_marseille","lat":43.24397,"lon":5.37064,"is_reserved":false,"is_disabled":false,"rental_uris":{"android":"levelo://app?vid=081a5af0-2ba4-49db-a305-d863e9ad59b5","ios":"levelo://app?vid=081a5af0-2ba4-49db-a305-d863e9ad59b5"},"vehicle_type_id":"4","last_reported":1752845379,"current_range_meters":20000,"station_id":"ce4bhhh2rcd13ifvqfk0","pricing_plan_id":"cebpf4jnsgd1na2vs0mg"},{"bike_id":"ae514fe1-85ea-4b12-b065-9e5a24663928","system_id":"levelo_inurba_marseille","lat":43.21195,"lon":5.35069,"is_reserved":false,"is_disabled":false,"rental_uris":{"android":"levelo://app?vid=ae514fe1-85ea-4b12-b065-9e5a24663928","ios":"levelo://app?vid=ae514fe1-85ea-4b12-b065-9e5a24663928"},"vehicle_type_id":"4","last_reported":1752845379,"current_range_meters":20000,"station_id":"st_cvj6sg6p6f1abm77japg","pricing_plan_id":"cebpf4jnsgd1na2vs0mg"},{"bike_id":"53adf772-e559-4105-9924-292b35e64b0e","system_id":"levelo_inurba_marseille","lat":43.28267,"lon":5.35093,"is_reserved":false,"is_disabled":false,"rental_uris":{"android":"levelo://app?vid=53adf772-e559-4105-9924-292b35e64b0e","ios":"levelo://app?vid=53adf772-e559-4105-9924-292b35e64b0e"},"vehicle_type_id":"4","last_reported":1752845379,"current_range_meters":20000,"station_id":"ce4bhbp2rcd13ifvqerg","pricing_plan_id":"cebpf4jnsgd1na2vs0mg"},{"bike_id":"c563397a-8e95-43de-9482-c447bf9c775e","system_id":"levelo_inurba_marseille","lat":43.29328,"lon":5.4117,"is_reserved":false,"is_disabled":false,"rental_uris":{"android":"levelo://app?vid=c563397a-8e95-43de-9482-c447bf9c775e","ios":"levelo://app?vid=c563397a-8e95-43de-9482-c447bf9c775e"},"vehicle_type_id":"4","last_reported":1752845379,"current_range_meters":20000,"station_id":"","pricing_plan_id":"cebpf4jnsgd1na2vs0mg"},{"bike_id":"a2c797ac-91ff-4987-81ca-78f615ca3bf1","system_id":"levelo_inurba_marseille","lat":43.27572,"lon":5.38425,"is_reserved":false,"is_disabled":false,"rental_uris":{"android":"levelo://app?vid=a2c797ac-91ff-4987-81ca-78f615ca3bf1","ios":"levelo://app?vid=a2c797ac-91ff-4987-81ca-78f615ca3bf1"},"vehicle_type_id":"4","last_reported":1752845379,"current_range_meters":20000,"station_id":"ce4bhh92rcd13ifvqfi0","pricing_plan_id":"cebpf4jnsgd1na2vs0mg"},{"bike_id":"4d6a38e2-6757-4ef9-94c5-7db75e45819d","system_id":"levelo_inurba_marseille","lat":43.28128,"lon":5.35148,"is_reserved":false,"is_disabled":false,"rental_uris":{"android":"levelo://app?vid=4d6a38e2-6757-4ef9-94c5-7db75e45819d","ios":"levelo://app?vid=4d6a38e2-6757-4ef9-94c5-7db75e45819d"},"vehicle_type_id":"4","last_reported":1752845379,"current_range_meters":20800,"station_id":"","pricing_plan_id":"cebpf4jnsgd1na2vs0mg"},{"bike_id":"729b901a-b79f-4f73-b53f-a7a654564a69","system_id":"levelo_inurba_marseille","lat":43.28447,"lon":5.39202,"is_reserved":false,"is_disabled":false,"rental_uris":{"android":"levelo://app?vid=729b901a-b79f-4f73-b53f-a7a654564a69","ios":"levelo://app?vid=729b901a-b79f-4f73-b53f-a7a654564a69"},"vehicle_type_id":"4","last_reported":1752845379,"current_range_meters":20000,"station_id":"ce4bhoh2rcd13ifvqh5g","pricing_plan_id":"cebpf4jnsgd1na2vs0mg"},{"bike_id":"4a2af6fb-f040-4dff-9ff5-d70c4f952e83","system_id":"levelo_inurba_marseille","lat":43.31512,"lon":5.37254,"is_reserved":false,"is_disabled":true,"rental_uris":{"android":"levelo://app?vid=4a2af6fb-f040-4dff-9ff5-d70c4f952e83","ios":"levelo://app?vid=4a2af6fb-f040-4dff-9ff5-d70c4f952e83"},"vehicle_type_id":"4","last_reported":1752845379,"current_range_meters":20400,"station_id":"","pricing_plan_id":"cebpf4jnsgd1na2vs0mg"},{"bike_id":"dd427930-5cdc-4424-acaa-9750d4add40f","system_id":"levelo_inurba_marseille","lat":43.23183,"lon":5.39977,"is_reserved":false,"is_disabled":false,"rental_uris":{"android":"levelo://app?vid=dd427930-5cdc-4424-acaa-9750d4add40f","ios":"levelo://app?vid=dd427930-5cdc-4424-acaa-9750d4add40f"},"vehicle_type_id":"4","last_reported":1752845379,"current_range_meters":20000,"station_id":"ce4bhn12rcd13ifvqgqg","pricing_plan_id":"cebpf4jnsgd1na2vs0mg"},{"bike_id":"90d4f77e-262c-4d22-9803-80c7c88599a7","system_id":"levelo_inurba_marseille","lat":43.337444,"lon":5.374475,"is_reserved":false,"is_disabled":false,"rental_uris":{"android":"levelo://app?vid=90d4f77e-262c-4d22-9803-80c7c88599a7","ios":"levelo://app?vid=90d4f77e-262c-4d22-9803-80c7c88599a7"},"vehicle_type_id":"4","last_reported":1752845379,"current_range_meters":20400,"station_id":"","pricing_plan_id":"cebpf4jnsgd1na2vs0mg"},{"bike_id":"a168d389-ea1d-4756-ad9b-cf73a31ab442","system_id":"levelo_inurba_marseille","lat":43.288747,"lon":5.400098,"is_reserved":false,"is_disabled":false,"rental_uris":{"android":"levelo://app?vid=a168d389-ea1d-4756-ad9b-cf73a31ab442","ios":"levelo://app?vid=a168d389-ea1d-4756-ad9b-cf73a31ab442"},"vehicle_type_id":"4","last_reported":1752845379,"current_range_meters":20400,"station_id":"","pricing_plan_id":"cebpf4jnsgd1na2vs0mg"},{"bike_id":"44e89ad7-16a2-4910-805f-061f2aee5ab7","system_id":"levelo_inurba_marseille","lat":43.23192,"lon":5.35573,"is_reserved":false,"is_disabled":false,"rental_uris":{"android":"levelo://app?vid=44e89ad7-16a2-4910-805f-061f2aee5ab7","ios":"levelo://app?vid=44e89ad7-16a2-4910-805f-061f2aee5ab7"},"vehicle_type_id":"4","last_reported":1752845379,"current_range_meters":20400,"station_id":"ce4bhu92rcd13ifvqi70","pricing_plan_id":"cebpf4jnsgd1na2vs0mg"},{"bike_id":"91243f73-e066-4646-a12b-37ceb2df5e2a","system_id":"levelo_inurba_marseille","lat":43.29678,"lon":5.3663,"is_reserved":false,"is_disabled":false,"rental_uris":{"android":"levelo://app?vid=91243f73-e066-4646-a12b-37ceb2df5e2a","ios":"levelo://app?vid=91243f73-e066-4646-a12b-37ceb2df5e2a"},"vehicle_type_id":"4","last_reported":1752845379,"current_range_meters":20400,"station_id":"ce4bgn12rcd13ifvqbt0","pricing_plan_id":"cebpf4jnsgd1na2vs0mg"},{"bike_id":"d6efe42d-a135-4fed-ba3e-381fa3054eaa","system_id":"levelo_inurba_marseille","lat":43.33602,"lon":5.41027,"is_reserved":false,"is_disabled":false,"rental_uris":{"android":"levelo://app?vid=d6efe42d-a135-4fed-ba3e-381fa3054eaa","ios":"levelo://app?vid=d6efe42d-a135-4fed-ba3e-381fa3054eaa"},"vehicle_type_id":"4","last_reported":1752845379,"current_range_meters":20400,"station_id":"ce4bhqh2rcd13ifvqhmg","pricing_plan_id":"cebpf4jnsgd1na2vs0mg"},{"bike_id":"bd4f2166-3fd0-4dcc-b0eb-f1e53c57f556","system_id":"levelo_inurba_marseille","lat":43.211925,"lon":5.350729,"is_reserved":false,"is_disabled":false,"rental_uris":{"android":"levelo://app?vid=bd4f2166-3fd0-4dcc-b0eb-f1e53c57f556","ios":"levelo://app?vid=bd4f2166-3fd0-4dcc-b0eb-f1e53c57f556"},"vehicle_type_id":"4","last_reported":1752845379,"current_range_meters":20800,"station_id":"st_cvj6sg6p6f1abm77japg","pricing_plan_id":"cebpf4jnsgd1na2vs0mg"},{"bike_id":"fada201c-dfe5-409c-95e7-82088b9a04a6","system_id":"levelo_inurba_marseille","lat":43.24672,"lon":5.38167,"is_reserved":false,"is_disabled":false,"rental_uris":{"android":"levelo://app?vid=fada201c-dfe5-409c-95e7-82088b9a04a6","ios":"levelo://app?vid=fada201c-dfe5-409c-95e7-82088b9a04a6"},"vehicle_type_id":"4","last_reported":1752845379,"current_range_meters":20000,"station_id":"ce4bhih2rcd13ifvqfr0","pricing_plan_id":"cebpf4jnsgd1na2vs0mg"},{"bike_id":"cace2e7d-7e2a-43ff-bc8f-7502da9fc2d6","system_id":"levelo_inurba_marseille","lat":43.302,"lon":5.36613,"is_reserved":false,"is_disabled":false,"rental_uris":{"android":"levelo://app?vid=cace2e7d-7e2a-43ff-bc8f-7502da9fc2d6","ios":"levelo://app?vid=cace2e7d-7e2a-43ff-bc8f-7502da9fc2d6"},"vehicle_type_id":"4","last_reported":1752845379,"current_range_meters":20800,"station_id":"ce4bgrh2rcd13ifvqc8g","pricing_plan_id":"cebpf4jnsgd1na2vs0mg"},{"bike_id":"e119a308-ad6d-4ac5-8965-22b96b757f74","system_id":"levelo_inurba_marseille","lat":43.229307,"lon":5.353975,"is_reserved":false,"is_disabled":false,"rental_uris":{"android":"levelo://app?vid=e119a308-ad6d-4ac5-8965-22b96b757f74","ios":"levelo://app?vid=e119a308-ad6d-4ac5-8965-22b96b757f74"},"vehicle_type_id":"4","last_reported":1752845379,"current_range_meters":20800,"station_id":"cpo3532slgdg3j2ikp40","pricing_plan_id":"cebpf4jnsgd1na2vs0mg"},{"bike_id":"cfc68d81-af83-4df0-99db-551e99a95670","system_id":"levelo_inurba_marseille","lat":43.29228,"lon":5.40027,"is_reserved":false,"is_disabled":false,"rental_uris":{"android":"levelo://app?vid=cfc68d81-af83-4df0-99db-551e99a95670","ios":"levelo://app?vid=cfc68d81-af83-4df0-99db-551e99a95670"},"vehicle_type_id":"4","last_reported":1752845379,"current_range_meters":20800,"station_id":"","pricing_plan_id":"cebpf4jnsgd1na2vs0mg"},{"bike_id":"2319051d-124b-4afc-a2d9-eb7c55e9ccb5","system_id":"levelo_inurba_marseille","lat":43.28406,"lon":5.34987,"is_reserved":false,"is_disabled":false,"rental_uris":{"android":"levelo://app?vid=2319051d-124b-4afc-a2d9-eb7c55e9ccb5","ios":"levelo://app?vid=2319051d-124b-4afc-a2d9-eb7c55e9ccb5"},"vehicle_type_id":"4","last_reported":1752845379,"current_range_meters":20800,"station_id":"ce4bhbh2rcd13ifvqepg","pricing_plan_id":"cebpf4jnsgd1na2vs0mg"},{"bike_id":"c16549e0-e845-44c6-a1b6-ff14fef0712b","system_id":"levelo_inurba_marseille","lat":43.2872,"lon":5.36089,"is_reserved":false,"is_disabled":false,"rental_uris":{"android":"levelo://app?vid=c16549e0-e845-44c6-a1b6-ff14fef0712b","ios":"levelo://app?vid=c16549e0-e845-44c6-a1b6-ff14fef0712b"},"vehicle_type_id":"4","last_reported":1752845379,"current_range_meters":21600,"station_id":"cki0cbj6b192h4jlfktg","pricing_plan_id":"cebpf4jnsgd1na2vs0mg"},{"bike_id":"783cc84a-a041-4bdd-8002-c343b62c1731","system_id":"levelo_inurba_marseille","lat":43.292324,"lon":5.360644,"is_reserved":false,"is_disabled":true,"rental_uris":{"android":"levelo://app?vid=783cc84a-a041-4bdd-8002-c343b62c1731","ios":"levelo://app?vid=783cc84a-a041-4bdd-8002-c343b62c1731"},"vehicle_type_id":"4","last_reported":1752845379,"current_range_meters":21600,"station_id":"ce4bhbh2rcd13ifvqeqg","pricing_plan_id":"cebpf4jnsgd1na2vs0mg"},{"bike_id":"b2d8de19-5228-47c5-a04d-d8664c46de68","system_id":"levelo_inurba_marseille","lat":43.22926,"lon":5.35375,"is_reserved":false,"is_disabled":false,"rental_uris":{"android":"levelo://app?vid=b2d8de19-5228-47c5-a04d-d8664c46de68","ios":"levelo://app?vid=b2d8de19-5228-47c5-a04d-d8664c46de68"},"vehicle_type_id":"4","last_reported":1752845379,"current_range_meters":21600,"station_id":"cpo3532slgdg3j2ikp40","pricing_plan_id":"cebpf4jnsgd1na2vs0mg"},{"bike_id":"6ab6e2c9-2efe-4702-88bf-8fe5cf5571b9","system_id":"levelo_inurba_marseille","lat":43.24168,"lon":5.36399,"is_reserved":false,"is_disabled":false,"rental_uris":{"android":"levelo://app?vid=6ab6e2c9-2efe-4702-88bf-8fe5cf5571b9","ios":"levelo://app?vid=6ab6e2c9-2efe-4702-88bf-8fe5cf5571b9"},"vehicle_type_id":"4","last_reported":1752845379,"current_range_meters":21600,"station_id":"cpo36qri1sfpv3e86is0","pricing_plan_id":"cebpf4jnsgd1na2vs0mg"},{"bike_id":"2b7302bc-13a1-421a-b212-2b92f54a074c","system_id":"levelo_inurba_marseille","lat":43.29933,"lon":5.36562,"is_reserved":false,"is_disabled":false,"rental_uris":{"android":"levelo://app?vid=2b7302bc-13a1-421a-b212-2b92f54a074c","ios":"levelo://app?vid=2b7302bc-13a1-421a-b212-2b92f54a074c"},"vehicle_type_id":"4","last_reported":1752845379,"current_range_meters":21600,"station_id":"ce4bgm92rcd13ifvqbr0","pricing_plan_id":"cebpf4jnsgd1na2vs0mg"},{"bike_id":"158422b9-1628-470c-9ef7-ebee5ce90c1e","system_id":"levelo_inurba_marseille","lat":43.211973,"lon":5.351039,"is_reserved":false,"is_disabled":false,"rental_uris":{"android":"levelo://app?vid=158422b9-1628-470c-9ef7-ebee5ce90c1e","ios":"levelo://app?vid=158422b9-1628-470c-9ef7-ebee5ce90c1e"},"vehicle_type_id":"4","last_reported":1752845379,"current_range_meters":21600,"station_id":"st_cvj6sg6p6f1abm77japg","pricing_plan_id":"cebpf4jnsgd1na2vs0mg"},{"bike_id":"6928dacf-2e8f-4c40-8774-0d60fdfd8e6d","system_id":"levelo_inurba_marseille","lat":43.29273,"lon":5.42838,"is_reserved":false,"is_disabled":false,"rental_uris":{"android":"levelo://app?vid=6928dacf-2e8f-4c40-8774-0d60fdfd8e6d","ios":"levelo://app?vid=6928dacf-2e8f-4c40-8774-0d60fdfd8e6d"},"vehicle_type_id":"4","last_reported":1752845379,"current_range_meters":22000,"station_id":"","pricing_plan_id":"cebpf4jnsgd1na2vs0mg"},{"bike_id":"d005f5c1-9747-48cf-b4fe-7e26683afb57","system_id":"levelo_inurba_marseille","lat":43.337444,"lon":5.374475,"is_reserved":false,"is_disabled":false,"rental_uris":{"android":"levelo://app?vid=d005f5c1-9747-48cf-b4fe-7e26683afb57","ios":"levelo://app?vid=d005f5c1-9747-48cf-b4fe-7e26683afb57"},"vehicle_type_id":"4","last_reported":1752845379,"current_range_meters":22000,"station_id":"ce4bhah2rcd13ifvqei0","pricing_plan_id":"cebpf4jnsgd1na2vs0mg"},