{"last_updated":1690995945,"ttl":30,"version":"2.2","data":{"bikes":[{"bike_id":"61d4a4e6-4397-47f1-be08-0fd8bcb71ee8","system_id":"levelo_inurba_marseille","lat":43.314811,"lon":5.373103,"is_reserved":false,"is_disabled":false,"rental_uris":{"android":"levelo://app?vid=61d4a4e6-4397-47f1-be08-0fd8bcb71ee8","ios":"levelo://app?vid=61d4a4e6-4397-47f1-be08-0fd8bcb71ee8"},"vehicle_type_id":"4","last_reported":1690995951,"current_range_meters":30000,"station_id":"ce4bgt12rcd13ifvqcd0","pricing_plan_id":"free"},{"bike_id":"4396d199-3c72-4e07-9c49-8e46440cc37a","system_id":"levelo_inurba_marseille","lat":43.31663,"lon":5.37441,"is_reserved":false,"is_disabled":false,"rental_uris":{"android":"levelo://app?vid=4396d199-3c72-4e07-9c49-8e46440cc37a","ios":"levelo://app?vid=4396d199-3c72-4e07-9c49-8e46440cc37a"},"vehicle_type_id":"4","last_reported":1690995951,"current_range_meters":22400,"station_id":"","pricing_plan_id":"free"},{"bike_id":"74d14feb-a892-478d-b86f-291c876731cb","system_id":"levelo_inurba_marseille","lat":43.31667,"lon":5.37521,"is_reserved":false,"is_disabled":false,"rental_uris":{"android":"levelo://app?vid=74d14feb-a892-478d-b86f-291c876731cb","ios":"levelo://app?vid=74d14feb-a892-478d-b86f-291c876731cb"},"vehicle_type_id":"4","last_reported":1690995951,"current_range_meters":30000,"station_id":"","pricing_plan_id":"free"},{"bike_id":"d41c0801-200a-4914-b3cd-60127fb8e19a","system_id":"levelo_inurba_marseille","lat":43.305714,"lon":5.365633,"is_reserved":false,"is_disabled":false,"rental_uris":{"android":"levelo://app?vid=d41c0801-200a-4914-b3cd-60127fb8e19a","ios":"levelo://app?vid=d41c0801-200a-4914-b3cd-60127fb8e19a"},"vehicle_type_id":"4","last_reported":1690995951,"current_range_meters":28800,"station_id":"ce4bgs12rcd13ifvqcag","pricing_plan_id":"free"},{"bike_id":"91e5b558-c2c8-43ec-90f2-aaf480e85e23","system_id":"levelo_inurba_marseille","lat":43.305714,"lon":5.365633,"is_reserved":false,"is_disabled":false,"rental_uris":{"android":"levelo://app?vid=91e5b558-c2c8-43ec-90f2-aaf480e85e23","ios":"levelo://app?vid=91e5b558-c2c8-43ec-90f2-aaf480e85e23"},"vehicle_type_id":"4","last_reported":1690995951,"current_range_meters":11600,"station_id":"ce4bgs12rcd13ifvqcag","pricing_plan_id":"free"},{"bike_id":"f20ea888-8740-440b-bfeb-8eb2a7c1f652","system_id":"levelo_inurba_marseille","lat":43.305989,"lon":5.37225,"is_reserved":false,"is_disabled":false,"rental_uris":{"android":"levelo://app?vid=f20ea888-8740-440b-bfeb-8eb2a7c1f652","ios":"levelo://app?vid=f20ea888-8740-440b-bfeb-8eb2a7c1f652"},"vehicle_type_id":"4","last_reported":1690995951,"current_range_meters":29600,"station_id":"ce4bgqh2rcd13ifvqc4g","pricing_plan_id":"free"},{"bike_id":"def38edc-accb-4cfd-8ef2-4ab372bf9948","system_id":"levelo_inurba_marseille","lat":43.311125,"lon":5.377624,"is_reserved":false,"is_disabled":false,"rental_uris":{"android":"levelo://app?vid=def38edc-accb-4cfd-8ef2-4ab372bf9948","ios":"levelo://app?vid=def38edc-accb-4cfd-8ef2-4ab372bf9948"},"vehicle_type_id":"4","last_reported":1690995951,"current_range_meters":2800,"station_id":"ce4bgt92rcd13ifvqcg0","pricing_plan_id":"free"},{"bike_id":"75699336-fe75-4bdc-8c34-e5f73a08606a","system_id":"levelo_inurba_marseille","lat":43.30784,"lon":5.37644,"is_reserved":false,"is_disabled":false,"rental_uris":{"android":"levelo://app?vid=75699336-fe75-4bdc-8c34-e5f73a08606a","ios":"levelo://app?vid=75699336-fe75-4bdc-8c34-e5f73a08606a"},"vehicle_type_id":"4","last_reported":1690995951,"current_range_meters":22400,"station_id":"ce4bgv92rcd13ifvqcq0","pricing_plan_id":"free"},{"bike_id":"dcdd96a3-d61b-488a-b98d-12e2297159c0","system_id":"levelo_inurba_marseille","lat":43.32072,"lon":5.37337,"is_reserved":false,"is_disabled":false,"rental_uris":{"android":"levelo://app?vid=dcdd96a3-d61b-488a-b98d-12e2297159c0","ios":"levelo://app?vid=dcdd96a3-d61b-488a-b98d-12e2297159c0"},"vehicle_type_id":"4","last_reported":1690995951,"current_range_meters":1200,"station_id":"","pricing_plan_id":"free"},{"bike_id":"b58ee320-b811-4ffe-9f3e-88bcfd0c96d6","system_id":"levelo_inurba_marseille","lat":43.30295,"lon":5.36864,"is_reserved":false,"is_disabled":false,"rental_uris":{"android":"levelo://app?vid=b58ee320-b811-4ffe-9f3e-88bcfd0c96d6","ios":"levelo://app?vid=b58ee320-b811-4ffe-9f3e-88bcfd0c96d6"},"vehicle_type_id":"4","last_reported":1690995951,"current_range_meters":4000,"station_id":"ce4bgqh2rcd13ifvqc5g","pricing_plan_id":"free"},{"bike_id":"538883bc-8939-44e7-a4d9-00f4431276f7","system_id":"levelo_inurba_marseille","lat":43.31537,"lon":5.38032,"is_reserved":false,"is_disabled":false,"rental_uris":{"android":"levelo://app?vid=538883bc-8939-44e7-a4d9-00f4431276f7","ios":"levelo://app?vid=538883bc-8939-44e7-a4d9-00f4431276f7"},"vehicle_type_id":"4","last_reported":1690995951,"current_range_meters":25600,"station_id":"ce4bhsp2rcd13ifvqi50","pricing_plan_id":"free"},{"bike_id":"28a477d3-dc9c-414c-ae71-fd6a5c0e5559","system_id":"levelo_inurba_marseille","lat":43.3209,"lon":5.37631,"is_reserved":false,"is_disabled":false,"rental_uris":{"android":"levelo://app?vid=28a477d3-dc9c-414c-ae71-fd6a5c0e5559","ios":"levelo://app?vid=28a477d3-dc9c-414c-ae71-fd6a5c0e5559"},"vehicle_type_id":"4","last_reported":1690995951,"current_range_meters":19600,"station_id":"ce4bgt92rcd13ifvqcf0","pricing_plan_id":"free"},{"bike_id":"3d843d7f-f6e4-4e79-891d-f2fad85eb014","system_id":"levelo_inurba_marseille","lat":43.3211,"lon":5.37607,"is_reserved":false,"is_disabled":false,"rental_uris":{"android":"levelo://app?vid=3d843d7f-f6e4-4e79-891d-f2fad85eb014","ios":"levelo://app?vid=3d843d7f-f6e4-4e79-891d-f2fad85eb014"},"vehicle_type_id":"4","last_reported":1690995951,"current_range_meters":28000,"station_id":"ce4bgt92rcd13ifvqcf0","pricing_plan_id":"free"},{"bike_id":"69efd253-fbbb-4a73-9ba0-16d8244fa080","system_id":"levelo_inurba_marseille","lat":43.3047,"lon":5.37921,"is_reserved":false,"is_disabled":false,"rental_uris":{"android":"levelo://app?vid=69efd253-fbbb-4a73-9ba0-16d8244fa080","ios":"levelo://app?vid=69efd253-fbbb-4a73-9ba0-16d8244fa080"},"vehicle_type_id":"4","last_reported":1690995951,"current_range_meters":27600,"station_id":"ce4bgup2rcd13ifvqcn0","pricing_plan_id":"free"},{"bike_id":"11ed9342-1ba0-4f93-9150-569c0d9a27a5","system_id":"levelo_inurba_marseille","lat":43.319935,"lon":5.381699,"is_reserved":false,"is_disabled":false,"rental_uris":{"android":"levelo://app?vid=11ed9342-1ba0-4f93-9150-569c0d9a27a5","ios":"levelo://app?vid=11ed9342-1ba0-4f93-9150-569c0d9a27a5"},"vehicle_type_id":"4","last_reported":1690995951,"current_range_meters":26400,"station_id":"ce4bhr12rcd13ifvqhpg","pricing_plan_id":"free"},{"bike_id":"0e9145d1-17b9-45ee-a7c4-d52600518c02","system_id":"levelo_inurba_marseille","lat":43.31359,"lon":5.38489,"is_reserved":false,"is_disabled":false,"rental_uris":{"android":"levelo://app?vid=0e9145d1-17b9-45ee-a7c4-d52600518c02","ios":"levelo://app?vid=0e9145d1-17b9-45ee-a7c4-d52600518c02"},"vehicle_type_id":"4","last_reported":1690995951,"current_range_meters":10400,"station_id":"ce4bgt92rcd13ifvqcf0","pricing_plan_id":"free"},{"bike_id":"2fc05b90-d448-4e5f-acca-4afadc455bc5","system_id":"levelo_inurba_marseille","lat":43.31361,"lon":5.38492,"is_reserved":false,"is_disabled":false,"rental_uris":{"android":"levelo://app?vid=2fc05b90-d448-4e5f-acca-4afadc455bc5","ios":"levelo://app?vid=2fc05b90-d448-4e5f-acca-4afadc455bc5"},"vehicle_type_id":"4","last_reported":1690995951,"current_range_meters":10800,"station_id":"","pricing_plan_id":"free"},{"bike_id":"0b81f312-996d-4363-9832-6e58b60fd562","system_id":"levelo_inurba_marseille","lat":43.313571,"lon":5.384829,"is_reserved":false,"is_disabled":false,"rental_uris":{"android":"levelo://app?vid=0b81f312-996d-4363-9832-6e58b60fd562","ios":"levelo://app?vid=0b81f312-996d-4363-9832-6e58b60fd562"},"vehicle_type_id":"4","last_reported":1690995951,"current_range_meters":19600,"station_id":"ce4bgt92rcd13ifvqcf0","pricing_plan_id":"free"},{"bike_id":"cddd64b3-5686-46e2-b5c1-768047d19c30","system_id":"levelo_inurba_marseille","lat":43.31363,"lon":5.38498,"is_reserved":false,"is_disabled":false,"rental_uris":{"android":"levelo://app?vid=cddd64b3-5686-46e2-b5c1-768047d19c30","ios":"levelo://app?vid=cddd64b3-5686-46e2-b5c1-768047d19c30"},"vehicle_type_id":"4","last_reported":1690995951,"current_range_meters":26000,"station_id":"ce4bgt92rcd13ifvqcf0","pricing_plan_id":"free"},{"bike_id":"2a5735c4-5e16-432a-bf2a-8f552f36bb98","system_id":"levelo_inurba_marseille","lat":43.299222,"lon":5.365554,"is_reserved":false,"is_disabled":false,"rental_uris":{"android":"levelo://app?vid=2a5735c4-5e16-432a-bf2a-8f552f36bb98","ios":"levelo://app?vid=2a5735c4-5e16-432a-bf2a-8f552f36bb98"},"vehicle_type_id":"4","last_reported":1690995951,"current_range_meters":28000,"station_id":"ce4bgm92rcd13ifvqbr0","pricing_plan_id":"free"},{"bike_id":"79ade18b-a45b-46ad-b3b6-b9a2219884a8","system_id":"levelo_inurba_marseille","lat":43.298433,"lon":5.362774,"is_reserved":false,"is_disabled":false,"rental_uris":{"android":"levelo://app?vid=79ade18b-a45b-46ad-b3b6-b9a2219884a8","ios":"levelo://app?vid=79ade18b-a45b-46ad-b3b6-b9a2219884a8"},"vehicle_type_id":"4","last_reported":1690995951,"current_range_meters":1200,"station_id":"ce4bgpp2rcd13ifvqc3g","pricing_plan_id":"free"},{"bike_id":"30537d43-af02-4a10-b928-7b9b8cf633d2","system_id":"levelo_inurba_marseille","lat":43.30547,"lon":5.38435,"is_reserved":false,"is_disabled":false,"rental_uris":{"android":"levelo://app?vid=30537d43-af02-4a10-b928-7b9b8cf633d2","ios":"levelo://app?vid=30537d43-af02-4a10-b928-7b9b8cf633d2"},"vehicle_type_id":"4","last_reported":1690995951,"current_range_meters":28800,"station_id":"ce4bgg92rcd13ifvqb30","pricing_plan_id":"free"},{"bike_id":"86bbca6a-bb1e-49b6-a3be-faa1dc2cdd87","system_id":"levelo_inurba_marseille","lat":43.298433,"lon":5.362774,"is_reserved":false,"is_disabled":false,"rental_uris":{"android":"levelo://app?vid=86bbca6a-bb1e-49b6-a3be-faa1dc2cdd87","ios":"levelo://app?vid=86bbca6a-bb1e-49b6-a3be-faa1dc2cdd87"},"vehicle_type_id":"4","last_reported":1690995951,"current_range_meters":1200,"station_id":"ce4bgpp2rcd13ifvqc3g","pricing_plan_id":"free"},{"bike_id":"2a29ec2b-8dc7-490b-826b-f47095507857","system_id":"levelo_inurba_marseille","lat":43.311722,"lon":5.387247,"is_reserved":false,"is_disabled":false,"rental_uris":{"android":"levelo://app?vid=2a29ec2b-8dc7-490b-826b-f47095507857","ios":"levelo://app?vid=2a29ec2b-8dc7-490b-826b-f47095507857"},"vehicle_type_id":"4","last_reported":1690995951,"current_range_meters":1200,"station_id":"ce4bgv12rcd13ifvqcp0","pricing_plan_id":"free"},{"bike_id":"6d0a96e6-eaa9-4980-b378-5b95273e5bf5","system_id":"levelo_inurba_marseille","lat":43.297794,"lon":5.370888,"is_reserved":false,"is_disabled":false,"rental_uris":{"android":"levelo://app?vid=6d0a96e6-eaa9-4980-b378-5b95273e5bf5","ios":"levelo://app?vid=6d0a96e6-eaa9-4980-b378-5b95273e5bf5"},"vehicle_type_id":"4","last_reported":1690995951,"current_range_meters":31200,"station_id":"ce4bgop2rcd13ifvqc1g","pricing_plan_id":"free"},{"bike_id":"ed964a9b-d0e5-4c4d-9ed1-e2b8481496f8","system_id":"levelo_inurba_marseille","lat":43.297794,"lon":5.370888,"is_reserved":false,"is_disabled":false,"rental_uris":{"android":"levelo://app?vid=ed964a9b-d0e5-4c4d-9ed1-e2b8481496f8","ios":"levelo://app?vid=ed964a9b-d0e5-4c4d-9ed1-e2b8481496f8"},"vehicle_type_id":"4","last_reported":1690995951,"current_range_meters":17600,"station_id":"ce4bgop2rcd13ifvqc1g","pricing_plan_id":"free"},{"bike_id":"7d255938-9bfc-46e1-9ab1-22c24f5c364d","system_id":"levelo_inurba_marseille","lat":43.328371,"lon":5.366912,"is_reserved":false,"is_disabled":false,"rental_uris":{"android":"levelo://app?vid=7d255938-9bfc-46e1-9ab1-22c24f5c364d","ios":"levelo://app?vid=7d255938-9bfc-46e1-9ab1-22c24f5c364d"},"vehicle_type_id":"4","last_reported":1690995951,"current_range_meters":0,"station_id":"ce4bhs92rcd13ifvqi0g","pricing_plan_id":"free"},{"bike_id":"6d8d2ea5-0d68-492c-9259-e61bdd4615b9","system_id":"levelo_inurba_marseille","lat":43.32829,"lon":5.36691,"is_reserved":false,"is_disabled":false,"rental_uris":{"android":"levelo://app?vid=6d8d2ea5-0d68-492c-9259-e61bdd4615b9","ios":"levelo://app?vid=6d8d2ea5-0d68-492c-9259-e61bdd4615b9"},"vehicle_type_id":"4","last_reported":1690995951,"current_range_meters":1600,"station_id":"ce4bhs92rcd13ifvqi0g","pricing_plan_id":"free"},{"bike_id":"42dd5bc9-fee0-40c7-8e8c-203e9e9ed191","system_id":"levelo_inurba_marseille","lat":43.297163,"lon":5.365866,"is_reserved":false,"is_disabled":false,"rental_uris":{"android":"levelo://app?vid=42dd5bc9-fee0-40c7-8e8c-203e9e9ed191","ios":"levelo://app?vid=42dd5bc9-fee0-40c7-8e8c-203e9e9ed191"},"vehicle_type_id":"4","last_reported":1690995951,"current_range_meters":15600,"station_id":"ce4bgn12rcd13ifvqbt0","pricing_plan_id":"free"},{"bike_id":"dd789220-e7b5-42c1-b9dc-dc4243148021","system_id":"levelo_inurba_marseille","lat":43.297163,"lon":5.365866,"is_reserved":false,"is_disabled":false,"rental_uris":{"android":"levelo://app?vid=dd789220-e7b5-42c1-b9dc-dc4243148021","ios":"levelo://app?vid=dd789220-e7b5-42c1-b9dc-dc4243148021"},"vehicle_type_id":"4","last_reported":1690995951,"current_range_meters":31200,"station_id":"ce4bgn12rcd13ifvqbt0","pricing_plan_id":"free"},{"bike_id":"e7e0f1af-ab99-48a1-9586-d24b83d1d620","system_id":"levelo_inurba_marseille","lat":43.296129,"lon":5.370777,"is_reserved":false,"is_disabled":false,"rental_uris":{"android":"levelo://app?vid=e7e0f1af-ab99-48a1-9586-d24b83d1d620","ios":"levelo://app?vid=e7e0f1af-ab99-48a1-9586-d24b83d1d620"},"vehicle_type_id":"4","last_reported":1690995951,"current_range_meters":0,"station_id":"ce4bgnh2rcd13ifvqc0g","pricing_plan_id":"free"},{"bike_id":"bb0aa47e-bc7e-4c54-8cfb-04d71e9658d7","system_id":"levelo_inurba_marseille","lat":43.296129,"lon":5.370777,"is_reserved":false,"is_disabled":false,"rental_uris":{"android":"levelo://app?vid=bb0aa47e-bc7e-4c54-8cfb-04d71e9658d7","ios":"levelo://app?vid=bb0aa47e-bc7e-4c54-8cfb-04d71e9658d7"},"vehicle_type_id":"4","last_reported":1690995951,"current_range_meters":10400,"station_id":"ce4bgnh2rcd13ifvqc0g","pricing_plan_id":"free"},{"bike_id":"e76a83a6-db3d-4ce5-824d-78481817a982","system_id":"levelo_inurba_marseille","lat":43.29573,"lon":5.367355,"is_reserved":false,"is_disabled":false,"rental_uris":{"android":"levelo://app?vid=e76a83a6-db3d-4ce5-824d-78481817a982","ios":"levelo://app?vid=e76a83a6-db3d-4ce5-824d-78481817a982"},"vehicle_type_id":"4","last_reported":1690995951,"current_range_meters":0,"station_id":"ce4bgph2rcd13ifvqc2g","pricing_plan_id":"free"},{"bike_id":"dd3b74be-6991-44af-9c1f-9e942d828005","system_id":"levelo_inurba_marseille","lat":43.29914,"lon":5.38144,"is_reserved":false,"is_disabled":false,"rental_uris":{"android":"levelo://app?vid=dd3b74be-6991-44af-9c1f-9e942d828005","ios":"levelo://app?vid=dd3b74be-6991-44af-9c1f-9e942d828005"},"vehicle_type_id":"4","last_reported":1690995951,"current_range_meters":2400,"station_id":"","pricing_plan_id":"free"},{"bike_id":"c0417ae5-a733-486a-8959-4866f2e08f4d","system_id":"levelo_inurba_marseille","lat":43.30948,"lon":5.39031,"is_reserved":false,"is_disabled":false,"rental_uris":{"android":"levelo://app?vid=c0417ae5-a733-486a-8959-4866f2e08f4d","ios":"levelo://app?vid=c0417ae5-a733-486a-8959-4866f2e08f4d"},"vehicle_type_id":"4","last_reported":1690995951,"current_range_meters":26400,"station_id":"ce4bgup2rcd13ifvqco0","pricing_plan_id":"free"},{"bike_id":"f0b1921d-8fc5-42f6-8214-26455e772ce5","system_id":"levelo_inurba_marseille","lat":43.30953,"lon":5.39035,"is_reserved":false,"is_disabled":false,"rental_uris":{"android":"levelo://app?vid=f0b1921d-8fc5-42f6-8214-26455e772ce5","ios":"levelo://app?vid=f0b1921d-8fc5-42f6-8214-26455e772ce5"},"vehicle_type_id":"4","last_reported":1690995951,"current_range_meters":15200,"station_id":"ce4bgup2rcd13ifvqco0","pricing_plan_id":"free"},{"bike_id":"5f6fe95b-3122-4dec-b32f-dccd539cf579","system_id":"levelo_inurba_marseille","lat":43.317557,"lon":5.390173,"is_reserved":false,"is_disabled":false,"rental_uris":{"android":"levelo://app?vid=5f6fe95b-3122-4dec-b32f-dccd539cf579","ios":"levelo://app?vid=5f6fe95b-3122-4dec-b32f-dccd539cf579"},"vehicle_type_id":"4","last_reported":1690995951,"current_range_meters":26000,"station_id":"ce4bhqp2rcd13ifvqhng","pricing_plan_id":"free"},{"bike_id":"d703dee8-f8a9-4d10-9377-0f7e094c5bbd","system_id":"levelo_inurba_marseille","lat":43.317557,"lon":5.390173,"is_reserved":false,"is_disabled":false,"rental_uris":{"android":"levelo://app?vid=d703dee8-f8a9-4d10-9377-0f7e094c5bbd","ios":"levelo://app?vid=d703dee8-f8a9-4d10-9377-0f7e094c5bbd"},"vehicle_type_id":"4","last_reported":1690995951,"current_range_meters":20400,"station_id":"ce4bhqp2rcd13ifvqhng","pricing_plan_id":"free"},{"bike_id":"3e98b8b4-07d6-4995-a392-97dabac14f7d","system_id":"levelo_inurba_marseille","lat":43.317557,"lon":5.390173,"is_reserved":false,"is_disabled":false,"rental_uris":{"android":"levelo://app?vid=3e98b8b4-07d6-4995-a392-97dabac14f7d","ios":"levelo://app?vid=3e98b8b4-07d6-4995-a392-97dabac14f7d"},"vehicle_type_id":"4","last_reported":1690995951,"current_range_meters":31200,"station_id":"ce4bhqp2rcd13ifvqhng","pricing_plan_id":"free"},{"bike_id":"0d53d100-a297-44ef-88cc-c2a2eae72cac","system_id":"levelo_inurba_marseille","lat":43.298037,"lon":5.381066,"is_reserved":false,"is_disabled":false,"rental_uris":{"android":"levelo://app?vid=0d53d100-a297-44ef-88cc-c2a2eae72cac","ios":"levelo://app?vid=0d53d100-a297-44ef-88cc-c2a2eae72cac"},"vehicle_type_id":"4","last_reported":1690995951,"current_range_meters":0,"station_id":"ce4bgip2rcd13ifvqbb0","pricing_plan_id":"free"},{"bike_id":"71abacb2-ebf1-497d-beec-e7a735840eab","system_id":"levelo_inurba_marseille","lat":43.304278,"lon":5.388868,"is_reserved":false,"is_disabled":false,"rental_uris":{"android":"levelo://app?vid=71abacb2-ebf1-497d-beec-e7a735840eab","ios":"levelo://app?vid=71abacb2-ebf1-497d-beec-e7a735840eab"},"vehicle_type_id":"4","last_reported":1690995951,"current_range_meters":17200,"station_id":"ce4bgk12rcd13ifvqbi0","pricing_plan_id":"free"},{"bike_id":"6080bdd2-a2f8-49f3-9828-99b3c3dcb514","system_id":"levelo_inurba_marseille","lat":43.304278,"lon":5.388868,"is_reserved":false,"is_disabled":false,"rental_uris":{"android":"levelo://app?vid=6080bdd2-a2f8-49f3-9828-99b3c3dcb514","ios":"levelo://app?vid=6080bdd2-a2f8-49f3-9828-99b3c3dcb514"},"vehicle_type_id":"4","last_reported":1690995951,"current_range_meters":5600,"station_id":"ce4bgk12rcd13ifvqbi0","pricing_plan_id":"free"},{"bike_id":"b52cf151-fdd6-4711-bf26-f142546b7075","system_id":"levelo_inurba_marseille","lat":43.29529,"lon":5.37462,"is_reserved":false,"is_disabled":false,"rental_uris":{"android":"levelo://app?vid=b52cf151-fdd6-4711-bf26-f142546b7075","ios":"levelo://app?vid=b52cf151-fdd6-4711-bf26-f142546b7075"},"vehicle_type_id":"4","last_reported":1690995951,"current_range_meters":21200,"station_id":"ce4bgkp2rcd13ifvqbmg","pricing_plan_id":"free"},{"bike_id":"3d5b421d-abcc-466a-9cb7-89e171fcbed2","system_id":"levelo_inurba_marseille","lat":43.29508,"lon":5.37394,"is_reserved":false,"is_disabled":false,"rental_uris":{"android":"levelo://app?vid=3d5b421d-abcc-466a-9cb7-89e171fcbed2","ios":"levelo://app?vid=3d5b421d-abcc-466a-9cb7-89e171fcbed2"},"vehicle_type_id":"4","last_reported":1690995951,"current_range_meters":22000,"station_id":"","pricing_plan_id":"free"},{"bike_id":"5759cff4-3ff2-4260-bc36-bc9b93e57519","system_id":"levelo_inurba_marseille","lat":43.32363,"lon":5.38882,"is_reserved":false,"is_disabled":false,"rental_uris":{"android":"levelo://app?vid=5759cff4-3ff2-4260-bc36-bc9b93e57519","ios":"levelo://app?vid=5759cff4-3ff2-4260-bc36-bc9b93e57519"},"vehicle_type_id":"4","last_reported":1690995951,"current_range_meters":21200,"station_id":"ce4bhqp2rcd13ifvqhog","pricing_plan_id":"free"},{"bike_id":"58a6635c-4a80-4f19-a739-16c42ebed577","system_id":"levelo_inurba_marseille","lat":43.32359,"lon":5.38886,"is_reserved":false,"is_disabled":false,"rental_uris":{"android":"levelo://app?vid=58a6635c-4a80-4f19-a739-16c42ebed577","ios":"levelo://app?vid=58a6635c-4a80-4f19-a739-16c42ebed577"},"vehicle_type_id":"4","last_reported":1690995951,"current_range_meters":17200,"station_id":"ce4bhqp2rcd13ifvqhog","pricing_plan_id":"free"},{"bike_id":"134422a8-3e74-44a9-8056-62fc3b36e906","system_id":"levelo_inurba_marseille","lat":43.32367,"lon":5.388836,"is_reserved":false,"is_disabled":false,"rental_uris":{"android":"levelo://app?vid=134422a8-3e74-44a9-8056-62fc3b36e906","ios":"levelo://app?vid=134422a8-3e74-44a9-8056-62fc3b36e906"},"vehicle_type_id":"4","last_reported":1690995951,"current_range_meters":26400,"station_id":"ce4bhqp2rcd13ifvqhog","pricing_plan_id":"free"},{"bike_id":"419713fa-7cc1-4cfe-93fa-32add7c4fc42","system_id":"levelo_inurba_marseille","lat":43.32367,"lon":5.388836,"is_reserved":false,"is_disabled":false,"rental_uris":{"android":"levelo://app?vid=419713fa-7cc1-4cfe-93fa-32add7c4fc42","ios":"levelo://app?vid=419713fa-7cc1-4cfe-93fa-32add7c4fc42"},"vehicle_type_id":"4","last_reported":1690995951,"current_range_meters":14800,"station_id":"ce4bhqp2rcd13ifvqhog","pricing_plan_id":"free"},{"bike_id":"83e40035-5ae5-4bb2-89ae-adf2ef147026","system_id":"levelo_inurba_marseille","lat":43.323665,"lon":5.388845,"is_reserved":false,"is_disabled":false,"rental_uris":{"android":"levelo://app?vid=83e40035-5ae5-4bb2-89ae-adf2ef147026","ios":"levelo://app?vid=83e40035-5ae5-4bb2-89ae-adf2ef147026"},"vehicle_type_id":"4","last_reported":1690995951,"current_range_meters":18400,"station_id":"","pricing_plan_id":"free"},{"bike_id":"1c676a6a-1470-4faf-a217-2e8aa4b00b19","system_id":"levelo_inurba_marseille","lat":43.32369,"lon":5.38883,"is_reserved":false,"is_disabled":false,"rental_uris":{"android":"levelo://app?vid=1c676a6a-1470-4faf-a217-2e8aa4b00b19","ios":"levelo://app?vid=1c676a6a-1470-4faf-a217-2e8aa4b00b19"},"vehicle_type_id":"4","last_reported":1690995951,"current_range_meters":13600,"station_id":"ce4bhqp2rcd13ifvqhog","pricing_plan_id":"free"},{"bike_id":"cf674a72-be38-408f-a813-bb4cdeb03931","system_id":"levelo_inurba_marseille","lat":43.29602,"lon":5.381084,"is_reserved":false,"is_disabled":false,"rental_uris":{"android":"levelo://app?vid=cf674a72-be38-408f-a813-bb4cdeb03931","ios":"levelo://app?vid=cf674a72-be38-408f-a813-bb4cdeb03931"},"vehicle_type_id":"4","last_reported":1690995951,"current_range_meters":6800,"station_id":"ce4bgl12rcd13ifvqbo0","pricing_plan_id":"free"},{"bike_id":"ef5d1edc-be2e-4323-93de-ada6a8e2aac3","system_id":"levelo_inurba_marseille","lat":43.32392,"lon":5.38936,"is_reserved":false,"is_disabled":false,"rental_uris":{"android":"levelo://app?vid=ef5d1edc-be2e-4323-93de-ada6a8e2aac3","ios":"levelo://app?vid=ef5d1edc-be2e-4323-93de-ada6a8e2aac3"},"vehicle_type_id":"4","last_reported":1690995951,"current_range_meters":26800,"station_id":"","pricing_plan_id":"free"},{"bike_id":"cfb3ceb9-7893-491e-8478-62c9c8db55db","system_id":"levelo_inurba_marseille","lat":43.293009,"lon":5.374584,"is_reserved":false,"is_disabled":false,"rental_uris":{"android":"levelo://app?vid=cfb3ceb9-7893-491e-8478-62c9c8db55db","ios":"levelo://app?vid=cfb3ceb9-7893-491e-8478-62c9c8db55db"},"vehicle_type_id":"4","last_reported":1690995951,"current_range_meters":19600,"station_id":"ce4bgi12rcd13ifvqb70","pricing_plan_id":"free"},{"bike_id":"c36e5d1a-f8ce-4792-bab4-ecdd20892e7e","system_id":"levelo_inurba_marseille","lat":43.293009,"lon":5.374584,"is_reserved":false,"is_disabled":false,"rental_uris":{"android":"levelo://app?vid=c36e5d1a-f8ce-4792-bab4-ecdd20892e7e","ios":"levelo://app?vid=c36e5d1a-f8ce-4792-bab4-ecdd20892e7e"},"vehicle_type_id":"4","last_reported":1690995951,"current_range_meters":6400,"station_id":"ce4bgi12rcd13ifvqb70","pricing_plan_id":"free"},{"bike_id":"db5567da-9e10-489a-a4c9-c7998239d968","system_id":"levelo_inurba_marseille","lat":43.293009,"lon":5.374584,"is_reserved":false,"is_disabled":false,"rental_uris":{"android":"levelo://app?vid=db5567da-9e10-489a-a4c9-c7998239d968","ios":"levelo://app?vid=db5567da-9e10-489a-a4c9-c7998239d968"},"vehicle_type_id":"4","last_reported":1690995951,"current_range_meters":1200,"station_id":"ce4bgi12rcd13ifvqb70","pricing_plan_id":"free"},{"bike_id":"39bf629d-61e7-4b21-9b3c-8934428b5251","system_id":"levelo_inurba_marseille","lat":43.305994,"lon":5.393687,"is_reserved":false,"is_disabled":false,"rental_uris":{"android":"levelo://app?vid=39bf629d-61e7-4b21-9b3c-8934428b5251","ios":"levelo://app?vid=39bf629d-61e7-4b21-9b3c-8934428b5251"},"vehicle_type_id":"4","last_reported":1690995951,"current_range_meters":20400,"station_id":"ce4bh0p2rcd13ifvqd80","pricing_plan_id":"free"},{"bike_id":"217f53a1-96dd-4d20-a05a-f43df9125c0c","system_id":"levelo_inurba_marseille","lat":43.302992,"lon":5.392136,"is_reserved":false,"is_disabled":false,"rental_uris":{"android":"levelo://app?vid=217f53a1-96dd-4d20-a05a-f43df9125c0c","ios":"levelo://app?vid=217f53a1-96dd-4d20-a05a-f43df9125c0c"},"vehicle_type_id":"4","last_reported":1690995951,"current_range_meters":30400,"station_id":"ce4bgkh2rcd13ifvqbk0","pricing_plan_id":"free"},{"bike_id":"9d05e225-3516-4423-821e-8fa90a4b7001","system_id":"levelo_inurba_marseille","lat":43.30085,"lon":5.390856,"is_reserved":false,"is_disabled":false,"rental_uris":{"android":"levelo://app?vid=9d05e225-3516-4423-821e-8fa90a4b7001","ios":"levelo://app?vid=9d05e225-3516-4423-821e-8fa90a4b7001"},"vehicle_type_id":"4","last_reported":1690995951,"current_range_meters":11200,"station_id":"ce4bh192rcd13ifvqdb0","pricing_plan_id":"free"},{"bike_id":"16ce0d3e-b65b-4281-8eae-2edbf50e170a","system_id":"levelo_inurba_marseille","lat":43.292311,"lon":5.360731,"is_reserved":false,"is_disabled":false,"rental_uris":{"android":"levelo://app?vid=16ce0d3e-b65b-4281-8eae-2edbf50e170a","ios":"levelo://app?vid=16ce0d3e-b65b-4281-8eae-2edbf50e170a"},"vehicle_type_id":"4","last_reported":1690995951,"current_range_meters":11600,"station_id":"ce4bhbh2rcd13ifvqeqg","pricing_plan_id":"free"},{"bike_id":"6b9b6e93-5765-441c-8c32-1c6d08242483","system_id":"levelo_inurba_marseille","lat":43.292311,"lon":5.360731,"is_reserved":false,"is_disabled":false,"rental_uris":{"android":"levelo://app?vid=6b9b6e93-5765-441c-8c32-1c6d08242483","ios":"levelo://app?vid=6b9b6e93-5765-441c-8c32-1c6d08242483"},"vehicle_type_id":"4","last_reported":1690995951,"current_range_meters":0,"station_id":"ce4bhbh2rcd13ifvqeqg","pricing_plan_id":"free"},{"bike_id":"071bd068-0f7b-47d3-8cd9-b2afa701c003","system_id":"levelo_inurba_marseille","lat":43.30085,"lon":5.390856,"is_reserved":false,"is_disabled":false,"rental_uris":{"android":"levelo://app?vid=071bd068-0f7b-47d3-8cd9-b2afa701c003","ios":"levelo://app?vid=071bd068-0f7b-47d3-8cd9-b2afa701c003"},"vehicle_type_id":"4","last_reported":1690995951,"current_range_meters":15200,"station_id":"ce4bh192rcd13ifvqdb0","pricing_plan_id":"free"},{"bike_id":"434abd34-c2f9-4960-9764-3f496c47b718","system_id":"levelo_inurba_marseille","lat":43.292663,"lon":5.376389,"is_reserved":false,"is_disabled":false,"rental_uris":{"android":"levelo://app?vid=434abd34-c2f9-4960-9764-3f496c47b718","ios":"levelo://app?vid=434abd34-c2f9-4960-9764-3f496c47b718"},"vehicle_type_id":"4","last_reported":1690995951,"current_range_meters":14800,"station_id":"ce4bgi12rcd13ifvqb80","pricing_plan_id":"free"},{"bike_id":"56bff9d6-94b5-49b0-b98f-4deb7b22eeb1","system_id":"levelo_inurba_marseille","lat":43.292643,"lon":5.37638,"is_reserved":false,"is_disabled":false,"rental_uris":{"android":"levelo://app?vid=56bff9d6-94b5-49b0-b98f-4deb7b22eeb1","ios":"levelo://app?vid=56bff9d6-94b5-49b0-b98f-4deb7b22eeb1"},"vehicle_type_id":"4","last_reported":1690995951,"current_range_meters":25600,"station_id":"","pricing_plan_id":"free"},{"bike_id":"74763512-3bbd-4753-996c-051f11c4ae89","system_id":"levelo_inurba_marseille","lat":43.3089,"lon":5.39635,"is_reserved":false,"is_disabled":false,"rental_uris":{"android":"levelo://app?vid=74763512-3bbd-4753-996c-051f11c4ae89","ios":"levelo://app?vid=74763512-3bbd-4753-996c-051f11c4ae89"},"vehicle_type_id":"4","last_reported":1690995951,"current_range_meters":18400,"station_id":"ce4bh012rcd13ifvqcv0","pricing_plan_id":"free"},{"bike_id":"5f260c9a-9524-49d6-ac09-6ef73fcac793","system_id":"levelo_inurba_marseille","lat":43.29196,"lon":5.35797,"is_reserved":false,"is_disabled":false,"rental_uris":{"android":"levelo://app?vid=5f260c9a-9524-49d6-ac09-6ef73fcac793","ios":"levelo://app?vid=5f260c9a-9524-49d6-ac09-6ef73fcac793"},"vehicle_type_id":"4","last_reported":1690995951,"current_range_meters":8400,"station_id":"ce4bhb12rcd13ifvqel0","pricing_plan_id":"free"},{"bike_id":"0f936b79-dd52-4c5d-ae95-d91f359f0671","system_id":"levelo_inurba_marseille","lat":43.313291,"lon":5.396838,"is_reserved":false,"is_disabled":false,"rental_uris":{"android":"levelo://app?vid=0f936b79-dd52-4c5d-ae95-d91f359f0671","ios":"levelo://app?vid=0f936b79-dd52-4c5d-ae95-d91f359f0671"},"vehicle_type_id":"4","last_reported":1690995951,"current_range_meters":0,"station_id":"ce4bgvp2rcd13ifvqcu0","pricing_plan_id":"free"},{"bike_id":"b149dcaa-5b0d-48cf-a396-e5aaf361d585","system_id":"levelo_inurba_marseille","lat":43.30882,"lon":5.3964,"is_reserved":false,"is_disabled":false,"rental_uris":{"android":"levelo://app?vid=b149dcaa-5b0d-48cf-a396-e5aaf361d585","ios":"levelo://app?vid=b149dcaa-5b0d-48cf-a396-e5aaf361d585"},"vehicle_type_id":"4","last_reported":1690995951,"current_range_meters":13200,"station_id":"ce4bh012rcd13ifvqcv0","pricing_plan_id":"free"},{"bike_id":"d9998d54-4db0-45e2-b574-41c0c0a3c478","system_id":"levelo_inurba_marseille","lat":43.313291,"lon":5.396838,"is_reserved":false,"is_disabled":false,"rental_uris":{"android":"levelo://app?vid=d9998d54-4db0-45e2-b574-41c0c0a3c478","ios":"levelo://app?vid=d9998d54-4db0-45e2-b574-41c0c0a3c478"},"vehicle_type_id":"4","last_reported":1690995951,"current_range_meters":4000,"station_id":"ce4bgvp2rcd13ifvqcu0","pricing_plan_id":"free"},{"bike_id":"45e120d0-999b-4371-8241-9d87226353c3","system_id":"levelo_inurba_marseille","lat":43.30886,"lon":5.39642,"is_reserved":false,"is_disabled":false,"rental_uris":{"android":"levelo://app?vid=45e120d0-999b-4371-8241-9d87226353c3","ios":"levelo://app?vid=45e120d0-999b-4371-8241-9d87226353c3"},"vehicle_type_id":"4","last_reported":1690995951,"current_range_meters":16000,"station_id":"ce4bh012rcd13ifvqcv0","pricing_plan_id":"free"},{"bike_id":"0454ffce-87a0-40eb-a183-c6a4b3496905","system_id":"levelo_inurba_marseille","lat":43.313291,"lon":5.396838,"is_reserved":false,"is_disabled":false,"rental_uris":{"android":"levelo://app?vid=0454ffce-87a0-40eb-a183-c6a4b3496905","ios":"levelo://app?vid=0454ffce-87a0-40eb-a183-c6a4b3496905"},"vehicle_type_id":"4","last_reported":1690995951,"current_range_meters":14800,"station_id":"ce4bgvp2rcd13ifvqcu0","pricing_plan_id":"free"},{"bike_id":"c09c8975-d248-4d31-b7d2-2d4c68423d0d","system_id":"levelo_inurba_marseille","lat":43.313291,"lon":5.396838,"is_reserved":false,"is_disabled":false,"rental_uris":{"android":"levelo://app?vid=c09c8975-d248-4d31-b7d2-2d4c68423d0d","ios":"levelo://app?vid=c09c8975-d248-4d31-b7d2-2d4c68423d0d"},"vehicle_type_id":"4","last_reported":1690995951,"current_range_meters":8400,"station_id":"ce4bgvp2rcd13ifvqcu0","pricing_plan_id":"free"},{"bike_id":"d8353796-c7f0-4c08-b5fa-90ffcf390f56","system_id":"levelo_inurba_marseille","lat":43.309038,"lon":5.396546,"is_reserved":false,"is_disabled":false,"rental_uris":{"android":"levelo://app?vid=d8353796-c7f0-4c08-b5fa-90ffcf390f56","ios":"levelo://app?vid=d8353796-c7f0-4c08-b5fa-90ffcf390f56"},"vehicle_type_id":"4","last_reported":1690995951,"current_range_meters":24800,"station_id":"ce4bh012rcd13ifvqcv0","pricing_plan_id":"free"},{"bike_id":"ab87b101-6033-46a5-a821-65bbaf29b614","system_id":"levelo_inurba_marseille","lat":43.29187,"lon":5.35802,"is_reserved":false,"is_disabled":false,"rental_uris":{"android":"levelo://app?vid=ab87b101-6033-46a5-a821-65bbaf29b614","ios":"levelo://app?vid=ab87b101-6033-46a5-a821-65bbaf29b614"},"vehicle_type_id":"4","last_reported":1690995951,"current_range_meters":10800,"station_id":"ce4bhb12rcd13ifvqel0","pricing_plan_id":"free"},{"bike_id":"d97ccdb5-19cf-4ce8-aea4-ec01d8b7c9dd","system_id":"levelo_inurba_marseille","lat":43.30885,"lon":5.39655,"is_reserved":false,"is_disabled":false,"rental_uris":{"android":"levelo://app?vid=d97ccdb5-19cf-4ce8-aea4-ec01d8b7c9dd","ios":"levelo://app?vid=d97ccdb5-19cf-4ce8-aea4-ec01d8b7c9dd"},"vehicle_type_id":"4","last_reported":1690995951,"current_range_meters":2800,"station_id":"ce4bh012rcd13ifvqcv0","pricing_plan_id":"free"},{"bike_id":"57202a00-e181-4fc9-b94f-e37366ef4fa8","system_id":"levelo_inurba_marseille","lat":43.308888,"lon":5.39665,"is_reserved":false,"is_disabled":false,"rental_uris":{"android":"levelo://app?vid=57202a00-e181-4fc9-b94f-e37366ef4fa8","ios":"levelo://app?vid=57202a00-e181-4fc9-b94f-e37366ef4fa8"},"vehicle_type_id":"4","last_reported":1690995951,"current_range_meters":16800,"station_id":"ce4bh012rcd13ifvqcv0","pricing_plan_id":"free"},{"bike_id":"eb2fc7d1-eb75-4ee1-ae3a-43c924beda67","system_id":"levelo_inurba_marseille","lat":43.29087,"lon":5.37503,"is_reserved":false,"is_disabled":false,"rental_uris":{"android":"levelo://app?vid=eb2fc7d1-eb75-4ee1-ae3a-43c924beda67","ios":"levelo://app?vid=eb2fc7d1-eb75-4ee1-ae3a-43c924beda67"},"vehicle_type_id":"4","last_reported":1690995951,"current_range_meters":2800,"station_id":"","pricing_plan_id":"free"},{"bike_id":"c1a91143-4232-4f86-b8a1-bc131ec5a31d","system_id":"levelo_inurba_marseille","lat":43.28932,"lon":5.36384,"is_reserved":false,"is_disabled":false,"rental_uris":{"android":"levelo://app?vid=c1a91143-4232-4f86-b8a1-bc131ec5a31d","ios":"levelo://app?vid=c1a91143-4232-4f86-b8a1-bc131ec5a31d"},"vehicle_type_id":"4","last_reported":1690995951,"current_range_meters":21200,"station_id":"ce4bhc92rcd13ifvqetg","pricing_plan_id":"free"},{"bike_id":"94b5f3f5-bfb1-43df-8edc-f8b2f605f500","system_id":"levelo_inurba_marseille","lat":43.29273,"lon":5.3844,"is_reserved":false,"is_disabled":false,"rental_uris":{"android":"levelo://app?vid=94b5f3f5-bfb1-43df-8edc-f8b2f605f500","ios":"levelo://app?vid=94b5f3f5-bfb1-43df-8edc-f8b2f605f500"},"vehicle_type_id":"4","last_reported":1690995951,"current_range_meters":28000,"station_id":"ce4bh692rcd13ifvqea0","pricing_plan_id":"free"},{"bike_id":"c3542c99-8983-4e3b-9cd9-db2860896e2a","system_id":"levelo_inurba_marseille","lat":43.304296,"lon":5.397513,"is_reserved":false,"is_disabled":false,"rental_uris":{"android":"levelo://app?vid=c3542c99-8983-4e3b-9cd9-db2860896e2a","ios":"levelo://app?vid=c3542c99-8983-4e3b-9cd9-db2860896e2a"},"vehicle_type_id":"4","last_reported":1690995951,"current_range_meters":14400,"station_id":"ce4bh092rcd13ifvqd20","pricing_plan_id":"free"},{"bike_id":"7b8d450f-55c1-4cbe-99bc-12f9d27ec05e","system_id":"levelo_inurba_marseille","lat":43.304274,"lon":5.397513,"is_reserved":false,"is_disabled":false,"rental_uris":{"android":"levelo://app?vid=7b8d450f-55c1-4cbe-99bc-12f9d27ec05e","ios":"levelo://app?vid=7b8d450f-55c1-4cbe-99bc-12f9d27ec05e"},"vehicle_type_id":"4","last_reported":1690995951,"current_range_meters":21200,"station_id":"ce4bh092rcd13ifvqd20","pricing_plan_id":"free"},{"bike_id":"f99360cc-1c09-4445-afa6-88b1f5e9d11f","system_id":"levelo_inurba_marseille","lat":43.304296,"lon":5.397513,"is_reserved":false,"is_disabled":false,"rental_uris":{"android":"levelo://app?vid=f99360cc-1c09-4445-afa6-88b1f5e9d11f","ios":"levelo://app?vid=f99360cc-1c09-4445-afa6-88b1f5e9d11f"},"vehicle_type_id":"4","last_reported":1690995951,"current_range_meters":20400,"station_id":"ce4bh092rcd13ifvqd20","pricing_plan_id":"free"},{"bike_id":"c5848f57-00d0-4908-9424-56e18b71804a","system_id":"levelo_inurba_marseille","lat":43.30431,"lon":5.39748,"is_reserved":false,"is_disabled":false,"rental_uris":{"android":"levelo://app?vid=c5848f57-00d0-4908-9424-56e18b71804a","ios":"levelo://app?vid=c5848f57-00d0-4908-9424-56e18b71804a"},"vehicle_type_id":"4","last_reported":1690995951,"current_range_meters":26000,"station_id":"","pricing_plan_id":"free"},{"bike_id":"32e57e15-60eb-4edf-a1d2-541fe0083dd1","system_id":"levelo_inurba_marseille","lat":43.304296,"lon":5.397513,"is_reserved":false,"is_disabled":false,"rental_uris":{"android":"levelo://app?vid=32e57e15-60eb-4edf-a1d2-541fe0083dd1","ios":"levelo://app?vid=32e57e15-60eb-4edf-a1d2-541fe0083dd1"},"vehicle_type_id":"4","last_reported":1690995951,"current_range_meters":6000,"station_id":"ce4bh092rcd13ifvqd20","pricing_plan_id":"free"},{"bike_id":"9010659a-4c08-4439-9e27-9b99f88a8dd4","system_id":"levelo_inurba_marseille","lat":43.304296,"lon":5.397513,"is_reserved":false,"is_disabled":false,"rental_uris":{"android":"levelo://app?vid=9010659a-4c08-4439-9e27-9b99f88a8dd4","ios":"levelo://app?vid=9010659a-4c08-4439-9e27-9b99f88a8dd4"},"vehicle_type_id":"4","last_reported":1690995951,"current_range_meters":22000,"station_id":"ce4bh092rcd13ifvqd20","pricing_plan_id":"free"},{"bike_id":"05eb7167-1649-4b38-8503-b0d2e3456f24","system_id":"levelo_inurba_marseille","lat":43.33038,"lon":5.38918,"is_reserved":false,"is_disabled":false,"rental_uris":{"android":"levelo://app?vid=05eb7167-1649-4b38-8503-b0d2e3456f24","ios":"levelo://app?vid=05eb7167-1649-4b38-8503-b0d2e3456f24"},"vehicle_type_id":"4","last_reported":1690995951,"current_range_meters":29600,"station_id":"ce4bhr92rcd13ifvqhrg","pricing_plan_id":"free"},{"bike_id":"d3ac0a03-be90-4568-af95-f5097d0fb3ba","system_id":"levelo_inurba_marseille","lat":43.330404,"lon":5.389188,"is_reserved":false,"is_disabled":false,"rental_uris":{"android":"levelo://app?vid=d3ac0a03-be90-4568-af95-f5097d0fb3ba","ios":"levelo://app?vid=d3ac0a03-be90-4568-af95-f5097d0fb3ba"},"vehicle_type_id":"4","last_reported":1690995951,"current_range_meters":29600,"station_id":"ce4bhr92rcd13ifvqhrg","pricing_plan_id":"free"},{"bike_id":"f67edc25-bcc7-41fb-8431-1add679b0933","system_id":"levelo_inurba_marseille","lat":43.33038,"lon":5.38924,"is_reserved":false,"is_disabled":false,"rental_uris":{"android":"levelo://app?vid=f67edc25-bcc7-41fb-8431-1add679b0933","ios":"levelo://app?vid=f67edc25-bcc7-41fb-8431-1add679b0933"},"vehicle_type_id":"4","last_reported":1690995951,"current_range_meters":29600,"station_id":"ce4bhr92rcd13ifvqhrg","pricing_plan_id":"free"},{"bike_id":"2f2d42a2-8de0-405f-9429-d3eae654394c","system_id":"levelo_inurba_marseille","lat":43.330372,"lon":5.389255,"is_reserved":false,"is_disabled":false,"rental_uris":{"android":"levelo://app?vid=2f2d42a2-8de0-405f-9429-d3eae654394c","ios":"levelo://app?vid=2f2d42a2-8de0-405f-9429-d3eae654394c"},"vehicle_type_id":"4","last_reported":1690995951,"current_range_meters":30000,"station_id":"ce4bhr92rcd13ifvqhrg","pricing_plan_id":"free"},{"bike_id":"0b40da1c-c5a8-44b1-ae95-03a93c8bf4e2","system_id":"levelo_inurba_marseille","lat":43.33041,"lon":5.3892,"is_reserved":false,"is_disabled":false,"rental_uris":{"android":"levelo://app?vid=0b40da1c-c5a8-44b1-ae95-03a93c8bf4e2","ios":"levelo://app?vid=0b40da1c-c5a8-44b1-ae95-03a93c8bf4e2"},"vehicle_type_id":"4","last_reported":1690995951,"current_range_meters":22000,"station_id":"ce4bhr92rcd13ifvqhrg","pricing_plan_id":"free"},{"bike_id":"8795e432-c7a3-4d95-9fa9-9f904bfbcb4a","system_id":"levelo_inurba_marseille","lat":43.33043,"lon":5.38917,"is_reserved":false,"is_disabled":false,"rental_uris":{"android":"levelo://app?vid=8795e432-c7a3-4d95-9fa9-9f904bfbcb4a","ios":"levelo://app?vid=8795e432-c7a3-4d95-9fa9-9f904bfbcb4a"},"vehicle_type_id":"4","last_reported":1690995951,"current_range_meters":22400,"station_id":"ce4bhr92rcd13ifvqhrg","pricing_plan_id":"free"},{"bike_id":"45917de0-783e-4a1c-9fb6-137e403275ca","system_id":"levelo_inurba_marseille","lat":43.33045,"lon":5.38914,"is_reserved":false,"is_disabled":false,"rental_uris":{"android":"levelo://app?vid=45917de0-783e-4a1c-9fb6-137e403275ca","ios":"levelo://app?vid=45917de0-783e-4a1c-9fb6-137e403275ca"},"vehicle_type_id":"4","last_reported":1690995951,"current_range_meters":23200,"station_id":"ce4bhr92rcd13ifvqhrg","pricing_plan_id":"free"},{"bike_id":"20cf3f6d-acf4-4653-bf24-baa04253f77a","system_id":"levelo_inurba_marseille","lat":43.33043,"lon":5.38918,"is_reserved":false,"is_disabled":false,"rental_uris":{"android":"levelo://app?vid=20cf3f6d-acf4-4653-bf24-baa04253f77a","ios":"levelo://app?vid=20cf3f6d-acf4-4653-bf24-baa04253f77a"},"vehicle_type_id":"4","last_reported":1690995951,"current_range_meters":27600,"station_id":"ce4bhr92rcd13ifvqhrg","pricing_plan_id":"free"},{"bike_id":"a716ed66-8607-47f1-a4f4-b99eecc862cb","system_id":"levelo_inurba_marseille","lat":43.33041,"lon":5.38921,"is_reserved":false,"is_disabled":false,"rental_uris":{"android":"levelo://app?vid=a716ed66-8607-47f1-a4f4-b99eecc862cb","ios":"levelo://app?vid=a716ed66-8607-47f1-a4f4-b99eecc862cb"},"vehicle_type_id":"4","last_reported":1690995951,"current_range_meters":2800,"station_id":"ce4bhr92rcd13ifvqhrg","pricing_plan_id":"free"},{"bike_id":"2c3888a7-4697-44fb-a473-f265c49b9316","system_id":"levelo_inurba_marseille","lat":43.290103,"lon":5.356114,"is_reserved":false,"is_disabled":false,"rental_uris":{"android":"levelo://app?vid=2c3888a7-4697-44fb-a473-f265c49b9316","ios":"levelo://app?vid=2c3888a7-4697-44fb-a473-f265c49b9316"},"vehicle_type_id":"4","last_reported":1690995951,"current_range_meters":25200,"station_id":"ce4bhb92rcd13ifvqen0","pricing_plan_id":"free"},{"bike_id":"00b2dcdc-2882-40a1-9132-89c3ec15cf18","system_id":"levelo_inurba_marseille","lat":43.330417,"lon":5.389215,"is_reserved":false,"is_disabled":false,"rental_uris":{"android":"levelo://app?vid=00b2dcdc-2882-40a1-9132-89c3ec15cf18","ios":"levelo://app?vid=00b2dcdc-2882-40a1-9132-89c3ec15cf18"},"vehicle_type_id":"4","last_reported":1690995951,"current_range_meters":27600,"station_id":"ce4bhr92rcd13ifvqhrg","pricing_plan_id":"free"},{"bike_id":"7ebbf3c4-154a-4b73-9a8a-d0fb0ca4427f","system_id":"levelo_inurba_marseille","lat":43.33045,"lon":5.38917,"is_reserved":false,"is_disabled":false,"rental_uris":{"android":"levelo://app?vid=7ebbf3c4-154a-4b73-9a8a-d0fb0ca4427f","ios":"levelo://app?vid=7ebbf3c4-154a-4b73-9a8a-d0fb0ca4427f"},"vehicle_type_id":"4","last_reported":1690995951,"current_range_meters":22800,"station_id":"ce4bhr92rcd13ifvqhrg","pricing_plan_id":"free"},{"bike_id":"7f9a1bf7-b54b-40d0-8375-5835f592e844","system_id":"levelo_inurba_marseille","lat":43.330453,"lon":5.389169,"is_reserved":false,"is_disabled":false,"rental_uris":{"android":"levelo://app?vid=7f9a1bf7-b54b-40d0-8375-5835f592e844","ios":"levelo://app?vid=7f9a1bf7-b54b-40d0-8375-5835f592e844"},"vehicle_type_id":"4","last_reported":1690995951,"current_range_meters":31200,"station_id":"ce4bhr92rcd13ifvqhrg","pricing_plan_id":"free"},{"bike_id":"b2fde967-202b-4a83-b81d-3d2f7bafff45","system_id":"levelo_inurba_marseille","lat":43.330444,"lon":5.389189,"is_reserved":false,"is_disabled":false,"rental_uris":{"android":"levelo://app?vid=b2fde967-202b-4a83-b81d-3d2f7bafff45","ios":"levelo://app?vid=b2fde967-202b-4a83-b81d-3d2f7bafff45"},"vehicle_type_id":"4","last_reported":1690995951,"current_range_meters":30000,"station_id":"ce4bhr92rcd13ifvqhrg","pricing_plan_id":"free"},{"bike_id":"5554be9e-ea6d-448b-a933-772bf8ca7cdf","system_id":"levelo_inurba_marseille","lat":43.33042,"lon":5.389227,"is_reserved":false,"is_disabled":false,"rental_uris":{"android":"levelo://app?vid=5554be9e-ea6d-448b-a933-772bf8ca7cdf","ios":"levelo://app?vid=5554be9e-ea6d-448b-a933-772bf8ca7cdf"},"vehicle_type_id":"4","last_reported":1690995951,"current_range_meters":30400,"station_id":"ce4bhr92rcd13ifvqhrg","pricing_plan_id":"free"},{"bike_id":"1b5825e6-3ee9-4b70-9d21-dc3ceface762","system_id":"levelo_inurba_marseille","lat":43.330392,"lon":5.389287,"is_reserved":false,"is_disabled":false,"rental_uris":{"android":"levelo://app?vid=1b5825e6-3ee9-4b70-9d21-dc3ceface762","ios":"levelo://app?vid=1b5825e6-3ee9-4b70-9d21-dc3ceface762"},"vehicle_type_id":"4","last_reported":1690995951,"current_range_meters":27600,"station_id":"ce4bhr92rcd13ifvqhrg","pricing_plan_id":"free"},{"bike_id":"9a9d26d5-7d2a-40b6-a299-b7c810d6dd15","system_id":"levelo_inurba_marseille","lat":43.330448,"lon":5.389212,"is_reserved":false,"is_disabled":false,"rental_uris":{"android":"levelo://app?vid=9a9d26d5-7d2a-40b6-a299-b7c810d6dd15","ios":"levelo://app?vid=9a9d26d5-7d2a-40b6-a299-b7c810d6dd15"},"vehicle_type_id":"4","last_reported":1690995951,"current_range_meters":31200,"station_id":"ce4bhr92rcd13ifvqhrg","pricing_plan_id":"free"},{"bike_id":"1eca23e4-03bf-48c2-b77a-2e1c9c54ef87","system_id":"levelo_inurba_marseille","lat":43.330452,"lon":5.389213,"is_reserved":false,"is_disabled":false,"rental_uris":{"android":"levelo://app?vid=1eca23e4-03bf-48c2-b77a-2e1c9c54ef87","ios":"levelo://app?vid=1eca23e4-03bf-48c2-b77a-2e1c9c54ef87"},"vehicle_type_id":"4","last_reported":1690995951,"current_range_meters":31200,"station_id":"ce4bhr92rcd13ifvqhrg","pricing_plan_id":"free"},{"bike_id":"134ef223-0af9-48f2-bbd1-4d84dd8cb35c","system_id":"levelo_inurba_marseille","lat":43.290104,"lon":5.356111,"is_reserved":false,"is_disabled":false,"rental_uris":{"android":"levelo://app?vid=134ef223-0af9-48f2-bbd1-4d84dd8cb35c","ios":"levelo://app?vid=134ef223-0af9-48f2-bbd1-4d84dd8cb35c"},"vehicle_type_id":"4","last_reported":1690995951,"current_range_meters":31600,"station_id":"ce4bhb92rcd13ifvqen0","pricing_plan_id":"free"},{"bike_id":"1f66c3db-c528-4a84-8843-30e848de60e9","system_id":"levelo_inurba_marseille","lat":43.33045,"lon":5.38923,"is_reserved":false,"is_disabled":false,"rental_uris":{"android":"levelo://app?vid=1f66c3db-c528-4a84-8843-30e848de60e9","ios":"levelo://app?vid=1f66c3db-c528-4a84-8843-30e848de60e9"},"vehicle_type_id":"4","last_reported":1690995951,"current_range_meters":30800,"station_id":"ce4bhr92rcd13ifvqhrg","pricing_plan_id":"free"},{"bike_id":"7603d86a-5da2-4498-bd9d-bf4c81fc504f","system_id":"levelo_inurba_marseille","lat":43.29004,"lon":5.35612,"is_reserved":false,"is_disabled":false,"rental_uris":{"android":"levelo://app?vid=7603d86a-5da2-4498-bd9d-bf4c81fc504f","ios":"levelo://app?vid=7603d86a-5da2-4498-bd9d-bf4c81fc504f"},"vehicle_type_id":"4","last_reported":1690995951,"current_range_meters":4800,"station_id":"ce4bhb92rcd13ifvqen0","pricing_plan_id":"free"},{"bike_id":"c61b08a0-5363-4d8b-a458-4214a7da7d82","system_id":"levelo_inurba_marseille","lat":43.290103,"lon":5.356114,"is_reserved":false,"is_disabled":false,"rental_uris":{"android":"levelo://app?vid=c61b08a0-5363-4d8b-a458-4214a7da7d82","ios":"levelo://app?vid=c61b08a0-5363-4d8b-a458-4214a7da7d82"},"vehicle_type_id":"4","last_reported":1690995951,"current_range_meters":14000,"station_id":"ce4bhb92rcd13ifvqen0","pricing_plan_id":"free"},{"bike_id":"d1a1de67-2c5b-45c2-bbce-06e701516df8","system_id":"levelo_inurba_marseille","lat":43.330448,"lon":5.38925,"is_reserved":false,"is_disabled":false,"rental_uris":{"android":"levelo://app?vid=d1a1de67-2c5b-45c2-bbce-06e701516df8","ios":"levelo://app?vid=d1a1de67-2c5b-45c2-bbce-06e701516df8"},"vehicle_type_id":"4","last_reported":1690995951,"current_range_meters":29600,"station_id":"ce4bhr92rcd13ifvqhrg","pricing_plan_id":"free"},{"bike_id":"dad0ed44-e9a9-48b1-bc87-2f857af1931f","system_id":"levelo_inurba_marseille","lat":43.33048,"lon":5.389267,"is_reserved":false,"is_disabled":false,"rental_uris":{"android":"levelo://app?vid=dad0ed44-e9a9-48b1-bc87-2f857af1931f","ios":"levelo://app?vid=dad0ed44-e9a9-48b1-bc87-2f857af1931f"},"vehicle_type_id":"4","last_reported":1690995951,"current_range_meters":8800,"station_id":"ce4bhr92rcd13ifvqhrg","pricing_plan_id":"free"},{"bike_id":"05bf2cc0-c80b-4d3b-9303-5cea93148e89","system_id":"levelo_inurba_marseille","lat":43.290995,"lon":5.381361,"is_reserved":false,"is_disabled":false,"rental_uris":{"android":"levelo://app?vid=05bf2cc0-c80b-4d3b-9303-5cea93148e89","ios":"levelo://app?vid=05bf2cc0-c80b-4d3b-9303-5cea93148e89"},"vehicle_type_id":"4","last_reported":1690995951,"current_range_meters":31200,"station_id":"ce4bh512rcd13ifvqe2g","pricing_plan_id":"free"},{"bike_id":"39158673-ca48-4dc1-9091-79e7cbe2ef49","system_id":"levelo_inurba_marseille","lat":43.295169,"lon":5.390426,"is_reserved":false,"is_disabled":false,"rental_uris":{"android":"levelo://app?vid=39158673-ca48-4dc1-9091-79e7cbe2ef49","ios":"levelo://app?vid=39158673-ca48-4dc1-9091-79e7cbe2ef49"},"vehicle_type_id":"4","last_reported":1690995951,"current_range_meters":14000,"station_id":"ce4bh3p2rcd13ifvqdp0","pricing_plan_id":"free"},{"bike_id":"6f04f84f-f80f-4b98-b19e-b4b8569d898d","system_id":"levelo_inurba_marseille","lat":43.28856,"lon":5.358371,"is_reserved":false,"is_disabled":false,"rental_uris":{"android":"levelo://app?vid=6f04f84f-f80f-4b98-b19e-b4b8569d898d","ios":"levelo://app?vid=6f04f84f-f80f-4b98-b19e-b4b8569d898d"},"vehicle_type_id":"4","last_reported":1690995951,"current_range_meters":5600,"station_id":"ce4bhb12rcd13ifvqem0","pricing_plan_id":"free"},{"bike_id":"429a4740-36a2-4c03-a513-e91e1989d503","system_id":"levelo_inurba_marseille","lat":43.28856,"lon":5.358371,"is_reserved":false,"is_disabled":false,"rental_uris":{"android":"levelo://app?vid=429a4740-36a2-4c03-a513-e91e1989d503","ios":"levelo://app?vid=429a4740-36a2-4c03-a513-e91e1989d503"},"vehicle_type_id":"4","last_reported":1690995951,"current_range_meters":1600,"station_id":"ce4bhb12rcd13ifvqem0","pricing_plan_id":"free"},{"bike_id":"d4bfe6b6-4c5c-4749-884d-2ff03c106998","system_id":"levelo_inurba_marseille","lat":43.28856,"lon":5.358371,"is_reserved":false,"is_disabled":false,"rental_uris":{"android":"levelo://app?vid=d4bfe6b6-4c5c-4749-884d-2ff03c106998","ios":"levelo://app?vid=d4bfe6b6-4c5c-4749-884d-2ff03c106998"},"vehicle_type_id":"4","last_reported":1690995951,"current_range_meters":24800,"station_id":"ce4bhb12rcd13ifvqem0","pricing_plan_id":"free"},{"bike_id":"0fbbc2da-2371-4088-8ff5-d002c24bed38","system_id":"levelo_inurba_marseille","lat":43.28856,"lon":5.358371,"is_reserved":false,"is_disabled":false,"rental_uris":{"android":"levelo://app?vid=0fbbc2da-2371-4088-8ff5-d002c24bed38","ios":"levelo://app?vid=0fbbc2da-2371-4088-8ff5-d002c24bed38"},"vehicle_type_id":"4","last_reported":1690995951,"current_range_meters":0,"station_id":"ce4bhb12rcd13ifvqem0","pricing_plan_id":"free"},{"bike_id":"b8cba750-b211-4dd7-b4d0-9266e6e1f1c1","system_id":"levelo_inurba_marseille","lat":43.28856,"lon":5.358371,"is_reserved":false,"is_disabled":false,"rental_uris":{"android":"levelo://app?vid=b8cba750-b211-4dd7-b4d0-9266e6e1f1c1","ios":"levelo://app?vid=b8cba750-b211-4dd7-b4d0-9266e6e1f1c1"},"vehicle_type_id":"4","last_reported":1690995951,"current_range_meters":20800,"station_id":"ce4bhb12rcd13ifvqem0","pricing_plan_id":"free"},{"bike_id":"33d9cd18-53fd-4ffb-bcfc-fb36e4fcc66b","system_id":"levelo_inurba_marseille","lat":43.312609,"lon":5.401662,"is_reserved":false,"is_disabled":false,"rental_uris":{"android":"levelo://app?vid=33d9cd18-53fd-4ffb-bcfc-fb36e4fcc66b","ios":"levelo://app?vid=33d9cd18-53fd-4ffb-bcfc-fb36e4fcc66b"},"vehicle_type_id":"4","last_reported":1690995951,"current_range_meters":5200,"station_id":"ce4bh092rcd13ifvqd30","pricing_plan_id":"free"},{"bike_id":"98c6ef50-887e-4ecf-9574-347469e1f651","system_id":"levelo_inurba_marseille","lat":43.309371,"lon":5.401449,"is_reserved":false,"is_disabled":false,"rental_uris":{"android":"levelo://app?vid=98c6ef50-887e-4ecf-9574-347469e1f651","ios":"levelo://app?vid=98c6ef50-887e-4ecf-9574-347469e1f651"},"vehicle_type_id":"4","last_reported":1690995951,"current_range_meters":5600,"station_id":"ce4bgvp2rcd13ifvqct0","pricing_plan_id":"free"},{"bike_id":"687131c8-8df4-42e4-9cbc-aad63d7c35eb","system_id":"levelo_inurba_marseille","lat":43.309371,"lon":5.401449,"is_reserved":false,"is_disabled":false,"rental_uris":{"android":"levelo://app?vid=687131c8-8df4-42e4-9cbc-aad63d7c35eb","ios":"levelo://app?vid=687131c8-8df4-42e4-9cbc-aad63d7c35eb"},"vehicle_type_id":"4","last_reported":1690995951,"current_range_meters":12800,"station_id":"ce4bgvp2rcd13ifvqct0","pricing_plan_id":"free"},{"bike_id":"fb620ca6-d9c7-494f-bed2-adeac9f628e4","system_id":"levelo_inurba_marseille","lat":43.30939,"lon":5.40142,"is_reserved":false,"is_disabled":false,"rental_uris":{"android":"levelo://app?vid=fb620ca6-d9c7-494f-bed2-adeac9f628e4","ios":"levelo://app?vid=fb620ca6-d9c7-494f-bed2-adeac9f628e4"},"vehicle_type_id":"4","last_reported":1690995951,"current_range_meters":8800,"station_id":"ce4bgvp2rcd13ifvqct0","pricing_plan_id":"free"},{"bike_id":"9e21db95-d261-424a-a083-45bb7d571ca2","system_id":"levelo_inurba_marseille","lat":43.309371,"lon":5.401449,"is_reserved":false,"is_disabled":false,"rental_uris":{"android":"levelo://app?vid=9e21db95-d261-424a-a083-45bb7d571ca2","ios":"levelo://app?vid=9e21db95-d261-424a-a083-45bb7d571ca2"},"vehicle_type_id":"4","last_reported":1690995951,"current_range_meters":26000,"station_id":"ce4bgvp2rcd13ifvqct0","pricing_plan_id":"free"},{"bike_id":"fe33c0de-87f6-4061-a6d5-e91c5da2151a","system_id":"levelo_inurba_marseille","lat":43.30642,"lon":5.401031,"is_reserved":false,"is_disabled":false,"rental_uris":{"android":"levelo://app?vid=fe33c0de-87f6-4061-a6d5-e91c5da2151a","ios":"levelo://app?vid=fe33c0de-87f6-4061-a6d5-e91c5da2151a"},"vehicle_type_id":"4","last_reported":1690995951,"current_range_meters":0,"station_id":"ce4bh112rcd13ifvqda0","pricing_plan_id":"free"},{"bike_id":"ddadb376-0cbf-4713-8ebc-e5ce3b19b811","system_id":"levelo_inurba_marseille","lat":43.30642,"lon":5.4009,"is_reserved":false,"is_disabled":false,"rental_uris":{"android":"levelo://app?vid=ddadb376-0cbf-4713-8ebc-e5ce3b19b811","ios":"levelo://app?vid=ddadb376-0cbf-4713-8ebc-e5ce3b19b811"},"vehicle_type_id":"4","last_reported":1690995951,"current_range_meters":1600,"station_id":"ce4bh112rcd13ifvqda0","pricing_plan_id":"free"},{"bike_id":"4e3ea497-c71a-4a49-b008-ea851dddfc5c","system_id":"levelo_inurba_marseille","lat":43.30642,"lon":5.401031,"is_reserved":false,"is_disabled":false,"rental_uris":{"android":"levelo://app?vid=4e3ea497-c71a-4a49-b008-ea851dddfc5c","ios":"levelo://app?vid=4e3ea497-c71a-4a49-b008-ea851dddfc5c"},"vehicle_type_id":"4","last_reported":1690995951,"current_range_meters":30400,"station_id":"ce4bh112rcd13ifvqda0","pricing_plan_id":"free"},{"bike_id":"c21f70f4-5b7a-44b4-a921-0d209d097112","system_id":"levelo_inurba_marseille","lat":43.301117,"lon":5.398795,"is_reserved":false,"is_disabled":false,"rental_uris":{"android":"levelo://app?vid=c21f70f4-5b7a-44b4-a921-0d209d097112","ios":"levelo://app?vid=c21f70f4-5b7a-44b4-a921-0d209d097112"},"vehicle_type_id":"4","last_reported":1690995951,"current_range_meters":22800,"station_id":"ce4bh0h2rcd13ifvqd40","pricing_plan_id":"free"},{"bike_id":"d83dcb76-f857-457b-bb29-c61945756364","system_id":"levelo_inurba_marseille","lat":43.33262,"lon":5.39017,"is_reserved":false,"is_disabled":false,"rental_uris":{"android":"levelo://app?vid=d83dcb76-f857-457b-bb29-c61945756364","ios":"levelo://app?vid=d83dcb76-f857-457b-bb29-c61945756364"},"vehicle_type_id":"4","last_reported":1690995951,"current_range_meters":22000,"station_id":"ce4bhr92rcd13ifvqhsg","pricing_plan_id":"free"},{"bike_id":"9195f8ab-01b8-41f3-a566-acc3939234e2","system_id":"levelo_inurba_marseille","lat":43.286961,"lon":5.373785,"is_reserved":false,"is_disabled":false,"rental_uris":{"android":"levelo://app?vid=9195f8ab-01b8-41f3-a566-acc3939234e2","ios":"levelo://app?vid=9195f8ab-01b8-41f3-a566-acc3939234e2"},"vehicle_type_id":"4","last_reported":1690995951,"current_range_meters":18400,"station_id":"ce4bh3p2rcd13ifvqdq0","pricing_plan_id":"free"},{"bike_id":"92d90b47-d2ab-4a94-a22c-39b95e3b686f","system_id":"levelo_inurba_marseille","lat":43.286961,"lon":5.373785,"is_reserved":false,"is_disabled":false,"rental_uris":{"android":"levelo://app?vid=92d90b47-d2ab-4a94-a22c-39b95e3b686f","ios":"levelo://app?vid=92d90b47-d2ab-4a94-a22c-39b95e3b686f"},"vehicle_type_id":"4","last_reported":1690995951,"current_range_meters":17200,"station_id":"ce4bh3p2rcd13ifvqdq0","pricing_plan_id":"free"},{"bike_id":"75199276-b705-4ad7-b6a9-49aeaa84628a","system_id":"levelo_inurba_marseille","lat":43.286593,"lon":5.363346,"is_reserved":false,"is_disabled":false,"rental_uris":{"android":"levelo://app?vid=75199276-b705-4ad7-b6a9-49aeaa84628a","ios":"levelo://app?vid=75199276-b705-4ad7-b6a9-49aeaa84628a"},"vehicle_type_id":"4","last_reported":1690995951,"current_range_meters":31200,"station_id":"ce4bhah2rcd13ifvqej0","pricing_plan_id":"free"},{"bike_id":"df34c244-c41b-499f-8797-efbc37b21e85","system_id":"levelo_inurba_marseille","lat":43.290345,"lon":5.38646,"is_reserved":false,"is_disabled":false,"rental_uris":{"android":"levelo://app?vid=df34c244-c41b-499f-8797-efbc37b21e85","ios":"levelo://app?vid=df34c244-c41b-499f-8797-efbc37b21e85"},"vehicle_type_id":"4","last_reported":1690995951,"current_range_meters":15200,"station_id":"ce4bh4p2rcd13ifvqe0g","pricing_plan_id":"free"},{"bike_id":"17336c82-a448-4884-a7b0-ed64f672c7f8","system_id":"levelo_inurba_marseille","lat":43.286039,"lon":5.370681,"is_reserved":false,"is_disabled":false,"rental_uris":{"android":"levelo://app?vid=17336c82-a448-4884-a7b0-ed64f672c7f8","ios":"levelo://app?vid=17336c82-a448-4884-a7b0-ed64f672c7f8"},"vehicle_type_id":"4","last_reported":1690995951,"current_range_meters":11200,"station_id":"ce4bht12rcd13ifvqi60","pricing_plan_id":"free"},{"bike_id":"992d4d46-9f22-439a-ba60-77868c399592","system_id":"levelo_inurba_marseille","lat":43.316517,"lon":5.404375,"is_reserved":false,"is_disabled":false,"rental_uris":{"android":"levelo://app?vid=992d4d46-9f22-439a-ba60-77868c399592","ios":"levelo://app?vid=992d4d46-9f22-439a-ba60-77868c399592"},"vehicle_type_id":"4","last_reported":1690995951,"current_range_meters":29600,"station_id":"ce4bh012rcd13ifvqd00","pricing_plan_id":"free"},{"bike_id":"7ce180e9-bd5d-4c9c-8f99-4c6521c30da4","system_id":"levelo_inurba_marseille","lat":43.31643,"lon":5.40433,"is_reserved":false,"is_disabled":false,"rental_uris":{"android":"levelo://app?vid=7ce180e9-bd5d-4c9c-8f99-4c6521c30da4","ios":"levelo://app?vid=7ce180e9-bd5d-4c9c-8f99-4c6521c30da4"},"vehicle_type_id":"4","last_reported":1690995951,"current_range_meters":25200,"station_id":"ce4bh012rcd13ifvqd00","pricing_plan_id":"free"},{"bike_id":"a0b1f867-de5e-4b5b-a94f-ac3766b67bae","system_id":"levelo_inurba_marseille","lat":43.316469,"lon":5.404331,"is_reserved":false,"is_disabled":false,"rental_uris":{"android":"levelo://app?vid=a0b1f867-de5e-4b5b-a94f-ac3766b67bae","ios":"levelo://app?vid=a0b1f867-de5e-4b5b-a94f-ac3766b67bae"},"vehicle_type_id":"4","last_reported":1690995951,"current_range_meters":7600,"station_id":"ce4bh012rcd13ifvqd00","pricing_plan_id":"free"},{"bike_id":"7eeb9539-a218-46fa-8215-75ee860772be","system_id":"levelo_inurba_marseille","lat":43.31642,"lon":5.40436,"is_reserved":false,"is_disabled":false,"rental_uris":{"android":"levelo://app?vid=7eeb9539-a218-46fa-8215-75ee860772be","ios":"levelo://app?vid=7eeb9539-a218-46fa-8215-75ee860772be"},"vehicle_type_id":"4","last_reported":1690995951,"current_range_meters":29200,"station_id":"ce4bh012rcd13ifvqd00","pricing_plan_id":"free"},{"bike_id":"3d61ae8c-21bb-4cda-9643-7ca57d4f6f41","system_id":"levelo_inurba_marseille","lat":43.31649,"lon":5.40435,"is_reserved":false,"is_disabled":false,"rental_uris":{"android":"levelo://app?vid=3d61ae8c-21bb-4cda-9643-7ca57d4f6f41","ios":"levelo://app?vid=3d61ae8c-21bb-4cda-9643-7ca57d4f6f41"},"vehicle_type_id":"4","last_reported":1690995951,"current_range_meters":9200,"station_id":"ce4bh012rcd13ifvqd00","pricing_plan_id":"free"},{"bike_id":"319b67a5-c642-4797-8c02-6eb0ecc259ea","system_id":"levelo_inurba_marseille","lat":43.31646,"lon":5.40436,"is_reserved":false,"is_disabled":false,"rental_uris":{"android":"levelo://app?vid=319b67a5-c642-4797-8c02-6eb0ecc259ea","ios":"levelo://app?vid=319b67a5-c642-4797-8c02-6eb0ecc259ea"},"vehicle_type_id":"4","last_reported":1690995951,"current_range_meters":22000,"station_id":"ce4bh012rcd13ifvqd00","pricing_plan_id":"free"},{"bike_id":"7aff8911-bbda-4eea-861f-b4dd91d44ecb","system_id":"levelo_inurba_marseille","lat":43.3165,"lon":5.40438,"is_reserved":false,"is_disabled":false,"rental_uris":{"android":"levelo://app?vid=7aff8911-bbda-4eea-861f-b4dd91d44ecb","ios":"levelo://app?vid=7aff8911-bbda-4eea-861f-b4dd91d44ecb"},"vehicle_type_id":"4","last_reported":1690995951,"current_range_meters":14800,"station_id":"ce4bh012rcd13ifvqd00","pricing_plan_id":"free"},{"bike_id":"115ec360-05aa-4fb4-8dea-e514bdbd2089","system_id":"levelo_inurba_marseille","lat":43.31646,"lon":5.40441,"is_reserved":false,"is_disabled":false,"rental_uris":{"android":"levelo://app?vid=115ec360-05aa-4fb4-8dea-e514bdbd2089","ios":"levelo://app?vid=115ec360-05aa-4fb4-8dea-e514bdbd2089"},"vehicle_type_id":"4","last_reported":1690995951,"current_range_meters":24400,"station_id":"ce4bh012rcd13ifvqd00","pricing_plan_id":"free"},{"bike_id":"99b07d52-006c-428c-87c8-3eaf3e1ab7cd","system_id":"levelo_inurba_marseille","lat":43.31652,"lon":5.40442,"is_reserved":false,"is_disabled":false,"rental_uris":{"android":"levelo://app?vid=99b07d52-006c-428c-87c8-3eaf3e1ab7cd","ios":"levelo://app?vid=99b07d52-006c-428c-87c8-3eaf3e1ab7cd"},"vehicle_type_id":"4","last_reported":1690995951,"current_range_meters":29200,"station_id":"ce4bh012rcd13ifvqd00","pricing_plan_id":"free"},{"bike_id":"99ef77c8-5f24-48f8-b499-d5f3fc911ee4","system_id":"levelo_inurba_marseille","lat":43.2924,"lon":5.39414,"is_reserved":false,"is_disabled":false,"rental_uris":{"android":"levelo://app?vid=99ef77c8-5f24-48f8-b499-d5f3fc911ee4","ios":"levelo://app?vid=99ef77c8-5f24-48f8-b499-d5f3fc911ee4"},"vehicle_type_id":"4","last_reported":1690995951,"current_range_meters":22400,"station_id":"","pricing_plan_id":"free"},{"bike_id":"076374d0-76bd-4a56-9309-b16fbb7c60b2","system_id":"levelo_inurba_marseille","lat":43.294314,"lon":5.397498,"is_reserved":false,"is_disabled":false,"rental_uris":{"android":"levelo://app?vid=076374d0-76bd-4a56-9309-b16fbb7c60b2","ios":"levelo://app?vid=076374d0-76bd-4a56-9309-b16fbb7c60b2"},"vehicle_type_id":"4","last_reported":1690995951,"current_range_meters":22400,"station_id":"ce4bh3h2rcd13ifvqdo0","pricing_plan_id":"free"},{"bike_id":"8dfc2cc9-b94d-4b87-8773-f45959182c62","system_id":"levelo_inurba_marseille","lat":43.28459,"lon":5.35891,"is_reserved":false,"is_disabled":false,"rental_uris":{"android":"levelo://app?vid=8dfc2cc9-b94d-4b87-8773-f45959182c62","ios":"levelo://app?vid=8dfc2cc9-b94d-4b87-8773-f45959182c62"},"vehicle_type_id":"4","last_reported":1690995951,"current_range_meters":13600,"station_id":"ce4bhah2rcd13ifvqei0","pricing_plan_id":"free"},{"bike_id":"87975013-8bcf-4a40-9730-abf929fb38e9","system_id":"levelo_inurba_marseille","lat":43.2846,"lon":5.35883,"is_reserved":false,"is_disabled":false,"rental_uris":{"android":"levelo://app?vid=87975013-8bcf-4a40-9730-abf929fb38e9","ios":"levelo://app?vid=87975013-8bcf-4a40-9730-abf929fb38e9"},"vehicle_type_id":"4","last_reported":1690995951,"current_range_meters":22400,"station_id":"ce4bhah2rcd13ifvqei0","pricing_plan_id":"free"},{"bike_id":"f2bddf38-35b6-43d6-9136-c51fde2dce1f","system_id":"levelo_inurba_marseille","lat":43.28617,"lon":5.35107,"is_reserved":false,"is_disabled":false,"rental_uris":{"android":"levelo://app?vid=f2bddf38-35b6-43d6-9136-c51fde2dce1f","ios":"levelo://app?vid=f2bddf38-35b6-43d6-9136-c51fde2dce1f"},"vehicle_type_id":"4","last_reported":1690995951,"current_range_meters":20000,"station_id":"ce4bhch2rcd13ifvqeug","pricing_plan_id":"free"},{"bike_id":"c10e83b2-4021-435a-b092-a45dcd2d3612","system_id":"levelo_inurba_marseille","lat":43.28617,"lon":5.35106,"is_reserved":false,"is_disabled":false,"rental_uris":{"android":"levelo://app?vid=c10e83b2-4021-435a-b092-a45dcd2d3612","ios":"levelo://app?vid=c10e83b2-4021-435a-b092-a45dcd2d3612"},"vehicle_type_id":"4","last_reported":1690995951,"current_range_meters":21600,"station_id":"ce4bhch2rcd13ifvqeug","pricing_plan_id":"free"},{"bike_id":"938920c6-279e-413f-9c12-9b3bd03df1e9","system_id":"levelo_inurba_marseille","lat":43.28618,"lon":5.35099,"is_reserved":false,"is_disabled":false,"rental_uris":{"android":"levelo://app?vid=938920c6-279e-413f-9c12-9b3bd03df1e9","ios":"levelo://app?vid=938920c6-279e-413f-9c12-9b3bd03df1e9"},"vehicle_type_id":"4","last_reported":1690995951,"current_range_meters":0,"station_id":"ce4bhch2rcd13ifvqeug","pricing_plan_id":"free"},{"bike_id":"f715b783-5e18-4ed9-a85f-4a0c54701707","system_id":"levelo_inurba_marseille","lat":43.28614,"lon":5.35103,"is_reserved":false,"is_disabled":false,"rental_uris":{"android":"levelo://app?vid=f715b783-5e18-4ed9-a85f-4a0c54701707","ios":"levelo://app?vid=f715b783-5e18-4ed9-a85f-4a0c54701707"},"vehicle_type_id":"4","last_reported":1690995951,"current_range_meters":24800,"station_id":"ce4bhch2rcd13ifvqeug","pricing_plan_id":"free"},{"bike_id":"019dfab4-9de8-4902-acb6-5ffdf43f30fa","system_id":"levelo_inurba_marseille","lat":43.28611,"lon":5.35109,"is_reserved":false,"is_disabled":false,"rental_uris":{"android":"levelo://app?vid=019dfab4-9de8-4902-acb6-5ffdf43f30fa","ios":"levelo://app?vid=019dfab4-9de8-4902-acb6-5ffdf43f30fa"},"vehicle_type_id":"4","last_reported":1690995951,"current_range_meters":9600,"station_id":"ce4bhch2rcd13ifvqeug","pricing_plan_id":"free"},{"bike_id":"f99622e9-42e9-4d75-9800-e95938c35762","system_id":"levelo_inurba_marseille","lat":43.283998,"lon":5.375062,"is_reserved":false,"is_disabled":false,"rental_uris":{"android":"levelo://app?vid=f99622e9-42e9-4d75-9800-e95938c35762","ios":"levelo://app?vid=f99622e9-42e9-4d75-9800-e95938c35762"},"vehicle_type_id":"4","last_reported":1690995951,"current_range_meters":18000,"station_id":"ce4bh412rcd13ifvqds0","pricing_plan_id":"free"},{"bike_id":"6be5b20c-021d-4eed-aad9-4768b42994e9","system_id":"levelo_inurba_marseille","lat":43.28414,"lon":5.37525,"is_reserved":false,"is_disabled":false,"rental_uris":{"android":"levelo://app?vid=6be5b20c-021d-4eed-aad9-4768b42994e9","ios":"levelo://app?vid=6be5b20c-021d-4eed-aad9-4768b42994e9"},"vehicle_type_id":"4","last_reported":1690995951,"current_range_meters":30400,"station_id":"ce4bh412rcd13ifvqds0","pricing_plan_id":"free"},{"bike_id":"f545890d-af1f-4a8e-bcbe-4118a01441f3","system_id":"levelo_inurba_marseille","lat":43.283998,"lon":5.375062,"is_reserved":false,"is_disabled":false,"rental_uris":{"android":"levelo://app?vid=f545890d-af1f-4a8e-bcbe-4118a01441f3","ios":"levelo://app?vid=f545890d-af1f-4a8e-bcbe-4118a01441f3"},"vehicle_type_id":"4","last_reported":1690995951,"current_range_meters":31200,"station_id":"ce4bh412rcd13ifvqds0","pricing_plan_id":"free"},{"bike_id":"b9763b52-32e1-4bd7-8a66-7c09db0651bb","system_id":"levelo_inurba_marseille","lat":43.31866,"lon":5.40715,"is_reserved":false,"is_disabled":false,"rental_uris":{"android":"levelo://app?vid=b9763b52-32e1-4bd7-8a66-7c09db0651bb","ios":"levelo://app?vid=b9763b52-32e1-4bd7-8a66-7c09db0651bb"},"vehicle_type_id":"4","last_reported":1690995951,"current_range_meters":6800,"station_id":"ce4bh012rcd13ifvqd00","pricing_plan_id":"free"},{"bike_id":"3e563380-a985-451c-801d-2783d7714294","system_id":"levelo_inurba_marseille","lat":43.337168,"lon":5.391825,"is_reserved":false,"is_disabled":false,"rental_uris":{"android":"levelo://app?vid=3e563380-a985-451c-801d-2783d7714294","ios":"levelo://app?vid=3e563380-a985-451c-801d-2783d7714294"},"vehicle_type_id":"4","last_reported":1690995951,"current_range_meters":25200,"station_id":"ce4bhr92rcd13ifvqhsg","pricing_plan_id":"free"},{"bike_id":"98db51aa-ea4b-4608-9d13-b33ac5b52a63","system_id":"levelo_inurba_marseille","lat":43.337168,"lon":5.391825,"is_reserved":false,"is_disabled":false,"rental_uris":{"android":"levelo://app?vid=98db51aa-ea4b-4608-9d13-b33ac5b52a63","ios":"levelo://app?vid=98db51aa-ea4b-4608-9d13-b33ac5b52a63"},"vehicle_type_id":"4","last_reported":1690995951,"current_range_meters":24400,"station_id":"ce4bhr92rcd13ifvqhsg","pricing_plan_id":"free"},{"bike_id":"40de583e-accb-4721-a8a6-7d230889501e","system_id":"levelo_inurba_marseille","lat":43.337168,"lon":5.391825,"is_reserved":false,"is_disabled":false,"rental_uris":{"android":"levelo://app?vid=40de583e-accb-4721-a8a6-7d230889501e","ios":"levelo://app?vid=40de583e-accb-4721-a8a6-7d230889501e"},"vehicle_type_id":"4","last_reported":1690995951,"current_range_meters":14400,"station_id":"ce4bhr92rcd13ifvqhsg","pricing_plan_id":"free"},{"bike_id":"9d8dc018-8295-487e-aae9-79ce0f469cdf","system_id":"levelo_inurba_marseille","lat":43.33723,"lon":5.39187,"is_reserved":false,"is_disabled":false,"rental_uris":{"android":"levelo://app?vid=9d8dc018-8295-487e-aae9-79ce0f469cdf","ios":"levelo://app?vid=9d8dc018-8295-487e-aae9-79ce0f469cdf"},"vehicle_type_id":"4","last_reported":1690995951,"current_range_meters":2400,"station_id":"ce4bhr92rcd13ifvqhsg","pricing_plan_id":"free"},{"bike_id":"b5240968-d861-485a-9cd6-e1d2f00ba051","system_id":"levelo_inurba_marseille","lat":43.33727,"lon":5.39182,"is_reserved":false,"is_disabled":false,"rental_uris":{"android":"levelo://app?vid=b5240968-d861-485a-9cd6-e1d2f00ba051","ios":"levelo://app?vid=b5240968-d861-485a-9cd6-e1d2f00ba051"},"vehicle_type_id":"4","last_reported":1690995951,"current_range_meters":26400,"station_id":"ce4bhr92rcd13ifvqhsg","pricing_plan_id":"free"},{"bike_id":"b92e19a3-7411-4873-90e8-e9de861000ca","system_id":"levelo_inurba_marseille","lat":43.33717,"lon":5.391857,"is_reserved":false,"is_disabled":false,"rental_uris":{"android":"levelo://app?vid=b92e19a3-7411-4873-90e8-e9de861000ca","ios":"levelo://app?vid=b92e19a3-7411-4873-90e8-e9de861000ca"},"vehicle_type_id":"4","last_reported":1690995951,"current_range_meters":6400,"station_id":"ce4bhr92rcd13ifvqhsg","pricing_plan_id":"free"},{"bike_id":"91e09460-cfc0-485e-9f84-92d2c8fee084","system_id":"levelo_inurba_marseille","lat":43.323464,"lon":5.406297,"is_reserved":false,"is_disabled":false,"rental_uris":{"android":"levelo://app?vid=91e09460-cfc0-485e-9f84-92d2c8fee084","ios":"levelo://app?vid=91e09460-cfc0-485e-9f84-92d2c8fee084"},"vehicle_type_id":"4","last_reported":1690995951,"current_range_meters":31200,"station_id":"ce4bhq92rcd13ifvqhjg","pricing_plan_id":"free"},{"bike_id":"c9b36d02-2ed9-426d-91ee-67ca54c133a0","system_id":"levelo_inurba_marseille","lat":43.284793,"lon":5.384113,"is_reserved":false,"is_disabled":false,"rental_uris":{"android":"levelo://app?vid=c9b36d02-2ed9-426d-91ee-67ca54c133a0","ios":"levelo://app?vid=c9b36d02-2ed9-426d-91ee-67ca54c133a0"},"vehicle_type_id":"4","last_reported":1690995951,"current_range_meters":0,"station_id":"ce4bh512rcd13ifvqe3g","pricing_plan_id":"free"},{"bike_id":"dbada9f9-e33c-4a7d-ab43-1cac4e571e70","system_id":"levelo_inurba_marseille","lat":43.284787,"lon":5.384116,"is_reserved":false,"is_disabled":false,"rental_uris":{"android":"levelo://app?vid=dbada9f9-e33c-4a7d-ab43-1cac4e571e70","ios":"levelo://app?vid=dbada9f9-e33c-4a7d-ab43-1cac4e571e70"},"vehicle_type_id":"4","last_reported":1690995951,"current_range_meters":29600,"station_id":"ce4bh512rcd13ifvqe3g","pricing_plan_id":"free"},{"bike_id":"cee5f4bd-d3ae-4a2f-9e6e-2e80bd9d55fe","system_id":"levelo_inurba_marseille","lat":43.28862,"lon":5.39316,"is_reserved":false,"is_disabled":false,"rental_uris":{"android":"levelo://app?vid=cee5f4bd-d3ae-4a2f-9e6e-2e80bd9d55fe","ios":"levelo://app?vid=cee5f4bd-d3ae-4a2f-9e6e-2e80bd9d55fe"},"vehicle_type_id":"4","last_reported":1690995951,"current_range_meters":26800,"station_id":"ce4bh2p2rcd13ifvqdi0","pricing_plan_id":"free"},{"bike_id":"18f689f9-8cda-48c9-843d-0f52e970dde4","system_id":"levelo_inurba_marseille","lat":43.288497,"lon":5.393089,"is_reserved":false,"is_disabled":false,"rental_uris":{"android":"levelo://app?vid=18f689f9-8cda-48c9-843d-0f52e970dde4","ios":"levelo://app?vid=18f689f9-8cda-48c9-843d-0f52e970dde4"},"vehicle_type_id":"4","last_reported":1690995951,"current_range_meters":6400,"station_id":"ce4bh2p2rcd13ifvqdi0","pricing_plan_id":"free"},{"bike_id":"3bff2d7a-1d4f-4506-b133-782f14a6a426","system_id":"levelo_inurba_marseille","lat":43.29802,"lon":5.40412,"is_reserved":false,"is_disabled":false,"rental_uris":{"android":"levelo://app?vid=3bff2d7a-1d4f-4506-b133-782f14a6a426","ios":"levelo://app?vid=3bff2d7a-1d4f-4506-b133-782f14a6a426"},"vehicle_type_id":"4","last_reported":1690995951,"current_range_meters":800,"station_id":"","pricing_plan_id":"free"},{"bike_id":"a0f9c177-cd36-4a7b-96be-fff60fdb98f0","system_id":"levelo_inurba_marseille","lat":43.288497,"lon":5.393089,"is_reserved":false,"is_disabled":false,"rental_uris":{"android":"levelo://app?vid=a0f9c177-cd36-4a7b-96be-fff60fdb98f0","ios":"levelo://app?vid=a0f9c177-cd36-4a7b-96be-fff60fdb98f0"},"vehicle_type_id":"4","last_reported":1690995951,"current_range_meters":0,"station_id":"ce4bh2p2rcd13ifvqdi0","pricing_plan_id":"free"},{"bike_id":"53cabca3-4f02-43b8-ac9b-3720cfdf5d9e","system_id":"levelo_inurba_marseille","lat":43.288497,"lon":5.393089,"is_reserved":false,"is_disabled":false,"rental_uris":{"android":"levelo://app?vid=53cabca3-4f02-43b8-ac9b-3720cfdf5d9e","ios":"levelo://app?vid=53cabca3-4f02-43b8-ac9b-3720cfdf5d9e"},"vehicle_type_id":"4","last_reported":1690995951,"current_range_meters":12800,"station_id":"ce4bh2p2rcd13ifvqdi0","pricing_plan_id":"free"},{"bike_id":"ae00fab8-b194-4b85-9788-8b949cf92fb8","system_id":"levelo_inurba_marseille","lat":43.288501,"lon":5.393087,"is_reserved":false,"is_disabled":false,"rental_uris":{"android":"levelo://app?vid=ae00fab8-b194-4b85-9788-8b949cf92fb8","ios":"levelo://app?vid=ae00fab8-b194-4b85-9788-8b949cf92fb8"},"vehicle_type_id":"4","last_reported":1690995951,"current_range_meters":8400,"station_id":"ce4bh2p2rcd13ifvqdi0","pricing_plan_id":"free"},{"bike_id":"7e1bb4cf-4b10-4397-a44a-70aefc271cfe","system_id":"levelo_inurba_marseille","lat":43.288501,"lon":5.393087,"is_reserved":false,"is_disabled":false,"rental_uris":{"android":"levelo://app?vid=7e1bb4cf-4b10-4397-a44a-70aefc271cfe","ios":"levelo://app?vid=7e1bb4cf-4b10-4397-a44a-70aefc271cfe"},"vehicle_type_id":"4","last_reported":1690995951,"current_range_meters":17600,"station_id":"ce4bh2p2rcd13ifvqdi0","pricing_plan_id":"free"},{"bike_id":"1768914b-e245-4e21-a11f-bfa84922b415","system_id":"levelo_inurba_marseille","lat":43.288501,"lon":5.393087,"is_reserved":false,"is_disabled":false,"rental_uris":{"android":"levelo://app?vid=1768914b-e245-4e21-a11f-bfa84922b415","ios":"levelo://app?vid=1768914b-e245-4e21-a11f-bfa84922b415"},"vehicle_type_id":"4","last_reported":1690995951,"current_range_meters":23600,"station_id":"ce4bh2p2rcd13ifvqdi0","pricing_plan_id":"free"},{"bike_id":"0090335b-3946-4069-84c9-1f9318061a8d","system_id":"levelo_inurba_marseille","lat":43.28426,"lon":5.34992,"is_reserved":false,"is_disabled":false,"rental_uris":{"android":"levelo://app?vid=0090335b-3946-4069-84c9-1f9318061a8d","ios":"levelo://app?vid=0090335b-3946-4069-84c9-1f9318061a8d"},"vehicle_type_id":"4","last_reported":1690995951,"current_range_meters":15600,"station_id":"ce4bhbh2rcd13ifvqepg","pricing_plan_id":"free"},{"bike_id":"1d80ca6f-a541-4e87-8c51-2f352639ffd6","system_id":"levelo_inurba_marseille","lat":43.28342,"lon":5.38102,"is_reserved":false,"is_disabled":false,"rental_uris":{"android":"levelo://app?vid=1d80ca6f-a541-4e87-8c51-2f352639ffd6","ios":"levelo://app?vid=1d80ca6f-a541-4e87-8c51-2f352639ffd6"},"vehicle_type_id":"4","last_reported":1690995951,"current_range_meters":16800,"station_id":"ce4bh412rcd13ifvqdr0","pricing_plan_id":"free"},{"bike_id":"934a2e9f-4da8-4daa-8a07-70a36a0f2943","system_id":"levelo_inurba_marseille","lat":43.284219,"lon":5.3497,"is_reserved":false,"is_disabled":false,"rental_uris":{"android":"levelo://app?vid=934a2e9f-4da8-4daa-8a07-70a36a0f2943","ios":"levelo://app?vid=934a2e9f-4da8-4daa-8a07-70a36a0f2943"},"vehicle_type_id":"4","last_reported":1690995951,"current_range_meters":26400,"station_id":"ce4bhbh2rcd13ifvqepg","pricing_plan_id":"free"},{"bike_id":"a031431b-2496-4823-af32-ce3e2a5b376b","system_id":"levelo_inurba_marseille","lat":43.28417,"lon":5.34992,"is_reserved":false,"is_disabled":false,"rental_uris":{"android":"levelo://app?vid=a031431b-2496-4823-af32-ce3e2a5b376b","ios":"levelo://app?vid=a031431b-2496-4823-af32-ce3e2a5b376b"},"vehicle_type_id":"4","last_reported":1690995951,"current_range_meters":19200,"station_id":"ce4bhbh2rcd13ifvqepg","pricing_plan_id":"free"},{"bike_id":"6be066e7-9fca-4d17-8168-e0c67bdae81c","system_id":"levelo_inurba_marseille","lat":43.284219,"lon":5.3497,"is_reserved":false,"is_disabled":false,"rental_uris":{"android":"levelo://app?vid=6be066e7-9fca-4d17-8168-e0c67bdae81c","ios":"levelo://app?vid=6be066e7-9fca-4d17-8168-e0c67bdae81c"},"vehicle_type_id":"4","last_reported":1690995951,"current_range_meters":2400,"station_id":"ce4bhbh2rcd13ifvqepg","pricing_plan_id":"free"},{"bike_id":"454ed08a-1a0d-4f40-af95-de4278564396","system_id":"levelo_inurba_marseille","lat":43.289363,"lon":5.396322,"is_reserved":false,"is_disabled":false,"rental_uris":{"android":"levelo://app?vid=454ed08a-1a0d-4f40-af95-de4278564396","ios":"levelo://app?vid=454ed08a-1a0d-4f40-af95-de4278564396"},"vehicle_type_id":"4","last_reported":1690995951,"current_range_meters":21600,"station_id":"ce4bh3h2rcd13ifvqdn0","pricing_plan_id":"free"},{"bike_id":"f7f5768e-b80f-4da0-8864-86696a8877fb","system_id":"levelo_inurba_marseille","lat":43.32456,"lon":5.40727,"is_reserved":false,"is_disabled":false,"rental_uris":{"android":"levelo://app?vid=f7f5768e-b80f-4da0-8864-86696a8877fb","ios":"levelo://app?vid=f7f5768e-b80f-4da0-8864-86696a8877fb"},"vehicle_type_id":"4","last_reported":1690995951,"current_range_meters":3600,"station_id":"","pricing_plan_id":"free"},{"bike_id":"ea2ddf42-f1d9-4eb3-bce8-e58dc00e5aa1","system_id":"levelo_inurba_marseille","lat":43.289363,"lon":5.396322,"is_reserved":false,"is_disabled":false,"rental_uris":{"android":"levelo://app?vid=ea2ddf42-f1d9-4eb3-bce8-e58dc00e5aa1","ios":"levelo://app?vid=ea2ddf42-f1d9-4eb3-bce8-e58dc00e5aa1"},"vehicle_type_id":"4","last_reported":1690995951,"current_range_meters":2800,"station_id":"ce4bh3h2rcd13ifvqdn0","pricing_plan_id":"free"},{"bike_id":"4cbd43a0-bde8-4b88-8741-a615bbac3095","system_id":"levelo_inurba_marseille","lat":43.282754,"lon":5.350519,"is_reserved":false,"is_disabled":false,"rental_uris":{"android":"levelo://app?vid=4cbd43a0-bde8-4b88-8741-a615bbac3095","ios":"levelo://app?vid=4cbd43a0-bde8-4b88-8741-a615bbac3095"},"vehicle_type_id":"4","last_reported":1690995951,"current_range_meters":25600,"station_id":"ce4bhbp2rcd13ifvqerg","pricing_plan_id":"free"},{"bike_id":"eb97ba82-6b4d-46ec-841e-fe1eac676593","system_id":"levelo_inurba_marseille","lat":43.28038,"lon":5.36943,"is_reserved":false,"is_disabled":false,"rental_uris":{"android":"levelo://app?vid=eb97ba82-6b4d-46ec-841e-fe1eac676593","ios":"levelo://app?vid=eb97ba82-6b4d-46ec-841e-fe1eac676593"},"vehicle_type_id":"4","last_reported":1690995951,"current_range_meters":27600,"station_id":"ce4bha12rcd13ifvqef0","pricing_plan_id":"free"},{"bike_id":"2c20459e-25b0-4916-a795-3a7515e078b5","system_id":"levelo_inurba_marseille","lat":43.28034,"lon":5.36934,"is_reserved":false,"is_disabled":false,"rental_uris":{"android":"levelo://app?vid=2c20459e-25b0-4916-a795-3a7515e078b5","ios":"levelo://app?vid=2c20459e-25b0-4916-a795-3a7515e078b5"},"vehicle_type_id":"4","last_reported":1690995951,"current_range_meters":31200,"station_id":"ce4bha12rcd13ifvqef0","pricing_plan_id":"free"},{"bike_id":"c67fd003-011a-42e2-85f2-2714de5997e4","system_id":"levelo_inurba_marseille","lat":43.32502,"lon":5.40824,"is_reserved":false,"is_disabled":false,"rental_uris":{"android":"levelo://app?vid=c67fd003-011a-42e2-85f2-2714de5997e4","ios":"levelo://app?vid=c67fd003-011a-42e2-85f2-2714de5997e4"},"vehicle_type_id":"4","last_reported":1690995951,"current_range_meters":0,"station_id":"","pricing_plan_id":"free"},{"bike_id":"4a5a6e11-b11d-4571-9bc3-9c02664f936f","system_id":"levelo_inurba_marseille","lat":43.28108,"lon":5.37839,"is_reserved":false,"is_disabled":false,"rental_uris":{"android":"levelo://app?vid=4a5a6e11-b11d-4571-9bc3-9c02664f936f","ios":"levelo://app?vid=4a5a6e11-b11d-4571-9bc3-9c02664f936f"},"vehicle_type_id":"4","last_reported":1690995951,"current_range_meters":14000,"station_id":"ce4bha12rcd13ifvqee0","pricing_plan_id":"free"},{"bike_id":"a26fd674-daa1-48c4-82e1-4c5f4daaebd8","system_id":"levelo_inurba_marseille","lat":43.317121,"lon":5.423936,"is_reserved":false,"is_disabled":false,"rental_uris":{"android":"levelo://app?vid=a26fd674-daa1-48c4-82e1-4c5f4daaebd8","ios":"levelo://app?vid=a26fd674-daa1-48c4-82e1-4c5f4daaebd8"},"vehicle_type_id":"4","last_reported":1690995951,"current_range_meters":23600,"station_id":"ce4bhp92rcd13ifvqhbg","pricing_plan_id":"free"},{"bike_id":"fb7cb79e-7168-453f-a3e2-36e00ee7319f","system_id":"levelo_inurba_marseille","lat":43.32407,"lon":5.40924,"is_reserved":false,"is_disabled":false,"rental_uris":{"android":"levelo://app?vid=fb7cb79e-7168-453f-a3e2-36e00ee7319f","ios":"levelo://app?vid=fb7cb79e-7168-453f-a3e2-36e00ee7319f"},"vehicle_type_id":"4","last_reported":1690995951,"current_range_meters":21600,"station_id":"","pricing_plan_id":"free"},{"bike_id":"1c2c5196-46eb-439d-8a7a-240d22025fa5","system_id":"levelo_inurba_marseille","lat":43.285742,"lon":5.395004,"is_reserved":false,"is_disabled":false,"rental_uris":{"android":"levelo://app?vid=1c2c5196-46eb-439d-8a7a-240d22025fa5","ios":"levelo://app?vid=1c2c5196-46eb-439d-8a7a-240d22025fa5"},"vehicle_type_id":"4","last_reported":1690995951,"current_range_meters":14000,"station_id":"ce4bh292rcd13ifvqdg0","pricing_plan_id":"free"},{"bike_id":"e967f51b-9e65-4377-a0e0-d1c5ffd49114","system_id":"levelo_inurba_marseille","lat":43.28573,"lon":5.394992,"is_reserved":false,"is_disabled":false,"rental_uris":{"android":"levelo://app?vid=e967f51b-9e65-4377-a0e0-d1c5ffd49114","ios":"levelo://app?vid=e967f51b-9e65-4377-a0e0-d1c5ffd49114"},"vehicle_type_id":"4","last_reported":1690995951,"current_range_meters":29600,"station_id":"ce4bh292rcd13ifvqdg0","pricing_plan_id":"free"},{"bike_id":"1c3e2053-37a0-465e-8e54-8e5ce781947d","system_id":"levelo_inurba_marseille","lat":43.32658,"lon":5.40983,"is_reserved":false,"is_disabled":false,"rental_uris":{"android":"levelo://app?vid=1c3e2053-37a0-465e-8e54-8e5ce781947d","ios":"levelo://app?vid=1c3e2053-37a0-465e-8e54-8e5ce781947d"},"vehicle_type_id":"4","last_reported":1690995951,"current_range_meters":31200,"station_id":"ce4bhpp2rcd13ifvqhgg","pricing_plan_id":"free"},{"bike_id":"d21d33c3-5255-4bbd-aaaa-e7ea85b3babf","system_id":"levelo_inurba_marseille","lat":43.32654,"lon":5.4099,"is_reserved":false,"is_disabled":false,"rental_uris":{"android":"levelo://app?vid=d21d33c3-5255-4bbd-aaaa-e7ea85b3babf","ios":"levelo://app?vid=d21d33c3-5255-4bbd-aaaa-e7ea85b3babf"},"vehicle_type_id":"4","last_reported":1690995951,"current_range_meters":28400,"station_id":"ce4bhpp2rcd13ifvqhgg","pricing_plan_id":"free"},{"bike_id":"0ff37f37-1b1c-40ad-8d65-cfe3ce0a745b","system_id":"levelo_inurba_marseille","lat":43.32655,"lon":5.4099,"is_reserved":false,"is_disabled":false,"rental_uris":{"android":"levelo://app?vid=0ff37f37-1b1c-40ad-8d65-cfe3ce0a745b","ios":"levelo://app?vid=0ff37f37-1b1c-40ad-8d65-cfe3ce0a745b"},"vehicle_type_id":"4","last_reported":1690995951,"current_range_meters":31200,"station_id":"ce4bhpp2rcd13ifvqhgg","pricing_plan_id":"free"},{"bike_id":"e78399c7-b161-4b59-99e9-511284445788","system_id":"levelo_inurba_marseille","lat":43.32652,"lon":5.40993,"is_reserved":false,"is_disabled":false,"rental_uris":{"android":"levelo://app?vid=e78399c7-b161-4b59-99e9-511284445788","ios":"levelo://app?vid=e78399c7-b161-4b59-99e9-511284445788"},"vehicle_type_id":"4","last_reported":1690995951,"current_range_meters":31200,"station_id":"ce4bhpp2rcd13ifvqhgg","pricing_plan_id":"free"},{"bike_id":"ee382734-1190-4e95-907a-c0d476fc78c1","system_id":"levelo_inurba_marseille","lat":43.326605,"lon":5.409903,"is_reserved":false,"is_disabled":false,"rental_uris":{"android":"levelo://app?vid=ee382734-1190-4e95-907a-c0d476fc78c1","ios":"levelo://app?vid=ee382734-1190-4e95-907a-c0d476fc78c1"},"vehicle_type_id":"4","last_reported":1690995951,"current_range_meters":26400,"station_id":"ce4bhpp2rcd13ifvqhgg","pricing_plan_id":"free"},{"bike_id":"47ab9505-761d-4afa-9073-dd2244bc02c1","system_id":"levelo_inurba_marseille","lat":43.32168,"lon":5.41346,"is_reserved":false,"is_disabled":false,"rental_uris":{"android":"levelo://app?vid=47ab9505-761d-4afa-9073-dd2244bc02c1","ios":"levelo://app?vid=47ab9505-761d-4afa-9073-dd2244bc02c1"},"vehicle_type_id":"4","last_reported":1690995951,"current_range_meters":30800,"station_id":"ce4bhpp2rcd13ifvqhgg","pricing_plan_id":"free"},{"bike_id":"3c558cfd-5b64-4d1f-bf93-3382e1d766a6","system_id":"levelo_inurba_marseille","lat":43.287154,"lon":5.399979,"is_reserved":false,"is_disabled":false,"rental_uris":{"android":"levelo://app?vid=3c558cfd-5b64-4d1f-bf93-3382e1d766a6","ios":"levelo://app?vid=3c558cfd-5b64-4d1f-bf93-3382e1d766a6"},"vehicle_type_id":"4","last_reported":1690995951,"current_range_meters":11200,"station_id":"ce4bho92rcd13ifvqh3g","pricing_plan_id":"free"},{"bike_id":"da74851f-183f-4ed8-bc32-44e1d656b516","system_id":"levelo_inurba_marseille","lat":43.32095,"lon":5.41512,"is_reserved":false,"is_disabled":false,"rental_uris":{"android":"levelo://app?vid=da74851f-183f-4ed8-bc32-44e1d656b516","ios":"levelo://app?vid=da74851f-183f-4ed8-bc32-44e1d656b516"},"vehicle_type_id":"4","last_reported":1690995951,"current_range_meters":6400,"station_id":"","pricing_plan_id":"free"},{"bike_id":"e9fbe7f4-c376-4a74-9a01-c2dfa71d30c2","system_id":"levelo_inurba_marseille","lat":43.3209,"lon":5.41514,"is_reserved":false,"is_disabled":false,"rental_uris":{"android":"levelo://app?vid=e9fbe7f4-c376-4a74-9a01-c2dfa71d30c2","ios":"levelo://app?vid=e9fbe7f4-c376-4a74-9a01-c2dfa71d30c2"},"vehicle_type_id":"4","last_reported":1690995951,"current_range_meters":2800,"station_id":"","pricing_plan_id":"free"},{"bike_id":"059bad7b-8751-45e1-8746-24b49345e396","system_id":"levelo_inurba_marseille","lat":43.320045,"lon":5.415048,"is_reserved":false,"is_disabled":false,"rental_uris":{"android":"levelo://app?vid=059bad7b-8751-45e1-8746-24b49345e396","ios":"levelo://app?vid=059bad7b-8751-45e1-8746-24b49345e396"},"vehicle_type_id":"4","last_reported":1690995951,"current_range_meters":31200,"station_id":"ce4bhq92rcd13ifvqhkg","pricing_plan_id":"free"},{"bike_id":"62823ab8-e27e-4b60-82d1-3162dee90e5f","system_id":"levelo_inurba_marseille","lat":43.320045,"lon":5.415046,"is_reserved":false,"is_disabled":false,"rental_uris":{"android":"levelo://app?vid=62823ab8-e27e-4b60-82d1-3162dee90e5f","ios":"levelo://app?vid=62823ab8-e27e-4b60-82d1-3162dee90e5f"},"vehicle_type_id":"4","last_reported":1690995951,"current_range_meters":29200,"station_id":"ce4bhq92rcd13ifvqhkg","pricing_plan_id":"free"},{"bike_id":"894ffc8f-86f0-4a88-9273-a13e77860068","system_id":"levelo_inurba_marseille","lat":43.320045,"lon":5.415046,"is_reserved":false,"is_disabled":false,"rental_uris":{"android":"levelo://app?vid=894ffc8f-86f0-4a88-9273-a13e77860068","ios":"levelo://app?vid=894ffc8f-86f0-4a88-9273-a13e77860068"},"vehicle_type_id":"4","last_reported":1690995951,"current_range_meters":31200,"station_id":"ce4bhq92rcd13ifvqhkg","pricing_plan_id":"free"},{"bike_id":"95987842-078f-4d1b-af84-474fdd67e96d","system_id":"levelo_inurba_marseille","lat":43.320045,"lon":5.415046,"is_reserved":false,"is_disabled":false,"rental_uris":{"android":"levelo://app?vid=95987842-078f-4d1b-af84-474fdd67e96d","ios":"levelo://app?vid=95987842-078f-4d1b-af84-474fdd67e96d"},"vehicle_type_id":"4","last_reported":1690995951,"current_range_meters":31200,"station_id":"ce4bhq92rcd13ifvqhkg","pricing_plan_id":"free"},{"bike_id":"e80f134e-bdf0-416c-b95e-c454d1cce4b3","system_id":"levelo_inurba_marseille","lat":43.320045,"lon":5.415048,"is_reserved":false,"is_disabled":false,"rental_uris":{"android":"levelo://app?vid=e80f134e-bdf0-416c-b95e-c454d1cce4b3","ios":"levelo://app?vid=e80f134e-bdf0-416c-b95e-c454d1cce4b3"},"vehicle_type_id":"4","last_reported":1690995951,"current_range_meters":28800,"station_id":"ce4bhq92rcd13ifvqhkg","pricing_plan_id":"free"},{"bike_id":"6a73a50c-aa54-423b-9fc2-7c434588b534","system_id":"levelo_inurba_marseille","lat":43.32029,"lon":5.41559,"is_reserved":false,"is_disabled":false,"rental_uris":{"android":"levelo://app?vid=6a73a50c-aa54-423b-9fc2-7c434588b534","ios":"levelo://app?vid=6a73a50c-aa54-423b-9fc2-7c434588b534"},"vehicle_type_id":"4","last_reported":1690995951,"current_range_meters":30000,"station_id":"ce4bhq92rcd13ifvqhkg","pricing_plan_id":"free"},{"bike_id":"c327718a-8fe6-4791-a349-aba0f8f94e82","system_id":"levelo_inurba_marseille","lat":43.279742,"lon":5.38744,"is_reserved":false,"is_disabled":false,"rental_uris":{"android":"levelo://app?vid=c327718a-8fe6-4791-a349-aba0f8f94e82","ios":"levelo://app?vid=c327718a-8fe6-4791-a349-aba0f8f94e82"},"vehicle_type_id":"4","last_reported":1690995951,"current_range_meters":31200,"station_id":"ce4bhg12rcd13ifvqf80","pricing_plan_id":"free"},{"bike_id":"e9552ba5-0a37-4d9e-a655-333531ac5a43","system_id":"levelo_inurba_marseille","lat":43.292571,"lon":5.409107,"is_reserved":false,"is_disabled":false,"rental_uris":{"android":"levelo://app?vid=e9552ba5-0a37-4d9e-a655-333531ac5a43","ios":"levelo://app?vid=e9552ba5-0a37-4d9e-a655-333531ac5a43"},"vehicle_type_id":"4","last_reported":1690995951,"current_range_meters":22400,"station_id":"ce4bh192rcd13ifvqdc0","pricing_plan_id":"free"},{"bike_id":"000e9a76-0cf8-4611-bcab-b300a4299b93","system_id":"levelo_inurba_marseille","lat":43.29261,"lon":5.40906,"is_reserved":false,"is_disabled":false,"rental_uris":{"android":"levelo://app?vid=000e9a76-0cf8-4611-bcab-b300a4299b93","ios":"levelo://app?vid=000e9a76-0cf8-4611-bcab-b300a4299b93"},"vehicle_type_id":"4","last_reported":1690995951,"current_range_meters":1600,"station_id":"ce4bh192rcd13ifvqdc0","pricing_plan_id":"free"},{"bike_id":"facec683-9177-429a-b650-7abc4af7f962","system_id":"levelo_inurba_marseille","lat":43.2762,"lon":5.3612,"is_reserved":false,"is_disabled":false,"rental_uris":{"android":"levelo://app?vid=facec683-9177-429a-b650-7abc4af7f962","ios":"levelo://app?vid=facec683-9177-429a-b650-7abc4af7f962"},"vehicle_type_id":"4","last_reported":1690995951,"current_range_meters":28000,"station_id":"ce4bgj92rcd13ifvqbe0","pricing_plan_id":"free"},{"bike_id":"2ecaf25c-9814-4e7b-80f7-e4c070a04c69","system_id":"levelo_inurba_marseille","lat":43.325233,"lon":5.414318,"is_reserved":false,"is_disabled":false,"rental_uris":{"android":"levelo://app?vid=2ecaf25c-9814-4e7b-80f7-e4c070a04c69","ios":"levelo://app?vid=2ecaf25c-9814-4e7b-80f7-e4c070a04c69"},"vehicle_type_id":"4","last_reported":1690995951,"current_range_meters":31200,"station_id":"ce4bhq12rcd13ifvqhhg","pricing_plan_id":"free"},{"bike_id":"c4d5dae8-de75-4a4b-99e1-dedffdbd0ee9","system_id":"levelo_inurba_marseille","lat":43.276179,"lon":5.361009,"is_reserved":false,"is_disabled":false,"rental_uris":{"android":"levelo://app?vid=c4d5dae8-de75-4a4b-99e1-dedffdbd0ee9","ios":"levelo://app?vid=c4d5dae8-de75-4a4b-99e1-dedffdbd0ee9"},"vehicle_type_id":"4","last_reported":1690995951,"current_range_meters":12000,"station_id":"ce4bgj92rcd13ifvqbe0","pricing_plan_id":"free"},{"bike_id":"cdefcebc-5078-4d67-8d7a-45f230382108","system_id":"levelo_inurba_marseille","lat":43.325233,"lon":5.414318,"is_reserved":false,"is_disabled":false,"rental_uris":{"android":"levelo://app?vid=cdefcebc-5078-4d67-8d7a-45f230382108","ios":"levelo://app?vid=cdefcebc-5078-4d67-8d7a-45f230382108"},"vehicle_type_id":"4","last_reported":1690995951,"current_range_meters":31200,"station_id":"ce4bhq12rcd13ifvqhhg","pricing_plan_id":"free"},{"bike_id":"c964849d-3e03-44a8-87e7-224ea54dce6c","system_id":"levelo_inurba_marseille","lat":43.27612,"lon":5.36111,"is_reserved":false,"is_disabled":false,"rental_uris":{"android":"levelo://app?vid=c964849d-3e03-44a8-87e7-224ea54dce6c","ios":"levelo://app?vid=c964849d-3e03-44a8-87e7-224ea54dce6c"},"vehicle_type_id":"4","last_reported":1690995951,"current_range_meters":14800,"station_id":"ce4bgj92rcd13ifvqbe0","pricing_plan_id":"free"},{"bike_id":"b7048ab9-ac41-4408-abae-938a727c7c0e","system_id":"levelo_inurba_marseille","lat":43.276179,"lon":5.361009,"is_reserved":false,"is_disabled":false,"rental_uris":{"android":"levelo://app?vid=b7048ab9-ac41-4408-abae-938a727c7c0e","ios":"levelo://app?vid=b7048ab9-ac41-4408-abae-938a727c7c0e"},"vehicle_type_id":"4","last_reported":1690995951,"current_range_meters":14800,"station_id":"ce4bgj92rcd13ifvqbe0","pricing_plan_id":"free"},{"bike_id":"386ed8e3-b71e-4f68-86af-202c5b76503e","system_id":"levelo_inurba_marseille","lat":43.27611,"lon":5.36115,"is_reserved":false,"is_disabled":false,"rental_uris":{"android":"levelo://app?vid=386ed8e3-b71e-4f68-86af-202c5b76503e","ios":"levelo://app?vid=386ed8e3-b71e-4f68-86af-202c5b76503e"},"vehicle_type_id":"4","last_reported":1690995951,"current_range_meters":25200,"station_id":"ce4bgj92rcd13ifvqbe0","pricing_plan_id":"free"},{"bike_id":"c840496a-40d4-48a3-a595-b462ac21d5fe","system_id":"levelo_inurba_marseille","lat":43.27612,"lon":5.361023,"is_reserved":false,"is_disabled":false,"rental_uris":{"android":"levelo://app?vid=c840496a-40d4-48a3-a595-b462ac21d5fe","ios":"levelo://app?vid=c840496a-40d4-48a3-a595-b462ac21d5fe"},"vehicle_type_id":"4","last_reported":1690995951,"current_range_meters":6400,"station_id":"ce4bgj92rcd13ifvqbe0","pricing_plan_id":"free"},{"bike_id":"3f2c8a8b-ee18-4681-87c7-0a79a1c09bf4","system_id":"levelo_inurba_marseille","lat":43.27606,"lon":5.3611,"is_reserved":false,"is_disabled":false,"rental_uris":{"android":"levelo://app?vid=3f2c8a8b-ee18-4681-87c7-0a79a1c09bf4","ios":"levelo://app?vid=3f2c8a8b-ee18-4681-87c7-0a79a1c09bf4"},"vehicle_type_id":"4","last_reported":1690995951,"current_range_meters":21200,"station_id":"ce4bgj92rcd13ifvqbe0","pricing_plan_id":"free"},{"bike_id":"64cdaed8-62c7-4439-a51a-3ed4e448f631","system_id":"levelo_inurba_marseille","lat":43.27955,"lon":5.39337,"is_reserved":false,"is_disabled":false,"rental_uris":{"android":"levelo://app?vid=64cdaed8-62c7-4439-a51a-3ed4e448f631","ios":"levelo://app?vid=64cdaed8-62c7-4439-a51a-3ed4e448f631"},"vehicle_type_id":"4","last_reported":1690995951,"current_range_meters":22000,"station_id":"ce4bho12rcd13ifvqh2g","pricing_plan_id":"free"},{"bike_id":"45c0c179-3469-4ce1-9086-21732acaae47","system_id":"levelo_inurba_marseille","lat":43.280784,"lon":5.396622,"is_reserved":false,"is_disabled":false,"rental_uris":{"android":"levelo://app?vid=45c0c179-3469-4ce1-9086-21732acaae47","ios":"levelo://app?vid=45c0c179-3469-4ce1-9086-21732acaae47"},"vehicle_type_id":"4","last_reported":1690995951,"current_range_meters":10400,"station_id":"ce4bho12rcd13ifvqh2g","pricing_plan_id":"free"},{"bike_id":"2882710f-f317-459f-8684-27e6df8355fe","system_id":"levelo_inurba_marseille","lat":43.278399,"lon":5.392139,"is_reserved":false,"is_disabled":false,"rental_uris":{"android":"levelo://app?vid=2882710f-f317-459f-8684-27e6df8355fe","ios":"levelo://app?vid=2882710f-f317-459f-8684-27e6df8355fe"},"vehicle_type_id":"4","last_reported":1690995951,"current_range_meters":26400,"station_id":"ce4bhjp2rcd13ifvqga0","pricing_plan_id":"free"},{"bike_id":"56fc5b6c-3bda-444b-9445-361ecb1ee4de","system_id":"levelo_inurba_marseille","lat":43.278401,"lon":5.392152,"is_reserved":false,"is_disabled":false,"rental_uris":{"android":"levelo://app?vid=56fc5b6c-3bda-444b-9445-361ecb1ee4de","ios":"levelo://app?vid=56fc5b6c-3bda-444b-9445-361ecb1ee4de"},"vehicle_type_id":"4","last_reported":1690995951,"current_range_meters":17200,"station_id":"ce4bhjp2rcd13ifvqga0","pricing_plan_id":"free"},{"bike_id":"ddae7393-deed-40ba-83ae-2b81ff4c2f91","system_id":"levelo_inurba_marseille","lat":43.278401,"lon":5.392152,"is_reserved":false,"is_disabled":false,"rental_uris":{"android":"levelo://app?vid=ddae7393-deed-40ba-83ae-2b81ff4c2f91","ios":"levelo://app?vid=ddae7393-deed-40ba-83ae-2b81ff4c2f91"},"vehicle_type_id":"4","last_reported":1690995951,"current_range_meters":15200,"station_id":"ce4bhjp2rcd13ifvqga0","pricing_plan_id":"free"},{"bike_id":"b48ea870-9363-4465-b51a-9cd0c057005b","system_id":"levelo_inurba_marseille","lat":43.278401,"lon":5.392152,"is_reserved":false,"is_disabled":false,"rental_uris":{"android":"levelo://app?vid=b48ea870-9363-4465-b51a-9cd0c057005b","ios":"levelo://app?vid=b48ea870-9363-4465-b51a-9cd0c057005b"},"vehicle_type_id":"4","last_reported":1690995951,"current_range_meters":18000,"station_id":"ce4bhjp2rcd13ifvqga0","pricing_plan_id":"free"},{"bike_id":"50deb094-f285-460e-9dbf-1aef219bb6ad","system_id":"levelo_inurba_marseille","lat":43.273899,"lon":5.362612,"is_reserved":false,"is_disabled":false,"rental_uris":{"android":"levelo://app?vid=50deb094-f285-460e-9dbf-1aef219bb6ad","ios":"levelo://app?vid=50deb094-f285-460e-9dbf-1aef219bb6ad"},"vehicle_type_id":"4","last_reported":1690995951,"current_range_meters":1600,"station_id":"","pricing_plan_id":"free"},{"bike_id":"a05e574a-ed6f-49cf-8c78-18fe6bd466e3","system_id":"levelo_inurba_marseille","lat":43.27382,"lon":5.36268,"is_reserved":false,"is_disabled":false,"rental_uris":{"android":"levelo://app?vid=a05e574a-ed6f-49cf-8c78-18fe6bd466e3","ios":"levelo://app?vid=a05e574a-ed6f-49cf-8c78-18fe6bd466e3"},"vehicle_type_id":"4","last_reported":1690995951,"current_range_meters":14000,"station_id":"ce4bhbh2rcd13ifvqeo0","pricing_plan_id":"free"},{"bike_id":"5c2e80a0-3407-4abd-a454-28d01c9be8e9","system_id":"levelo_inurba_marseille","lat":43.27381,"lon":5.36265,"is_reserved":false,"is_disabled":false,"rental_uris":{"android":"levelo://app?vid=5c2e80a0-3407-4abd-a454-28d01c9be8e9","ios":"levelo://app?vid=5c2e80a0-3407-4abd-a454-28d01c9be8e9"},"vehicle_type_id":"4","last_reported":1690995951,"current_range_meters":20800,"station_id":"ce4bhbh2rcd13ifvqeo0","pricing_plan_id":"free"},{"bike_id":"e149e4d4-6069-4142-812d-a162fba76da8","system_id":"levelo_inurba_marseille","lat":43.273613,"lon":5.362705,"is_reserved":false,"is_disabled":false,"rental_uris":{"android":"levelo://app?vid=e149e4d4-6069-4142-812d-a162fba76da8","ios":"levelo://app?vid=e149e4d4-6069-4142-812d-a162fba76da8"},"vehicle_type_id":"4","last_reported":1690995951,"current_range_meters":31200,"station_id":"ce4bhbh2rcd13ifvqeo0","pricing_plan_id":"free"},{"bike_id":"9616ff48-f9b0-4f1c-ad72-e603b515a2aa","system_id":"levelo_inurba_marseille","lat":43.27379,"lon":5.36257,"is_reserved":false,"is_disabled":false,"rental_uris":{"android":"levelo://app?vid=9616ff48-f9b0-4f1c-ad72-e603b515a2aa","ios":"levelo://app?vid=9616ff48-f9b0-4f1c-ad72-e603b515a2aa"},"vehicle_type_id":"4","last_reported":1690995951,"current_range_meters":2400,"station_id":"ce4bhbh2rcd13ifvqeo0","pricing_plan_id":"free"},{"bike_id":"5b54cd82-4d55-4631-82f9-9041e50f1303","system_id":"levelo_inurba_marseille","lat":43.273613,"lon":5.362705,"is_reserved":false,"is_disabled":false,"rental_uris":{"android":"levelo://app?vid=5b54cd82-4d55-4631-82f9-9041e50f1303","ios":"levelo://app?vid=5b54cd82-4d55-4631-82f9-9041e50f1303"},"vehicle_type_id":"4","last_reported":1690995951,"current_range_meters":24000,"station_id":"ce4bhbh2rcd13ifvqeo0","pricing_plan_id":"free"},{"bike_id":"98aacf1e-fa5e-45e6-85c0-e7343d3b99b4","system_id":"levelo_inurba_marseille","lat":43.273613,"lon":5.362705,"is_reserved":false,"is_disabled":false,"rental_uris":{"android":"levelo://app?vid=98aacf1e-fa5e-45e6-85c0-e7343d3b99b4","ios":"levelo://app?vid=98aacf1e-fa5e-45e6-85c0-e7343d3b99b4"},"vehicle_type_id":"4","last_reported":1690995951,"current_range_meters":16800,"station_id":"ce4bhbh2rcd13ifvqeo0","pricing_plan_id":"free"},{"bike_id":"2517335f-2bc3-443b-aae0-4a55565f6412","system_id":"levelo_inurba_marseille","lat":43.273613,"lon":5.362705,"is_reserved":false,"is_disabled":false,"rental_uris":{"android":"levelo://app?vid=2517335f-2bc3-443b-aae0-4a55565f6412","ios":"levelo://app?vid=2517335f-2bc3-443b-aae0-4a55565f6412"},"vehicle_type_id":"4","last_reported":1690995951,"current_range_meters":24800,"station_id":"ce4bhbh2rcd13ifvqeo0","pricing_plan_id":"free"},