{"last_updated":1750921904,"ttl":60,"version":"2.2","data":{"bikes":[{"bike_id":"3da29fb8-fc97-44c6-b9ac-31dd456b2fd4","system_id":"levelo_inurba_marseille","lat":43.33771,"lon":5.37424,"is_reserved":false,"is_disabled":true,"rental_uris":{"android":"levelo://app?vid=3da29fb8-fc97-44c6-b9ac-31dd456b2fd4","ios":"levelo://app?vid=3da29fb8-fc97-44c6-b9ac-31dd456b2fd4"},"vehicle_type_id":"4","last_reported":1750921904,"current_range_meters":0,"station_id":"","pricing_plan_id":"cebpf4jnsgd1na2vs0mg"},{"bike_id":"01861ad8-a8d7-4be6-816e-651927c87584","system_id":"levelo_inurba_marseille","lat":43.33751,"lon":5.37456,"is_reserved":false,"is_disabled":true,"rental_uris":{"android":"levelo://app?vid=01861ad8-a8d7-4be6-816e-651927c87584","ios":"levelo://app?vid=01861ad8-a8d7-4be6-816e-651927c87584"},"vehicle_type_id":"4","last_reported":1750921904,"current_range_meters":0,"station_id":"","pricing_plan_id":"cebpf4jnsgd1na2vs0mg"},{"bike_id":"8c6de0c1-9eaf-4c18-8155-d956789067ae","system_id":"levelo_inurba_marseille","lat":43.27975,"lon":5.44251,"is_reserved":false,"is_disabled":true,"rental_uris":{"android":"levelo://app?vid=8c6de0c1-9eaf-4c18-8155-d956789067ae","ios":"levelo://app?vid=8c6de0c1-9eaf-4c18-8155-d956789067ae"},"vehicle_type_id":"4","last_reported":1750921904,"current_range_meters":0,"station_id":"","pricing_plan_id":"cebpf4jnsgd1na2vs0mg"},{"bike_id":"62a493c7-4534-4419-ad43-0582de34a72a","system_id":"levelo_inurba_marseille","lat":43.21366,"lon":5.355183,"is_reserved":false,"is_disabled":true,"rental_uris":{"android":"levelo://app?vid=62a493c7-4534-4419-ad43-0582de34a72a","ios":"levelo://app?vid=62a493c7-4534-4419-ad43-0582de34a72a"},"vehicle_type_id":"4","last_reported":1750921904,"current_range_meters":0,"station_id":"","pricing_plan_id":"cebpf4jnsgd1na2vs0mg"},{"bike_id":"85c58f10-925d-4344-b389-09267487a6fc","system_id":"levelo_inurba_marseille","lat":43.21119,"lon":5.4192,"is_reserved":false,"is_disabled":true,"rental_uris":{"android":"levelo://app?vid=85c58f10-925d-4344-b389-09267487a6fc","ios":"levelo://app?vid=85c58f10-925d-4344-b389-09267487a6fc"},"vehicle_type_id":"4","last_reported":1750921904,"current_range_meters":0,"station_id":"","pricing_plan_id":"cebpf4jnsgd1na2vs0mg"},{"bike_id":"a9e5e555-fdaf-49c0-b286-f0f2659b17d0","system_id":"levelo_inurba_marseille","lat":43.282971,"lon":5.432436,"is_reserved":false,"is_disabled":true,"rental_uris":{"android":"levelo://app?vid=a9e5e555-fdaf-49c0-b286-f0f2659b17d0","ios":"levelo://app?vid=a9e5e555-fdaf-49c0-b286-f0f2659b17d0"},"vehicle_type_id":"4","last_reported":1750921904,"current_range_meters":0,"station_id":"","pricing_plan_id":"cebpf4jnsgd1na2vs0mg"},{"bike_id":"139d47bd-ff87-42d8-a4c6-89da4be6f80c","system_id":"levelo_inurba_marseille","lat":43.279565,"lon":5.442127,"is_reserved":false,"is_disabled":true,"rental_uris":{"android":"levelo://app?vid=139d47bd-ff87-42d8-a4c6-89da4be6f80c","ios":"levelo://app?vid=139d47bd-ff87-42d8-a4c6-89da4be6f80c"},"vehicle_type_id":"4","last_reported":1750921904,"current_range_meters":0,"station_id":"","pricing_plan_id":"cebpf4jnsgd1na2vs0mg"},{"bike_id":"f8717065-ea15-428c-8ef1-0fd7b351affa","system_id":"levelo_inurba_marseille","lat":43.31603,"lon":5.40125,"is_reserved":false,"is_disabled":true,"rental_uris":{"android":"levelo://app?vid=f8717065-ea15-428c-8ef1-0fd7b351affa","ios":"levelo://app?vid=f8717065-ea15-428c-8ef1-0fd7b351affa"},"vehicle_type_id":"4","last_reported":1750921904,"current_range_meters":0,"station_id":"","pricing_plan_id":"cebpf4jnsgd1na2vs0mg"},{"bike_id":"a147e67d-e0b1-425e-bbda-ae9524df353e","system_id":"levelo_inurba_marseille","lat":43.337541,"lon":5.374577,"is_reserved":false,"is_disabled":true,"rental_uris":{"android":"levelo://app?vid=a147e67d-e0b1-425e-bbda-ae9524df353e","ios":"levelo://app?vid=a147e67d-e0b1-425e-bbda-ae9524df353e"},"vehicle_type_id":"4","last_reported":1750921904,"current_range_meters":0,"station_id":"","pricing_plan_id":"cebpf4jnsgd1na2vs0mg"},{"bike_id":"4d064f95-6dcb-4234-9e98-7c70fbb74351","system_id":"levelo_inurba_marseille","lat":43.337444,"lon":5.374475,"is_reserved":false,"is_disabled":true,"rental_uris":{"android":"levelo://app?vid=4d064f95-6dcb-4234-9e98-7c70fbb74351","ios":"levelo://app?vid=4d064f95-6dcb-4234-9e98-7c70fbb74351"},"vehicle_type_id":"4","last_reported":1750921904,"current_range_meters":0,"station_id":"","pricing_plan_id":"cebpf4jnsgd1na2vs0mg"},{"bike_id":"06b961c7-f3ce-4c1c-a618-db74d23ebaea","system_id":"levelo_inurba_marseille","lat":43.28874,"lon":5.37892,"is_reserved":false,"is_disabled":true,"rental_uris":{"android":"levelo://app?vid=06b961c7-f3ce-4c1c-a618-db74d23ebaea","ios":"levelo://app?vid=06b961c7-f3ce-4c1c-a618-db74d23ebaea"},"vehicle_type_id":"4","last_reported":1750921904,"current_range_meters":0,"station_id":"","pricing_plan_id":"cebpf4jnsgd1na2vs0mg"},{"bike_id":"d6609b4f-333b-43c1-9ebe-8726f5e76e88","system_id":"levelo_inurba_marseille","lat":43.337444,"lon":5.374475,"is_reserved":false,"is_disabled":true,"rental_uris":{"android":"levelo://app?vid=d6609b4f-333b-43c1-9ebe-8726f5e76e88","ios":"levelo://app?vid=d6609b4f-333b-43c1-9ebe-8726f5e76e88"},"vehicle_type_id":"4","last_reported":1750921904,"current_range_meters":0,"station_id":"","pricing_plan_id":"cebpf4jnsgd1na2vs0mg"},{"bike_id":"14903f35-1eaf-4a5d-86c3-23007b361999","system_id":"levelo_inurba_marseille","lat":43.27064,"lon":5.42274,"is_reserved":false,"is_disabled":true,"rental_uris":{"android":"levelo://app?vid=14903f35-1eaf-4a5d-86c3-23007b361999","ios":"levelo://app?vid=14903f35-1eaf-4a5d-86c3-23007b361999"},"vehicle_type_id":"4","last_reported":1750921904,"current_range_meters":0,"station_id":"","pricing_plan_id":"cebpf4jnsgd1na2vs0mg"},{"bike_id":"3583f331-6c0b-49be-9913-9dde300034d9","system_id":"levelo_inurba_marseille","lat":43.246177,"lon":5.40204,"is_reserved":false,"is_disabled":true,"rental_uris":{"android":"levelo://app?vid=3583f331-6c0b-49be-9913-9dde300034d9","ios":"levelo://app?vid=3583f331-6c0b-49be-9913-9dde300034d9"},"vehicle_type_id":"4","last_reported":1750921904,"current_range_meters":0,"station_id":"","pricing_plan_id":"cebpf4jnsgd1na2vs0mg"},{"bike_id":"c83adf78-14ca-4a80-b94a-16ed5ff617f2","system_id":"levelo_inurba_marseille","lat":43.22508,"lon":5.34784,"is_reserved":false,"is_disabled":true,"rental_uris":{"android":"levelo://app?vid=c83adf78-14ca-4a80-b94a-16ed5ff617f2","ios":"levelo://app?vid=c83adf78-14ca-4a80-b94a-16ed5ff617f2"},"vehicle_type_id":"4","last_reported":1750921904,"current_range_meters":0,"station_id":"","pricing_plan_id":"cebpf4jnsgd1na2vs0mg"},{"bike_id":"b17b6606-336a-4606-9b65-af139c49de26","system_id":"levelo_inurba_marseille","lat":43.25678,"lon":5.42686,"is_reserved":false,"is_disabled":true,"rental_uris":{"android":"levelo://app?vid=b17b6606-336a-4606-9b65-af139c49de26","ios":"levelo://app?vid=b17b6606-336a-4606-9b65-af139c49de26"},"vehicle_type_id":"4","last_reported":1750921904,"current_range_meters":0,"station_id":"","pricing_plan_id":"cebpf4jnsgd1na2vs0mg"},{"bike_id":"bd17737b-22d2-4e4f-88e8-4eb661d864c4","system_id":"levelo_inurba_marseille","lat":43.29195,"lon":5.46078,"is_reserved":false,"is_disabled":true,"rental_uris":{"android":"levelo://app?vid=bd17737b-22d2-4e4f-88e8-4eb661d864c4","ios":"levelo://app?vid=bd17737b-22d2-4e4f-88e8-4eb661d864c4"},"vehicle_type_id":"4","last_reported":1750921904,"current_range_meters":0,"station_id":"","pricing_plan_id":"cebpf4jnsgd1na2vs0mg"},{"bike_id":"79bf4da0-05ec-4b61-b034-b3a8b163f2e8","system_id":"levelo_inurba_marseille","lat":43.30951,"lon":5.40808,"is_reserved":false,"is_disabled":true,"rental_uris":{"android":"levelo://app?vid=79bf4da0-05ec-4b61-b034-b3a8b163f2e8","ios":"levelo://app?vid=79bf4da0-05ec-4b61-b034-b3a8b163f2e8"},"vehicle_type_id":"4","last_reported":1750921904,"current_range_meters":0,"station_id":"","pricing_plan_id":"cebpf4jnsgd1na2vs0mg"},{"bike_id":"9d3724b1-0dc8-4689-9d6a-55005a9503cb","system_id":"levelo_inurba_marseille","lat":43.286183,"lon":5.428208,"is_reserved":false,"is_disabled":true,"rental_uris":{"android":"levelo://app?vid=9d3724b1-0dc8-4689-9d6a-55005a9503cb","ios":"levelo://app?vid=9d3724b1-0dc8-4689-9d6a-55005a9503cb"},"vehicle_type_id":"4","last_reported":1750921904,"current_range_meters":0,"station_id":"","pricing_plan_id":"cebpf4jnsgd1na2vs0mg"},{"bike_id":"000988fe-8499-47c2-99c8-04a1f5c7ace3","system_id":"levelo_inurba_marseille","lat":43.30166,"lon":5.38077,"is_reserved":false,"is_disabled":true,"rental_uris":{"android":"levelo://app?vid=000988fe-8499-47c2-99c8-04a1f5c7ace3","ios":"levelo://app?vid=000988fe-8499-47c2-99c8-04a1f5c7ace3"},"vehicle_type_id":"4","last_reported":1750921904,"current_range_meters":0,"station_id":"ce4bgjp2rcd13ifvqbh0","pricing_plan_id":"cebpf4jnsgd1na2vs0mg"},{"bike_id":"f1d2ba67-cb57-4a46-bb51-7067785e90b6","system_id":"levelo_inurba_marseille","lat":43.306,"lon":5.37208,"is_reserved":false,"is_disabled":true,"rental_uris":{"android":"levelo://app?vid=f1d2ba67-cb57-4a46-bb51-7067785e90b6","ios":"levelo://app?vid=f1d2ba67-cb57-4a46-bb51-7067785e90b6"},"vehicle_type_id":"4","last_reported":1750921904,"current_range_meters":0,"station_id":"ce4bgqh2rcd13ifvqc4g","pricing_plan_id":"cebpf4jnsgd1na2vs0mg"},{"bike_id":"cf693eb2-4350-4b7c-88b8-d42123a0a6fb","system_id":"levelo_inurba_marseille","lat":43.30304,"lon":5.36887,"is_reserved":false,"is_disabled":true,"rental_uris":{"android":"levelo://app?vid=cf693eb2-4350-4b7c-88b8-d42123a0a6fb","ios":"levelo://app?vid=cf693eb2-4350-4b7c-88b8-d42123a0a6fb"},"vehicle_type_id":"4","last_reported":1750921904,"current_range_meters":0,"station_id":"ce4bgqh2rcd13ifvqc5g","pricing_plan_id":"cebpf4jnsgd1na2vs0mg"},{"bike_id":"a4a6ce4b-ac60-468a-b67c-ec3af0ddf9f3","system_id":"levelo_inurba_marseille","lat":43.33778,"lon":5.37438,"is_reserved":false,"is_disabled":true,"rental_uris":{"android":"levelo://app?vid=a4a6ce4b-ac60-468a-b67c-ec3af0ddf9f3","ios":"levelo://app?vid=a4a6ce4b-ac60-468a-b67c-ec3af0ddf9f3"},"vehicle_type_id":"4","last_reported":1750921904,"current_range_meters":0,"station_id":"ce4bh012rcd13ifvqd10","pricing_plan_id":"cebpf4jnsgd1na2vs0mg"},{"bike_id":"0d8982ca-ff21-4cb3-97db-b31fa64a6454","system_id":"levelo_inurba_marseille","lat":43.29213,"lon":5.36037,"is_reserved":false,"is_disabled":true,"rental_uris":{"android":"levelo://app?vid=0d8982ca-ff21-4cb3-97db-b31fa64a6454","ios":"levelo://app?vid=0d8982ca-ff21-4cb3-97db-b31fa64a6454"},"vehicle_type_id":"4","last_reported":1750921904,"current_range_meters":0,"station_id":"ce4bhbh2rcd13ifvqeqg","pricing_plan_id":"cebpf4jnsgd1na2vs0mg"},{"bike_id":"b7525fd1-78be-4ea5-b4cb-86b89b480405","system_id":"levelo_inurba_marseille","lat":43.292725,"lon":5.368309,"is_reserved":false,"is_disabled":true,"rental_uris":{"android":"levelo://app?vid=b7525fd1-78be-4ea5-b4cb-86b89b480405","ios":"levelo://app?vid=b7525fd1-78be-4ea5-b4cb-86b89b480405"},"vehicle_type_id":"4","last_reported":1750921904,"current_range_meters":0,"station_id":"ce4bhbp2rcd13ifvqesg","pricing_plan_id":"cebpf4jnsgd1na2vs0mg"},{"bike_id":"2a6cc561-c357-479d-8415-33ef420e6574","system_id":"levelo_inurba_marseille","lat":43.2861,"lon":5.35092,"is_reserved":false,"is_disabled":true,"rental_uris":{"android":"levelo://app?vid=2a6cc561-c357-479d-8415-33ef420e6574","ios":"levelo://app?vid=2a6cc561-c357-479d-8415-33ef420e6574"},"vehicle_type_id":"4","last_reported":1750921904,"current_range_meters":0,"station_id":"ce4bhch2rcd13ifvqeug","pricing_plan_id":"cebpf4jnsgd1na2vs0mg"},{"bike_id":"27ba17ca-ebf1-4b59-8b8e-73d70f4437af","system_id":"levelo_inurba_marseille","lat":43.2465,"lon":5.38895,"is_reserved":false,"is_disabled":true,"rental_uris":{"android":"levelo://app?vid=27ba17ca-ebf1-4b59-8b8e-73d70f4437af","ios":"levelo://app?vid=27ba17ca-ebf1-4b59-8b8e-73d70f4437af"},"vehicle_type_id":"4","last_reported":1750921904,"current_range_meters":0,"station_id":"ce4bhg12rcd13ifvqf60","pricing_plan_id":"cebpf4jnsgd1na2vs0mg"},{"bike_id":"e5ee8c5a-2ee1-42f8-a19a-bfc0877a89f0","system_id":"levelo_inurba_marseille","lat":43.26187,"lon":5.3746,"is_reserved":false,"is_disabled":true,"rental_uris":{"android":"levelo://app?vid=e5ee8c5a-2ee1-42f8-a19a-bfc0877a89f0","ios":"levelo://app?vid=e5ee8c5a-2ee1-42f8-a19a-bfc0877a89f0"},"vehicle_type_id":"4","last_reported":1750921904,"current_range_meters":0,"station_id":"ce4bhgp2rcd13ifvqfc0","pricing_plan_id":"cebpf4jnsgd1na2vs0mg"},{"bike_id":"276b6996-6684-43be-aefd-b29504d78387","system_id":"levelo_inurba_marseille","lat":43.24389,"lon":5.37064,"is_reserved":false,"is_disabled":true,"rental_uris":{"android":"levelo://app?vid=276b6996-6684-43be-aefd-b29504d78387","ios":"levelo://app?vid=276b6996-6684-43be-aefd-b29504d78387"},"vehicle_type_id":"4","last_reported":1750921904,"current_range_meters":0,"station_id":"ce4bhhh2rcd13ifvqfk0","pricing_plan_id":"cebpf4jnsgd1na2vs0mg"},{"bike_id":"237b008e-5c9f-430c-ac09-ce9548afc915","system_id":"levelo_inurba_marseille","lat":43.2622,"lon":5.40448,"is_reserved":false,"is_disabled":true,"rental_uris":{"android":"levelo://app?vid=237b008e-5c9f-430c-ac09-ce9548afc915","ios":"levelo://app?vid=237b008e-5c9f-430c-ac09-ce9548afc915"},"vehicle_type_id":"4","last_reported":1750921904,"current_range_meters":0,"station_id":"ce4bhmh2rcd13ifvqgmg","pricing_plan_id":"cebpf4jnsgd1na2vs0mg"},{"bike_id":"b0ef6673-0a31-47c9-a37d-324f7c42e631","system_id":"levelo_inurba_marseille","lat":43.2623,"lon":5.40443,"is_reserved":false,"is_disabled":true,"rental_uris":{"android":"levelo://app?vid=b0ef6673-0a31-47c9-a37d-324f7c42e631","ios":"levelo://app?vid=b0ef6673-0a31-47c9-a37d-324f7c42e631"},"vehicle_type_id":"4","last_reported":1750921904,"current_range_meters":0,"station_id":"ce4bhmh2rcd13ifvqgmg","pricing_plan_id":"cebpf4jnsgd1na2vs0mg"},{"bike_id":"3f96b52d-e9fe-41f5-89e8-f487e766a984","system_id":"levelo_inurba_marseille","lat":43.31727,"lon":5.42399,"is_reserved":false,"is_disabled":true,"rental_uris":{"android":"levelo://app?vid=3f96b52d-e9fe-41f5-89e8-f487e766a984","ios":"levelo://app?vid=3f96b52d-e9fe-41f5-89e8-f487e766a984"},"vehicle_type_id":"4","last_reported":1750921904,"current_range_meters":0,"station_id":"ce4bhp92rcd13ifvqhbg","pricing_plan_id":"cebpf4jnsgd1na2vs0mg"},{"bike_id":"2302a618-f3a2-4936-9356-baac94187281","system_id":"levelo_inurba_marseille","lat":43.30536,"lon":5.36703,"is_reserved":false,"is_disabled":true,"rental_uris":{"android":"levelo://app?vid=2302a618-f3a2-4936-9356-baac94187281","ios":"levelo://app?vid=2302a618-f3a2-4936-9356-baac94187281"},"vehicle_type_id":"4","last_reported":1750921904,"current_range_meters":400,"station_id":"ce4bgrp2rcd13ifvqc9g","pricing_plan_id":"cebpf4jnsgd1na2vs0mg"},{"bike_id":"17c8c412-be27-4c81-b335-746c8b94aa21","system_id":"levelo_inurba_marseille","lat":43.29203,"lon":5.3932,"is_reserved":false,"is_disabled":true,"rental_uris":{"android":"levelo://app?vid=17c8c412-be27-4c81-b335-746c8b94aa21","ios":"levelo://app?vid=17c8c412-be27-4c81-b335-746c8b94aa21"},"vehicle_type_id":"4","last_reported":1750921904,"current_range_meters":400,"station_id":"ce4bh192rcd13ifvqdd0","pricing_plan_id":"cebpf4jnsgd1na2vs0mg"},{"bike_id":"902dd0f1-7996-4b6b-9d30-56291920993e","system_id":"levelo_inurba_marseille","lat":43.25122,"lon":5.40318,"is_reserved":false,"is_disabled":true,"rental_uris":{"android":"levelo://app?vid=902dd0f1-7996-4b6b-9d30-56291920993e","ios":"levelo://app?vid=902dd0f1-7996-4b6b-9d30-56291920993e"},"vehicle_type_id":"4","last_reported":1750921904,"current_range_meters":400,"station_id":"ce4bhlh2rcd13ifvqgig","pricing_plan_id":"cebpf4jnsgd1na2vs0mg"},{"bike_id":"3276a38c-c2b3-4517-b615-074e8e79f45d","system_id":"levelo_inurba_marseille","lat":43.3055,"lon":5.36546,"is_reserved":false,"is_disabled":true,"rental_uris":{"android":"levelo://app?vid=3276a38c-c2b3-4517-b615-074e8e79f45d","ios":"levelo://app?vid=3276a38c-c2b3-4517-b615-074e8e79f45d"},"vehicle_type_id":"4","last_reported":1750921904,"current_range_meters":800,"station_id":"ce4bgs12rcd13ifvqcag","pricing_plan_id":"cebpf4jnsgd1na2vs0mg"},{"bike_id":"151fa80d-d60d-46e4-a18b-92ce8a0a9c11","system_id":"levelo_inurba_marseille","lat":43.3112,"lon":5.37777,"is_reserved":false,"is_disabled":true,"rental_uris":{"android":"levelo://app?vid=151fa80d-d60d-46e4-a18b-92ce8a0a9c11","ios":"levelo://app?vid=151fa80d-d60d-46e4-a18b-92ce8a0a9c11"},"vehicle_type_id":"4","last_reported":1750921904,"current_range_meters":800,"station_id":"ce4bgt92rcd13ifvqcg0","pricing_plan_id":"cebpf4jnsgd1na2vs0mg"},{"bike_id":"b94dcd90-7a4f-444c-b0b6-3df3a91374f6","system_id":"levelo_inurba_marseille","lat":43.29197,"lon":5.3932,"is_reserved":false,"is_disabled":true,"rental_uris":{"android":"levelo://app?vid=b94dcd90-7a4f-444c-b0b6-3df3a91374f6","ios":"levelo://app?vid=b94dcd90-7a4f-444c-b0b6-3df3a91374f6"},"vehicle_type_id":"4","last_reported":1750921904,"current_range_meters":800,"station_id":"ce4bh192rcd13ifvqdd0","pricing_plan_id":"cebpf4jnsgd1na2vs0mg"},{"bike_id":"e755bd01-b984-4a04-a703-40761a2c5907","system_id":"levelo_inurba_marseille","lat":43.28461,"lon":5.35901,"is_reserved":false,"is_disabled":true,"rental_uris":{"android":"levelo://app?vid=e755bd01-b984-4a04-a703-40761a2c5907","ios":"levelo://app?vid=e755bd01-b984-4a04-a703-40761a2c5907"},"vehicle_type_id":"4","last_reported":1750921904,"current_range_meters":800,"station_id":"ce4bhah2rcd13ifvqei0","pricing_plan_id":"cebpf4jnsgd1na2vs0mg"},{"bike_id":"e11ecce9-5b1a-4646-933c-3ee9eb5cad6a","system_id":"levelo_inurba_marseille","lat":43.292755,"lon":5.368412,"is_reserved":false,"is_disabled":true,"rental_uris":{"android":"levelo://app?vid=e11ecce9-5b1a-4646-933c-3ee9eb5cad6a","ios":"levelo://app?vid=e11ecce9-5b1a-4646-933c-3ee9eb5cad6a"},"vehicle_type_id":"4","last_reported":1750921904,"current_range_meters":800,"station_id":"ce4bhbp2rcd13ifvqesg","pricing_plan_id":"cebpf4jnsgd1na2vs0mg"},{"bike_id":"4d94ff3f-5c5d-4596-adef-6695a3fd33ee","system_id":"levelo_inurba_marseille","lat":43.31332,"lon":5.39686,"is_reserved":false,"is_disabled":true,"rental_uris":{"android":"levelo://app?vid=4d94ff3f-5c5d-4596-adef-6695a3fd33ee","ios":"levelo://app?vid=4d94ff3f-5c5d-4596-adef-6695a3fd33ee"},"vehicle_type_id":"4","last_reported":1750921904,"current_range_meters":1200,"station_id":"ce4bgvp2rcd13ifvqcu0","pricing_plan_id":"cebpf4jnsgd1na2vs0mg"},{"bike_id":"40b87e74-81c2-416e-9312-de94dd6fe549","system_id":"levelo_inurba_marseille","lat":43.30437,"lon":5.39743,"is_reserved":false,"is_disabled":true,"rental_uris":{"android":"levelo://app?vid=40b87e74-81c2-416e-9312-de94dd6fe549","ios":"levelo://app?vid=40b87e74-81c2-416e-9312-de94dd6fe549"},"vehicle_type_id":"4","last_reported":1750921904,"current_range_meters":1200,"station_id":"ce4bh092rcd13ifvqd20","pricing_plan_id":"cebpf4jnsgd1na2vs0mg"},{"bike_id":"42dbab9f-7ae4-4ee6-b857-4e97ba664bab","system_id":"levelo_inurba_marseille","lat":43.29524,"lon":5.39403,"is_reserved":false,"is_disabled":true,"rental_uris":{"android":"levelo://app?vid=42dbab9f-7ae4-4ee6-b857-4e97ba664bab","ios":"levelo://app?vid=42dbab9f-7ae4-4ee6-b857-4e97ba664bab"},"vehicle_type_id":"4","last_reported":1750921904,"current_range_meters":1200,"station_id":"ce4bh292rcd13ifvqdf0","pricing_plan_id":"cebpf4jnsgd1na2vs0mg"},{"bike_id":"0acec543-b7ac-4d11-bbc1-6df6c1e9f8ff","system_id":"levelo_inurba_marseille","lat":43.26687,"lon":5.38278,"is_reserved":false,"is_disabled":true,"rental_uris":{"android":"levelo://app?vid=0acec543-b7ac-4d11-bbc1-6df6c1e9f8ff","ios":"levelo://app?vid=0acec543-b7ac-4d11-bbc1-6df6c1e9f8ff"},"vehicle_type_id":"4","last_reported":1750921904,"current_range_meters":1200,"station_id":"ce4bhg92rcd13ifvqf90","pricing_plan_id":"cebpf4jnsgd1na2vs0mg"},{"bike_id":"efb68498-1ba5-45bb-a0cf-bea74abc9f49","system_id":"levelo_inurba_marseille","lat":43.26193,"lon":5.37452,"is_reserved":false,"is_disabled":true,"rental_uris":{"android":"levelo://app?vid=efb68498-1ba5-45bb-a0cf-bea74abc9f49","ios":"levelo://app?vid=efb68498-1ba5-45bb-a0cf-bea74abc9f49"},"vehicle_type_id":"4","last_reported":1750921904,"current_range_meters":1200,"station_id":"ce4bhgp2rcd13ifvqfc0","pricing_plan_id":"cebpf4jnsgd1na2vs0mg"},{"bike_id":"de201bcf-71e4-4af2-8847-f51ac336ffb7","system_id":"levelo_inurba_marseille","lat":43.25,"lon":5.38931,"is_reserved":false,"is_disabled":true,"rental_uris":{"android":"levelo://app?vid=de201bcf-71e4-4af2-8847-f51ac336ffb7","ios":"levelo://app?vid=de201bcf-71e4-4af2-8847-f51ac336ffb7"},"vehicle_type_id":"4","last_reported":1750921904,"current_range_meters":1200,"station_id":"ce4bhgp2rcd13ifvqfd0","pricing_plan_id":"cebpf4jnsgd1na2vs0mg"},{"bike_id":"be6544fb-6c1c-4292-b44a-7843b5c7fb9c","system_id":"levelo_inurba_marseille","lat":43.31675,"lon":5.41382,"is_reserved":false,"is_disabled":true,"rental_uris":{"android":"levelo://app?vid=be6544fb-6c1c-4292-b44a-7843b5c7fb9c","ios":"levelo://app?vid=be6544fb-6c1c-4292-b44a-7843b5c7fb9c"},"vehicle_type_id":"4","last_reported":1750921904,"current_range_meters":1600,"station_id":"","pricing_plan_id":"cebpf4jnsgd1na2vs0mg"},{"bike_id":"3754c08e-9f16-41e2-9603-7acb6e32bff5","system_id":"levelo_inurba_marseille","lat":43.30948,"lon":5.39044,"is_reserved":false,"is_disabled":true,"rental_uris":{"android":"levelo://app?vid=3754c08e-9f16-41e2-9603-7acb6e32bff5","ios":"levelo://app?vid=3754c08e-9f16-41e2-9603-7acb6e32bff5"},"vehicle_type_id":"4","last_reported":1750921904,"current_range_meters":1600,"station_id":"ce4bgup2rcd13ifvqco0","pricing_plan_id":"cebpf4jnsgd1na2vs0mg"},{"bike_id":"53096a1c-2cbb-4745-83cf-f02ee2c26229","system_id":"levelo_inurba_marseille","lat":43.290414,"lon":5.399578,"is_reserved":false,"is_disabled":true,"rental_uris":{"android":"levelo://app?vid=53096a1c-2cbb-4745-83cf-f02ee2c26229","ios":"levelo://app?vid=53096a1c-2cbb-4745-83cf-f02ee2c26229"},"vehicle_type_id":"4","last_reported":1750921904,"current_range_meters":1600,"station_id":"ce4bh392rcd13ifvqdm0","pricing_plan_id":"cebpf4jnsgd1na2vs0mg"},{"bike_id":"c33025ff-e51a-4595-b046-b2e724e469cd","system_id":"levelo_inurba_marseille","lat":43.25945,"lon":5.40902,"is_reserved":false,"is_disabled":true,"rental_uris":{"android":"levelo://app?vid=c33025ff-e51a-4595-b046-b2e724e469cd","ios":"levelo://app?vid=c33025ff-e51a-4595-b046-b2e724e469cd"},"vehicle_type_id":"4","last_reported":1750921904,"current_range_meters":1600,"station_id":"ce4bhm92rcd13ifvqglg","pricing_plan_id":"cebpf4jnsgd1na2vs0mg"},{"bike_id":"eb8421b4-53c2-4bcf-9076-900254ff9144","system_id":"levelo_inurba_marseille","lat":43.32369,"lon":5.38886,"is_reserved":false,"is_disabled":true,"rental_uris":{"android":"levelo://app?vid=eb8421b4-53c2-4bcf-9076-900254ff9144","ios":"levelo://app?vid=eb8421b4-53c2-4bcf-9076-900254ff9144"},"vehicle_type_id":"4","last_reported":1750921904,"current_range_meters":1600,"station_id":"ce4bhqp2rcd13ifvqhog","pricing_plan_id":"cebpf4jnsgd1na2vs0mg"},{"bike_id":"581af24d-57f0-4510-a188-d64b595d4133","system_id":"levelo_inurba_marseille","lat":43.23938,"lon":5.37574,"is_reserved":false,"is_disabled":true,"rental_uris":{"android":"levelo://app?vid=581af24d-57f0-4510-a188-d64b595d4133","ios":"levelo://app?vid=581af24d-57f0-4510-a188-d64b595d4133"},"vehicle_type_id":"4","last_reported":1750921904,"current_range_meters":2000,"station_id":"","pricing_plan_id":"cebpf4jnsgd1na2vs0mg"},{"bike_id":"dfcbb947-6b53-4c2e-9282-36b0358210fd","system_id":"levelo_inurba_marseille","lat":43.29921,"lon":5.37459,"is_reserved":false,"is_disabled":true,"rental_uris":{"android":"levelo://app?vid=dfcbb947-6b53-4c2e-9282-36b0358210fd","ios":"levelo://app?vid=dfcbb947-6b53-4c2e-9282-36b0358210fd"},"vehicle_type_id":"4","last_reported":1750921904,"current_range_meters":2000,"station_id":"ce4bgjh2rcd13ifvqbg0","pricing_plan_id":"cebpf4jnsgd1na2vs0mg"},{"bike_id":"87c67b1a-0b45-43a9-aeec-9ce432215874","system_id":"levelo_inurba_marseille","lat":43.31497,"lon":5.3731,"is_reserved":false,"is_disabled":true,"rental_uris":{"android":"levelo://app?vid=87c67b1a-0b45-43a9-aeec-9ce432215874","ios":"levelo://app?vid=87c67b1a-0b45-43a9-aeec-9ce432215874"},"vehicle_type_id":"4","last_reported":1750921904,"current_range_meters":2000,"station_id":"ce4bgt12rcd13ifvqcd0","pricing_plan_id":"cebpf4jnsgd1na2vs0mg"},{"bike_id":"c4d96fb3-dce9-4b63-8bac-1adb35ee1c84","system_id":"levelo_inurba_marseille","lat":43.26682,"lon":5.38273,"is_reserved":false,"is_disabled":true,"rental_uris":{"android":"levelo://app?vid=c4d96fb3-dce9-4b63-8bac-1adb35ee1c84","ios":"levelo://app?vid=c4d96fb3-dce9-4b63-8bac-1adb35ee1c84"},"vehicle_type_id":"4","last_reported":1750921904,"current_range_meters":2000,"station_id":"ce4bhg92rcd13ifvqf90","pricing_plan_id":"cebpf4jnsgd1na2vs0mg"},{"bike_id":"63a24d5e-ac4c-4d13-976e-82697a5077cc","system_id":"levelo_inurba_marseille","lat":43.299022,"lon":5.436685,"is_reserved":false,"is_disabled":true,"rental_uris":{"android":"levelo://app?vid=63a24d5e-ac4c-4d13-976e-82697a5077cc","ios":"levelo://app?vid=63a24d5e-ac4c-4d13-976e-82697a5077cc"},"vehicle_type_id":"4","last_reported":1750921904,"current_range_meters":2000,"station_id":"ce4bhpp2rcd13ifvqhfg","pricing_plan_id":"cebpf4jnsgd1na2vs0mg"},{"bike_id":"96da1f82-5b24-4ffd-9224-a89230a1a4b6","system_id":"levelo_inurba_marseille","lat":43.2958,"lon":5.39974,"is_reserved":false,"is_disabled":false,"rental_uris":{"android":"levelo://app?vid=96da1f82-5b24-4ffd-9224-a89230a1a4b6","ios":"levelo://app?vid=96da1f82-5b24-4ffd-9224-a89230a1a4b6"},"vehicle_type_id":"4","last_reported":1750921904,"current_range_meters":2800,"station_id":"ce4bh312rcd13ifvqdj0","pricing_plan_id":"cebpf4jnsgd1na2vs0mg"},{"bike_id":"a52fbc37-f507-42ac-bb99-4e78cbd48244","system_id":"levelo_inurba_marseille","lat":43.31359,"lon":5.36716,"is_reserved":false,"is_disabled":false,"rental_uris":{"android":"levelo://app?vid=a52fbc37-f507-42ac-bb99-4e78cbd48244","ios":"levelo://app?vid=a52fbc37-f507-42ac-bb99-4e78cbd48244"},"vehicle_type_id":"4","last_reported":1750921904,"current_range_meters":3200,"station_id":"ce4bgr92rcd13ifvqc6g","pricing_plan_id":"cebpf4jnsgd1na2vs0mg"},{"bike_id":"60919d3f-bb24-4cdd-bcc8-d5f90a41db06","system_id":"levelo_inurba_marseille","lat":43.2439,"lon":5.37061,"is_reserved":false,"is_disabled":false,"rental_uris":{"android":"levelo://app?vid=60919d3f-bb24-4cdd-bcc8-d5f90a41db06","ios":"levelo://app?vid=60919d3f-bb24-4cdd-bcc8-d5f90a41db06"},"vehicle_type_id":"4","last_reported":1750921904,"current_range_meters":3200,"station_id":"ce4bhhh2rcd13ifvqfk0","pricing_plan_id":"cebpf4jnsgd1na2vs0mg"},{"bike_id":"041df358-13cf-451d-b64d-57e4cc21f482","system_id":"levelo_inurba_marseille","lat":43.31222,"lon":5.3686,"is_reserved":false,"is_disabled":false,"rental_uris":{"android":"levelo://app?vid=041df358-13cf-451d-b64d-57e4cc21f482","ios":"levelo://app?vid=041df358-13cf-451d-b64d-57e4cc21f482"},"vehicle_type_id":"4","last_reported":1750921904,"current_range_meters":3600,"station_id":"ce4bgl92rcd13ifvqbq0","pricing_plan_id":"cebpf4jnsgd1na2vs0mg"},{"bike_id":"4dd63819-e85b-4b54-a673-992a700eb8f6","system_id":"levelo_inurba_marseille","lat":43.305366,"lon":5.367027,"is_reserved":false,"is_disabled":false,"rental_uris":{"android":"levelo://app?vid=4dd63819-e85b-4b54-a673-992a700eb8f6","ios":"levelo://app?vid=4dd63819-e85b-4b54-a673-992a700eb8f6"},"vehicle_type_id":"4","last_reported":1750921904,"current_range_meters":3600,"station_id":"ce4bgrp2rcd13ifvqc9g","pricing_plan_id":"cebpf4jnsgd1na2vs0mg"},{"bike_id":"7db500fd-8bbd-4a18-8887-7e56457cebf4","system_id":"levelo_inurba_marseille","lat":43.2738,"lon":5.36245,"is_reserved":false,"is_disabled":false,"rental_uris":{"android":"levelo://app?vid=7db500fd-8bbd-4a18-8887-7e56457cebf4","ios":"levelo://app?vid=7db500fd-8bbd-4a18-8887-7e56457cebf4"},"vehicle_type_id":"4","last_reported":1750921904,"current_range_meters":3600,"station_id":"ce4bhbh2rcd13ifvqeo0","pricing_plan_id":"cebpf4jnsgd1na2vs0mg"},{"bike_id":"ef6d5a21-1f08-43d7-b584-b9a7d52ce4c8","system_id":"levelo_inurba_marseille","lat":43.30916,"lon":5.36862,"is_reserved":false,"is_disabled":false,"rental_uris":{"android":"levelo://app?vid=ef6d5a21-1f08-43d7-b584-b9a7d52ce4c8","ios":"levelo://app?vid=ef6d5a21-1f08-43d7-b584-b9a7d52ce4c8"},"vehicle_type_id":"4","last_reported":1750921904,"current_range_meters":4000,"station_id":"ce4bgn92rcd13ifvqbvg","pricing_plan_id":"cebpf4jnsgd1na2vs0mg"},{"bike_id":"f347cb2a-8134-4ef9-913b-5b490c8d9ff4","system_id":"levelo_inurba_marseille","lat":43.29624,"lon":5.37153,"is_reserved":false,"is_disabled":false,"rental_uris":{"android":"levelo://app?vid=f347cb2a-8134-4ef9-913b-5b490c8d9ff4","ios":"levelo://app?vid=f347cb2a-8134-4ef9-913b-5b490c8d9ff4"},"vehicle_type_id":"4","last_reported":1750921904,"current_range_meters":4000,"station_id":"ce4bgnh2rcd13ifvqc0g","pricing_plan_id":"cebpf4jnsgd1na2vs0mg"},{"bike_id":"0776ffe7-52b0-43fd-ac70-cb8ac85ff8d3","system_id":"levelo_inurba_marseille","lat":43.30543,"lon":5.36538,"is_reserved":false,"is_disabled":false,"rental_uris":{"android":"levelo://app?vid=0776ffe7-52b0-43fd-ac70-cb8ac85ff8d3","ios":"levelo://app?vid=0776ffe7-52b0-43fd-ac70-cb8ac85ff8d3"},"vehicle_type_id":"4","last_reported":1750921904,"current_range_meters":4000,"station_id":"ce4bgs12rcd13ifvqcag","pricing_plan_id":"cebpf4jnsgd1na2vs0mg"},{"bike_id":"11d08ab4-5b48-4fe1-a798-e40a3bfe1ce1","system_id":"levelo_inurba_marseille","lat":43.31494,"lon":5.37314,"is_reserved":false,"is_disabled":false,"rental_uris":{"android":"levelo://app?vid=11d08ab4-5b48-4fe1-a798-e40a3bfe1ce1","ios":"levelo://app?vid=11d08ab4-5b48-4fe1-a798-e40a3bfe1ce1"},"vehicle_type_id":"4","last_reported":1750921904,"current_range_meters":4000,"station_id":"ce4bgt12rcd13ifvqcd0","pricing_plan_id":"cebpf4jnsgd1na2vs0mg"},{"bike_id":"00e841b4-7bcd-4c30-b2d6-ecef7ce04dde","system_id":"levelo_inurba_marseille","lat":43.3293,"lon":5.37563,"is_reserved":false,"is_disabled":false,"rental_uris":{"android":"levelo://app?vid=00e841b4-7bcd-4c30-b2d6-ecef7ce04dde","ios":"levelo://app?vid=00e841b4-7bcd-4c30-b2d6-ecef7ce04dde"},"vehicle_type_id":"4","last_reported":1750921904,"current_range_meters":4400,"station_id":"","pricing_plan_id":"cebpf4jnsgd1na2vs0mg"},{"bike_id":"ee4c8e92-425d-479c-9829-c211db3c5afa","system_id":"levelo_inurba_marseille","lat":43.3091,"lon":5.36862,"is_reserved":false,"is_disabled":false,"rental_uris":{"android":"levelo://app?vid=ee4c8e92-425d-479c-9829-c211db3c5afa","ios":"levelo://app?vid=ee4c8e92-425d-479c-9829-c211db3c5afa"},"vehicle_type_id":"4","last_reported":1750921904,"current_range_meters":4400,"station_id":"ce4bgn92rcd13ifvqbvg","pricing_plan_id":"cebpf4jnsgd1na2vs0mg"},{"bike_id":"3c2fc74d-6a5f-4d55-96b5-393d66e4f7ec","system_id":"levelo_inurba_marseille","lat":43.29786,"lon":5.37102,"is_reserved":false,"is_disabled":false,"rental_uris":{"android":"levelo://app?vid=3c2fc74d-6a5f-4d55-96b5-393d66e4f7ec","ios":"levelo://app?vid=3c2fc74d-6a5f-4d55-96b5-393d66e4f7ec"},"vehicle_type_id":"4","last_reported":1750921904,"current_range_meters":4400,"station_id":"ce4bgop2rcd13ifvqc1g","pricing_plan_id":"cebpf4jnsgd1na2vs0mg"},{"bike_id":"a4da4c8c-effe-49c3-9ae2-877bd52649ec","system_id":"levelo_inurba_marseille","lat":43.30544,"lon":5.36705,"is_reserved":false,"is_disabled":false,"rental_uris":{"android":"levelo://app?vid=a4da4c8c-effe-49c3-9ae2-877bd52649ec","ios":"levelo://app?vid=a4da4c8c-effe-49c3-9ae2-877bd52649ec"},"vehicle_type_id":"4","last_reported":1750921904,"current_range_meters":4400,"station_id":"ce4bgrp2rcd13ifvqc9g","pricing_plan_id":"cebpf4jnsgd1na2vs0mg"},{"bike_id":"d526ffb8-da4a-4dd0-af0c-1e5bda9476c9","system_id":"levelo_inurba_marseille","lat":43.243924,"lon":5.370741,"is_reserved":false,"is_disabled":false,"rental_uris":{"android":"levelo://app?vid=d526ffb8-da4a-4dd0-af0c-1e5bda9476c9","ios":"levelo://app?vid=d526ffb8-da4a-4dd0-af0c-1e5bda9476c9"},"vehicle_type_id":"4","last_reported":1750921904,"current_range_meters":4400,"station_id":"ce4bhi12rcd13ifvqfp0","pricing_plan_id":"cebpf4jnsgd1na2vs0mg"},{"bike_id":"c801af20-6de5-4c12-85e4-05b2dcba2ebc","system_id":"levelo_inurba_marseille","lat":43.23967,"lon":5.36634,"is_reserved":false,"is_disabled":false,"rental_uris":{"android":"levelo://app?vid=c801af20-6de5-4c12-85e4-05b2dcba2ebc","ios":"levelo://app?vid=c801af20-6de5-4c12-85e4-05b2dcba2ebc"},"vehicle_type_id":"4","last_reported":1750921904,"current_range_meters":4400,"station_id":"ce4bhi12rcd13ifvqfp0","pricing_plan_id":"cebpf4jnsgd1na2vs0mg"},{"bike_id":"72967852-0d49-4a7a-9ba1-15d4c14c2862","system_id":"levelo_inurba_marseille","lat":43.25006,"lon":5.38934,"is_reserved":false,"is_disabled":false,"rental_uris":{"android":"levelo://app?vid=72967852-0d49-4a7a-9ba1-15d4c14c2862","ios":"levelo://app?vid=72967852-0d49-4a7a-9ba1-15d4c14c2862"},"vehicle_type_id":"4","last_reported":1750921904,"current_range_meters":4800,"station_id":"","pricing_plan_id":"cebpf4jnsgd1na2vs0mg"},{"bike_id":"9bcaf2c4-201d-42f2-a681-8147c0540392","system_id":"levelo_inurba_marseille","lat":43.28118,"lon":5.426403,"is_reserved":false,"is_disabled":false,"rental_uris":{"android":"levelo://app?vid=9bcaf2c4-201d-42f2-a681-8147c0540392","ios":"levelo://app?vid=9bcaf2c4-201d-42f2-a681-8147c0540392"},"vehicle_type_id":"4","last_reported":1750921904,"current_range_meters":4800,"station_id":"ce4bhnh2rcd13ifvqgug","pricing_plan_id":"cebpf4jnsgd1na2vs0mg"},{"bike_id":"570ade63-1881-4e3d-86dd-6a4f5903ca82","system_id":"levelo_inurba_marseille","lat":43.27852,"lon":5.38327,"is_reserved":false,"is_disabled":false,"rental_uris":{"android":"levelo://app?vid=570ade63-1881-4e3d-86dd-6a4f5903ca82","ios":"levelo://app?vid=570ade63-1881-4e3d-86dd-6a4f5903ca82"},"vehicle_type_id":"4","last_reported":1750921904,"current_range_meters":5600,"station_id":"","pricing_plan_id":"cebpf4jnsgd1na2vs0mg"},{"bike_id":"402aa1db-bd67-486d-9c7f-001630e30895","system_id":"levelo_inurba_marseille","lat":43.30174,"lon":5.36617,"is_reserved":false,"is_disabled":false,"rental_uris":{"android":"levelo://app?vid=402aa1db-bd67-486d-9c7f-001630e30895","ios":"levelo://app?vid=402aa1db-bd67-486d-9c7f-001630e30895"},"vehicle_type_id":"4","last_reported":1750921904,"current_range_meters":5600,"station_id":"ce4bgrh2rcd13ifvqc8g","pricing_plan_id":"cebpf4jnsgd1na2vs0mg"},{"bike_id":"4f7a962b-5b88-4fac-a24d-8d175ff457ce","system_id":"levelo_inurba_marseille","lat":43.26787,"lon":5.3942,"is_reserved":false,"is_disabled":false,"rental_uris":{"android":"levelo://app?vid=4f7a962b-5b88-4fac-a24d-8d175ff457ce","ios":"levelo://app?vid=4f7a962b-5b88-4fac-a24d-8d175ff457ce"},"vehicle_type_id":"4","last_reported":1750921904,"current_range_meters":5600,"station_id":"ce4bhh12rcd13ifvqfg0","pricing_plan_id":"cebpf4jnsgd1na2vs0mg"},{"bike_id":"228c6f29-70ae-413f-b037-ba81f74c221e","system_id":"levelo_inurba_marseille","lat":43.25937,"lon":5.40908,"is_reserved":false,"is_disabled":false,"rental_uris":{"android":"levelo://app?vid=228c6f29-70ae-413f-b037-ba81f74c221e","ios":"levelo://app?vid=228c6f29-70ae-413f-b037-ba81f74c221e"},"vehicle_type_id":"4","last_reported":1750921904,"current_range_meters":5600,"station_id":"ce4bhm92rcd13ifvqglg","pricing_plan_id":"cebpf4jnsgd1na2vs0mg"},{"bike_id":"11ebf4fb-e752-44af-81e3-7d28e8eee9cc","system_id":"levelo_inurba_marseille","lat":43.28113,"lon":5.43218,"is_reserved":false,"is_disabled":false,"rental_uris":{"android":"levelo://app?vid=11ebf4fb-e752-44af-81e3-7d28e8eee9cc","ios":"levelo://app?vid=11ebf4fb-e752-44af-81e3-7d28e8eee9cc"},"vehicle_type_id":"4","last_reported":1750921904,"current_range_meters":6000,"station_id":"","pricing_plan_id":"cebpf4jnsgd1na2vs0mg"},{"bike_id":"ca891a62-249c-44a6-8932-76dcf44133c9","system_id":"levelo_inurba_marseille","lat":43.305375,"lon":5.36741,"is_reserved":false,"is_disabled":false,"rental_uris":{"android":"levelo://app?vid=ca891a62-249c-44a6-8932-76dcf44133c9","ios":"levelo://app?vid=ca891a62-249c-44a6-8932-76dcf44133c9"},"vehicle_type_id":"4","last_reported":1750921904,"current_range_meters":6000,"station_id":"ce4bgrp2rcd13ifvqc9g","pricing_plan_id":"cebpf4jnsgd1na2vs0mg"},{"bike_id":"2bcc145c-c3da-4db8-82c4-4c3b1e8061f7","system_id":"levelo_inurba_marseille","lat":43.290831,"lon":5.371614,"is_reserved":false,"is_disabled":false,"rental_uris":{"android":"levelo://app?vid=2bcc145c-c3da-4db8-82c4-4c3b1e8061f7","ios":"levelo://app?vid=2bcc145c-c3da-4db8-82c4-4c3b1e8061f7"},"vehicle_type_id":"4","last_reported":1750921904,"current_range_meters":6000,"station_id":"ce4bh5p2rcd13ifvqe4g","pricing_plan_id":"cebpf4jnsgd1na2vs0mg"},{"bike_id":"33dd6ee9-4518-4b0f-b4e5-b665df7948b6","system_id":"levelo_inurba_marseille","lat":43.30907,"lon":5.36846,"is_reserved":false,"is_disabled":false,"rental_uris":{"android":"levelo://app?vid=33dd6ee9-4518-4b0f-b4e5-b665df7948b6","ios":"levelo://app?vid=33dd6ee9-4518-4b0f-b4e5-b665df7948b6"},"vehicle_type_id":"4","last_reported":1750921904,"current_range_meters":6800,"station_id":"ce4bgn92rcd13ifvqbvg","pricing_plan_id":"cebpf4jnsgd1na2vs0mg"},{"bike_id":"62233f36-107e-4bd9-ac58-2240110443be","system_id":"levelo_inurba_marseille","lat":43.25941,"lon":5.40896,"is_reserved":false,"is_disabled":false,"rental_uris":{"android":"levelo://app?vid=62233f36-107e-4bd9-ac58-2240110443be","ios":"levelo://app?vid=62233f36-107e-4bd9-ac58-2240110443be"},"vehicle_type_id":"4","last_reported":1750921904,"current_range_meters":6800,"station_id":"ce4bhm92rcd13ifvqglg","pricing_plan_id":"cebpf4jnsgd1na2vs0mg"},{"bike_id":"27ac2827-b372-4b03-9665-3a6cdb3c48b3","system_id":"levelo_inurba_marseille","lat":43.25939,"lon":5.40901,"is_reserved":false,"is_disabled":false,"rental_uris":{"android":"levelo://app?vid=27ac2827-b372-4b03-9665-3a6cdb3c48b3","ios":"levelo://app?vid=27ac2827-b372-4b03-9665-3a6cdb3c48b3"},"vehicle_type_id":"4","last_reported":1750921904,"current_range_meters":6800,"station_id":"ce4bhm92rcd13ifvqglg","pricing_plan_id":"cebpf4jnsgd1na2vs0mg"},{"bike_id":"dbfb2b4d-f467-42b8-bdec-0c1e515fa89f","system_id":"levelo_inurba_marseille","lat":43.298973,"lon":5.436674,"is_reserved":false,"is_disabled":false,"rental_uris":{"android":"levelo://app?vid=dbfb2b4d-f467-42b8-bdec-0c1e515fa89f","ios":"levelo://app?vid=dbfb2b4d-f467-42b8-bdec-0c1e515fa89f"},"vehicle_type_id":"4","last_reported":1750921904,"current_range_meters":6800,"station_id":"ce4bhpp2rcd13ifvqhfg","pricing_plan_id":"cebpf4jnsgd1na2vs0mg"},{"bike_id":"5637b28c-bd2e-4d19-b882-e6f866850b6d","system_id":"levelo_inurba_marseille","lat":43.31894,"lon":5.40744,"is_reserved":false,"is_disabled":false,"rental_uris":{"android":"levelo://app?vid=5637b28c-bd2e-4d19-b882-e6f866850b6d","ios":"levelo://app?vid=5637b28c-bd2e-4d19-b882-e6f866850b6d"},"vehicle_type_id":"4","last_reported":1750921904,"current_range_meters":6800,"station_id":"ce4bhq12rcd13ifvqhig","pricing_plan_id":"cebpf4jnsgd1na2vs0mg"},{"bike_id":"67a5051a-b32e-408a-8389-c22b54eb81f6","system_id":"levelo_inurba_marseille","lat":43.32944,"lon":5.45595,"is_reserved":false,"is_disabled":false,"rental_uris":{"android":"levelo://app?vid=67a5051a-b32e-408a-8389-c22b54eb81f6","ios":"levelo://app?vid=67a5051a-b32e-408a-8389-c22b54eb81f6"},"vehicle_type_id":"4","last_reported":1750921904,"current_range_meters":7200,"station_id":"","pricing_plan_id":"cebpf4jnsgd1na2vs0mg"},{"bike_id":"d73b21cd-6af9-4066-a7d7-8a869c824dfc","system_id":"levelo_inurba_marseille","lat":43.337444,"lon":5.374475,"is_reserved":false,"is_disabled":false,"rental_uris":{"android":"levelo://app?vid=d73b21cd-6af9-4066-a7d7-8a869c824dfc","ios":"levelo://app?vid=d73b21cd-6af9-4066-a7d7-8a869c824dfc"},"vehicle_type_id":"4","last_reported":1750921904,"current_range_meters":7200,"station_id":"","pricing_plan_id":"cebpf4jnsgd1na2vs0mg"},{"bike_id":"39c28652-1661-4138-b2c2-ff58040f902a","system_id":"levelo_inurba_marseille","lat":43.31714,"lon":5.37771,"is_reserved":false,"is_disabled":false,"rental_uris":{"android":"levelo://app?vid=39c28652-1661-4138-b2c2-ff58040f902a","ios":"levelo://app?vid=39c28652-1661-4138-b2c2-ff58040f902a"},"vehicle_type_id":"4","last_reported":1750921904,"current_range_meters":7200,"station_id":"ce4bgth2rcd13ifvqch0","pricing_plan_id":"cebpf4jnsgd1na2vs0mg"},{"bike_id":"92bd76d9-90e6-49ca-aaec-dab56c317919","system_id":"levelo_inurba_marseille","lat":43.25721,"lon":5.41113,"is_reserved":false,"is_disabled":false,"rental_uris":{"android":"levelo://app?vid=92bd76d9-90e6-49ca-aaec-dab56c317919","ios":"levelo://app?vid=92bd76d9-90e6-49ca-aaec-dab56c317919"},"vehicle_type_id":"4","last_reported":1750921904,"current_range_meters":7200,"station_id":"ce4bhkp2rcd13ifvqgd0","pricing_plan_id":"cebpf4jnsgd1na2vs0mg"},{"bike_id":"82f20ffd-5ee7-4719-89f9-e874f1066495","system_id":"levelo_inurba_marseille","lat":43.28612,"lon":5.37066,"is_reserved":false,"is_disabled":false,"rental_uris":{"android":"levelo://app?vid=82f20ffd-5ee7-4719-89f9-e874f1066495","ios":"levelo://app?vid=82f20ffd-5ee7-4719-89f9-e874f1066495"},"vehicle_type_id":"4","last_reported":1750921904,"current_range_meters":7200,"station_id":"ce4bht12rcd13ifvqi60","pricing_plan_id":"cebpf4jnsgd1na2vs0mg"},{"bike_id":"aaf92b08-59fc-4a45-a752-b0a33c2ca1c1","system_id":"levelo_inurba_marseille","lat":43.30154,"lon":5.38096,"is_reserved":false,"is_disabled":false,"rental_uris":{"android":"levelo://app?vid=aaf92b08-59fc-4a45-a752-b0a33c2ca1c1","ios":"levelo://app?vid=aaf92b08-59fc-4a45-a752-b0a33c2ca1c1"},"vehicle_type_id":"4","last_reported":1750921904,"current_range_meters":8000,"station_id":"ce4bgjp2rcd13ifvqbh0","pricing_plan_id":"cebpf4jnsgd1na2vs0mg"},{"bike_id":"59d10a66-9342-4cb1-9248-17ecf9239457","system_id":"levelo_inurba_marseille","lat":43.305603,"lon":5.365077,"is_reserved":false,"is_disabled":false,"rental_uris":{"android":"levelo://app?vid=59d10a66-9342-4cb1-9248-17ecf9239457","ios":"levelo://app?vid=59d10a66-9342-4cb1-9248-17ecf9239457"},"vehicle_type_id":"4","last_reported":1750921904,"current_range_meters":8000,"station_id":"ce4bgs12rcd13ifvqcag","pricing_plan_id":"cebpf4jnsgd1na2vs0mg"},{"bike_id":"eb6dd7cb-41a8-4a4a-8d36-1ef9c31141af","system_id":"levelo_inurba_marseille","lat":43.30557,"lon":5.36558,"is_reserved":false,"is_disabled":false,"rental_uris":{"android":"levelo://app?vid=eb6dd7cb-41a8-4a4a-8d36-1ef9c31141af","ios":"levelo://app?vid=eb6dd7cb-41a8-4a4a-8d36-1ef9c31141af"},"vehicle_type_id":"4","last_reported":1750921904,"current_range_meters":8000,"station_id":"ce4bgs12rcd13ifvqcag","pricing_plan_id":"cebpf4jnsgd1na2vs0mg"},{"bike_id":"e7ce4b77-6f57-460f-9604-ce8b9f4e3428","system_id":"levelo_inurba_marseille","lat":43.30275,"lon":5.377,"is_reserved":false,"is_disabled":false,"rental_uris":{"android":"levelo://app?vid=e7ce4b77-6f57-460f-9604-ce8b9f4e3428","ios":"levelo://app?vid=e7ce4b77-6f57-460f-9604-ce8b9f4e3428"},"vehicle_type_id":"4","last_reported":1750921904,"current_range_meters":8000,"station_id":"ce4bguh2rcd13ifvqcj0","pricing_plan_id":"cebpf4jnsgd1na2vs0mg"},{"bike_id":"e649cd99-cd75-4f9b-95d7-80500e19ab51","system_id":"levelo_inurba_marseille","lat":43.311776,"lon":5.387183,"is_reserved":false,"is_disabled":false,"rental_uris":{"android":"levelo://app?vid=e649cd99-cd75-4f9b-95d7-80500e19ab51","ios":"levelo://app?vid=e649cd99-cd75-4f9b-95d7-80500e19ab51"},"vehicle_type_id":"4","last_reported":1750921904,"current_range_meters":8000,"station_id":"ce4bgv12rcd13ifvqcp0","pricing_plan_id":"cebpf4jnsgd1na2vs0mg"},{"bike_id":"12d0cae9-76df-433e-93be-1597f78b7935","system_id":"levelo_inurba_marseille","lat":43.298457,"lon":5.362743,"is_reserved":false,"is_disabled":false,"rental_uris":{"android":"levelo://app?vid=12d0cae9-76df-433e-93be-1597f78b7935","ios":"levelo://app?vid=12d0cae9-76df-433e-93be-1597f78b7935"},"vehicle_type_id":"4","last_reported":1750921904,"current_range_meters":8400,"station_id":"ce4bgpp2rcd13ifvqc3g","pricing_plan_id":"cebpf4jnsgd1na2vs0mg"},{"bike_id":"13dcbb92-19df-4370-951a-29c1eab26937","system_id":"levelo_inurba_marseille","lat":43.30549,"lon":5.36531,"is_reserved":false,"is_disabled":false,"rental_uris":{"android":"levelo://app?vid=13dcbb92-19df-4370-951a-29c1eab26937","ios":"levelo://app?vid=13dcbb92-19df-4370-951a-29c1eab26937"},"vehicle_type_id":"4","last_reported":1750921904,"current_range_meters":8400,"station_id":"ce4bgs12rcd13ifvqcag","pricing_plan_id":"cebpf4jnsgd1na2vs0mg"},{"bike_id":"824a88db-b581-48db-8227-697d5db3a792","system_id":"levelo_inurba_marseille","lat":43.26556,"lon":5.37284,"is_reserved":false,"is_disabled":false,"rental_uris":{"android":"levelo://app?vid=824a88db-b581-48db-8227-697d5db3a792","ios":"levelo://app?vid=824a88db-b581-48db-8227-697d5db3a792"},"vehicle_type_id":"4","last_reported":1750921904,"current_range_meters":8400,"station_id":"ce4bhg12rcd13ifvqf70","pricing_plan_id":"cebpf4jnsgd1na2vs0mg"},{"bike_id":"25b41fed-946e-4cc4-942b-1629b2a4c5ce","system_id":"levelo_inurba_marseille","lat":43.24186,"lon":5.39707,"is_reserved":false,"is_disabled":false,"rental_uris":{"android":"levelo://app?vid=25b41fed-946e-4cc4-942b-1629b2a4c5ce","ios":"levelo://app?vid=25b41fed-946e-4cc4-942b-1629b2a4c5ce"},"vehicle_type_id":"4","last_reported":1750921904,"current_range_meters":8400,"station_id":"ce4bhn12rcd13ifvqgpg","pricing_plan_id":"cebpf4jnsgd1na2vs0mg"},{"bike_id":"35b14479-4a4d-4383-83de-c7fea66894b3","system_id":"levelo_inurba_marseille","lat":43.29908,"lon":5.43674,"is_reserved":false,"is_disabled":false,"rental_uris":{"android":"levelo://app?vid=35b14479-4a4d-4383-83de-c7fea66894b3","ios":"levelo://app?vid=35b14479-4a4d-4383-83de-c7fea66894b3"},"vehicle_type_id":"4","last_reported":1750921904,"current_range_meters":8400,"station_id":"ce4bhpp2rcd13ifvqhfg","pricing_plan_id":"cebpf4jnsgd1na2vs0mg"},{"bike_id":"af112b62-19de-41d4-b8d7-e14d0172315d","system_id":"levelo_inurba_marseille","lat":43.32704,"lon":5.39215,"is_reserved":false,"is_disabled":false,"rental_uris":{"android":"levelo://app?vid=af112b62-19de-41d4-b8d7-e14d0172315d","ios":"levelo://app?vid=af112b62-19de-41d4-b8d7-e14d0172315d"},"vehicle_type_id":"4","last_reported":1750921904,"current_range_meters":8800,"station_id":"","pricing_plan_id":"cebpf4jnsgd1na2vs0mg"},{"bike_id":"7b42fce3-3c42-442f-9dc7-95cb62e7d7f8","system_id":"levelo_inurba_marseille","lat":43.30146,"lon":5.38087,"is_reserved":false,"is_disabled":false,"rental_uris":{"android":"levelo://app?vid=7b42fce3-3c42-442f-9dc7-95cb62e7d7f8","ios":"levelo://app?vid=7b42fce3-3c42-442f-9dc7-95cb62e7d7f8"},"vehicle_type_id":"4","last_reported":1750921904,"current_range_meters":8800,"station_id":"ce4bgjp2rcd13ifvqbh0","pricing_plan_id":"cebpf4jnsgd1na2vs0mg"},{"bike_id":"554beb83-e5a4-4f70-84cc-e165e0a9b529","system_id":"levelo_inurba_marseille","lat":43.30545,"lon":5.36545,"is_reserved":false,"is_disabled":false,"rental_uris":{"android":"levelo://app?vid=554beb83-e5a4-4f70-84cc-e165e0a9b529","ios":"levelo://app?vid=554beb83-e5a4-4f70-84cc-e165e0a9b529"},"vehicle_type_id":"4","last_reported":1750921904,"current_range_meters":8800,"station_id":"ce4bgs12rcd13ifvqcag","pricing_plan_id":"cebpf4jnsgd1na2vs0mg"},{"bike_id":"4124c10f-b5c1-4100-9e8c-f258d82c306e","system_id":"levelo_inurba_marseille","lat":43.31759,"lon":5.40446,"is_reserved":false,"is_disabled":false,"rental_uris":{"android":"levelo://app?vid=4124c10f-b5c1-4100-9e8c-f258d82c306e","ios":"levelo://app?vid=4124c10f-b5c1-4100-9e8c-f258d82c306e"},"vehicle_type_id":"4","last_reported":1750921904,"current_range_meters":8800,"station_id":"ce4bh012rcd13ifvqd00","pricing_plan_id":"cebpf4jnsgd1na2vs0mg"},{"bike_id":"bb824745-2d41-419f-8694-d3828af4b6b7","system_id":"levelo_inurba_marseille","lat":43.290331,"lon":5.386506,"is_reserved":false,"is_disabled":false,"rental_uris":{"android":"levelo://app?vid=bb824745-2d41-419f-8694-d3828af4b6b7","ios":"levelo://app?vid=bb824745-2d41-419f-8694-d3828af4b6b7"},"vehicle_type_id":"4","last_reported":1750921904,"current_range_meters":8800,"station_id":"ce4bh4p2rcd13ifvqe0g","pricing_plan_id":"cebpf4jnsgd1na2vs0mg"},{"bike_id":"85aebb63-1277-49af-91e5-22f2d655e266","system_id":"levelo_inurba_marseille","lat":43.298992,"lon":5.43671,"is_reserved":false,"is_disabled":false,"rental_uris":{"android":"levelo://app?vid=85aebb63-1277-49af-91e5-22f2d655e266","ios":"levelo://app?vid=85aebb63-1277-49af-91e5-22f2d655e266"},"vehicle_type_id":"4","last_reported":1750921904,"current_range_meters":8800,"station_id":"ce4bhpp2rcd13ifvqhfg","pricing_plan_id":"cebpf4jnsgd1na2vs0mg"},{"bike_id":"26a14eba-87a9-47b8-9607-30bd0042d428","system_id":"levelo_inurba_marseille","lat":43.31465,"lon":5.39445,"is_reserved":false,"is_disabled":false,"rental_uris":{"android":"levelo://app?vid=26a14eba-87a9-47b8-9607-30bd0042d428","ios":"levelo://app?vid=26a14eba-87a9-47b8-9607-30bd0042d428"},"vehicle_type_id":"4","last_reported":1750921904,"current_range_meters":9200,"station_id":"","pricing_plan_id":"cebpf4jnsgd1na2vs0mg"},{"bike_id":"1bb644cf-fc5e-4e2c-8c0d-880f4a3ba6d8","system_id":"levelo_inurba_marseille","lat":43.293,"lon":5.37166,"is_reserved":false,"is_disabled":false,"rental_uris":{"android":"levelo://app?vid=1bb644cf-fc5e-4e2c-8c0d-880f4a3ba6d8","ios":"levelo://app?vid=1bb644cf-fc5e-4e2c-8c0d-880f4a3ba6d8"},"vehicle_type_id":"4","last_reported":1750921904,"current_range_meters":9200,"station_id":"ce4bgh92rcd13ifvqb40","pricing_plan_id":"cebpf4jnsgd1na2vs0mg"},{"bike_id":"0c0d3304-de5e-4e5b-9fe6-3767b4f8624e","system_id":"levelo_inurba_marseille","lat":43.31494,"lon":5.37312,"is_reserved":false,"is_disabled":false,"rental_uris":{"android":"levelo://app?vid=0c0d3304-de5e-4e5b-9fe6-3767b4f8624e","ios":"levelo://app?vid=0c0d3304-de5e-4e5b-9fe6-3767b4f8624e"},"vehicle_type_id":"4","last_reported":1750921904,"current_range_meters":9200,"station_id":"ce4bgt12rcd13ifvqcd0","pricing_plan_id":"cebpf4jnsgd1na2vs0mg"},{"bike_id":"ea79ee07-ddae-47ae-9cb9-f6e88078ecd1","system_id":"levelo_inurba_marseille","lat":43.28423,"lon":5.3921,"is_reserved":false,"is_disabled":false,"rental_uris":{"android":"levelo://app?vid=ea79ee07-ddae-47ae-9cb9-f6e88078ecd1","ios":"levelo://app?vid=ea79ee07-ddae-47ae-9cb9-f6e88078ecd1"},"vehicle_type_id":"4","last_reported":1750921904,"current_range_meters":9200,"station_id":"ce4bhoh2rcd13ifvqh5g","pricing_plan_id":"cebpf4jnsgd1na2vs0mg"},{"bike_id":"cc8e6302-8917-4c72-b7de-abcd73e4ee30","system_id":"levelo_inurba_marseille","lat":43.299,"lon":5.436767,"is_reserved":false,"is_disabled":false,"rental_uris":{"android":"levelo://app?vid=cc8e6302-8917-4c72-b7de-abcd73e4ee30","ios":"levelo://app?vid=cc8e6302-8917-4c72-b7de-abcd73e4ee30"},"vehicle_type_id":"4","last_reported":1750921904,"current_range_meters":9200,"station_id":"ce4bhpp2rcd13ifvqhfg","pricing_plan_id":"cebpf4jnsgd1na2vs0mg"},{"bike_id":"5eee8925-0941-460b-a942-18fcb70bac7c","system_id":"levelo_inurba_marseille","lat":43.27254,"lon":5.40048,"is_reserved":false,"is_disabled":false,"rental_uris":{"android":"levelo://app?vid=5eee8925-0941-460b-a942-18fcb70bac7c","ios":"levelo://app?vid=5eee8925-0941-460b-a942-18fcb70bac7c"},"vehicle_type_id":"4","last_reported":1750921904,"current_range_meters":9600,"station_id":"","pricing_plan_id":"cebpf4jnsgd1na2vs0mg"},{"bike_id":"68f9374e-4c61-458b-b0de-743c9a2af78f","system_id":"levelo_inurba_marseille","lat":43.2998,"lon":5.37181,"is_reserved":false,"is_disabled":false,"rental_uris":{"android":"levelo://app?vid=68f9374e-4c61-458b-b0de-743c9a2af78f","ios":"levelo://app?vid=68f9374e-4c61-458b-b0de-743c9a2af78f"},"vehicle_type_id":"4","last_reported":1750921904,"current_range_meters":9600,"station_id":"ce4bgr92rcd13ifvqc7g","pricing_plan_id":"cebpf4jnsgd1na2vs0mg"},{"bike_id":"1873008a-f91f-47c3-abfc-bb9ddfd869a8","system_id":"levelo_inurba_marseille","lat":43.30153,"lon":5.37416,"is_reserved":false,"is_disabled":false,"rental_uris":{"android":"levelo://app?vid=1873008a-f91f-47c3-abfc-bb9ddfd869a8","ios":"levelo://app?vid=1873008a-f91f-47c3-abfc-bb9ddfd869a8"},"vehicle_type_id":"4","last_reported":1750921904,"current_range_meters":9600,"station_id":"ce4bgs92rcd13ifvqcc0","pricing_plan_id":"cebpf4jnsgd1na2vs0mg"},{"bike_id":"6edd0bb4-ff0e-471f-a9a4-d525185a905d","system_id":"levelo_inurba_marseille","lat":43.3079,"lon":5.3765,"is_reserved":false,"is_disabled":false,"rental_uris":{"android":"levelo://app?vid=6edd0bb4-ff0e-471f-a9a4-d525185a905d","ios":"levelo://app?vid=6edd0bb4-ff0e-471f-a9a4-d525185a905d"},"vehicle_type_id":"4","last_reported":1750921904,"current_range_meters":9600,"station_id":"ce4bgv92rcd13ifvqcq0","pricing_plan_id":"cebpf4jnsgd1na2vs0mg"},{"bike_id":"ab6bd442-7df4-49f9-a454-4d6965b66e3d","system_id":"levelo_inurba_marseille","lat":43.27373,"lon":5.36264,"is_reserved":false,"is_disabled":false,"rental_uris":{"android":"levelo://app?vid=ab6bd442-7df4-49f9-a454-4d6965b66e3d","ios":"levelo://app?vid=ab6bd442-7df4-49f9-a454-4d6965b66e3d"},"vehicle_type_id":"4","last_reported":1750921904,"current_range_meters":9600,"station_id":"ce4bhbh2rcd13ifvqeo0","pricing_plan_id":"cebpf4jnsgd1na2vs0mg"},{"bike_id":"f37da780-4b0b-43b8-8b5d-bace244653cf","system_id":"levelo_inurba_marseille","lat":43.25964,"lon":5.40888,"is_reserved":false,"is_disabled":false,"rental_uris":{"android":"levelo://app?vid=f37da780-4b0b-43b8-8b5d-bace244653cf","ios":"levelo://app?vid=f37da780-4b0b-43b8-8b5d-bace244653cf"},"vehicle_type_id":"4","last_reported":1750921904,"current_range_meters":9600,"station_id":"ce4bhm92rcd13ifvqglg","pricing_plan_id":"cebpf4jnsgd1na2vs0mg"},{"bike_id":"441e2f39-7054-4744-894b-72ac8474531d","system_id":"levelo_inurba_marseille","lat":43.211932,"lon":5.350805,"is_reserved":false,"is_disabled":false,"rental_uris":{"android":"levelo://app?vid=441e2f39-7054-4744-894b-72ac8474531d","ios":"levelo://app?vid=441e2f39-7054-4744-894b-72ac8474531d"},"vehicle_type_id":"4","last_reported":1750921904,"current_range_meters":9600,"station_id":"st_cvj6sg6p6f1abm77japg","pricing_plan_id":"cebpf4jnsgd1na2vs0mg"},{"bike_id":"7fdcd807-dc83-407b-a46a-6edbcbb5116d","system_id":"levelo_inurba_marseille","lat":43.29843,"lon":5.3627,"is_reserved":false,"is_disabled":false,"rental_uris":{"android":"levelo://app?vid=7fdcd807-dc83-407b-a46a-6edbcbb5116d","ios":"levelo://app?vid=7fdcd807-dc83-407b-a46a-6edbcbb5116d"},"vehicle_type_id":"4","last_reported":1750921904,"current_range_meters":10000,"station_id":"ce4bgpp2rcd13ifvqc3g","pricing_plan_id":"cebpf4jnsgd1na2vs0mg"},{"bike_id":"272e0ee9-032b-4485-9697-f7d52e766c5a","system_id":"levelo_inurba_marseille","lat":43.30902,"lon":5.37189,"is_reserved":false,"is_disabled":false,"rental_uris":{"android":"levelo://app?vid=272e0ee9-032b-4485-9697-f7d52e766c5a","ios":"levelo://app?vid=272e0ee9-032b-4485-9697-f7d52e766c5a"},"vehicle_type_id":"4","last_reported":1750921904,"current_range_meters":10000,"station_id":"ce4bguh2rcd13ifvqckg","pricing_plan_id":"cebpf4jnsgd1na2vs0mg"},{"bike_id":"dbbf1291-510c-4bdc-aea4-7c09986a4f1a","system_id":"levelo_inurba_marseille","lat":43.2827,"lon":5.35065,"is_reserved":false,"is_disabled":false,"rental_uris":{"android":"levelo://app?vid=dbbf1291-510c-4bdc-aea4-7c09986a4f1a","ios":"levelo://app?vid=dbbf1291-510c-4bdc-aea4-7c09986a4f1a"},"vehicle_type_id":"4","last_reported":1750921904,"current_range_meters":10000,"station_id":"ce4bhbp2rcd13ifvqerg","pricing_plan_id":"cebpf4jnsgd1na2vs0mg"},{"bike_id":"d1a99f56-51e8-4b3b-ac3c-9e6392d0b3f2","system_id":"levelo_inurba_marseille","lat":43.22952,"lon":5.35389,"is_reserved":false,"is_disabled":false,"rental_uris":{"android":"levelo://app?vid=d1a99f56-51e8-4b3b-ac3c-9e6392d0b3f2","ios":"levelo://app?vid=d1a99f56-51e8-4b3b-ac3c-9e6392d0b3f2"},"vehicle_type_id":"4","last_reported":1750921904,"current_range_meters":10000,"station_id":"cpo3532slgdg3j2ikp40","pricing_plan_id":"cebpf4jnsgd1na2vs0mg"},{"bike_id":"e2f5b300-4a63-4778-aada-c29a8a0ea1e8","system_id":"levelo_inurba_marseille","lat":43.32806,"lon":5.392,"is_reserved":false,"is_disabled":false,"rental_uris":{"android":"levelo://app?vid=e2f5b300-4a63-4778-aada-c29a8a0ea1e8","ios":"levelo://app?vid=e2f5b300-4a63-4778-aada-c29a8a0ea1e8"},"vehicle_type_id":"4","last_reported":1750921904,"current_range_meters":10800,"station_id":"","pricing_plan_id":"cebpf4jnsgd1na2vs0mg"},{"bike_id":"0759730a-a16f-4da5-b1f8-faea7d5b80a9","system_id":"levelo_inurba_marseille","lat":43.337444,"lon":5.374475,"is_reserved":false,"is_disabled":false,"rental_uris":{"android":"levelo://app?vid=0759730a-a16f-4da5-b1f8-faea7d5b80a9","ios":"levelo://app?vid=0759730a-a16f-4da5-b1f8-faea7d5b80a9"},"vehicle_type_id":"4","last_reported":1750921904,"current_range_meters":10800,"station_id":"","pricing_plan_id":"cebpf4jnsgd1na2vs0mg"},{"bike_id":"4d6658f4-b84c-4066-af22-3348974d22c3","system_id":"levelo_inurba_marseille","lat":43.311135,"lon":5.377502,"is_reserved":false,"is_disabled":false,"rental_uris":{"android":"levelo://app?vid=4d6658f4-b84c-4066-af22-3348974d22c3","ios":"levelo://app?vid=4d6658f4-b84c-4066-af22-3348974d22c3"},"vehicle_type_id":"4","last_reported":1750921904,"current_range_meters":10800,"station_id":"ce4bgt92rcd13ifvqcg0","pricing_plan_id":"cebpf4jnsgd1na2vs0mg"},{"bike_id":"06bc7053-c0c1-4826-aca3-59ffa79094e6","system_id":"levelo_inurba_marseille","lat":43.27667,"lon":5.38901,"is_reserved":false,"is_disabled":false,"rental_uris":{"android":"levelo://app?vid=06bc7053-c0c1-4826-aca3-59ffa79094e6","ios":"levelo://app?vid=06bc7053-c0c1-4826-aca3-59ffa79094e6"},"vehicle_type_id":"4","last_reported":1750921904,"current_range_meters":10800,"station_id":"ce4bhi12rcd13ifvqfo0","pricing_plan_id":"cebpf4jnsgd1na2vs0mg"},{"bike_id":"6126b405-5be6-414e-9b5b-afa795b2dc1c","system_id":"levelo_inurba_marseille","lat":43.27182,"lon":5.41002,"is_reserved":false,"is_disabled":false,"rental_uris":{"android":"levelo://app?vid=6126b405-5be6-414e-9b5b-afa795b2dc1c","ios":"levelo://app?vid=6126b405-5be6-414e-9b5b-afa795b2dc1c"},"vehicle_type_id":"4","last_reported":1750921904,"current_range_meters":10800,"station_id":"ce4bhl12rcd13ifvqgf0","pricing_plan_id":"cebpf4jnsgd1na2vs0mg"},{"bike_id":"5bbde9f6-d60d-4243-a8d7-6cf7f35470bb","system_id":"levelo_inurba_marseille","lat":43.22947,"lon":5.35389,"is_reserved":false,"is_disabled":false,"rental_uris":{"android":"levelo://app?vid=5bbde9f6-d60d-4243-a8d7-6cf7f35470bb","ios":"levelo://app?vid=5bbde9f6-d60d-4243-a8d7-6cf7f35470bb"},"vehicle_type_id":"4","last_reported":1750921904,"current_range_meters":10800,"station_id":"cpo3532slgdg3j2ikp40","pricing_plan_id":"cebpf4jnsgd1na2vs0mg"},{"bike_id":"535f9163-17b5-4712-b6b9-756960684778","system_id":"levelo_inurba_marseille","lat":43.330895,"lon":5.40807,"is_reserved":false,"is_disabled":false,"rental_uris":{"android":"levelo://app?vid=535f9163-17b5-4712-b6b9-756960684778","ios":"levelo://app?vid=535f9163-17b5-4712-b6b9-756960684778"},"vehicle_type_id":"4","last_reported":1750921904,"current_range_meters":11200,"station_id":"","pricing_plan_id":"cebpf4jnsgd1na2vs0mg"},{"bike_id":"c2f2b7f5-d8f9-4241-8a0e-96290ffa6698","system_id":"levelo_inurba_marseille","lat":43.30882,"lon":5.37183,"is_reserved":false,"is_disabled":false,"rental_uris":{"android":"levelo://app?vid=c2f2b7f5-d8f9-4241-8a0e-96290ffa6698","ios":"levelo://app?vid=c2f2b7f5-d8f9-4241-8a0e-96290ffa6698"},"vehicle_type_id":"4","last_reported":1750921904,"current_range_meters":11200,"station_id":"ce4bguh2rcd13ifvqckg","pricing_plan_id":"cebpf4jnsgd1na2vs0mg"},{"bike_id":"e5f6dcdd-df66-4b22-941f-11515331f369","system_id":"levelo_inurba_marseille","lat":43.26212,"lon":5.37445,"is_reserved":false,"is_disabled":false,"rental_uris":{"android":"levelo://app?vid=e5f6dcdd-df66-4b22-941f-11515331f369","ios":"levelo://app?vid=e5f6dcdd-df66-4b22-941f-11515331f369"},"vehicle_type_id":"4","last_reported":1750921904,"current_range_meters":11200,"station_id":"ce4bhgp2rcd13ifvqfc0","pricing_plan_id":"cebpf4jnsgd1na2vs0mg"},{"bike_id":"84eb2c4c-3778-4bf9-9997-9c65d6765a5c","system_id":"levelo_inurba_marseille","lat":43.26786,"lon":5.39414,"is_reserved":false,"is_disabled":false,"rental_uris":{"android":"levelo://app?vid=84eb2c4c-3778-4bf9-9997-9c65d6765a5c","ios":"levelo://app?vid=84eb2c4c-3778-4bf9-9997-9c65d6765a5c"},"vehicle_type_id":"4","last_reported":1750921904,"current_range_meters":11200,"station_id":"ce4bhh12rcd13ifvqfg0","pricing_plan_id":"cebpf4jnsgd1na2vs0mg"},{"bike_id":"efabcb35-59bb-4758-8a6c-5665d0efe20c","system_id":"levelo_inurba_marseille","lat":43.23187,"lon":5.35581,"is_reserved":false,"is_disabled":false,"rental_uris":{"android":"levelo://app?vid=efabcb35-59bb-4758-8a6c-5665d0efe20c","ios":"levelo://app?vid=efabcb35-59bb-4758-8a6c-5665d0efe20c"},"vehicle_type_id":"4","last_reported":1750921904,"current_range_meters":11200,"station_id":"ce4bhu92rcd13ifvqi70","pricing_plan_id":"cebpf4jnsgd1na2vs0mg"},{"bike_id":"34bdad71-a3db-4152-b25e-7e14fb5bcd82","system_id":"levelo_inurba_marseille","lat":43.31322,"lon":5.38544,"is_reserved":false,"is_disabled":false,"rental_uris":{"android":"levelo://app?vid=34bdad71-a3db-4152-b25e-7e14fb5bcd82","ios":"levelo://app?vid=34bdad71-a3db-4152-b25e-7e14fb5bcd82"},"vehicle_type_id":"4","last_reported":1750921904,"current_range_meters":11600,"station_id":"","pricing_plan_id":"cebpf4jnsgd1na2vs0mg"},{"bike_id":"95629d15-9eb5-459c-8912-17a55fd3f91c","system_id":"levelo_inurba_marseille","lat":43.25941,"lon":5.40905,"is_reserved":false,"is_disabled":false,"rental_uris":{"android":"levelo://app?vid=95629d15-9eb5-459c-8912-17a55fd3f91c","ios":"levelo://app?vid=95629d15-9eb5-459c-8912-17a55fd3f91c"},"vehicle_type_id":"4","last_reported":1750921904,"current_range_meters":11600,"station_id":"ce4bhm92rcd13ifvqglg","pricing_plan_id":"cebpf4jnsgd1na2vs0mg"},{"bike_id":"6bff5b35-c04f-4610-b434-dcfc99322f1d","system_id":"levelo_inurba_marseille","lat":43.300131,"lon":5.370826,"is_reserved":false,"is_disabled":false,"rental_uris":{"android":"levelo://app?vid=6bff5b35-c04f-4610-b434-dcfc99322f1d","ios":"levelo://app?vid=6bff5b35-c04f-4610-b434-dcfc99322f1d"},"vehicle_type_id":"4","last_reported":1750921904,"current_range_meters":12000,"station_id":"","pricing_plan_id":"cebpf4jnsgd1na2vs0mg"},{"bike_id":"a258b32b-147b-4d25-9188-4f6de201ff54","system_id":"levelo_inurba_marseille","lat":43.30912,"lon":5.36848,"is_reserved":false,"is_disabled":false,"rental_uris":{"android":"levelo://app?vid=a258b32b-147b-4d25-9188-4f6de201ff54","ios":"levelo://app?vid=a258b32b-147b-4d25-9188-4f6de201ff54"},"vehicle_type_id":"4","last_reported":1750921904,"current_range_meters":12000,"station_id":"ce4bgn92rcd13ifvqbvg","pricing_plan_id":"cebpf4jnsgd1na2vs0mg"},{"bike_id":"2aaac66d-2048-4e6b-8269-69dcabecab0c","system_id":"levelo_inurba_marseille","lat":43.29844,"lon":5.36269,"is_reserved":false,"is_disabled":false,"rental_uris":{"android":"levelo://app?vid=2aaac66d-2048-4e6b-8269-69dcabecab0c","ios":"levelo://app?vid=2aaac66d-2048-4e6b-8269-69dcabecab0c"},"vehicle_type_id":"4","last_reported":1750921904,"current_range_meters":12000,"station_id":"ce4bgpp2rcd13ifvqc3g","pricing_plan_id":"cebpf4jnsgd1na2vs0mg"},{"bike_id":"37323779-3e99-4d96-a121-701f1fa0d8cf","system_id":"levelo_inurba_marseille","lat":43.30299,"lon":5.36892,"is_reserved":false,"is_disabled":false,"rental_uris":{"android":"levelo://app?vid=37323779-3e99-4d96-a121-701f1fa0d8cf","ios":"levelo://app?vid=37323779-3e99-4d96-a121-701f1fa0d8cf"},"vehicle_type_id":"4","last_reported":1750921904,"current_range_meters":12000,"station_id":"ce4bgqh2rcd13ifvqc5g","pricing_plan_id":"cebpf4jnsgd1na2vs0mg"},{"bike_id":"e84de95a-f583-4156-9930-14f69f108f4c","system_id":"levelo_inurba_marseille","lat":43.27182,"lon":5.40997,"is_reserved":false,"is_disabled":false,"rental_uris":{"android":"levelo://app?vid=e84de95a-f583-4156-9930-14f69f108f4c","ios":"levelo://app?vid=e84de95a-f583-4156-9930-14f69f108f4c"},"vehicle_type_id":"4","last_reported":1750921904,"current_range_meters":12000,"station_id":"ce4bhl12rcd13ifvqgf0","pricing_plan_id":"cebpf4jnsgd1na2vs0mg"},{"bike_id":"794e5cca-5ca5-4e96-944d-777eb8c8f7da","system_id":"levelo_inurba_marseille","lat":43.2816,"lon":5.42664,"is_reserved":false,"is_disabled":false,"rental_uris":{"android":"levelo://app?vid=794e5cca-5ca5-4e96-944d-777eb8c8f7da","ios":"levelo://app?vid=794e5cca-5ca5-4e96-944d-777eb8c8f7da"},"vehicle_type_id":"4","last_reported":1750921904,"current_range_meters":12000,"station_id":"ce4bhnh2rcd13ifvqgug","pricing_plan_id":"cebpf4jnsgd1na2vs0mg"},{"bike_id":"16cd3084-e6c2-4434-853a-62bba9b4fe34","system_id":"levelo_inurba_marseille","lat":43.24063,"lon":5.37749,"is_reserved":false,"is_disabled":false,"rental_uris":{"android":"levelo://app?vid=16cd3084-e6c2-4434-853a-62bba9b4fe34","ios":"levelo://app?vid=16cd3084-e6c2-4434-853a-62bba9b4fe34"},"vehicle_type_id":"4","last_reported":1750921904,"current_range_meters":12000,"station_id":"ce4bhnp2rcd13ifvqgvg","pricing_plan_id":"cebpf4jnsgd1na2vs0mg"},{"bike_id":"7e31d3d8-634d-4148-91b9-c985475605f1","system_id":"levelo_inurba_marseille","lat":43.31386,"lon":5.36683,"is_reserved":false,"is_disabled":false,"rental_uris":{"android":"levelo://app?vid=7e31d3d8-634d-4148-91b9-c985475605f1","ios":"levelo://app?vid=7e31d3d8-634d-4148-91b9-c985475605f1"},"vehicle_type_id":"4","last_reported":1750921904,"current_range_meters":12400,"station_id":"","pricing_plan_id":"cebpf4jnsgd1na2vs0mg"},{"bike_id":"d412ffb9-5f72-4e8f-bf16-4a168771ad5a","system_id":"levelo_inurba_marseille","lat":43.30177,"lon":5.36598,"is_reserved":false,"is_disabled":false,"rental_uris":{"android":"levelo://app?vid=d412ffb9-5f72-4e8f-bf16-4a168771ad5a","ios":"levelo://app?vid=d412ffb9-5f72-4e8f-bf16-4a168771ad5a"},"vehicle_type_id":"4","last_reported":1750921904,"current_range_meters":12400,"station_id":"ce4bgrh2rcd13ifvqc8g","pricing_plan_id":"cebpf4jnsgd1na2vs0mg"},{"bike_id":"215ae2fd-fdc5-492f-b915-e43cf10f1058","system_id":"levelo_inurba_marseille","lat":43.2594,"lon":5.409,"is_reserved":false,"is_disabled":false,"rental_uris":{"android":"levelo://app?vid=215ae2fd-fdc5-492f-b915-e43cf10f1058","ios":"levelo://app?vid=215ae2fd-fdc5-492f-b915-e43cf10f1058"},"vehicle_type_id":"4","last_reported":1750921904,"current_range_meters":12400,"station_id":"ce4bhm92rcd13ifvqglg","pricing_plan_id":"cebpf4jnsgd1na2vs0mg"},{"bike_id":"a9d25cad-d480-4c75-aec5-3969f1a4e6c7","system_id":"levelo_inurba_marseille","lat":43.32926,"lon":5.39039,"is_reserved":false,"is_disabled":false,"rental_uris":{"android":"levelo://app?vid=a9d25cad-d480-4c75-aec5-3969f1a4e6c7","ios":"levelo://app?vid=a9d25cad-d480-4c75-aec5-3969f1a4e6c7"},"vehicle_type_id":"4","last_reported":1750921904,"current_range_meters":12800,"station_id":"","pricing_plan_id":"cebpf4jnsgd1na2vs0mg"},{"bike_id":"f50a15b1-e553-4c2b-a80a-a32fb1aa3ade","system_id":"levelo_inurba_marseille","lat":43.30909,"lon":5.36848,"is_reserved":false,"is_disabled":false,"rental_uris":{"android":"levelo://app?vid=f50a15b1-e553-4c2b-a80a-a32fb1aa3ade","ios":"levelo://app?vid=f50a15b1-e553-4c2b-a80a-a32fb1aa3ade"},"vehicle_type_id":"4","last_reported":1750921904,"current_range_meters":12800,"station_id":"ce4bgn92rcd13ifvqbvg","pricing_plan_id":"cebpf4jnsgd1na2vs0mg"},{"bike_id":"bc992f80-f81f-4881-ae5c-64037b07c7b5","system_id":"levelo_inurba_marseille","lat":43.29015,"lon":5.38126,"is_reserved":false,"is_disabled":false,"rental_uris":{"android":"levelo://app?vid=bc992f80-f81f-4881-ae5c-64037b07c7b5","ios":"levelo://app?vid=bc992f80-f81f-4881-ae5c-64037b07c7b5"},"vehicle_type_id":"4","last_reported":1750921904,"current_range_meters":12800,"station_id":"ce4bh4p2rcd13ifvqe1g","pricing_plan_id":"cebpf4jnsgd1na2vs0mg"},{"bike_id":"1c04c8f2-65b5-4e43-830b-5b38714243f6","system_id":"levelo_inurba_marseille","lat":43.336057,"lon":5.410223,"is_reserved":false,"is_disabled":false,"rental_uris":{"android":"levelo://app?vid=1c04c8f2-65b5-4e43-830b-5b38714243f6","ios":"levelo://app?vid=1c04c8f2-65b5-4e43-830b-5b38714243f6"},"vehicle_type_id":"4","last_reported":1750921904,"current_range_meters":12800,"station_id":"ce4bhqh2rcd13ifvqhmg","pricing_plan_id":"cebpf4jnsgd1na2vs0mg"},{"bike_id":"a7c5e5dd-6c5d-4a92-9065-ae1b2c5ac1d2","system_id":"levelo_inurba_marseille","lat":43.3229,"lon":5.38267,"is_reserved":false,"is_disabled":false,"rental_uris":{"android":"levelo://app?vid=a7c5e5dd-6c5d-4a92-9065-ae1b2c5ac1d2","ios":"levelo://app?vid=a7c5e5dd-6c5d-4a92-9065-ae1b2c5ac1d2"},"vehicle_type_id":"4","last_reported":1750921904,"current_range_meters":12800,"station_id":"ce4bhr12rcd13ifvqhqg","pricing_plan_id":"cebpf4jnsgd1na2vs0mg"},{"bike_id":"96601034-f1c6-4f3d-b79e-27044d7175f5","system_id":"levelo_inurba_marseille","lat":43.32479,"lon":5.36564,"is_reserved":false,"is_disabled":false,"rental_uris":{"android":"levelo://app?vid=96601034-f1c6-4f3d-b79e-27044d7175f5","ios":"levelo://app?vid=96601034-f1c6-4f3d-b79e-27044d7175f5"},"vehicle_type_id":"4","last_reported":1750921904,"current_range_meters":12800,"station_id":"ce4bhs12rcd13ifvqhvg","pricing_plan_id":"cebpf4jnsgd1na2vs0mg"},{"bike_id":"fe1e536f-d26d-4693-b98d-b56ff09e03eb","system_id":"levelo_inurba_marseille","lat":43.32191,"lon":5.36538,"is_reserved":false,"is_disabled":false,"rental_uris":{"android":"levelo://app?vid=fe1e536f-d26d-4693-b98d-b56ff09e03eb","ios":"levelo://app?vid=fe1e536f-d26d-4693-b98d-b56ff09e03eb"},"vehicle_type_id":"4","last_reported":1750921904,"current_range_meters":12800,"station_id":"ce4bhsh2rcd13ifvqi2g","pricing_plan_id":"cebpf4jnsgd1na2vs0mg"},{"bike_id":"f47876d7-9c85-474e-92c5-7a242e08b67c","system_id":"levelo_inurba_marseille","lat":43.30573,"lon":5.3758,"is_reserved":false,"is_disabled":false,"rental_uris":{"android":"levelo://app?vid=f47876d7-9c85-474e-92c5-7a242e08b67c","ios":"levelo://app?vid=f47876d7-9c85-474e-92c5-7a242e08b67c"},"vehicle_type_id":"4","last_reported":1750921904,"current_range_meters":13600,"station_id":"","pricing_plan_id":"cebpf4jnsgd1na2vs0mg"},{"bike_id":"3830a747-f289-4bfc-8fd9-4836072b4c81","system_id":"levelo_inurba_marseille","lat":43.30944,"lon":5.36841,"is_reserved":false,"is_disabled":false,"rental_uris":{"android":"levelo://app?vid=3830a747-f289-4bfc-8fd9-4836072b4c81","ios":"levelo://app?vid=3830a747-f289-4bfc-8fd9-4836072b4c81"},"vehicle_type_id":"4","last_reported":1750921904,"current_range_meters":13600,"station_id":"ce4bgn92rcd13ifvqbvg","pricing_plan_id":"cebpf4jnsgd1na2vs0mg"},{"bike_id":"a7dc5e4a-c17d-44c5-b080-5616a831df99","system_id":"levelo_inurba_marseille","lat":43.30557,"lon":5.36561,"is_reserved":false,"is_disabled":false,"rental_uris":{"android":"levelo://app?vid=a7dc5e4a-c17d-44c5-b080-5616a831df99","ios":"levelo://app?vid=a7dc5e4a-c17d-44c5-b080-5616a831df99"},"vehicle_type_id":"4","last_reported":1750921904,"current_range_meters":13600,"station_id":"ce4bgs12rcd13ifvqcag","pricing_plan_id":"cebpf4jnsgd1na2vs0mg"},{"bike_id":"0253af83-4eae-4919-bb3f-fc2b596c2ee7","system_id":"levelo_inurba_marseille","lat":43.30144,"lon":5.37422,"is_reserved":false,"is_disabled":false,"rental_uris":{"android":"levelo://app?vid=0253af83-4eae-4919-bb3f-fc2b596c2ee7","ios":"levelo://app?vid=0253af83-4eae-4919-bb3f-fc2b596c2ee7"},"vehicle_type_id":"4","last_reported":1750921904,"current_range_meters":13600,"station_id":"ce4bgs92rcd13ifvqcc0","pricing_plan_id":"cebpf4jnsgd1na2vs0mg"},{"bike_id":"72b229b8-876e-44c3-8d0b-2ebb88184ed2","system_id":"levelo_inurba_marseille","lat":43.30475,"lon":5.37901,"is_reserved":false,"is_disabled":false,"rental_uris":{"android":"levelo://app?vid=72b229b8-876e-44c3-8d0b-2ebb88184ed2","ios":"levelo://app?vid=72b229b8-876e-44c3-8d0b-2ebb88184ed2"},"vehicle_type_id":"4","last_reported":1750921904,"current_range_meters":13600,"station_id":"ce4bgup2rcd13ifvqcn0","pricing_plan_id":"cebpf4jnsgd1na2vs0mg"},{"bike_id":"b86d9421-1422-4779-93c8-f085e9627bf5","system_id":"levelo_inurba_marseille","lat":43.30789,"lon":5.37645,"is_reserved":false,"is_disabled":false,"rental_uris":{"android":"levelo://app?vid=b86d9421-1422-4779-93c8-f085e9627bf5","ios":"levelo://app?vid=b86d9421-1422-4779-93c8-f085e9627bf5"},"vehicle_type_id":"4","last_reported":1750921904,"current_range_meters":13600,"station_id":"ce4bgv92rcd13ifvqcq0","pricing_plan_id":"cebpf4jnsgd1na2vs0mg"},{"bike_id":"80fa5ea1-5800-40ab-956a-e09775109196","system_id":"levelo_inurba_marseille","lat":43.24391,"lon":5.37059,"is_reserved":false,"is_disabled":false,"rental_uris":{"android":"levelo://app?vid=80fa5ea1-5800-40ab-956a-e09775109196","ios":"levelo://app?vid=80fa5ea1-5800-40ab-956a-e09775109196"},"vehicle_type_id":"4","last_reported":1750921904,"current_range_meters":13600,"station_id":"ce4bhhh2rcd13ifvqfk0","pricing_plan_id":"cebpf4jnsgd1na2vs0mg"},{"bike_id":"f4793e0b-4d35-43cd-bcb7-0e5fb280025c","system_id":"levelo_inurba_marseille","lat":43.33721,"lon":5.39189,"is_reserved":false,"is_disabled":false,"rental_uris":{"android":"levelo://app?vid=f4793e0b-4d35-43cd-bcb7-0e5fb280025c","ios":"levelo://app?vid=f4793e0b-4d35-43cd-bcb7-0e5fb280025c"},"vehicle_type_id":"4","last_reported":1750921904,"current_range_meters":13600,"station_id":"ce4bhr92rcd13ifvqhsg","pricing_plan_id":"cebpf4jnsgd1na2vs0mg"},{"bike_id":"15b2721a-3664-49e1-9877-261c08daeef5","system_id":"levelo_inurba_marseille","lat":43.21214,"lon":5.35047,"is_reserved":false,"is_disabled":false,"rental_uris":{"android":"levelo://app?vid=15b2721a-3664-49e1-9877-261c08daeef5","ios":"levelo://app?vid=15b2721a-3664-49e1-9877-261c08daeef5"},"vehicle_type_id":"4","last_reported":1750921904,"current_range_meters":14000,"station_id":"","pricing_plan_id":"cebpf4jnsgd1na2vs0mg"},{"bike_id":"de0f7c2b-5974-4035-a240-8ed367c0e3f3","system_id":"levelo_inurba_marseille","lat":43.31965,"lon":5.37633,"is_reserved":false,"is_disabled":false,"rental_uris":{"android":"levelo://app?vid=de0f7c2b-5974-4035-a240-8ed367c0e3f3","ios":"levelo://app?vid=de0f7c2b-5974-4035-a240-8ed367c0e3f3"},"vehicle_type_id":"4","last_reported":1750921904,"current_range_meters":14000,"station_id":"","pricing_plan_id":"cebpf4jnsgd1na2vs0mg"},{"bike_id":"6f6fb612-773b-4b2f-974a-ee0b0466c483","system_id":"levelo_inurba_marseille","lat":43.3054,"lon":5.36708,"is_reserved":false,"is_disabled":false,"rental_uris":{"android":"levelo://app?vid=6f6fb612-773b-4b2f-974a-ee0b0466c483","ios":"levelo://app?vid=6f6fb612-773b-4b2f-974a-ee0b0466c483"},"vehicle_type_id":"4","last_reported":1750921904,"current_range_meters":14000,"station_id":"ce4bgrp2rcd13ifvqc9g","pricing_plan_id":"cebpf4jnsgd1na2vs0mg"},{"bike_id":"a1a457d0-67eb-46c3-806a-bb3b4737ba98","system_id":"levelo_inurba_marseille","lat":43.30553,"lon":5.36547,"is_reserved":false,"is_disabled":false,"rental_uris":{"android":"levelo://app?vid=a1a457d0-67eb-46c3-806a-bb3b4737ba98","ios":"levelo://app?vid=a1a457d0-67eb-46c3-806a-bb3b4737ba98"},"vehicle_type_id":"4","last_reported":1750921904,"current_range_meters":14000,"station_id":"ce4bgs12rcd13ifvqcag","pricing_plan_id":"cebpf4jnsgd1na2vs0mg"},{"bike_id":"36b51f0b-50a6-41f3-a111-5a98d973d392","system_id":"levelo_inurba_marseille","lat":43.29533,"lon":5.39048,"is_reserved":false,"is_disabled":false,"rental_uris":{"android":"levelo://app?vid=36b51f0b-50a6-41f3-a111-5a98d973d392","ios":"levelo://app?vid=36b51f0b-50a6-41f3-a111-5a98d973d392"},"vehicle_type_id":"4","last_reported":1750921904,"current_range_meters":14000,"station_id":"ce4bh3p2rcd13ifvqdp0","pricing_plan_id":"cebpf4jnsgd1na2vs0mg"},{"bike_id":"a9b6c532-9383-4cf0-b871-0e3f2af47aba","system_id":"levelo_inurba_marseille","lat":43.257179,"lon":5.411216,"is_reserved":false,"is_disabled":false,"rental_uris":{"android":"levelo://app?vid=a9b6c532-9383-4cf0-b871-0e3f2af47aba","ios":"levelo://app?vid=a9b6c532-9383-4cf0-b871-0e3f2af47aba"},"vehicle_type_id":"4","last_reported":1750921904,"current_range_meters":14000,"station_id":"ce4bhkp2rcd13ifvqgd0","pricing_plan_id":"cebpf4jnsgd1na2vs0mg"},{"bike_id":"8c8f5a01-763f-486c-b741-1df1d9420c13","system_id":"levelo_inurba_marseille","lat":43.258647,"lon":5.409981,"is_reserved":false,"is_disabled":false,"rental_uris":{"android":"levelo://app?vid=8c8f5a01-763f-486c-b741-1df1d9420c13","ios":"levelo://app?vid=8c8f5a01-763f-486c-b741-1df1d9420c13"},"vehicle_type_id":"4","last_reported":1750921904,"current_range_meters":14000,"station_id":"ce4bhm92rcd13ifvqglg","pricing_plan_id":"cebpf4jnsgd1na2vs0mg"},{"bike_id":"f1ff4f78-6d1b-435f-8777-a24085f5b111","system_id":"levelo_inurba_marseille","lat":43.23193,"lon":5.35558,"is_reserved":false,"is_disabled":false,"rental_uris":{"android":"levelo://app?vid=f1ff4f78-6d1b-435f-8777-a24085f5b111","ios":"levelo://app?vid=f1ff4f78-6d1b-435f-8777-a24085f5b111"},"vehicle_type_id":"4","last_reported":1750921904,"current_range_meters":14000,"station_id":"ce4bhu92rcd13ifvqi70","pricing_plan_id":"cebpf4jnsgd1na2vs0mg"},{"bike_id":"aa110925-a028-4a17-80d8-0d95a3fb2b1e","system_id":"levelo_inurba_marseille","lat":43.29977,"lon":5.37173,"is_reserved":false,"is_disabled":false,"rental_uris":{"android":"levelo://app?vid=aa110925-a028-4a17-80d8-0d95a3fb2b1e","ios":"levelo://app?vid=aa110925-a028-4a17-80d8-0d95a3fb2b1e"},"vehicle_type_id":"4","last_reported":1750921904,"current_range_meters":14400,"station_id":"ce4bgr92rcd13ifvqc7g","pricing_plan_id":"cebpf4jnsgd1na2vs0mg"},{"bike_id":"0f9c7b77-d557-4f89-983e-8945e27ff5e5","system_id":"levelo_inurba_marseille","lat":43.30546,"lon":5.36714,"is_reserved":false,"is_disabled":false,"rental_uris":{"android":"levelo://app?vid=0f9c7b77-d557-4f89-983e-8945e27ff5e5","ios":"levelo://app?vid=0f9c7b77-d557-4f89-983e-8945e27ff5e5"},"vehicle_type_id":"4","last_reported":1750921904,"current_range_meters":14400,"station_id":"ce4bgrp2rcd13ifvqc9g","pricing_plan_id":"cebpf4jnsgd1na2vs0mg"},{"bike_id":"70a87e8b-7ad1-4bdf-b181-5e2fc38709cd","system_id":"levelo_inurba_marseille","lat":43.298967,"lon":5.436743,"is_reserved":false,"is_disabled":false,"rental_uris":{"android":"levelo://app?vid=70a87e8b-7ad1-4bdf-b181-5e2fc38709cd","ios":"levelo://app?vid=70a87e8b-7ad1-4bdf-b181-5e2fc38709cd"},"vehicle_type_id":"4","last_reported":1750921904,"current_range_meters":14400,"station_id":"ce4bhpp2rcd13ifvqhfg","pricing_plan_id":"cebpf4jnsgd1na2vs0mg"},{"bike_id":"7f212f1e-9b22-4ad3-88bb-18d999719345","system_id":"levelo_inurba_marseille","lat":43.21222,"lon":5.35071,"is_reserved":false,"is_disabled":false,"rental_uris":{"android":"levelo://app?vid=7f212f1e-9b22-4ad3-88bb-18d999719345","ios":"levelo://app?vid=7f212f1e-9b22-4ad3-88bb-18d999719345"},"vehicle_type_id":"4","last_reported":1750921904,"current_range_meters":14400,"station_id":"st_cvj6sg6p6f1abm77japg","pricing_plan_id":"cebpf4jnsgd1na2vs0mg"},{"bike_id":"744f6839-0210-4cc9-8160-f4510777de07","system_id":"levelo_inurba_marseille","lat":43.26943,"lon":5.40268,"is_reserved":false,"is_disabled":false,"rental_uris":{"android":"levelo://app?vid=744f6839-0210-4cc9-8160-f4510777de07","ios":"levelo://app?vid=744f6839-0210-4cc9-8160-f4510777de07"},"vehicle_type_id":"4","last_reported":1750921904,"current_range_meters":14800,"station_id":"","pricing_plan_id":"cebpf4jnsgd1na2vs0mg"},{"bike_id":"7180d00a-ade1-4bc6-8671-df1a583048f9","system_id":"levelo_inurba_marseille","lat":43.25942,"lon":5.40903,"is_reserved":false,"is_disabled":false,"rental_uris":{"android":"levelo://app?vid=7180d00a-ade1-4bc6-8671-df1a583048f9","ios":"levelo://app?vid=7180d00a-ade1-4bc6-8671-df1a583048f9"},"vehicle_type_id":"4","last_reported":1750921904,"current_range_meters":14800,"station_id":"ce4bhm92rcd13ifvqglg","pricing_plan_id":"cebpf4jnsgd1na2vs0mg"},{"bike_id":"cce0ea9f-1e2a-4a69-ac7b-9c10ee9fc956","system_id":"levelo_inurba_marseille","lat":43.23157,"lon":5.43705,"is_reserved":false,"is_disabled":false,"rental_uris":{"android":"levelo://app?vid=cce0ea9f-1e2a-4a69-ac7b-9c10ee9fc956","ios":"levelo://app?vid=cce0ea9f-1e2a-4a69-ac7b-9c10ee9fc956"},"vehicle_type_id":"4","last_reported":1750921904,"current_range_meters":14800,"station_id":"ce4bhmp2rcd13ifvqgog","pricing_plan_id":"cebpf4jnsgd1na2vs0mg"},{"bike_id":"ba659bb1-62bf-4d63-9772-afa7bcd461d3","system_id":"levelo_inurba_marseille","lat":43.27811,"lon":5.40713,"is_reserved":false,"is_disabled":false,"rental_uris":{"android":"levelo://app?vid=ba659bb1-62bf-4d63-9772-afa7bcd461d3","ios":"levelo://app?vid=ba659bb1-62bf-4d63-9772-afa7bcd461d3"},"vehicle_type_id":"4","last_reported":1750921904,"current_range_meters":14800,"station_id":"ce4bhnh2rcd13ifvqgtg","pricing_plan_id":"cebpf4jnsgd1na2vs0mg"},{"bike_id":"4b8da722-ee9e-48a4-a5e5-3a8a10364708","system_id":"levelo_inurba_marseille","lat":43.312254,"lon":5.378263,"is_reserved":false,"is_disabled":false,"rental_uris":{"android":"levelo://app?vid=4b8da722-ee9e-48a4-a5e5-3a8a10364708","ios":"levelo://app?vid=4b8da722-ee9e-48a4-a5e5-3a8a10364708"},"vehicle_type_id":"4","last_reported":1750921904,"current_range_meters":15200,"station_id":"","pricing_plan_id":"cebpf4jnsgd1na2vs0mg"},{"bike_id":"d4d1f3e6-201e-4374-87b9-f5c9bdbc0e65","system_id":"levelo_inurba_marseille","lat":43.3248,"lon":5.36563,"is_reserved":false,"is_disabled":false,"rental_uris":{"android":"levelo://app?vid=d4d1f3e6-201e-4374-87b9-f5c9bdbc0e65","ios":"levelo://app?vid=d4d1f3e6-201e-4374-87b9-f5c9bdbc0e65"},"vehicle_type_id":"4","last_reported":1750921904,"current_range_meters":15200,"station_id":"ce4bhs12rcd13ifvqhvg","pricing_plan_id":"cebpf4jnsgd1na2vs0mg"},{"bike_id":"ee26e564-93e6-4bc1-9449-798531d0965f","system_id":"levelo_inurba_marseille","lat":43.32484,"lon":5.36569,"is_reserved":false,"is_disabled":false,"rental_uris":{"android":"levelo://app?vid=ee26e564-93e6-4bc1-9449-798531d0965f","ios":"levelo://app?vid=ee26e564-93e6-4bc1-9449-798531d0965f"},"vehicle_type_id":"4","last_reported":1750921904,"current_range_meters":15200,"station_id":"ce4bhs12rcd13ifvqhvg","pricing_plan_id":"cebpf4jnsgd1na2vs0mg"},{"bike_id":"c34bd242-1e9d-438d-af31-8772dd1596a9","system_id":"levelo_inurba_marseille","lat":43.304612,"lon":5.379055,"is_reserved":false,"is_disabled":false,"rental_uris":{"android":"levelo://app?vid=c34bd242-1e9d-438d-af31-8772dd1596a9","ios":"levelo://app?vid=c34bd242-1e9d-438d-af31-8772dd1596a9"},"vehicle_type_id":"4","last_reported":1750921904,"current_range_meters":16000,"station_id":"ce4bgup2rcd13ifvqcn0","pricing_plan_id":"cebpf4jnsgd1na2vs0mg"},{"bike_id":"56501e50-bb2a-417a-8ef7-8a0b51513e67","system_id":"levelo_inurba_marseille","lat":43.25942,"lon":5.40903,"is_reserved":false,"is_disabled":false,"rental_uris":{"android":"levelo://app?vid=56501e50-bb2a-417a-8ef7-8a0b51513e67","ios":"levelo://app?vid=56501e50-bb2a-417a-8ef7-8a0b51513e67"},"vehicle_type_id":"4","last_reported":1750921904,"current_range_meters":16000,"station_id":"ce4bhm92rcd13ifvqglg","pricing_plan_id":"cebpf4jnsgd1na2vs0mg"},{"bike_id":"61f9ff12-7ba6-4baf-b3a2-b55c3c50bd3c","system_id":"levelo_inurba_marseille","lat":43.27812,"lon":5.40702,"is_reserved":false,"is_disabled":false,"rental_uris":{"android":"levelo://app?vid=61f9ff12-7ba6-4baf-b3a2-b55c3c50bd3c","ios":"levelo://app?vid=61f9ff12-7ba6-4baf-b3a2-b55c3c50bd3c"},"vehicle_type_id":"4","last_reported":1750921904,"current_range_meters":16000,"station_id":"ce4bhnh2rcd13ifvqgtg","pricing_plan_id":"cebpf4jnsgd1na2vs0mg"},{"bike_id":"931d2ada-c832-412c-8030-f51f5ff9f88c","system_id":"levelo_inurba_marseille","lat":43.28156,"lon":5.42651,"is_reserved":false,"is_disabled":false,"rental_uris":{"android":"levelo://app?vid=931d2ada-c832-412c-8030-f51f5ff9f88c","ios":"levelo://app?vid=931d2ada-c832-412c-8030-f51f5ff9f88c"},"vehicle_type_id":"4","last_reported":1750921904,"current_range_meters":16000,"station_id":"ce4bhnh2rcd13ifvqgug","pricing_plan_id":"cebpf4jnsgd1na2vs0mg"},{"bike_id":"b935579a-e9d3-4ccf-a111-a22b8dbf997d","system_id":"levelo_inurba_marseille","lat":43.21197,"lon":5.35069,"is_reserved":false,"is_disabled":false,"rental_uris":{"android":"levelo://app?vid=b935579a-e9d3-4ccf-a111-a22b8dbf997d","ios":"levelo://app?vid=b935579a-e9d3-4ccf-a111-a22b8dbf997d"},"vehicle_type_id":"4","last_reported":1750921904,"current_range_meters":16000,"station_id":"st_cvj6sg6p6f1abm77japg","pricing_plan_id":"cebpf4jnsgd1na2vs0mg"},{"bike_id":"86ebd8a7-7d30-43b6-953e-6107b0f77710","system_id":"levelo_inurba_marseille","lat":43.3344,"lon":5.4006,"is_reserved":false,"is_disabled":false,"rental_uris":{"android":"levelo://app?vid=86ebd8a7-7d30-43b6-953e-6107b0f77710","ios":"levelo://app?vid=86ebd8a7-7d30-43b6-953e-6107b0f77710"},"vehicle_type_id":"4","last_reported":1750921904,"current_range_meters":16400,"station_id":"","pricing_plan_id":"cebpf4jnsgd1na2vs0mg"},{"bike_id":"0c31341c-6e80-46ca-97ac-276813077a88","system_id":"levelo_inurba_marseille","lat":43.290486,"lon":5.3996,"is_reserved":false,"is_disabled":false,"rental_uris":{"android":"levelo://app?vid=0c31341c-6e80-46ca-97ac-276813077a88","ios":"levelo://app?vid=0c31341c-6e80-46ca-97ac-276813077a88"},"vehicle_type_id":"4","last_reported":1750921904,"current_range_meters":16400,"station_id":"ce4bh392rcd13ifvqdm0","pricing_plan_id":"cebpf4jnsgd1na2vs0mg"},{"bike_id":"b3473011-54b6-414a-af64-becde9e04ace","system_id":"levelo_inurba_marseille","lat":43.24674,"lon":5.38177,"is_reserved":false,"is_disabled":false,"rental_uris":{"android":"levelo://app?vid=b3473011-54b6-414a-af64-becde9e04ace","ios":"levelo://app?vid=b3473011-54b6-414a-af64-becde9e04ace"},"vehicle_type_id":"4","last_reported":1750921904,"current_range_meters":16400,"station_id":"ce4bhih2rcd13ifvqfr0","pricing_plan_id":"cebpf4jnsgd1na2vs0mg"},{"bike_id":"f8eaa6d1-970e-408b-879b-fda783310edd","system_id":"levelo_inurba_marseille","lat":43.24178,"lon":5.39734,"is_reserved":false,"is_disabled":false,"rental_uris":{"android":"levelo://app?vid=f8eaa6d1-970e-408b-879b-fda783310edd","ios":"levelo://app?vid=f8eaa6d1-970e-408b-879b-fda783310edd"},"vehicle_type_id":"4","last_reported":1750921904,"current_range_meters":16400,"station_id":"ce4bhn12rcd13ifvqgpg","pricing_plan_id":"cebpf4jnsgd1na2vs0mg"},{"bike_id":"6b0e986f-2a52-44b5-8068-303b5440c988","system_id":"levelo_inurba_marseille","lat":43.3303,"lon":5.39039,"is_reserved":false,"is_disabled":false,"rental_uris":{"android":"levelo://app?vid=6b0e986f-2a52-44b5-8068-303b5440c988","ios":"levelo://app?vid=6b0e986f-2a52-44b5-8068-303b5440c988"},"vehicle_type_id":"4","last_reported":1750921904,"current_range_meters":16400,"station_id":"ce4bhr92rcd13ifvqhrg","pricing_plan_id":"cebpf4jnsgd1na2vs0mg"},{"bike_id":"1f1d8b91-a484-421d-b7c9-25452bd4d8b1","system_id":"levelo_inurba_marseille","lat":43.292,"lon":5.3934,"is_reserved":false,"is_disabled":false,"rental_uris":{"android":"levelo://app?vid=1f1d8b91-a484-421d-b7c9-25452bd4d8b1","ios":"levelo://app?vid=1f1d8b91-a484-421d-b7c9-25452bd4d8b1"},"vehicle_type_id":"4","last_reported":1750921904,"current_range_meters":16800,"station_id":"ce4bh192rcd13ifvqdd0","pricing_plan_id":"cebpf4jnsgd1na2vs0mg"},{"bike_id":"1d55f66e-dd62-48de-89a1-6b40fd865f1e","system_id":"levelo_inurba_marseille","lat":43.26193,"lon":5.37449,"is_reserved":false,"is_disabled":false,"rental_uris":{"android":"levelo://app?vid=1d55f66e-dd62-48de-89a1-6b40fd865f1e","ios":"levelo://app?vid=1d55f66e-dd62-48de-89a1-6b40fd865f1e"},"vehicle_type_id":"4","last_reported":1750921904,"current_range_meters":16800,"station_id":"ce4bhgp2rcd13ifvqfc0","pricing_plan_id":"cebpf4jnsgd1na2vs0mg"},{"bike_id":"ba542341-99d6-4671-ad91-0601a0f66de4","system_id":"levelo_inurba_marseille","lat":43.32499,"lon":5.36562,"is_reserved":false,"is_disabled":false,"rental_uris":{"android":"levelo://app?vid=ba542341-99d6-4671-ad91-0601a0f66de4","ios":"levelo://app?vid=ba542341-99d6-4671-ad91-0601a0f66de4"},"vehicle_type_id":"4","last_reported":1750921904,"current_range_meters":16800,"station_id":"ce4bhs12rcd13ifvqhvg","pricing_plan_id":"cebpf4jnsgd1na2vs0mg"},{"bike_id":"7955c207-4f12-4121-b9a1-09bcb47367b2","system_id":"levelo_inurba_marseille","lat":43.28461,"lon":5.45967,"is_reserved":false,"is_disabled":false,"rental_uris":{"android":"levelo://app?vid=7955c207-4f12-4121-b9a1-09bcb47367b2","ios":"levelo://app?vid=7955c207-4f12-4121-b9a1-09bcb47367b2"},"vehicle_type_id":"4","last_reported":1750921904,"current_range_meters":17200,"station_id":"","pricing_plan_id":"cebpf4jnsgd1na2vs0mg"},{"bike_id":"61733a3a-11b7-4473-a315-9fc6f68f8b5d","system_id":"levelo_inurba_marseille","lat":43.30205,"lon":5.36668,"is_reserved":false,"is_disabled":false,"rental_uris":{"android":"levelo://app?vid=61733a3a-11b7-4473-a315-9fc6f68f8b5d","ios":"levelo://app?vid=61733a3a-11b7-4473-a315-9fc6f68f8b5d"},"vehicle_type_id":"4","last_reported":1750921904,"current_range_meters":17200,"station_id":"ce4bgrh2rcd13ifvqc8g","pricing_plan_id":"cebpf4jnsgd1na2vs0mg"},{"bike_id":"c387f142-fc5c-4751-9904-e7581e09b9ba","system_id":"levelo_inurba_marseille","lat":43.30946,"lon":5.39045,"is_reserved":false,"is_disabled":false,"rental_uris":{"android":"levelo://app?vid=c387f142-fc5c-4751-9904-e7581e09b9ba","ios":"levelo://app?vid=c387f142-fc5c-4751-9904-e7581e09b9ba"},"vehicle_type_id":"4","last_reported":1750921904,"current_range_meters":17200,"station_id":"ce4bgup2rcd13ifvqco0","pricing_plan_id":"cebpf4jnsgd1na2vs0mg"},{"bike_id":"b92be2bf-8d97-46d0-b555-ebbcc87b16ae","system_id":"levelo_inurba_marseille","lat":43.24998,"lon":5.38933,"is_reserved":false,"is_disabled":false,"rental_uris":{"android":"levelo://app?vid=b92be2bf-8d97-46d0-b555-ebbcc87b16ae","ios":"levelo://app?vid=b92be2bf-8d97-46d0-b555-ebbcc87b16ae"},"vehicle_type_id":"4","last_reported":1750921904,"current_range_meters":17200,"station_id":"ce4bhgp2rcd13ifvqfd0","pricing_plan_id":"cebpf4jnsgd1na2vs0mg"},{"bike_id":"5c84c4b7-c651-42ee-b3b7-b6098e101096","system_id":"levelo_inurba_marseille","lat":43.33719,"lon":5.3919,"is_reserved":false,"is_disabled":false,"rental_uris":{"android":"levelo://app?vid=5c84c4b7-c651-42ee-b3b7-b6098e101096","ios":"levelo://app?vid=5c84c4b7-c651-42ee-b3b7-b6098e101096"},"vehicle_type_id":"4","last_reported":1750921904,"current_range_meters":17200,"station_id":"ce4bhr92rcd13ifvqhsg","pricing_plan_id":"cebpf4jnsgd1na2vs0mg"},{"bike_id":"1a500985-c816-4d83-a038-4a629f10a813","system_id":"levelo_inurba_marseille","lat":43.21198,"lon":5.35066,"is_reserved":false,"is_disabled":false,"rental_uris":{"android":"levelo://app?vid=1a500985-c816-4d83-a038-4a629f10a813","ios":"levelo://app?vid=1a500985-c816-4d83-a038-4a629f10a813"},"vehicle_type_id":"4","last_reported":1750921904,"current_range_meters":17200,"station_id":"st_cvj6sg6p6f1abm77japg","pricing_plan_id":"cebpf4jnsgd1na2vs0mg"},{"bike_id":"30282e35-58f3-4424-ab1c-f2070bb69ba1","system_id":"levelo_inurba_marseille","lat":43.30509,"lon":5.37901,"is_reserved":false,"is_disabled":false,"rental_uris":{"android":"levelo://app?vid=30282e35-58f3-4424-ab1c-f2070bb69ba1","ios":"levelo://app?vid=30282e35-58f3-4424-ab1c-f2070bb69ba1"},"vehicle_type_id":"4","last_reported":1750921904,"current_range_meters":17600,"station_id":"ce4bgup2rcd13ifvqcn0","pricing_plan_id":"cebpf4jnsgd1na2vs0mg"},{"bike_id":"2ad8c985-d1ec-4ce0-85b0-a2f74863b534","system_id":"levelo_inurba_marseille","lat":43.26216,"lon":5.3744,"is_reserved":false,"is_disabled":false,"rental_uris":{"android":"levelo://app?vid=2ad8c985-d1ec-4ce0-85b0-a2f74863b534","ios":"levelo://app?vid=2ad8c985-d1ec-4ce0-85b0-a2f74863b534"},"vehicle_type_id":"4","last_reported":1750921904,"current_range_meters":17600,"station_id":"ce4bhgp2rcd13ifvqfc0","pricing_plan_id":"cebpf4jnsgd1na2vs0mg"},{"bike_id":"6cafc292-a309-40a4-ad1b-407e42956824","system_id":"levelo_inurba_marseille","lat":43.25721,"lon":5.41109,"is_reserved":false,"is_disabled":false,"rental_uris":{"android":"levelo://app?vid=6cafc292-a309-40a4-ad1b-407e42956824","ios":"levelo://app?vid=6cafc292-a309-40a4-ad1b-407e42956824"},"vehicle_type_id":"4","last_reported":1750921904,"current_range_meters":17600,"station_id":"ce4bhkp2rcd13ifvqgd0","pricing_plan_id":"cebpf4jnsgd1na2vs0mg"},{"bike_id":"5fe678bd-3629-46c5-a9db-d38b09bed36f","system_id":"levelo_inurba_marseille","lat":43.28159,"lon":5.42639,"is_reserved":false,"is_disabled":false,"rental_uris":{"android":"levelo://app?vid=5fe678bd-3629-46c5-a9db-d38b09bed36f","ios":"levelo://app?vid=5fe678bd-3629-46c5-a9db-d38b09bed36f"},"vehicle_type_id":"4","last_reported":1750921904,"current_range_meters":17600,"station_id":"ce4bhnh2rcd13ifvqgug","pricing_plan_id":"cebpf4jnsgd1na2vs0mg"},{"bike_id":"4be75b9a-cfcf-42ba-98a3-406d04e216b1","system_id":"levelo_inurba_marseille","lat":43.32347,"lon":5.40625,"is_reserved":false,"is_disabled":false,"rental_uris":{"android":"levelo://app?vid=4be75b9a-cfcf-42ba-98a3-406d04e216b1","ios":"levelo://app?vid=4be75b9a-cfcf-42ba-98a3-406d04e216b1"},"vehicle_type_id":"4","last_reported":1750921904,"current_range_meters":17600,"station_id":"ce4bhq92rcd13ifvqhjg","pricing_plan_id":"cebpf4jnsgd1na2vs0mg"},{"bike_id":"947dc9b7-582d-4291-b15d-21c992bdbcf8","system_id":"levelo_inurba_marseille","lat":43.32132,"lon":5.36787,"is_reserved":false,"is_disabled":false,"rental_uris":{"android":"levelo://app?vid=947dc9b7-582d-4291-b15d-21c992bdbcf8","ios":"levelo://app?vid=947dc9b7-582d-4291-b15d-21c992bdbcf8"},"vehicle_type_id":"4","last_reported":1750921904,"current_range_meters":17600,"station_id":"ce4bhrh2rcd13ifvqhug","pricing_plan_id":"cebpf4jnsgd1na2vs0mg"},{"bike_id":"8ca64623-dcaa-4c4d-b2dd-469679d10386","system_id":"levelo_inurba_marseille","lat":43.23197,"lon":5.35564,"is_reserved":false,"is_disabled":false,"rental_uris":{"android":"levelo://app?vid=8ca64623-dcaa-4c4d-b2dd-469679d10386","ios":"levelo://app?vid=8ca64623-dcaa-4c4d-b2dd-469679d10386"},"vehicle_type_id":"4","last_reported":1750921904,"current_range_meters":17600,"station_id":"ce4bhu92rcd13ifvqi70","pricing_plan_id":"cebpf4jnsgd1na2vs0mg"},{"bike_id":"2071ff3f-536a-4747-9e50-d85d0e60def3","system_id":"levelo_inurba_marseille","lat":43.21193,"lon":5.35081,"is_reserved":false,"is_disabled":false,"rental_uris":{"android":"levelo://app?vid=2071ff3f-536a-4747-9e50-d85d0e60def3","ios":"levelo://app?vid=2071ff3f-536a-4747-9e50-d85d0e60def3"},"vehicle_type_id":"4","last_reported":1750921904,"current_range_meters":17600,"station_id":"st_cvj6sg6p6f1abm77japg","pricing_plan_id":"cebpf4jnsgd1na2vs0mg"},{"bike_id":"8a786c4c-a823-4986-8500-bebe149bd82e","system_id":"levelo_inurba_marseille","lat":43.292755,"lon":5.368308,"is_reserved":false,"is_disabled":false,"rental_uris":{"android":"levelo://app?vid=8a786c4c-a823-4986-8500-bebe149bd82e","ios":"levelo://app?vid=8a786c4c-a823-4986-8500-bebe149bd82e"},"vehicle_type_id":"4","last_reported":1750921904,"current_range_meters":18000,"station_id":"","pricing_plan_id":"cebpf4jnsgd1na2vs0mg"},{"bike_id":"348936c8-7c8d-4b8a-988e-b0a979920804","system_id":"levelo_inurba_marseille","lat":43.21203,"lon":5.35064,"is_reserved":false,"is_disabled":false,"rental_uris":{"android":"levelo://app?vid=348936c8-7c8d-4b8a-988e-b0a979920804","ios":"levelo://app?vid=348936c8-7c8d-4b8a-988e-b0a979920804"},"vehicle_type_id":"4","last_reported":1750921904,"current_range_meters":18000,"station_id":"","pricing_plan_id":"cebpf4jnsgd1na2vs0mg"},{"bike_id":"b0913637-65e5-4f48-924e-35ef873f8c32","system_id":"levelo_inurba_marseille","lat":43.311462,"lon":5.382871,"is_reserved":false,"is_disabled":false,"rental_uris":{"android":"levelo://app?vid=b0913637-65e5-4f48-924e-35ef873f8c32","ios":"levelo://app?vid=b0913637-65e5-4f48-924e-35ef873f8c32"},"vehicle_type_id":"4","last_reported":1750921904,"current_range_meters":18000,"station_id":"","pricing_plan_id":"cebpf4jnsgd1na2vs0mg"},{"bike_id":"ff62e810-5061-49ef-9b61-095fcb8b1416","system_id":"levelo_inurba_marseille","lat":43.30278,"lon":5.37702,"is_reserved":false,"is_disabled":false,"rental_uris":{"android":"levelo://app?vid=ff62e810-5061-49ef-9b61-095fcb8b1416","ios":"levelo://app?vid=ff62e810-5061-49ef-9b61-095fcb8b1416"},"vehicle_type_id":"4","last_reported":1750921904,"current_range_meters":18000,"station_id":"ce4bguh2rcd13ifvqcj0","pricing_plan_id":"cebpf4jnsgd1na2vs0mg"},{"bike_id":"bfbeb579-605b-421a-a3a9-bd4a1837756e","system_id":"levelo_inurba_marseille","lat":43.30492,"lon":5.37904,"is_reserved":false,"is_disabled":false,"rental_uris":{"android":"levelo://app?vid=bfbeb579-605b-421a-a3a9-bd4a1837756e","ios":"levelo://app?vid=bfbeb579-605b-421a-a3a9-bd4a1837756e"},"vehicle_type_id":"4","last_reported":1750921904,"current_range_meters":18000,"station_id":"ce4bgup2rcd13ifvqcn0","pricing_plan_id":"cebpf4jnsgd1na2vs0mg"},{"bike_id":"0154df1a-de94-4c7b-a530-d826ae082c24","system_id":"levelo_inurba_marseille","lat":43.2397,"lon":5.36606,"is_reserved":false,"is_disabled":false,"rental_uris":{"android":"levelo://app?vid=0154df1a-de94-4c7b-a530-d826ae082c24","ios":"levelo://app?vid=0154df1a-de94-4c7b-a530-d826ae082c24"},"vehicle_type_id":"4","last_reported":1750921904,"current_range_meters":18000,"station_id":"ce4bhi12rcd13ifvqfp0","pricing_plan_id":"cebpf4jnsgd1na2vs0mg"},{"bike_id":"ceadb6f7-d206-454a-acdb-3911e9d26625","system_id":"levelo_inurba_marseille","lat":43.23151,"lon":5.4372,"is_reserved":false,"is_disabled":false,"rental_uris":{"android":"levelo://app?vid=ceadb6f7-d206-454a-acdb-3911e9d26625","ios":"levelo://app?vid=ceadb6f7-d206-454a-acdb-3911e9d26625"},"vehicle_type_id":"4","last_reported":1750921904,"current_range_meters":18000,"station_id":"ce4bhmp2rcd13ifvqgog","pricing_plan_id":"cebpf4jnsgd1na2vs0mg"},{"bike_id":"14806dd4-7d4f-44a0-8893-2396af370b2e","system_id":"levelo_inurba_marseille","lat":43.29568,"lon":5.37512,"is_reserved":false,"is_disabled":false,"rental_uris":{"android":"levelo://app?vid=14806dd4-7d4f-44a0-8893-2396af370b2e","ios":"levelo://app?vid=14806dd4-7d4f-44a0-8893-2396af370b2e"},"vehicle_type_id":"4","last_reported":1750921904,"current_range_meters":18800,"station_id":"ce4bgh92rcd13ifvqb50","pricing_plan_id":"cebpf4jnsgd1na2vs0mg"},{"bike_id":"8703acff-548e-41b4-8667-20fda807f481","system_id":"levelo_inurba_marseille","lat":43.3056,"lon":5.36561,"is_reserved":false,"is_disabled":false,"rental_uris":{"android":"levelo://app?vid=8703acff-548e-41b4-8667-20fda807f481","ios":"levelo://app?vid=8703acff-548e-41b4-8667-20fda807f481"},"vehicle_type_id":"4","last_reported":1750921904,"current_range_meters":18800,"station_id":"ce4bgs12rcd13ifvqcag","pricing_plan_id":"cebpf4jnsgd1na2vs0mg"},{"bike_id":"70e45af1-63dd-4922-b59d-ce2dac0aa5d9","system_id":"levelo_inurba_marseille","lat":43.30426,"lon":5.39745,"is_reserved":false,"is_disabled":false,"rental_uris":{"android":"levelo://app?vid=70e45af1-63dd-4922-b59d-ce2dac0aa5d9","ios":"levelo://app?vid=70e45af1-63dd-4922-b59d-ce2dac0aa5d9"},"vehicle_type_id":"4","last_reported":1750921904,"current_range_meters":18800,"station_id":"ce4bh092rcd13ifvqd20","pricing_plan_id":"cebpf4jnsgd1na2vs0mg"},{"bike_id":"946fb147-cce9-40bf-b8ed-4f27a01a3e2b","system_id":"levelo_inurba_marseille","lat":43.30105,"lon":5.39089,"is_reserved":false,"is_disabled":false,"rental_uris":{"android":"levelo://app?vid=946fb147-cce9-40bf-b8ed-4f27a01a3e2b","ios":"levelo://app?vid=946fb147-cce9-40bf-b8ed-4f27a01a3e2b"},"vehicle_type_id":"4","last_reported":1750921904,"current_range_meters":18800,"station_id":"ce4bh192rcd13ifvqdb0","pricing_plan_id":"cebpf4jnsgd1na2vs0mg"},{"bike_id":"9e446e93-a689-43f9-8392-38663c75c9ef","system_id":"levelo_inurba_marseille","lat":43.23156,"lon":5.43718,"is_reserved":false,"is_disabled":false,"rental_uris":{"android":"levelo://app?vid=9e446e93-a689-43f9-8392-38663c75c9ef","ios":"levelo://app?vid=9e446e93-a689-43f9-8392-38663c75c9ef"},"vehicle_type_id":"4","last_reported":1750921904,"current_range_meters":18800,"station_id":"ce4bhmp2rcd13ifvqgog","pricing_plan_id":"cebpf4jnsgd1na2vs0mg"},{"bike_id":"7ef9dc07-abfa-4644-8a96-509b2adc733a","system_id":"levelo_inurba_marseille","lat":43.24074,"lon":5.37764,"is_reserved":false,"is_disabled":false,"rental_uris":{"android":"levelo://app?vid=7ef9dc07-abfa-4644-8a96-509b2adc733a","ios":"levelo://app?vid=7ef9dc07-abfa-4644-8a96-509b2adc733a"},"vehicle_type_id":"4","last_reported":1750921904,"current_range_meters":18800,"station_id":"ce4bhnp2rcd13ifvqgvg","pricing_plan_id":"cebpf4jnsgd1na2vs0mg"},{"bike_id":"ad6d35d4-cc2c-4254-977e-2c93ab52e82a","system_id":"levelo_inurba_marseille","lat":43.267873,"lon":5.394226,"is_reserved":false,"is_disabled":false,"rental_uris":{"android":"levelo://app?vid=ad6d35d4-cc2c-4254-977e-2c93ab52e82a","ios":"levelo://app?vid=ad6d35d4-cc2c-4254-977e-2c93ab52e82a"},"vehicle_type_id":"4","last_reported":1750921904,"current_range_meters":19200,"station_id":"","pricing_plan_id":"cebpf4jnsgd1na2vs0mg"},