{"last_updated":1691082360,"ttl":30,"version":"2.2","data":{"bikes":[{"bike_id":"1b927e30-7c0b-4327-9dcb-39e1fa389351","system_id":"levelo_inurba_marseille","lat":43.314811,"lon":5.373103,"is_reserved":false,"is_disabled":false,"rental_uris":{"android":"levelo://app?vid=1b927e30-7c0b-4327-9dcb-39e1fa389351","ios":"levelo://app?vid=1b927e30-7c0b-4327-9dcb-39e1fa389351"},"vehicle_type_id":"4","last_reported":1691082361,"current_range_meters":3600,"station_id":"ce4bgt12rcd13ifvqcd0","pricing_plan_id":"free"},{"bike_id":"cf91a076-9b3e-41b5-8975-e5a437298883","system_id":"levelo_inurba_marseille","lat":43.314811,"lon":5.373103,"is_reserved":false,"is_disabled":false,"rental_uris":{"android":"levelo://app?vid=cf91a076-9b3e-41b5-8975-e5a437298883","ios":"levelo://app?vid=cf91a076-9b3e-41b5-8975-e5a437298883"},"vehicle_type_id":"4","last_reported":1691082361,"current_range_meters":9600,"station_id":"ce4bgt12rcd13ifvqcd0","pricing_plan_id":"free"},{"bike_id":"1b2acd5b-4542-42d4-9ba2-425683e0f17b","system_id":"levelo_inurba_marseille","lat":43.309039,"lon":5.371797,"is_reserved":false,"is_disabled":false,"rental_uris":{"android":"levelo://app?vid=1b2acd5b-4542-42d4-9ba2-425683e0f17b","ios":"levelo://app?vid=1b2acd5b-4542-42d4-9ba2-425683e0f17b"},"vehicle_type_id":"4","last_reported":1691082361,"current_range_meters":18400,"station_id":"ce4bguh2rcd13ifvqckg","pricing_plan_id":"free"},{"bike_id":"7cfb81a3-fd7f-41d1-987d-c1037b7c6b4a","system_id":"levelo_inurba_marseille","lat":43.3144,"lon":5.37459,"is_reserved":false,"is_disabled":false,"rental_uris":{"android":"levelo://app?vid=7cfb81a3-fd7f-41d1-987d-c1037b7c6b4a","ios":"levelo://app?vid=7cfb81a3-fd7f-41d1-987d-c1037b7c6b4a"},"vehicle_type_id":"4","last_reported":1691082361,"current_range_meters":21600,"station_id":"","pricing_plan_id":"free"},{"bike_id":"f20ea888-8740-440b-bfeb-8eb2a7c1f652","system_id":"levelo_inurba_marseille","lat":43.305989,"lon":5.37225,"is_reserved":false,"is_disabled":false,"rental_uris":{"android":"levelo://app?vid=f20ea888-8740-440b-bfeb-8eb2a7c1f652","ios":"levelo://app?vid=f20ea888-8740-440b-bfeb-8eb2a7c1f652"},"vehicle_type_id":"4","last_reported":1691082361,"current_range_meters":31200,"station_id":"ce4bgqh2rcd13ifvqc4g","pricing_plan_id":"free"},{"bike_id":"617e018a-4fbc-497c-92af-8973d504c8ae","system_id":"levelo_inurba_marseille","lat":43.311131,"lon":5.377651,"is_reserved":false,"is_disabled":false,"rental_uris":{"android":"levelo://app?vid=617e018a-4fbc-497c-92af-8973d504c8ae","ios":"levelo://app?vid=617e018a-4fbc-497c-92af-8973d504c8ae"},"vehicle_type_id":"4","last_reported":1691082361,"current_range_meters":10800,"station_id":"ce4bgt92rcd13ifvqcg0","pricing_plan_id":"free"},{"bike_id":"5fe7dc63-31cf-46d1-9c21-b180de20dcf7","system_id":"levelo_inurba_marseille","lat":43.311125,"lon":5.377624,"is_reserved":false,"is_disabled":false,"rental_uris":{"android":"levelo://app?vid=5fe7dc63-31cf-46d1-9c21-b180de20dcf7","ios":"levelo://app?vid=5fe7dc63-31cf-46d1-9c21-b180de20dcf7"},"vehicle_type_id":"4","last_reported":1691082361,"current_range_meters":9600,"station_id":"ce4bgt92rcd13ifvqcg0","pricing_plan_id":"free"},{"bike_id":"f9a0b787-ba32-4074-8d4d-1cd811ec9ccb","system_id":"levelo_inurba_marseille","lat":43.307909,"lon":5.376518,"is_reserved":false,"is_disabled":false,"rental_uris":{"android":"levelo://app?vid=f9a0b787-ba32-4074-8d4d-1cd811ec9ccb","ios":"levelo://app?vid=f9a0b787-ba32-4074-8d4d-1cd811ec9ccb"},"vehicle_type_id":"4","last_reported":1691082361,"current_range_meters":17600,"station_id":"ce4bgv92rcd13ifvqcq0","pricing_plan_id":"free"},{"bike_id":"09420ab1-efff-4723-8dcc-0062002b9293","system_id":"levelo_inurba_marseille","lat":43.30784,"lon":5.37647,"is_reserved":false,"is_disabled":false,"rental_uris":{"android":"levelo://app?vid=09420ab1-efff-4723-8dcc-0062002b9293","ios":"levelo://app?vid=09420ab1-efff-4723-8dcc-0062002b9293"},"vehicle_type_id":"4","last_reported":1691082361,"current_range_meters":10000,"station_id":"ce4bgv92rcd13ifvqcq0","pricing_plan_id":"free"},{"bike_id":"6ec4bb7e-8606-49b4-a556-2cb681532bba","system_id":"levelo_inurba_marseille","lat":43.317075,"lon":5.377367,"is_reserved":false,"is_disabled":false,"rental_uris":{"android":"levelo://app?vid=6ec4bb7e-8606-49b4-a556-2cb681532bba","ios":"levelo://app?vid=6ec4bb7e-8606-49b4-a556-2cb681532bba"},"vehicle_type_id":"4","last_reported":1691082361,"current_range_meters":30400,"station_id":"ce4bgth2rcd13ifvqch0","pricing_plan_id":"free"},{"bike_id":"00892e19-ff2f-49f5-94f5-0dc2f6ff1faf","system_id":"levelo_inurba_marseille","lat":43.315293,"lon":5.380349,"is_reserved":false,"is_disabled":false,"rental_uris":{"android":"levelo://app?vid=00892e19-ff2f-49f5-94f5-0dc2f6ff1faf","ios":"levelo://app?vid=00892e19-ff2f-49f5-94f5-0dc2f6ff1faf"},"vehicle_type_id":"4","last_reported":1691082361,"current_range_meters":26000,"station_id":"ce4bhsp2rcd13ifvqi50","pricing_plan_id":"free"},{"bike_id":"cf144abe-402a-4e78-b410-79c6d13361fb","system_id":"levelo_inurba_marseille","lat":43.315293,"lon":5.380349,"is_reserved":false,"is_disabled":false,"rental_uris":{"android":"levelo://app?vid=cf144abe-402a-4e78-b410-79c6d13361fb","ios":"levelo://app?vid=cf144abe-402a-4e78-b410-79c6d13361fb"},"vehicle_type_id":"4","last_reported":1691082361,"current_range_meters":17200,"station_id":"ce4bhsp2rcd13ifvqi50","pricing_plan_id":"free"},{"bike_id":"94ac2495-de9a-4dce-b659-87801da2b2d7","system_id":"levelo_inurba_marseille","lat":43.31538,"lon":5.38024,"is_reserved":false,"is_disabled":false,"rental_uris":{"android":"levelo://app?vid=94ac2495-de9a-4dce-b659-87801da2b2d7","ios":"levelo://app?vid=94ac2495-de9a-4dce-b659-87801da2b2d7"},"vehicle_type_id":"4","last_reported":1691082361,"current_range_meters":17200,"station_id":"ce4bhsp2rcd13ifvqi50","pricing_plan_id":"free"},{"bike_id":"9e30f506-d708-4689-ad39-0e086dd94e41","system_id":"levelo_inurba_marseille","lat":43.315293,"lon":5.380349,"is_reserved":false,"is_disabled":false,"rental_uris":{"android":"levelo://app?vid=9e30f506-d708-4689-ad39-0e086dd94e41","ios":"levelo://app?vid=9e30f506-d708-4689-ad39-0e086dd94e41"},"vehicle_type_id":"4","last_reported":1691082361,"current_range_meters":4800,"station_id":"ce4bhsp2rcd13ifvqi50","pricing_plan_id":"free"},{"bike_id":"ca03c504-734e-402b-8597-fb77a9549039","system_id":"levelo_inurba_marseille","lat":43.31533,"lon":5.38035,"is_reserved":false,"is_disabled":false,"rental_uris":{"android":"levelo://app?vid=ca03c504-734e-402b-8597-fb77a9549039","ios":"levelo://app?vid=ca03c504-734e-402b-8597-fb77a9549039"},"vehicle_type_id":"4","last_reported":1691082361,"current_range_meters":30800,"station_id":"ce4bhsp2rcd13ifvqi50","pricing_plan_id":"free"},{"bike_id":"28209308-466e-44d0-a0c1-76c46b9da81e","system_id":"levelo_inurba_marseille","lat":43.30191,"lon":5.36639,"is_reserved":false,"is_disabled":false,"rental_uris":{"android":"levelo://app?vid=28209308-466e-44d0-a0c1-76c46b9da81e","ios":"levelo://app?vid=28209308-466e-44d0-a0c1-76c46b9da81e"},"vehicle_type_id":"4","last_reported":1691082361,"current_range_meters":2800,"station_id":"ce4bgrh2rcd13ifvqc8g","pricing_plan_id":"free"},{"bike_id":"69efd253-fbbb-4a73-9ba0-16d8244fa080","system_id":"levelo_inurba_marseille","lat":43.30476,"lon":5.37896,"is_reserved":false,"is_disabled":false,"rental_uris":{"android":"levelo://app?vid=69efd253-fbbb-4a73-9ba0-16d8244fa080","ios":"levelo://app?vid=69efd253-fbbb-4a73-9ba0-16d8244fa080"},"vehicle_type_id":"4","last_reported":1691082361,"current_range_meters":31200,"station_id":"ce4bgup2rcd13ifvqcn0","pricing_plan_id":"free"},{"bike_id":"89963e61-fdf4-49a5-95f8-09616932bc0e","system_id":"levelo_inurba_marseille","lat":43.304606,"lon":5.379026,"is_reserved":false,"is_disabled":false,"rental_uris":{"android":"levelo://app?vid=89963e61-fdf4-49a5-95f8-09616932bc0e","ios":"levelo://app?vid=89963e61-fdf4-49a5-95f8-09616932bc0e"},"vehicle_type_id":"4","last_reported":1691082361,"current_range_meters":30800,"station_id":"ce4bgup2rcd13ifvqcn0","pricing_plan_id":"free"},{"bike_id":"4951e290-9872-479e-8222-e2b3d505c5e0","system_id":"levelo_inurba_marseille","lat":43.30144,"lon":5.37416,"is_reserved":false,"is_disabled":false,"rental_uris":{"android":"levelo://app?vid=4951e290-9872-479e-8222-e2b3d505c5e0","ios":"levelo://app?vid=4951e290-9872-479e-8222-e2b3d505c5e0"},"vehicle_type_id":"4","last_reported":1691082361,"current_range_meters":20400,"station_id":"ce4bgs92rcd13ifvqcc0","pricing_plan_id":"free"},{"bike_id":"791aecf0-48e6-4775-bc04-3b9f8a573be3","system_id":"levelo_inurba_marseille","lat":43.31999,"lon":5.38156,"is_reserved":false,"is_disabled":false,"rental_uris":{"android":"levelo://app?vid=791aecf0-48e6-4775-bc04-3b9f8a573be3","ios":"levelo://app?vid=791aecf0-48e6-4775-bc04-3b9f8a573be3"},"vehicle_type_id":"4","last_reported":1691082361,"current_range_meters":11200,"station_id":"ce4bhr12rcd13ifvqhpg","pricing_plan_id":"free"},{"bike_id":"d92e79c6-8caa-430c-90be-6141442e45a4","system_id":"levelo_inurba_marseille","lat":43.31376,"lon":5.38479,"is_reserved":false,"is_disabled":false,"rental_uris":{"android":"levelo://app?vid=d92e79c6-8caa-430c-90be-6141442e45a4","ios":"levelo://app?vid=d92e79c6-8caa-430c-90be-6141442e45a4"},"vehicle_type_id":"4","last_reported":1691082361,"current_range_meters":14400,"station_id":"ce4bgt92rcd13ifvqcf0","pricing_plan_id":"free"},{"bike_id":"2c908abe-871d-4c83-8566-21f11464e071","system_id":"levelo_inurba_marseille","lat":43.313571,"lon":5.384829,"is_reserved":false,"is_disabled":false,"rental_uris":{"android":"levelo://app?vid=2c908abe-871d-4c83-8566-21f11464e071","ios":"levelo://app?vid=2c908abe-871d-4c83-8566-21f11464e071"},"vehicle_type_id":"4","last_reported":1691082361,"current_range_meters":31200,"station_id":"ce4bgt92rcd13ifvqcf0","pricing_plan_id":"free"},{"bike_id":"d8540d70-5ccc-4dbf-8719-54821c962a67","system_id":"levelo_inurba_marseille","lat":43.31357,"lon":5.38497,"is_reserved":false,"is_disabled":false,"rental_uris":{"android":"levelo://app?vid=d8540d70-5ccc-4dbf-8719-54821c962a67","ios":"levelo://app?vid=d8540d70-5ccc-4dbf-8719-54821c962a67"},"vehicle_type_id":"4","last_reported":1691082361,"current_range_meters":11600,"station_id":"ce4bgt92rcd13ifvqcf0","pricing_plan_id":"free"},{"bike_id":"798f3c7a-d982-4c2b-adab-8edc6a530915","system_id":"levelo_inurba_marseille","lat":43.31367,"lon":5.38503,"is_reserved":false,"is_disabled":false,"rental_uris":{"android":"levelo://app?vid=798f3c7a-d982-4c2b-adab-8edc6a530915","ios":"levelo://app?vid=798f3c7a-d982-4c2b-adab-8edc6a530915"},"vehicle_type_id":"4","last_reported":1691082361,"current_range_meters":6000,"station_id":"ce4bgt92rcd13ifvqcf0","pricing_plan_id":"free"},{"bike_id":"3cb7fd70-121e-4eb5-9a01-ecc8718aa1bb","system_id":"levelo_inurba_marseille","lat":43.29939,"lon":5.36549,"is_reserved":false,"is_disabled":false,"rental_uris":{"android":"levelo://app?vid=3cb7fd70-121e-4eb5-9a01-ecc8718aa1bb","ios":"levelo://app?vid=3cb7fd70-121e-4eb5-9a01-ecc8718aa1bb"},"vehicle_type_id":"4","last_reported":1691082361,"current_range_meters":31200,"station_id":"ce4bgm92rcd13ifvqbr0","pricing_plan_id":"free"},{"bike_id":"813e8930-3683-4185-bee6-ca5afac7dfba","system_id":"levelo_inurba_marseille","lat":43.29974,"lon":5.37176,"is_reserved":false,"is_disabled":false,"rental_uris":{"android":"levelo://app?vid=813e8930-3683-4185-bee6-ca5afac7dfba","ios":"levelo://app?vid=813e8930-3683-4185-bee6-ca5afac7dfba"},"vehicle_type_id":"4","last_reported":1691082361,"current_range_meters":0,"station_id":"ce4bgr92rcd13ifvqc7g","pricing_plan_id":"free"},{"bike_id":"eef5ae09-08c9-45df-8d9f-70ea9f92b272","system_id":"levelo_inurba_marseille","lat":43.29931,"lon":5.36542,"is_reserved":false,"is_disabled":false,"rental_uris":{"android":"levelo://app?vid=eef5ae09-08c9-45df-8d9f-70ea9f92b272","ios":"levelo://app?vid=eef5ae09-08c9-45df-8d9f-70ea9f92b272"},"vehicle_type_id":"4","last_reported":1691082361,"current_range_meters":13200,"station_id":"ce4bgm92rcd13ifvqbr0","pricing_plan_id":"free"},{"bike_id":"30537d43-af02-4a10-b928-7b9b8cf633d2","system_id":"levelo_inurba_marseille","lat":43.30544,"lon":5.38421,"is_reserved":false,"is_disabled":false,"rental_uris":{"android":"levelo://app?vid=30537d43-af02-4a10-b928-7b9b8cf633d2","ios":"levelo://app?vid=30537d43-af02-4a10-b928-7b9b8cf633d2"},"vehicle_type_id":"4","last_reported":1691082361,"current_range_meters":28800,"station_id":"ce4bgg92rcd13ifvqb30","pricing_plan_id":"free"},{"bike_id":"7dc8a05a-7411-428a-9a5a-e89f10fee057","system_id":"levelo_inurba_marseille","lat":43.30536,"lon":5.3843,"is_reserved":false,"is_disabled":false,"rental_uris":{"android":"levelo://app?vid=7dc8a05a-7411-428a-9a5a-e89f10fee057","ios":"levelo://app?vid=7dc8a05a-7411-428a-9a5a-e89f10fee057"},"vehicle_type_id":"4","last_reported":1691082361,"current_range_meters":22400,"station_id":"ce4bgg92rcd13ifvqb30","pricing_plan_id":"free"},{"bike_id":"0e80ac0c-9f6c-4ead-b805-36e34bcdb3f4","system_id":"levelo_inurba_marseille","lat":43.298433,"lon":5.362774,"is_reserved":false,"is_disabled":false,"rental_uris":{"android":"levelo://app?vid=0e80ac0c-9f6c-4ead-b805-36e34bcdb3f4","ios":"levelo://app?vid=0e80ac0c-9f6c-4ead-b805-36e34bcdb3f4"},"vehicle_type_id":"4","last_reported":1691082361,"current_range_meters":0,"station_id":"ce4bgpp2rcd13ifvqc3g","pricing_plan_id":"free"},{"bike_id":"9f65e577-73cb-476d-95d5-ca133b701e95","system_id":"levelo_inurba_marseille","lat":43.298433,"lon":5.362774,"is_reserved":false,"is_disabled":false,"rental_uris":{"android":"levelo://app?vid=9f65e577-73cb-476d-95d5-ca133b701e95","ios":"levelo://app?vid=9f65e577-73cb-476d-95d5-ca133b701e95"},"vehicle_type_id":"4","last_reported":1691082361,"current_range_meters":7600,"station_id":"ce4bgpp2rcd13ifvqc3g","pricing_plan_id":"free"},{"bike_id":"5e4a334a-00c6-4d51-9dff-9e1caf4e8916","system_id":"levelo_inurba_marseille","lat":43.311722,"lon":5.387247,"is_reserved":false,"is_disabled":false,"rental_uris":{"android":"levelo://app?vid=5e4a334a-00c6-4d51-9dff-9e1caf4e8916","ios":"levelo://app?vid=5e4a334a-00c6-4d51-9dff-9e1caf4e8916"},"vehicle_type_id":"4","last_reported":1691082361,"current_range_meters":4800,"station_id":"ce4bgv12rcd13ifvqcp0","pricing_plan_id":"free"},{"bike_id":"32f01e84-3944-453f-a05c-2198f264f54e","system_id":"levelo_inurba_marseille","lat":43.299243,"lon":5.37481,"is_reserved":false,"is_disabled":false,"rental_uris":{"android":"levelo://app?vid=32f01e84-3944-453f-a05c-2198f264f54e","ios":"levelo://app?vid=32f01e84-3944-453f-a05c-2198f264f54e"},"vehicle_type_id":"4","last_reported":1691082361,"current_range_meters":28000,"station_id":"ce4bgjh2rcd13ifvqbg0","pricing_plan_id":"free"},{"bike_id":"688dd9e1-3b07-482f-be88-b97cd4d2573c","system_id":"levelo_inurba_marseille","lat":43.311722,"lon":5.387247,"is_reserved":false,"is_disabled":false,"rental_uris":{"android":"levelo://app?vid=688dd9e1-3b07-482f-be88-b97cd4d2573c","ios":"levelo://app?vid=688dd9e1-3b07-482f-be88-b97cd4d2573c"},"vehicle_type_id":"4","last_reported":1691082361,"current_range_meters":12800,"station_id":"ce4bgv12rcd13ifvqcp0","pricing_plan_id":"free"},{"bike_id":"b18279c5-4d28-4f77-8075-48befb8a025f","system_id":"levelo_inurba_marseille","lat":43.311722,"lon":5.387247,"is_reserved":false,"is_disabled":false,"rental_uris":{"android":"levelo://app?vid=b18279c5-4d28-4f77-8075-48befb8a025f","ios":"levelo://app?vid=b18279c5-4d28-4f77-8075-48befb8a025f"},"vehicle_type_id":"4","last_reported":1691082361,"current_range_meters":6400,"station_id":"ce4bgv12rcd13ifvqcp0","pricing_plan_id":"free"},{"bike_id":"19cf8c8e-63e1-462d-a471-e80046485045","system_id":"levelo_inurba_marseille","lat":43.311722,"lon":5.387247,"is_reserved":false,"is_disabled":false,"rental_uris":{"android":"levelo://app?vid=19cf8c8e-63e1-462d-a471-e80046485045","ios":"levelo://app?vid=19cf8c8e-63e1-462d-a471-e80046485045"},"vehicle_type_id":"4","last_reported":1691082361,"current_range_meters":21600,"station_id":"ce4bgv12rcd13ifvqcp0","pricing_plan_id":"free"},{"bike_id":"7cf1aab8-38a1-47db-af16-2123c0ca6e97","system_id":"levelo_inurba_marseille","lat":43.32297,"lon":5.38263,"is_reserved":false,"is_disabled":false,"rental_uris":{"android":"levelo://app?vid=7cf1aab8-38a1-47db-af16-2123c0ca6e97","ios":"levelo://app?vid=7cf1aab8-38a1-47db-af16-2123c0ca6e97"},"vehicle_type_id":"4","last_reported":1691082361,"current_range_meters":20400,"station_id":"ce4bhr12rcd13ifvqhqg","pricing_plan_id":"free"},{"bike_id":"197dad72-34dc-4120-93fc-280ae3841866","system_id":"levelo_inurba_marseille","lat":43.32826,"lon":5.36685,"is_reserved":false,"is_disabled":false,"rental_uris":{"android":"levelo://app?vid=197dad72-34dc-4120-93fc-280ae3841866","ios":"levelo://app?vid=197dad72-34dc-4120-93fc-280ae3841866"},"vehicle_type_id":"4","last_reported":1691082361,"current_range_meters":20800,"station_id":"ce4bhs92rcd13ifvqi0g","pricing_plan_id":"free"},{"bike_id":"dddbedc8-6a42-40c6-936f-790bd1069b29","system_id":"levelo_inurba_marseille","lat":43.328371,"lon":5.366909,"is_reserved":false,"is_disabled":false,"rental_uris":{"android":"levelo://app?vid=dddbedc8-6a42-40c6-936f-790bd1069b29","ios":"levelo://app?vid=dddbedc8-6a42-40c6-936f-790bd1069b29"},"vehicle_type_id":"4","last_reported":1691082361,"current_range_meters":13200,"station_id":"ce4bhs92rcd13ifvqi0g","pricing_plan_id":"free"},{"bike_id":"dd789220-e7b5-42c1-b9dc-dc4243148021","system_id":"levelo_inurba_marseille","lat":43.297163,"lon":5.365866,"is_reserved":false,"is_disabled":false,"rental_uris":{"android":"levelo://app?vid=dd789220-e7b5-42c1-b9dc-dc4243148021","ios":"levelo://app?vid=dd789220-e7b5-42c1-b9dc-dc4243148021"},"vehicle_type_id":"4","last_reported":1691082361,"current_range_meters":31200,"station_id":"ce4bgn12rcd13ifvqbt0","pricing_plan_id":"free"},{"bike_id":"bb224614-7241-44f8-8205-8a0c7f36065f","system_id":"levelo_inurba_marseille","lat":43.32835,"lon":5.36682,"is_reserved":false,"is_disabled":false,"rental_uris":{"android":"levelo://app?vid=bb224614-7241-44f8-8205-8a0c7f36065f","ios":"levelo://app?vid=bb224614-7241-44f8-8205-8a0c7f36065f"},"vehicle_type_id":"4","last_reported":1691082361,"current_range_meters":12400,"station_id":"ce4bhs92rcd13ifvqi0g","pricing_plan_id":"free"},{"bike_id":"5318abed-29cf-44e7-b707-27ea1758810d","system_id":"levelo_inurba_marseille","lat":43.299028,"lon":5.381509,"is_reserved":false,"is_disabled":false,"rental_uris":{"android":"levelo://app?vid=5318abed-29cf-44e7-b707-27ea1758810d","ios":"levelo://app?vid=5318abed-29cf-44e7-b707-27ea1758810d"},"vehicle_type_id":"4","last_reported":1691082361,"current_range_meters":31600,"station_id":"ce4bgj12rcd13ifvqbc0","pricing_plan_id":"free"},{"bike_id":"669fdbac-2987-401a-8669-8c12ac1464d6","system_id":"levelo_inurba_marseille","lat":43.299028,"lon":5.381509,"is_reserved":false,"is_disabled":false,"rental_uris":{"android":"levelo://app?vid=669fdbac-2987-401a-8669-8c12ac1464d6","ios":"levelo://app?vid=669fdbac-2987-401a-8669-8c12ac1464d6"},"vehicle_type_id":"4","last_reported":1691082361,"current_range_meters":31200,"station_id":"ce4bgj12rcd13ifvqbc0","pricing_plan_id":"free"},{"bike_id":"e22971c4-da07-4b69-91f0-b71ef8d3d39a","system_id":"levelo_inurba_marseille","lat":43.299028,"lon":5.381509,"is_reserved":false,"is_disabled":false,"rental_uris":{"android":"levelo://app?vid=e22971c4-da07-4b69-91f0-b71ef8d3d39a","ios":"levelo://app?vid=e22971c4-da07-4b69-91f0-b71ef8d3d39a"},"vehicle_type_id":"4","last_reported":1691082361,"current_range_meters":30800,"station_id":"ce4bgj12rcd13ifvqbc0","pricing_plan_id":"free"},{"bike_id":"97de429f-3107-48c3-a720-2ec2936266af","system_id":"levelo_inurba_marseille","lat":43.299028,"lon":5.381509,"is_reserved":false,"is_disabled":false,"rental_uris":{"android":"levelo://app?vid=97de429f-3107-48c3-a720-2ec2936266af","ios":"levelo://app?vid=97de429f-3107-48c3-a720-2ec2936266af"},"vehicle_type_id":"4","last_reported":1691082361,"current_range_meters":29200,"station_id":"ce4bgj12rcd13ifvqbc0","pricing_plan_id":"free"},{"bike_id":"0cec7831-275e-4049-bc53-75986b8619c7","system_id":"levelo_inurba_marseille","lat":43.299028,"lon":5.381509,"is_reserved":false,"is_disabled":false,"rental_uris":{"android":"levelo://app?vid=0cec7831-275e-4049-bc53-75986b8619c7","ios":"levelo://app?vid=0cec7831-275e-4049-bc53-75986b8619c7"},"vehicle_type_id":"4","last_reported":1691082361,"current_range_meters":29200,"station_id":"ce4bgj12rcd13ifvqbc0","pricing_plan_id":"free"},{"bike_id":"41da28d7-8840-462f-94e4-3c8c514b1787","system_id":"levelo_inurba_marseille","lat":43.299028,"lon":5.381509,"is_reserved":false,"is_disabled":false,"rental_uris":{"android":"levelo://app?vid=41da28d7-8840-462f-94e4-3c8c514b1787","ios":"levelo://app?vid=41da28d7-8840-462f-94e4-3c8c514b1787"},"vehicle_type_id":"4","last_reported":1691082361,"current_range_meters":24000,"station_id":"ce4bgj12rcd13ifvqbc0","pricing_plan_id":"free"},{"bike_id":"8f6bae47-1e36-4b79-8f22-0dfd46518c10","system_id":"levelo_inurba_marseille","lat":43.299028,"lon":5.381509,"is_reserved":false,"is_disabled":false,"rental_uris":{"android":"levelo://app?vid=8f6bae47-1e36-4b79-8f22-0dfd46518c10","ios":"levelo://app?vid=8f6bae47-1e36-4b79-8f22-0dfd46518c10"},"vehicle_type_id":"4","last_reported":1691082361,"current_range_meters":13200,"station_id":"ce4bgj12rcd13ifvqbc0","pricing_plan_id":"free"},{"bike_id":"cefb601a-eace-4a1a-99f2-4cd407cfb704","system_id":"levelo_inurba_marseille","lat":43.299028,"lon":5.381509,"is_reserved":false,"is_disabled":false,"rental_uris":{"android":"levelo://app?vid=cefb601a-eace-4a1a-99f2-4cd407cfb704","ios":"levelo://app?vid=cefb601a-eace-4a1a-99f2-4cd407cfb704"},"vehicle_type_id":"4","last_reported":1691082361,"current_range_meters":27600,"station_id":"ce4bgj12rcd13ifvqbc0","pricing_plan_id":"free"},{"bike_id":"c98e34fd-8969-4c6d-9b42-0c8769529378","system_id":"levelo_inurba_marseille","lat":43.299028,"lon":5.381509,"is_reserved":false,"is_disabled":false,"rental_uris":{"android":"levelo://app?vid=c98e34fd-8969-4c6d-9b42-0c8769529378","ios":"levelo://app?vid=c98e34fd-8969-4c6d-9b42-0c8769529378"},"vehicle_type_id":"4","last_reported":1691082361,"current_range_meters":31200,"station_id":"ce4bgj12rcd13ifvqbc0","pricing_plan_id":"free"},{"bike_id":"c3a4f534-5cd9-4142-9e66-a585f64e5655","system_id":"levelo_inurba_marseille","lat":43.299028,"lon":5.381509,"is_reserved":false,"is_disabled":false,"rental_uris":{"android":"levelo://app?vid=c3a4f534-5cd9-4142-9e66-a585f64e5655","ios":"levelo://app?vid=c3a4f534-5cd9-4142-9e66-a585f64e5655"},"vehicle_type_id":"4","last_reported":1691082361,"current_range_meters":30000,"station_id":"ce4bgj12rcd13ifvqbc0","pricing_plan_id":"free"},{"bike_id":"70392eae-135d-46ad-aef0-dab948d41d72","system_id":"levelo_inurba_marseille","lat":43.299028,"lon":5.381509,"is_reserved":false,"is_disabled":false,"rental_uris":{"android":"levelo://app?vid=70392eae-135d-46ad-aef0-dab948d41d72","ios":"levelo://app?vid=70392eae-135d-46ad-aef0-dab948d41d72"},"vehicle_type_id":"4","last_reported":1691082361,"current_range_meters":30000,"station_id":"ce4bgj12rcd13ifvqbc0","pricing_plan_id":"free"},{"bike_id":"3018f6e8-0a48-4169-b7c0-e10f6591cf24","system_id":"levelo_inurba_marseille","lat":43.299028,"lon":5.381509,"is_reserved":false,"is_disabled":false,"rental_uris":{"android":"levelo://app?vid=3018f6e8-0a48-4169-b7c0-e10f6591cf24","ios":"levelo://app?vid=3018f6e8-0a48-4169-b7c0-e10f6591cf24"},"vehicle_type_id":"4","last_reported":1691082361,"current_range_meters":31200,"station_id":"ce4bgj12rcd13ifvqbc0","pricing_plan_id":"free"},{"bike_id":"8ec72eae-a285-4aa7-b946-82ce281afabc","system_id":"levelo_inurba_marseille","lat":43.299028,"lon":5.381509,"is_reserved":false,"is_disabled":false,"rental_uris":{"android":"levelo://app?vid=8ec72eae-a285-4aa7-b946-82ce281afabc","ios":"levelo://app?vid=8ec72eae-a285-4aa7-b946-82ce281afabc"},"vehicle_type_id":"4","last_reported":1691082361,"current_range_meters":26800,"station_id":"ce4bgj12rcd13ifvqbc0","pricing_plan_id":"free"},{"bike_id":"f0b1921d-8fc5-42f6-8214-26455e772ce5","system_id":"levelo_inurba_marseille","lat":43.309589,"lon":5.390258,"is_reserved":false,"is_disabled":false,"rental_uris":{"android":"levelo://app?vid=f0b1921d-8fc5-42f6-8214-26455e772ce5","ios":"levelo://app?vid=f0b1921d-8fc5-42f6-8214-26455e772ce5"},"vehicle_type_id":"4","last_reported":1691082361,"current_range_meters":26000,"station_id":"ce4bgup2rcd13ifvqco0","pricing_plan_id":"free"},{"bike_id":"8a234d4f-594d-44f2-9d7b-be6ce4375b0d","system_id":"levelo_inurba_marseille","lat":43.31768,"lon":5.39006,"is_reserved":false,"is_disabled":false,"rental_uris":{"android":"levelo://app?vid=8a234d4f-594d-44f2-9d7b-be6ce4375b0d","ios":"levelo://app?vid=8a234d4f-594d-44f2-9d7b-be6ce4375b0d"},"vehicle_type_id":"4","last_reported":1691082361,"current_range_meters":11600,"station_id":"ce4bhqp2rcd13ifvqhng","pricing_plan_id":"free"},{"bike_id":"50459715-f3a8-4c77-8f29-7010b1e86200","system_id":"levelo_inurba_marseille","lat":43.317557,"lon":5.390173,"is_reserved":false,"is_disabled":false,"rental_uris":{"android":"levelo://app?vid=50459715-f3a8-4c77-8f29-7010b1e86200","ios":"levelo://app?vid=50459715-f3a8-4c77-8f29-7010b1e86200"},"vehicle_type_id":"4","last_reported":1691082361,"current_range_meters":14000,"station_id":"ce4bhqp2rcd13ifvqhng","pricing_plan_id":"free"},{"bike_id":"ed67957c-5bde-47e2-b220-2fe6a0ba8368","system_id":"levelo_inurba_marseille","lat":43.31763,"lon":5.39017,"is_reserved":false,"is_disabled":false,"rental_uris":{"android":"levelo://app?vid=ed67957c-5bde-47e2-b220-2fe6a0ba8368","ios":"levelo://app?vid=ed67957c-5bde-47e2-b220-2fe6a0ba8368"},"vehicle_type_id":"4","last_reported":1691082361,"current_range_meters":31200,"station_id":"ce4bhqp2rcd13ifvqhng","pricing_plan_id":"free"},{"bike_id":"14d4b4cb-8201-40fa-bf92-1ba6e0a194e6","system_id":"levelo_inurba_marseille","lat":43.298037,"lon":5.381066,"is_reserved":false,"is_disabled":false,"rental_uris":{"android":"levelo://app?vid=14d4b4cb-8201-40fa-bf92-1ba6e0a194e6","ios":"levelo://app?vid=14d4b4cb-8201-40fa-bf92-1ba6e0a194e6"},"vehicle_type_id":"4","last_reported":1691082361,"current_range_meters":18400,"station_id":"ce4bgip2rcd13ifvqbb0","pricing_plan_id":"free"},{"bike_id":"a41e558c-dcb2-4fb3-a71d-b44a14aa8391","system_id":"levelo_inurba_marseille","lat":43.296202,"lon":5.377217,"is_reserved":false,"is_disabled":false,"rental_uris":{"android":"levelo://app?vid=a41e558c-dcb2-4fb3-a71d-b44a14aa8391","ios":"levelo://app?vid=a41e558c-dcb2-4fb3-a71d-b44a14aa8391"},"vehicle_type_id":"4","last_reported":1691082361,"current_range_meters":20400,"station_id":"","pricing_plan_id":"free"},{"bike_id":"6b37448e-c3e1-4a9a-a16e-fd97c37de702","system_id":"levelo_inurba_marseille","lat":43.29608,"lon":5.37732,"is_reserved":false,"is_disabled":false,"rental_uris":{"android":"levelo://app?vid=6b37448e-c3e1-4a9a-a16e-fd97c37de702","ios":"levelo://app?vid=6b37448e-c3e1-4a9a-a16e-fd97c37de702"},"vehicle_type_id":"4","last_reported":1691082361,"current_range_meters":30000,"station_id":"ce4bgi92rcd13ifvqb90","pricing_plan_id":"free"},{"bike_id":"2db71558-71e1-4252-b3ef-f2112b7a87ac","system_id":"levelo_inurba_marseille","lat":43.299883,"lon":5.385103,"is_reserved":false,"is_disabled":false,"rental_uris":{"android":"levelo://app?vid=2db71558-71e1-4252-b3ef-f2112b7a87ac","ios":"levelo://app?vid=2db71558-71e1-4252-b3ef-f2112b7a87ac"},"vehicle_type_id":"4","last_reported":1691082361,"current_range_meters":16000,"station_id":"ce4bgj92rcd13ifvqbd0","pricing_plan_id":"free"},{"bike_id":"eaa1a8f7-faa1-4a5f-ae3a-9594e432b01a","system_id":"levelo_inurba_marseille","lat":43.29974,"lon":5.38491,"is_reserved":false,"is_disabled":false,"rental_uris":{"android":"levelo://app?vid=eaa1a8f7-faa1-4a5f-ae3a-9594e432b01a","ios":"levelo://app?vid=eaa1a8f7-faa1-4a5f-ae3a-9594e432b01a"},"vehicle_type_id":"4","last_reported":1691082361,"current_range_meters":7600,"station_id":"ce4bgj92rcd13ifvqbd0","pricing_plan_id":"free"},{"bike_id":"8d9fdd18-1cfe-4bd8-b21f-052a7639f597","system_id":"levelo_inurba_marseille","lat":43.299707,"lon":5.384859,"is_reserved":false,"is_disabled":false,"rental_uris":{"android":"levelo://app?vid=8d9fdd18-1cfe-4bd8-b21f-052a7639f597","ios":"levelo://app?vid=8d9fdd18-1cfe-4bd8-b21f-052a7639f597"},"vehicle_type_id":"4","last_reported":1691082361,"current_range_meters":15600,"station_id":"ce4bgj92rcd13ifvqbd0","pricing_plan_id":"free"},{"bike_id":"a9054def-ff65-43b2-8dbd-144248831276","system_id":"levelo_inurba_marseille","lat":43.29967,"lon":5.38495,"is_reserved":false,"is_disabled":false,"rental_uris":{"android":"levelo://app?vid=a9054def-ff65-43b2-8dbd-144248831276","ios":"levelo://app?vid=a9054def-ff65-43b2-8dbd-144248831276"},"vehicle_type_id":"4","last_reported":1691082361,"current_range_meters":0,"station_id":"ce4bgj92rcd13ifvqbd0","pricing_plan_id":"free"},{"bike_id":"846e8771-76cb-47dd-8052-7a5dd571d3cc","system_id":"levelo_inurba_marseille","lat":43.29967,"lon":5.38496,"is_reserved":false,"is_disabled":false,"rental_uris":{"android":"levelo://app?vid=846e8771-76cb-47dd-8052-7a5dd571d3cc","ios":"levelo://app?vid=846e8771-76cb-47dd-8052-7a5dd571d3cc"},"vehicle_type_id":"4","last_reported":1691082361,"current_range_meters":21200,"station_id":"ce4bgj92rcd13ifvqbd0","pricing_plan_id":"free"},{"bike_id":"00430261-2c9d-45d4-b97e-d8a0e4974c9b","system_id":"levelo_inurba_marseille","lat":43.299724,"lon":5.384848,"is_reserved":false,"is_disabled":false,"rental_uris":{"android":"levelo://app?vid=00430261-2c9d-45d4-b97e-d8a0e4974c9b","ios":"levelo://app?vid=00430261-2c9d-45d4-b97e-d8a0e4974c9b"},"vehicle_type_id":"4","last_reported":1691082361,"current_range_meters":8000,"station_id":"ce4bgj92rcd13ifvqbd0","pricing_plan_id":"free"},{"bike_id":"06265eca-818c-47ed-b4eb-7ddba062f955","system_id":"levelo_inurba_marseille","lat":43.295279,"lon":5.375048,"is_reserved":false,"is_disabled":false,"rental_uris":{"android":"levelo://app?vid=06265eca-818c-47ed-b4eb-7ddba062f955","ios":"levelo://app?vid=06265eca-818c-47ed-b4eb-7ddba062f955"},"vehicle_type_id":"4","last_reported":1691082361,"current_range_meters":6800,"station_id":"ce4bgkp2rcd13ifvqbmg","pricing_plan_id":"free"},{"bike_id":"83e40035-5ae5-4bb2-89ae-adf2ef147026","system_id":"levelo_inurba_marseille","lat":43.323676,"lon":5.388816,"is_reserved":false,"is_disabled":false,"rental_uris":{"android":"levelo://app?vid=83e40035-5ae5-4bb2-89ae-adf2ef147026","ios":"levelo://app?vid=83e40035-5ae5-4bb2-89ae-adf2ef147026"},"vehicle_type_id":"4","last_reported":1691082361,"current_range_meters":14400,"station_id":"","pricing_plan_id":"free"},{"bike_id":"6be534a9-96c6-4989-b3bb-e9dea76376c4","system_id":"levelo_inurba_marseille","lat":43.32366,"lon":5.38885,"is_reserved":false,"is_disabled":false,"rental_uris":{"android":"levelo://app?vid=6be534a9-96c6-4989-b3bb-e9dea76376c4","ios":"levelo://app?vid=6be534a9-96c6-4989-b3bb-e9dea76376c4"},"vehicle_type_id":"4","last_reported":1691082361,"current_range_meters":15600,"station_id":"ce4bhqp2rcd13ifvqhog","pricing_plan_id":"free"},{"bike_id":"660de016-7b00-4735-9d75-3ae99d5de62d","system_id":"levelo_inurba_marseille","lat":43.32363,"lon":5.3889,"is_reserved":false,"is_disabled":false,"rental_uris":{"android":"levelo://app?vid=660de016-7b00-4735-9d75-3ae99d5de62d","ios":"levelo://app?vid=660de016-7b00-4735-9d75-3ae99d5de62d"},"vehicle_type_id":"4","last_reported":1691082361,"current_range_meters":30800,"station_id":"ce4bhqp2rcd13ifvqhog","pricing_plan_id":"free"},{"bike_id":"3a674cdc-fe78-4eb4-a8ce-3f80c1556e62","system_id":"levelo_inurba_marseille","lat":43.292749,"lon":5.368398,"is_reserved":false,"is_disabled":false,"rental_uris":{"android":"levelo://app?vid=3a674cdc-fe78-4eb4-a8ce-3f80c1556e62","ios":"levelo://app?vid=3a674cdc-fe78-4eb4-a8ce-3f80c1556e62"},"vehicle_type_id":"4","last_reported":1691082361,"current_range_meters":30000,"station_id":"ce4bhbp2rcd13ifvqesg","pricing_plan_id":"free"},{"bike_id":"69ff2b3f-6bbd-4331-9e3d-c0dce493acac","system_id":"levelo_inurba_marseille","lat":43.29309,"lon":5.37179,"is_reserved":false,"is_disabled":false,"rental_uris":{"android":"levelo://app?vid=69ff2b3f-6bbd-4331-9e3d-c0dce493acac","ios":"levelo://app?vid=69ff2b3f-6bbd-4331-9e3d-c0dce493acac"},"vehicle_type_id":"4","last_reported":1691082361,"current_range_meters":0,"station_id":"ce4bgh92rcd13ifvqb40","pricing_plan_id":"free"},{"bike_id":"50a07651-8b21-46fb-9d2a-7e00116246e9","system_id":"levelo_inurba_marseille","lat":43.29306,"lon":5.37177,"is_reserved":false,"is_disabled":false,"rental_uris":{"android":"levelo://app?vid=50a07651-8b21-46fb-9d2a-7e00116246e9","ios":"levelo://app?vid=50a07651-8b21-46fb-9d2a-7e00116246e9"},"vehicle_type_id":"4","last_reported":1691082361,"current_range_meters":4800,"station_id":"ce4bgh92rcd13ifvqb40","pricing_plan_id":"free"},{"bike_id":"225faa1f-467c-4a44-9809-6d4daf872b7e","system_id":"levelo_inurba_marseille","lat":43.29296,"lon":5.37155,"is_reserved":false,"is_disabled":false,"rental_uris":{"android":"levelo://app?vid=225faa1f-467c-4a44-9809-6d4daf872b7e","ios":"levelo://app?vid=225faa1f-467c-4a44-9809-6d4daf872b7e"},"vehicle_type_id":"4","last_reported":1691082361,"current_range_meters":0,"station_id":"ce4bgh92rcd13ifvqb40","pricing_plan_id":"free"},{"bike_id":"c629d027-96e1-4cbc-96cf-7faa4bbacbb3","system_id":"levelo_inurba_marseille","lat":43.3059,"lon":5.39358,"is_reserved":false,"is_disabled":false,"rental_uris":{"android":"levelo://app?vid=c629d027-96e1-4cbc-96cf-7faa4bbacbb3","ios":"levelo://app?vid=c629d027-96e1-4cbc-96cf-7faa4bbacbb3"},"vehicle_type_id":"4","last_reported":1691082361,"current_range_meters":24000,"station_id":"ce4bh0p2rcd13ifvqd80","pricing_plan_id":"free"},{"bike_id":"234d1ceb-8d24-458d-a4b3-07b4994303a8","system_id":"levelo_inurba_marseille","lat":43.303125,"lon":5.392114,"is_reserved":false,"is_disabled":false,"rental_uris":{"android":"levelo://app?vid=234d1ceb-8d24-458d-a4b3-07b4994303a8","ios":"levelo://app?vid=234d1ceb-8d24-458d-a4b3-07b4994303a8"},"vehicle_type_id":"4","last_reported":1691082361,"current_range_meters":29600,"station_id":"ce4bgkh2rcd13ifvqbk0","pricing_plan_id":"free"},{"bike_id":"b29d96dc-1401-44df-b52d-7c7065ddbc68","system_id":"levelo_inurba_marseille","lat":43.303062,"lon":5.392101,"is_reserved":false,"is_disabled":false,"rental_uris":{"android":"levelo://app?vid=b29d96dc-1401-44df-b52d-7c7065ddbc68","ios":"levelo://app?vid=b29d96dc-1401-44df-b52d-7c7065ddbc68"},"vehicle_type_id":"4","last_reported":1691082361,"current_range_meters":31200,"station_id":"ce4bgkh2rcd13ifvqbk0","pricing_plan_id":"free"},{"bike_id":"d4ee5ed7-c69b-479b-a8bd-1c014ab01908","system_id":"levelo_inurba_marseille","lat":43.2936,"lon":5.37835,"is_reserved":false,"is_disabled":false,"rental_uris":{"android":"levelo://app?vid=d4ee5ed7-c69b-479b-a8bd-1c014ab01908","ios":"levelo://app?vid=d4ee5ed7-c69b-479b-a8bd-1c014ab01908"},"vehicle_type_id":"4","last_reported":1691082361,"current_range_meters":31200,"station_id":"ce4bgjh2rcd13ifvqbf0","pricing_plan_id":"free"},{"bike_id":"8577c004-c037-40d1-89b1-15f8ab840083","system_id":"levelo_inurba_marseille","lat":43.29372,"lon":5.3785,"is_reserved":false,"is_disabled":false,"rental_uris":{"android":"levelo://app?vid=8577c004-c037-40d1-89b1-15f8ab840083","ios":"levelo://app?vid=8577c004-c037-40d1-89b1-15f8ab840083"},"vehicle_type_id":"4","last_reported":1691082361,"current_range_meters":18800,"station_id":"ce4bgjh2rcd13ifvqbf0","pricing_plan_id":"free"},{"bike_id":"f30d9b6f-92d2-472a-b0be-5fd469705354","system_id":"levelo_inurba_marseille","lat":43.301,"lon":5.39069,"is_reserved":false,"is_disabled":false,"rental_uris":{"android":"levelo://app?vid=f30d9b6f-92d2-472a-b0be-5fd469705354","ios":"levelo://app?vid=f30d9b6f-92d2-472a-b0be-5fd469705354"},"vehicle_type_id":"4","last_reported":1691082361,"current_range_meters":25600,"station_id":"","pricing_plan_id":"free"},{"bike_id":"9175c934-228c-44fd-9372-e68049e8c0bd","system_id":"levelo_inurba_marseille","lat":43.300839,"lon":5.390842,"is_reserved":false,"is_disabled":false,"rental_uris":{"android":"levelo://app?vid=9175c934-228c-44fd-9372-e68049e8c0bd","ios":"levelo://app?vid=9175c934-228c-44fd-9372-e68049e8c0bd"},"vehicle_type_id":"4","last_reported":1691082361,"current_range_meters":15600,"station_id":"","pricing_plan_id":"free"},{"bike_id":"63ada9a0-c997-4ec7-bdfe-c97a87b6de36","system_id":"levelo_inurba_marseille","lat":43.298764,"lon":5.388973,"is_reserved":false,"is_disabled":false,"rental_uris":{"android":"levelo://app?vid=63ada9a0-c997-4ec7-bdfe-c97a87b6de36","ios":"levelo://app?vid=63ada9a0-c997-4ec7-bdfe-c97a87b6de36"},"vehicle_type_id":"4","last_reported":1691082361,"current_range_meters":400,"station_id":"ce4bh392rcd13ifvqdl0","pricing_plan_id":"free"},{"bike_id":"0e0e25b3-5f10-4e38-a398-f0fa0f2a4c24","system_id":"levelo_inurba_marseille","lat":43.29198,"lon":5.35806,"is_reserved":false,"is_disabled":false,"rental_uris":{"android":"levelo://app?vid=0e0e25b3-5f10-4e38-a398-f0fa0f2a4c24","ios":"levelo://app?vid=0e0e25b3-5f10-4e38-a398-f0fa0f2a4c24"},"vehicle_type_id":"4","last_reported":1691082361,"current_range_meters":15200,"station_id":"ce4bhb12rcd13ifvqel0","pricing_plan_id":"free"},{"bike_id":"a5bca8f9-3a59-41c2-8aa3-d18fc8c4af59","system_id":"levelo_inurba_marseille","lat":43.29199,"lon":5.35793,"is_reserved":false,"is_disabled":false,"rental_uris":{"android":"levelo://app?vid=a5bca8f9-3a59-41c2-8aa3-d18fc8c4af59","ios":"levelo://app?vid=a5bca8f9-3a59-41c2-8aa3-d18fc8c4af59"},"vehicle_type_id":"4","last_reported":1691082361,"current_range_meters":7600,"station_id":"ce4bhb12rcd13ifvqel0","pricing_plan_id":"free"},{"bike_id":"7bfd4084-7a35-4ab7-b9a1-b5aa1d29d6e1","system_id":"levelo_inurba_marseille","lat":43.29196,"lon":5.35794,"is_reserved":false,"is_disabled":false,"rental_uris":{"android":"levelo://app?vid=7bfd4084-7a35-4ab7-b9a1-b5aa1d29d6e1","ios":"levelo://app?vid=7bfd4084-7a35-4ab7-b9a1-b5aa1d29d6e1"},"vehicle_type_id":"4","last_reported":1691082361,"current_range_meters":0,"station_id":"ce4bhb12rcd13ifvqel0","pricing_plan_id":"free"},{"bike_id":"a0bea851-2c36-4bbc-907f-071100d84dd8","system_id":"levelo_inurba_marseille","lat":43.29194,"lon":5.35794,"is_reserved":false,"is_disabled":false,"rental_uris":{"android":"levelo://app?vid=a0bea851-2c36-4bbc-907f-071100d84dd8","ios":"levelo://app?vid=a0bea851-2c36-4bbc-907f-071100d84dd8"},"vehicle_type_id":"4","last_reported":1691082361,"current_range_meters":18000,"station_id":"ce4bhb12rcd13ifvqel0","pricing_plan_id":"free"},{"bike_id":"eafc2c9c-ddb3-40d3-a5d0-4b181eb8af5a","system_id":"levelo_inurba_marseille","lat":43.313291,"lon":5.396838,"is_reserved":false,"is_disabled":false,"rental_uris":{"android":"levelo://app?vid=eafc2c9c-ddb3-40d3-a5d0-4b181eb8af5a","ios":"levelo://app?vid=eafc2c9c-ddb3-40d3-a5d0-4b181eb8af5a"},"vehicle_type_id":"4","last_reported":1691082361,"current_range_meters":5200,"station_id":"ce4bgvp2rcd13ifvqcu0","pricing_plan_id":"free"},{"bike_id":"a3827df2-42cb-4db6-b900-4e24dea030db","system_id":"levelo_inurba_marseille","lat":43.313291,"lon":5.396838,"is_reserved":false,"is_disabled":false,"rental_uris":{"android":"levelo://app?vid=a3827df2-42cb-4db6-b900-4e24dea030db","ios":"levelo://app?vid=a3827df2-42cb-4db6-b900-4e24dea030db"},"vehicle_type_id":"4","last_reported":1691082361,"current_range_meters":2000,"station_id":"ce4bgvp2rcd13ifvqcu0","pricing_plan_id":"free"},{"bike_id":"a1af0c14-cc5f-4030-a034-6e1dd604b1a9","system_id":"levelo_inurba_marseille","lat":43.31327,"lon":5.39694,"is_reserved":false,"is_disabled":false,"rental_uris":{"android":"levelo://app?vid=a1af0c14-cc5f-4030-a034-6e1dd604b1a9","ios":"levelo://app?vid=a1af0c14-cc5f-4030-a034-6e1dd604b1a9"},"vehicle_type_id":"4","last_reported":1691082361,"current_range_meters":24400,"station_id":"ce4bgvp2rcd13ifvqcu0","pricing_plan_id":"free"},{"bike_id":"a4d620e1-07bc-41d0-af5d-08826b7bba78","system_id":"levelo_inurba_marseille","lat":43.3133,"lon":5.39697,"is_reserved":false,"is_disabled":false,"rental_uris":{"android":"levelo://app?vid=a4d620e1-07bc-41d0-af5d-08826b7bba78","ios":"levelo://app?vid=a4d620e1-07bc-41d0-af5d-08826b7bba78"},"vehicle_type_id":"4","last_reported":1691082361,"current_range_meters":17600,"station_id":"ce4bgvp2rcd13ifvqcu0","pricing_plan_id":"free"},{"bike_id":"985c624a-f06f-412a-81bc-f739fc545433","system_id":"levelo_inurba_marseille","lat":43.29187,"lon":5.35795,"is_reserved":false,"is_disabled":false,"rental_uris":{"android":"levelo://app?vid=985c624a-f06f-412a-81bc-f739fc545433","ios":"levelo://app?vid=985c624a-f06f-412a-81bc-f739fc545433"},"vehicle_type_id":"4","last_reported":1691082361,"current_range_meters":800,"station_id":"ce4bhb12rcd13ifvqel0","pricing_plan_id":"free"},{"bike_id":"cd571bbb-eb20-4420-a1c4-0594c755cda0","system_id":"levelo_inurba_marseille","lat":43.294153,"lon":5.386305,"is_reserved":false,"is_disabled":false,"rental_uris":{"android":"levelo://app?vid=cd571bbb-eb20-4420-a1c4-0594c755cda0","ios":"levelo://app?vid=cd571bbb-eb20-4420-a1c4-0594c755cda0"},"vehicle_type_id":"4","last_reported":1691082361,"current_range_meters":29200,"station_id":"ce4bh2h2rcd13ifvqdh0","pricing_plan_id":"free"},{"bike_id":"dcb5103a-169c-42d1-a6b9-73277159cd3a","system_id":"levelo_inurba_marseille","lat":43.28944,"lon":5.36646,"is_reserved":false,"is_disabled":false,"rental_uris":{"android":"levelo://app?vid=dcb5103a-169c-42d1-a6b9-73277159cd3a","ios":"levelo://app?vid=dcb5103a-169c-42d1-a6b9-73277159cd3a"},"vehicle_type_id":"4","last_reported":1691082361,"current_range_meters":5200,"station_id":"ce4bhap2rcd13ifvqek0","pricing_plan_id":"free"},{"bike_id":"3f5c2607-c5d1-4ad0-9034-dc011ee897cb","system_id":"levelo_inurba_marseille","lat":43.289184,"lon":5.366408,"is_reserved":false,"is_disabled":false,"rental_uris":{"android":"levelo://app?vid=3f5c2607-c5d1-4ad0-9034-dc011ee897cb","ios":"levelo://app?vid=3f5c2607-c5d1-4ad0-9034-dc011ee897cb"},"vehicle_type_id":"4","last_reported":1691082361,"current_range_meters":3600,"station_id":"ce4bhap2rcd13ifvqek0","pricing_plan_id":"free"},{"bike_id":"fe81016e-e13a-4794-9512-b5cb39f0e6b9","system_id":"levelo_inurba_marseille","lat":43.28943,"lon":5.36638,"is_reserved":false,"is_disabled":false,"rental_uris":{"android":"levelo://app?vid=fe81016e-e13a-4794-9512-b5cb39f0e6b9","ios":"levelo://app?vid=fe81016e-e13a-4794-9512-b5cb39f0e6b9"},"vehicle_type_id":"4","last_reported":1691082361,"current_range_meters":31200,"station_id":"ce4bhap2rcd13ifvqek0","pricing_plan_id":"free"},{"bike_id":"d517aeb0-a40f-41cd-98c7-7bf9231c5315","system_id":"levelo_inurba_marseille","lat":43.2894,"lon":5.36626,"is_reserved":false,"is_disabled":false,"rental_uris":{"android":"levelo://app?vid=d517aeb0-a40f-41cd-98c7-7bf9231c5315","ios":"levelo://app?vid=d517aeb0-a40f-41cd-98c7-7bf9231c5315"},"vehicle_type_id":"4","last_reported":1691082361,"current_range_meters":31200,"station_id":"ce4bhap2rcd13ifvqek0","pricing_plan_id":"free"},{"bike_id":"925e2851-ae6e-49d0-a23d-59e1df652480","system_id":"levelo_inurba_marseille","lat":43.289184,"lon":5.366408,"is_reserved":false,"is_disabled":false,"rental_uris":{"android":"levelo://app?vid=925e2851-ae6e-49d0-a23d-59e1df652480","ios":"levelo://app?vid=925e2851-ae6e-49d0-a23d-59e1df652480"},"vehicle_type_id":"4","last_reported":1691082361,"current_range_meters":5600,"station_id":"ce4bhap2rcd13ifvqek0","pricing_plan_id":"free"},{"bike_id":"9ee076db-682a-4b3a-a5be-a1a8078d1b82","system_id":"levelo_inurba_marseille","lat":43.304296,"lon":5.397513,"is_reserved":false,"is_disabled":false,"rental_uris":{"android":"levelo://app?vid=9ee076db-682a-4b3a-a5be-a1a8078d1b82","ios":"levelo://app?vid=9ee076db-682a-4b3a-a5be-a1a8078d1b82"},"vehicle_type_id":"4","last_reported":1691082361,"current_range_meters":13200,"station_id":"ce4bh092rcd13ifvqd20","pricing_plan_id":"free"},{"bike_id":"d339e234-8bf6-43a2-880f-daadbfd473c8","system_id":"levelo_inurba_marseille","lat":43.304274,"lon":5.397513,"is_reserved":false,"is_disabled":false,"rental_uris":{"android":"levelo://app?vid=d339e234-8bf6-43a2-880f-daadbfd473c8","ios":"levelo://app?vid=d339e234-8bf6-43a2-880f-daadbfd473c8"},"vehicle_type_id":"4","last_reported":1691082361,"current_range_meters":16000,"station_id":"ce4bh092rcd13ifvqd20","pricing_plan_id":"free"},{"bike_id":"871dfdc1-9994-4fec-8440-4c0be64d8b6f","system_id":"levelo_inurba_marseille","lat":43.304296,"lon":5.397513,"is_reserved":false,"is_disabled":false,"rental_uris":{"android":"levelo://app?vid=871dfdc1-9994-4fec-8440-4c0be64d8b6f","ios":"levelo://app?vid=871dfdc1-9994-4fec-8440-4c0be64d8b6f"},"vehicle_type_id":"4","last_reported":1691082361,"current_range_meters":12400,"station_id":"ce4bh092rcd13ifvqd20","pricing_plan_id":"free"},{"bike_id":"e97a6272-6a9d-434f-ad2d-e3196bd12507","system_id":"levelo_inurba_marseille","lat":43.292642,"lon":5.384254,"is_reserved":false,"is_disabled":false,"rental_uris":{"android":"levelo://app?vid=e97a6272-6a9d-434f-ad2d-e3196bd12507","ios":"levelo://app?vid=e97a6272-6a9d-434f-ad2d-e3196bd12507"},"vehicle_type_id":"4","last_reported":1691082361,"current_range_meters":2800,"station_id":"ce4bh692rcd13ifvqea0","pricing_plan_id":"free"},{"bike_id":"00b2dcdc-2882-40a1-9132-89c3ec15cf18","system_id":"levelo_inurba_marseille","lat":43.33047,"lon":5.38909,"is_reserved":false,"is_disabled":false,"rental_uris":{"android":"levelo://app?vid=00b2dcdc-2882-40a1-9132-89c3ec15cf18","ios":"levelo://app?vid=00b2dcdc-2882-40a1-9132-89c3ec15cf18"},"vehicle_type_id":"4","last_reported":1691082361,"current_range_meters":23200,"station_id":"ce4bhr92rcd13ifvqhrg","pricing_plan_id":"free"},{"bike_id":"2f2d42a2-8de0-405f-9429-d3eae654394c","system_id":"levelo_inurba_marseille","lat":43.33047,"lon":5.3891,"is_reserved":false,"is_disabled":false,"rental_uris":{"android":"levelo://app?vid=2f2d42a2-8de0-405f-9429-d3eae654394c","ios":"levelo://app?vid=2f2d42a2-8de0-405f-9429-d3eae654394c"},"vehicle_type_id":"4","last_reported":1691082361,"current_range_meters":25600,"station_id":"ce4bhr92rcd13ifvqhrg","pricing_plan_id":"free"},{"bike_id":"f67edc25-bcc7-41fb-8431-1add679b0933","system_id":"levelo_inurba_marseille","lat":43.33046,"lon":5.38913,"is_reserved":false,"is_disabled":false,"rental_uris":{"android":"levelo://app?vid=f67edc25-bcc7-41fb-8431-1add679b0933","ios":"levelo://app?vid=f67edc25-bcc7-41fb-8431-1add679b0933"},"vehicle_type_id":"4","last_reported":1691082361,"current_range_meters":24000,"station_id":"ce4bhr92rcd13ifvqhrg","pricing_plan_id":"free"},{"bike_id":"976f718a-bfdb-4480-a757-e5b9a5d1a5d6","system_id":"levelo_inurba_marseille","lat":43.33045,"lon":5.38915,"is_reserved":false,"is_disabled":false,"rental_uris":{"android":"levelo://app?vid=976f718a-bfdb-4480-a757-e5b9a5d1a5d6","ios":"levelo://app?vid=976f718a-bfdb-4480-a757-e5b9a5d1a5d6"},"vehicle_type_id":"4","last_reported":1691082361,"current_range_meters":17600,"station_id":"ce4bhr92rcd13ifvqhrg","pricing_plan_id":"free"},{"bike_id":"687e306a-fbf1-4137-8e2f-587548175df0","system_id":"levelo_inurba_marseille","lat":43.290104,"lon":5.356111,"is_reserved":false,"is_disabled":false,"rental_uris":{"android":"levelo://app?vid=687e306a-fbf1-4137-8e2f-587548175df0","ios":"levelo://app?vid=687e306a-fbf1-4137-8e2f-587548175df0"},"vehicle_type_id":"4","last_reported":1691082361,"current_range_meters":0,"station_id":"ce4bhb92rcd13ifvqen0","pricing_plan_id":"free"},{"bike_id":"36a540ee-c84d-4fdf-8ad6-81577306aacb","system_id":"levelo_inurba_marseille","lat":43.290103,"lon":5.356114,"is_reserved":false,"is_disabled":false,"rental_uris":{"android":"levelo://app?vid=36a540ee-c84d-4fdf-8ad6-81577306aacb","ios":"levelo://app?vid=36a540ee-c84d-4fdf-8ad6-81577306aacb"},"vehicle_type_id":"4","last_reported":1691082361,"current_range_meters":19600,"station_id":"ce4bhb92rcd13ifvqen0","pricing_plan_id":"free"},{"bike_id":"95ccb5c9-48c1-4a80-947c-63d8094b82e8","system_id":"levelo_inurba_marseille","lat":43.290104,"lon":5.356111,"is_reserved":false,"is_disabled":false,"rental_uris":{"android":"levelo://app?vid=95ccb5c9-48c1-4a80-947c-63d8094b82e8","ios":"levelo://app?vid=95ccb5c9-48c1-4a80-947c-63d8094b82e8"},"vehicle_type_id":"4","last_reported":1691082361,"current_range_meters":0,"station_id":"ce4bhb92rcd13ifvqen0","pricing_plan_id":"free"},{"bike_id":"20cf3f6d-acf4-4653-bf24-baa04253f77a","system_id":"levelo_inurba_marseille","lat":43.33043,"lon":5.3892,"is_reserved":false,"is_disabled":false,"rental_uris":{"android":"levelo://app?vid=20cf3f6d-acf4-4653-bf24-baa04253f77a","ios":"levelo://app?vid=20cf3f6d-acf4-4653-bf24-baa04253f77a"},"vehicle_type_id":"4","last_reported":1691082361,"current_range_meters":23200,"station_id":"ce4bhr92rcd13ifvqhrg","pricing_plan_id":"free"},{"bike_id":"05bf2cc0-c80b-4d3b-9303-5cea93148e89","system_id":"levelo_inurba_marseille","lat":43.290995,"lon":5.381361,"is_reserved":false,"is_disabled":false,"rental_uris":{"android":"levelo://app?vid=05bf2cc0-c80b-4d3b-9303-5cea93148e89","ios":"levelo://app?vid=05bf2cc0-c80b-4d3b-9303-5cea93148e89"},"vehicle_type_id":"4","last_reported":1691082361,"current_range_meters":31200,"station_id":"ce4bh512rcd13ifvqe2g","pricing_plan_id":"free"},{"bike_id":"bab83112-933b-4726-9767-ea58fda15beb","system_id":"levelo_inurba_marseille","lat":43.29789,"lon":5.3934,"is_reserved":false,"is_disabled":false,"rental_uris":{"android":"levelo://app?vid=bab83112-933b-4726-9767-ea58fda15beb","ios":"levelo://app?vid=bab83112-933b-4726-9767-ea58fda15beb"},"vehicle_type_id":"4","last_reported":1691082361,"current_range_meters":3200,"station_id":"chh1huq6cuj3fo74tm60","pricing_plan_id":"free"},{"bike_id":"47cb4009-f6b1-4934-8d47-a6f043d87890","system_id":"levelo_inurba_marseille","lat":43.29785,"lon":5.39343,"is_reserved":false,"is_disabled":false,"rental_uris":{"android":"levelo://app?vid=47cb4009-f6b1-4934-8d47-a6f043d87890","ios":"levelo://app?vid=47cb4009-f6b1-4934-8d47-a6f043d87890"},"vehicle_type_id":"4","last_reported":1691082361,"current_range_meters":15600,"station_id":"chh1huq6cuj3fo74tm60","pricing_plan_id":"free"},{"bike_id":"eb3b6731-0522-4e97-89c0-5fb9c7952fc8","system_id":"levelo_inurba_marseille","lat":43.295169,"lon":5.390426,"is_reserved":false,"is_disabled":false,"rental_uris":{"android":"levelo://app?vid=eb3b6731-0522-4e97-89c0-5fb9c7952fc8","ios":"levelo://app?vid=eb3b6731-0522-4e97-89c0-5fb9c7952fc8"},"vehicle_type_id":"4","last_reported":1691082361,"current_range_meters":13200,"station_id":"ce4bh3p2rcd13ifvqdp0","pricing_plan_id":"free"},{"bike_id":"1b013cf7-deef-452c-8249-805da85e181f","system_id":"levelo_inurba_marseille","lat":43.29773,"lon":5.39347,"is_reserved":false,"is_disabled":false,"rental_uris":{"android":"levelo://app?vid=1b013cf7-deef-452c-8249-805da85e181f","ios":"levelo://app?vid=1b013cf7-deef-452c-8249-805da85e181f"},"vehicle_type_id":"4","last_reported":1691082361,"current_range_meters":0,"station_id":"chh1huq6cuj3fo74tm60","pricing_plan_id":"free"},{"bike_id":"2cce772d-6140-4bc5-90bb-f7aa21d561a9","system_id":"levelo_inurba_marseille","lat":43.295169,"lon":5.390426,"is_reserved":false,"is_disabled":false,"rental_uris":{"android":"levelo://app?vid=2cce772d-6140-4bc5-90bb-f7aa21d561a9","ios":"levelo://app?vid=2cce772d-6140-4bc5-90bb-f7aa21d561a9"},"vehicle_type_id":"4","last_reported":1691082361,"current_range_meters":19200,"station_id":"ce4bh3p2rcd13ifvqdp0","pricing_plan_id":"free"},{"bike_id":"875f2d38-c8da-4c48-b4ac-0adff3105bf9","system_id":"levelo_inurba_marseille","lat":43.28851,"lon":5.35861,"is_reserved":false,"is_disabled":false,"rental_uris":{"android":"levelo://app?vid=875f2d38-c8da-4c48-b4ac-0adff3105bf9","ios":"levelo://app?vid=875f2d38-c8da-4c48-b4ac-0adff3105bf9"},"vehicle_type_id":"4","last_reported":1691082361,"current_range_meters":31200,"station_id":"ce4bhb12rcd13ifvqem0","pricing_plan_id":"free"},{"bike_id":"3f2911fc-87c7-44ff-9919-1126f71d74c9","system_id":"levelo_inurba_marseille","lat":43.28852,"lon":5.35854,"is_reserved":false,"is_disabled":false,"rental_uris":{"android":"levelo://app?vid=3f2911fc-87c7-44ff-9919-1126f71d74c9","ios":"levelo://app?vid=3f2911fc-87c7-44ff-9919-1126f71d74c9"},"vehicle_type_id":"4","last_reported":1691082361,"current_range_meters":29600,"station_id":"ce4bhb12rcd13ifvqem0","pricing_plan_id":"free"},{"bike_id":"f93ccc5b-20a6-4fdb-af97-4cd24d1176fe","system_id":"levelo_inurba_marseille","lat":43.312702,"lon":5.401687,"is_reserved":false,"is_disabled":false,"rental_uris":{"android":"levelo://app?vid=f93ccc5b-20a6-4fdb-af97-4cd24d1176fe","ios":"levelo://app?vid=f93ccc5b-20a6-4fdb-af97-4cd24d1176fe"},"vehicle_type_id":"4","last_reported":1691082361,"current_range_meters":3200,"station_id":"ce4bh092rcd13ifvqd30","pricing_plan_id":"free"},{"bike_id":"a4c89ac0-36fd-40ff-a4bf-8cdce77408bd","system_id":"levelo_inurba_marseille","lat":43.309371,"lon":5.401449,"is_reserved":false,"is_disabled":false,"rental_uris":{"android":"levelo://app?vid=a4c89ac0-36fd-40ff-a4bf-8cdce77408bd","ios":"levelo://app?vid=a4c89ac0-36fd-40ff-a4bf-8cdce77408bd"},"vehicle_type_id":"4","last_reported":1691082361,"current_range_meters":1200,"station_id":"ce4bgvp2rcd13ifvqct0","pricing_plan_id":"free"},{"bike_id":"c362f180-c83b-4db0-a71e-a921d98d45a3","system_id":"levelo_inurba_marseille","lat":43.33751,"lon":5.37468,"is_reserved":false,"is_disabled":false,"rental_uris":{"android":"levelo://app?vid=c362f180-c83b-4db0-a71e-a921d98d45a3","ios":"levelo://app?vid=c362f180-c83b-4db0-a71e-a921d98d45a3"},"vehicle_type_id":"4","last_reported":1691082361,"current_range_meters":28800,"station_id":"","pricing_plan_id":"free"},{"bike_id":"a3489843-514e-4654-bb87-bd57645f5cbb","system_id":"levelo_inurba_marseille","lat":43.30642,"lon":5.401031,"is_reserved":false,"is_disabled":false,"rental_uris":{"android":"levelo://app?vid=a3489843-514e-4654-bb87-bd57645f5cbb","ios":"levelo://app?vid=a3489843-514e-4654-bb87-bd57645f5cbb"},"vehicle_type_id":"4","last_reported":1691082361,"current_range_meters":20000,"station_id":"ce4bh112rcd13ifvqda0","pricing_plan_id":"free"},{"bike_id":"1e195414-e278-488d-99b5-3f87f91acd85","system_id":"levelo_inurba_marseille","lat":43.30642,"lon":5.401031,"is_reserved":false,"is_disabled":false,"rental_uris":{"android":"levelo://app?vid=1e195414-e278-488d-99b5-3f87f91acd85","ios":"levelo://app?vid=1e195414-e278-488d-99b5-3f87f91acd85"},"vehicle_type_id":"4","last_reported":1691082361,"current_range_meters":4800,"station_id":"ce4bh112rcd13ifvqda0","pricing_plan_id":"free"},{"bike_id":"0b17260e-c091-403d-9439-661c8c945a2f","system_id":"levelo_inurba_marseille","lat":43.30642,"lon":5.40089,"is_reserved":false,"is_disabled":false,"rental_uris":{"android":"levelo://app?vid=0b17260e-c091-403d-9439-661c8c945a2f","ios":"levelo://app?vid=0b17260e-c091-403d-9439-661c8c945a2f"},"vehicle_type_id":"4","last_reported":1691082361,"current_range_meters":22400,"station_id":"ce4bh112rcd13ifvqda0","pricing_plan_id":"free"},{"bike_id":"52c80305-6095-4d42-ab27-1eb5f32245b0","system_id":"levelo_inurba_marseille","lat":43.30642,"lon":5.401031,"is_reserved":false,"is_disabled":false,"rental_uris":{"android":"levelo://app?vid=52c80305-6095-4d42-ab27-1eb5f32245b0","ios":"levelo://app?vid=52c80305-6095-4d42-ab27-1eb5f32245b0"},"vehicle_type_id":"4","last_reported":1691082361,"current_range_meters":14800,"station_id":"ce4bh112rcd13ifvqda0","pricing_plan_id":"free"},{"bike_id":"32e64865-2b52-4049-bcbc-e8eef4b3a36c","system_id":"levelo_inurba_marseille","lat":43.30642,"lon":5.401031,"is_reserved":false,"is_disabled":false,"rental_uris":{"android":"levelo://app?vid=32e64865-2b52-4049-bcbc-e8eef4b3a36c","ios":"levelo://app?vid=32e64865-2b52-4049-bcbc-e8eef4b3a36c"},"vehicle_type_id":"4","last_reported":1691082361,"current_range_meters":14800,"station_id":"ce4bh112rcd13ifvqda0","pricing_plan_id":"free"},{"bike_id":"7155a8da-a878-4acd-9a12-555d322365d3","system_id":"levelo_inurba_marseille","lat":43.301117,"lon":5.398795,"is_reserved":false,"is_disabled":false,"rental_uris":{"android":"levelo://app?vid=7155a8da-a878-4acd-9a12-555d322365d3","ios":"levelo://app?vid=7155a8da-a878-4acd-9a12-555d322365d3"},"vehicle_type_id":"4","last_reported":1691082361,"current_range_meters":14000,"station_id":"ce4bh0h2rcd13ifvqd40","pricing_plan_id":"free"},{"bike_id":"ba865c35-b94d-425a-a587-fae18e90c18b","system_id":"levelo_inurba_marseille","lat":43.286591,"lon":5.363346,"is_reserved":false,"is_disabled":false,"rental_uris":{"android":"levelo://app?vid=ba865c35-b94d-425a-a587-fae18e90c18b","ios":"levelo://app?vid=ba865c35-b94d-425a-a587-fae18e90c18b"},"vehicle_type_id":"4","last_reported":1691082361,"current_range_meters":16800,"station_id":"ce4bhah2rcd13ifvqej0","pricing_plan_id":"free"},{"bike_id":"99951d71-8072-4157-8d43-b418d47db10d","system_id":"levelo_inurba_marseille","lat":43.298681,"lon":5.397225,"is_reserved":false,"is_disabled":false,"rental_uris":{"android":"levelo://app?vid=99951d71-8072-4157-8d43-b418d47db10d","ios":"levelo://app?vid=99951d71-8072-4157-8d43-b418d47db10d"},"vehicle_type_id":"4","last_reported":1691082361,"current_range_meters":13600,"station_id":"ce4bh0h2rcd13ifvqd50","pricing_plan_id":"free"},{"bike_id":"7580cebb-72ed-4e8b-9f94-809f5a82d03b","system_id":"levelo_inurba_marseille","lat":43.286591,"lon":5.363346,"is_reserved":false,"is_disabled":false,"rental_uris":{"android":"levelo://app?vid=7580cebb-72ed-4e8b-9f94-809f5a82d03b","ios":"levelo://app?vid=7580cebb-72ed-4e8b-9f94-809f5a82d03b"},"vehicle_type_id":"4","last_reported":1691082361,"current_range_meters":9600,"station_id":"ce4bhah2rcd13ifvqej0","pricing_plan_id":"free"},{"bike_id":"4d0a8236-d7af-47ac-b11f-558a8ab41796","system_id":"levelo_inurba_marseille","lat":43.298681,"lon":5.397225,"is_reserved":false,"is_disabled":false,"rental_uris":{"android":"levelo://app?vid=4d0a8236-d7af-47ac-b11f-558a8ab41796","ios":"levelo://app?vid=4d0a8236-d7af-47ac-b11f-558a8ab41796"},"vehicle_type_id":"4","last_reported":1691082361,"current_range_meters":16800,"station_id":"ce4bh0h2rcd13ifvqd50","pricing_plan_id":"free"},{"bike_id":"75199276-b705-4ad7-b6a9-49aeaa84628a","system_id":"levelo_inurba_marseille","lat":43.286591,"lon":5.363346,"is_reserved":false,"is_disabled":false,"rental_uris":{"android":"levelo://app?vid=75199276-b705-4ad7-b6a9-49aeaa84628a","ios":"levelo://app?vid=75199276-b705-4ad7-b6a9-49aeaa84628a"},"vehicle_type_id":"4","last_reported":1691082361,"current_range_meters":31600,"station_id":"ce4bhah2rcd13ifvqej0","pricing_plan_id":"free"},{"bike_id":"ed2753c6-8e2c-42ac-8b1d-99fdc9ebce59","system_id":"levelo_inurba_marseille","lat":43.28665,"lon":5.36337,"is_reserved":false,"is_disabled":false,"rental_uris":{"android":"levelo://app?vid=ed2753c6-8e2c-42ac-8b1d-99fdc9ebce59","ios":"levelo://app?vid=ed2753c6-8e2c-42ac-8b1d-99fdc9ebce59"},"vehicle_type_id":"4","last_reported":1691082361,"current_range_meters":27200,"station_id":"ce4bhah2rcd13ifvqej0","pricing_plan_id":"free"},{"bike_id":"0f61ee0f-cd1d-41db-872d-df4c71c60b2b","system_id":"levelo_inurba_marseille","lat":43.286591,"lon":5.363346,"is_reserved":false,"is_disabled":false,"rental_uris":{"android":"levelo://app?vid=0f61ee0f-cd1d-41db-872d-df4c71c60b2b","ios":"levelo://app?vid=0f61ee0f-cd1d-41db-872d-df4c71c60b2b"},"vehicle_type_id":"4","last_reported":1691082361,"current_range_meters":0,"station_id":"ce4bhah2rcd13ifvqej0","pricing_plan_id":"free"},{"bike_id":"c9dc7c38-6477-4fe9-bf05-0def693d7792","system_id":"levelo_inurba_marseille","lat":43.298681,"lon":5.397225,"is_reserved":false,"is_disabled":false,"rental_uris":{"android":"levelo://app?vid=c9dc7c38-6477-4fe9-bf05-0def693d7792","ios":"levelo://app?vid=c9dc7c38-6477-4fe9-bf05-0def693d7792"},"vehicle_type_id":"4","last_reported":1691082361,"current_range_meters":14800,"station_id":"ce4bh0h2rcd13ifvqd50","pricing_plan_id":"free"},{"bike_id":"19317221-3c90-47ad-9a44-b27c6528aed4","system_id":"levelo_inurba_marseille","lat":43.286591,"lon":5.363346,"is_reserved":false,"is_disabled":false,"rental_uris":{"android":"levelo://app?vid=19317221-3c90-47ad-9a44-b27c6528aed4","ios":"levelo://app?vid=19317221-3c90-47ad-9a44-b27c6528aed4"},"vehicle_type_id":"4","last_reported":1691082361,"current_range_meters":9600,"station_id":"ce4bhah2rcd13ifvqej0","pricing_plan_id":"free"},{"bike_id":"9d31994e-1e6d-47e8-9f16-b41dfe4551d8","system_id":"levelo_inurba_marseille","lat":43.286593,"lon":5.363346,"is_reserved":false,"is_disabled":false,"rental_uris":{"android":"levelo://app?vid=9d31994e-1e6d-47e8-9f16-b41dfe4551d8","ios":"levelo://app?vid=9d31994e-1e6d-47e8-9f16-b41dfe4551d8"},"vehicle_type_id":"4","last_reported":1691082361,"current_range_meters":31200,"station_id":"ce4bhah2rcd13ifvqej0","pricing_plan_id":"free"},{"bike_id":"9972b86f-dace-40a8-a865-0e3b8d914dd0","system_id":"levelo_inurba_marseille","lat":43.286961,"lon":5.373785,"is_reserved":false,"is_disabled":false,"rental_uris":{"android":"levelo://app?vid=9972b86f-dace-40a8-a865-0e3b8d914dd0","ios":"levelo://app?vid=9972b86f-dace-40a8-a865-0e3b8d914dd0"},"vehicle_type_id":"4","last_reported":1691082361,"current_range_meters":8400,"station_id":"ce4bh3p2rcd13ifvqdq0","pricing_plan_id":"free"},{"bike_id":"5f09d22e-696d-479c-a258-50293c9e8215","system_id":"levelo_inurba_marseille","lat":43.28656,"lon":5.3634,"is_reserved":false,"is_disabled":false,"rental_uris":{"android":"levelo://app?vid=5f09d22e-696d-479c-a258-50293c9e8215","ios":"levelo://app?vid=5f09d22e-696d-479c-a258-50293c9e8215"},"vehicle_type_id":"4","last_reported":1691082361,"current_range_meters":16800,"station_id":"ce4bhah2rcd13ifvqej0","pricing_plan_id":"free"},{"bike_id":"f9a45f3d-e42a-4425-993a-26dcb615f125","system_id":"levelo_inurba_marseille","lat":43.295196,"lon":5.39397,"is_reserved":false,"is_disabled":false,"rental_uris":{"android":"levelo://app?vid=f9a45f3d-e42a-4425-993a-26dcb615f125","ios":"levelo://app?vid=f9a45f3d-e42a-4425-993a-26dcb615f125"},"vehicle_type_id":"4","last_reported":1691082361,"current_range_meters":19600,"station_id":"ce4bh292rcd13ifvqdf0","pricing_plan_id":"free"},{"bike_id":"cac20182-a00f-4daf-ab7a-ef6233f91624","system_id":"levelo_inurba_marseille","lat":43.295196,"lon":5.39397,"is_reserved":false,"is_disabled":false,"rental_uris":{"android":"levelo://app?vid=cac20182-a00f-4daf-ab7a-ef6233f91624","ios":"levelo://app?vid=cac20182-a00f-4daf-ab7a-ef6233f91624"},"vehicle_type_id":"4","last_reported":1691082361,"current_range_meters":26400,"station_id":"ce4bh292rcd13ifvqdf0","pricing_plan_id":"free"},{"bike_id":"7b9e2d57-7c2f-4652-8ec0-ee4d147afe24","system_id":"levelo_inurba_marseille","lat":43.302548,"lon":5.400568,"is_reserved":false,"is_disabled":false,"rental_uris":{"android":"levelo://app?vid=7b9e2d57-7c2f-4652-8ec0-ee4d147afe24","ios":"levelo://app?vid=7b9e2d57-7c2f-4652-8ec0-ee4d147afe24"},"vehicle_type_id":"4","last_reported":1691082361,"current_range_meters":18000,"station_id":"","pricing_plan_id":"free"},{"bike_id":"b077b447-ba9c-4041-81cb-f2aa04d4a7a8","system_id":"levelo_inurba_marseille","lat":43.302759,"lon":5.400793,"is_reserved":false,"is_disabled":false,"rental_uris":{"android":"levelo://app?vid=b077b447-ba9c-4041-81cb-f2aa04d4a7a8","ios":"levelo://app?vid=b077b447-ba9c-4041-81cb-f2aa04d4a7a8"},"vehicle_type_id":"4","last_reported":1691082361,"current_range_meters":16800,"station_id":"ce4bgvh2rcd13ifvqcs0","pricing_plan_id":"free"},{"bike_id":"ecbc6e13-32a2-491e-b2cb-901d14db29e9","system_id":"levelo_inurba_marseille","lat":43.302759,"lon":5.400793,"is_reserved":false,"is_disabled":false,"rental_uris":{"android":"levelo://app?vid=ecbc6e13-32a2-491e-b2cb-901d14db29e9","ios":"levelo://app?vid=ecbc6e13-32a2-491e-b2cb-901d14db29e9"},"vehicle_type_id":"4","last_reported":1691082361,"current_range_meters":6800,"station_id":"ce4bgvh2rcd13ifvqcs0","pricing_plan_id":"free"},{"bike_id":"f8a2b7bb-ff13-4e2e-8072-96446c5beeed","system_id":"levelo_inurba_marseille","lat":43.286039,"lon":5.370681,"is_reserved":false,"is_disabled":false,"rental_uris":{"android":"levelo://app?vid=f8a2b7bb-ff13-4e2e-8072-96446c5beeed","ios":"levelo://app?vid=f8a2b7bb-ff13-4e2e-8072-96446c5beeed"},"vehicle_type_id":"4","last_reported":1691082361,"current_range_meters":6400,"station_id":"ce4bht12rcd13ifvqi60","pricing_plan_id":"free"},{"bike_id":"fbbd6e6b-fa07-4265-b787-4d33022ca54a","system_id":"levelo_inurba_marseille","lat":43.286039,"lon":5.370681,"is_reserved":false,"is_disabled":false,"rental_uris":{"android":"levelo://app?vid=fbbd6e6b-fa07-4265-b787-4d33022ca54a","ios":"levelo://app?vid=fbbd6e6b-fa07-4265-b787-4d33022ca54a"},"vehicle_type_id":"4","last_reported":1691082361,"current_range_meters":23600,"station_id":"ce4bht12rcd13ifvqi60","pricing_plan_id":"free"},{"bike_id":"4526d1dd-46c5-4a07-8205-ad40a4c10150","system_id":"levelo_inurba_marseille","lat":43.286039,"lon":5.370681,"is_reserved":false,"is_disabled":false,"rental_uris":{"android":"levelo://app?vid=4526d1dd-46c5-4a07-8205-ad40a4c10150","ios":"levelo://app?vid=4526d1dd-46c5-4a07-8205-ad40a4c10150"},"vehicle_type_id":"4","last_reported":1691082361,"current_range_meters":14800,"station_id":"ce4bht12rcd13ifvqi60","pricing_plan_id":"free"},{"bike_id":"ccf55448-62e3-413d-a2d0-c4a11de8f69b","system_id":"levelo_inurba_marseille","lat":43.286039,"lon":5.370681,"is_reserved":false,"is_disabled":false,"rental_uris":{"android":"levelo://app?vid=ccf55448-62e3-413d-a2d0-c4a11de8f69b","ios":"levelo://app?vid=ccf55448-62e3-413d-a2d0-c4a11de8f69b"},"vehicle_type_id":"4","last_reported":1691082361,"current_range_meters":29600,"station_id":"ce4bht12rcd13ifvqi60","pricing_plan_id":"free"},{"bike_id":"22ad1e22-3771-416f-9977-19a5b7e158b8","system_id":"levelo_inurba_marseille","lat":43.286039,"lon":5.370681,"is_reserved":false,"is_disabled":false,"rental_uris":{"android":"levelo://app?vid=22ad1e22-3771-416f-9977-19a5b7e158b8","ios":"levelo://app?vid=22ad1e22-3771-416f-9977-19a5b7e158b8"},"vehicle_type_id":"4","last_reported":1691082361,"current_range_meters":28800,"station_id":"ce4bht12rcd13ifvqi60","pricing_plan_id":"free"},{"bike_id":"e66a7464-b0a1-4d1e-bb4a-b4d329dffac4","system_id":"levelo_inurba_marseille","lat":43.286039,"lon":5.370681,"is_reserved":false,"is_disabled":false,"rental_uris":{"android":"levelo://app?vid=e66a7464-b0a1-4d1e-bb4a-b4d329dffac4","ios":"levelo://app?vid=e66a7464-b0a1-4d1e-bb4a-b4d329dffac4"},"vehicle_type_id":"4","last_reported":1691082361,"current_range_meters":2400,"station_id":"ce4bht12rcd13ifvqi60","pricing_plan_id":"free"},{"bike_id":"f208948b-073c-49f3-8bbf-87464f0db531","system_id":"levelo_inurba_marseille","lat":43.286039,"lon":5.370681,"is_reserved":false,"is_disabled":false,"rental_uris":{"android":"levelo://app?vid=f208948b-073c-49f3-8bbf-87464f0db531","ios":"levelo://app?vid=f208948b-073c-49f3-8bbf-87464f0db531"},"vehicle_type_id":"4","last_reported":1691082361,"current_range_meters":31200,"station_id":"ce4bht12rcd13ifvqi60","pricing_plan_id":"free"},{"bike_id":"30ba5ac3-3ed2-42e5-8633-06bef007636a","system_id":"levelo_inurba_marseille","lat":43.286039,"lon":5.370681,"is_reserved":false,"is_disabled":false,"rental_uris":{"android":"levelo://app?vid=30ba5ac3-3ed2-42e5-8633-06bef007636a","ios":"levelo://app?vid=30ba5ac3-3ed2-42e5-8633-06bef007636a"},"vehicle_type_id":"4","last_reported":1691082361,"current_range_meters":31200,"station_id":"ce4bht12rcd13ifvqi60","pricing_plan_id":"free"},{"bike_id":"4ad92464-d7c5-4702-bbfb-3a8a8643fbbb","system_id":"levelo_inurba_marseille","lat":43.286039,"lon":5.370681,"is_reserved":false,"is_disabled":false,"rental_uris":{"android":"levelo://app?vid=4ad92464-d7c5-4702-bbfb-3a8a8643fbbb","ios":"levelo://app?vid=4ad92464-d7c5-4702-bbfb-3a8a8643fbbb"},"vehicle_type_id":"4","last_reported":1691082361,"current_range_meters":31200,"station_id":"ce4bht12rcd13ifvqi60","pricing_plan_id":"free"},{"bike_id":"6f7ef703-115b-4805-8704-51c1755d8b18","system_id":"levelo_inurba_marseille","lat":43.283998,"lon":5.375062,"is_reserved":false,"is_disabled":false,"rental_uris":{"android":"levelo://app?vid=6f7ef703-115b-4805-8704-51c1755d8b18","ios":"levelo://app?vid=6f7ef703-115b-4805-8704-51c1755d8b18"},"vehicle_type_id":"4","last_reported":1691082361,"current_range_meters":4800,"station_id":"ce4bh412rcd13ifvqds0","pricing_plan_id":"free"},{"bike_id":"2d188a78-d67a-40a7-884c-54a382aec204","system_id":"levelo_inurba_marseille","lat":43.316496,"lon":5.404371,"is_reserved":false,"is_disabled":false,"rental_uris":{"android":"levelo://app?vid=2d188a78-d67a-40a7-884c-54a382aec204","ios":"levelo://app?vid=2d188a78-d67a-40a7-884c-54a382aec204"},"vehicle_type_id":"4","last_reported":1691082361,"current_range_meters":17200,"station_id":"","pricing_plan_id":"free"},{"bike_id":"9fdd4d5b-a00f-43eb-8f30-69f679d90c53","system_id":"levelo_inurba_marseille","lat":43.31652,"lon":5.4044,"is_reserved":false,"is_disabled":false,"rental_uris":{"android":"levelo://app?vid=9fdd4d5b-a00f-43eb-8f30-69f679d90c53","ios":"levelo://app?vid=9fdd4d5b-a00f-43eb-8f30-69f679d90c53"},"vehicle_type_id":"4","last_reported":1691082361,"current_range_meters":18000,"station_id":"ce4bh012rcd13ifvqd00","pricing_plan_id":"free"},{"bike_id":"46229ccc-479c-49e5-868c-8f8447211027","system_id":"levelo_inurba_marseille","lat":43.316517,"lon":5.404375,"is_reserved":false,"is_disabled":false,"rental_uris":{"android":"levelo://app?vid=46229ccc-479c-49e5-868c-8f8447211027","ios":"levelo://app?vid=46229ccc-479c-49e5-868c-8f8447211027"},"vehicle_type_id":"4","last_reported":1691082361,"current_range_meters":5600,"station_id":"ce4bh012rcd13ifvqd00","pricing_plan_id":"free"},{"bike_id":"0090612d-0bbe-44c7-8a98-e1519b485c3d","system_id":"levelo_inurba_marseille","lat":43.292012,"lon":5.393152,"is_reserved":false,"is_disabled":false,"rental_uris":{"android":"levelo://app?vid=0090612d-0bbe-44c7-8a98-e1519b485c3d","ios":"levelo://app?vid=0090612d-0bbe-44c7-8a98-e1519b485c3d"},"vehicle_type_id":"4","last_reported":1691082361,"current_range_meters":25200,"station_id":"ce4bh192rcd13ifvqdd0","pricing_plan_id":"free"},{"bike_id":"99ef77c8-5f24-48f8-b499-d5f3fc911ee4","system_id":"levelo_inurba_marseille","lat":43.29265,"lon":5.39413,"is_reserved":false,"is_disabled":false,"rental_uris":{"android":"levelo://app?vid=99ef77c8-5f24-48f8-b499-d5f3fc911ee4","ios":"levelo://app?vid=99ef77c8-5f24-48f8-b499-d5f3fc911ee4"},"vehicle_type_id":"4","last_reported":1691082361,"current_range_meters":18400,"station_id":"","pricing_plan_id":"free"},{"bike_id":"5c9c37ea-29d6-40dc-bc18-6d29c0392e96","system_id":"levelo_inurba_marseille","lat":43.28466,"lon":5.35882,"is_reserved":false,"is_disabled":false,"rental_uris":{"android":"levelo://app?vid=5c9c37ea-29d6-40dc-bc18-6d29c0392e96","ios":"levelo://app?vid=5c9c37ea-29d6-40dc-bc18-6d29c0392e96"},"vehicle_type_id":"4","last_reported":1691082361,"current_range_meters":800,"station_id":"ce4bhah2rcd13ifvqei0","pricing_plan_id":"free"},{"bike_id":"8bd28cb1-3801-47e2-b1e8-ed87cc1bb7aa","system_id":"levelo_inurba_marseille","lat":43.28461,"lon":5.35896,"is_reserved":false,"is_disabled":false,"rental_uris":{"android":"levelo://app?vid=8bd28cb1-3801-47e2-b1e8-ed87cc1bb7aa","ios":"levelo://app?vid=8bd28cb1-3801-47e2-b1e8-ed87cc1bb7aa"},"vehicle_type_id":"4","last_reported":1691082361,"current_range_meters":21600,"station_id":"ce4bhah2rcd13ifvqei0","pricing_plan_id":"free"},{"bike_id":"2a8804b8-f3a5-4ac6-a3d5-27da4303e974","system_id":"levelo_inurba_marseille","lat":43.28619,"lon":5.35103,"is_reserved":false,"is_disabled":false,"rental_uris":{"android":"levelo://app?vid=2a8804b8-f3a5-4ac6-a3d5-27da4303e974","ios":"levelo://app?vid=2a8804b8-f3a5-4ac6-a3d5-27da4303e974"},"vehicle_type_id":"4","last_reported":1691082361,"current_range_meters":31600,"station_id":"ce4bhch2rcd13ifvqeug","pricing_plan_id":"free"},{"bike_id":"ccedccf8-9cea-4146-853b-e9527153b527","system_id":"levelo_inurba_marseille","lat":43.28617,"lon":5.35104,"is_reserved":false,"is_disabled":false,"rental_uris":{"android":"levelo://app?vid=ccedccf8-9cea-4146-853b-e9527153b527","ios":"levelo://app?vid=ccedccf8-9cea-4146-853b-e9527153b527"},"vehicle_type_id":"4","last_reported":1691082361,"current_range_meters":6000,"station_id":"ce4bhch2rcd13ifvqeug","pricing_plan_id":"free"},{"bike_id":"3b4fcaa4-6e59-4121-bd9d-dd885baf25e6","system_id":"levelo_inurba_marseille","lat":43.28616,"lon":5.35105,"is_reserved":false,"is_disabled":false,"rental_uris":{"android":"levelo://app?vid=3b4fcaa4-6e59-4121-bd9d-dd885baf25e6","ios":"levelo://app?vid=3b4fcaa4-6e59-4121-bd9d-dd885baf25e6"},"vehicle_type_id":"4","last_reported":1691082361,"current_range_meters":20000,"station_id":"ce4bhch2rcd13ifvqeug","pricing_plan_id":"free"},{"bike_id":"554f7bd5-9e9d-47c2-a76c-89842cbcbf48","system_id":"levelo_inurba_marseille","lat":43.28614,"lon":5.35105,"is_reserved":false,"is_disabled":false,"rental_uris":{"android":"levelo://app?vid=554f7bd5-9e9d-47c2-a76c-89842cbcbf48","ios":"levelo://app?vid=554f7bd5-9e9d-47c2-a76c-89842cbcbf48"},"vehicle_type_id":"4","last_reported":1691082361,"current_range_meters":18400,"station_id":"ce4bhch2rcd13ifvqeug","pricing_plan_id":"free"},{"bike_id":"7e5cf9dd-3e3c-4ef1-a1c0-f5275bfc9182","system_id":"levelo_inurba_marseille","lat":43.285856,"lon":5.350771,"is_reserved":false,"is_disabled":false,"rental_uris":{"android":"levelo://app?vid=7e5cf9dd-3e3c-4ef1-a1c0-f5275bfc9182","ios":"levelo://app?vid=7e5cf9dd-3e3c-4ef1-a1c0-f5275bfc9182"},"vehicle_type_id":"4","last_reported":1691082361,"current_range_meters":30000,"station_id":"ce4bhch2rcd13ifvqeug","pricing_plan_id":"free"},{"bike_id":"3f9753d4-6935-49d2-ac03-2aeb06bc20f2","system_id":"levelo_inurba_marseille","lat":43.28612,"lon":5.35104,"is_reserved":false,"is_disabled":false,"rental_uris":{"android":"levelo://app?vid=3f9753d4-6935-49d2-ac03-2aeb06bc20f2","ios":"levelo://app?vid=3f9753d4-6935-49d2-ac03-2aeb06bc20f2"},"vehicle_type_id":"4","last_reported":1691082361,"current_range_meters":5200,"station_id":"ce4bhch2rcd13ifvqeug","pricing_plan_id":"free"},{"bike_id":"74334abe-4c02-4267-b4d5-49a8ed23222b","system_id":"levelo_inurba_marseille","lat":43.283998,"lon":5.375062,"is_reserved":false,"is_disabled":false,"rental_uris":{"android":"levelo://app?vid=74334abe-4c02-4267-b4d5-49a8ed23222b","ios":"levelo://app?vid=74334abe-4c02-4267-b4d5-49a8ed23222b"},"vehicle_type_id":"4","last_reported":1691082361,"current_range_meters":21200,"station_id":"ce4bh412rcd13ifvqds0","pricing_plan_id":"free"},{"bike_id":"8acdbe64-3306-4539-9227-595f7abfea40","system_id":"levelo_inurba_marseille","lat":43.2857,"lon":5.35068,"is_reserved":false,"is_disabled":false,"rental_uris":{"android":"levelo://app?vid=8acdbe64-3306-4539-9227-595f7abfea40","ios":"levelo://app?vid=8acdbe64-3306-4539-9227-595f7abfea40"},"vehicle_type_id":"4","last_reported":1691082361,"current_range_meters":6800,"station_id":"","pricing_plan_id":"free"},{"bike_id":"ad9c9b57-3b52-460e-b9f0-0645c732a0d9","system_id":"levelo_inurba_marseille","lat":43.292749,"lon":5.368402,"is_reserved":false,"is_disabled":false,"rental_uris":{"android":"levelo://app?vid=ad9c9b57-3b52-460e-b9f0-0645c732a0d9","ios":"levelo://app?vid=ad9c9b57-3b52-460e-b9f0-0645c732a0d9"},"vehicle_type_id":"4","last_reported":1691082361,"current_range_meters":21600,"station_id":"ce4bhbp2rcd13ifvqesg","pricing_plan_id":"free"},{"bike_id":"3e563380-a985-451c-801d-2783d7714294","system_id":"levelo_inurba_marseille","lat":43.33722,"lon":5.39176,"is_reserved":false,"is_disabled":false,"rental_uris":{"android":"levelo://app?vid=3e563380-a985-451c-801d-2783d7714294","ios":"levelo://app?vid=3e563380-a985-451c-801d-2783d7714294"},"vehicle_type_id":"4","last_reported":1691082361,"current_range_meters":20400,"station_id":"ce4bhr92rcd13ifvqhsg","pricing_plan_id":"free"},{"bike_id":"65e7209e-43de-4472-85bf-edccad84c81f","system_id":"levelo_inurba_marseille","lat":43.3372,"lon":5.39183,"is_reserved":false,"is_disabled":false,"rental_uris":{"android":"levelo://app?vid=65e7209e-43de-4472-85bf-edccad84c81f","ios":"levelo://app?vid=65e7209e-43de-4472-85bf-edccad84c81f"},"vehicle_type_id":"4","last_reported":1691082361,"current_range_meters":30800,"station_id":"ce4bhr92rcd13ifvqhsg","pricing_plan_id":"free"},{"bike_id":"1f5722b0-5667-43f6-9dad-3a3b818c5a69","system_id":"levelo_inurba_marseille","lat":43.33727,"lon":5.39175,"is_reserved":false,"is_disabled":false,"rental_uris":{"android":"levelo://app?vid=1f5722b0-5667-43f6-9dad-3a3b818c5a69","ios":"levelo://app?vid=1f5722b0-5667-43f6-9dad-3a3b818c5a69"},"vehicle_type_id":"4","last_reported":1691082361,"current_range_meters":7600,"station_id":"ce4bhr92rcd13ifvqhsg","pricing_plan_id":"free"},{"bike_id":"364c6932-5964-4ba8-9dfe-064fbb34a261","system_id":"levelo_inurba_marseille","lat":43.33719,"lon":5.3919,"is_reserved":false,"is_disabled":false,"rental_uris":{"android":"levelo://app?vid=364c6932-5964-4ba8-9dfe-064fbb34a261","ios":"levelo://app?vid=364c6932-5964-4ba8-9dfe-064fbb34a261"},"vehicle_type_id":"4","last_reported":1691082361,"current_range_meters":19600,"station_id":"ce4bhr92rcd13ifvqhsg","pricing_plan_id":"free"},{"bike_id":"9d8dc018-8295-487e-aae9-79ce0f469cdf","system_id":"levelo_inurba_marseille","lat":43.33727,"lon":5.39181,"is_reserved":false,"is_disabled":false,"rental_uris":{"android":"levelo://app?vid=9d8dc018-8295-487e-aae9-79ce0f469cdf","ios":"levelo://app?vid=9d8dc018-8295-487e-aae9-79ce0f469cdf"},"vehicle_type_id":"4","last_reported":1691082361,"current_range_meters":30000,"station_id":"ce4bhr92rcd13ifvqhsg","pricing_plan_id":"free"},{"bike_id":"df82d2f9-f688-4670-ac84-3e543122cedb","system_id":"levelo_inurba_marseille","lat":43.33726,"lon":5.39185,"is_reserved":false,"is_disabled":false,"rental_uris":{"android":"levelo://app?vid=df82d2f9-f688-4670-ac84-3e543122cedb","ios":"levelo://app?vid=df82d2f9-f688-4670-ac84-3e543122cedb"},"vehicle_type_id":"4","last_reported":1691082361,"current_range_meters":18800,"station_id":"ce4bhr92rcd13ifvqhsg","pricing_plan_id":"free"},{"bike_id":"939edbe6-adcc-4f97-ad69-99748df4073d","system_id":"levelo_inurba_marseille","lat":43.33728,"lon":5.39182,"is_reserved":false,"is_disabled":false,"rental_uris":{"android":"levelo://app?vid=939edbe6-adcc-4f97-ad69-99748df4073d","ios":"levelo://app?vid=939edbe6-adcc-4f97-ad69-99748df4073d"},"vehicle_type_id":"4","last_reported":1691082361,"current_range_meters":30400,"station_id":"ce4bhr92rcd13ifvqhsg","pricing_plan_id":"free"},{"bike_id":"5fd6a347-0a02-4efa-ab4a-06802493ed56","system_id":"levelo_inurba_marseille","lat":43.33726,"lon":5.39187,"is_reserved":false,"is_disabled":false,"rental_uris":{"android":"levelo://app?vid=5fd6a347-0a02-4efa-ab4a-06802493ed56","ios":"levelo://app?vid=5fd6a347-0a02-4efa-ab4a-06802493ed56"},"vehicle_type_id":"4","last_reported":1691082361,"current_range_meters":20000,"station_id":"ce4bhr92rcd13ifvqhsg","pricing_plan_id":"free"},{"bike_id":"9ca2485d-34aa-410e-bcf7-b0785f43fd67","system_id":"levelo_inurba_marseille","lat":43.33725,"lon":5.3919,"is_reserved":false,"is_disabled":false,"rental_uris":{"android":"levelo://app?vid=9ca2485d-34aa-410e-bcf7-b0785f43fd67","ios":"levelo://app?vid=9ca2485d-34aa-410e-bcf7-b0785f43fd67"},"vehicle_type_id":"4","last_reported":1691082361,"current_range_meters":22800,"station_id":"ce4bhr92rcd13ifvqhsg","pricing_plan_id":"free"},{"bike_id":"9ed5c8cd-5716-467d-9a0b-e5002dcb5a2c","system_id":"levelo_inurba_marseille","lat":43.3373,"lon":5.39183,"is_reserved":false,"is_disabled":false,"rental_uris":{"android":"levelo://app?vid=9ed5c8cd-5716-467d-9a0b-e5002dcb5a2c","ios":"levelo://app?vid=9ed5c8cd-5716-467d-9a0b-e5002dcb5a2c"},"vehicle_type_id":"4","last_reported":1691082361,"current_range_meters":5200,"station_id":"ce4bhr92rcd13ifvqhsg","pricing_plan_id":"free"},{"bike_id":"83c0d97b-8fea-4235-996c-020285914146","system_id":"levelo_inurba_marseille","lat":43.284793,"lon":5.384113,"is_reserved":false,"is_disabled":false,"rental_uris":{"android":"levelo://app?vid=83c0d97b-8fea-4235-996c-020285914146","ios":"levelo://app?vid=83c0d97b-8fea-4235-996c-020285914146"},"vehicle_type_id":"4","last_reported":1691082361,"current_range_meters":14000,"station_id":"ce4bh512rcd13ifvqe3g","pricing_plan_id":"free"},{"bike_id":"4d48ecbc-d2e4-4a82-98c7-a7d755604151","system_id":"levelo_inurba_marseille","lat":43.284793,"lon":5.384113,"is_reserved":false,"is_disabled":false,"rental_uris":{"android":"levelo://app?vid=4d48ecbc-d2e4-4a82-98c7-a7d755604151","ios":"levelo://app?vid=4d48ecbc-d2e4-4a82-98c7-a7d755604151"},"vehicle_type_id":"4","last_reported":1691082361,"current_range_meters":26000,"station_id":"ce4bh512rcd13ifvqe3g","pricing_plan_id":"free"},{"bike_id":"dbada9f9-e33c-4a7d-ab43-1cac4e571e70","system_id":"levelo_inurba_marseille","lat":43.284793,"lon":5.384119,"is_reserved":false,"is_disabled":false,"rental_uris":{"android":"levelo://app?vid=dbada9f9-e33c-4a7d-ab43-1cac4e571e70","ios":"levelo://app?vid=dbada9f9-e33c-4a7d-ab43-1cac4e571e70"},"vehicle_type_id":"4","last_reported":1691082361,"current_range_meters":30000,"station_id":"ce4bh512rcd13ifvqe3g","pricing_plan_id":"free"},{"bike_id":"b99cfc5a-0d1e-4c47-be3d-520093949323","system_id":"levelo_inurba_marseille","lat":43.288497,"lon":5.393089,"is_reserved":false,"is_disabled":false,"rental_uris":{"android":"levelo://app?vid=b99cfc5a-0d1e-4c47-be3d-520093949323","ios":"levelo://app?vid=b99cfc5a-0d1e-4c47-be3d-520093949323"},"vehicle_type_id":"4","last_reported":1691082361,"current_range_meters":24400,"station_id":"ce4bh2p2rcd13ifvqdi0","pricing_plan_id":"free"},{"bike_id":"957eedee-9b20-46f6-853d-bdf1749dcacb","system_id":"levelo_inurba_marseille","lat":43.288497,"lon":5.393089,"is_reserved":false,"is_disabled":false,"rental_uris":{"android":"levelo://app?vid=957eedee-9b20-46f6-853d-bdf1749dcacb","ios":"levelo://app?vid=957eedee-9b20-46f6-853d-bdf1749dcacb"},"vehicle_type_id":"4","last_reported":1691082361,"current_range_meters":9200,"station_id":"ce4bh2p2rcd13ifvqdi0","pricing_plan_id":"free"},{"bike_id":"51bc0452-b432-4d8a-954a-60808906d386","system_id":"levelo_inurba_marseille","lat":43.288501,"lon":5.393087,"is_reserved":false,"is_disabled":false,"rental_uris":{"android":"levelo://app?vid=51bc0452-b432-4d8a-954a-60808906d386","ios":"levelo://app?vid=51bc0452-b432-4d8a-954a-60808906d386"},"vehicle_type_id":"4","last_reported":1691082361,"current_range_meters":13200,"station_id":"ce4bh2p2rcd13ifvqdi0","pricing_plan_id":"free"},{"bike_id":"8f1f6608-f50b-4134-846a-6789f3810685","system_id":"levelo_inurba_marseille","lat":43.288497,"lon":5.393089,"is_reserved":false,"is_disabled":false,"rental_uris":{"android":"levelo://app?vid=8f1f6608-f50b-4134-846a-6789f3810685","ios":"levelo://app?vid=8f1f6608-f50b-4134-846a-6789f3810685"},"vehicle_type_id":"4","last_reported":1691082361,"current_range_meters":26000,"station_id":"ce4bh2p2rcd13ifvqdi0","pricing_plan_id":"free"},{"bike_id":"b21e9d42-933f-456d-8129-5080c8bc54f1","system_id":"levelo_inurba_marseille","lat":43.284219,"lon":5.3497,"is_reserved":false,"is_disabled":false,"rental_uris":{"android":"levelo://app?vid=b21e9d42-933f-456d-8129-5080c8bc54f1","ios":"levelo://app?vid=b21e9d42-933f-456d-8129-5080c8bc54f1"},"vehicle_type_id":"4","last_reported":1691082361,"current_range_meters":16800,"station_id":"ce4bhbh2rcd13ifvqepg","pricing_plan_id":"free"},{"bike_id":"4166be4e-f84e-41a5-a3d9-b9dc4ef31b0a","system_id":"levelo_inurba_marseille","lat":43.289363,"lon":5.396322,"is_reserved":false,"is_disabled":false,"rental_uris":{"android":"levelo://app?vid=4166be4e-f84e-41a5-a3d9-b9dc4ef31b0a","ios":"levelo://app?vid=4166be4e-f84e-41a5-a3d9-b9dc4ef31b0a"},"vehicle_type_id":"4","last_reported":1691082361,"current_range_meters":13600,"station_id":"ce4bh3h2rcd13ifvqdn0","pricing_plan_id":"free"},{"bike_id":"f7f5768e-b80f-4da0-8864-86696a8877fb","system_id":"levelo_inurba_marseille","lat":43.32456,"lon":5.40727,"is_reserved":false,"is_disabled":false,"rental_uris":{"android":"levelo://app?vid=f7f5768e-b80f-4da0-8864-86696a8877fb","ios":"levelo://app?vid=f7f5768e-b80f-4da0-8864-86696a8877fb"},"vehicle_type_id":"4","last_reported":1691082361,"current_range_meters":0,"station_id":"","pricing_plan_id":"free"},{"bike_id":"2edb55d6-9dc2-4662-89bf-669fb395f523","system_id":"levelo_inurba_marseille","lat":43.28039,"lon":5.369297,"is_reserved":false,"is_disabled":false,"rental_uris":{"android":"levelo://app?vid=2edb55d6-9dc2-4662-89bf-669fb395f523","ios":"levelo://app?vid=2edb55d6-9dc2-4662-89bf-669fb395f523"},"vehicle_type_id":"4","last_reported":1691082361,"current_range_meters":29600,"station_id":"ce4bha12rcd13ifvqef0","pricing_plan_id":"free"},{"bike_id":"d5256e69-122c-4842-b11a-095f0723e4b5","system_id":"levelo_inurba_marseille","lat":43.284462,"lon":5.392121,"is_reserved":false,"is_disabled":false,"rental_uris":{"android":"levelo://app?vid=d5256e69-122c-4842-b11a-095f0723e4b5","ios":"levelo://app?vid=d5256e69-122c-4842-b11a-095f0723e4b5"},"vehicle_type_id":"4","last_reported":1691082361,"current_range_meters":4800,"station_id":"ce4bhoh2rcd13ifvqh5g","pricing_plan_id":"free"},{"bike_id":"b4b624dc-9ef6-4627-a4d9-19e5eb2b7740","system_id":"levelo_inurba_marseille","lat":43.285742,"lon":5.395004,"is_reserved":false,"is_disabled":false,"rental_uris":{"android":"levelo://app?vid=b4b624dc-9ef6-4627-a4d9-19e5eb2b7740","ios":"levelo://app?vid=b4b624dc-9ef6-4627-a4d9-19e5eb2b7740"},"vehicle_type_id":"4","last_reported":1691082361,"current_range_meters":4400,"station_id":"ce4bh292rcd13ifvqdg0","pricing_plan_id":"free"},{"bike_id":"02c3cca6-3ecb-4088-9777-16e7a9a7c254","system_id":"levelo_inurba_marseille","lat":43.285742,"lon":5.395004,"is_reserved":false,"is_disabled":false,"rental_uris":{"android":"levelo://app?vid=02c3cca6-3ecb-4088-9777-16e7a9a7c254","ios":"levelo://app?vid=02c3cca6-3ecb-4088-9777-16e7a9a7c254"},"vehicle_type_id":"4","last_reported":1691082361,"current_range_meters":16000,"station_id":"ce4bh292rcd13ifvqdg0","pricing_plan_id":"free"},{"bike_id":"bea9524d-02ec-4526-b922-f8f292ac8394","system_id":"levelo_inurba_marseille","lat":43.326605,"lon":5.409903,"is_reserved":false,"is_disabled":false,"rental_uris":{"android":"levelo://app?vid=bea9524d-02ec-4526-b922-f8f292ac8394","ios":"levelo://app?vid=bea9524d-02ec-4526-b922-f8f292ac8394"},"vehicle_type_id":"4","last_reported":1691082361,"current_range_meters":22000,"station_id":"ce4bhpp2rcd13ifvqhgg","pricing_plan_id":"free"},{"bike_id":"4bea7dbd-1e1e-49f6-94c2-1b0edc11fda3","system_id":"levelo_inurba_marseille","lat":43.32657,"lon":5.40993,"is_reserved":false,"is_disabled":false,"rental_uris":{"android":"levelo://app?vid=4bea7dbd-1e1e-49f6-94c2-1b0edc11fda3","ios":"levelo://app?vid=4bea7dbd-1e1e-49f6-94c2-1b0edc11fda3"},"vehicle_type_id":"4","last_reported":1691082361,"current_range_meters":25200,"station_id":"ce4bhpp2rcd13ifvqhgg","pricing_plan_id":"free"},{"bike_id":"483bb16b-3292-4482-9f52-c4ce9fb5e5aa","system_id":"levelo_inurba_marseille","lat":43.32653,"lon":5.40998,"is_reserved":false,"is_disabled":false,"rental_uris":{"android":"levelo://app?vid=483bb16b-3292-4482-9f52-c4ce9fb5e5aa","ios":"levelo://app?vid=483bb16b-3292-4482-9f52-c4ce9fb5e5aa"},"vehicle_type_id":"4","last_reported":1691082361,"current_range_meters":18800,"station_id":"ce4bhpp2rcd13ifvqhgg","pricing_plan_id":"free"},{"bike_id":"c4ff6eea-c693-4218-9bae-3820f7f4611f","system_id":"levelo_inurba_marseille","lat":43.32658,"lon":5.40996,"is_reserved":false,"is_disabled":false,"rental_uris":{"android":"levelo://app?vid=c4ff6eea-c693-4218-9bae-3820f7f4611f","ios":"levelo://app?vid=c4ff6eea-c693-4218-9bae-3820f7f4611f"},"vehicle_type_id":"4","last_reported":1691082361,"current_range_meters":18800,"station_id":"ce4bhpp2rcd13ifvqhgg","pricing_plan_id":"free"},{"bike_id":"c9a47dc1-ba0e-4c57-af46-76425dde6f7d","system_id":"levelo_inurba_marseille","lat":43.304188,"lon":5.412904,"is_reserved":false,"is_disabled":false,"rental_uris":{"android":"levelo://app?vid=c9a47dc1-ba0e-4c57-af46-76425dde6f7d","ios":"levelo://app?vid=c9a47dc1-ba0e-4c57-af46-76425dde6f7d"},"vehicle_type_id":"4","last_reported":1691082361,"current_range_meters":31200,"station_id":"ce4bhop2rcd13ifvqh8g","pricing_plan_id":"free"},{"bike_id":"57a37984-b998-4099-a7ec-6c51ee0d6480","system_id":"levelo_inurba_marseille","lat":43.304188,"lon":5.412904,"is_reserved":false,"is_disabled":false,"rental_uris":{"android":"levelo://app?vid=57a37984-b998-4099-a7ec-6c51ee0d6480","ios":"levelo://app?vid=57a37984-b998-4099-a7ec-6c51ee0d6480"},"vehicle_type_id":"4","last_reported":1691082361,"current_range_meters":26400,"station_id":"ce4bhop2rcd13ifvqh8g","pricing_plan_id":"free"},{"bike_id":"c2fcd2be-609f-41ce-9ef3-73ba768f0f3d","system_id":"levelo_inurba_marseille","lat":43.279087,"lon":5.380114,"is_reserved":false,"is_disabled":false,"rental_uris":{"android":"levelo://app?vid=c2fcd2be-609f-41ce-9ef3-73ba768f0f3d","ios":"levelo://app?vid=c2fcd2be-609f-41ce-9ef3-73ba768f0f3d"},"vehicle_type_id":"4","last_reported":1691082361,"current_range_meters":6800,"station_id":"ce4bhf92rcd13ifvqf50","pricing_plan_id":"free"},{"bike_id":"fbebd263-79c8-4bf4-8bfb-a9e407ee2090","system_id":"levelo_inurba_marseille","lat":43.279087,"lon":5.380114,"is_reserved":false,"is_disabled":false,"rental_uris":{"android":"levelo://app?vid=fbebd263-79c8-4bf4-8bfb-a9e407ee2090","ios":"levelo://app?vid=fbebd263-79c8-4bf4-8bfb-a9e407ee2090"},"vehicle_type_id":"4","last_reported":1691082361,"current_range_meters":400,"station_id":"ce4bhf92rcd13ifvqf50","pricing_plan_id":"free"},{"bike_id":"da74851f-183f-4ed8-bc32-44e1d656b516","system_id":"levelo_inurba_marseille","lat":43.32095,"lon":5.41512,"is_reserved":false,"is_disabled":false,"rental_uris":{"android":"levelo://app?vid=da74851f-183f-4ed8-bc32-44e1d656b516","ios":"levelo://app?vid=da74851f-183f-4ed8-bc32-44e1d656b516"},"vehicle_type_id":"4","last_reported":1691082361,"current_range_meters":2800,"station_id":"","pricing_plan_id":"free"},{"bike_id":"e9fbe7f4-c376-4a74-9a01-c2dfa71d30c2","system_id":"levelo_inurba_marseille","lat":43.3209,"lon":5.41514,"is_reserved":false,"is_disabled":false,"rental_uris":{"android":"levelo://app?vid=e9fbe7f4-c376-4a74-9a01-c2dfa71d30c2","ios":"levelo://app?vid=e9fbe7f4-c376-4a74-9a01-c2dfa71d30c2"},"vehicle_type_id":"4","last_reported":1691082361,"current_range_meters":0,"station_id":"","pricing_plan_id":"free"},{"bike_id":"b1f7de41-fc2e-4372-941d-0090939680f6","system_id":"levelo_inurba_marseille","lat":43.320045,"lon":5.415048,"is_reserved":false,"is_disabled":false,"rental_uris":{"android":"levelo://app?vid=b1f7de41-fc2e-4372-941d-0090939680f6","ios":"levelo://app?vid=b1f7de41-fc2e-4372-941d-0090939680f6"},"vehicle_type_id":"4","last_reported":1691082361,"current_range_meters":28000,"station_id":"ce4bhq92rcd13ifvqhkg","pricing_plan_id":"free"},{"bike_id":"c327718a-8fe6-4791-a349-aba0f8f94e82","system_id":"levelo_inurba_marseille","lat":43.279742,"lon":5.38744,"is_reserved":false,"is_disabled":false,"rental_uris":{"android":"levelo://app?vid=c327718a-8fe6-4791-a349-aba0f8f94e82","ios":"levelo://app?vid=c327718a-8fe6-4791-a349-aba0f8f94e82"},"vehicle_type_id":"4","last_reported":1691082361,"current_range_meters":31200,"station_id":"ce4bhg12rcd13ifvqf80","pricing_plan_id":"free"},{"bike_id":"53fa3584-3641-42da-95a4-eceeb0ac0c65","system_id":"levelo_inurba_marseille","lat":43.292571,"lon":5.409107,"is_reserved":false,"is_disabled":false,"rental_uris":{"android":"levelo://app?vid=53fa3584-3641-42da-95a4-eceeb0ac0c65","ios":"levelo://app?vid=53fa3584-3641-42da-95a4-eceeb0ac0c65"},"vehicle_type_id":"4","last_reported":1691082361,"current_range_meters":30000,"station_id":"ce4bh192rcd13ifvqdc0","pricing_plan_id":"free"},{"bike_id":"45fe7bda-294c-4c72-964d-9c8351d002d4","system_id":"levelo_inurba_marseille","lat":43.292569,"lon":5.409107,"is_reserved":false,"is_disabled":false,"rental_uris":{"android":"levelo://app?vid=45fe7bda-294c-4c72-964d-9c8351d002d4","ios":"levelo://app?vid=45fe7bda-294c-4c72-964d-9c8351d002d4"},"vehicle_type_id":"4","last_reported":1691082361,"current_range_meters":27200,"station_id":"ce4bh192rcd13ifvqdc0","pricing_plan_id":"free"},{"bike_id":"91baffef-cbd4-4ce1-9659-163096b5dc3a","system_id":"levelo_inurba_marseille","lat":43.292569,"lon":5.409107,"is_reserved":false,"is_disabled":false,"rental_uris":{"android":"levelo://app?vid=91baffef-cbd4-4ce1-9659-163096b5dc3a","ios":"levelo://app?vid=91baffef-cbd4-4ce1-9659-163096b5dc3a"},"vehicle_type_id":"4","last_reported":1691082361,"current_range_meters":15600,"station_id":"ce4bh192rcd13ifvqdc0","pricing_plan_id":"free"},{"bike_id":"29aafe6a-4291-40f1-8784-3b0a61506a6e","system_id":"levelo_inurba_marseille","lat":43.292569,"lon":5.409107,"is_reserved":false,"is_disabled":false,"rental_uris":{"android":"levelo://app?vid=29aafe6a-4291-40f1-8784-3b0a61506a6e","ios":"levelo://app?vid=29aafe6a-4291-40f1-8784-3b0a61506a6e"},"vehicle_type_id":"4","last_reported":1691082361,"current_range_meters":30800,"station_id":"ce4bh192rcd13ifvqdc0","pricing_plan_id":"free"},{"bike_id":"386ed8e3-b71e-4f68-86af-202c5b76503e","system_id":"levelo_inurba_marseille","lat":43.27618,"lon":5.361009,"is_reserved":false,"is_disabled":false,"rental_uris":{"android":"levelo://app?vid=386ed8e3-b71e-4f68-86af-202c5b76503e","ios":"levelo://app?vid=386ed8e3-b71e-4f68-86af-202c5b76503e"},"vehicle_type_id":"4","last_reported":1691082361,"current_range_meters":21200,"station_id":"ce4bgj92rcd13ifvqbe0","pricing_plan_id":"free"},{"bike_id":"cc79e15a-4dd3-4c41-b717-2b8c574759a1","system_id":"levelo_inurba_marseille","lat":43.28078,"lon":5.39661,"is_reserved":false,"is_disabled":false,"rental_uris":{"android":"levelo://app?vid=cc79e15a-4dd3-4c41-b717-2b8c574759a1","ios":"levelo://app?vid=cc79e15a-4dd3-4c41-b717-2b8c574759a1"},"vehicle_type_id":"4","last_reported":1691082361,"current_range_meters":7200,"station_id":"","pricing_plan_id":"free"},{"bike_id":"05c45c5c-487f-4c36-85cb-cf4607186775","system_id":"levelo_inurba_marseille","lat":43.28646,"lon":5.40615,"is_reserved":false,"is_disabled":false,"rental_uris":{"android":"levelo://app?vid=05c45c5c-487f-4c36-85cb-cf4607186775","ios":"levelo://app?vid=05c45c5c-487f-4c36-85cb-cf4607186775"},"vehicle_type_id":"4","last_reported":1691082361,"current_range_meters":22000,"station_id":"","pricing_plan_id":"free"},{"bike_id":"211af7d0-a29d-45f6-a81d-0266d15ffede","system_id":"levelo_inurba_marseille","lat":43.278401,"lon":5.392152,"is_reserved":false,"is_disabled":false,"rental_uris":{"android":"levelo://app?vid=211af7d0-a29d-45f6-a81d-0266d15ffede","ios":"levelo://app?vid=211af7d0-a29d-45f6-a81d-0266d15ffede"},"vehicle_type_id":"4","last_reported":1691082361,"current_range_meters":14000,"station_id":"ce4bhjp2rcd13ifvqga0","pricing_plan_id":"free"},{"bike_id":"a69cd411-80f6-443e-8151-7365c4f583d6","system_id":"levelo_inurba_marseille","lat":43.278399,"lon":5.392139,"is_reserved":false,"is_disabled":false,"rental_uris":{"android":"levelo://app?vid=a69cd411-80f6-443e-8151-7365c4f583d6","ios":"levelo://app?vid=a69cd411-80f6-443e-8151-7365c4f583d6"},"vehicle_type_id":"4","last_reported":1691082361,"current_range_meters":0,"station_id":"ce4bhjp2rcd13ifvqga0","pricing_plan_id":"free"},{"bike_id":"30f34561-9be2-4535-af5d-27082200ca9a","system_id":"levelo_inurba_marseille","lat":43.278401,"lon":5.392152,"is_reserved":false,"is_disabled":false,"rental_uris":{"android":"levelo://app?vid=30f34561-9be2-4535-af5d-27082200ca9a","ios":"levelo://app?vid=30f34561-9be2-4535-af5d-27082200ca9a"},"vehicle_type_id":"4","last_reported":1691082361,"current_range_meters":23200,"station_id":"ce4bhjp2rcd13ifvqga0","pricing_plan_id":"free"},{"bike_id":"4c2b0b4c-2c6b-4913-a3d3-e6202b8b363e","system_id":"levelo_inurba_marseille","lat":43.273613,"lon":5.362705,"is_reserved":false,"is_disabled":false,"rental_uris":{"android":"levelo://app?vid=4c2b0b4c-2c6b-4913-a3d3-e6202b8b363e","ios":"levelo://app?vid=4c2b0b4c-2c6b-4913-a3d3-e6202b8b363e"},"vehicle_type_id":"4","last_reported":1691082361,"current_range_meters":30000,"station_id":"ce4bhbh2rcd13ifvqeo0","pricing_plan_id":"free"},{"bike_id":"6c8808d6-bb25-46f3-b3ba-92dcde0805e7","system_id":"levelo_inurba_marseille","lat":43.27578,"lon":5.38416,"is_reserved":false,"is_disabled":false,"rental_uris":{"android":"levelo://app?vid=6c8808d6-bb25-46f3-b3ba-92dcde0805e7","ios":"levelo://app?vid=6c8808d6-bb25-46f3-b3ba-92dcde0805e7"},"vehicle_type_id":"4","last_reported":1691082361,"current_range_meters":4000,"station_id":"ce4bhh92rcd13ifvqfi0","pricing_plan_id":"free"},{"bike_id":"17e0a33e-07d2-423f-bd69-22350aad8b32","system_id":"levelo_inurba_marseille","lat":43.273609,"lon":5.362708,"is_reserved":false,"is_disabled":false,"rental_uris":{"android":"levelo://app?vid=17e0a33e-07d2-423f-bd69-22350aad8b32","ios":"levelo://app?vid=17e0a33e-07d2-423f-bd69-22350aad8b32"},"vehicle_type_id":"4","last_reported":1691082361,"current_range_meters":30800,"station_id":"ce4bhbh2rcd13ifvqeo0","pricing_plan_id":"free"},{"bike_id":"88a9f292-d3a7-44c9-8af6-4925a5eed829","system_id":"levelo_inurba_marseille","lat":43.273609,"lon":5.362708,"is_reserved":false,"is_disabled":false,"rental_uris":{"android":"levelo://app?vid=88a9f292-d3a7-44c9-8af6-4925a5eed829","ios":"levelo://app?vid=88a9f292-d3a7-44c9-8af6-4925a5eed829"},"vehicle_type_id":"4","last_reported":1691082361,"current_range_meters":6000,"station_id":"ce4bhbh2rcd13ifvqeo0","pricing_plan_id":"free"},{"bike_id":"5554be9e-ea6d-448b-a933-772bf8ca7cdf","system_id":"levelo_inurba_marseille","lat":43.33612,"lon":5.410321,"is_reserved":false,"is_disabled":false,"rental_uris":{"android":"levelo://app?vid=5554be9e-ea6d-448b-a933-772bf8ca7cdf","ios":"levelo://app?vid=5554be9e-ea6d-448b-a933-772bf8ca7cdf"},"vehicle_type_id":"4","last_reported":1691082361,"current_range_meters":30800,"station_id":"ce4bhqh2rcd13ifvqhmg","pricing_plan_id":"free"},{"bike_id":"71d1f10e-f000-48b9-abea-e76331e703e0","system_id":"levelo_inurba_marseille","lat":43.33609,"lon":5.41015,"is_reserved":false,"is_disabled":false,"rental_uris":{"android":"levelo://app?vid=71d1f10e-f000-48b9-abea-e76331e703e0","ios":"levelo://app?vid=71d1f10e-f000-48b9-abea-e76331e703e0"},"vehicle_type_id":"4","last_reported":1691082361,"current_range_meters":30400,"station_id":"ce4bhqh2rcd13ifvqhmg","pricing_plan_id":"free"},{"bike_id":"1611d1a8-c4e8-47e1-bb57-8bc78447cd2a","system_id":"levelo_inurba_marseille","lat":43.33612,"lon":5.410321,"is_reserved":false,"is_disabled":false,"rental_uris":{"android":"levelo://app?vid=1611d1a8-c4e8-47e1-bb57-8bc78447cd2a","ios":"levelo://app?vid=1611d1a8-c4e8-47e1-bb57-8bc78447cd2a"},"vehicle_type_id":"4","last_reported":1691082361,"current_range_meters":30400,"station_id":"ce4bhqh2rcd13ifvqhmg","pricing_plan_id":"free"},{"bike_id":"8ccae5fb-920b-49c0-839c-e86520e0f40e","system_id":"levelo_inurba_marseille","lat":43.33612,"lon":5.410321,"is_reserved":false,"is_disabled":false,"rental_uris":{"android":"levelo://app?vid=8ccae5fb-920b-49c0-839c-e86520e0f40e","ios":"levelo://app?vid=8ccae5fb-920b-49c0-839c-e86520e0f40e"},"vehicle_type_id":"4","last_reported":1691082361,"current_range_meters":30800,"station_id":"ce4bhqh2rcd13ifvqhmg","pricing_plan_id":"free"},{"bike_id":"e7d88ed0-219a-479f-8c83-6ae9490bbf54","system_id":"levelo_inurba_marseille","lat":43.336134,"lon":5.410341,"is_reserved":false,"is_disabled":false,"rental_uris":{"android":"levelo://app?vid=e7d88ed0-219a-479f-8c83-6ae9490bbf54","ios":"levelo://app?vid=e7d88ed0-219a-479f-8c83-6ae9490bbf54"},"vehicle_type_id":"4","last_reported":1691082361,"current_range_meters":30800,"station_id":"ce4bhqh2rcd13ifvqhmg","pricing_plan_id":"free"},{"bike_id":"99df024c-dae1-469f-88c7-238e9c1f2381","system_id":"levelo_inurba_marseille","lat":43.33618,"lon":5.41016,"is_reserved":false,"is_disabled":false,"rental_uris":{"android":"levelo://app?vid=99df024c-dae1-469f-88c7-238e9c1f2381","ios":"levelo://app?vid=99df024c-dae1-469f-88c7-238e9c1f2381"},"vehicle_type_id":"4","last_reported":1691082361,"current_range_meters":0,"station_id":"ce4bhqh2rcd13ifvqhmg","pricing_plan_id":"free"},{"bike_id":"54552482-82fc-46fa-a360-5af7733fa5db","system_id":"levelo_inurba_marseille","lat":43.336134,"lon":5.410341,"is_reserved":false,"is_disabled":false,"rental_uris":{"android":"levelo://app?vid=54552482-82fc-46fa-a360-5af7733fa5db","ios":"levelo://app?vid=54552482-82fc-46fa-a360-5af7733fa5db"},