{"last_updated":1710364088,"ttl":30,"version":"2.2","data":{"bikes":[{"bike_id":"c1393415-5e7b-47bf-9b9f-ae5e22335b13","system_id":"levelo_inurba_marseille","lat":43.312239,"lon":5.368562,"is_reserved":false,"is_disabled":false,"rental_uris":{"android":"levelo://app?vid=c1393415-5e7b-47bf-9b9f-ae5e22335b13","ios":"levelo://app?vid=c1393415-5e7b-47bf-9b9f-ae5e22335b13"},"vehicle_type_id":"4","last_reported":1710364088,"current_range_meters":9200,"station_id":"ce4bgl92rcd13ifvqbq0","pricing_plan_id":"cebpf4jnsgd1na2vs0mg"},{"bike_id":"aa02b9d5-cdbe-46cf-9248-cb91ca5c56f3","system_id":"levelo_inurba_marseille","lat":43.312239,"lon":5.368562,"is_reserved":false,"is_disabled":false,"rental_uris":{"android":"levelo://app?vid=aa02b9d5-cdbe-46cf-9248-cb91ca5c56f3","ios":"levelo://app?vid=aa02b9d5-cdbe-46cf-9248-cb91ca5c56f3"},"vehicle_type_id":"4","last_reported":1710364088,"current_range_meters":9600,"station_id":"ce4bgl92rcd13ifvqbq0","pricing_plan_id":"cebpf4jnsgd1na2vs0mg"},{"bike_id":"b3b8debc-0ad2-44fe-8a27-6eb4a14776bd","system_id":"levelo_inurba_marseille","lat":43.309034,"lon":5.371783,"is_reserved":false,"is_disabled":false,"rental_uris":{"android":"levelo://app?vid=b3b8debc-0ad2-44fe-8a27-6eb4a14776bd","ios":"levelo://app?vid=b3b8debc-0ad2-44fe-8a27-6eb4a14776bd"},"vehicle_type_id":"4","last_reported":1710364088,"current_range_meters":15600,"station_id":"ce4bguh2rcd13ifvqckg","pricing_plan_id":"cebpf4jnsgd1na2vs0mg"},{"bike_id":"7714f54a-3024-4c2f-b025-bd58f0ff3df3","system_id":"levelo_inurba_marseille","lat":43.305989,"lon":5.37225,"is_reserved":false,"is_disabled":false,"rental_uris":{"android":"levelo://app?vid=7714f54a-3024-4c2f-b025-bd58f0ff3df3","ios":"levelo://app?vid=7714f54a-3024-4c2f-b025-bd58f0ff3df3"},"vehicle_type_id":"4","last_reported":1710364088,"current_range_meters":14800,"station_id":"ce4bgqh2rcd13ifvqc4g","pricing_plan_id":"cebpf4jnsgd1na2vs0mg"},{"bike_id":"1943fa1d-b29d-45b6-9242-37e2c1d520fe","system_id":"levelo_inurba_marseille","lat":43.30595,"lon":5.37216,"is_reserved":false,"is_disabled":false,"rental_uris":{"android":"levelo://app?vid=1943fa1d-b29d-45b6-9242-37e2c1d520fe","ios":"levelo://app?vid=1943fa1d-b29d-45b6-9242-37e2c1d520fe"},"vehicle_type_id":"4","last_reported":1710364088,"current_range_meters":0,"station_id":"ce4bgqh2rcd13ifvqc4g","pricing_plan_id":"cebpf4jnsgd1na2vs0mg"},{"bike_id":"780ec3b3-5d37-47ce-a59e-dd0577546b55","system_id":"levelo_inurba_marseille","lat":43.311125,"lon":5.377624,"is_reserved":false,"is_disabled":false,"rental_uris":{"android":"levelo://app?vid=780ec3b3-5d37-47ce-a59e-dd0577546b55","ios":"levelo://app?vid=780ec3b3-5d37-47ce-a59e-dd0577546b55"},"vehicle_type_id":"4","last_reported":1710364088,"current_range_meters":10400,"station_id":"ce4bgt92rcd13ifvqcg0","pricing_plan_id":"cebpf4jnsgd1na2vs0mg"},{"bike_id":"d99a4aaf-b3b3-4333-a1dd-35df13a773e0","system_id":"levelo_inurba_marseille","lat":43.307945,"lon":5.376487,"is_reserved":false,"is_disabled":false,"rental_uris":{"android":"levelo://app?vid=d99a4aaf-b3b3-4333-a1dd-35df13a773e0","ios":"levelo://app?vid=d99a4aaf-b3b3-4333-a1dd-35df13a773e0"},"vehicle_type_id":"4","last_reported":1710364088,"current_range_meters":14000,"station_id":"ce4bgv92rcd13ifvqcq0","pricing_plan_id":"cebpf4jnsgd1na2vs0mg"},{"bike_id":"605a3762-d69d-451f-bcf9-ca0ef318901d","system_id":"levelo_inurba_marseille","lat":43.307945,"lon":5.376487,"is_reserved":false,"is_disabled":false,"rental_uris":{"android":"levelo://app?vid=605a3762-d69d-451f-bcf9-ca0ef318901d","ios":"levelo://app?vid=605a3762-d69d-451f-bcf9-ca0ef318901d"},"vehicle_type_id":"4","last_reported":1710364088,"current_range_meters":6400,"station_id":"ce4bgv92rcd13ifvqcq0","pricing_plan_id":"cebpf4jnsgd1na2vs0mg"},{"bike_id":"e4ae9448-174b-4a2f-92f3-210ffcb2ae7f","system_id":"levelo_inurba_marseille","lat":43.307945,"lon":5.376487,"is_reserved":false,"is_disabled":false,"rental_uris":{"android":"levelo://app?vid=e4ae9448-174b-4a2f-92f3-210ffcb2ae7f","ios":"levelo://app?vid=e4ae9448-174b-4a2f-92f3-210ffcb2ae7f"},"vehicle_type_id":"4","last_reported":1710364088,"current_range_meters":24000,"station_id":"ce4bgv92rcd13ifvqcq0","pricing_plan_id":"cebpf4jnsgd1na2vs0mg"},{"bike_id":"d982e3dd-f38b-43ff-b8b4-fff4750cacf9","system_id":"levelo_inurba_marseille","lat":43.307945,"lon":5.376487,"is_reserved":false,"is_disabled":false,"rental_uris":{"android":"levelo://app?vid=d982e3dd-f38b-43ff-b8b4-fff4750cacf9","ios":"levelo://app?vid=d982e3dd-f38b-43ff-b8b4-fff4750cacf9"},"vehicle_type_id":"4","last_reported":1710364088,"current_range_meters":30000,"station_id":"ce4bgv92rcd13ifvqcq0","pricing_plan_id":"cebpf4jnsgd1na2vs0mg"},{"bike_id":"c60044ae-abab-4856-8182-f823221e3c16","system_id":"levelo_inurba_marseille","lat":43.30794,"lon":5.37655,"is_reserved":false,"is_disabled":false,"rental_uris":{"android":"levelo://app?vid=c60044ae-abab-4856-8182-f823221e3c16","ios":"levelo://app?vid=c60044ae-abab-4856-8182-f823221e3c16"},"vehicle_type_id":"4","last_reported":1710364088,"current_range_meters":14400,"station_id":"ce4bgv92rcd13ifvqcq0","pricing_plan_id":"cebpf4jnsgd1na2vs0mg"},{"bike_id":"6df8a519-a704-46e9-b3eb-42b1fb917e85","system_id":"levelo_inurba_marseille","lat":43.31741,"lon":5.37761,"is_reserved":false,"is_disabled":false,"rental_uris":{"android":"levelo://app?vid=6df8a519-a704-46e9-b3eb-42b1fb917e85","ios":"levelo://app?vid=6df8a519-a704-46e9-b3eb-42b1fb917e85"},"vehicle_type_id":"4","last_reported":1710364088,"current_range_meters":22400,"station_id":"ce4bgth2rcd13ifvqch0","pricing_plan_id":"cebpf4jnsgd1na2vs0mg"},{"bike_id":"f1a1af6d-62ba-49c7-9eb8-24cb0b0fdac9","system_id":"levelo_inurba_marseille","lat":43.315289,"lon":5.380349,"is_reserved":false,"is_disabled":false,"rental_uris":{"android":"levelo://app?vid=f1a1af6d-62ba-49c7-9eb8-24cb0b0fdac9","ios":"levelo://app?vid=f1a1af6d-62ba-49c7-9eb8-24cb0b0fdac9"},"vehicle_type_id":"4","last_reported":1710364088,"current_range_meters":14800,"station_id":"ce4bhsp2rcd13ifvqi50","pricing_plan_id":"cebpf4jnsgd1na2vs0mg"},{"bike_id":"83763b65-d746-44cc-8a87-ecb7117a1772","system_id":"levelo_inurba_marseille","lat":43.315293,"lon":5.380349,"is_reserved":false,"is_disabled":false,"rental_uris":{"android":"levelo://app?vid=83763b65-d746-44cc-8a87-ecb7117a1772","ios":"levelo://app?vid=83763b65-d746-44cc-8a87-ecb7117a1772"},"vehicle_type_id":"4","last_reported":1710364088,"current_range_meters":21200,"station_id":"ce4bhsp2rcd13ifvqi50","pricing_plan_id":"cebpf4jnsgd1na2vs0mg"},{"bike_id":"875cbb6f-8f3c-4acf-b66d-3b7db708d18d","system_id":"levelo_inurba_marseille","lat":43.315293,"lon":5.380349,"is_reserved":false,"is_disabled":false,"rental_uris":{"android":"levelo://app?vid=875cbb6f-8f3c-4acf-b66d-3b7db708d18d","ios":"levelo://app?vid=875cbb6f-8f3c-4acf-b66d-3b7db708d18d"},"vehicle_type_id":"4","last_reported":1710364088,"current_range_meters":22800,"station_id":"ce4bhsp2rcd13ifvqi50","pricing_plan_id":"cebpf4jnsgd1na2vs0mg"},{"bike_id":"33e7c9cc-a5c2-4a10-b1ae-4f667fd12704","system_id":"levelo_inurba_marseille","lat":43.301939,"lon":5.366286,"is_reserved":false,"is_disabled":false,"rental_uris":{"android":"levelo://app?vid=33e7c9cc-a5c2-4a10-b1ae-4f667fd12704","ios":"levelo://app?vid=33e7c9cc-a5c2-4a10-b1ae-4f667fd12704"},"vehicle_type_id":"4","last_reported":1710364088,"current_range_meters":0,"station_id":"ce4bgrh2rcd13ifvqc8g","pricing_plan_id":"cebpf4jnsgd1na2vs0mg"},{"bike_id":"486864a3-ca23-4ad7-81cf-5e8522f9089c","system_id":"levelo_inurba_marseille","lat":43.308012,"lon":5.381511,"is_reserved":false,"is_disabled":false,"rental_uris":{"android":"levelo://app?vid=486864a3-ca23-4ad7-81cf-5e8522f9089c","ios":"levelo://app?vid=486864a3-ca23-4ad7-81cf-5e8522f9089c"},"vehicle_type_id":"4","last_reported":1710364088,"current_range_meters":20800,"station_id":"ce4bgt12rcd13ifvqce0","pricing_plan_id":"cebpf4jnsgd1na2vs0mg"},{"bike_id":"85f0d066-41ec-45db-a43e-e0a80f7f8a4d","system_id":"levelo_inurba_marseille","lat":43.308012,"lon":5.381511,"is_reserved":false,"is_disabled":false,"rental_uris":{"android":"levelo://app?vid=85f0d066-41ec-45db-a43e-e0a80f7f8a4d","ios":"levelo://app?vid=85f0d066-41ec-45db-a43e-e0a80f7f8a4d"},"vehicle_type_id":"4","last_reported":1710364088,"current_range_meters":3600,"station_id":"ce4bgt12rcd13ifvqce0","pricing_plan_id":"cebpf4jnsgd1na2vs0mg"},{"bike_id":"9d4b9fa8-4c28-4062-bef4-ef4484a4a110","system_id":"levelo_inurba_marseille","lat":43.308012,"lon":5.381511,"is_reserved":false,"is_disabled":false,"rental_uris":{"android":"levelo://app?vid=9d4b9fa8-4c28-4062-bef4-ef4484a4a110","ios":"levelo://app?vid=9d4b9fa8-4c28-4062-bef4-ef4484a4a110"},"vehicle_type_id":"4","last_reported":1710364088,"current_range_meters":7200,"station_id":"ce4bgt12rcd13ifvqce0","pricing_plan_id":"cebpf4jnsgd1na2vs0mg"},{"bike_id":"d54b065e-852f-426c-9d83-4cf96c758b6f","system_id":"levelo_inurba_marseille","lat":43.308012,"lon":5.381511,"is_reserved":false,"is_disabled":false,"rental_uris":{"android":"levelo://app?vid=d54b065e-852f-426c-9d83-4cf96c758b6f","ios":"levelo://app?vid=d54b065e-852f-426c-9d83-4cf96c758b6f"},"vehicle_type_id":"4","last_reported":1710364088,"current_range_meters":0,"station_id":"ce4bgt12rcd13ifvqce0","pricing_plan_id":"cebpf4jnsgd1na2vs0mg"},{"bike_id":"f2192a20-9ce4-41c3-a8df-b831380965ee","system_id":"levelo_inurba_marseille","lat":43.30467,"lon":5.37901,"is_reserved":false,"is_disabled":false,"rental_uris":{"android":"levelo://app?vid=f2192a20-9ce4-41c3-a8df-b831380965ee","ios":"levelo://app?vid=f2192a20-9ce4-41c3-a8df-b831380965ee"},"vehicle_type_id":"4","last_reported":1710364088,"current_range_meters":0,"station_id":"ce4bgup2rcd13ifvqcn0","pricing_plan_id":"cebpf4jnsgd1na2vs0mg"},{"bike_id":"47f5d06c-14b8-46ae-93c0-d776ab6a60d5","system_id":"levelo_inurba_marseille","lat":43.3047,"lon":5.37905,"is_reserved":false,"is_disabled":false,"rental_uris":{"android":"levelo://app?vid=47f5d06c-14b8-46ae-93c0-d776ab6a60d5","ios":"levelo://app?vid=47f5d06c-14b8-46ae-93c0-d776ab6a60d5"},"vehicle_type_id":"4","last_reported":1710364088,"current_range_meters":19200,"station_id":"ce4bgup2rcd13ifvqcn0","pricing_plan_id":"cebpf4jnsgd1na2vs0mg"},{"bike_id":"8687df11-e81d-4840-a0af-0e3d12ff71e5","system_id":"levelo_inurba_marseille","lat":43.304606,"lon":5.379026,"is_reserved":false,"is_disabled":false,"rental_uris":{"android":"levelo://app?vid=8687df11-e81d-4840-a0af-0e3d12ff71e5","ios":"levelo://app?vid=8687df11-e81d-4840-a0af-0e3d12ff71e5"},"vehicle_type_id":"4","last_reported":1710364088,"current_range_meters":12800,"station_id":"ce4bgup2rcd13ifvqcn0","pricing_plan_id":"cebpf4jnsgd1na2vs0mg"},{"bike_id":"93c071dc-4f58-4b44-a0e1-37b9560f36e1","system_id":"levelo_inurba_marseille","lat":43.30464,"lon":5.37903,"is_reserved":false,"is_disabled":false,"rental_uris":{"android":"levelo://app?vid=93c071dc-4f58-4b44-a0e1-37b9560f36e1","ios":"levelo://app?vid=93c071dc-4f58-4b44-a0e1-37b9560f36e1"},"vehicle_type_id":"4","last_reported":1710364088,"current_range_meters":14800,"station_id":"ce4bgup2rcd13ifvqcn0","pricing_plan_id":"cebpf4jnsgd1na2vs0mg"},{"bike_id":"c75d2584-26ba-4cd3-900a-335a684f0622","system_id":"levelo_inurba_marseille","lat":43.304606,"lon":5.379026,"is_reserved":false,"is_disabled":false,"rental_uris":{"android":"levelo://app?vid=c75d2584-26ba-4cd3-900a-335a684f0622","ios":"levelo://app?vid=c75d2584-26ba-4cd3-900a-335a684f0622"},"vehicle_type_id":"4","last_reported":1710364088,"current_range_meters":2000,"station_id":"ce4bgup2rcd13ifvqcn0","pricing_plan_id":"cebpf4jnsgd1na2vs0mg"},{"bike_id":"4d51d894-4898-4484-9097-4c3ddd61447c","system_id":"levelo_inurba_marseille","lat":43.30463,"lon":5.37906,"is_reserved":false,"is_disabled":false,"rental_uris":{"android":"levelo://app?vid=4d51d894-4898-4484-9097-4c3ddd61447c","ios":"levelo://app?vid=4d51d894-4898-4484-9097-4c3ddd61447c"},"vehicle_type_id":"4","last_reported":1710364088,"current_range_meters":23200,"station_id":"ce4bgup2rcd13ifvqcn0","pricing_plan_id":"cebpf4jnsgd1na2vs0mg"},{"bike_id":"49f2117d-bbb1-42e5-80a2-7a881aecf261","system_id":"levelo_inurba_marseille","lat":43.324771,"lon":5.36557,"is_reserved":false,"is_disabled":false,"rental_uris":{"android":"levelo://app?vid=49f2117d-bbb1-42e5-80a2-7a881aecf261","ios":"levelo://app?vid=49f2117d-bbb1-42e5-80a2-7a881aecf261"},"vehicle_type_id":"4","last_reported":1710364088,"current_range_meters":10400,"station_id":"ce4bhs12rcd13ifvqhvg","pricing_plan_id":"cebpf4jnsgd1na2vs0mg"},{"bike_id":"6068d22f-e2ba-4474-ba2e-a9d2f6b84487","system_id":"levelo_inurba_marseille","lat":43.324771,"lon":5.36557,"is_reserved":false,"is_disabled":false,"rental_uris":{"android":"levelo://app?vid=6068d22f-e2ba-4474-ba2e-a9d2f6b84487","ios":"levelo://app?vid=6068d22f-e2ba-4474-ba2e-a9d2f6b84487"},"vehicle_type_id":"4","last_reported":1710364088,"current_range_meters":0,"station_id":"ce4bhs12rcd13ifvqhvg","pricing_plan_id":"cebpf4jnsgd1na2vs0mg"},{"bike_id":"36b9805d-1b04-4ec6-8f80-ae352e34369c","system_id":"levelo_inurba_marseille","lat":43.324771,"lon":5.36557,"is_reserved":false,"is_disabled":false,"rental_uris":{"android":"levelo://app?vid=36b9805d-1b04-4ec6-8f80-ae352e34369c","ios":"levelo://app?vid=36b9805d-1b04-4ec6-8f80-ae352e34369c"},"vehicle_type_id":"4","last_reported":1710364088,"current_range_meters":1600,"station_id":"ce4bhs12rcd13ifvqhvg","pricing_plan_id":"cebpf4jnsgd1na2vs0mg"},{"bike_id":"ed2f200f-86c1-4eb8-ad3b-d4ae2c5298fd","system_id":"levelo_inurba_marseille","lat":43.324771,"lon":5.36557,"is_reserved":false,"is_disabled":false,"rental_uris":{"android":"levelo://app?vid=ed2f200f-86c1-4eb8-ad3b-d4ae2c5298fd","ios":"levelo://app?vid=ed2f200f-86c1-4eb8-ad3b-d4ae2c5298fd"},"vehicle_type_id":"4","last_reported":1710364088,"current_range_meters":23200,"station_id":"ce4bhs12rcd13ifvqhvg","pricing_plan_id":"cebpf4jnsgd1na2vs0mg"},{"bike_id":"75737f94-0aac-466c-878e-f5152ecd0234","system_id":"levelo_inurba_marseille","lat":43.324771,"lon":5.36557,"is_reserved":false,"is_disabled":false,"rental_uris":{"android":"levelo://app?vid=75737f94-0aac-466c-878e-f5152ecd0234","ios":"levelo://app?vid=75737f94-0aac-466c-878e-f5152ecd0234"},"vehicle_type_id":"4","last_reported":1710364088,"current_range_meters":1600,"station_id":"ce4bhs12rcd13ifvqhvg","pricing_plan_id":"cebpf4jnsgd1na2vs0mg"},{"bike_id":"b735f631-99f5-4034-8269-a86a4a969537","system_id":"levelo_inurba_marseille","lat":43.324771,"lon":5.36557,"is_reserved":false,"is_disabled":false,"rental_uris":{"android":"levelo://app?vid=b735f631-99f5-4034-8269-a86a4a969537","ios":"levelo://app?vid=b735f631-99f5-4034-8269-a86a4a969537"},"vehicle_type_id":"4","last_reported":1710364088,"current_range_meters":4000,"station_id":"ce4bhs12rcd13ifvqhvg","pricing_plan_id":"cebpf4jnsgd1na2vs0mg"},{"bike_id":"69f16bc0-91b1-4cad-91b5-51ae8c8ba203","system_id":"levelo_inurba_marseille","lat":43.324805,"lon":5.365613,"is_reserved":false,"is_disabled":false,"rental_uris":{"android":"levelo://app?vid=69f16bc0-91b1-4cad-91b5-51ae8c8ba203","ios":"levelo://app?vid=69f16bc0-91b1-4cad-91b5-51ae8c8ba203"},"vehicle_type_id":"4","last_reported":1710364088,"current_range_meters":4400,"station_id":"ce4bhs12rcd13ifvqhvg","pricing_plan_id":"cebpf4jnsgd1na2vs0mg"},{"bike_id":"64568b75-f031-43c1-b864-d2ad6638bde4","system_id":"levelo_inurba_marseille","lat":43.324771,"lon":5.36557,"is_reserved":false,"is_disabled":false,"rental_uris":{"android":"levelo://app?vid=64568b75-f031-43c1-b864-d2ad6638bde4","ios":"levelo://app?vid=64568b75-f031-43c1-b864-d2ad6638bde4"},"vehicle_type_id":"4","last_reported":1710364088,"current_range_meters":4400,"station_id":"ce4bhs12rcd13ifvqhvg","pricing_plan_id":"cebpf4jnsgd1na2vs0mg"},{"bike_id":"12c419ff-5d5f-445b-9471-a4225b24c594","system_id":"levelo_inurba_marseille","lat":43.324771,"lon":5.36557,"is_reserved":false,"is_disabled":false,"rental_uris":{"android":"levelo://app?vid=12c419ff-5d5f-445b-9471-a4225b24c594","ios":"levelo://app?vid=12c419ff-5d5f-445b-9471-a4225b24c594"},"vehicle_type_id":"4","last_reported":1710364088,"current_range_meters":16000,"station_id":"ce4bhs12rcd13ifvqhvg","pricing_plan_id":"cebpf4jnsgd1na2vs0mg"},{"bike_id":"71f4eaaf-8954-44e2-93bc-76b7e657b03b","system_id":"levelo_inurba_marseille","lat":43.324771,"lon":5.36557,"is_reserved":false,"is_disabled":false,"rental_uris":{"android":"levelo://app?vid=71f4eaaf-8954-44e2-93bc-76b7e657b03b","ios":"levelo://app?vid=71f4eaaf-8954-44e2-93bc-76b7e657b03b"},"vehicle_type_id":"4","last_reported":1710364088,"current_range_meters":12400,"station_id":"ce4bhs12rcd13ifvqhvg","pricing_plan_id":"cebpf4jnsgd1na2vs0mg"},{"bike_id":"3e493ae2-c51c-41da-a0b8-fbd174ae9e18","system_id":"levelo_inurba_marseille","lat":43.324844,"lon":5.365729,"is_reserved":false,"is_disabled":false,"rental_uris":{"android":"levelo://app?vid=3e493ae2-c51c-41da-a0b8-fbd174ae9e18","ios":"levelo://app?vid=3e493ae2-c51c-41da-a0b8-fbd174ae9e18"},"vehicle_type_id":"4","last_reported":1710364088,"current_range_meters":4800,"station_id":"ce4bhs12rcd13ifvqhvg","pricing_plan_id":"cebpf4jnsgd1na2vs0mg"},{"bike_id":"2e3cabf9-3880-4d07-ae3b-af234e57884b","system_id":"levelo_inurba_marseille","lat":43.324771,"lon":5.36557,"is_reserved":false,"is_disabled":false,"rental_uris":{"android":"levelo://app?vid=2e3cabf9-3880-4d07-ae3b-af234e57884b","ios":"levelo://app?vid=2e3cabf9-3880-4d07-ae3b-af234e57884b"},"vehicle_type_id":"4","last_reported":1710364088,"current_range_meters":4000,"station_id":"ce4bhs12rcd13ifvqhvg","pricing_plan_id":"cebpf4jnsgd1na2vs0mg"},{"bike_id":"2f177a10-dff1-4a4e-be87-c3cc9e449d3e","system_id":"levelo_inurba_marseille","lat":43.324771,"lon":5.36557,"is_reserved":false,"is_disabled":false,"rental_uris":{"android":"levelo://app?vid=2f177a10-dff1-4a4e-be87-c3cc9e449d3e","ios":"levelo://app?vid=2f177a10-dff1-4a4e-be87-c3cc9e449d3e"},"vehicle_type_id":"4","last_reported":1710364088,"current_range_meters":3600,"station_id":"ce4bhs12rcd13ifvqhvg","pricing_plan_id":"cebpf4jnsgd1na2vs0mg"},{"bike_id":"cfdb109c-b591-4f11-863b-b5c16f3933fe","system_id":"levelo_inurba_marseille","lat":43.324771,"lon":5.36557,"is_reserved":false,"is_disabled":false,"rental_uris":{"android":"levelo://app?vid=cfdb109c-b591-4f11-863b-b5c16f3933fe","ios":"levelo://app?vid=cfdb109c-b591-4f11-863b-b5c16f3933fe"},"vehicle_type_id":"4","last_reported":1710364088,"current_range_meters":20400,"station_id":"ce4bhs12rcd13ifvqhvg","pricing_plan_id":"cebpf4jnsgd1na2vs0mg"},{"bike_id":"80108450-f296-43cc-9cd9-cd48e84285b1","system_id":"levelo_inurba_marseille","lat":43.310804,"lon":5.38359,"is_reserved":false,"is_disabled":false,"rental_uris":{"android":"levelo://app?vid=80108450-f296-43cc-9cd9-cd48e84285b1","ios":"levelo://app?vid=80108450-f296-43cc-9cd9-cd48e84285b1"},"vehicle_type_id":"4","last_reported":1710364088,"current_range_meters":0,"station_id":"ce4bgv92rcd13ifvqcr0","pricing_plan_id":"cebpf4jnsgd1na2vs0mg"},{"bike_id":"2cbe4754-8bed-4fb8-ac7d-a2dfa79db6a5","system_id":"levelo_inurba_marseille","lat":43.32491,"lon":5.36569,"is_reserved":false,"is_disabled":false,"rental_uris":{"android":"levelo://app?vid=2cbe4754-8bed-4fb8-ac7d-a2dfa79db6a5","ios":"levelo://app?vid=2cbe4754-8bed-4fb8-ac7d-a2dfa79db6a5"},"vehicle_type_id":"4","last_reported":1710364088,"current_range_meters":6400,"station_id":"ce4bhs12rcd13ifvqhvg","pricing_plan_id":"cebpf4jnsgd1na2vs0mg"},{"bike_id":"3825d362-8130-4466-a717-c5f7341c6511","system_id":"levelo_inurba_marseille","lat":43.310804,"lon":5.38359,"is_reserved":false,"is_disabled":false,"rental_uris":{"android":"levelo://app?vid=3825d362-8130-4466-a717-c5f7341c6511","ios":"levelo://app?vid=3825d362-8130-4466-a717-c5f7341c6511"},"vehicle_type_id":"4","last_reported":1710364088,"current_range_meters":6400,"station_id":"ce4bgv92rcd13ifvqcr0","pricing_plan_id":"cebpf4jnsgd1na2vs0mg"},{"bike_id":"9541ffe8-b8d9-48a2-aab0-324a5580c0b6","system_id":"levelo_inurba_marseille","lat":43.310804,"lon":5.38359,"is_reserved":false,"is_disabled":false,"rental_uris":{"android":"levelo://app?vid=9541ffe8-b8d9-48a2-aab0-324a5580c0b6","ios":"levelo://app?vid=9541ffe8-b8d9-48a2-aab0-324a5580c0b6"},"vehicle_type_id":"4","last_reported":1710364088,"current_range_meters":0,"station_id":"ce4bgv92rcd13ifvqcr0","pricing_plan_id":"cebpf4jnsgd1na2vs0mg"},{"bike_id":"21864283-a92a-4e66-9b9f-108369c2bd40","system_id":"levelo_inurba_marseille","lat":43.310804,"lon":5.38359,"is_reserved":false,"is_disabled":false,"rental_uris":{"android":"levelo://app?vid=21864283-a92a-4e66-9b9f-108369c2bd40","ios":"levelo://app?vid=21864283-a92a-4e66-9b9f-108369c2bd40"},"vehicle_type_id":"4","last_reported":1710364088,"current_range_meters":10800,"station_id":"ce4bgv92rcd13ifvqcr0","pricing_plan_id":"cebpf4jnsgd1na2vs0mg"},{"bike_id":"7fc755de-a946-48b2-8613-f75e52757226","system_id":"levelo_inurba_marseille","lat":43.30143,"lon":5.37413,"is_reserved":false,"is_disabled":false,"rental_uris":{"android":"levelo://app?vid=7fc755de-a946-48b2-8613-f75e52757226","ios":"levelo://app?vid=7fc755de-a946-48b2-8613-f75e52757226"},"vehicle_type_id":"4","last_reported":1710364088,"current_range_meters":0,"station_id":"ce4bgs92rcd13ifvqcc0","pricing_plan_id":"cebpf4jnsgd1na2vs0mg"},{"bike_id":"5f3c95b2-6ced-4bfc-bc25-cab3f7cf72ec","system_id":"levelo_inurba_marseille","lat":43.31998,"lon":5.38148,"is_reserved":false,"is_disabled":false,"rental_uris":{"android":"levelo://app?vid=5f3c95b2-6ced-4bfc-bc25-cab3f7cf72ec","ios":"levelo://app?vid=5f3c95b2-6ced-4bfc-bc25-cab3f7cf72ec"},"vehicle_type_id":"4","last_reported":1710364088,"current_range_meters":2400,"station_id":"ce4bhr12rcd13ifvqhpg","pricing_plan_id":"cebpf4jnsgd1na2vs0mg"},{"bike_id":"108d0463-7484-49b1-90df-fc408c569a32","system_id":"levelo_inurba_marseille","lat":43.319916,"lon":5.381552,"is_reserved":false,"is_disabled":false,"rental_uris":{"android":"levelo://app?vid=108d0463-7484-49b1-90df-fc408c569a32","ios":"levelo://app?vid=108d0463-7484-49b1-90df-fc408c569a32"},"vehicle_type_id":"4","last_reported":1710364088,"current_range_meters":0,"station_id":"ce4bhr12rcd13ifvqhpg","pricing_plan_id":"cebpf4jnsgd1na2vs0mg"},{"bike_id":"1dcc8183-b7cf-4237-af50-833418ba40b6","system_id":"levelo_inurba_marseille","lat":43.319935,"lon":5.381699,"is_reserved":false,"is_disabled":false,"rental_uris":{"android":"levelo://app?vid=1dcc8183-b7cf-4237-af50-833418ba40b6","ios":"levelo://app?vid=1dcc8183-b7cf-4237-af50-833418ba40b6"},"vehicle_type_id":"4","last_reported":1710364088,"current_range_meters":1600,"station_id":"ce4bhr12rcd13ifvqhpg","pricing_plan_id":"cebpf4jnsgd1na2vs0mg"},{"bike_id":"057221b1-1b0d-4685-8564-80af51651ade","system_id":"levelo_inurba_marseille","lat":43.319935,"lon":5.381699,"is_reserved":false,"is_disabled":false,"rental_uris":{"android":"levelo://app?vid=057221b1-1b0d-4685-8564-80af51651ade","ios":"levelo://app?vid=057221b1-1b0d-4685-8564-80af51651ade"},"vehicle_type_id":"4","last_reported":1710364088,"current_range_meters":10800,"station_id":"ce4bhr12rcd13ifvqhpg","pricing_plan_id":"cebpf4jnsgd1na2vs0mg"},{"bike_id":"3251774e-c0fe-4644-8732-ff8e5aa7e275","system_id":"levelo_inurba_marseille","lat":43.31997,"lon":5.381543,"is_reserved":false,"is_disabled":false,"rental_uris":{"android":"levelo://app?vid=3251774e-c0fe-4644-8732-ff8e5aa7e275","ios":"levelo://app?vid=3251774e-c0fe-4644-8732-ff8e5aa7e275"},"vehicle_type_id":"4","last_reported":1710364088,"current_range_meters":0,"station_id":"ce4bhr12rcd13ifvqhpg","pricing_plan_id":"cebpf4jnsgd1na2vs0mg"},{"bike_id":"98a048a4-858a-4ca0-ac75-54be45a841cd","system_id":"levelo_inurba_marseille","lat":43.313571,"lon":5.384829,"is_reserved":false,"is_disabled":false,"rental_uris":{"android":"levelo://app?vid=98a048a4-858a-4ca0-ac75-54be45a841cd","ios":"levelo://app?vid=98a048a4-858a-4ca0-ac75-54be45a841cd"},"vehicle_type_id":"4","last_reported":1710364088,"current_range_meters":0,"station_id":"ce4bgt92rcd13ifvqcf0","pricing_plan_id":"cebpf4jnsgd1na2vs0mg"},{"bike_id":"f13569ab-ed18-4b09-887c-f9ccd120fb0d","system_id":"levelo_inurba_marseille","lat":43.313571,"lon":5.384829,"is_reserved":false,"is_disabled":false,"rental_uris":{"android":"levelo://app?vid=f13569ab-ed18-4b09-887c-f9ccd120fb0d","ios":"levelo://app?vid=f13569ab-ed18-4b09-887c-f9ccd120fb0d"},"vehicle_type_id":"4","last_reported":1710364088,"current_range_meters":0,"station_id":"ce4bgt92rcd13ifvqcf0","pricing_plan_id":"cebpf4jnsgd1na2vs0mg"},{"bike_id":"d599bc67-653d-493a-863d-16905d6a4351","system_id":"levelo_inurba_marseille","lat":43.313571,"lon":5.384829,"is_reserved":false,"is_disabled":false,"rental_uris":{"android":"levelo://app?vid=d599bc67-653d-493a-863d-16905d6a4351","ios":"levelo://app?vid=d599bc67-653d-493a-863d-16905d6a4351"},"vehicle_type_id":"4","last_reported":1710364088,"current_range_meters":16800,"station_id":"ce4bgt92rcd13ifvqcf0","pricing_plan_id":"cebpf4jnsgd1na2vs0mg"},{"bike_id":"450182fb-cfcb-49d4-bd12-aba5cad3217c","system_id":"levelo_inurba_marseille","lat":43.299222,"lon":5.365554,"is_reserved":false,"is_disabled":false,"rental_uris":{"android":"levelo://app?vid=450182fb-cfcb-49d4-bd12-aba5cad3217c","ios":"levelo://app?vid=450182fb-cfcb-49d4-bd12-aba5cad3217c"},"vehicle_type_id":"4","last_reported":1710364088,"current_range_meters":14400,"station_id":"ce4bgm92rcd13ifvqbr0","pricing_plan_id":"cebpf4jnsgd1na2vs0mg"},{"bike_id":"a40ae8de-7fa2-4031-8726-0264cc1cb3d5","system_id":"levelo_inurba_marseille","lat":43.2994,"lon":5.365535,"is_reserved":false,"is_disabled":false,"rental_uris":{"android":"levelo://app?vid=a40ae8de-7fa2-4031-8726-0264cc1cb3d5","ios":"levelo://app?vid=a40ae8de-7fa2-4031-8726-0264cc1cb3d5"},"vehicle_type_id":"4","last_reported":1710364088,"current_range_meters":0,"station_id":"ce4bgm92rcd13ifvqbr0","pricing_plan_id":"cebpf4jnsgd1na2vs0mg"},{"bike_id":"30115361-cae6-43b5-bb75-d33ff6b727d9","system_id":"levelo_inurba_marseille","lat":43.299724,"lon":5.371829,"is_reserved":false,"is_disabled":false,"rental_uris":{"android":"levelo://app?vid=30115361-cae6-43b5-bb75-d33ff6b727d9","ios":"levelo://app?vid=30115361-cae6-43b5-bb75-d33ff6b727d9"},"vehicle_type_id":"4","last_reported":1710364088,"current_range_meters":9200,"station_id":"ce4bgr92rcd13ifvqc7g","pricing_plan_id":"cebpf4jnsgd1na2vs0mg"},{"bike_id":"727266ee-550f-403a-a82e-5f3a8cc9ef94","system_id":"levelo_inurba_marseille","lat":43.309366,"lon":5.385134,"is_reserved":false,"is_disabled":false,"rental_uris":{"android":"levelo://app?vid=727266ee-550f-403a-a82e-5f3a8cc9ef94","ios":"levelo://app?vid=727266ee-550f-403a-a82e-5f3a8cc9ef94"},"vehicle_type_id":"4","last_reported":1710364088,"current_range_meters":5600,"station_id":"","pricing_plan_id":"cebpf4jnsgd1na2vs0mg"},{"bike_id":"02e36adc-264a-44cf-b731-c3f62c2d7a92","system_id":"levelo_inurba_marseille","lat":43.31157,"lon":5.386802,"is_reserved":false,"is_disabled":false,"rental_uris":{"android":"levelo://app?vid=02e36adc-264a-44cf-b731-c3f62c2d7a92","ios":"levelo://app?vid=02e36adc-264a-44cf-b731-c3f62c2d7a92"},"vehicle_type_id":"4","last_reported":1710364088,"current_range_meters":10800,"station_id":"ce4bgv12rcd13ifvqcp0","pricing_plan_id":"cebpf4jnsgd1na2vs0mg"},{"bike_id":"6064d7a5-cabb-4bfc-83fa-51a81d6d8446","system_id":"levelo_inurba_marseille","lat":43.305525,"lon":5.384325,"is_reserved":false,"is_disabled":false,"rental_uris":{"android":"levelo://app?vid=6064d7a5-cabb-4bfc-83fa-51a81d6d8446","ios":"levelo://app?vid=6064d7a5-cabb-4bfc-83fa-51a81d6d8446"},"vehicle_type_id":"4","last_reported":1710364088,"current_range_meters":21600,"station_id":"ce4bgg92rcd13ifvqb30","pricing_plan_id":"cebpf4jnsgd1na2vs0mg"},{"bike_id":"fc7d2aa0-1c7d-421e-aa16-88cf21ae8dec","system_id":"levelo_inurba_marseille","lat":43.299243,"lon":5.37481,"is_reserved":false,"is_disabled":false,"rental_uris":{"android":"levelo://app?vid=fc7d2aa0-1c7d-421e-aa16-88cf21ae8dec","ios":"levelo://app?vid=fc7d2aa0-1c7d-421e-aa16-88cf21ae8dec"},"vehicle_type_id":"4","last_reported":1710364088,"current_range_meters":22000,"station_id":"ce4bgjh2rcd13ifvqbg0","pricing_plan_id":"cebpf4jnsgd1na2vs0mg"},{"bike_id":"8a83da41-3cfd-4396-bf0d-a4a217cf5d98","system_id":"levelo_inurba_marseille","lat":43.326245,"lon":5.374745,"is_reserved":false,"is_disabled":false,"rental_uris":{"android":"levelo://app?vid=8a83da41-3cfd-4396-bf0d-a4a217cf5d98","ios":"levelo://app?vid=8a83da41-3cfd-4396-bf0d-a4a217cf5d98"},"vehicle_type_id":"4","last_reported":1710364088,"current_range_meters":22800,"station_id":"","pricing_plan_id":"cebpf4jnsgd1na2vs0mg"},{"bike_id":"0bc4b682-0a7a-493d-8637-7ecd4d718689","system_id":"levelo_inurba_marseille","lat":43.299243,"lon":5.37481,"is_reserved":false,"is_disabled":false,"rental_uris":{"android":"levelo://app?vid=0bc4b682-0a7a-493d-8637-7ecd4d718689","ios":"levelo://app?vid=0bc4b682-0a7a-493d-8637-7ecd4d718689"},"vehicle_type_id":"4","last_reported":1710364088,"current_range_meters":24000,"station_id":"ce4bgjh2rcd13ifvqbg0","pricing_plan_id":"cebpf4jnsgd1na2vs0mg"},{"bike_id":"67ae9644-45bb-41df-9867-bb7b9c7f01a4","system_id":"levelo_inurba_marseille","lat":43.311722,"lon":5.387247,"is_reserved":false,"is_disabled":false,"rental_uris":{"android":"levelo://app?vid=67ae9644-45bb-41df-9867-bb7b9c7f01a4","ios":"levelo://app?vid=67ae9644-45bb-41df-9867-bb7b9c7f01a4"},"vehicle_type_id":"4","last_reported":1710364088,"current_range_meters":8400,"station_id":"ce4bgv12rcd13ifvqcp0","pricing_plan_id":"cebpf4jnsgd1na2vs0mg"},{"bike_id":"a35ba342-3af1-4fdc-93df-2881068849a9","system_id":"levelo_inurba_marseille","lat":43.32293,"lon":5.38252,"is_reserved":false,"is_disabled":false,"rental_uris":{"android":"levelo://app?vid=a35ba342-3af1-4fdc-93df-2881068849a9","ios":"levelo://app?vid=a35ba342-3af1-4fdc-93df-2881068849a9"},"vehicle_type_id":"4","last_reported":1710364088,"current_range_meters":12800,"station_id":"ce4bhr12rcd13ifvqhqg","pricing_plan_id":"cebpf4jnsgd1na2vs0mg"},{"bike_id":"e17f286e-276a-477a-ad66-3e999f055e4c","system_id":"levelo_inurba_marseille","lat":43.32285,"lon":5.38262,"is_reserved":false,"is_disabled":false,"rental_uris":{"android":"levelo://app?vid=e17f286e-276a-477a-ad66-3e999f055e4c","ios":"levelo://app?vid=e17f286e-276a-477a-ad66-3e999f055e4c"},"vehicle_type_id":"4","last_reported":1710364088,"current_range_meters":26800,"station_id":"ce4bhr12rcd13ifvqhqg","pricing_plan_id":"cebpf4jnsgd1na2vs0mg"},{"bike_id":"f2491452-d17d-4fd1-b87c-31e465894cd3","system_id":"levelo_inurba_marseille","lat":43.32288,"lon":5.38263,"is_reserved":false,"is_disabled":false,"rental_uris":{"android":"levelo://app?vid=f2491452-d17d-4fd1-b87c-31e465894cd3","ios":"levelo://app?vid=f2491452-d17d-4fd1-b87c-31e465894cd3"},"vehicle_type_id":"4","last_reported":1710364088,"current_range_meters":10400,"station_id":"ce4bhr12rcd13ifvqhqg","pricing_plan_id":"cebpf4jnsgd1na2vs0mg"},{"bike_id":"e2f24066-a9da-4ac3-9953-f3c0e9a735d9","system_id":"levelo_inurba_marseille","lat":43.32287,"lon":5.38265,"is_reserved":false,"is_disabled":false,"rental_uris":{"android":"levelo://app?vid=e2f24066-a9da-4ac3-9953-f3c0e9a735d9","ios":"levelo://app?vid=e2f24066-a9da-4ac3-9953-f3c0e9a735d9"},"vehicle_type_id":"4","last_reported":1710364088,"current_range_meters":9200,"station_id":"ce4bhr12rcd13ifvqhqg","pricing_plan_id":"cebpf4jnsgd1na2vs0mg"},{"bike_id":"a1ea46c0-4921-4767-a801-a177044432f3","system_id":"levelo_inurba_marseille","lat":43.322872,"lon":5.382756,"is_reserved":false,"is_disabled":false,"rental_uris":{"android":"levelo://app?vid=a1ea46c0-4921-4767-a801-a177044432f3","ios":"levelo://app?vid=a1ea46c0-4921-4767-a801-a177044432f3"},"vehicle_type_id":"4","last_reported":1710364088,"current_range_meters":31200,"station_id":"ce4bhr12rcd13ifvqhqg","pricing_plan_id":"cebpf4jnsgd1na2vs0mg"},{"bike_id":"3ff125a5-dff1-4591-b6cc-449dc2424878","system_id":"levelo_inurba_marseille","lat":43.322872,"lon":5.382756,"is_reserved":false,"is_disabled":false,"rental_uris":{"android":"levelo://app?vid=3ff125a5-dff1-4591-b6cc-449dc2424878","ios":"levelo://app?vid=3ff125a5-dff1-4591-b6cc-449dc2424878"},"vehicle_type_id":"4","last_reported":1710364088,"current_range_meters":22800,"station_id":"ce4bhr12rcd13ifvqhqg","pricing_plan_id":"cebpf4jnsgd1na2vs0mg"},{"bike_id":"eaf5350b-08e3-4231-8a58-3cf3fba26ee0","system_id":"levelo_inurba_marseille","lat":43.32288,"lon":5.38268,"is_reserved":false,"is_disabled":false,"rental_uris":{"android":"levelo://app?vid=eaf5350b-08e3-4231-8a58-3cf3fba26ee0","ios":"levelo://app?vid=eaf5350b-08e3-4231-8a58-3cf3fba26ee0"},"vehicle_type_id":"4","last_reported":1710364088,"current_range_meters":28000,"station_id":"ce4bhr12rcd13ifvqhqg","pricing_plan_id":"cebpf4jnsgd1na2vs0mg"},{"bike_id":"36727d06-0af4-4c64-88de-4193d3d2494b","system_id":"levelo_inurba_marseille","lat":43.322872,"lon":5.382756,"is_reserved":false,"is_disabled":false,"rental_uris":{"android":"levelo://app?vid=36727d06-0af4-4c64-88de-4193d3d2494b","ios":"levelo://app?vid=36727d06-0af4-4c64-88de-4193d3d2494b"},"vehicle_type_id":"4","last_reported":1710364088,"current_range_meters":20400,"station_id":"ce4bhr12rcd13ifvqhqg","pricing_plan_id":"cebpf4jnsgd1na2vs0mg"},{"bike_id":"f39275f7-9222-4b62-9352-e6cd6637031a","system_id":"levelo_inurba_marseille","lat":43.322872,"lon":5.382756,"is_reserved":false,"is_disabled":false,"rental_uris":{"android":"levelo://app?vid=f39275f7-9222-4b62-9352-e6cd6637031a","ios":"levelo://app?vid=f39275f7-9222-4b62-9352-e6cd6637031a"},"vehicle_type_id":"4","last_reported":1710364088,"current_range_meters":11600,"station_id":"ce4bhr12rcd13ifvqhqg","pricing_plan_id":"cebpf4jnsgd1na2vs0mg"},{"bike_id":"7d711117-8f24-4ca5-af35-2d207110a750","system_id":"levelo_inurba_marseille","lat":43.322872,"lon":5.382756,"is_reserved":false,"is_disabled":false,"rental_uris":{"android":"levelo://app?vid=7d711117-8f24-4ca5-af35-2d207110a750","ios":"levelo://app?vid=7d711117-8f24-4ca5-af35-2d207110a750"},"vehicle_type_id":"4","last_reported":1710364088,"current_range_meters":31200,"station_id":"ce4bhr12rcd13ifvqhqg","pricing_plan_id":"cebpf4jnsgd1na2vs0mg"},{"bike_id":"026c7ff0-2158-432c-a208-7b1b8a8d6e19","system_id":"levelo_inurba_marseille","lat":43.322872,"lon":5.382756,"is_reserved":false,"is_disabled":false,"rental_uris":{"android":"levelo://app?vid=026c7ff0-2158-432c-a208-7b1b8a8d6e19","ios":"levelo://app?vid=026c7ff0-2158-432c-a208-7b1b8a8d6e19"},"vehicle_type_id":"4","last_reported":1710364088,"current_range_meters":19600,"station_id":"ce4bhr12rcd13ifvqhqg","pricing_plan_id":"cebpf4jnsgd1na2vs0mg"},{"bike_id":"3abca3f8-73a4-4a83-9f7a-e9df11291bf3","system_id":"levelo_inurba_marseille","lat":43.322872,"lon":5.382756,"is_reserved":false,"is_disabled":false,"rental_uris":{"android":"levelo://app?vid=3abca3f8-73a4-4a83-9f7a-e9df11291bf3","ios":"levelo://app?vid=3abca3f8-73a4-4a83-9f7a-e9df11291bf3"},"vehicle_type_id":"4","last_reported":1710364088,"current_range_meters":30400,"station_id":"ce4bhr12rcd13ifvqhqg","pricing_plan_id":"cebpf4jnsgd1na2vs0mg"},{"bike_id":"f548446b-7df9-499c-a458-49720886bca1","system_id":"levelo_inurba_marseille","lat":43.322872,"lon":5.382756,"is_reserved":false,"is_disabled":false,"rental_uris":{"android":"levelo://app?vid=f548446b-7df9-499c-a458-49720886bca1","ios":"levelo://app?vid=f548446b-7df9-499c-a458-49720886bca1"},"vehicle_type_id":"4","last_reported":1710364088,"current_range_meters":0,"station_id":"ce4bhr12rcd13ifvqhqg","pricing_plan_id":"cebpf4jnsgd1na2vs0mg"},{"bike_id":"9d0d2793-67b4-4e0d-9337-f818dc6311ea","system_id":"levelo_inurba_marseille","lat":43.322872,"lon":5.382756,"is_reserved":false,"is_disabled":false,"rental_uris":{"android":"levelo://app?vid=9d0d2793-67b4-4e0d-9337-f818dc6311ea","ios":"levelo://app?vid=9d0d2793-67b4-4e0d-9337-f818dc6311ea"},"vehicle_type_id":"4","last_reported":1710364088,"current_range_meters":18400,"station_id":"ce4bhr12rcd13ifvqhqg","pricing_plan_id":"cebpf4jnsgd1na2vs0mg"},{"bike_id":"0c37f396-eced-4814-ac35-183332b90b1a","system_id":"levelo_inurba_marseille","lat":43.297163,"lon":5.365866,"is_reserved":false,"is_disabled":false,"rental_uris":{"android":"levelo://app?vid=0c37f396-eced-4814-ac35-183332b90b1a","ios":"levelo://app?vid=0c37f396-eced-4814-ac35-183332b90b1a"},"vehicle_type_id":"4","last_reported":1710364088,"current_range_meters":0,"station_id":"ce4bgn12rcd13ifvqbt0","pricing_plan_id":"cebpf4jnsgd1na2vs0mg"},{"bike_id":"118afa9f-7f73-417a-8201-d7b53eb7763e","system_id":"levelo_inurba_marseille","lat":43.297163,"lon":5.365866,"is_reserved":false,"is_disabled":false,"rental_uris":{"android":"levelo://app?vid=118afa9f-7f73-417a-8201-d7b53eb7763e","ios":"levelo://app?vid=118afa9f-7f73-417a-8201-d7b53eb7763e"},"vehicle_type_id":"4","last_reported":1710364088,"current_range_meters":27600,"station_id":"ce4bgn12rcd13ifvqbt0","pricing_plan_id":"cebpf4jnsgd1na2vs0mg"},{"bike_id":"44493555-6f16-46a3-9cba-da36dcf99025","system_id":"levelo_inurba_marseille","lat":43.297163,"lon":5.365866,"is_reserved":false,"is_disabled":false,"rental_uris":{"android":"levelo://app?vid=44493555-6f16-46a3-9cba-da36dcf99025","ios":"levelo://app?vid=44493555-6f16-46a3-9cba-da36dcf99025"},"vehicle_type_id":"4","last_reported":1710364088,"current_range_meters":10800,"station_id":"ce4bgn12rcd13ifvqbt0","pricing_plan_id":"cebpf4jnsgd1na2vs0mg"},{"bike_id":"59c60f8d-cac3-4eb9-bf71-3a7da2d9a3a2","system_id":"levelo_inurba_marseille","lat":43.297163,"lon":5.365866,"is_reserved":false,"is_disabled":false,"rental_uris":{"android":"levelo://app?vid=59c60f8d-cac3-4eb9-bf71-3a7da2d9a3a2","ios":"levelo://app?vid=59c60f8d-cac3-4eb9-bf71-3a7da2d9a3a2"},"vehicle_type_id":"4","last_reported":1710364088,"current_range_meters":24000,"station_id":"ce4bgn12rcd13ifvqbt0","pricing_plan_id":"cebpf4jnsgd1na2vs0mg"},{"bike_id":"7410243c-5f02-4202-98d8-ba31e519eec6","system_id":"levelo_inurba_marseille","lat":43.29573,"lon":5.367355,"is_reserved":false,"is_disabled":false,"rental_uris":{"android":"levelo://app?vid=7410243c-5f02-4202-98d8-ba31e519eec6","ios":"levelo://app?vid=7410243c-5f02-4202-98d8-ba31e519eec6"},"vehicle_type_id":"4","last_reported":1710364088,"current_range_meters":0,"station_id":"ce4bgph2rcd13ifvqc2g","pricing_plan_id":"cebpf4jnsgd1na2vs0mg"},{"bike_id":"4def6630-b916-4c3b-ba24-3f6834016f56","system_id":"levelo_inurba_marseille","lat":43.299028,"lon":5.381509,"is_reserved":false,"is_disabled":false,"rental_uris":{"android":"levelo://app?vid=4def6630-b916-4c3b-ba24-3f6834016f56","ios":"levelo://app?vid=4def6630-b916-4c3b-ba24-3f6834016f56"},"vehicle_type_id":"4","last_reported":1710364088,"current_range_meters":16800,"station_id":"ce4bgj12rcd13ifvqbc0","pricing_plan_id":"cebpf4jnsgd1na2vs0mg"},{"bike_id":"2f7c4c25-c9c4-4529-9589-2557e811a21d","system_id":"levelo_inurba_marseille","lat":43.296921,"lon":5.376579,"is_reserved":false,"is_disabled":false,"rental_uris":{"android":"levelo://app?vid=2f7c4c25-c9c4-4529-9589-2557e811a21d","ios":"levelo://app?vid=2f7c4c25-c9c4-4529-9589-2557e811a21d"},"vehicle_type_id":"4","last_reported":1710364088,"current_range_meters":0,"station_id":"ce4bgkh2rcd13ifvqbl0","pricing_plan_id":"cebpf4jnsgd1na2vs0mg"},{"bike_id":"11250817-4adb-4363-82f0-1da4d6a4af85","system_id":"levelo_inurba_marseille","lat":43.309589,"lon":5.390258,"is_reserved":false,"is_disabled":false,"rental_uris":{"android":"levelo://app?vid=11250817-4adb-4363-82f0-1da4d6a4af85","ios":"levelo://app?vid=11250817-4adb-4363-82f0-1da4d6a4af85"},"vehicle_type_id":"4","last_reported":1710364088,"current_range_meters":0,"station_id":"ce4bgup2rcd13ifvqco0","pricing_plan_id":"cebpf4jnsgd1na2vs0mg"},{"bike_id":"c853386d-332a-44e1-b8f3-c868b7c4a285","system_id":"levelo_inurba_marseille","lat":43.317539,"lon":5.390028,"is_reserved":false,"is_disabled":false,"rental_uris":{"android":"levelo://app?vid=c853386d-332a-44e1-b8f3-c868b7c4a285","ios":"levelo://app?vid=c853386d-332a-44e1-b8f3-c868b7c4a285"},"vehicle_type_id":"4","last_reported":1710364088,"current_range_meters":11200,"station_id":"ce4bhqp2rcd13ifvqhng","pricing_plan_id":"cebpf4jnsgd1na2vs0mg"},{"bike_id":"e7635339-4a3c-42a4-a346-f89d0509c084","system_id":"levelo_inurba_marseille","lat":43.317557,"lon":5.390173,"is_reserved":false,"is_disabled":false,"rental_uris":{"android":"levelo://app?vid=e7635339-4a3c-42a4-a346-f89d0509c084","ios":"levelo://app?vid=e7635339-4a3c-42a4-a346-f89d0509c084"},"vehicle_type_id":"4","last_reported":1710364088,"current_range_meters":27200,"station_id":"ce4bhqp2rcd13ifvqhng","pricing_plan_id":"cebpf4jnsgd1na2vs0mg"},{"bike_id":"400fc285-08c8-4b6b-a2e6-e4633d9bd4b4","system_id":"levelo_inurba_marseille","lat":43.31754,"lon":5.39011,"is_reserved":false,"is_disabled":false,"rental_uris":{"android":"levelo://app?vid=400fc285-08c8-4b6b-a2e6-e4633d9bd4b4","ios":"levelo://app?vid=400fc285-08c8-4b6b-a2e6-e4633d9bd4b4"},"vehicle_type_id":"4","last_reported":1710364088,"current_range_meters":2000,"station_id":"ce4bhqp2rcd13ifvqhng","pricing_plan_id":"cebpf4jnsgd1na2vs0mg"},{"bike_id":"77143e07-9a56-4df7-8659-5c80a8c15c48","system_id":"levelo_inurba_marseille","lat":43.31754,"lon":5.39015,"is_reserved":false,"is_disabled":false,"rental_uris":{"android":"levelo://app?vid=77143e07-9a56-4df7-8659-5c80a8c15c48","ios":"levelo://app?vid=77143e07-9a56-4df7-8659-5c80a8c15c48"},"vehicle_type_id":"4","last_reported":1710364088,"current_range_meters":3200,"station_id":"ce4bhqp2rcd13ifvqhng","pricing_plan_id":"cebpf4jnsgd1na2vs0mg"},{"bike_id":"1088c83b-edd1-487f-ba9c-9b4dd7f4efbe","system_id":"levelo_inurba_marseille","lat":43.31762,"lon":5.39014,"is_reserved":false,"is_disabled":false,"rental_uris":{"android":"levelo://app?vid=1088c83b-edd1-487f-ba9c-9b4dd7f4efbe","ios":"levelo://app?vid=1088c83b-edd1-487f-ba9c-9b4dd7f4efbe"},"vehicle_type_id":"4","last_reported":1710364088,"current_range_meters":31200,"station_id":"ce4bhqp2rcd13ifvqhng","pricing_plan_id":"cebpf4jnsgd1na2vs0mg"},{"bike_id":"a7e9409e-d196-40a9-8913-2226e2a94e30","system_id":"levelo_inurba_marseille","lat":43.3176,"lon":5.39016,"is_reserved":false,"is_disabled":false,"rental_uris":{"android":"levelo://app?vid=a7e9409e-d196-40a9-8913-2226e2a94e30","ios":"levelo://app?vid=a7e9409e-d196-40a9-8913-2226e2a94e30"},"vehicle_type_id":"4","last_reported":1710364088,"current_range_meters":30800,"station_id":"ce4bhqp2rcd13ifvqhng","pricing_plan_id":"cebpf4jnsgd1na2vs0mg"},{"bike_id":"cd364902-762b-4c3e-844f-575971d38c11","system_id":"levelo_inurba_marseille","lat":43.317631,"lon":5.390154,"is_reserved":false,"is_disabled":false,"rental_uris":{"android":"levelo://app?vid=cd364902-762b-4c3e-844f-575971d38c11","ios":"levelo://app?vid=cd364902-762b-4c3e-844f-575971d38c11"},"vehicle_type_id":"4","last_reported":1710364088,"current_range_meters":15200,"station_id":"ce4bhqp2rcd13ifvqhng","pricing_plan_id":"cebpf4jnsgd1na2vs0mg"},{"bike_id":"593c98a4-480b-419b-ae38-a13bb27cf2af","system_id":"levelo_inurba_marseille","lat":43.31756,"lon":5.390191,"is_reserved":false,"is_disabled":false,"rental_uris":{"android":"levelo://app?vid=593c98a4-480b-419b-ae38-a13bb27cf2af","ios":"levelo://app?vid=593c98a4-480b-419b-ae38-a13bb27cf2af"},"vehicle_type_id":"4","last_reported":1710364088,"current_range_meters":1600,"station_id":"ce4bhqp2rcd13ifvqhng","pricing_plan_id":"cebpf4jnsgd1na2vs0mg"},{"bike_id":"ce5155a1-f569-4097-982c-1231a70fa71c","system_id":"levelo_inurba_marseille","lat":43.317561,"lon":5.39021,"is_reserved":false,"is_disabled":false,"rental_uris":{"android":"levelo://app?vid=ce5155a1-f569-4097-982c-1231a70fa71c","ios":"levelo://app?vid=ce5155a1-f569-4097-982c-1231a70fa71c"},"vehicle_type_id":"4","last_reported":1710364088,"current_range_meters":10800,"station_id":"ce4bhqp2rcd13ifvqhng","pricing_plan_id":"cebpf4jnsgd1na2vs0mg"},{"bike_id":"f63c0e12-1219-43b7-8ae3-7050aa802158","system_id":"levelo_inurba_marseille","lat":43.317617,"lon":5.39019,"is_reserved":false,"is_disabled":false,"rental_uris":{"android":"levelo://app?vid=f63c0e12-1219-43b7-8ae3-7050aa802158","ios":"levelo://app?vid=f63c0e12-1219-43b7-8ae3-7050aa802158"},"vehicle_type_id":"4","last_reported":1710364088,"current_range_meters":21600,"station_id":"ce4bhqp2rcd13ifvqhng","pricing_plan_id":"cebpf4jnsgd1na2vs0mg"},{"bike_id":"15e2991d-aea9-4dea-887a-fc4583d6a5ca","system_id":"levelo_inurba_marseille","lat":43.317557,"lon":5.390173,"is_reserved":false,"is_disabled":false,"rental_uris":{"android":"levelo://app?vid=15e2991d-aea9-4dea-887a-fc4583d6a5ca","ios":"levelo://app?vid=15e2991d-aea9-4dea-887a-fc4583d6a5ca"},"vehicle_type_id":"4","last_reported":1710364088,"current_range_meters":31200,"station_id":"ce4bhqp2rcd13ifvqhng","pricing_plan_id":"cebpf4jnsgd1na2vs0mg"},{"bike_id":"eaa04335-ce5f-4e82-9d4b-09e2bf70fc9e","system_id":"levelo_inurba_marseille","lat":43.317607,"lon":5.390213,"is_reserved":false,"is_disabled":false,"rental_uris":{"android":"levelo://app?vid=eaa04335-ce5f-4e82-9d4b-09e2bf70fc9e","ios":"levelo://app?vid=eaa04335-ce5f-4e82-9d4b-09e2bf70fc9e"},"vehicle_type_id":"4","last_reported":1710364088,"current_range_meters":6000,"station_id":"ce4bhqp2rcd13ifvqhng","pricing_plan_id":"cebpf4jnsgd1na2vs0mg"},{"bike_id":"ba3a545d-9fec-4e88-b08a-c63ce08c8c4a","system_id":"levelo_inurba_marseille","lat":43.317557,"lon":5.390173,"is_reserved":false,"is_disabled":false,"rental_uris":{"android":"levelo://app?vid=ba3a545d-9fec-4e88-b08a-c63ce08c8c4a","ios":"levelo://app?vid=ba3a545d-9fec-4e88-b08a-c63ce08c8c4a"},"vehicle_type_id":"4","last_reported":1710364088,"current_range_meters":24800,"station_id":"ce4bhqp2rcd13ifvqhng","pricing_plan_id":"cebpf4jnsgd1na2vs0mg"},{"bike_id":"c1cd3c4b-26fa-453f-9554-101da3acfc5d","system_id":"levelo_inurba_marseille","lat":43.298037,"lon":5.381066,"is_reserved":false,"is_disabled":false,"rental_uris":{"android":"levelo://app?vid=c1cd3c4b-26fa-453f-9554-101da3acfc5d","ios":"levelo://app?vid=c1cd3c4b-26fa-453f-9554-101da3acfc5d"},"vehicle_type_id":"4","last_reported":1710364088,"current_range_meters":0,"station_id":"ce4bgip2rcd13ifvqbb0","pricing_plan_id":"cebpf4jnsgd1na2vs0mg"},{"bike_id":"fede9919-0872-4ad0-8e0c-0044f11af976","system_id":"levelo_inurba_marseille","lat":43.30445,"lon":5.38895,"is_reserved":false,"is_disabled":false,"rental_uris":{"android":"levelo://app?vid=fede9919-0872-4ad0-8e0c-0044f11af976","ios":"levelo://app?vid=fede9919-0872-4ad0-8e0c-0044f11af976"},"vehicle_type_id":"4","last_reported":1710364088,"current_range_meters":0,"station_id":"ce4bgk12rcd13ifvqbi0","pricing_plan_id":"cebpf4jnsgd1na2vs0mg"},{"bike_id":"d268ef86-6247-4466-ac1b-d62848a69a80","system_id":"levelo_inurba_marseille","lat":43.304278,"lon":5.388868,"is_reserved":false,"is_disabled":false,"rental_uris":{"android":"levelo://app?vid=d268ef86-6247-4466-ac1b-d62848a69a80","ios":"levelo://app?vid=d268ef86-6247-4466-ac1b-d62848a69a80"},"vehicle_type_id":"4","last_reported":1710364088,"current_range_meters":14000,"station_id":"ce4bgk12rcd13ifvqbi0","pricing_plan_id":"cebpf4jnsgd1na2vs0mg"},{"bike_id":"c8f3aee7-e956-48d8-b4bc-f0d00068f08f","system_id":"levelo_inurba_marseille","lat":43.29792,"lon":5.38112,"is_reserved":false,"is_disabled":false,"rental_uris":{"android":"levelo://app?vid=c8f3aee7-e956-48d8-b4bc-f0d00068f08f","ios":"levelo://app?vid=c8f3aee7-e956-48d8-b4bc-f0d00068f08f"},"vehicle_type_id":"4","last_reported":1710364088,"current_range_meters":14400,"station_id":"ce4bgip2rcd13ifvqbb0","pricing_plan_id":"cebpf4jnsgd1na2vs0mg"},{"bike_id":"f97bab1b-cce0-438d-b9f0-28e84efc067e","system_id":"levelo_inurba_marseille","lat":43.304278,"lon":5.388868,"is_reserved":false,"is_disabled":false,"rental_uris":{"android":"levelo://app?vid=f97bab1b-cce0-438d-b9f0-28e84efc067e","ios":"levelo://app?vid=f97bab1b-cce0-438d-b9f0-28e84efc067e"},"vehicle_type_id":"4","last_reported":1710364088,"current_range_meters":22400,"station_id":"ce4bgk12rcd13ifvqbi0","pricing_plan_id":"cebpf4jnsgd1na2vs0mg"},{"bike_id":"b9d36ca4-dede-476c-8a29-fa5341ade855","system_id":"levelo_inurba_marseille","lat":43.304274,"lon":5.388873,"is_reserved":false,"is_disabled":false,"rental_uris":{"android":"levelo://app?vid=b9d36ca4-dede-476c-8a29-fa5341ade855","ios":"levelo://app?vid=b9d36ca4-dede-476c-8a29-fa5341ade855"},"vehicle_type_id":"4","last_reported":1710364088,"current_range_meters":18000,"station_id":"ce4bgk12rcd13ifvqbi0","pricing_plan_id":"cebpf4jnsgd1na2vs0mg"},{"bike_id":"caeb4c93-c7c9-4045-b722-289d58e53251","system_id":"levelo_inurba_marseille","lat":43.304278,"lon":5.388868,"is_reserved":false,"is_disabled":false,"rental_uris":{"android":"levelo://app?vid=caeb4c93-c7c9-4045-b722-289d58e53251","ios":"levelo://app?vid=caeb4c93-c7c9-4045-b722-289d58e53251"},"vehicle_type_id":"4","last_reported":1710364088,"current_range_meters":800,"station_id":"ce4bgk12rcd13ifvqbi0","pricing_plan_id":"cebpf4jnsgd1na2vs0mg"},{"bike_id":"cda5f3ec-5029-4df0-8727-c43ef64e1388","system_id":"levelo_inurba_marseille","lat":43.304278,"lon":5.388868,"is_reserved":false,"is_disabled":false,"rental_uris":{"android":"levelo://app?vid=cda5f3ec-5029-4df0-8727-c43ef64e1388","ios":"levelo://app?vid=cda5f3ec-5029-4df0-8727-c43ef64e1388"},"vehicle_type_id":"4","last_reported":1710364088,"current_range_meters":800,"station_id":"ce4bgk12rcd13ifvqbi0","pricing_plan_id":"cebpf4jnsgd1na2vs0mg"},{"bike_id":"53fb2f2a-d593-42a1-821e-4f5667869593","system_id":"levelo_inurba_marseille","lat":43.296195,"lon":5.377215,"is_reserved":false,"is_disabled":false,"rental_uris":{"android":"levelo://app?vid=53fb2f2a-d593-42a1-821e-4f5667869593","ios":"levelo://app?vid=53fb2f2a-d593-42a1-821e-4f5667869593"},"vehicle_type_id":"4","last_reported":1710364088,"current_range_meters":0,"station_id":"ce4bgi92rcd13ifvqb90","pricing_plan_id":"cebpf4jnsgd1na2vs0mg"},{"bike_id":"9589620b-017f-4d56-8009-ebc0f06c67c2","system_id":"levelo_inurba_marseille","lat":43.296277,"lon":5.377108,"is_reserved":false,"is_disabled":false,"rental_uris":{"android":"levelo://app?vid=9589620b-017f-4d56-8009-ebc0f06c67c2","ios":"levelo://app?vid=9589620b-017f-4d56-8009-ebc0f06c67c2"},"vehicle_type_id":"4","last_reported":1710364088,"current_range_meters":0,"station_id":"ce4bgi92rcd13ifvqb90","pricing_plan_id":"cebpf4jnsgd1na2vs0mg"},{"bike_id":"f399e28b-2138-436b-b352-3461437a7309","system_id":"levelo_inurba_marseille","lat":43.299707,"lon":5.384859,"is_reserved":false,"is_disabled":false,"rental_uris":{"android":"levelo://app?vid=f399e28b-2138-436b-b352-3461437a7309","ios":"levelo://app?vid=f399e28b-2138-436b-b352-3461437a7309"},"vehicle_type_id":"4","last_reported":1710364088,"current_range_meters":15200,"station_id":"ce4bgj92rcd13ifvqbd0","pricing_plan_id":"cebpf4jnsgd1na2vs0mg"},{"bike_id":"a078862c-1b65-4513-980e-34c6caa95d14","system_id":"levelo_inurba_marseille","lat":43.299717,"lon":5.384845,"is_reserved":false,"is_disabled":false,"rental_uris":{"android":"levelo://app?vid=a078862c-1b65-4513-980e-34c6caa95d14","ios":"levelo://app?vid=a078862c-1b65-4513-980e-34c6caa95d14"},"vehicle_type_id":"4","last_reported":1710364088,"current_range_meters":1200,"station_id":"ce4bgj92rcd13ifvqbd0","pricing_plan_id":"cebpf4jnsgd1na2vs0mg"},{"bike_id":"c623da6a-a969-46b8-9bcb-c5ff99456ce6","system_id":"levelo_inurba_marseille","lat":43.32364,"lon":5.38842,"is_reserved":false,"is_disabled":false,"rental_uris":{"android":"levelo://app?vid=c623da6a-a969-46b8-9bcb-c5ff99456ce6","ios":"levelo://app?vid=c623da6a-a969-46b8-9bcb-c5ff99456ce6"},"vehicle_type_id":"4","last_reported":1710364088,"current_range_meters":17200,"station_id":"ce4bhqp2rcd13ifvqhog","pricing_plan_id":"cebpf4jnsgd1na2vs0mg"},{"bike_id":"a463f268-1ddc-41f8-8bd7-08961230cebe","system_id":"levelo_inurba_marseille","lat":43.32366,"lon":5.3888,"is_reserved":false,"is_disabled":false,"rental_uris":{"android":"levelo://app?vid=a463f268-1ddc-41f8-8bd7-08961230cebe","ios":"levelo://app?vid=a463f268-1ddc-41f8-8bd7-08961230cebe"},"vehicle_type_id":"4","last_reported":1710364088,"current_range_meters":16000,"station_id":"ce4bhqp2rcd13ifvqhog","pricing_plan_id":"cebpf4jnsgd1na2vs0mg"},{"bike_id":"88ba044c-644f-4dcf-a18d-2897cb72afb7","system_id":"levelo_inurba_marseille","lat":43.32368,"lon":5.38879,"is_reserved":false,"is_disabled":false,"rental_uris":{"android":"levelo://app?vid=88ba044c-644f-4dcf-a18d-2897cb72afb7","ios":"levelo://app?vid=88ba044c-644f-4dcf-a18d-2897cb72afb7"},"vehicle_type_id":"4","last_reported":1710364088,"current_range_meters":6400,"station_id":"ce4bhqp2rcd13ifvqhog","pricing_plan_id":"cebpf4jnsgd1na2vs0mg"},{"bike_id":"cc81d865-bd9e-47ea-9dba-ee06420c17c4","system_id":"levelo_inurba_marseille","lat":43.32359,"lon":5.38888,"is_reserved":false,"is_disabled":false,"rental_uris":{"android":"levelo://app?vid=cc81d865-bd9e-47ea-9dba-ee06420c17c4","ios":"levelo://app?vid=cc81d865-bd9e-47ea-9dba-ee06420c17c4"},"vehicle_type_id":"4","last_reported":1710364088,"current_range_meters":8800,"station_id":"ce4bhqp2rcd13ifvqhog","pricing_plan_id":"cebpf4jnsgd1na2vs0mg"},{"bike_id":"a2dba51a-b2d7-4c36-b5ce-152632c4dfd5","system_id":"levelo_inurba_marseille","lat":43.32367,"lon":5.388836,"is_reserved":false,"is_disabled":false,"rental_uris":{"android":"levelo://app?vid=a2dba51a-b2d7-4c36-b5ce-152632c4dfd5","ios":"levelo://app?vid=a2dba51a-b2d7-4c36-b5ce-152632c4dfd5"},"vehicle_type_id":"4","last_reported":1710364088,"current_range_meters":18400,"station_id":"ce4bhqp2rcd13ifvqhog","pricing_plan_id":"cebpf4jnsgd1na2vs0mg"},{"bike_id":"e6422fac-7806-4084-96f0-22e2e4a9f3dc","system_id":"levelo_inurba_marseille","lat":43.32365,"lon":5.38883,"is_reserved":false,"is_disabled":false,"rental_uris":{"android":"levelo://app?vid=e6422fac-7806-4084-96f0-22e2e4a9f3dc","ios":"levelo://app?vid=e6422fac-7806-4084-96f0-22e2e4a9f3dc"},"vehicle_type_id":"4","last_reported":1710364088,"current_range_meters":0,"station_id":"ce4bhqp2rcd13ifvqhog","pricing_plan_id":"cebpf4jnsgd1na2vs0mg"},{"bike_id":"991d7feb-dcd7-453d-a499-fd702ced26e1","system_id":"levelo_inurba_marseille","lat":43.32361,"lon":5.38887,"is_reserved":false,"is_disabled":false,"rental_uris":{"android":"levelo://app?vid=991d7feb-dcd7-453d-a499-fd702ced26e1","ios":"levelo://app?vid=991d7feb-dcd7-453d-a499-fd702ced26e1"},"vehicle_type_id":"4","last_reported":1710364088,"current_range_meters":3200,"station_id":"ce4bhqp2rcd13ifvqhog","pricing_plan_id":"cebpf4jnsgd1na2vs0mg"},{"bike_id":"db0fda7d-b7c0-4ea7-9291-736653401b08","system_id":"levelo_inurba_marseille","lat":43.323635,"lon":5.38885,"is_reserved":false,"is_disabled":false,"rental_uris":{"android":"levelo://app?vid=db0fda7d-b7c0-4ea7-9291-736653401b08","ios":"levelo://app?vid=db0fda7d-b7c0-4ea7-9291-736653401b08"},"vehicle_type_id":"4","last_reported":1710364088,"current_range_meters":400,"station_id":"ce4bhqp2rcd13ifvqhog","pricing_plan_id":"cebpf4jnsgd1na2vs0mg"},{"bike_id":"e6a60513-e8b7-483d-a0ac-59c1b33b431c","system_id":"levelo_inurba_marseille","lat":43.32365,"lon":5.38884,"is_reserved":false,"is_disabled":false,"rental_uris":{"android":"levelo://app?vid=e6a60513-e8b7-483d-a0ac-59c1b33b431c","ios":"levelo://app?vid=e6a60513-e8b7-483d-a0ac-59c1b33b431c"},"vehicle_type_id":"4","last_reported":1710364088,"current_range_meters":15600,"station_id":"ce4bhqp2rcd13ifvqhog","pricing_plan_id":"cebpf4jnsgd1na2vs0mg"},{"bike_id":"85208358-1d9c-42e8-98c3-73b8b13c7ee8","system_id":"levelo_inurba_marseille","lat":43.32367,"lon":5.38883,"is_reserved":false,"is_disabled":false,"rental_uris":{"android":"levelo://app?vid=85208358-1d9c-42e8-98c3-73b8b13c7ee8","ios":"levelo://app?vid=85208358-1d9c-42e8-98c3-73b8b13c7ee8"},"vehicle_type_id":"4","last_reported":1710364088,"current_range_meters":0,"station_id":"ce4bhqp2rcd13ifvqhog","pricing_plan_id":"cebpf4jnsgd1na2vs0mg"},{"bike_id":"049264a0-55e2-4f55-8e43-ef8b86006ff0","system_id":"levelo_inurba_marseille","lat":43.32366,"lon":5.38886,"is_reserved":false,"is_disabled":false,"rental_uris":{"android":"levelo://app?vid=049264a0-55e2-4f55-8e43-ef8b86006ff0","ios":"levelo://app?vid=049264a0-55e2-4f55-8e43-ef8b86006ff0"},"vehicle_type_id":"4","last_reported":1710364088,"current_range_meters":24800,"station_id":"ce4bhqp2rcd13ifvqhog","pricing_plan_id":"cebpf4jnsgd1na2vs0mg"},{"bike_id":"848f7d5b-25ae-4442-913e-34dbed8c4426","system_id":"levelo_inurba_marseille","lat":43.32365,"lon":5.38887,"is_reserved":false,"is_disabled":false,"rental_uris":{"android":"levelo://app?vid=848f7d5b-25ae-4442-913e-34dbed8c4426","ios":"levelo://app?vid=848f7d5b-25ae-4442-913e-34dbed8c4426"},"vehicle_type_id":"4","last_reported":1710364088,"current_range_meters":24400,"station_id":"ce4bhqp2rcd13ifvqhog","pricing_plan_id":"cebpf4jnsgd1na2vs0mg"},{"bike_id":"814e9b11-b6da-4c41-a98f-46d81e6f367e","system_id":"levelo_inurba_marseille","lat":43.32367,"lon":5.388836,"is_reserved":false,"is_disabled":false,"rental_uris":{"android":"levelo://app?vid=814e9b11-b6da-4c41-a98f-46d81e6f367e","ios":"levelo://app?vid=814e9b11-b6da-4c41-a98f-46d81e6f367e"},"vehicle_type_id":"4","last_reported":1710364088,"current_range_meters":16000,"station_id":"ce4bhqp2rcd13ifvqhog","pricing_plan_id":"cebpf4jnsgd1na2vs0mg"},{"bike_id":"e51693d7-1dd2-401e-9b75-f4e8a3f19ebd","system_id":"levelo_inurba_marseille","lat":43.32367,"lon":5.388836,"is_reserved":false,"is_disabled":false,"rental_uris":{"android":"levelo://app?vid=e51693d7-1dd2-401e-9b75-f4e8a3f19ebd","ios":"levelo://app?vid=e51693d7-1dd2-401e-9b75-f4e8a3f19ebd"},"vehicle_type_id":"4","last_reported":1710364088,"current_range_meters":20400,"station_id":"ce4bhqp2rcd13ifvqhog","pricing_plan_id":"cebpf4jnsgd1na2vs0mg"},{"bike_id":"f14c9a56-6115-4cb7-8920-5b14ab230a3d","system_id":"levelo_inurba_marseille","lat":43.32371,"lon":5.38888,"is_reserved":false,"is_disabled":false,"rental_uris":{"android":"levelo://app?vid=f14c9a56-6115-4cb7-8920-5b14ab230a3d","ios":"levelo://app?vid=f14c9a56-6115-4cb7-8920-5b14ab230a3d"},"vehicle_type_id":"4","last_reported":1710364088,"current_range_meters":7600,"station_id":"ce4bhqp2rcd13ifvqhog","pricing_plan_id":"cebpf4jnsgd1na2vs0mg"},{"bike_id":"0baecd5e-0049-4b19-8872-834ba1edcdb4","system_id":"levelo_inurba_marseille","lat":43.32367,"lon":5.388836,"is_reserved":false,"is_disabled":false,"rental_uris":{"android":"levelo://app?vid=0baecd5e-0049-4b19-8872-834ba1edcdb4","ios":"levelo://app?vid=0baecd5e-0049-4b19-8872-834ba1edcdb4"},"vehicle_type_id":"4","last_reported":1710364088,"current_range_meters":14800,"station_id":"ce4bhqp2rcd13ifvqhog","pricing_plan_id":"cebpf4jnsgd1na2vs0mg"},{"bike_id":"8edd368f-e3a8-4647-b10a-a5dc1b1c8707","system_id":"levelo_inurba_marseille","lat":43.29602,"lon":5.381084,"is_reserved":false,"is_disabled":false,"rental_uris":{"android":"levelo://app?vid=8edd368f-e3a8-4647-b10a-a5dc1b1c8707","ios":"levelo://app?vid=8edd368f-e3a8-4647-b10a-a5dc1b1c8707"},"vehicle_type_id":"4","last_reported":1710364088,"current_range_meters":0,"station_id":"ce4bgl12rcd13ifvqbo0","pricing_plan_id":"cebpf4jnsgd1na2vs0mg"},{"bike_id":"70e20882-3aa9-4208-954d-b7cc032416ee","system_id":"levelo_inurba_marseille","lat":43.292783,"lon":5.367844,"is_reserved":false,"is_disabled":false,"rental_uris":{"android":"levelo://app?vid=70e20882-3aa9-4208-954d-b7cc032416ee","ios":"levelo://app?vid=70e20882-3aa9-4208-954d-b7cc032416ee"},"vehicle_type_id":"4","last_reported":1710364088,"current_range_meters":22000,"station_id":"ce4bhbp2rcd13ifvqesg","pricing_plan_id":"cebpf4jnsgd1na2vs0mg"},{"bike_id":"ee162d72-687b-4dc2-9e39-5420a00d0ee3","system_id":"levelo_inurba_marseille","lat":43.30603,"lon":5.39349,"is_reserved":false,"is_disabled":false,"rental_uris":{"android":"levelo://app?vid=ee162d72-687b-4dc2-9e39-5420a00d0ee3","ios":"levelo://app?vid=ee162d72-687b-4dc2-9e39-5420a00d0ee3"},"vehicle_type_id":"4","last_reported":1710364088,"current_range_meters":0,"station_id":"ce4bh0p2rcd13ifvqd80","pricing_plan_id":"cebpf4jnsgd1na2vs0mg"},{"bike_id":"70e5b17e-9daf-48c7-b544-603fe56adaaf","system_id":"levelo_inurba_marseille","lat":43.293009,"lon":5.374584,"is_reserved":false,"is_disabled":false,"rental_uris":{"android":"levelo://app?vid=70e5b17e-9daf-48c7-b544-603fe56adaaf","ios":"levelo://app?vid=70e5b17e-9daf-48c7-b544-603fe56adaaf"},"vehicle_type_id":"4","last_reported":1710364088,"current_range_meters":800,"station_id":"ce4bgi12rcd13ifvqb70","pricing_plan_id":"cebpf4jnsgd1na2vs0mg"},{"bike_id":"83d9e962-0447-4eec-a282-48e34ff5e4bd","system_id":"levelo_inurba_marseille","lat":43.305994,"lon":5.393687,"is_reserved":false,"is_disabled":false,"rental_uris":{"android":"levelo://app?vid=83d9e962-0447-4eec-a282-48e34ff5e4bd","ios":"levelo://app?vid=83d9e962-0447-4eec-a282-48e34ff5e4bd"},"vehicle_type_id":"4","last_reported":1710364088,"current_range_meters":19200,"station_id":"ce4bh0p2rcd13ifvqd80","pricing_plan_id":"cebpf4jnsgd1na2vs0mg"},{"bike_id":"271fdb94-77e2-40d5-be28-05b25a261a3d","system_id":"levelo_inurba_marseille","lat":43.303002,"lon":5.392142,"is_reserved":false,"is_disabled":false,"rental_uris":{"android":"levelo://app?vid=271fdb94-77e2-40d5-be28-05b25a261a3d","ios":"levelo://app?vid=271fdb94-77e2-40d5-be28-05b25a261a3d"},"vehicle_type_id":"4","last_reported":1710364088,"current_range_meters":26000,"station_id":"ce4bgkh2rcd13ifvqbk0","pricing_plan_id":"cebpf4jnsgd1na2vs0mg"},{"bike_id":"2e5e5e8e-0e2e-46d6-9361-5ce05072f224","system_id":"levelo_inurba_marseille","lat":43.303033,"lon":5.39211,"is_reserved":false,"is_disabled":false,"rental_uris":{"android":"levelo://app?vid=2e5e5e8e-0e2e-46d6-9361-5ce05072f224","ios":"levelo://app?vid=2e5e5e8e-0e2e-46d6-9361-5ce05072f224"},"vehicle_type_id":"4","last_reported":1710364088,"current_range_meters":0,"station_id":"ce4bgkh2rcd13ifvqbk0","pricing_plan_id":"cebpf4jnsgd1na2vs0mg"},{"bike_id":"d2e7809b-417d-497a-ac60-e909d77d1f04","system_id":"levelo_inurba_marseille","lat":43.2936,"lon":5.37835,"is_reserved":false,"is_disabled":false,"rental_uris":{"android":"levelo://app?vid=d2e7809b-417d-497a-ac60-e909d77d1f04","ios":"levelo://app?vid=d2e7809b-417d-497a-ac60-e909d77d1f04"},"vehicle_type_id":"4","last_reported":1710364088,"current_range_meters":5600,"station_id":"ce4bgjh2rcd13ifvqbf0","pricing_plan_id":"cebpf4jnsgd1na2vs0mg"},{"bike_id":"cb61f44d-0f89-4133-bdbe-01ab4a6757cc","system_id":"levelo_inurba_marseille","lat":43.293791,"lon":5.378586,"is_reserved":false,"is_disabled":false,"rental_uris":{"android":"levelo://app?vid=cb61f44d-0f89-4133-bdbe-01ab4a6757cc","ios":"levelo://app?vid=cb61f44d-0f89-4133-bdbe-01ab4a6757cc"},"vehicle_type_id":"4","last_reported":1710364088,"current_range_meters":0,"station_id":"ce4bgjh2rcd13ifvqbf0","pricing_plan_id":"cebpf4jnsgd1na2vs0mg"},{"bike_id":"d4edade4-8f68-4ab5-9ca3-20809b7ab95e","system_id":"levelo_inurba_marseille","lat":43.302992,"lon":5.392136,"is_reserved":false,"is_disabled":false,"rental_uris":{"android":"levelo://app?vid=d4edade4-8f68-4ab5-9ca3-20809b7ab95e","ios":"levelo://app?vid=d4edade4-8f68-4ab5-9ca3-20809b7ab95e"},"vehicle_type_id":"4","last_reported":1710364088,"current_range_meters":16800,"station_id":"ce4bgkh2rcd13ifvqbk0","pricing_plan_id":"cebpf4jnsgd1na2vs0mg"},{"bike_id":"26ad0bf5-1503-4153-a9c2-5257b140b7ab","system_id":"levelo_inurba_marseille","lat":43.302992,"lon":5.392136,"is_reserved":false,"is_disabled":false,"rental_uris":{"android":"levelo://app?vid=26ad0bf5-1503-4153-a9c2-5257b140b7ab","ios":"levelo://app?vid=26ad0bf5-1503-4153-a9c2-5257b140b7ab"},"vehicle_type_id":"4","last_reported":1710364088,"current_range_meters":14000,"station_id":"ce4bgkh2rcd13ifvqbk0","pricing_plan_id":"cebpf4jnsgd1na2vs0mg"},{"bike_id":"d21cc0b8-59cc-472d-b6d3-d69121b185d7","system_id":"levelo_inurba_marseille","lat":43.2936,"lon":5.37835,"is_reserved":false,"is_disabled":false,"rental_uris":{"android":"levelo://app?vid=d21cc0b8-59cc-472d-b6d3-d69121b185d7","ios":"levelo://app?vid=d21cc0b8-59cc-472d-b6d3-d69121b185d7"},"vehicle_type_id":"4","last_reported":1710364088,"current_range_meters":4800,"station_id":"ce4bgjh2rcd13ifvqbf0","pricing_plan_id":"cebpf4jnsgd1na2vs0mg"},{"bike_id":"4bdb42c5-ecbc-485f-a14d-a108c2ced0f1","system_id":"levelo_inurba_marseille","lat":43.301043,"lon":5.390717,"is_reserved":false,"is_disabled":false,"rental_uris":{"android":"levelo://app?vid=4bdb42c5-ecbc-485f-a14d-a108c2ced0f1","ios":"levelo://app?vid=4bdb42c5-ecbc-485f-a14d-a108c2ced0f1"},"vehicle_type_id":"4","last_reported":1710364088,"current_range_meters":0,"station_id":"ce4bh192rcd13ifvqdb0","pricing_plan_id":"cebpf4jnsgd1na2vs0mg"},{"bike_id":"a0f0465e-2b93-4e2a-9387-9b730e20e542","system_id":"levelo_inurba_marseille","lat":43.300852,"lon":5.390859,"is_reserved":false,"is_disabled":false,"rental_uris":{"android":"levelo://app?vid=a0f0465e-2b93-4e2a-9387-9b730e20e542","ios":"levelo://app?vid=a0f0465e-2b93-4e2a-9387-9b730e20e542"},"vehicle_type_id":"4","last_reported":1710364088,"current_range_meters":12400,"station_id":"ce4bh192rcd13ifvqdb0","pricing_plan_id":"cebpf4jnsgd1na2vs0mg"},{"bike_id":"6dd57200-4359-4ec5-980b-a08b80aa66a5","system_id":"levelo_inurba_marseille","lat":43.30085,"lon":5.390856,"is_reserved":false,"is_disabled":false,"rental_uris":{"android":"levelo://app?vid=6dd57200-4359-4ec5-980b-a08b80aa66a5","ios":"levelo://app?vid=6dd57200-4359-4ec5-980b-a08b80aa66a5"},"vehicle_type_id":"4","last_reported":1710364088,"current_range_meters":14400,"station_id":"ce4bh192rcd13ifvqdb0","pricing_plan_id":"cebpf4jnsgd1na2vs0mg"},{"bike_id":"26304616-23df-45cd-9f97-194b15d312ef","system_id":"levelo_inurba_marseille","lat":43.292311,"lon":5.360731,"is_reserved":false,"is_disabled":false,"rental_uris":{"android":"levelo://app?vid=26304616-23df-45cd-9f97-194b15d312ef","ios":"levelo://app?vid=26304616-23df-45cd-9f97-194b15d312ef"},"vehicle_type_id":"4","last_reported":1710364088,"current_range_meters":27200,"station_id":"ce4bhbh2rcd13ifvqeqg","pricing_plan_id":"cebpf4jnsgd1na2vs0mg"},{"bike_id":"d8d5b78d-7600-479e-87ff-d14452cd4c37","system_id":"levelo_inurba_marseille","lat":43.300852,"lon":5.390859,"is_reserved":false,"is_disabled":false,"rental_uris":{"android":"levelo://app?vid=d8d5b78d-7600-479e-87ff-d14452cd4c37","ios":"levelo://app?vid=d8d5b78d-7600-479e-87ff-d14452cd4c37"},"vehicle_type_id":"4","last_reported":1710364088,"current_range_meters":4400,"station_id":"ce4bh192rcd13ifvqdb0","pricing_plan_id":"cebpf4jnsgd1na2vs0mg"},{"bike_id":"4f8b7c03-c09d-4c2b-8575-f707061e7c3b","system_id":"levelo_inurba_marseille","lat":43.300855,"lon":5.39084,"is_reserved":false,"is_disabled":false,"rental_uris":{"android":"levelo://app?vid=4f8b7c03-c09d-4c2b-8575-f707061e7c3b","ios":"levelo://app?vid=4f8b7c03-c09d-4c2b-8575-f707061e7c3b"},"vehicle_type_id":"4","last_reported":1710364088,"current_range_meters":0,"station_id":"","pricing_plan_id":"cebpf4jnsgd1na2vs0mg"},{"bike_id":"1b132897-84e5-4eeb-a7aa-2980d0e9b3de","system_id":"levelo_inurba_marseille","lat":43.300852,"lon":5.390859,"is_reserved":false,"is_disabled":false,"rental_uris":{"android":"levelo://app?vid=1b132897-84e5-4eeb-a7aa-2980d0e9b3de","ios":"levelo://app?vid=1b132897-84e5-4eeb-a7aa-2980d0e9b3de"},"vehicle_type_id":"4","last_reported":1710364088,"current_range_meters":2000,"station_id":"ce4bh192rcd13ifvqdb0","pricing_plan_id":"cebpf4jnsgd1na2vs0mg"},{"bike_id":"3ad96082-b770-42a7-a80e-9ed48ed87d76","system_id":"levelo_inurba_marseille","lat":43.291671,"lon":5.371575,"is_reserved":false,"is_disabled":false,"rental_uris":{"android":"levelo://app?vid=3ad96082-b770-42a7-a80e-9ed48ed87d76","ios":"levelo://app?vid=3ad96082-b770-42a7-a80e-9ed48ed87d76"},"vehicle_type_id":"4","last_reported":1710364088,"current_range_meters":2400,"station_id":"ce4bha92rcd13ifvqeh0","pricing_plan_id":"cebpf4jnsgd1na2vs0mg"},{"bike_id":"64a82bbd-fed2-492b-8c57-afad9be16d06","system_id":"levelo_inurba_marseille","lat":43.300852,"lon":5.390859,"is_reserved":false,"is_disabled":false,"rental_uris":{"android":"levelo://app?vid=64a82bbd-fed2-492b-8c57-afad9be16d06","ios":"levelo://app?vid=64a82bbd-fed2-492b-8c57-afad9be16d06"},"vehicle_type_id":"4","last_reported":1710364088,"current_range_meters":26800,"station_id":"ce4bh192rcd13ifvqdb0","pricing_plan_id":"cebpf4jnsgd1na2vs0mg"},{"bike_id":"bdf80a15-6546-4dd6-af4b-b5b8d0460fb2","system_id":"levelo_inurba_marseille","lat":43.291671,"lon":5.371575,"is_reserved":false,"is_disabled":false,"rental_uris":{"android":"levelo://app?vid=bdf80a15-6546-4dd6-af4b-b5b8d0460fb2","ios":"levelo://app?vid=bdf80a15-6546-4dd6-af4b-b5b8d0460fb2"},"vehicle_type_id":"4","last_reported":1710364088,"current_range_meters":0,"station_id":"ce4bha92rcd13ifvqeh0","pricing_plan_id":"cebpf4jnsgd1na2vs0mg"},{"bike_id":"9a76df40-5a2f-42bc-9271-2cf77c838da0","system_id":"levelo_inurba_marseille","lat":43.291712,"lon":5.371442,"is_reserved":false,"is_disabled":false,"rental_uris":{"android":"levelo://app?vid=9a76df40-5a2f-42bc-9271-2cf77c838da0","ios":"levelo://app?vid=9a76df40-5a2f-42bc-9271-2cf77c838da0"},"vehicle_type_id":"4","last_reported":1710364088,"current_range_meters":0,"station_id":"ce4bha92rcd13ifvqeh0","pricing_plan_id":"cebpf4jnsgd1na2vs0mg"},{"bike_id":"34433c93-787f-4306-9da8-502893c7eae2","system_id":"levelo_inurba_marseille","lat":43.29881,"lon":5.38914,"is_reserved":false,"is_disabled":false,"rental_uris":{"android":"levelo://app?vid=34433c93-787f-4306-9da8-502893c7eae2","ios":"levelo://app?vid=34433c93-787f-4306-9da8-502893c7eae2"},"vehicle_type_id":"4","last_reported":1710364088,"current_range_meters":18400,"station_id":"ce4bh392rcd13ifvqdl0","pricing_plan_id":"cebpf4jnsgd1na2vs0mg"},{"bike_id":"06070d6b-0dbd-424a-b2f1-dc2c51cdb434","system_id":"levelo_inurba_marseille","lat":43.29167,"lon":5.37173,"is_reserved":false,"is_disabled":false,"rental_uris":{"android":"levelo://app?vid=06070d6b-0dbd-424a-b2f1-dc2c51cdb434","ios":"levelo://app?vid=06070d6b-0dbd-424a-b2f1-dc2c51cdb434"},"vehicle_type_id":"4","last_reported":1710364088,"current_range_meters":0,"station_id":"ce4bha92rcd13ifvqeh0","pricing_plan_id":"cebpf4jnsgd1na2vs0mg"},{"bike_id":"3c63b01a-5e01-48a9-bce9-11ab85190113","system_id":"levelo_inurba_marseille","lat":43.29877,"lon":5.38915,"is_reserved":false,"is_disabled":false,"rental_uris":{"android":"levelo://app?vid=3c63b01a-5e01-48a9-bce9-11ab85190113","ios":"levelo://app?vid=3c63b01a-5e01-48a9-bce9-11ab85190113"},"vehicle_type_id":"4","last_reported":1710364088,"current_range_meters":13600,"station_id":"ce4bh392rcd13ifvqdl0","pricing_plan_id":"cebpf4jnsgd1na2vs0mg"},{"bike_id":"03e01d71-a0fd-4e40-b0b7-3c46b9f4caa9","system_id":"levelo_inurba_marseille","lat":43.2988,"lon":5.38919,"is_reserved":false,"is_disabled":false,"rental_uris":{"android":"levelo://app?vid=03e01d71-a0fd-4e40-b0b7-3c46b9f4caa9","ios":"levelo://app?vid=03e01d71-a0fd-4e40-b0b7-3c46b9f4caa9"},"vehicle_type_id":"4","last_reported":1710364088,"current_range_meters":8400,"station_id":"ce4bh392rcd13ifvqdl0","pricing_plan_id":"cebpf4jnsgd1na2vs0mg"},{"bike_id":"7727e2ec-3cdd-49af-9094-43864130feed","system_id":"levelo_inurba_marseille","lat":43.29871,"lon":5.38914,"is_reserved":false,"is_disabled":false,"rental_uris":{"android":"levelo://app?vid=7727e2ec-3cdd-49af-9094-43864130feed","ios":"levelo://app?vid=7727e2ec-3cdd-49af-9094-43864130feed"},"vehicle_type_id":"4","last_reported":1710364088,"current_range_meters":16400,"station_id":"ce4bh392rcd13ifvqdl0","pricing_plan_id":"cebpf4jnsgd1na2vs0mg"},{"bike_id":"f0ac832d-9568-4784-8aaf-0bc752773863","system_id":"levelo_inurba_marseille","lat":43.29865,"lon":5.38908,"is_reserved":false,"is_disabled":false,"rental_uris":{"android":"levelo://app?vid=f0ac832d-9568-4784-8aaf-0bc752773863","ios":"levelo://app?vid=f0ac832d-9568-4784-8aaf-0bc752773863"},"vehicle_type_id":"4","last_reported":1710364088,"current_range_meters":28800,"station_id":"ce4bh392rcd13ifvqdl0","pricing_plan_id":"cebpf4jnsgd1na2vs0mg"},{"bike_id":"7047288c-5cea-4dd8-8b7e-7e3808344ed3","system_id":"levelo_inurba_marseille","lat":43.298658,"lon":5.389116,"is_reserved":false,"is_disabled":false,"rental_uris":{"android":"levelo://app?vid=7047288c-5cea-4dd8-8b7e-7e3808344ed3","ios":"levelo://app?vid=7047288c-5cea-4dd8-8b7e-7e3808344ed3"},"vehicle_type_id":"4","last_reported":1710364088,"current_range_meters":0,"station_id":"ce4bh392rcd13ifvqdl0","pricing_plan_id":"cebpf4jnsgd1na2vs0mg"},{"bike_id":"b255a1cf-2194-4f5f-9b9e-8f8fae9f054c","system_id":"levelo_inurba_marseille","lat":43.29443,"lon":5.38292,"is_reserved":false,"is_disabled":false,"rental_uris":{"android":"levelo://app?vid=b255a1cf-2194-4f5f-9b9e-8f8fae9f054c","ios":"levelo://app?vid=b255a1cf-2194-4f5f-9b9e-8f8fae9f054c"},"vehicle_type_id":"4","last_reported":1710364088,"current_range_meters":3200,"station_id":"","pricing_plan_id":"cebpf4jnsgd1na2vs0mg"},{"bike_id":"73960a28-59ba-49c9-91d5-69ed04f83384","system_id":"levelo_inurba_marseille","lat":43.309047,"lon":5.396551,"is_reserved":false,"is_disabled":false,"rental_uris":{"android":"levelo://app?vid=73960a28-59ba-49c9-91d5-69ed04f83384","ios":"levelo://app?vid=73960a28-59ba-49c9-91d5-69ed04f83384"},"vehicle_type_id":"4","last_reported":1710364088,"current_range_meters":28400,"station_id":"ce4bh012rcd13ifvqcv0","pricing_plan_id":"cebpf4jnsgd1na2vs0mg"},{"bike_id":"1a30b575-d1b0-47b4-a324-1c8e3f2064b1","system_id":"levelo_inurba_marseille","lat":43.291994,"lon":5.357886,"is_reserved":false,"is_disabled":false,"rental_uris":{"android":"levelo://app?vid=1a30b575-d1b0-47b4-a324-1c8e3f2064b1","ios":"levelo://app?vid=1a30b575-d1b0-47b4-a324-1c8e3f2064b1"},"vehicle_type_id":"4","last_reported":1710364088,"current_range_meters":28000,"station_id":"ce4bhb12rcd13ifvqel0","pricing_plan_id":"cebpf4jnsgd1na2vs0mg"},{"bike_id":"57159437-2105-4af5-9649-b49659bd5024","system_id":"levelo_inurba_marseille","lat":43.29195,"lon":5.35791,"is_reserved":false,"is_disabled":false,"rental_uris":{"android":"levelo://app?vid=57159437-2105-4af5-9649-b49659bd5024","ios":"levelo://app?vid=57159437-2105-4af5-9649-b49659bd5024"},"vehicle_type_id":"4","last_reported":1710364088,"current_range_meters":29600,"station_id":"ce4bhb12rcd13ifvqel0","pricing_plan_id":"cebpf4jnsgd1na2vs0mg"},{"bike_id":"e1299490-cbd8-4dd3-9c53-d338cfaed0f1","system_id":"levelo_inurba_marseille","lat":43.29195,"lon":5.35786,"is_reserved":false,"is_disabled":false,"rental_uris":{"android":"levelo://app?vid=e1299490-cbd8-4dd3-9c53-d338cfaed0f1","ios":"levelo://app?vid=e1299490-cbd8-4dd3-9c53-d338cfaed0f1"},"vehicle_type_id":"4","last_reported":1710364088,"current_range_meters":19200,"station_id":"ce4bhb12rcd13ifvqel0","pricing_plan_id":"cebpf4jnsgd1na2vs0mg"},{"bike_id":"6466c061-daf0-4011-a038-3ab4988a4158","system_id":"levelo_inurba_marseille","lat":43.309038,"lon":5.396546,"is_reserved":false,"is_disabled":false,"rental_uris":{"android":"levelo://app?vid=6466c061-daf0-4011-a038-3ab4988a4158","ios":"levelo://app?vid=6466c061-daf0-4011-a038-3ab4988a4158"},"vehicle_type_id":"4","last_reported":1710364088,"current_range_meters":25600,"station_id":"ce4bh012rcd13ifvqcv0","pricing_plan_id":"cebpf4jnsgd1na2vs0mg"},{"bike_id":"5eda10d7-d18c-4635-8754-6f2c958fe567","system_id":"levelo_inurba_marseille","lat":43.313291,"lon":5.396838,"is_reserved":false,"is_disabled":false,"rental_uris":{"android":"levelo://app?vid=5eda10d7-d18c-4635-8754-6f2c958fe567","ios":"levelo://app?vid=5eda10d7-d18c-4635-8754-6f2c958fe567"},"vehicle_type_id":"4","last_reported":1710364088,"current_range_meters":31200,"station_id":"ce4bgvp2rcd13ifvqcu0","pricing_plan_id":"cebpf4jnsgd1na2vs0mg"},{"bike_id":"dbaec713-6c5a-4b2d-859c-57e81b198185","system_id":"levelo_inurba_marseille","lat":43.308821,"lon":5.396493,"is_reserved":false,"is_disabled":false,"rental_uris":{"android":"levelo://app?vid=dbaec713-6c5a-4b2d-859c-57e81b198185","ios":"levelo://app?vid=dbaec713-6c5a-4b2d-859c-57e81b198185"},"vehicle_type_id":"4","last_reported":1710364088,"current_range_meters":0,"station_id":"ce4bh012rcd13ifvqcv0","pricing_plan_id":"cebpf4jnsgd1na2vs0mg"},{"bike_id":"ff66d567-844c-450b-8438-ec067cbc66b4","system_id":"levelo_inurba_marseille","lat":43.309047,"lon":5.396551,"is_reserved":false,"is_disabled":false,"rental_uris":{"android":"levelo://app?vid=ff66d567-844c-450b-8438-ec067cbc66b4","ios":"levelo://app?vid=ff66d567-844c-450b-8438-ec067cbc66b4"},"vehicle_type_id":"4","last_reported":1710364088,"current_range_meters":5200,"station_id":"ce4bh012rcd13ifvqcv0","pricing_plan_id":"cebpf4jnsgd1na2vs0mg"},{"bike_id":"38730035-d98e-45d3-929a-2395cd2a004e","system_id":"levelo_inurba_marseille","lat":43.309038,"lon":5.396546,"is_reserved":false,"is_disabled":false,"rental_uris":{"android":"levelo://app?vid=38730035-d98e-45d3-929a-2395cd2a004e","ios":"levelo://app?vid=38730035-d98e-45d3-929a-2395cd2a004e"},"vehicle_type_id":"4","last_reported":1710364088,"current_range_meters":6800,"station_id":"ce4bh012rcd13ifvqcv0","pricing_plan_id":"cebpf4jnsgd1na2vs0mg"},{"bike_id":"3199e820-be26-4bfa-b0b9-3fcfca76759c","system_id":"levelo_inurba_marseille","lat":43.309047,"lon":5.396551,"is_reserved":false,"is_disabled":false,"rental_uris":{"android":"levelo://app?vid=3199e820-be26-4bfa-b0b9-3fcfca76759c","ios":"levelo://app?vid=3199e820-be26-4bfa-b0b9-3fcfca76759c"},"vehicle_type_id":"4","last_reported":1710364088,"current_range_meters":4800,"station_id":"ce4bh012rcd13ifvqcv0","pricing_plan_id":"cebpf4jnsgd1na2vs0mg"},{"bike_id":"5d0802cf-9073-46b9-84de-f04ccbf1c750","system_id":"levelo_inurba_marseille","lat":43.309047,"lon":5.396551,"is_reserved":false,"is_disabled":false,"rental_uris":{"android":"levelo://app?vid=5d0802cf-9073-46b9-84de-f04ccbf1c750","ios":"levelo://app?vid=5d0802cf-9073-46b9-84de-f04ccbf1c750"},"vehicle_type_id":"4","last_reported":1710364088,"current_range_meters":4400,"station_id":"ce4bh012rcd13ifvqcv0","pricing_plan_id":"cebpf4jnsgd1na2vs0mg"},{"bike_id":"eb54f43e-eeba-4b5b-a894-515e732c8e09","system_id":"levelo_inurba_marseille","lat":43.29529,"lon":5.385581,"is_reserved":false,"is_disabled":false,"rental_uris":{"android":"levelo://app?vid=eb54f43e-eeba-4b5b-a894-515e732c8e09","ios":"levelo://app?vid=eb54f43e-eeba-4b5b-a894-515e732c8e09"},"vehicle_type_id":"4","last_reported":1710364088,"current_range_meters":27600,"station_id":"ce4bgih2rcd13ifvqba0","pricing_plan_id":"cebpf4jnsgd1na2vs0mg"},{"bike_id":"765b1346-e382-4a96-b04e-9ad55deeb209","system_id":"levelo_inurba_marseille","lat":43.29529,"lon":5.385581,"is_reserved":false,"is_disabled":false,"rental_uris":{"android":"levelo://app?vid=765b1346-e382-4a96-b04e-9ad55deeb209","ios":"levelo://app?vid=765b1346-e382-4a96-b04e-9ad55deeb209"},"vehicle_type_id":"4","last_reported":1710364088,"current_range_meters":25600,"station_id":"ce4bgih2rcd13ifvqba0","pricing_plan_id":"cebpf4jnsgd1na2vs0mg"},{"bike_id":"cf6a31cc-fd9a-426e-8e02-cd4f6737c338","system_id":"levelo_inurba_marseille","lat":43.29529,"lon":5.385581,"is_reserved":false,"is_disabled":false,"rental_uris":{"android":"levelo://app?vid=cf6a31cc-fd9a-426e-8e02-cd4f6737c338","ios":"levelo://app?vid=cf6a31cc-fd9a-426e-8e02-cd4f6737c338"},"vehicle_type_id":"4","last_reported":1710364088,"current_range_meters":25200,"station_id":"ce4bgih2rcd13ifvqba0","pricing_plan_id":"cebpf4jnsgd1na2vs0mg"},{"bike_id":"3e953adf-3dfa-4039-934d-83d0d6ca6c78","system_id":"levelo_inurba_marseille","lat":43.29529,"lon":5.385581,"is_reserved":false,"is_disabled":false,"rental_uris":{"android":"levelo://app?vid=3e953adf-3dfa-4039-934d-83d0d6ca6c78","ios":"levelo://app?vid=3e953adf-3dfa-4039-934d-83d0d6ca6c78"},"vehicle_type_id":"4","last_reported":1710364088,"current_range_meters":11200,"station_id":"ce4bgih2rcd13ifvqba0","pricing_plan_id":"cebpf4jnsgd1na2vs0mg"},{"bike_id":"9e0f41d8-d52b-47f9-812f-6e8aa8f833a6","system_id":"levelo_inurba_marseille","lat":43.29529,"lon":5.385581,"is_reserved":false,"is_disabled":false,"rental_uris":{"android":"levelo://app?vid=9e0f41d8-d52b-47f9-812f-6e8aa8f833a6","ios":"levelo://app?vid=9e0f41d8-d52b-47f9-812f-6e8aa8f833a6"},"vehicle_type_id":"4","last_reported":1710364088,"current_range_meters":27600,"station_id":"ce4bgih2rcd13ifvqba0","pricing_plan_id":"cebpf4jnsgd1na2vs0mg"},{"bike_id":"799bd1a3-c4aa-46dd-9bc9-819167dff962","system_id":"levelo_inurba_marseille","lat":43.29529,"lon":5.385581,"is_reserved":false,"is_disabled":false,"rental_uris":{"android":"levelo://app?vid=799bd1a3-c4aa-46dd-9bc9-819167dff962","ios":"levelo://app?vid=799bd1a3-c4aa-46dd-9bc9-819167dff962"},"vehicle_type_id":"4","last_reported":1710364088,"current_range_meters":8000,"station_id":"ce4bgih2rcd13ifvqba0","pricing_plan_id":"cebpf4jnsgd1na2vs0mg"},{"bike_id":"0be8f61e-af4c-4cea-ac55-68bcf670a894","system_id":"levelo_inurba_marseille","lat":43.29529,"lon":5.385581,"is_reserved":false,"is_disabled":false,"rental_uris":{"android":"levelo://app?vid=0be8f61e-af4c-4cea-ac55-68bcf670a894","ios":"levelo://app?vid=0be8f61e-af4c-4cea-ac55-68bcf670a894"},"vehicle_type_id":"4","last_reported":1710364088,"current_range_meters":22800,"station_id":"ce4bgih2rcd13ifvqba0","pricing_plan_id":"cebpf4jnsgd1na2vs0mg"},{"bike_id":"cd4275dc-efea-4178-a1c7-94af693bd845","system_id":"levelo_inurba_marseille","lat":43.29529,"lon":5.385581,"is_reserved":false,"is_disabled":false,"rental_uris":{"android":"levelo://app?vid=cd4275dc-efea-4178-a1c7-94af693bd845","ios":"levelo://app?vid=cd4275dc-efea-4178-a1c7-94af693bd845"},"vehicle_type_id":"4","last_reported":1710364088,"current_range_meters":1200,"station_id":"ce4bgih2rcd13ifvqba0","pricing_plan_id":"cebpf4jnsgd1na2vs0mg"},{"bike_id":"f3cbb09e-450c-442e-8a52-4a17c982d225","system_id":"levelo_inurba_marseille","lat":43.29529,"lon":5.385581,"is_reserved":false,"is_disabled":false,"rental_uris":{"android":"levelo://app?vid=f3cbb09e-450c-442e-8a52-4a17c982d225","ios":"levelo://app?vid=f3cbb09e-450c-442e-8a52-4a17c982d225"},"vehicle_type_id":"4","last_reported":1710364088,"current_range_meters":28000,"station_id":"ce4bgih2rcd13ifvqba0","pricing_plan_id":"cebpf4jnsgd1na2vs0mg"},{"bike_id":"6b0b6f75-686c-4dc7-bd8a-1d6e22c49cc7","system_id":"levelo_inurba_marseille","lat":43.29529,"lon":5.385581,"is_reserved":false,"is_disabled":false,"rental_uris":{"android":"levelo://app?vid=6b0b6f75-686c-4dc7-bd8a-1d6e22c49cc7","ios":"levelo://app?vid=6b0b6f75-686c-4dc7-bd8a-1d6e22c49cc7"},"vehicle_type_id":"4","last_reported":1710364088,"current_range_meters":15600,"station_id":"ce4bgih2rcd13ifvqba0","pricing_plan_id":"cebpf4jnsgd1na2vs0mg"},{"bike_id":"0ce6cae6-417f-4a12-b24b-071cbe0ec8b3","system_id":"levelo_inurba_marseille","lat":43.29529,"lon":5.385581,"is_reserved":false,"is_disabled":false,"rental_uris":{"android":"levelo://app?vid=0ce6cae6-417f-4a12-b24b-071cbe0ec8b3","ios":"levelo://app?vid=0ce6cae6-417f-4a12-b24b-071cbe0ec8b3"},"vehicle_type_id":"4","last_reported":1710364088,"current_range_meters":4000,"station_id":"ce4bgih2rcd13ifvqba0","pricing_plan_id":"cebpf4jnsgd1na2vs0mg"},{"bike_id":"b1757853-e8dd-4fdd-82fe-b2fb7cb26276","system_id":"levelo_inurba_marseille","lat":43.29529,"lon":5.385581,"is_reserved":false,"is_disabled":false,"rental_uris":{"android":"levelo://app?vid=b1757853-e8dd-4fdd-82fe-b2fb7cb26276","ios":"levelo://app?vid=b1757853-e8dd-4fdd-82fe-b2fb7cb26276"},"vehicle_type_id":"4","last_reported":1710364088,"current_range_meters":10800,"station_id":"ce4bgih2rcd13ifvqba0","pricing_plan_id":"cebpf4jnsgd1na2vs0mg"},{"bike_id":"0b87ff22-c1d7-444b-bfb0-86dddd522ac8","system_id":"levelo_inurba_marseille","lat":43.29529,"lon":5.385581,"is_reserved":false,"is_disabled":false,"rental_uris":{"android":"levelo://app?vid=0b87ff22-c1d7-444b-bfb0-86dddd522ac8","ios":"levelo://app?vid=0b87ff22-c1d7-444b-bfb0-86dddd522ac8"},"vehicle_type_id":"4","last_reported":1710364088,"current_range_meters":20800,"station_id":"ce4bgih2rcd13ifvqba0","pricing_plan_id":"cebpf4jnsgd1na2vs0mg"},{"bike_id":"76eee499-6652-4c5e-a9d9-295a59f0f053","system_id":"levelo_inurba_marseille","lat":43.292847,"lon":5.379847,"is_reserved":false,"is_disabled":false,"rental_uris":{"android":"levelo://app?vid=76eee499-6652-4c5e-a9d9-295a59f0f053","ios":"levelo://app?vid=76eee499-6652-4c5e-a9d9-295a59f0f053"},"vehicle_type_id":"4","last_reported":1710364088,"current_range_meters":18400,"station_id":"","pricing_plan_id":"cebpf4jnsgd1na2vs0mg"},{"bike_id":"6649d5da-bf3e-4ef1-9d6d-cfb1105dc98b","system_id":"levelo_inurba_marseille","lat":43.29529,"lon":5.385581,"is_reserved":false,"is_disabled":false,"rental_uris":{"android":"levelo://app?vid=6649d5da-bf3e-4ef1-9d6d-cfb1105dc98b","ios":"levelo://app?vid=6649d5da-bf3e-4ef1-9d6d-cfb1105dc98b"},"vehicle_type_id":"4","last_reported":1710364088,"current_range_meters":22400,"station_id":"ce4bgih2rcd13ifvqba0","pricing_plan_id":"cebpf4jnsgd1na2vs0mg"},{"bike_id":"277df598-5d08-4f52-9295-2bbac047a220","system_id":"levelo_inurba_marseille","lat":43.29529,"lon":5.385581,"is_reserved":false,"is_disabled":false,"rental_uris":{"android":"levelo://app?vid=277df598-5d08-4f52-9295-2bbac047a220","ios":"levelo://app?vid=277df598-5d08-4f52-9295-2bbac047a220"},"vehicle_type_id":"4","last_reported":1710364088,"current_range_meters":12800,"station_id":"ce4bgih2rcd13ifvqba0","pricing_plan_id":"cebpf4jnsgd1na2vs0mg"},{"bike_id":"4ae2f4da-fcf4-42d4-995c-4aa8c454f052","system_id":"levelo_inurba_marseille","lat":43.29529,"lon":5.385581,"is_reserved":false,"is_disabled":false,"rental_uris":{"android":"levelo://app?vid=4ae2f4da-fcf4-42d4-995c-4aa8c454f052","ios":"levelo://app?vid=4ae2f4da-fcf4-42d4-995c-4aa8c454f052"},"vehicle_type_id":"4","last_reported":1710364088,"current_range_meters":6000,"station_id":"ce4bgih2rcd13ifvqba0","pricing_plan_id":"cebpf4jnsgd1na2vs0mg"},{"bike_id":"475ed03c-faf5-416b-81b9-8d907498aa6e","system_id":"levelo_inurba_marseille","lat":43.290779,"lon":5.371482,"is_reserved":false,"is_disabled":false,"rental_uris":{"android":"levelo://app?vid=475ed03c-faf5-416b-81b9-8d907498aa6e","ios":"levelo://app?vid=475ed03c-faf5-416b-81b9-8d907498aa6e"},"vehicle_type_id":"4","last_reported":1710364088,"current_range_meters":11600,"station_id":"ce4bh5p2rcd13ifvqe4g","pricing_plan_id":"cebpf4jnsgd1na2vs0mg"},{"bike_id":"78ecf02a-bf16-4b98-9ede-90548f1d9aa4","system_id":"levelo_inurba_marseille","lat":43.29529,"lon":5.385581,"is_reserved":false,"is_disabled":false,"rental_uris":{"android":"levelo://app?vid=78ecf02a-bf16-4b98-9ede-90548f1d9aa4","ios":"levelo://app?vid=78ecf02a-bf16-4b98-9ede-90548f1d9aa4"},"vehicle_type_id":"4","last_reported":1710364088,"current_range_meters":13200,"station_id":"ce4bgih2rcd13ifvqba0","pricing_plan_id":"cebpf4jnsgd1na2vs0mg"},{"bike_id":"81dc9ead-81ef-49ad-bbbb-75fd09c520db","system_id":"levelo_inurba_marseille","lat":43.302008,"lon":5.394694,"is_reserved":false,"is_disabled":false,"rental_uris":{"android":"levelo://app?vid=81dc9ead-81ef-49ad-bbbb-75fd09c520db","ios":"levelo://app?vid=81dc9ead-81ef-49ad-bbbb-75fd09c520db"},"vehicle_type_id":"4","last_reported":1710364088,"current_range_meters":22800,"station_id":"ce4bh0p2rcd13ifvqd70","pricing_plan_id":"cebpf4jnsgd1na2vs0mg"},{"bike_id":"0033739d-20fc-4ba8-bf63-37136f2b4ca5","system_id":"levelo_inurba_marseille","lat":43.302008,"lon":5.394694,"is_reserved":false,"is_disabled":false,"rental_uris":{"android":"levelo://app?vid=0033739d-20fc-4ba8-bf63-37136f2b4ca5","ios":"levelo://app?vid=0033739d-20fc-4ba8-bf63-37136f2b4ca5"},"vehicle_type_id":"4","last_reported":1710364088,"current_range_meters":10000,"station_id":"ce4bh0p2rcd13ifvqd70","pricing_plan_id":"cebpf4jnsgd1na2vs0mg"},{"bike_id":"62778cbf-7b6c-4590-8606-9e104730bfaf","system_id":"levelo_inurba_marseille","lat":43.290624,"lon":5.359245,"is_reserved":false,"is_disabled":false,"rental_uris":{"android":"levelo://app?vid=62778cbf-7b6c-4590-8606-9e104730bfaf","ios":"levelo://app?vid=62778cbf-7b6c-4590-8606-9e104730bfaf"},"vehicle_type_id":"4","last_reported":1710364088,"current_range_meters":10000,"station_id":"ce4bha92rcd13ifvqeg0","pricing_plan_id":"cebpf4jnsgd1na2vs0mg"},{"bike_id":"02b38b22-4cfd-4a35-bde4-09aff873f470","system_id":"levelo_inurba_marseille","lat":43.290624,"lon":5.359245,"is_reserved":false,"is_disabled":false,"rental_uris":{"android":"levelo://app?vid=02b38b22-4cfd-4a35-bde4-09aff873f470","ios":"levelo://app?vid=02b38b22-4cfd-4a35-bde4-09aff873f470"},"vehicle_type_id":"4","last_reported":1710364088,"current_range_meters":23600,"station_id":"ce4bha92rcd13ifvqeg0","pricing_plan_id":"cebpf4jnsgd1na2vs0mg"},{"bike_id":"414ad2e9-3dc1-4656-9ef2-f27b88ddc9c0","system_id":"levelo_inurba_marseille","lat":43.290631,"lon":5.359244,"is_reserved":false,"is_disabled":false,"rental_uris":{"android":"levelo://app?vid=414ad2e9-3dc1-4656-9ef2-f27b88ddc9c0","ios":"levelo://app?vid=414ad2e9-3dc1-4656-9ef2-f27b88ddc9c0"},"vehicle_type_id":"4","last_reported":1710364088,"current_range_meters":8000,"station_id":"ce4bha92rcd13ifvqeg0","pricing_plan_id":"cebpf4jnsgd1na2vs0mg"},{"bike_id":"c589a665-7c84-4c6c-9473-da7c66c82176","system_id":"levelo_inurba_marseille","lat":43.290319,"lon":5.375732,"is_reserved":false,"is_disabled":false,"rental_uris":{"android":"levelo://app?vid=c589a665-7c84-4c6c-9473-da7c66c82176","ios":"levelo://app?vid=c589a665-7c84-4c6c-9473-da7c66c82176"},"vehicle_type_id":"4","last_reported":1710364088,"current_range_meters":18400,"station_id":"ce4bh692rcd13ifvqe90","pricing_plan_id":"cebpf4jnsgd1na2vs0mg"},{"bike_id":"80c48a63-9e43-44b5-8c16-3170144a5c01","system_id":"levelo_inurba_marseille","lat":43.294153,"lon":5.386305,"is_reserved":false,"is_disabled":false,"rental_uris":{"android":"levelo://app?vid=80c48a63-9e43-44b5-8c16-3170144a5c01","ios":"levelo://app?vid=80c48a63-9e43-44b5-8c16-3170144a5c01"},"vehicle_type_id":"4","last_reported":1710364088,"current_range_meters":0,"station_id":"ce4bh2h2rcd13ifvqdh0","pricing_plan_id":"cebpf4jnsgd1na2vs0mg"},{"bike_id":"8fed49f3-09df-480f-846a-8ac30bd1aa2b","system_id":"levelo_inurba_marseille","lat":43.29421,"lon":5.38615,"is_reserved":false,"is_disabled":false,"rental_uris":{"android":"levelo://app?vid=8fed49f3-09df-480f-846a-8ac30bd1aa2b","ios":"levelo://app?vid=8fed49f3-09df-480f-846a-8ac30bd1aa2b"},"vehicle_type_id":"4","last_reported":1710364088,"current_range_meters":2000,"station_id":"ce4bh2h2rcd13ifvqdh0","pricing_plan_id":"cebpf4jnsgd1na2vs0mg"},{"bike_id":"a7767ad0-e1b3-4864-b9e0-9f9f212fe4e8","system_id":"levelo_inurba_marseille","lat":43.29425,"lon":5.38625,"is_reserved":false,"is_disabled":false,"rental_uris":{"android":"levelo://app?vid=a7767ad0-e1b3-4864-b9e0-9f9f212fe4e8","ios":"levelo://app?vid=a7767ad0-e1b3-4864-b9e0-9f9f212fe4e8"},"vehicle_type_id":"4","last_reported":1710364088,"current_range_meters":0,"station_id":"ce4bh2h2rcd13ifvqdh0","pricing_plan_id":"cebpf4jnsgd1na2vs0mg"},{"bike_id":"6c37f33d-662e-4247-99e8-ecf503b092ee","system_id":"levelo_inurba_marseille","lat":43.294162,"lon":5.386292,"is_reserved":false,"is_disabled":false,"rental_uris":{"android":"levelo://app?vid=6c37f33d-662e-4247-99e8-ecf503b092ee","ios":"levelo://app?vid=6c37f33d-662e-4247-99e8-ecf503b092ee"},"vehicle_type_id":"4","last_reported":1710364088,"current_range_meters":0,"station_id":"ce4bh2h2rcd13ifvqdh0","pricing_plan_id":"cebpf4jnsgd1na2vs0mg"},{"bike_id":"dc347466-7ba5-4279-999e-56821425356e","system_id":"levelo_inurba_marseille","lat":43.294162,"lon":5.386292,"is_reserved":false,"is_disabled":false,"rental_uris":{"android":"levelo://app?vid=dc347466-7ba5-4279-999e-56821425356e","ios":"levelo://app?vid=dc347466-7ba5-4279-999e-56821425356e"},"vehicle_type_id":"4","last_reported":1710364088,"current_range_meters":0,"station_id":"ce4bh2h2rcd13ifvqdh0","pricing_plan_id":"cebpf4jnsgd1na2vs0mg"},{"bike_id":"7c1ae47c-632c-4503-b403-e8b64ce7c4fb","system_id":"levelo_inurba_marseille","lat":43.290319,"lon":5.375732,"is_reserved":false,"is_disabled":false,"rental_uris":{"android":"levelo://app?vid=7c1ae47c-632c-4503-b403-e8b64ce7c4fb","ios":"levelo://app?vid=7c1ae47c-632c-4503-b403-e8b64ce7c4fb"},"vehicle_type_id":"4","last_reported":1710364088,"current_range_meters":4800,"station_id":"ce4bh692rcd13ifvqe90","pricing_plan_id":"cebpf4jnsgd1na2vs0mg"},{"bike_id":"476860b0-eb62-49f7-836a-1a337a03cbc4","system_id":"levelo_inurba_marseille","lat":43.294162,"lon":5.386292,"is_reserved":false,"is_disabled":false,"rental_uris":{"android":"levelo://app?vid=476860b0-eb62-49f7-836a-1a337a03cbc4","ios":"levelo://app?vid=476860b0-eb62-49f7-836a-1a337a03cbc4"},"vehicle_type_id":"4","last_reported":1710364088,"current_range_meters":0,"station_id":"ce4bh2h2rcd13ifvqdh0","pricing_plan_id":"cebpf4jnsgd1na2vs0mg"},{"bike_id":"c2f1b8c9-829d-4525-b079-17b6e436a5bb","system_id":"levelo_inurba_marseille","lat":43.294162,"lon":5.386292,"is_reserved":false,"is_disabled":false,"rental_uris":{"android":"levelo://app?vid=c2f1b8c9-829d-4525-b079-17b6e436a5bb","ios":"levelo://app?vid=c2f1b8c9-829d-4525-b079-17b6e436a5bb"},"vehicle_type_id":"4","last_reported":1710364088,"current_range_meters":0,"station_id":"ce4bh2h2rcd13ifvqdh0","pricing_plan_id":"cebpf4jnsgd1na2vs0mg"},{"bike_id":"5c697e62-bc1b-47db-b0ad-bcdf75902c03","system_id":"levelo_inurba_marseille","lat":43.294162,"lon":5.386292,"is_reserved":false,"is_disabled":false,"rental_uris":{"android":"levelo://app?vid=5c697e62-bc1b-47db-b0ad-bcdf75902c03","ios":"levelo://app?vid=5c697e62-bc1b-47db-b0ad-bcdf75902c03"},"vehicle_type_id":"4","last_reported":1710364088,"current_range_meters":800,"station_id":"ce4bh2h2rcd13ifvqdh0","pricing_plan_id":"cebpf4jnsgd1na2vs0mg"},{"bike_id":"f20eda54-e2bf-4c7a-8f11-fecdfbd065fa","system_id":"levelo_inurba_marseille","lat":43.294162,"lon":5.386292,"is_reserved":false,"is_disabled":false,"rental_uris":{"android":"levelo://app?vid=f20eda54-e2bf-4c7a-8f11-fecdfbd065fa","ios":"levelo://app?vid=f20eda54-e2bf-4c7a-8f11-fecdfbd065fa"},"vehicle_type_id":"4","last_reported":1710364088,"current_range_meters":0,"station_id":"ce4bh2h2rcd13ifvqdh0","pricing_plan_id":"cebpf4jnsgd1na2vs0mg"},{"bike_id":"3ac43306-3a5c-4cc1-91b8-eab58b63645f","system_id":"levelo_inurba_marseille","lat":43.289468,"lon":5.363719,"is_reserved":false,"is_disabled":false,"rental_uris":{"android":"levelo://app?vid=3ac43306-3a5c-4cc1-91b8-eab58b63645f","ios":"levelo://app?vid=3ac43306-3a5c-4cc1-91b8-eab58b63645f"},"vehicle_type_id":"4","last_reported":1710364088,"current_range_meters":22000,"station_id":"ce4bhc92rcd13ifvqetg","pricing_plan_id":"cebpf4jnsgd1na2vs0mg"},{"bike_id":"601e4082-2fe5-4d2c-9d9f-8c033b5eb87a","system_id":"levelo_inurba_marseille","lat":43.289442,"lon":5.366398,"is_reserved":false,"is_disabled":false,"rental_uris":{"android":"levelo://app?vid=601e4082-2fe5-4d2c-9d9f-8c033b5eb87a","ios":"levelo://app?vid=601e4082-2fe5-4d2c-9d9f-8c033b5eb87a"},"vehicle_type_id":"4","last_reported":1710364088,"current_range_meters":18800,"station_id":"ce4bhap2rcd13ifvqek0","pricing_plan_id":"cebpf4jnsgd1na2vs0mg"},{"bike_id":"c8a4810a-7847-46e5-ab4a-e90d3c29a21f","system_id":"levelo_inurba_marseille","lat":43.29414,"lon":5.38625,"is_reserved":false,"is_disabled":false,"rental_uris":{"android":"levelo://app?vid=c8a4810a-7847-46e5-ab4a-e90d3c29a21f","ios":"levelo://app?vid=c8a4810a-7847-46e5-ab4a-e90d3c29a21f"},"vehicle_type_id":"4","last_reported":1710364088,"current_range_meters":0,"station_id":"ce4bh2h2rcd13ifvqdh0","pricing_plan_id":"cebpf4jnsgd1na2vs0mg"},{"bike_id":"83a38495-ef3d-4cfe-90cd-8ae39261a39c","system_id":"levelo_inurba_marseille","lat":43.29416,"lon":5.3863,"is_reserved":false,"is_disabled":false,"rental_uris":{"android":"levelo://app?vid=83a38495-ef3d-4cfe-90cd-8ae39261a39c","ios":"levelo://app?vid=83a38495-ef3d-4cfe-90cd-8ae39261a39c"},"vehicle_type_id":"4","last_reported":1710364088,"current_range_meters":0,"station_id":"ce4bh2h2rcd13ifvqdh0","pricing_plan_id":"cebpf4jnsgd1na2vs0mg"},{"bike_id":"5db2a44c-2c88-472f-98e7-788b883a09e8","system_id":"levelo_inurba_marseille","lat":43.29415,"lon":5.38629,"is_reserved":false,"is_disabled":false,"rental_uris":{"android":"levelo://app?vid=5db2a44c-2c88-472f-98e7-788b883a09e8","ios":"levelo://app?vid=5db2a44c-2c88-472f-98e7-788b883a09e8"},"vehicle_type_id":"4","last_reported":1710364088,"current_range_meters":0,"station_id":"ce4bh2h2rcd13ifvqdh0","pricing_plan_id":"cebpf4jnsgd1na2vs0mg"},{"bike_id":"17a8446d-dfeb-4e51-90bf-cc72e22af8bf","system_id":"levelo_inurba_marseille","lat":43.29416,"lon":5.38632,"is_reserved":false,"is_disabled":false,"rental_uris":{"android":"levelo://app?vid=17a8446d-dfeb-4e51-90bf-cc72e22af8bf","ios":"levelo://app?vid=17a8446d-dfeb-4e51-90bf-cc72e22af8bf"},"vehicle_type_id":"4","last_reported":1710364088,"current_range_meters":0,"station_id":"ce4bh2h2rcd13ifvqdh0","pricing_plan_id":"cebpf4jnsgd1na2vs0mg"},{"bike_id":"32d3947a-7f37-47e0-bad8-e23c45b85234","system_id":"levelo_inurba_marseille","lat":43.28941,"lon":5.36632,"is_reserved":false,"is_disabled":false,"rental_uris":{"android":"levelo://app?vid=32d3947a-7f37-47e0-bad8-e23c45b85234","ios":"levelo://app?vid=32d3947a-7f37-47e0-bad8-e23c45b85234"},"vehicle_type_id":"4","last_reported":1710364088,"current_range_meters":0,"station_id":"ce4bhap2rcd13ifvqek0","pricing_plan_id":"cebpf4jnsgd1na2vs0mg"},{"bike_id":"8d4ddaa5-920b-4162-afc9-fbef5f20c872","system_id":"levelo_inurba_marseille","lat":43.29415,"lon":5.38631,"is_reserved":false,"is_disabled":false,"rental_uris":{"android":"levelo://app?vid=8d4ddaa5-920b-4162-afc9-fbef5f20c872","ios":"levelo://app?vid=8d4ddaa5-920b-4162-afc9-fbef5f20c872"},"vehicle_type_id":"4","last_reported":1710364088,"current_range_meters":0,"station_id":"ce4bh2h2rcd13ifvqdh0","pricing_plan_id":"cebpf4jnsgd1na2vs0mg"},{"bike_id":"8afbb4f5-8778-4c92-a231-0dab8f6bbc5b","system_id":"levelo_inurba_marseille","lat":43.289468,"lon":5.363719,"is_reserved":false,"is_disabled":false,"rental_uris":{"android":"levelo://app?vid=8afbb4f5-8778-4c92-a231-0dab8f6bbc5b","ios":"levelo://app?vid=8afbb4f5-8778-4c92-a231-0dab8f6bbc5b"},"vehicle_type_id":"4","last_reported":1710364088,"current_range_meters":26400,"station_id":"ce4bhc92rcd13ifvqetg","pricing_plan_id":"cebpf4jnsgd1na2vs0mg"},{"bike_id":"245c63ba-8158-49a0-b69e-4525cfd70d20","system_id":"levelo_inurba_marseille","lat":43.29266,"lon":5.38384,"is_reserved":false,"is_disabled":false,"rental_uris":{"android":"levelo://app?vid=245c63ba-8158-49a0-b69e-4525cfd70d20","ios":"levelo://app?vid=245c63ba-8158-49a0-b69e-4525cfd70d20"},"vehicle_type_id":"4","last_reported":1710364088,"current_range_meters":2800,"station_id":"ce4bh692rcd13ifvqea0","pricing_plan_id":"cebpf4jnsgd1na2vs0mg"},{"bike_id":"2e6dc228-a18f-434d-a8c8-073dda24cfd2","system_id":"levelo_inurba_marseille","lat":43.29272,"lon":5.3844,"is_reserved":false,"is_disabled":false,"rental_uris":{"android":"levelo://app?vid=2e6dc228-a18f-434d-a8c8-073dda24cfd2","ios":"levelo://app?vid=2e6dc228-a18f-434d-a8c8-073dda24cfd2"},"vehicle_type_id":"4","last_reported":1710364088,"current_range_meters":0,"station_id":"ce4bh692rcd13ifvqea0","pricing_plan_id":"cebpf4jnsgd1na2vs0mg"},{"bike_id":"1f711260-55a1-49d6-8432-58c6938e1c89","system_id":"levelo_inurba_marseille","lat":43.304274,"lon":5.397513,"is_reserved":false,"is_disabled":false,"rental_uris":{"android":"levelo://app?vid=1f711260-55a1-49d6-8432-58c6938e1c89","ios":"levelo://app?vid=1f711260-55a1-49d6-8432-58c6938e1c89"},"vehicle_type_id":"4","last_reported":1710364088,"current_range_meters":6400,"station_id":"ce4bh092rcd13ifvqd20","pricing_plan_id":"cebpf4jnsgd1na2vs0mg"},{"bike_id":"670445b6-d96e-4c67-b441-1f2b2cf5ab5f","system_id":"levelo_inurba_marseille","lat":43.304322,"lon":5.39741,"is_reserved":false,"is_disabled":false,"rental_uris":{"android":"levelo://app?vid=670445b6-d96e-4c67-b441-1f2b2cf5ab5f","ios":"levelo://app?vid=670445b6-d96e-4c67-b441-1f2b2cf5ab5f"},"vehicle_type_id":"4","last_reported":1710364088,"current_range_meters":400,"station_id":"ce4bh092rcd13ifvqd20","pricing_plan_id":"cebpf4jnsgd1na2vs0mg"},{"bike_id":"c1b6893f-1103-4c3e-bf08-d63dcdc022d8","system_id":"levelo_inurba_marseille","lat":43.292644,"lon":5.384257,"is_reserved":false,"is_disabled":false,"rental_uris":{"android":"levelo://app?vid=c1b6893f-1103-4c3e-bf08-d63dcdc022d8","ios":"levelo://app?vid=c1b6893f-1103-4c3e-bf08-d63dcdc022d8"},"vehicle_type_id":"4","last_reported":1710364088,"current_range_meters":4800,"station_id":"ce4bh692rcd13ifvqea0","pricing_plan_id":"cebpf4jnsgd1na2vs0mg"},{"bike_id":"6c45ff21-01a1-4136-9c88-3a5257e14da7","system_id":"levelo_inurba_marseille","lat":43.29273,"lon":5.38455,"is_reserved":false,"is_disabled":false,"rental_uris":{"android":"levelo://app?vid=6c45ff21-01a1-4136-9c88-3a5257e14da7","ios":"levelo://app?vid=6c45ff21-01a1-4136-9c88-3a5257e14da7"},