{"last_updated":1749575375,"ttl":60,"version":"2.2","data":{"bikes":[{"bike_id":"e4c9f59d-7983-46be-91fc-9a16762262a6","system_id":"levelo_inurba_marseille","lat":43.2792,"lon":5.39599,"is_reserved":false,"is_disabled":false,"rental_uris":{"android":"levelo://app?vid=e4c9f59d-7983-46be-91fc-9a16762262a6","ios":"levelo://app?vid=e4c9f59d-7983-46be-91fc-9a16762262a6"},"vehicle_type_id":"4","last_reported":1749575375,"current_range_meters":2800,"station_id":"ce4bhf92rcd13ifvqf40","pricing_plan_id":"cebpf4jnsgd1na2vs0mg"},{"bike_id":"b85f340b-e3e2-4ad5-a7fd-507ad6ee9123","system_id":"levelo_inurba_marseille","lat":43.28668,"lon":5.36353,"is_reserved":false,"is_disabled":false,"rental_uris":{"android":"levelo://app?vid=b85f340b-e3e2-4ad5-a7fd-507ad6ee9123","ios":"levelo://app?vid=b85f340b-e3e2-4ad5-a7fd-507ad6ee9123"},"vehicle_type_id":"4","last_reported":1749575375,"current_range_meters":2000,"station_id":"ce4bhah2rcd13ifvqej0","pricing_plan_id":"cebpf4jnsgd1na2vs0mg"},{"bike_id":"101c1ca4-be9a-4d80-a86f-ec128900de59","system_id":"levelo_inurba_marseille","lat":43.23956,"lon":5.36629,"is_reserved":false,"is_disabled":false,"rental_uris":{"android":"levelo://app?vid=101c1ca4-be9a-4d80-a86f-ec128900de59","ios":"levelo://app?vid=101c1ca4-be9a-4d80-a86f-ec128900de59"},"vehicle_type_id":"4","last_reported":1749575375,"current_range_meters":2800,"station_id":"ce4bhi12rcd13ifvqfp0","pricing_plan_id":"cebpf4jnsgd1na2vs0mg"},{"bike_id":"6a693763-8b58-4240-83fd-88e6f37cdf60","system_id":"levelo_inurba_marseille","lat":43.29413,"lon":5.38623,"is_reserved":false,"is_disabled":false,"rental_uris":{"android":"levelo://app?vid=6a693763-8b58-4240-83fd-88e6f37cdf60","ios":"levelo://app?vid=6a693763-8b58-4240-83fd-88e6f37cdf60"},"vehicle_type_id":"4","last_reported":1749575375,"current_range_meters":2800,"station_id":"ce4bh2h2rcd13ifvqdh0","pricing_plan_id":"cebpf4jnsgd1na2vs0mg"},{"bike_id":"2fad50b9-8385-4191-bc92-f3051ec554d8","system_id":"levelo_inurba_marseille","lat":43.27972,"lon":5.38747,"is_reserved":false,"is_disabled":false,"rental_uris":{"android":"levelo://app?vid=2fad50b9-8385-4191-bc92-f3051ec554d8","ios":"levelo://app?vid=2fad50b9-8385-4191-bc92-f3051ec554d8"},"vehicle_type_id":"4","last_reported":1749575375,"current_range_meters":2800,"station_id":"ce4bhg12rcd13ifvqf80","pricing_plan_id":"cebpf4jnsgd1na2vs0mg"},{"bike_id":"a1977f4f-7b44-41af-bb30-5afd0e87c0c8","system_id":"levelo_inurba_marseille","lat":43.29002,"lon":5.35612,"is_reserved":false,"is_disabled":false,"rental_uris":{"android":"levelo://app?vid=a1977f4f-7b44-41af-bb30-5afd0e87c0c8","ios":"levelo://app?vid=a1977f4f-7b44-41af-bb30-5afd0e87c0c8"},"vehicle_type_id":"4","last_reported":1749575375,"current_range_meters":2800,"station_id":"ce4bhb92rcd13ifvqen0","pricing_plan_id":"cebpf4jnsgd1na2vs0mg"},{"bike_id":"ebef68cf-582d-4f63-ab7a-ef1db310b138","system_id":"levelo_inurba_marseille","lat":43.29418,"lon":5.38627,"is_reserved":false,"is_disabled":false,"rental_uris":{"android":"levelo://app?vid=ebef68cf-582d-4f63-ab7a-ef1db310b138","ios":"levelo://app?vid=ebef68cf-582d-4f63-ab7a-ef1db310b138"},"vehicle_type_id":"4","last_reported":1749575375,"current_range_meters":2800,"station_id":"ce4bh2h2rcd13ifvqdh0","pricing_plan_id":"cebpf4jnsgd1na2vs0mg"},{"bike_id":"961c0b7e-c074-41ba-b2ca-bac506574e0d","system_id":"levelo_inurba_marseille","lat":43.25502,"lon":5.3765,"is_reserved":false,"is_disabled":false,"rental_uris":{"android":"levelo://app?vid=961c0b7e-c074-41ba-b2ca-bac506574e0d","ios":"levelo://app?vid=961c0b7e-c074-41ba-b2ca-bac506574e0d"},"vehicle_type_id":"4","last_reported":1749575375,"current_range_meters":3200,"station_id":"ce4bhh12rcd13ifvqff0","pricing_plan_id":"cebpf4jnsgd1na2vs0mg"},{"bike_id":"8f179719-f51d-4755-8bc0-2632e2afef68","system_id":"levelo_inurba_marseille","lat":43.30377,"lon":5.42481,"is_reserved":false,"is_disabled":false,"rental_uris":{"android":"levelo://app?vid=8f179719-f51d-4755-8bc0-2632e2afef68","ios":"levelo://app?vid=8f179719-f51d-4755-8bc0-2632e2afef68"},"vehicle_type_id":"4","last_reported":1749575375,"current_range_meters":3200,"station_id":"ce4bhoh2rcd13ifvqh6g","pricing_plan_id":"cebpf4jnsgd1na2vs0mg"},{"bike_id":"1f494abf-c0cb-4c95-9732-a736d0845020","system_id":"levelo_inurba_marseille","lat":43.25114,"lon":5.40322,"is_reserved":false,"is_disabled":false,"rental_uris":{"android":"levelo://app?vid=1f494abf-c0cb-4c95-9732-a736d0845020","ios":"levelo://app?vid=1f494abf-c0cb-4c95-9732-a736d0845020"},"vehicle_type_id":"4","last_reported":1749575375,"current_range_meters":3200,"station_id":"ce4bhlh2rcd13ifvqgig","pricing_plan_id":"cebpf4jnsgd1na2vs0mg"},{"bike_id":"af52eaa9-8382-45b6-a6ef-60f525449c62","system_id":"levelo_inurba_marseille","lat":43.28346,"lon":5.38623,"is_reserved":false,"is_disabled":false,"rental_uris":{"android":"levelo://app?vid=af52eaa9-8382-45b6-a6ef-60f525449c62","ios":"levelo://app?vid=af52eaa9-8382-45b6-a6ef-60f525449c62"},"vehicle_type_id":"4","last_reported":1749575375,"current_range_meters":3200,"station_id":"ce4bh492rcd13ifvqdvg","pricing_plan_id":"cebpf4jnsgd1na2vs0mg"},{"bike_id":"287ea59b-29de-497f-8f26-dfc33448a059","system_id":"levelo_inurba_marseille","lat":43.30927,"lon":5.4014,"is_reserved":false,"is_disabled":true,"rental_uris":{"android":"levelo://app?vid=287ea59b-29de-497f-8f26-dfc33448a059","ios":"levelo://app?vid=287ea59b-29de-497f-8f26-dfc33448a059"},"vehicle_type_id":"4","last_reported":1749575375,"current_range_meters":3200,"station_id":"ce4bgvp2rcd13ifvqct0","pricing_plan_id":"cebpf4jnsgd1na2vs0mg"},{"bike_id":"d6ee4d05-52c9-4322-9455-857e7ec9d2dc","system_id":"levelo_inurba_marseille","lat":43.28416,"lon":5.34989,"is_reserved":false,"is_disabled":false,"rental_uris":{"android":"levelo://app?vid=d6ee4d05-52c9-4322-9455-857e7ec9d2dc","ios":"levelo://app?vid=d6ee4d05-52c9-4322-9455-857e7ec9d2dc"},"vehicle_type_id":"4","last_reported":1749575375,"current_range_meters":3600,"station_id":"ce4bhbh2rcd13ifvqepg","pricing_plan_id":"cebpf4jnsgd1na2vs0mg"},{"bike_id":"c219c4e8-dfe9-41b9-9179-5ef2f0568dba","system_id":"levelo_inurba_marseille","lat":43.2991,"lon":5.38143,"is_reserved":false,"is_disabled":false,"rental_uris":{"android":"levelo://app?vid=c219c4e8-dfe9-41b9-9179-5ef2f0568dba","ios":"levelo://app?vid=c219c4e8-dfe9-41b9-9179-5ef2f0568dba"},"vehicle_type_id":"4","last_reported":1749575375,"current_range_meters":3600,"station_id":"ce4bgj12rcd13ifvqbc0","pricing_plan_id":"cebpf4jnsgd1na2vs0mg"},{"bike_id":"0c34185c-c1d9-4153-add3-69d57f44bf93","system_id":"levelo_inurba_marseille","lat":43.24667,"lon":5.38165,"is_reserved":false,"is_disabled":false,"rental_uris":{"android":"levelo://app?vid=0c34185c-c1d9-4153-add3-69d57f44bf93","ios":"levelo://app?vid=0c34185c-c1d9-4153-add3-69d57f44bf93"},"vehicle_type_id":"4","last_reported":1749575375,"current_range_meters":3600,"station_id":"ce4bhih2rcd13ifvqfr0","pricing_plan_id":"cebpf4jnsgd1na2vs0mg"},{"bike_id":"87724566-2937-4b07-8ab2-9ac88b190ab2","system_id":"levelo_inurba_marseille","lat":43.25088,"lon":5.3952,"is_reserved":false,"is_disabled":false,"rental_uris":{"android":"levelo://app?vid=87724566-2937-4b07-8ab2-9ac88b190ab2","ios":"levelo://app?vid=87724566-2937-4b07-8ab2-9ac88b190ab2"},"vehicle_type_id":"4","last_reported":1749575375,"current_range_meters":4000,"station_id":"ce4bhm12rcd13ifvqgkg","pricing_plan_id":"cebpf4jnsgd1na2vs0mg"},{"bike_id":"db4dddf3-74e8-4bed-8bc0-61c5228782d8","system_id":"levelo_inurba_marseille","lat":43.30418,"lon":5.41292,"is_reserved":false,"is_disabled":false,"rental_uris":{"android":"levelo://app?vid=db4dddf3-74e8-4bed-8bc0-61c5228782d8","ios":"levelo://app?vid=db4dddf3-74e8-4bed-8bc0-61c5228782d8"},"vehicle_type_id":"4","last_reported":1749575375,"current_range_meters":4000,"station_id":"ce4bhop2rcd13ifvqh8g","pricing_plan_id":"cebpf4jnsgd1na2vs0mg"},{"bike_id":"3289ae54-a66e-48fb-98dc-dd8cb799a54c","system_id":"levelo_inurba_marseille","lat":43.294136,"lon":5.386245,"is_reserved":false,"is_disabled":false,"rental_uris":{"android":"levelo://app?vid=3289ae54-a66e-48fb-98dc-dd8cb799a54c","ios":"levelo://app?vid=3289ae54-a66e-48fb-98dc-dd8cb799a54c"},"vehicle_type_id":"4","last_reported":1749575375,"current_range_meters":4000,"station_id":"ce4bh2h2rcd13ifvqdh0","pricing_plan_id":"cebpf4jnsgd1na2vs0mg"},{"bike_id":"85da23f6-a9e4-498c-ab23-1a43dc6ebc4b","system_id":"levelo_inurba_marseille","lat":43.29568,"lon":5.39966,"is_reserved":false,"is_disabled":false,"rental_uris":{"android":"levelo://app?vid=85da23f6-a9e4-498c-ab23-1a43dc6ebc4b","ios":"levelo://app?vid=85da23f6-a9e4-498c-ab23-1a43dc6ebc4b"},"vehicle_type_id":"4","last_reported":1749575375,"current_range_meters":4000,"station_id":"ce4bh312rcd13ifvqdj0","pricing_plan_id":"cebpf4jnsgd1na2vs0mg"},{"bike_id":"f53d331b-d595-4093-8b48-c8529400a3a9","system_id":"levelo_inurba_marseille","lat":43.289135,"lon":5.384253,"is_reserved":false,"is_disabled":false,"rental_uris":{"android":"levelo://app?vid=f53d331b-d595-4093-8b48-c8529400a3a9","ios":"levelo://app?vid=f53d331b-d595-4093-8b48-c8529400a3a9"},"vehicle_type_id":"4","last_reported":1749575375,"current_range_meters":4000,"station_id":"ce4bh292rcd13ifvqdg0","pricing_plan_id":"cebpf4jnsgd1na2vs0mg"},{"bike_id":"e1322067-4ba4-4151-82e2-c66cac025af5","system_id":"levelo_inurba_marseille","lat":43.26927,"lon":5.38912,"is_reserved":false,"is_disabled":false,"rental_uris":{"android":"levelo://app?vid=e1322067-4ba4-4151-82e2-c66cac025af5","ios":"levelo://app?vid=e1322067-4ba4-4151-82e2-c66cac025af5"},"vehicle_type_id":"4","last_reported":1749575375,"current_range_meters":4400,"station_id":"ce4bhhh2rcd13ifvqfl0","pricing_plan_id":"cebpf4jnsgd1na2vs0mg"},{"bike_id":"50bb3ea9-dfbe-4867-82fc-c99165626d62","system_id":"levelo_inurba_marseille","lat":43.24545,"lon":5.39519,"is_reserved":false,"is_disabled":false,"rental_uris":{"android":"levelo://app?vid=50bb3ea9-dfbe-4867-82fc-c99165626d62","ios":"levelo://app?vid=50bb3ea9-dfbe-4867-82fc-c99165626d62"},"vehicle_type_id":"4","last_reported":1749575375,"current_range_meters":4400,"station_id":"ce4bhlp2rcd13ifvqgjg","pricing_plan_id":"cebpf4jnsgd1na2vs0mg"},{"bike_id":"c136b089-d994-4b9b-a4c5-2a3f0ad0598e","system_id":"levelo_inurba_marseille","lat":43.32267,"lon":5.38296,"is_reserved":false,"is_disabled":false,"rental_uris":{"android":"levelo://app?vid=c136b089-d994-4b9b-a4c5-2a3f0ad0598e","ios":"levelo://app?vid=c136b089-d994-4b9b-a4c5-2a3f0ad0598e"},"vehicle_type_id":"4","last_reported":1749575375,"current_range_meters":4800,"station_id":"ce4bhr12rcd13ifvqhqg","pricing_plan_id":"cebpf4jnsgd1na2vs0mg"},{"bike_id":"dd67f108-95bf-4a1e-b619-4bb77e009c5b","system_id":"levelo_inurba_marseille","lat":43.29042,"lon":5.42781,"is_reserved":false,"is_disabled":false,"rental_uris":{"android":"levelo://app?vid=dd67f108-95bf-4a1e-b619-4bb77e009c5b","ios":"levelo://app?vid=dd67f108-95bf-4a1e-b619-4bb77e009c5b"},"vehicle_type_id":"4","last_reported":1749575375,"current_range_meters":4800,"station_id":"","pricing_plan_id":"cebpf4jnsgd1na2vs0mg"},{"bike_id":"426f4598-17d3-4df5-b8b6-f0ee550bebb7","system_id":"levelo_inurba_marseille","lat":43.27201,"lon":5.39181,"is_reserved":false,"is_disabled":false,"rental_uris":{"android":"levelo://app?vid=426f4598-17d3-4df5-b8b6-f0ee550bebb7","ios":"levelo://app?vid=426f4598-17d3-4df5-b8b6-f0ee550bebb7"},"vehicle_type_id":"4","last_reported":1749575375,"current_range_meters":4800,"station_id":"ce4bhhp2rcd13ifvqfm0","pricing_plan_id":"cebpf4jnsgd1na2vs0mg"},{"bike_id":"db252c2e-f113-4ac7-a7a9-e836ec0b3bd5","system_id":"levelo_inurba_marseille","lat":43.31307,"lon":5.37496,"is_reserved":false,"is_disabled":false,"rental_uris":{"android":"levelo://app?vid=db252c2e-f113-4ac7-a7a9-e836ec0b3bd5","ios":"levelo://app?vid=db252c2e-f113-4ac7-a7a9-e836ec0b3bd5"},"vehicle_type_id":"4","last_reported":1749575375,"current_range_meters":4800,"station_id":"","pricing_plan_id":"cebpf4jnsgd1na2vs0mg"},{"bike_id":"ff4016a3-0f54-408f-814b-ff7853329831","system_id":"levelo_inurba_marseille","lat":43.29003,"lon":5.35604,"is_reserved":false,"is_disabled":false,"rental_uris":{"android":"levelo://app?vid=ff4016a3-0f54-408f-814b-ff7853329831","ios":"levelo://app?vid=ff4016a3-0f54-408f-814b-ff7853329831"},"vehicle_type_id":"4","last_reported":1749575375,"current_range_meters":4800,"station_id":"ce4bhb92rcd13ifvqen0","pricing_plan_id":"cebpf4jnsgd1na2vs0mg"},{"bike_id":"3f74ef80-b8c0-4683-9931-e66e51fd96af","system_id":"levelo_inurba_marseille","lat":43.30419,"lon":5.41279,"is_reserved":false,"is_disabled":false,"rental_uris":{"android":"levelo://app?vid=3f74ef80-b8c0-4683-9931-e66e51fd96af","ios":"levelo://app?vid=3f74ef80-b8c0-4683-9931-e66e51fd96af"},"vehicle_type_id":"4","last_reported":1749575375,"current_range_meters":4800,"station_id":"ce4bhop2rcd13ifvqh8g","pricing_plan_id":"cebpf4jnsgd1na2vs0mg"},{"bike_id":"3a522992-49a5-4215-9092-6aca9878b593","system_id":"levelo_inurba_marseille","lat":43.28715,"lon":5.37944,"is_reserved":false,"is_disabled":false,"rental_uris":{"android":"levelo://app?vid=3a522992-49a5-4215-9092-6aca9878b593","ios":"levelo://app?vid=3a522992-49a5-4215-9092-6aca9878b593"},"vehicle_type_id":"4","last_reported":1749575375,"current_range_meters":4800,"station_id":"ce4bh9p2rcd13ifvqec0","pricing_plan_id":"cebpf4jnsgd1na2vs0mg"},{"bike_id":"05029605-e3e5-43d8-9bf3-92de3feedce5","system_id":"levelo_inurba_marseille","lat":43.28074,"lon":5.39664,"is_reserved":false,"is_disabled":false,"rental_uris":{"android":"levelo://app?vid=05029605-e3e5-43d8-9bf3-92de3feedce5","ios":"levelo://app?vid=05029605-e3e5-43d8-9bf3-92de3feedce5"},"vehicle_type_id":"4","last_reported":1749575375,"current_range_meters":5600,"station_id":"ce4bho12rcd13ifvqh2g","pricing_plan_id":"cebpf4jnsgd1na2vs0mg"},{"bike_id":"b73f4bba-1ea4-47a3-8758-87ebe21db7ff","system_id":"levelo_inurba_marseille","lat":43.24667,"lon":5.38163,"is_reserved":false,"is_disabled":false,"rental_uris":{"android":"levelo://app?vid=b73f4bba-1ea4-47a3-8758-87ebe21db7ff","ios":"levelo://app?vid=b73f4bba-1ea4-47a3-8758-87ebe21db7ff"},"vehicle_type_id":"4","last_reported":1749575375,"current_range_meters":5600,"station_id":"","pricing_plan_id":"cebpf4jnsgd1na2vs0mg"},{"bike_id":"06aea5e4-485e-4b32-b9e0-ea0ed506f295","system_id":"levelo_inurba_marseille","lat":43.30326,"lon":5.40431,"is_reserved":false,"is_disabled":false,"rental_uris":{"android":"levelo://app?vid=06aea5e4-485e-4b32-b9e0-ea0ed506f295","ios":"levelo://app?vid=06aea5e4-485e-4b32-b9e0-ea0ed506f295"},"vehicle_type_id":"4","last_reported":1749575375,"current_range_meters":5600,"station_id":"ce4bh012rcd13ifvqd10","pricing_plan_id":"cebpf4jnsgd1na2vs0mg"},{"bike_id":"b0242dc8-ae58-471f-b20c-126c4c199e9f","system_id":"levelo_inurba_marseille","lat":43.3014,"lon":5.39833,"is_reserved":false,"is_disabled":false,"rental_uris":{"android":"levelo://app?vid=b0242dc8-ae58-471f-b20c-126c4c199e9f","ios":"levelo://app?vid=b0242dc8-ae58-471f-b20c-126c4c199e9f"},"vehicle_type_id":"4","last_reported":1749575375,"current_range_meters":5600,"station_id":"ce4bh0h2rcd13ifvqd40","pricing_plan_id":"cebpf4jnsgd1na2vs0mg"},{"bike_id":"f21590a7-bb79-473d-87f0-3dda054257cd","system_id":"levelo_inurba_marseille","lat":43.29425,"lon":5.38617,"is_reserved":false,"is_disabled":false,"rental_uris":{"android":"levelo://app?vid=f21590a7-bb79-473d-87f0-3dda054257cd","ios":"levelo://app?vid=f21590a7-bb79-473d-87f0-3dda054257cd"},"vehicle_type_id":"4","last_reported":1749575375,"current_range_meters":5600,"station_id":"ce4bh2h2rcd13ifvqdh0","pricing_plan_id":"cebpf4jnsgd1na2vs0mg"},{"bike_id":"edcd1711-f359-434e-8a83-2d186fa784d7","system_id":"levelo_inurba_marseille","lat":43.30782,"lon":5.37646,"is_reserved":false,"is_disabled":false,"rental_uris":{"android":"levelo://app?vid=edcd1711-f359-434e-8a83-2d186fa784d7","ios":"levelo://app?vid=edcd1711-f359-434e-8a83-2d186fa784d7"},"vehicle_type_id":"4","last_reported":1749575375,"current_range_meters":6000,"station_id":"ce4bgv92rcd13ifvqcq0","pricing_plan_id":"cebpf4jnsgd1na2vs0mg"},{"bike_id":"9185ab2f-0fd7-4e2c-8fb6-a860371574f2","system_id":"levelo_inurba_marseille","lat":43.2827,"lon":5.35057,"is_reserved":false,"is_disabled":false,"rental_uris":{"android":"levelo://app?vid=9185ab2f-0fd7-4e2c-8fb6-a860371574f2","ios":"levelo://app?vid=9185ab2f-0fd7-4e2c-8fb6-a860371574f2"},"vehicle_type_id":"4","last_reported":1749575375,"current_range_meters":6000,"station_id":"ce4bhbp2rcd13ifvqerg","pricing_plan_id":"cebpf4jnsgd1na2vs0mg"},{"bike_id":"70fce5ee-4ae3-409d-9d87-80af1bd3a8b1","system_id":"levelo_inurba_marseille","lat":43.28,"lon":5.41665,"is_reserved":false,"is_disabled":false,"rental_uris":{"android":"levelo://app?vid=70fce5ee-4ae3-409d-9d87-80af1bd3a8b1","ios":"levelo://app?vid=70fce5ee-4ae3-409d-9d87-80af1bd3a8b1"},"vehicle_type_id":"4","last_reported":1749575375,"current_range_meters":5600,"station_id":"ce4bho12rcd13ifvqh1g","pricing_plan_id":"cebpf4jnsgd1na2vs0mg"},{"bike_id":"115dafc0-91b3-489e-9a41-4dadc3453cbb","system_id":"levelo_inurba_marseille","lat":43.28406,"lon":5.37509,"is_reserved":false,"is_disabled":false,"rental_uris":{"android":"levelo://app?vid=115dafc0-91b3-489e-9a41-4dadc3453cbb","ios":"levelo://app?vid=115dafc0-91b3-489e-9a41-4dadc3453cbb"},"vehicle_type_id":"4","last_reported":1749575375,"current_range_meters":6400,"station_id":"ce4bh412rcd13ifvqds0","pricing_plan_id":"cebpf4jnsgd1na2vs0mg"},{"bike_id":"3e00b195-f929-46da-a90e-a5a438ef0927","system_id":"levelo_inurba_marseille","lat":43.2842,"lon":5.34976,"is_reserved":false,"is_disabled":false,"rental_uris":{"android":"levelo://app?vid=3e00b195-f929-46da-a90e-a5a438ef0927","ios":"levelo://app?vid=3e00b195-f929-46da-a90e-a5a438ef0927"},"vehicle_type_id":"4","last_reported":1749575375,"current_range_meters":6400,"station_id":"ce4bhbh2rcd13ifvqepg","pricing_plan_id":"cebpf4jnsgd1na2vs0mg"},{"bike_id":"28073708-df89-457b-a0ef-7b782b34d403","system_id":"levelo_inurba_marseille","lat":43.28614,"lon":5.35101,"is_reserved":false,"is_disabled":false,"rental_uris":{"android":"levelo://app?vid=28073708-df89-457b-a0ef-7b782b34d403","ios":"levelo://app?vid=28073708-df89-457b-a0ef-7b782b34d403"},"vehicle_type_id":"4","last_reported":1749575375,"current_range_meters":6400,"station_id":"ce4bhch2rcd13ifvqeug","pricing_plan_id":"cebpf4jnsgd1na2vs0mg"},{"bike_id":"65d4099d-6002-4c85-a872-ab7bf7c292aa","system_id":"levelo_inurba_marseille","lat":43.29178,"lon":5.358,"is_reserved":false,"is_disabled":false,"rental_uris":{"android":"levelo://app?vid=65d4099d-6002-4c85-a872-ab7bf7c292aa","ios":"levelo://app?vid=65d4099d-6002-4c85-a872-ab7bf7c292aa"},"vehicle_type_id":"4","last_reported":1749575375,"current_range_meters":6400,"station_id":"ce4bhb12rcd13ifvqel0","pricing_plan_id":"cebpf4jnsgd1na2vs0mg"},{"bike_id":"b94de1f4-7436-4ab7-8390-f42e186f295d","system_id":"levelo_inurba_marseille","lat":43.33022,"lon":5.3904,"is_reserved":false,"is_disabled":false,"rental_uris":{"android":"levelo://app?vid=b94de1f4-7436-4ab7-8390-f42e186f295d","ios":"levelo://app?vid=b94de1f4-7436-4ab7-8390-f42e186f295d"},"vehicle_type_id":"4","last_reported":1749575375,"current_range_meters":6000,"station_id":"ce4bhr92rcd13ifvqhrg","pricing_plan_id":"cebpf4jnsgd1na2vs0mg"},{"bike_id":"b6f4fb1c-9d3a-4f4f-87f4-c57d0c620505","system_id":"levelo_inurba_marseille","lat":43.25499,"lon":5.37647,"is_reserved":false,"is_disabled":false,"rental_uris":{"android":"levelo://app?vid=b6f4fb1c-9d3a-4f4f-87f4-c57d0c620505","ios":"levelo://app?vid=b6f4fb1c-9d3a-4f4f-87f4-c57d0c620505"},"vehicle_type_id":"4","last_reported":1749575375,"current_range_meters":6400,"station_id":"ce4bhh12rcd13ifvqff0","pricing_plan_id":"cebpf4jnsgd1na2vs0mg"},{"bike_id":"fe52c15f-5aec-4b7e-998e-284a85843b2f","system_id":"levelo_inurba_marseille","lat":43.32102,"lon":5.3676,"is_reserved":false,"is_disabled":false,"rental_uris":{"android":"levelo://app?vid=fe52c15f-5aec-4b7e-998e-284a85843b2f","ios":"levelo://app?vid=fe52c15f-5aec-4b7e-998e-284a85843b2f"},"vehicle_type_id":"4","last_reported":1749575375,"current_range_meters":6400,"station_id":"ce4bhrh2rcd13ifvqhug","pricing_plan_id":"cebpf4jnsgd1na2vs0mg"},{"bike_id":"c8b82420-b8cc-4265-ba86-c1c151468e2e","system_id":"levelo_inurba_marseille","lat":43.31069,"lon":5.38356,"is_reserved":false,"is_disabled":false,"rental_uris":{"android":"levelo://app?vid=c8b82420-b8cc-4265-ba86-c1c151468e2e","ios":"levelo://app?vid=c8b82420-b8cc-4265-ba86-c1c151468e2e"},"vehicle_type_id":"4","last_reported":1749575375,"current_range_meters":6800,"station_id":"ce4bgv92rcd13ifvqcr0","pricing_plan_id":"cebpf4jnsgd1na2vs0mg"},{"bike_id":"e1b30e04-6640-4e31-8125-8582499698ac","system_id":"levelo_inurba_marseille","lat":43.29182,"lon":5.35795,"is_reserved":false,"is_disabled":false,"rental_uris":{"android":"levelo://app?vid=e1b30e04-6640-4e31-8125-8582499698ac","ios":"levelo://app?vid=e1b30e04-6640-4e31-8125-8582499698ac"},"vehicle_type_id":"4","last_reported":1749575375,"current_range_meters":6800,"station_id":"ce4bhb12rcd13ifvqel0","pricing_plan_id":"cebpf4jnsgd1na2vs0mg"},{"bike_id":"cb9e6e97-6204-4a05-abd6-65fc57543683","system_id":"levelo_inurba_marseille","lat":43.28457,"lon":5.35888,"is_reserved":false,"is_disabled":false,"rental_uris":{"android":"levelo://app?vid=cb9e6e97-6204-4a05-abd6-65fc57543683","ios":"levelo://app?vid=cb9e6e97-6204-4a05-abd6-65fc57543683"},"vehicle_type_id":"4","last_reported":1749575375,"current_range_meters":6800,"station_id":"ce4bhah2rcd13ifvqei0","pricing_plan_id":"cebpf4jnsgd1na2vs0mg"},{"bike_id":"468e1b7c-60ea-4ce6-b9e2-ddfce4aff30a","system_id":"levelo_inurba_marseille","lat":43.26207,"lon":5.37923,"is_reserved":false,"is_disabled":false,"rental_uris":{"android":"levelo://app?vid=468e1b7c-60ea-4ce6-b9e2-ddfce4aff30a","ios":"levelo://app?vid=468e1b7c-60ea-4ce6-b9e2-ddfce4aff30a"},"vehicle_type_id":"4","last_reported":1749575375,"current_range_meters":6800,"station_id":"ce4bhjp2rcd13ifvqg90","pricing_plan_id":"cebpf4jnsgd1na2vs0mg"},{"bike_id":"d6d155c3-b994-42a9-857e-b5f5716ad1a2","system_id":"levelo_inurba_marseille","lat":43.27204,"lon":5.39177,"is_reserved":false,"is_disabled":false,"rental_uris":{"android":"levelo://app?vid=d6d155c3-b994-42a9-857e-b5f5716ad1a2","ios":"levelo://app?vid=d6d155c3-b994-42a9-857e-b5f5716ad1a2"},"vehicle_type_id":"4","last_reported":1749575375,"current_range_meters":6800,"station_id":"ce4bhhp2rcd13ifvqfm0","pricing_plan_id":"cebpf4jnsgd1na2vs0mg"},{"bike_id":"4ca292d1-739c-46b9-8d87-7dce39f2a65d","system_id":"levelo_inurba_marseille","lat":43.28446,"lon":5.34957,"is_reserved":false,"is_disabled":false,"rental_uris":{"android":"levelo://app?vid=4ca292d1-739c-46b9-8d87-7dce39f2a65d","ios":"levelo://app?vid=4ca292d1-739c-46b9-8d87-7dce39f2a65d"},"vehicle_type_id":"4","last_reported":1749575375,"current_range_meters":6800,"station_id":"ce4bhbh2rcd13ifvqepg","pricing_plan_id":"cebpf4jnsgd1na2vs0mg"},{"bike_id":"291ab0bc-bb52-4ad0-a840-58f1558e3677","system_id":"levelo_inurba_marseille","lat":43.21769,"lon":5.34606,"is_reserved":false,"is_disabled":false,"rental_uris":{"android":"levelo://app?vid=291ab0bc-bb52-4ad0-a840-58f1558e3677","ios":"levelo://app?vid=291ab0bc-bb52-4ad0-a840-58f1558e3677"},"vehicle_type_id":"4","last_reported":1749575375,"current_range_meters":6800,"station_id":"st_cvj6r9ubvosntc0bgbag","pricing_plan_id":"cebpf4jnsgd1na2vs0mg"},{"bike_id":"a68dd076-119a-4164-afdc-2279c9a0f30b","system_id":"levelo_inurba_marseille","lat":43.32894,"lon":5.38645,"is_reserved":false,"is_disabled":false,"rental_uris":{"android":"levelo://app?vid=a68dd076-119a-4164-afdc-2279c9a0f30b","ios":"levelo://app?vid=a68dd076-119a-4164-afdc-2279c9a0f30b"},"vehicle_type_id":"4","last_reported":1749575375,"current_range_meters":6800,"station_id":"","pricing_plan_id":"cebpf4jnsgd1na2vs0mg"},{"bike_id":"da14da1f-7442-42b5-98f6-365f4fbd4c56","system_id":"levelo_inurba_marseille","lat":43.32632,"lon":5.41033,"is_reserved":false,"is_disabled":false,"rental_uris":{"android":"levelo://app?vid=da14da1f-7442-42b5-98f6-365f4fbd4c56","ios":"levelo://app?vid=da14da1f-7442-42b5-98f6-365f4fbd4c56"},"vehicle_type_id":"4","last_reported":1749575375,"current_range_meters":6800,"station_id":"ce4bhpp2rcd13ifvqhgg","pricing_plan_id":"cebpf4jnsgd1na2vs0mg"},{"bike_id":"cf6ee371-cd0f-4d7c-9bc5-c2f9553cd916","system_id":"levelo_inurba_marseille","lat":43.29028,"lon":5.39983,"is_reserved":false,"is_disabled":false,"rental_uris":{"android":"levelo://app?vid=cf6ee371-cd0f-4d7c-9bc5-c2f9553cd916","ios":"levelo://app?vid=cf6ee371-cd0f-4d7c-9bc5-c2f9553cd916"},"vehicle_type_id":"4","last_reported":1749575375,"current_range_meters":6800,"station_id":"ce4bh392rcd13ifvqdm0","pricing_plan_id":"cebpf4jnsgd1na2vs0mg"},{"bike_id":"f0782932-4f65-40fc-9cee-a635f880f137","system_id":"levelo_inurba_marseille","lat":43.32343,"lon":5.36737,"is_reserved":false,"is_disabled":false,"rental_uris":{"android":"levelo://app?vid=f0782932-4f65-40fc-9cee-a635f880f137","ios":"levelo://app?vid=f0782932-4f65-40fc-9cee-a635f880f137"},"vehicle_type_id":"4","last_reported":1749575375,"current_range_meters":7200,"station_id":"ce4bhsh2rcd13ifvqi2g","pricing_plan_id":"cebpf4jnsgd1na2vs0mg"},{"bike_id":"9206bf59-9f7b-40a5-8d0b-03c6d763c994","system_id":"levelo_inurba_marseille","lat":43.291963,"lon":5.35805,"is_reserved":false,"is_disabled":false,"rental_uris":{"android":"levelo://app?vid=9206bf59-9f7b-40a5-8d0b-03c6d763c994","ios":"levelo://app?vid=9206bf59-9f7b-40a5-8d0b-03c6d763c994"},"vehicle_type_id":"4","last_reported":1749575375,"current_range_meters":7200,"station_id":"ce4bhb12rcd13ifvqel0","pricing_plan_id":"cebpf4jnsgd1na2vs0mg"},{"bike_id":"dd3189d7-b788-451c-a020-435a85e88aa4","system_id":"levelo_inurba_marseille","lat":43.29421,"lon":5.38624,"is_reserved":false,"is_disabled":false,"rental_uris":{"android":"levelo://app?vid=dd3189d7-b788-451c-a020-435a85e88aa4","ios":"levelo://app?vid=dd3189d7-b788-451c-a020-435a85e88aa4"},"vehicle_type_id":"4","last_reported":1749575375,"current_range_meters":7200,"station_id":"ce4bh2h2rcd13ifvqdh0","pricing_plan_id":"cebpf4jnsgd1na2vs0mg"},{"bike_id":"7d593098-375c-4381-af4d-ff84d0d02b0a","system_id":"levelo_inurba_marseille","lat":43.231853,"lon":5.39988,"is_reserved":false,"is_disabled":false,"rental_uris":{"android":"levelo://app?vid=7d593098-375c-4381-af4d-ff84d0d02b0a","ios":"levelo://app?vid=7d593098-375c-4381-af4d-ff84d0d02b0a"},"vehicle_type_id":"4","last_reported":1749575375,"current_range_meters":7200,"station_id":"ce4bhn12rcd13ifvqgqg","pricing_plan_id":"cebpf4jnsgd1na2vs0mg"},{"bike_id":"88113087-f0bb-4133-ab2a-bbfce1f3d99a","system_id":"levelo_inurba_marseille","lat":43.31677,"lon":5.40473,"is_reserved":false,"is_disabled":true,"rental_uris":{"android":"levelo://app?vid=88113087-f0bb-4133-ab2a-bbfce1f3d99a","ios":"levelo://app?vid=88113087-f0bb-4133-ab2a-bbfce1f3d99a"},"vehicle_type_id":"4","last_reported":1749575375,"current_range_meters":8000,"station_id":"ce4bh012rcd13ifvqd00","pricing_plan_id":"cebpf4jnsgd1na2vs0mg"},{"bike_id":"a882af66-a847-4034-9247-dc4143cc069e","system_id":"levelo_inurba_marseille","lat":43.265,"lon":5.39537,"is_reserved":false,"is_disabled":false,"rental_uris":{"android":"levelo://app?vid=a882af66-a847-4034-9247-dc4143cc069e","ios":"levelo://app?vid=a882af66-a847-4034-9247-dc4143cc069e"},"vehicle_type_id":"4","last_reported":1749575375,"current_range_meters":7200,"station_id":"ce4bhi12rcd13ifvqfq0","pricing_plan_id":"cebpf4jnsgd1na2vs0mg"},{"bike_id":"6a0edc38-4fe2-4f6e-8bb0-1b8c01ef784e","system_id":"levelo_inurba_marseille","lat":43.28614,"lon":5.35101,"is_reserved":false,"is_disabled":false,"rental_uris":{"android":"levelo://app?vid=6a0edc38-4fe2-4f6e-8bb0-1b8c01ef784e","ios":"levelo://app?vid=6a0edc38-4fe2-4f6e-8bb0-1b8c01ef784e"},"vehicle_type_id":"4","last_reported":1749575375,"current_range_meters":8400,"station_id":"ce4bhch2rcd13ifvqeug","pricing_plan_id":"cebpf4jnsgd1na2vs0mg"},{"bike_id":"62b2dcda-1fd2-4027-a17d-6f2ae1498bc1","system_id":"levelo_inurba_marseille","lat":43.29,"lon":5.35617,"is_reserved":false,"is_disabled":false,"rental_uris":{"android":"levelo://app?vid=62b2dcda-1fd2-4027-a17d-6f2ae1498bc1","ios":"levelo://app?vid=62b2dcda-1fd2-4027-a17d-6f2ae1498bc1"},"vehicle_type_id":"4","last_reported":1749575375,"current_range_meters":8400,"station_id":"ce4bhb92rcd13ifvqen0","pricing_plan_id":"cebpf4jnsgd1na2vs0mg"},{"bike_id":"a65f752d-2245-44aa-b2fb-88f46dfe8a91","system_id":"levelo_inurba_marseille","lat":43.27201,"lon":5.39192,"is_reserved":false,"is_disabled":false,"rental_uris":{"android":"levelo://app?vid=a65f752d-2245-44aa-b2fb-88f46dfe8a91","ios":"levelo://app?vid=a65f752d-2245-44aa-b2fb-88f46dfe8a91"},"vehicle_type_id":"4","last_reported":1749575375,"current_range_meters":8400,"station_id":"ce4bhhp2rcd13ifvqfm0","pricing_plan_id":"cebpf4jnsgd1na2vs0mg"},{"bike_id":"662c3b9f-2e50-4447-b1e0-1e7891e25c7b","system_id":"levelo_inurba_marseille","lat":43.27941,"lon":5.41042,"is_reserved":false,"is_disabled":false,"rental_uris":{"android":"levelo://app?vid=662c3b9f-2e50-4447-b1e0-1e7891e25c7b","ios":"levelo://app?vid=662c3b9f-2e50-4447-b1e0-1e7891e25c7b"},"vehicle_type_id":"4","last_reported":1749575375,"current_range_meters":8800,"station_id":"ce4bhnp2rcd13ifvqh0g","pricing_plan_id":"cebpf4jnsgd1na2vs0mg"},{"bike_id":"ba509714-11ea-4d63-9ff5-405d995db14c","system_id":"levelo_inurba_marseille","lat":43.21741,"lon":5.34593,"is_reserved":false,"is_disabled":false,"rental_uris":{"android":"levelo://app?vid=ba509714-11ea-4d63-9ff5-405d995db14c","ios":"levelo://app?vid=ba509714-11ea-4d63-9ff5-405d995db14c"},"vehicle_type_id":"4","last_reported":1749575375,"current_range_meters":8800,"station_id":"st_cvj6r9ubvosntc0bgbag","pricing_plan_id":"cebpf4jnsgd1na2vs0mg"},{"bike_id":"a9852dcc-dd97-4bc8-b4c9-f6b78967f3c6","system_id":"levelo_inurba_marseille","lat":43.23179,"lon":5.39988,"is_reserved":false,"is_disabled":false,"rental_uris":{"android":"levelo://app?vid=a9852dcc-dd97-4bc8-b4c9-f6b78967f3c6","ios":"levelo://app?vid=a9852dcc-dd97-4bc8-b4c9-f6b78967f3c6"},"vehicle_type_id":"4","last_reported":1749575375,"current_range_meters":8800,"station_id":"ce4bhn12rcd13ifvqgqg","pricing_plan_id":"cebpf4jnsgd1na2vs0mg"},{"bike_id":"619ff0ea-1f52-4051-a0b2-8ac8803aa569","system_id":"levelo_inurba_marseille","lat":43.29418,"lon":5.38614,"is_reserved":false,"is_disabled":false,"rental_uris":{"android":"levelo://app?vid=619ff0ea-1f52-4051-a0b2-8ac8803aa569","ios":"levelo://app?vid=619ff0ea-1f52-4051-a0b2-8ac8803aa569"},"vehicle_type_id":"4","last_reported":1749575375,"current_range_meters":8800,"station_id":"ce4bh2h2rcd13ifvqdh0","pricing_plan_id":"cebpf4jnsgd1na2vs0mg"},{"bike_id":"955c930c-c336-417f-bb8a-3d2b0a0f3d0c","system_id":"levelo_inurba_marseille","lat":43.27839,"lon":5.3921,"is_reserved":false,"is_disabled":true,"rental_uris":{"android":"levelo://app?vid=955c930c-c336-417f-bb8a-3d2b0a0f3d0c","ios":"levelo://app?vid=955c930c-c336-417f-bb8a-3d2b0a0f3d0c"},"vehicle_type_id":"4","last_reported":1749575375,"current_range_meters":8800,"station_id":"ce4bhjp2rcd13ifvqga0","pricing_plan_id":"cebpf4jnsgd1na2vs0mg"},{"bike_id":"8a4d0431-8c3a-4733-b00f-f1566af3e3b7","system_id":"levelo_inurba_marseille","lat":43.28405,"lon":5.34979,"is_reserved":false,"is_disabled":false,"rental_uris":{"android":"levelo://app?vid=8a4d0431-8c3a-4733-b00f-f1566af3e3b7","ios":"levelo://app?vid=8a4d0431-8c3a-4733-b00f-f1566af3e3b7"},"vehicle_type_id":"4","last_reported":1749575375,"current_range_meters":8800,"station_id":"ce4bhbh2rcd13ifvqepg","pricing_plan_id":"cebpf4jnsgd1na2vs0mg"},{"bike_id":"49917676-8f98-444e-a341-5e35575ebdc8","system_id":"levelo_inurba_marseille","lat":43.28417,"lon":5.34984,"is_reserved":false,"is_disabled":false,"rental_uris":{"android":"levelo://app?vid=49917676-8f98-444e-a341-5e35575ebdc8","ios":"levelo://app?vid=49917676-8f98-444e-a341-5e35575ebdc8"},"vehicle_type_id":"4","last_reported":1749575375,"current_range_meters":8800,"station_id":"ce4bhbh2rcd13ifvqepg","pricing_plan_id":"cebpf4jnsgd1na2vs0mg"},{"bike_id":"0e87afd0-a02a-4a4b-a5e4-57738f7caf8d","system_id":"levelo_inurba_marseille","lat":43.26682,"lon":5.38271,"is_reserved":false,"is_disabled":false,"rental_uris":{"android":"levelo://app?vid=0e87afd0-a02a-4a4b-a5e4-57738f7caf8d","ios":"levelo://app?vid=0e87afd0-a02a-4a4b-a5e4-57738f7caf8d"},"vehicle_type_id":"4","last_reported":1749575375,"current_range_meters":9200,"station_id":"ce4bhg92rcd13ifvqf90","pricing_plan_id":"cebpf4jnsgd1na2vs0mg"},{"bike_id":"ae57ef76-997b-4192-8c66-2c8bc43faf9f","system_id":"levelo_inurba_marseille","lat":43.29033,"lon":5.35919,"is_reserved":false,"is_disabled":false,"rental_uris":{"android":"levelo://app?vid=ae57ef76-997b-4192-8c66-2c8bc43faf9f","ios":"levelo://app?vid=ae57ef76-997b-4192-8c66-2c8bc43faf9f"},"vehicle_type_id":"4","last_reported":1749575375,"current_range_meters":9200,"station_id":"ce4bha92rcd13ifvqeg0","pricing_plan_id":"cebpf4jnsgd1na2vs0mg"},{"bike_id":"9252094c-0b28-4b1e-94c1-38b0e4584673","system_id":"levelo_inurba_marseille","lat":43.29931,"lon":5.36549,"is_reserved":false,"is_disabled":false,"rental_uris":{"android":"levelo://app?vid=9252094c-0b28-4b1e-94c1-38b0e4584673","ios":"levelo://app?vid=9252094c-0b28-4b1e-94c1-38b0e4584673"},"vehicle_type_id":"4","last_reported":1749575375,"current_range_meters":9200,"station_id":"ce4bgm92rcd13ifvqbr0","pricing_plan_id":"cebpf4jnsgd1na2vs0mg"},{"bike_id":"1bb38fea-84cc-419e-b0c8-e693dc01930b","system_id":"levelo_inurba_marseille","lat":43.29006,"lon":5.35602,"is_reserved":false,"is_disabled":false,"rental_uris":{"android":"levelo://app?vid=1bb38fea-84cc-419e-b0c8-e693dc01930b","ios":"levelo://app?vid=1bb38fea-84cc-419e-b0c8-e693dc01930b"},"vehicle_type_id":"4","last_reported":1749575375,"current_range_meters":9200,"station_id":"ce4bhb92rcd13ifvqen0","pricing_plan_id":"cebpf4jnsgd1na2vs0mg"},{"bike_id":"f986d8d8-f2ac-4d3a-b7fa-5006bddbdb66","system_id":"levelo_inurba_marseille","lat":43.28938,"lon":5.36383,"is_reserved":false,"is_disabled":false,"rental_uris":{"android":"levelo://app?vid=f986d8d8-f2ac-4d3a-b7fa-5006bddbdb66","ios":"levelo://app?vid=f986d8d8-f2ac-4d3a-b7fa-5006bddbdb66"},"vehicle_type_id":"4","last_reported":1749575375,"current_range_meters":9200,"station_id":"ce4bhc92rcd13ifvqetg","pricing_plan_id":"cebpf4jnsgd1na2vs0mg"},{"bike_id":"39a5708b-439c-4c6e-ac99-7738264c658e","system_id":"levelo_inurba_marseille","lat":43.25577,"lon":5.38226,"is_reserved":false,"is_disabled":false,"rental_uris":{"android":"levelo://app?vid=39a5708b-439c-4c6e-ac99-7738264c658e","ios":"levelo://app?vid=39a5708b-439c-4c6e-ac99-7738264c658e"},"vehicle_type_id":"4","last_reported":1749575375,"current_range_meters":9200,"station_id":"ce4bhih2rcd13ifvqfs0","pricing_plan_id":"cebpf4jnsgd1na2vs0mg"},{"bike_id":"b6285f6b-e9e7-470d-9b6d-1afe99ab71bf","system_id":"levelo_inurba_marseille","lat":43.26205,"lon":5.42059,"is_reserved":false,"is_disabled":false,"rental_uris":{"android":"levelo://app?vid=b6285f6b-e9e7-470d-9b6d-1afe99ab71bf","ios":"levelo://app?vid=b6285f6b-e9e7-470d-9b6d-1afe99ab71bf"},"vehicle_type_id":"4","last_reported":1749575375,"current_range_meters":9600,"station_id":"","pricing_plan_id":"cebpf4jnsgd1na2vs0mg"},{"bike_id":"3d59d2ec-b59a-43e8-abae-40ac02fdcdb8","system_id":"levelo_inurba_marseille","lat":43.2955,"lon":5.42278,"is_reserved":false,"is_disabled":false,"rental_uris":{"android":"levelo://app?vid=3d59d2ec-b59a-43e8-abae-40ac02fdcdb8","ios":"levelo://app?vid=3d59d2ec-b59a-43e8-abae-40ac02fdcdb8"},"vehicle_type_id":"4","last_reported":1749575375,"current_range_meters":9600,"station_id":"ce4bhph2rcd13ifvqhdg","pricing_plan_id":"cebpf4jnsgd1na2vs0mg"},{"bike_id":"f5e7b4d1-016d-4e5c-bdea-6b4bae0120ac","system_id":"levelo_inurba_marseille","lat":43.25729,"lon":5.41116,"is_reserved":false,"is_disabled":false,"rental_uris":{"android":"levelo://app?vid=f5e7b4d1-016d-4e5c-bdea-6b4bae0120ac","ios":"levelo://app?vid=f5e7b4d1-016d-4e5c-bdea-6b4bae0120ac"},"vehicle_type_id":"4","last_reported":1749575375,"current_range_meters":9600,"station_id":"ce4bhkp2rcd13ifvqgd0","pricing_plan_id":"cebpf4jnsgd1na2vs0mg"},{"bike_id":"e72c838e-aa0c-4b60-aa09-921e34975419","system_id":"levelo_inurba_marseille","lat":43.30145,"lon":5.38061,"is_reserved":false,"is_disabled":false,"rental_uris":{"android":"levelo://app?vid=e72c838e-aa0c-4b60-aa09-921e34975419","ios":"levelo://app?vid=e72c838e-aa0c-4b60-aa09-921e34975419"},"vehicle_type_id":"4","last_reported":1749575375,"current_range_meters":9600,"station_id":"ce4bgjp2rcd13ifvqbh0","pricing_plan_id":"cebpf4jnsgd1na2vs0mg"},{"bike_id":"531bff62-b560-4d0e-92d6-668a0b5f9e59","system_id":"levelo_inurba_marseille","lat":43.29158,"lon":5.37165,"is_reserved":false,"is_disabled":false,"rental_uris":{"android":"levelo://app?vid=531bff62-b560-4d0e-92d6-668a0b5f9e59","ios":"levelo://app?vid=531bff62-b560-4d0e-92d6-668a0b5f9e59"},"vehicle_type_id":"4","last_reported":1749575375,"current_range_meters":10000,"station_id":"ce4bha92rcd13ifvqeh0","pricing_plan_id":"cebpf4jnsgd1na2vs0mg"},{"bike_id":"ab8a6c9e-b761-4449-a659-5e24dad6049c","system_id":"levelo_inurba_marseille","lat":43.28843,"lon":5.35868,"is_reserved":false,"is_disabled":false,"rental_uris":{"android":"levelo://app?vid=ab8a6c9e-b761-4449-a659-5e24dad6049c","ios":"levelo://app?vid=ab8a6c9e-b761-4449-a659-5e24dad6049c"},"vehicle_type_id":"4","last_reported":1749575375,"current_range_meters":9600,"station_id":"ce4bhb12rcd13ifvqem0","pricing_plan_id":"cebpf4jnsgd1na2vs0mg"},{"bike_id":"12cd1d94-ebc3-410a-9255-11492ec87aa1","system_id":"levelo_inurba_marseille","lat":43.290488,"lon":5.359156,"is_reserved":false,"is_disabled":false,"rental_uris":{"android":"levelo://app?vid=12cd1d94-ebc3-410a-9255-11492ec87aa1","ios":"levelo://app?vid=12cd1d94-ebc3-410a-9255-11492ec87aa1"},"vehicle_type_id":"4","last_reported":1749575375,"current_range_meters":10000,"station_id":"ce4bha92rcd13ifvqeg0","pricing_plan_id":"cebpf4jnsgd1na2vs0mg"},{"bike_id":"8dac0fc1-eba5-4385-84e4-cc3e4d29f39d","system_id":"levelo_inurba_marseille","lat":43.28409,"lon":5.34981,"is_reserved":false,"is_disabled":false,"rental_uris":{"android":"levelo://app?vid=8dac0fc1-eba5-4385-84e4-cc3e4d29f39d","ios":"levelo://app?vid=8dac0fc1-eba5-4385-84e4-cc3e4d29f39d"},"vehicle_type_id":"4","last_reported":1749575375,"current_range_meters":10000,"station_id":"ce4bhbh2rcd13ifvqepg","pricing_plan_id":"cebpf4jnsgd1na2vs0mg"},{"bike_id":"39d32260-51d5-455a-ba53-6471389bd255","system_id":"levelo_inurba_marseille","lat":43.31993,"lon":5.37603,"is_reserved":false,"is_disabled":false,"rental_uris":{"android":"levelo://app?vid=39d32260-51d5-455a-ba53-6471389bd255","ios":"levelo://app?vid=39d32260-51d5-455a-ba53-6471389bd255"},"vehicle_type_id":"4","last_reported":1749575375,"current_range_meters":10000,"station_id":"","pricing_plan_id":"cebpf4jnsgd1na2vs0mg"},{"bike_id":"4f460252-7508-4e42-a579-7c51618604e0","system_id":"levelo_inurba_marseille","lat":43.292602,"lon":5.384431,"is_reserved":false,"is_disabled":false,"rental_uris":{"android":"levelo://app?vid=4f460252-7508-4e42-a579-7c51618604e0","ios":"levelo://app?vid=4f460252-7508-4e42-a579-7c51618604e0"},"vehicle_type_id":"4","last_reported":1749575375,"current_range_meters":10000,"station_id":"ce4bh692rcd13ifvqea0","pricing_plan_id":"cebpf4jnsgd1na2vs0mg"},{"bike_id":"f4cbc844-5d4d-40ae-bce8-4f895373c420","system_id":"levelo_inurba_marseille","lat":43.28405,"lon":5.34986,"is_reserved":false,"is_disabled":false,"rental_uris":{"android":"levelo://app?vid=f4cbc844-5d4d-40ae-bce8-4f895373c420","ios":"levelo://app?vid=f4cbc844-5d4d-40ae-bce8-4f895373c420"},"vehicle_type_id":"4","last_reported":1749575375,"current_range_meters":10000,"station_id":"ce4bhbh2rcd13ifvqepg","pricing_plan_id":"cebpf4jnsgd1na2vs0mg"},{"bike_id":"4e643616-64a8-4cb4-a699-5c99f31870eb","system_id":"levelo_inurba_marseille","lat":43.2174,"lon":5.34607,"is_reserved":false,"is_disabled":false,"rental_uris":{"android":"levelo://app?vid=4e643616-64a8-4cb4-a699-5c99f31870eb","ios":"levelo://app?vid=4e643616-64a8-4cb4-a699-5c99f31870eb"},"vehicle_type_id":"4","last_reported":1749575375,"current_range_meters":10000,"station_id":"st_cvj6r9ubvosntc0bgbag","pricing_plan_id":"cebpf4jnsgd1na2vs0mg"},{"bike_id":"03935370-b71f-4e23-9b1a-ab07f7ff92b3","system_id":"levelo_inurba_marseille","lat":43.28662,"lon":5.38666,"is_reserved":false,"is_disabled":false,"rental_uris":{"android":"levelo://app?vid=03935370-b71f-4e23-9b1a-ab07f7ff92b3","ios":"levelo://app?vid=03935370-b71f-4e23-9b1a-ab07f7ff92b3"},"vehicle_type_id":"4","last_reported":1749575375,"current_range_meters":10800,"station_id":"ce4bh492rcd13ifvqdug","pricing_plan_id":"cebpf4jnsgd1na2vs0mg"},{"bike_id":"9d4972cd-88db-439d-89b4-161afd43d722","system_id":"levelo_inurba_marseille","lat":43.31521,"lon":5.38031,"is_reserved":false,"is_disabled":false,"rental_uris":{"android":"levelo://app?vid=9d4972cd-88db-439d-89b4-161afd43d722","ios":"levelo://app?vid=9d4972cd-88db-439d-89b4-161afd43d722"},"vehicle_type_id":"4","last_reported":1749575375,"current_range_meters":10800,"station_id":"ce4bhsp2rcd13ifvqi50","pricing_plan_id":"cebpf4jnsgd1na2vs0mg"},{"bike_id":"1b760162-f793-424a-a929-ef3cd8eff0f8","system_id":"levelo_inurba_marseille","lat":43.28598,"lon":5.37078,"is_reserved":false,"is_disabled":false,"rental_uris":{"android":"levelo://app?vid=1b760162-f793-424a-a929-ef3cd8eff0f8","ios":"levelo://app?vid=1b760162-f793-424a-a929-ef3cd8eff0f8"},"vehicle_type_id":"4","last_reported":1749575375,"current_range_meters":10800,"station_id":"ce4bht12rcd13ifvqi60","pricing_plan_id":"cebpf4jnsgd1na2vs0mg"},{"bike_id":"5077581b-cebb-46fc-ba69-4fa8272d4810","system_id":"levelo_inurba_marseille","lat":43.213644,"lon":5.355159,"is_reserved":false,"is_disabled":false,"rental_uris":{"android":"levelo://app?vid=5077581b-cebb-46fc-ba69-4fa8272d4810","ios":"levelo://app?vid=5077581b-cebb-46fc-ba69-4fa8272d4810"},"vehicle_type_id":"4","last_reported":1749575375,"current_range_meters":10800,"station_id":"","pricing_plan_id":"cebpf4jnsgd1na2vs0mg"},{"bike_id":"ef555bdb-3115-4b1f-9398-9c76776e1204","system_id":"levelo_inurba_marseille","lat":43.26049,"lon":5.37417,"is_reserved":false,"is_disabled":false,"rental_uris":{"android":"levelo://app?vid=ef555bdb-3115-4b1f-9398-9c76776e1204","ios":"levelo://app?vid=ef555bdb-3115-4b1f-9398-9c76776e1204"},"vehicle_type_id":"4","last_reported":1749575375,"current_range_meters":10800,"station_id":"","pricing_plan_id":"cebpf4jnsgd1na2vs0mg"},{"bike_id":"b940f1d9-c915-4a72-9bbb-0a862bd9d716","system_id":"levelo_inurba_marseille","lat":43.276182,"lon":5.361093,"is_reserved":false,"is_disabled":false,"rental_uris":{"android":"levelo://app?vid=b940f1d9-c915-4a72-9bbb-0a862bd9d716","ios":"levelo://app?vid=b940f1d9-c915-4a72-9bbb-0a862bd9d716"},"vehicle_type_id":"4","last_reported":1749575375,"current_range_meters":10800,"station_id":"","pricing_plan_id":"cebpf4jnsgd1na2vs0mg"},{"bike_id":"6890b9e2-87e1-40b6-9e0f-8af99f456400","system_id":"levelo_inurba_marseille","lat":43.29607,"lon":5.38071,"is_reserved":false,"is_disabled":true,"rental_uris":{"android":"levelo://app?vid=6890b9e2-87e1-40b6-9e0f-8af99f456400","ios":"levelo://app?vid=6890b9e2-87e1-40b6-9e0f-8af99f456400"},"vehicle_type_id":"4","last_reported":1749575375,"current_range_meters":10800,"station_id":"ce4bgl12rcd13ifvqbo0","pricing_plan_id":"cebpf4jnsgd1na2vs0mg"},{"bike_id":"31f9b1dc-0543-44a4-b179-28aa09addd54","system_id":"levelo_inurba_marseille","lat":43.299348,"lon":5.365604,"is_reserved":false,"is_disabled":false,"rental_uris":{"android":"levelo://app?vid=31f9b1dc-0543-44a4-b179-28aa09addd54","ios":"levelo://app?vid=31f9b1dc-0543-44a4-b179-28aa09addd54"},"vehicle_type_id":"4","last_reported":1749575375,"current_range_meters":10800,"station_id":"ce4bgm92rcd13ifvqbr0","pricing_plan_id":"cebpf4jnsgd1na2vs0mg"},{"bike_id":"18e35e35-6ac6-4f1a-af21-47d3e1d9f733","system_id":"levelo_inurba_marseille","lat":43.31687,"lon":5.4047,"is_reserved":false,"is_disabled":false,"rental_uris":{"android":"levelo://app?vid=18e35e35-6ac6-4f1a-af21-47d3e1d9f733","ios":"levelo://app?vid=18e35e35-6ac6-4f1a-af21-47d3e1d9f733"},"vehicle_type_id":"4","last_reported":1749575375,"current_range_meters":10800,"station_id":"ce4bh012rcd13ifvqd00","pricing_plan_id":"cebpf4jnsgd1na2vs0mg"},{"bike_id":"1b71e72b-60aa-449b-9cd8-875416611036","system_id":"levelo_inurba_marseille","lat":43.23149,"lon":5.43725,"is_reserved":false,"is_disabled":false,"rental_uris":{"android":"levelo://app?vid=1b71e72b-60aa-449b-9cd8-875416611036","ios":"levelo://app?vid=1b71e72b-60aa-449b-9cd8-875416611036"},"vehicle_type_id":"4","last_reported":1749575375,"current_range_meters":10800,"station_id":"ce4bhmp2rcd13ifvqgog","pricing_plan_id":"cebpf4jnsgd1na2vs0mg"},{"bike_id":"dbcc659a-01d1-4b9c-81be-52e12e15e31f","system_id":"levelo_inurba_marseille","lat":43.28994,"lon":5.35608,"is_reserved":false,"is_disabled":false,"rental_uris":{"android":"levelo://app?vid=dbcc659a-01d1-4b9c-81be-52e12e15e31f","ios":"levelo://app?vid=dbcc659a-01d1-4b9c-81be-52e12e15e31f"},"vehicle_type_id":"4","last_reported":1749575375,"current_range_meters":11200,"station_id":"ce4bhb92rcd13ifvqen0","pricing_plan_id":"cebpf4jnsgd1na2vs0mg"},{"bike_id":"906eb6ed-d01f-4a81-9853-4852d0982d4d","system_id":"levelo_inurba_marseille","lat":43.262,"lon":5.37924,"is_reserved":false,"is_disabled":false,"rental_uris":{"android":"levelo://app?vid=906eb6ed-d01f-4a81-9853-4852d0982d4d","ios":"levelo://app?vid=906eb6ed-d01f-4a81-9853-4852d0982d4d"},"vehicle_type_id":"4","last_reported":1749575375,"current_range_meters":11200,"station_id":"ce4bhjp2rcd13ifvqg90","pricing_plan_id":"cebpf4jnsgd1na2vs0mg"},{"bike_id":"84c084c2-0efc-4d41-bba9-e5fc983b96c5","system_id":"levelo_inurba_marseille","lat":43.29043,"lon":5.35909,"is_reserved":false,"is_disabled":false,"rental_uris":{"android":"levelo://app?vid=84c084c2-0efc-4d41-bba9-e5fc983b96c5","ios":"levelo://app?vid=84c084c2-0efc-4d41-bba9-e5fc983b96c5"},"vehicle_type_id":"4","last_reported":1749575375,"current_range_meters":11200,"station_id":"ce4bha92rcd13ifvqeg0","pricing_plan_id":"cebpf4jnsgd1na2vs0mg"},{"bike_id":"347c65d6-be30-40c0-b6c4-2b0db662fbc7","system_id":"levelo_inurba_marseille","lat":43.29549,"lon":5.42285,"is_reserved":false,"is_disabled":false,"rental_uris":{"android":"levelo://app?vid=347c65d6-be30-40c0-b6c4-2b0db662fbc7","ios":"levelo://app?vid=347c65d6-be30-40c0-b6c4-2b0db662fbc7"},"vehicle_type_id":"4","last_reported":1749575375,"current_range_meters":11200,"station_id":"ce4bhph2rcd13ifvqhdg","pricing_plan_id":"cebpf4jnsgd1na2vs0mg"},{"bike_id":"b14a12bb-0b8d-47f0-b51f-297c57c8692a","system_id":"levelo_inurba_marseille","lat":43.30782,"lon":5.37654,"is_reserved":false,"is_disabled":false,"rental_uris":{"android":"levelo://app?vid=b14a12bb-0b8d-47f0-b51f-297c57c8692a","ios":"levelo://app?vid=b14a12bb-0b8d-47f0-b51f-297c57c8692a"},"vehicle_type_id":"4","last_reported":1749575375,"current_range_meters":11200,"station_id":"ce4bgv92rcd13ifvqcq0","pricing_plan_id":"cebpf4jnsgd1na2vs0mg"},{"bike_id":"2fb82a4e-0ee1-4839-87e1-0819fb18ed3d","system_id":"levelo_inurba_marseille","lat":43.27077,"lon":5.42276,"is_reserved":false,"is_disabled":true,"rental_uris":{"android":"levelo://app?vid=2fb82a4e-0ee1-4839-87e1-0819fb18ed3d","ios":"levelo://app?vid=2fb82a4e-0ee1-4839-87e1-0819fb18ed3d"},"vehicle_type_id":"4","last_reported":1749575375,"current_range_meters":11200,"station_id":"ce4bhk92rcd13ifvqgb0","pricing_plan_id":"cebpf4jnsgd1na2vs0mg"},{"bike_id":"274aaed7-8393-47ab-b2a0-23266ecde0a7","system_id":"levelo_inurba_marseille","lat":43.23193,"lon":5.35552,"is_reserved":false,"is_disabled":false,"rental_uris":{"android":"levelo://app?vid=274aaed7-8393-47ab-b2a0-23266ecde0a7","ios":"levelo://app?vid=274aaed7-8393-47ab-b2a0-23266ecde0a7"},"vehicle_type_id":"4","last_reported":1749575375,"current_range_meters":11200,"station_id":"ce4bhu92rcd13ifvqi70","pricing_plan_id":"cebpf4jnsgd1na2vs0mg"},{"bike_id":"2fb77abd-3112-4fce-99a6-71b8052ec74f","system_id":"levelo_inurba_marseille","lat":43.27935,"lon":5.4106,"is_reserved":false,"is_disabled":false,"rental_uris":{"android":"levelo://app?vid=2fb77abd-3112-4fce-99a6-71b8052ec74f","ios":"levelo://app?vid=2fb77abd-3112-4fce-99a6-71b8052ec74f"},"vehicle_type_id":"4","last_reported":1749575375,"current_range_meters":11600,"station_id":"ce4bhnp2rcd13ifvqh0g","pricing_plan_id":"cebpf4jnsgd1na2vs0mg"},{"bike_id":"0762674f-1e89-4d4c-aa36-9ccaf8f24fa7","system_id":"levelo_inurba_marseille","lat":43.28427,"lon":5.34995,"is_reserved":false,"is_disabled":false,"rental_uris":{"android":"levelo://app?vid=0762674f-1e89-4d4c-aa36-9ccaf8f24fa7","ios":"levelo://app?vid=0762674f-1e89-4d4c-aa36-9ccaf8f24fa7"},"vehicle_type_id":"4","last_reported":1749575375,"current_range_meters":11600,"station_id":"ce4bhbh2rcd13ifvqepg","pricing_plan_id":"cebpf4jnsgd1na2vs0mg"},{"bike_id":"c96b2cb2-0df6-4ee8-992d-1c437bf5786b","system_id":"levelo_inurba_marseille","lat":43.270588,"lon":5.402599,"is_reserved":false,"is_disabled":true,"rental_uris":{"android":"levelo://app?vid=c96b2cb2-0df6-4ee8-992d-1c437bf5786b","ios":"levelo://app?vid=c96b2cb2-0df6-4ee8-992d-1c437bf5786b"},"vehicle_type_id":"4","last_reported":1749575375,"current_range_meters":11600,"station_id":"ce4bhk92rcd13ifvqgc0","pricing_plan_id":"cebpf4jnsgd1na2vs0mg"},{"bike_id":"44347249-2dc3-4dff-90ad-35fb4a796bb1","system_id":"levelo_inurba_marseille","lat":43.28275,"lon":5.35053,"is_reserved":false,"is_disabled":false,"rental_uris":{"android":"levelo://app?vid=44347249-2dc3-4dff-90ad-35fb4a796bb1","ios":"levelo://app?vid=44347249-2dc3-4dff-90ad-35fb4a796bb1"},"vehicle_type_id":"4","last_reported":1749575375,"current_range_meters":11600,"station_id":"ce4bhbp2rcd13ifvqerg","pricing_plan_id":"cebpf4jnsgd1na2vs0mg"},{"bike_id":"ba185aaa-30d9-4450-b59c-f9108896a189","system_id":"levelo_inurba_marseille","lat":43.27947,"lon":5.41039,"is_reserved":false,"is_disabled":false,"rental_uris":{"android":"levelo://app?vid=ba185aaa-30d9-4450-b59c-f9108896a189","ios":"levelo://app?vid=ba185aaa-30d9-4450-b59c-f9108896a189"},"vehicle_type_id":"4","last_reported":1749575375,"current_range_meters":11600,"station_id":"ce4bhnp2rcd13ifvqh0g","pricing_plan_id":"cebpf4jnsgd1na2vs0mg"},{"bike_id":"6928e466-519a-43b8-8ee0-554ccb89f881","system_id":"levelo_inurba_marseille","lat":43.2844,"lon":5.34964,"is_reserved":false,"is_disabled":false,"rental_uris":{"android":"levelo://app?vid=6928e466-519a-43b8-8ee0-554ccb89f881","ios":"levelo://app?vid=6928e466-519a-43b8-8ee0-554ccb89f881"},"vehicle_type_id":"4","last_reported":1749575375,"current_range_meters":12000,"station_id":"ce4bhbh2rcd13ifvqepg","pricing_plan_id":"cebpf4jnsgd1na2vs0mg"},{"bike_id":"b323ce18-6ea8-4a24-8888-4341d364e764","system_id":"levelo_inurba_marseille","lat":43.29428,"lon":5.37424,"is_reserved":false,"is_disabled":false,"rental_uris":{"android":"levelo://app?vid=b323ce18-6ea8-4a24-8888-4341d364e764","ios":"levelo://app?vid=b323ce18-6ea8-4a24-8888-4341d364e764"},"vehicle_type_id":"4","last_reported":1749575375,"current_range_meters":12400,"station_id":"","pricing_plan_id":"cebpf4jnsgd1na2vs0mg"},{"bike_id":"9457ba94-6ebf-469b-87de-2509dea5233c","system_id":"levelo_inurba_marseille","lat":43.2955,"lon":5.4229,"is_reserved":false,"is_disabled":false,"rental_uris":{"android":"levelo://app?vid=9457ba94-6ebf-469b-87de-2509dea5233c","ios":"levelo://app?vid=9457ba94-6ebf-469b-87de-2509dea5233c"},"vehicle_type_id":"4","last_reported":1749575375,"current_range_meters":12000,"station_id":"ce4bhph2rcd13ifvqhdg","pricing_plan_id":"cebpf4jnsgd1na2vs0mg"},{"bike_id":"ceb92754-fee7-445f-88ad-1f8ef7e235d4","system_id":"levelo_inurba_marseille","lat":43.30136,"lon":5.3985,"is_reserved":false,"is_disabled":false,"rental_uris":{"android":"levelo://app?vid=ceb92754-fee7-445f-88ad-1f8ef7e235d4","ios":"levelo://app?vid=ceb92754-fee7-445f-88ad-1f8ef7e235d4"},"vehicle_type_id":"4","last_reported":1749575375,"current_range_meters":12000,"station_id":"ce4bh0h2rcd13ifvqd40","pricing_plan_id":"cebpf4jnsgd1na2vs0mg"},{"bike_id":"e149318b-0d4e-4f17-b3e4-637b5abd4db7","system_id":"levelo_inurba_marseille","lat":43.31712,"lon":5.43704,"is_reserved":false,"is_disabled":false,"rental_uris":{"android":"levelo://app?vid=e149318b-0d4e-4f17-b3e4-637b5abd4db7","ios":"levelo://app?vid=e149318b-0d4e-4f17-b3e4-637b5abd4db7"},"vehicle_type_id":"4","last_reported":1749575375,"current_range_meters":12000,"station_id":"ce4bhp92rcd13ifvqhcg","pricing_plan_id":"cebpf4jnsgd1na2vs0mg"},{"bike_id":"7d4284e5-9c39-4014-988e-b5779671dd40","system_id":"levelo_inurba_marseille","lat":43.27564,"lon":5.38433,"is_reserved":false,"is_disabled":false,"rental_uris":{"android":"levelo://app?vid=7d4284e5-9c39-4014-988e-b5779671dd40","ios":"levelo://app?vid=7d4284e5-9c39-4014-988e-b5779671dd40"},"vehicle_type_id":"4","last_reported":1749575375,"current_range_meters":12000,"station_id":"ce4bhh92rcd13ifvqfi0","pricing_plan_id":"cebpf4jnsgd1na2vs0mg"},{"bike_id":"ca27e12a-1f2d-4cf2-be29-12a2b9ff1547","system_id":"levelo_inurba_marseille","lat":43.31702,"lon":5.42415,"is_reserved":false,"is_disabled":false,"rental_uris":{"android":"levelo://app?vid=ca27e12a-1f2d-4cf2-be29-12a2b9ff1547","ios":"levelo://app?vid=ca27e12a-1f2d-4cf2-be29-12a2b9ff1547"},"vehicle_type_id":"4","last_reported":1749575375,"current_range_meters":12000,"station_id":"ce4bhp92rcd13ifvqhbg","pricing_plan_id":"cebpf4jnsgd1na2vs0mg"},{"bike_id":"b2dbaebe-f09d-4ada-883c-68ddac50b155","system_id":"levelo_inurba_marseille","lat":43.24072,"lon":5.37765,"is_reserved":false,"is_disabled":false,"rental_uris":{"android":"levelo://app?vid=b2dbaebe-f09d-4ada-883c-68ddac50b155","ios":"levelo://app?vid=b2dbaebe-f09d-4ada-883c-68ddac50b155"},"vehicle_type_id":"4","last_reported":1749575375,"current_range_meters":12400,"station_id":"ce4bhnp2rcd13ifvqgvg","pricing_plan_id":"cebpf4jnsgd1na2vs0mg"},{"bike_id":"8577ef59-ceb9-40a9-89f4-9cd916ba9acd","system_id":"levelo_inurba_marseille","lat":43.28153,"lon":5.42644,"is_reserved":false,"is_disabled":false,"rental_uris":{"android":"levelo://app?vid=8577ef59-ceb9-40a9-89f4-9cd916ba9acd","ios":"levelo://app?vid=8577ef59-ceb9-40a9-89f4-9cd916ba9acd"},"vehicle_type_id":"4","last_reported":1749575375,"current_range_meters":12400,"station_id":"ce4bhnh2rcd13ifvqgug","pricing_plan_id":"cebpf4jnsgd1na2vs0mg"},{"bike_id":"1e11feb0-0a6e-4b0e-aa98-d035d3992658","system_id":"levelo_inurba_marseille","lat":43.32488,"lon":5.4242,"is_reserved":false,"is_disabled":false,"rental_uris":{"android":"levelo://app?vid=1e11feb0-0a6e-4b0e-aa98-d035d3992658","ios":"levelo://app?vid=1e11feb0-0a6e-4b0e-aa98-d035d3992658"},"vehicle_type_id":"4","last_reported":1749575375,"current_range_meters":12400,"station_id":"","pricing_plan_id":"cebpf4jnsgd1na2vs0mg"},{"bike_id":"bd35d159-cfd8-454c-a81a-2e1443017f71","system_id":"levelo_inurba_marseille","lat":43.2582,"lon":5.39433,"is_reserved":false,"is_disabled":false,"rental_uris":{"android":"levelo://app?vid=bd35d159-cfd8-454c-a81a-2e1443017f71","ios":"levelo://app?vid=bd35d159-cfd8-454c-a81a-2e1443017f71"},"vehicle_type_id":"4","last_reported":1749575375,"current_range_meters":12400,"station_id":"ce4bhip2rcd13ifvqft0","pricing_plan_id":"cebpf4jnsgd1na2vs0mg"},{"bike_id":"7f4f4bc2-98c3-41c7-bd7f-04f07908beac","system_id":"levelo_inurba_marseille","lat":43.30648,"lon":5.40098,"is_reserved":false,"is_disabled":false,"rental_uris":{"android":"levelo://app?vid=7f4f4bc2-98c3-41c7-bd7f-04f07908beac","ios":"levelo://app?vid=7f4f4bc2-98c3-41c7-bd7f-04f07908beac"},"vehicle_type_id":"4","last_reported":1749575375,"current_range_meters":12800,"station_id":"ce4bh112rcd13ifvqda0","pricing_plan_id":"cebpf4jnsgd1na2vs0mg"},{"bike_id":"187b0a7b-e256-4c19-9794-bb250a6c5653","system_id":"levelo_inurba_marseille","lat":43.31857,"lon":5.37954,"is_reserved":false,"is_disabled":false,"rental_uris":{"android":"levelo://app?vid=187b0a7b-e256-4c19-9794-bb250a6c5653","ios":"levelo://app?vid=187b0a7b-e256-4c19-9794-bb250a6c5653"},"vehicle_type_id":"4","last_reported":1749575375,"current_range_meters":12800,"station_id":"","pricing_plan_id":"cebpf4jnsgd1na2vs0mg"},{"bike_id":"3774ff9f-250f-4e20-8d5b-d03dc067e05f","system_id":"levelo_inurba_marseille","lat":43.29167,"lon":5.37151,"is_reserved":false,"is_disabled":false,"rental_uris":{"android":"levelo://app?vid=3774ff9f-250f-4e20-8d5b-d03dc067e05f","ios":"levelo://app?vid=3774ff9f-250f-4e20-8d5b-d03dc067e05f"},"vehicle_type_id":"4","last_reported":1749575375,"current_range_meters":12800,"station_id":"ce4bha92rcd13ifvqeh0","pricing_plan_id":"cebpf4jnsgd1na2vs0mg"},{"bike_id":"c80b951c-40ca-49ec-bb96-9b23afa6204e","system_id":"levelo_inurba_marseille","lat":43.28609,"lon":5.35104,"is_reserved":false,"is_disabled":false,"rental_uris":{"android":"levelo://app?vid=c80b951c-40ca-49ec-bb96-9b23afa6204e","ios":"levelo://app?vid=c80b951c-40ca-49ec-bb96-9b23afa6204e"},"vehicle_type_id":"4","last_reported":1749575375,"current_range_meters":13600,"station_id":"","pricing_plan_id":"cebpf4jnsgd1na2vs0mg"},{"bike_id":"15138ce4-9850-4a09-9eb2-0da12393d0d8","system_id":"levelo_inurba_marseille","lat":43.31719,"lon":5.43691,"is_reserved":false,"is_disabled":false,"rental_uris":{"android":"levelo://app?vid=15138ce4-9850-4a09-9eb2-0da12393d0d8","ios":"levelo://app?vid=15138ce4-9850-4a09-9eb2-0da12393d0d8"},"vehicle_type_id":"4","last_reported":1749575375,"current_range_meters":13600,"station_id":"ce4bhp92rcd13ifvqhcg","pricing_plan_id":"cebpf4jnsgd1na2vs0mg"},{"bike_id":"f1d368ee-0661-491a-8474-0017e0b891a3","system_id":"levelo_inurba_marseille","lat":43.2861,"lon":5.35104,"is_reserved":false,"is_disabled":false,"rental_uris":{"android":"levelo://app?vid=f1d368ee-0661-491a-8474-0017e0b891a3","ios":"levelo://app?vid=f1d368ee-0661-491a-8474-0017e0b891a3"},"vehicle_type_id":"4","last_reported":1749575375,"current_range_meters":14000,"station_id":"ce4bhch2rcd13ifvqeug","pricing_plan_id":"cebpf4jnsgd1na2vs0mg"},{"bike_id":"5ed59d18-4784-4e93-beab-3591f6a05ba3","system_id":"levelo_inurba_marseille","lat":43.29058,"lon":5.35906,"is_reserved":false,"is_disabled":false,"rental_uris":{"android":"levelo://app?vid=5ed59d18-4784-4e93-beab-3591f6a05ba3","ios":"levelo://app?vid=5ed59d18-4784-4e93-beab-3591f6a05ba3"},"vehicle_type_id":"4","last_reported":1749575375,"current_range_meters":14000,"station_id":"ce4bha92rcd13ifvqeg0","pricing_plan_id":"cebpf4jnsgd1na2vs0mg"},{"bike_id":"03987622-f916-4e09-b1fb-b388037295a5","system_id":"levelo_inurba_marseille","lat":43.23952,"lon":5.36655,"is_reserved":false,"is_disabled":false,"rental_uris":{"android":"levelo://app?vid=03987622-f916-4e09-b1fb-b388037295a5","ios":"levelo://app?vid=03987622-f916-4e09-b1fb-b388037295a5"},"vehicle_type_id":"4","last_reported":1749575375,"current_range_meters":14000,"station_id":"ce4bhi12rcd13ifvqfp0","pricing_plan_id":"cebpf4jnsgd1na2vs0mg"},{"bike_id":"1e20f032-0f6a-40b2-ad29-e4d2225496fa","system_id":"levelo_inurba_marseille","lat":43.30283,"lon":5.37053,"is_reserved":false,"is_disabled":false,"rental_uris":{"android":"levelo://app?vid=1e20f032-0f6a-40b2-ad29-e4d2225496fa","ios":"levelo://app?vid=1e20f032-0f6a-40b2-ad29-e4d2225496fa"},"vehicle_type_id":"4","last_reported":1749575375,"current_range_meters":14000,"station_id":"","pricing_plan_id":"cebpf4jnsgd1na2vs0mg"},{"bike_id":"ab5d796b-6f87-4b6e-a5bd-6ac051fcacd1","system_id":"levelo_inurba_marseille","lat":43.3245,"lon":5.36578,"is_reserved":false,"is_disabled":false,"rental_uris":{"android":"levelo://app?vid=ab5d796b-6f87-4b6e-a5bd-6ac051fcacd1","ios":"levelo://app?vid=ab5d796b-6f87-4b6e-a5bd-6ac051fcacd1"},"vehicle_type_id":"4","last_reported":1749575375,"current_range_meters":14000,"station_id":"ce4bhs12rcd13ifvqhvg","pricing_plan_id":"cebpf4jnsgd1na2vs0mg"},{"bike_id":"3ae11694-05ae-42de-b208-44bc302f4eb5","system_id":"levelo_inurba_marseille","lat":43.28461,"lon":5.35889,"is_reserved":false,"is_disabled":false,"rental_uris":{"android":"levelo://app?vid=3ae11694-05ae-42de-b208-44bc302f4eb5","ios":"levelo://app?vid=3ae11694-05ae-42de-b208-44bc302f4eb5"},"vehicle_type_id":"4","last_reported":1749575375,"current_range_meters":14000,"station_id":"ce4bhah2rcd13ifvqei0","pricing_plan_id":"cebpf4jnsgd1na2vs0mg"},{"bike_id":"f911228b-c945-4572-85c1-20ca54aaa628","system_id":"levelo_inurba_marseille","lat":43.292174,"lon":5.360527,"is_reserved":false,"is_disabled":false,"rental_uris":{"android":"levelo://app?vid=f911228b-c945-4572-85c1-20ca54aaa628","ios":"levelo://app?vid=f911228b-c945-4572-85c1-20ca54aaa628"},"vehicle_type_id":"4","last_reported":1749575375,"current_range_meters":14400,"station_id":"ce4bhbh2rcd13ifvqeqg","pricing_plan_id":"cebpf4jnsgd1na2vs0mg"},{"bike_id":"8b50e97d-f6cb-414d-aa53-bc309cbf12bc","system_id":"levelo_inurba_marseille","lat":43.27988,"lon":5.41658,"is_reserved":false,"is_disabled":false,"rental_uris":{"android":"levelo://app?vid=8b50e97d-f6cb-414d-aa53-bc309cbf12bc","ios":"levelo://app?vid=8b50e97d-f6cb-414d-aa53-bc309cbf12bc"},"vehicle_type_id":"4","last_reported":1749575375,"current_range_meters":14400,"station_id":"ce4bho12rcd13ifvqh1g","pricing_plan_id":"cebpf4jnsgd1na2vs0mg"},{"bike_id":"c30dbedc-c866-492b-a092-32c1ee0c1f22","system_id":"levelo_inurba_marseille","lat":43.29525,"lon":5.38554,"is_reserved":false,"is_disabled":true,"rental_uris":{"android":"levelo://app?vid=c30dbedc-c866-492b-a092-32c1ee0c1f22","ios":"levelo://app?vid=c30dbedc-c866-492b-a092-32c1ee0c1f22"},"vehicle_type_id":"4","last_reported":1749575375,"current_range_meters":14400,"station_id":"ce4bgih2rcd13ifvqba0","pricing_plan_id":"cebpf4jnsgd1na2vs0mg"},{"bike_id":"5325cc54-7b71-4ef5-90b8-f0bc1cf1c3a6","system_id":"levelo_inurba_marseille","lat":43.289389,"lon":5.366395,"is_reserved":false,"is_disabled":false,"rental_uris":{"android":"levelo://app?vid=5325cc54-7b71-4ef5-90b8-f0bc1cf1c3a6","ios":"levelo://app?vid=5325cc54-7b71-4ef5-90b8-f0bc1cf1c3a6"},"vehicle_type_id":"4","last_reported":1749575375,"current_range_meters":14400,"station_id":"ce4bhbh2rcd13ifvqeo0","pricing_plan_id":"cebpf4jnsgd1na2vs0mg"},{"bike_id":"4b868397-bf69-4a02-b504-89c964341b72","system_id":"levelo_inurba_marseille","lat":43.25578,"lon":5.38234,"is_reserved":false,"is_disabled":false,"rental_uris":{"android":"levelo://app?vid=4b868397-bf69-4a02-b504-89c964341b72","ios":"levelo://app?vid=4b868397-bf69-4a02-b504-89c964341b72"},"vehicle_type_id":"4","last_reported":1749575375,"current_range_meters":14400,"station_id":"ce4bhih2rcd13ifvqfs0","pricing_plan_id":"cebpf4jnsgd1na2vs0mg"},{"bike_id":"24eccfdd-9e48-4bd1-aee0-d51a4dae0f04","system_id":"levelo_inurba_marseille","lat":43.28988,"lon":5.355574,"is_reserved":false,"is_disabled":false,"rental_uris":{"android":"levelo://app?vid=24eccfdd-9e48-4bd1-aee0-d51a4dae0f04","ios":"levelo://app?vid=24eccfdd-9e48-4bd1-aee0-d51a4dae0f04"},"vehicle_type_id":"4","last_reported":1749575375,"current_range_meters":14400,"station_id":"ce4bhb92rcd13ifvqen0","pricing_plan_id":"cebpf4jnsgd1na2vs0mg"},{"bike_id":"63eb1391-4cd8-440a-afb5-cfe716e67f86","system_id":"levelo_inurba_marseille","lat":43.29796,"lon":5.40398,"is_reserved":false,"is_disabled":false,"rental_uris":{"android":"levelo://app?vid=63eb1391-4cd8-440a-afb5-cfe716e67f86","ios":"levelo://app?vid=63eb1391-4cd8-440a-afb5-cfe716e67f86"},"vehicle_type_id":"4","last_reported":1749575375,"current_range_meters":14400,"station_id":"ce4bh112rcd13ifvqd90","pricing_plan_id":"cebpf4jnsgd1na2vs0mg"},{"bike_id":"8e1895e8-f102-4cf2-b40e-b15e855d0379","system_id":"levelo_inurba_marseille","lat":43.27939,"lon":5.41039,"is_reserved":false,"is_disabled":false,"rental_uris":{"android":"levelo://app?vid=8e1895e8-f102-4cf2-b40e-b15e855d0379","ios":"levelo://app?vid=8e1895e8-f102-4cf2-b40e-b15e855d0379"},"vehicle_type_id":"4","last_reported":1749575375,"current_range_meters":14400,"station_id":"ce4bhnp2rcd13ifvqh0g","pricing_plan_id":"cebpf4jnsgd1na2vs0mg"},{"bike_id":"836ed467-c842-44c1-838e-9c08e4d499e1","system_id":"levelo_inurba_marseille","lat":43.28728,"lon":5.37927,"is_reserved":false,"is_disabled":false,"rental_uris":{"android":"levelo://app?vid=836ed467-c842-44c1-838e-9c08e4d499e1","ios":"levelo://app?vid=836ed467-c842-44c1-838e-9c08e4d499e1"},"vehicle_type_id":"4","last_reported":1749575375,"current_range_meters":14400,"station_id":"ce4bh9p2rcd13ifvqec0","pricing_plan_id":"cebpf4jnsgd1na2vs0mg"},{"bike_id":"1112870b-7d61-4c5e-867e-015df8afa9c0","system_id":"levelo_inurba_marseille","lat":43.28404,"lon":5.34992,"is_reserved":false,"is_disabled":false,"rental_uris":{"android":"levelo://app?vid=1112870b-7d61-4c5e-867e-015df8afa9c0","ios":"levelo://app?vid=1112870b-7d61-4c5e-867e-015df8afa9c0"},"vehicle_type_id":"4","last_reported":1749575375,"current_range_meters":14800,"station_id":"ce4bhbh2rcd13ifvqepg","pricing_plan_id":"cebpf4jnsgd1na2vs0mg"},{"bike_id":"f5f16818-4fcf-43e7-bf7e-433957b0d89c","system_id":"levelo_inurba_marseille","lat":43.30146,"lon":5.38065,"is_reserved":false,"is_disabled":false,"rental_uris":{"android":"levelo://app?vid=f5f16818-4fcf-43e7-bf7e-433957b0d89c","ios":"levelo://app?vid=f5f16818-4fcf-43e7-bf7e-433957b0d89c"},"vehicle_type_id":"4","last_reported":1749575375,"current_range_meters":14800,"station_id":"ce4bgjp2rcd13ifvqbh0","pricing_plan_id":"cebpf4jnsgd1na2vs0mg"},{"bike_id":"e61a5abb-c900-4d6e-8217-a46fab06e9f4","system_id":"levelo_inurba_marseille","lat":43.3303,"lon":5.39234,"is_reserved":false,"is_disabled":false,"rental_uris":{"android":"levelo://app?vid=e61a5abb-c900-4d6e-8217-a46fab06e9f4","ios":"levelo://app?vid=e61a5abb-c900-4d6e-8217-a46fab06e9f4"},"vehicle_type_id":"4","last_reported":1749575375,"current_range_meters":15200,"station_id":"","pricing_plan_id":"cebpf4jnsgd1na2vs0mg"},{"bike_id":"1cb49127-83c2-42e5-a0c1-a209212b201e","system_id":"levelo_inurba_marseille","lat":43.28435,"lon":5.35004,"is_reserved":false,"is_disabled":false,"rental_uris":{"android":"levelo://app?vid=1cb49127-83c2-42e5-a0c1-a209212b201e","ios":"levelo://app?vid=1cb49127-83c2-42e5-a0c1-a209212b201e"},"vehicle_type_id":"4","last_reported":1749575375,"current_range_meters":15200,"station_id":"ce4bhbh2rcd13ifvqepg","pricing_plan_id":"cebpf4jnsgd1na2vs0mg"},{"bike_id":"557104e5-12ad-4811-8d87-d8392375329d","system_id":"levelo_inurba_marseille","lat":43.282822,"lon":5.350764,"is_reserved":false,"is_disabled":false,"rental_uris":{"android":"levelo://app?vid=557104e5-12ad-4811-8d87-d8392375329d","ios":"levelo://app?vid=557104e5-12ad-4811-8d87-d8392375329d"},"vehicle_type_id":"4","last_reported":1749575375,"current_range_meters":15200,"station_id":"ce4bhbp2rcd13ifvqerg","pricing_plan_id":"cebpf4jnsgd1na2vs0mg"},{"bike_id":"3b1a103f-3782-4e6f-a220-fe3c249d1b53","system_id":"levelo_inurba_marseille","lat":43.2321,"lon":5.3555,"is_reserved":false,"is_disabled":false,"rental_uris":{"android":"levelo://app?vid=3b1a103f-3782-4e6f-a220-fe3c249d1b53","ios":"levelo://app?vid=3b1a103f-3782-4e6f-a220-fe3c249d1b53"},"vehicle_type_id":"4","last_reported":1749575375,"current_range_meters":15200,"station_id":"ce4bhu92rcd13ifvqi70","pricing_plan_id":"cebpf4jnsgd1na2vs0mg"},{"bike_id":"240c80a5-6a8b-4804-a156-25d29fc5cbe1","system_id":"levelo_inurba_marseille","lat":43.23198,"lon":5.355489,"is_reserved":false,"is_disabled":false,"rental_uris":{"android":"levelo://app?vid=240c80a5-6a8b-4804-a156-25d29fc5cbe1","ios":"levelo://app?vid=240c80a5-6a8b-4804-a156-25d29fc5cbe1"},"vehicle_type_id":"4","last_reported":1749575375,"current_range_meters":15200,"station_id":"ce4bhu92rcd13ifvqi70","pricing_plan_id":"cebpf4jnsgd1na2vs0mg"},{"bike_id":"84f5a926-1dd6-4535-b647-2764ce0ca103","system_id":"levelo_inurba_marseille","lat":43.32128,"lon":5.36821,"is_reserved":false,"is_disabled":false,"rental_uris":{"android":"levelo://app?vid=84f5a926-1dd6-4535-b647-2764ce0ca103","ios":"levelo://app?vid=84f5a926-1dd6-4535-b647-2764ce0ca103"},"vehicle_type_id":"4","last_reported":1749575375,"current_range_meters":15200,"station_id":"ce4bhrh2rcd13ifvqhug","pricing_plan_id":"cebpf4jnsgd1na2vs0mg"},{"bike_id":"08050dbc-7343-415a-a68f-614a83052aa8","system_id":"levelo_inurba_marseille","lat":43.282654,"lon":5.350554,"is_reserved":false,"is_disabled":false,"rental_uris":{"android":"levelo://app?vid=08050dbc-7343-415a-a68f-614a83052aa8","ios":"levelo://app?vid=08050dbc-7343-415a-a68f-614a83052aa8"},"vehicle_type_id":"4","last_reported":1749575375,"current_range_meters":15200,"station_id":"ce4bhbp2rcd13ifvqerg","pricing_plan_id":"cebpf4jnsgd1na2vs0mg"},{"bike_id":"262903a9-22b9-4b2d-96c2-2e5dbd155090","system_id":"levelo_inurba_marseille","lat":43.3246,"lon":5.36553,"is_reserved":false,"is_disabled":false,"rental_uris":{"android":"levelo://app?vid=262903a9-22b9-4b2d-96c2-2e5dbd155090","ios":"levelo://app?vid=262903a9-22b9-4b2d-96c2-2e5dbd155090"},"vehicle_type_id":"4","last_reported":1749575375,"current_range_meters":16000,"station_id":"ce4bhs12rcd13ifvqhvg","pricing_plan_id":"cebpf4jnsgd1na2vs0mg"},{"bike_id":"099b325a-30ef-4475-909d-ca18d2254b4c","system_id":"levelo_inurba_marseille","lat":43.27397,"lon":5.36254,"is_reserved":false,"is_disabled":false,"rental_uris":{"android":"levelo://app?vid=099b325a-30ef-4475-909d-ca18d2254b4c","ios":"levelo://app?vid=099b325a-30ef-4475-909d-ca18d2254b4c"},"vehicle_type_id":"4","last_reported":1749575375,"current_range_meters":16000,"station_id":"ce4bhbh2rcd13ifvqeo0","pricing_plan_id":"cebpf4jnsgd1na2vs0mg"},{"bike_id":"2570b8d2-8993-4a8a-bd9c-bb6b693b3851","system_id":"levelo_inurba_marseille","lat":43.28269,"lon":5.35072,"is_reserved":false,"is_disabled":false,"rental_uris":{"android":"levelo://app?vid=2570b8d2-8993-4a8a-bd9c-bb6b693b3851","ios":"levelo://app?vid=2570b8d2-8993-4a8a-bd9c-bb6b693b3851"},"vehicle_type_id":"4","last_reported":1749575375,"current_range_meters":16000,"station_id":"ce4bhbp2rcd13ifvqerg","pricing_plan_id":"cebpf4jnsgd1na2vs0mg"},{"bike_id":"72befdc9-9f00-42fe-9fa3-196160650a86","system_id":"levelo_inurba_marseille","lat":43.2861,"lon":5.351,"is_reserved":false,"is_disabled":false,"rental_uris":{"android":"levelo://app?vid=72befdc9-9f00-42fe-9fa3-196160650a86","ios":"levelo://app?vid=72befdc9-9f00-42fe-9fa3-196160650a86"},"vehicle_type_id":"4","last_reported":1749575375,"current_range_meters":16000,"station_id":"ce4bhch2rcd13ifvqeug","pricing_plan_id":"cebpf4jnsgd1na2vs0mg"},{"bike_id":"f86c871e-5691-4061-a487-aa146b09dc41","system_id":"levelo_inurba_marseille","lat":43.28402,"lon":5.34999,"is_reserved":false,"is_disabled":false,"rental_uris":{"android":"levelo://app?vid=f86c871e-5691-4061-a487-aa146b09dc41","ios":"levelo://app?vid=f86c871e-5691-4061-a487-aa146b09dc41"},"vehicle_type_id":"4","last_reported":1749575375,"current_range_meters":16000,"station_id":"ce4bhbh2rcd13ifvqepg","pricing_plan_id":"cebpf4jnsgd1na2vs0mg"},{"bike_id":"002ad4e8-6140-4bdd-b14b-f38ee707447e","system_id":"levelo_inurba_marseille","lat":43.30987,"lon":5.38578,"is_reserved":false,"is_disabled":false,"rental_uris":{"android":"levelo://app?vid=002ad4e8-6140-4bdd-b14b-f38ee707447e","ios":"levelo://app?vid=002ad4e8-6140-4bdd-b14b-f38ee707447e"},"vehicle_type_id":"4","last_reported":1749575375,"current_range_meters":16000,"station_id":"","pricing_plan_id":"cebpf4jnsgd1na2vs0mg"},{"bike_id":"4b780e47-5600-4181-984d-00a4c434b562","system_id":"levelo_inurba_marseille","lat":43.2827,"lon":5.35076,"is_reserved":false,"is_disabled":false,"rental_uris":{"android":"levelo://app?vid=4b780e47-5600-4181-984d-00a4c434b562","ios":"levelo://app?vid=4b780e47-5600-4181-984d-00a4c434b562"},"vehicle_type_id":"4","last_reported":1749575375,"current_range_meters":16000,"station_id":"ce4bhbp2rcd13ifvqerg","pricing_plan_id":"cebpf4jnsgd1na2vs0mg"},{"bike_id":"dccbfa25-b2f1-40aa-a661-e566965d32c3","system_id":"levelo_inurba_marseille","lat":43.26935,"lon":5.40256,"is_reserved":false,"is_disabled":false,"rental_uris":{"android":"levelo://app?vid=dccbfa25-b2f1-40aa-a661-e566965d32c3","ios":"levelo://app?vid=dccbfa25-b2f1-40aa-a661-e566965d32c3"},"vehicle_type_id":"4","last_reported":1749575375,"current_range_meters":16400,"station_id":"cjm6bp8fraef2m0cb0m0","pricing_plan_id":"cebpf4jnsgd1na2vs0mg"},{"bike_id":"03b5290d-c596-4067-adda-74fb07463890","system_id":"levelo_inurba_marseille","lat":43.28632,"lon":5.35079,"is_reserved":false,"is_disabled":false,"rental_uris":{"android":"levelo://app?vid=03b5290d-c596-4067-adda-74fb07463890","ios":"levelo://app?vid=03b5290d-c596-4067-adda-74fb07463890"},"vehicle_type_id":"4","last_reported":1749575375,"current_range_meters":16400,"station_id":"ce4bhch2rcd13ifvqeug","pricing_plan_id":"cebpf4jnsgd1na2vs0mg"},{"bike_id":"550f8228-d554-4819-a428-97c5e8f98831","system_id":"levelo_inurba_marseille","lat":43.32528,"lon":5.42506,"is_reserved":false,"is_disabled":false,"rental_uris":{"android":"levelo://app?vid=550f8228-d554-4819-a428-97c5e8f98831","ios":"levelo://app?vid=550f8228-d554-4819-a428-97c5e8f98831"},"vehicle_type_id":"4","last_reported":1749575375,"current_range_meters":16400,"station_id":"","pricing_plan_id":"cebpf4jnsgd1na2vs0mg"},{"bike_id":"e857b26f-e98d-4e5b-a472-9489934cc3bc","system_id":"levelo_inurba_marseille","lat":43.30906,"lon":5.40186,"is_reserved":false,"is_disabled":true,"rental_uris":{"android":"levelo://app?vid=e857b26f-e98d-4e5b-a472-9489934cc3bc","ios":"levelo://app?vid=e857b26f-e98d-4e5b-a472-9489934cc3bc"},"vehicle_type_id":"4","last_reported":1749575375,"current_range_meters":16400,"station_id":"ce4bgvp2rcd13ifvqct0","pricing_plan_id":"cebpf4jnsgd1na2vs0mg"},{"bike_id":"21c32cf0-9fff-4197-8409-5b26012f94c3","system_id":"levelo_inurba_marseille","lat":43.27818,"lon":5.40704,"is_reserved":false,"is_disabled":false,"rental_uris":{"android":"levelo://app?vid=21c32cf0-9fff-4197-8409-5b26012f94c3","ios":"levelo://app?vid=21c32cf0-9fff-4197-8409-5b26012f94c3"},"vehicle_type_id":"4","last_reported":1749575375,"current_range_meters":16400,"station_id":"ce4bhnh2rcd13ifvqgtg","pricing_plan_id":"cebpf4jnsgd1na2vs0mg"},{"bike_id":"0892bce3-a34e-4755-b1cc-a42f48f26fdd","system_id":"levelo_inurba_marseille","lat":43.2842,"lon":5.34981,"is_reserved":false,"is_disabled":false,"rental_uris":{"android":"levelo://app?vid=0892bce3-a34e-4755-b1cc-a42f48f26fdd","ios":"levelo://app?vid=0892bce3-a34e-4755-b1cc-a42f48f26fdd"},"vehicle_type_id":"4","last_reported":1749575375,"current_range_meters":16400,"station_id":"ce4bhbh2rcd13ifvqepg","pricing_plan_id":"cebpf4jnsgd1na2vs0mg"},{"bike_id":"94161ece-74cf-43d1-82d5-33eec33dfee3","system_id":"levelo_inurba_marseille","lat":43.27562,"lon":5.38413,"is_reserved":false,"is_disabled":false,"rental_uris":{"android":"levelo://app?vid=94161ece-74cf-43d1-82d5-33eec33dfee3","ios":"levelo://app?vid=94161ece-74cf-43d1-82d5-33eec33dfee3"},"vehicle_type_id":"4","last_reported":1749575375,"current_range_meters":16400,"station_id":"ce4bhh92rcd13ifvqfi0","pricing_plan_id":"cebpf4jnsgd1na2vs0mg"},{"bike_id":"99a5d009-349f-45d5-b42a-7e6559f03388","system_id":"levelo_inurba_marseille","lat":43.28837,"lon":5.39337,"is_reserved":false,"is_disabled":false,"rental_uris":{"android":"levelo://app?vid=99a5d009-349f-45d5-b42a-7e6559f03388","ios":"levelo://app?vid=99a5d009-349f-45d5-b42a-7e6559f03388"},"vehicle_type_id":"4","last_reported":1749575375,"current_range_meters":16800,"station_id":"ce4bh2p2rcd13ifvqdi0","pricing_plan_id":"cebpf4jnsgd1na2vs0mg"},{"bike_id":"fd71d00a-20f0-46e8-87a5-52389bd91d1b","system_id":"levelo_inurba_marseille","lat":43.27902,"lon":5.37998,"is_reserved":false,"is_disabled":false,"rental_uris":{"android":"levelo://app?vid=fd71d00a-20f0-46e8-87a5-52389bd91d1b","ios":"levelo://app?vid=fd71d00a-20f0-46e8-87a5-52389bd91d1b"},"vehicle_type_id":"4","last_reported":1749575375,"current_range_meters":16800,"station_id":"ce4bhf92rcd13ifvqf50","pricing_plan_id":"cebpf4jnsgd1na2vs0mg"},{"bike_id":"dc0cc1d4-b59d-4f94-9922-0bf0110a5fbb","system_id":"levelo_inurba_marseille","lat":43.28413,"lon":5.34996,"is_reserved":false,"is_disabled":false,"rental_uris":{"android":"levelo://app?vid=dc0cc1d4-b59d-4f94-9922-0bf0110a5fbb","ios":"levelo://app?vid=dc0cc1d4-b59d-4f94-9922-0bf0110a5fbb"},"vehicle_type_id":"4","last_reported":1749575375,"current_range_meters":16800,"station_id":"ce4bhbh2rcd13ifvqepg","pricing_plan_id":"cebpf4jnsgd1na2vs0mg"},{"bike_id":"2fcb640f-b3b1-4ae9-96be-0e973f34634a","system_id":"levelo_inurba_marseille","lat":43.31709,"lon":5.43703,"is_reserved":false,"is_disabled":false,"rental_uris":{"android":"levelo://app?vid=2fcb640f-b3b1-4ae9-96be-0e973f34634a","ios":"levelo://app?vid=2fcb640f-b3b1-4ae9-96be-0e973f34634a"},"vehicle_type_id":"4","last_reported":1749575375,"current_range_meters":16800,"station_id":"ce4bhp92rcd13ifvqhcg","pricing_plan_id":"cebpf4jnsgd1na2vs0mg"},{"bike_id":"b350c8e9-ed32-4415-aae6-ec1b9bd87516","system_id":"levelo_inurba_marseille","lat":43.28663,"lon":5.36355,"is_reserved":false,"is_disabled":false,"rental_uris":{"android":"levelo://app?vid=b350c8e9-ed32-4415-aae6-ec1b9bd87516","ios":"levelo://app?vid=b350c8e9-ed32-4415-aae6-ec1b9bd87516"},"vehicle_type_id":"4","last_reported":1749575375,"current_range_meters":16800,"station_id":"ce4bhah2rcd13ifvqej0","pricing_plan_id":"cebpf4jnsgd1na2vs0mg"},{"bike_id":"ccb89159-81ed-4798-8365-f57798d0dfff","system_id":"levelo_inurba_marseille","lat":43.31164,"lon":5.38714,"is_reserved":false,"is_disabled":false,"rental_uris":{"android":"levelo://app?vid=ccb89159-81ed-4798-8365-f57798d0dfff","ios":"levelo://app?vid=ccb89159-81ed-4798-8365-f57798d0dfff"},"vehicle_type_id":"4","last_reported":1749575375,"current_range_meters":16800,"station_id":"ce4bgv12rcd13ifvqcp0","pricing_plan_id":"cebpf4jnsgd1na2vs0mg"},{"bike_id":"3f23dc14-e967-4f30-a972-8f69894f1ae2","system_id":"levelo_inurba_marseille","lat":43.29417,"lon":5.38624,"is_reserved":false,"is_disabled":false,"rental_uris":{"android":"levelo://app?vid=3f23dc14-e967-4f30-a972-8f69894f1ae2","ios":"levelo://app?vid=3f23dc14-e967-4f30-a972-8f69894f1ae2"},"vehicle_type_id":"4","last_reported":1749575375,"current_range_meters":16800,"station_id":"ce4bh2h2rcd13ifvqdh0","pricing_plan_id":"cebpf4jnsgd1na2vs0mg"},{"bike_id":"ca4d67f9-de27-477b-a733-9f4f699bff8c","system_id":"levelo_inurba_marseille","lat":43.30141,"lon":5.38074,"is_reserved":false,"is_disabled":false,"rental_uris":{"android":"levelo://app?vid=ca4d67f9-de27-477b-a733-9f4f699bff8c","ios":"levelo://app?vid=ca4d67f9-de27-477b-a733-9f4f699bff8c"},"vehicle_type_id":"4","last_reported":1749575375,"current_range_meters":16800,"station_id":"ce4bgjp2rcd13ifvqbh0","pricing_plan_id":"cebpf4jnsgd1na2vs0mg"},{"bike_id":"b9dce34d-aeb2-409b-9fbd-9266ac903aaa","system_id":"levelo_inurba_marseille","lat":43.28984,"lon":5.37828,"is_reserved":false,"is_disabled":true,"rental_uris":{"android":"levelo://app?vid=b9dce34d-aeb2-409b-9fbd-9266ac903aaa","ios":"levelo://app?vid=b9dce34d-aeb2-409b-9fbd-9266ac903aaa"},"vehicle_type_id":"4","last_reported":1749575375,"current_range_meters":16800,"station_id":"ce4bh9p2rcd13ifvqed0","pricing_plan_id":"cebpf4jnsgd1na2vs0mg"},{"bike_id":"1acfb620-cad7-48c0-8901-d7a5b74a5b65","system_id":"levelo_inurba_marseille","lat":43.33751,"lon":5.37456,"is_reserved":false,"is_disabled":false,"rental_uris":{"android":"levelo://app?vid=1acfb620-cad7-48c0-8901-d7a5b74a5b65","ios":"levelo://app?vid=1acfb620-cad7-48c0-8901-d7a5b74a5b65"},"vehicle_type_id":"4","last_reported":1749575375,"current_range_meters":16800,"station_id":"","pricing_plan_id":"cebpf4jnsgd1na2vs0mg"},{"bike_id":"f53bc08c-3129-4fc3-9174-862ec7b43c8b","system_id":"levelo_inurba_marseille","lat":43.28288,"lon":5.3507,"is_reserved":false,"is_disabled":false,"rental_uris":{"android":"levelo://app?vid=f53bc08c-3129-4fc3-9174-862ec7b43c8b","ios":"levelo://app?vid=f53bc08c-3129-4fc3-9174-862ec7b43c8b"},"vehicle_type_id":"4","last_reported":1749575375,"current_range_meters":17200,"station_id":"ce4bhbp2rcd13ifvqerg","pricing_plan_id":"cebpf4jnsgd1na2vs0mg"},{"bike_id":"8e0321e5-37e7-42db-8f94-649e6f019671","system_id":"levelo_inurba_marseille","lat":43.27573,"lon":5.38414,"is_reserved":false,"is_disabled":false,"rental_uris":{"android":"levelo://app?vid=8e0321e5-37e7-42db-8f94-649e6f019671","ios":"levelo://app?vid=8e0321e5-37e7-42db-8f94-649e6f019671"},"vehicle_type_id":"4","last_reported":1749575375,"current_range_meters":17200,"station_id":"ce4bhh92rcd13ifvqfi0","pricing_plan_id":"cebpf4jnsgd1na2vs0mg"},{"bike_id":"98572d86-4892-406d-9c37-cb4bcfb8949a","system_id":"levelo_inurba_marseille","lat":43.33024,"lon":5.39037,"is_reserved":false,"is_disabled":false,"rental_uris":{"android":"levelo://app?vid=98572d86-4892-406d-9c37-cb4bcfb8949a","ios":"levelo://app?vid=98572d86-4892-406d-9c37-cb4bcfb8949a"},"vehicle_type_id":"4","last_reported":1749575375,"current_range_meters":17200,"station_id":"ce4bhr92rcd13ifvqhrg","pricing_plan_id":"cebpf4jnsgd1na2vs0mg"},{"bike_id":"3e772ee2-a864-4be7-a123-6f734f531836","system_id":"levelo_inurba_marseille","lat":43.29008,"lon":5.35606,"is_reserved":false,"is_disabled":false,"rental_uris":{"android":"levelo://app?vid=3e772ee2-a864-4be7-a123-6f734f531836","ios":"levelo://app?vid=3e772ee2-a864-4be7-a123-6f734f531836"},"vehicle_type_id":"4","last_reported":1749575375,"current_range_meters":17200,"station_id":"ce4bhb92rcd13ifvqen0","pricing_plan_id":"cebpf4jnsgd1na2vs0mg"},{"bike_id":"88656ef8-fc56-4d3c-b59d-18f38b432ceb","system_id":"levelo_inurba_marseille","lat":43.2756,"lon":5.38432,"is_reserved":false,"is_disabled":false,"rental_uris":{"android":"levelo://app?vid=88656ef8-fc56-4d3c-b59d-18f38b432ceb","ios":"levelo://app?vid=88656ef8-fc56-4d3c-b59d-18f38b432ceb"},"vehicle_type_id":"4","last_reported":1749575375,"current_range_meters":17200,"station_id":"ce4bhh92rcd13ifvqfi0","pricing_plan_id":"cebpf4jnsgd1na2vs0mg"},{"bike_id":"c4a2f4ef-248c-4669-bf22-a12adb9f132f","system_id":"levelo_inurba_marseille","lat":43.2944,"lon":5.39776,"is_reserved":false,"is_disabled":false,"rental_uris":{"android":"levelo://app?vid=c4a2f4ef-248c-4669-bf22-a12adb9f132f","ios":"levelo://app?vid=c4a2f4ef-248c-4669-bf22-a12adb9f132f"},"vehicle_type_id":"4","last_reported":1749575375,"current_range_meters":16800,"station_id":"ce4bh3h2rcd13ifvqdo0","pricing_plan_id":"cebpf4jnsgd1na2vs0mg"},{"bike_id":"153b3259-57a2-4d21-819a-5012bd7bef9a","system_id":"levelo_inurba_marseille","lat":43.26212,"lon":5.37438,"is_reserved":false,"is_disabled":false,"rental_uris":{"android":"levelo://app?vid=153b3259-57a2-4d21-819a-5012bd7bef9a","ios":"levelo://app?vid=153b3259-57a2-4d21-819a-5012bd7bef9a"},"vehicle_type_id":"4","last_reported":1749575375,"current_range_meters":17200,"station_id":"ce4bhgp2rcd13ifvqfc0","pricing_plan_id":"cebpf4jnsgd1na2vs0mg"},{"bike_id":"afd17868-eaae-479d-ad4e-99be1af336c2","system_id":"levelo_inurba_marseille","lat":43.26213,"lon":5.37439,"is_reserved":false,"is_disabled":false,"rental_uris":{"android":"levelo://app?vid=afd17868-eaae-479d-ad4e-99be1af336c2","ios":"levelo://app?vid=afd17868-eaae-479d-ad4e-99be1af336c2"},"vehicle_type_id":"4","last_reported":1749575375,"current_range_meters":17200,"station_id":"ce4bhgp2rcd13ifvqfc0","pricing_plan_id":"cebpf4jnsgd1na2vs0mg"},{"bike_id":"eb141528-d7ed-4d25-93fb-bf7329c50fab","system_id":"levelo_inurba_marseille","lat":43.26685,"lon":5.38263,"is_reserved":false,"is_disabled":false,"rental_uris":{"android":"levelo://app?vid=eb141528-d7ed-4d25-93fb-bf7329c50fab","ios":"levelo://app?vid=eb141528-d7ed-4d25-93fb-bf7329c50fab"},"vehicle_type_id":"4","last_reported":1749575375,"current_range_meters":17200,"station_id":"ce4bhg92rcd13ifvqf90","pricing_plan_id":"cebpf4jnsgd1na2vs0mg"},{"bike_id":"4f277a40-c562-419c-82d0-1686b6d2030f","system_id":"levelo_inurba_marseille","lat":43.28441,"lon":5.3496,"is_reserved":false,"is_disabled":false,"rental_uris":{"android":"levelo://app?vid=4f277a40-c562-419c-82d0-1686b6d2030f","ios":"levelo://app?vid=4f277a40-c562-419c-82d0-1686b6d2030f"},"vehicle_type_id":"4","last_reported":1749575375,"current_range_meters":17200,"station_id":"ce4bhbh2rcd13ifvqepg","pricing_plan_id":"cebpf4jnsgd1na2vs0mg"},{"bike_id":"d49963c9-4a74-4b7c-ae71-2e7f71f19deb","system_id":"levelo_inurba_marseille","lat":43.29594,"lon":5.36766,"is_reserved":false,"is_disabled":true,"rental_uris":{"android":"levelo://app?vid=d49963c9-4a74-4b7c-ae71-2e7f71f19deb","ios":"levelo://app?vid=d49963c9-4a74-4b7c-ae71-2e7f71f19deb"},"vehicle_type_id":"4","last_reported":1749575375,"current_range_meters":17600,"station_id":"ce4bgph2rcd13ifvqc2g","pricing_plan_id":"cebpf4jnsgd1na2vs0mg"},{"bike_id":"7311422e-b2d3-4869-980f-0497eb6c2e03","system_id":"levelo_inurba_marseille","lat":43.23965,"lon":5.366193,"is_reserved":false,"is_disabled":false,"rental_uris":{"android":"levelo://app?vid=7311422e-b2d3-4869-980f-0497eb6c2e03","ios":"levelo://app?vid=7311422e-b2d3-4869-980f-0497eb6c2e03"},"vehicle_type_id":"4","last_reported":1749575375,"current_range_meters":17600,"station_id":"ce4bhi12rcd13ifvqfp0","pricing_plan_id":"cebpf4jnsgd1na2vs0mg"},{"bike_id":"add27fa9-6426-45f1-b5a7-ba4ad51a8263","system_id":"levelo_inurba_marseille","lat":43.28162,"lon":5.42631,"is_reserved":false,"is_disabled":false,"rental_uris":{"android":"levelo://app?vid=add27fa9-6426-45f1-b5a7-ba4ad51a8263","ios":"levelo://app?vid=add27fa9-6426-45f1-b5a7-ba4ad51a8263"},"vehicle_type_id":"4","last_reported":1749575375,"current_range_meters":17600,"station_id":"ce4bhnh2rcd13ifvqgug","pricing_plan_id":"cebpf4jnsgd1na2vs0mg"},{"bike_id":"9231f021-d06e-4dc9-b555-e59bf1d45ecd","system_id":"levelo_inurba_marseille","lat":43.32109,"lon":5.36791,"is_reserved":false,"is_disabled":false,"rental_uris":{"android":"levelo://app?vid=9231f021-d06e-4dc9-b555-e59bf1d45ecd","ios":"levelo://app?vid=9231f021-d06e-4dc9-b555-e59bf1d45ecd"},"vehicle_type_id":"4","last_reported":1749575375,"current_range_meters":17600,"station_id":"ce4bhrh2rcd13ifvqhug","pricing_plan_id":"cebpf4jnsgd1na2vs0mg"},{"bike_id":"8ab2ddce-1564-4e3c-b4a4-5bae2f334140","system_id":"levelo_inurba_marseille","lat":43.287194,"lon":5.379374,"is_reserved":false,"is_disabled":false,"rental_uris":{"android":"levelo://app?vid=8ab2ddce-1564-4e3c-b4a4-5bae2f334140","ios":"levelo://app?vid=8ab2ddce-1564-4e3c-b4a4-5bae2f334140"},"vehicle_type_id":"4","last_reported":1749575375,"current_range_meters":17600,"station_id":"ce4bh9p2rcd13ifvqec0","pricing_plan_id":"cebpf4jnsgd1na2vs0mg"},{"bike_id":"ef82d3bb-77d5-4e5f-a672-159dfe609ed3","system_id":"levelo_inurba_marseille","lat":43.28285,"lon":5.35083,"is_reserved":false,"is_disabled":false,"rental_uris":{"android":"levelo://app?vid=ef82d3bb-77d5-4e5f-a672-159dfe609ed3","ios":"levelo://app?vid=ef82d3bb-77d5-4e5f-a672-159dfe609ed3"},"vehicle_type_id":"4","last_reported":1749575375,"current_range_meters":17600,"station_id":"ce4bhbp2rcd13ifvqerg","pricing_plan_id":"cebpf4jnsgd1na2vs0mg"},{"bike_id":"034f5642-7ff3-4a5b-99bd-70d2a5656561","system_id":"levelo_inurba_marseille","lat":43.27373,"lon":5.36254,"is_reserved":false,"is_disabled":false,"rental_uris":{"android":"levelo://app?vid=034f5642-7ff3-4a5b-99bd-70d2a5656561","ios":"levelo://app?vid=034f5642-7ff3-4a5b-99bd-70d2a5656561"},"vehicle_type_id":"4","last_reported":1749575375,"current_range_meters":17600,"station_id":"ce4bhbh2rcd13ifvqeo0","pricing_plan_id":"cebpf4jnsgd1na2vs0mg"},{"bike_id":"72fa34cb-eebe-4172-96a2-e65847bd6e35","system_id":"levelo_inurba_marseille","lat":43.27604,"lon":5.36101,"is_reserved":false,"is_disabled":false,"rental_uris":{"android":"levelo://app?vid=72fa34cb-eebe-4172-96a2-e65847bd6e35","ios":"levelo://app?vid=72fa34cb-eebe-4172-96a2-e65847bd6e35"},"vehicle_type_id":"4","last_reported":1749575375,"current_range_meters":18000,"station_id":"ce4bgj92rcd13ifvqbe0","pricing_plan_id":"cebpf4jnsgd1na2vs0mg"},{"bike_id":"63e40138-141f-4768-876a-d09ed0ddb6e8","system_id":"levelo_inurba_marseille","lat":43.28629,"lon":5.35087,"is_reserved":false,"is_disabled":false,"rental_uris":{"android":"levelo://app?vid=63e40138-141f-4768-876a-d09ed0ddb6e8","ios":"levelo://app?vid=63e40138-141f-4768-876a-d09ed0ddb6e8"},"vehicle_type_id":"4","last_reported":1749575375,"current_range_meters":18000,"station_id":"ce4bhch2rcd13ifvqeug","pricing_plan_id":"cebpf4jnsgd1na2vs0mg"},{"bike_id":"43e58c14-9d0c-4006-9bd7-e395c3f7ee4f","system_id":"levelo_inurba_marseille","lat":43.28614,"lon":5.35103,"is_reserved":false,"is_disabled":false,"rental_uris":{"android":"levelo://app?vid=43e58c14-9d0c-4006-9bd7-e395c3f7ee4f","ios":"levelo://app?vid=43e58c14-9d0c-4006-9bd7-e395c3f7ee4f"},"vehicle_type_id":"4","last_reported":1749575375,"current_range_meters":18000,"station_id":"ce4bhch2rcd13ifvqeug","pricing_plan_id":"cebpf4jnsgd1na2vs0mg"},{"bike_id":"13a6c7fe-ae69-4b14-beb5-17833bbf4bd1","system_id":"levelo_inurba_marseille","lat":43.29874,"lon":5.36592,"is_reserved":false,"is_disabled":false,"rental_uris":{"android":"levelo://app?vid=13a6c7fe-ae69-4b14-beb5-17833bbf4bd1","ios":"levelo://app?vid=13a6c7fe-ae69-4b14-beb5-17833bbf4bd1"},"vehicle_type_id":"4","last_reported":1749575375,"current_range_meters":18000,"station_id":"","pricing_plan_id":"cebpf4jnsgd1na2vs0mg"},{"bike_id":"c967a05b-91b4-483c-8cfb-c91308b2e9d7","system_id":"levelo_inurba_marseille","lat":43.29564,"lon":5.42271,"is_reserved":false,"is_disabled":false,"rental_uris":{"android":"levelo://app?vid=c967a05b-91b4-483c-8cfb-c91308b2e9d7","ios":"levelo://app?vid=c967a05b-91b4-483c-8cfb-c91308b2e9d7"},"vehicle_type_id":"4","last_reported":1749575375,"current_range_meters":18000,"station_id":"ce4bhph2rcd13ifvqhdg","pricing_plan_id":"cebpf4jnsgd1na2vs0mg"},{"bike_id":"0cb57842-e92f-421f-a164-2f212c424303","system_id":"levelo_inurba_marseille","lat":43.33717,"lon":5.39195,"is_reserved":false,"is_disabled":false,"rental_uris":{"android":"levelo://app?vid=0cb57842-e92f-421f-a164-2f212c424303","ios":"levelo://app?vid=0cb57842-e92f-421f-a164-2f212c424303"},"vehicle_type_id":"4","last_reported":1749575375,"current_range_meters":18000,"station_id":"ce4bhr92rcd13ifvqhsg","pricing_plan_id":"cebpf4jnsgd1na2vs0mg"},{"bike_id":"96015146-449b-4f6c-a91b-6dd0696256d8","system_id":"levelo_inurba_marseille","lat":43.27564,"lon":5.38418,"is_reserved":false,"is_disabled":false,"rental_uris":{"android":"levelo://app?vid=96015146-449b-4f6c-a91b-6dd0696256d8","ios":"levelo://app?vid=96015146-449b-4f6c-a91b-6dd0696256d8"},"vehicle_type_id":"4","last_reported":1749575375,"current_range_meters":18000,"station_id":"ce4bhh92rcd13ifvqfi0","pricing_plan_id":"cebpf4jnsgd1na2vs0mg"},{"bike_id":"c54b216b-920a-433f-9434-42ec731e2a57","system_id":"levelo_inurba_marseille","lat":43.30424,"lon":5.39755,"is_reserved":false,"is_disabled":false,"rental_uris":{"android":"levelo://app?vid=c54b216b-920a-433f-9434-42ec731e2a57","ios":"levelo://app?vid=c54b216b-920a-433f-9434-42ec731e2a57"},"vehicle_type_id":"4","last_reported":1749575375,"current_range_meters":18000,"station_id":"ce4bh092rcd13ifvqd20","pricing_plan_id":"cebpf4jnsgd1na2vs0mg"},{"bike_id":"b918f339-a33d-489c-826a-8fffafca2d2e","system_id":"levelo_inurba_marseille","lat":43.32266,"lon":5.39035,"is_reserved":false,"is_disabled":false,"rental_uris":{"android":"levelo://app?vid=b918f339-a33d-489c-826a-8fffafca2d2e","ios":"levelo://app?vid=b918f339-a33d-489c-826a-8fffafca2d2e"},"vehicle_type_id":"4","last_reported":1749575375,"current_range_meters":18000,"station_id":"ce4bhqp2rcd13ifvqhog","pricing_plan_id":"cebpf4jnsgd1na2vs0mg"},{"bike_id":"ffcb7de5-80d2-49cc-86a8-0b1bed945035","system_id":"levelo_inurba_marseille","lat":43.31877,"lon":5.40744,"is_reserved":false,"is_disabled":false,"rental_uris":{"android":"levelo://app?vid=ffcb7de5-80d2-49cc-86a8-0b1bed945035","ios":"levelo://app?vid=ffcb7de5-80d2-49cc-86a8-0b1bed945035"},"vehicle_type_id":"4","last_reported":1749575375,"current_range_meters":18000,"station_id":"ce4bhq12rcd13ifvqhig","pricing_plan_id":"cebpf4jnsgd1na2vs0mg"},{"bike_id":"314bac2c-e47f-46cd-afcd-53cd84a7d142","system_id":"levelo_inurba_marseille","lat":43.27609,"lon":5.36107,"is_reserved":false,"is_disabled":true,"rental_uris":{"android":"levelo://app?vid=314bac2c-e47f-46cd-afcd-53cd84a7d142","ios":"levelo://app?vid=314bac2c-e47f-46cd-afcd-53cd84a7d142"},"vehicle_type_id":"4","last_reported":1749575375,"current_range_meters":18000,"station_id":"ce4bgj92rcd13ifvqbe0","pricing_plan_id":"cebpf4jnsgd1na2vs0mg"},{"bike_id":"22d1711c-b90e-45b6-9dbe-7abac7643d67","system_id":"levelo_inurba_marseille","lat":43.28612,"lon":5.35096,"is_reserved":false,"is_disabled":false,"rental_uris":{"android":"levelo://app?vid=22d1711c-b90e-45b6-9dbe-7abac7643d67","ios":"levelo://app?vid=22d1711c-b90e-45b6-9dbe-7abac7643d67"},"vehicle_type_id":"4","last_reported":1749575375,"current_range_meters":18000,"station_id":"ce4bhch2rcd13ifvqeug","pricing_plan_id":"cebpf4jnsgd1na2vs0mg"},{"bike_id":"02debcc4-c9a5-4e9b-b16b-1a303f476408","system_id":"levelo_inurba_marseille","lat":43.27551,"lon":5.38461,"is_reserved":false,"is_disabled":false,"rental_uris":{"android":"levelo://app?vid=02debcc4-c9a5-4e9b-b16b-1a303f476408","ios":"levelo://app?vid=02debcc4-c9a5-4e9b-b16b-1a303f476408"},"vehicle_type_id":"4","last_reported":1749575375,"current_range_meters":18000,"station_id":"ce4bhh92rcd13ifvqfi0","pricing_plan_id":"cebpf4jnsgd1na2vs0mg"},{"bike_id":"a2421370-e442-436f-a98a-844d44299694","system_id":"levelo_inurba_marseille","lat":43.323604,"lon":5.367516,"is_reserved":false,"is_disabled":false,"rental_uris":{"android":"levelo://app?vid=a2421370-e442-436f-a98a-844d44299694","ios":"levelo://app?vid=a2421370-e442-436f-a98a-844d44299694"},"vehicle_type_id":"4","last_reported":1749575375,"current_range_meters":18800,"station_id":"ce4bhsh2rcd13ifvqi2g","pricing_plan_id":"cebpf4jnsgd1na2vs0mg"},{"bike_id":"a8ff1934-9d44-4546-a78a-59ab1548e588","system_id":"levelo_inurba_marseille","lat":43.28723,"lon":5.37939,"is_reserved":false,"is_disabled":false,"rental_uris":{"android":"levelo://app?vid=a8ff1934-9d44-4546-a78a-59ab1548e588","ios":"levelo://app?vid=a8ff1934-9d44-4546-a78a-59ab1548e588"},"vehicle_type_id":"4","last_reported":1749575375,"current_range_meters":18800,"station_id":"ce4bh9p2rcd13ifvqec0","pricing_plan_id":"cebpf4jnsgd1na2vs0mg"},{"bike_id":"2213c1b0-a6d8-428d-8085-cfb97c4ba392","system_id":"levelo_inurba_marseille","lat":43.30135,"lon":5.38787,"is_reserved":false,"is_disabled":false,"rental_uris":{"android":"levelo://app?vid=2213c1b0-a6d8-428d-8085-cfb97c4ba392","ios":"levelo://app?vid=2213c1b0-a6d8-428d-8085-cfb97c4ba392"},"vehicle_type_id":"4","last_reported":1749575375,"current_range_meters":18800,"station_id":"ce4bghh2rcd13ifvqb60","pricing_plan_id":"cebpf4jnsgd1na2vs0mg"},{"bike_id":"dc0fb223-7feb-43a0-a901-ffa2d971228b","system_id":"levelo_inurba_marseille","lat":43.24402,"lon":5.37102,"is_reserved":false,"is_disabled":false,"rental_uris":{"android":"levelo://app?vid=dc0fb223-7feb-43a0-a901-ffa2d971228b","ios":"levelo://app?vid=dc0fb223-7feb-43a0-a901-ffa2d971228b"},"vehicle_type_id":"4","last_reported":1749575375,"current_range_meters":18800,"station_id":"ce4bhhh2rcd13ifvqfk0","pricing_plan_id":"cebpf4jnsgd1na2vs0mg"},{"bike_id":"ab2ee633-77f9-48ca-aac3-bf95819e6f6b","system_id":"levelo_inurba_marseille","lat":43.29258,"lon":5.38447,"is_reserved":false,"is_disabled":false,"rental_uris":{"android":"levelo://app?vid=ab2ee633-77f9-48ca-aac3-bf95819e6f6b","ios":"levelo://app?vid=ab2ee633-77f9-48ca-aac3-bf95819e6f6b"},"vehicle_type_id":"4","last_reported":1749575375,"current_range_meters":18800,"station_id":"ce4bh692rcd13ifvqea0","pricing_plan_id":"cebpf4jnsgd1na2vs0mg"},{"bike_id":"c6d21e26-26b7-4a15-9f95-3af0bce0ea14","system_id":"levelo_inurba_marseille","lat":43.241675,"lon":5.363951,"is_reserved":false,"is_disabled":false,"rental_uris":{"android":"levelo://app?vid=c6d21e26-26b7-4a15-9f95-3af0bce0ea14","ios":"levelo://app?vid=c6d21e26-26b7-4a15-9f95-3af0bce0ea14"},"vehicle_type_id":"4","last_reported":1749575375,"current_range_meters":18800,"station_id":"cpo36qri1sfpv3e86is0","pricing_plan_id":"cebpf4jnsgd1na2vs0mg"},{"bike_id":"25a4c875-602e-485b-a883-bfff2f4afc41","system_id":"levelo_inurba_marseille","lat":43.28437,"lon":5.34995,"is_reserved":false,"is_disabled":false,"rental_uris":{"android":"levelo://app?vid=25a4c875-602e-485b-a883-bfff2f4afc41","ios":"levelo://app?vid=25a4c875-602e-485b-a883-bfff2f4afc41"},"vehicle_type_id":"4","last_reported":1749575375,"current_range_meters":18800,"station_id":"ce4bhbh2rcd13ifvqepg","pricing_plan_id":"cebpf4jnsgd1na2vs0mg"},{"bike_id":"5a1d050c-2159-4454-9a9b-40cab73aa2fb","system_id":"levelo_inurba_marseille","lat":43.32338,"lon":5.4062,"is_reserved":false,"is_disabled":false,"rental_uris":{"android":"levelo://app?vid=5a1d050c-2159-4454-9a9b-40cab73aa2fb","ios":"levelo://app?vid=5a1d050c-2159-4454-9a9b-40cab73aa2fb"},"vehicle_type_id":"4","last_reported":1749575375,"current_range_meters":18800,"station_id":"ce4bhq92rcd13ifvqhjg","pricing_plan_id":"cebpf4jnsgd1na2vs0mg"},{"bike_id":"1f42e774-0b65-4738-b3e3-0aae7ec0e65c","system_id":"levelo_inurba_marseille","lat":43.293655,"lon":5.378552,"is_reserved":false,"is_disabled":true,"rental_uris":{"android":"levelo://app?vid=1f42e774-0b65-4738-b3e3-0aae7ec0e65c","ios":"levelo://app?vid=1f42e774-0b65-4738-b3e3-0aae7ec0e65c"},"vehicle_type_id":"4","last_reported":1749575375,"current_range_meters":18800,"station_id":"ce4bgjh2rcd13ifvqbf0","pricing_plan_id":"cebpf4jnsgd1na2vs0mg"},{"bike_id":"0e43db73-94ce-4649-b0a0-85ae3a70e44a","system_id":"levelo_inurba_marseille","lat":43.30777,"lon":5.37649,"is_reserved":false,"is_disabled":false,"rental_uris":{"android":"levelo://app?vid=0e43db73-94ce-4649-b0a0-85ae3a70e44a","ios":"levelo://app?vid=0e43db73-94ce-4649-b0a0-85ae3a70e44a"},"vehicle_type_id":"4","last_reported":1749575375,"current_range_meters":18800,"station_id":"ce4bgv92rcd13ifvqcq0","pricing_plan_id":"cebpf4jnsgd1na2vs0mg"},{"bike_id":"a172b0cf-62c4-4c52-a818-ce564350df02","system_id":"levelo_inurba_marseille","lat":43.21193,"lon":5.350723,"is_reserved":false,"is_disabled":false,"rental_uris":{"android":"levelo://app?vid=a172b0cf-62c4-4c52-a818-ce564350df02","ios":"levelo://app?vid=a172b0cf-62c4-4c52-a818-ce564350df02"},"vehicle_type_id":"4","last_reported":1749575375,"current_range_meters":18800,"station_id":"st_cvj6sg6p6f1abm77japg","pricing_plan_id":"cebpf4jnsgd1na2vs0mg"},{"bike_id":"a8eaf757-d922-40d3-906e-9013328fddab","system_id":"levelo_inurba_marseille","lat":43.289294,"lon":5.36642,"is_reserved":false,"is_disabled":false,"rental_uris":{"android":"levelo://app?vid=a8eaf757-d922-40d3-906e-9013328fddab","ios":"levelo://app?vid=a8eaf757-d922-40d3-906e-9013328fddab"},"vehicle_type_id":"4","last_reported":1749575375,"current_range_meters":19200,"station_id":"ce4bhap2rcd13ifvqek0","pricing_plan_id":"cebpf4jnsgd1na2vs0mg"},{"bike_id":"0da5b7dc-4e78-4a3c-b6e1-8010560695ae","system_id":"levelo_inurba_marseille","lat":43.26958,"lon":5.38629,"is_reserved":false,"is_disabled":false,"rental_uris":{"android":"levelo://app?vid=0da5b7dc-4e78-4a3c-b6e1-8010560695ae","ios":"levelo://app?vid=0da5b7dc-4e78-4a3c-b6e1-8010560695ae"},"vehicle_type_id":"4","last_reported":1749575375,"current_range_meters":19200,"station_id":"ce4bhh92rcd13ifvqfh0","pricing_plan_id":"cebpf4jnsgd1na2vs0mg"},{"bike_id":"4dca5f69-ce21-4c34-8cf0-6b07916a3ff0","system_id":"levelo_inurba_marseille","lat":43.25492,"lon":5.3765,"is_reserved":false,"is_disabled":false,"rental_uris":{"android":"levelo://app?vid=4dca5f69-ce21-4c34-8cf0-6b07916a3ff0","ios":"levelo://app?vid=4dca5f69-ce21-4c34-8cf0-6b07916a3ff0"},"vehicle_type_id":"4","last_reported":1749575375,"current_range_meters":19200,"station_id":"ce4bhh12rcd13ifvqff0","pricing_plan_id":"cebpf4jnsgd1na2vs0mg"},{"bike_id":"9285d02a-d835-4647-905a-3b8a62b729d5","system_id":"levelo_inurba_marseille","lat":43.3123,"lon":5.36856,"is_reserved":false,"is_disabled":false,"rental_uris":{"android":"levelo://app?vid=9285d02a-d835-4647-905a-3b8a62b729d5","ios":"levelo://app?vid=9285d02a-d835-4647-905a-3b8a62b729d5"},"vehicle_type_id":"4","last_reported":1749575375,"current_range_meters":19200,"station_id":"ce4bgl92rcd13ifvqbq0","pricing_plan_id":"cebpf4jnsgd1na2vs0mg"},{"bike_id":"f10adc7e-6a3a-4a5d-9515-dc52fefe2058","system_id":"levelo_inurba_marseille","lat":43.32349,"lon":5.36766,"is_reserved":false,"is_disabled":false,"rental_uris":{"android":"levelo://app?vid=f10adc7e-6a3a-4a5d-9515-dc52fefe2058","ios":"levelo://app?vid=f10adc7e-6a3a-4a5d-9515-dc52fefe2058"},