{"last_updated":1731056970,"ttl":60,"version":"2.2","data":{"bikes":[{"bike_id":"45ac8669-829e-46bd-a59e-8fc03fc6934f","system_id":"levelo_inurba_marseille","lat":43.30152,"lon":5.38074,"is_reserved":false,"is_disabled":false,"rental_uris":{"android":"levelo://app?vid=45ac8669-829e-46bd-a59e-8fc03fc6934f","ios":"levelo://app?vid=45ac8669-829e-46bd-a59e-8fc03fc6934f"},"vehicle_type_id":"4","last_reported":1731056970,"current_range_meters":25200,"station_id":"ce4bgjp2rcd13ifvqbh0","pricing_plan_id":"cebpf4jnsgd1na2vs0mg"},{"bike_id":"a04c7e7f-d191-42e4-9f7d-83c681f6fac9","system_id":"levelo_inurba_marseille","lat":43.3053,"lon":5.36547,"is_reserved":false,"is_disabled":false,"rental_uris":{"android":"levelo://app?vid=a04c7e7f-d191-42e4-9f7d-83c681f6fac9","ios":"levelo://app?vid=a04c7e7f-d191-42e4-9f7d-83c681f6fac9"},"vehicle_type_id":"4","last_reported":1731056970,"current_range_meters":38800,"station_id":"ce4bgs12rcd13ifvqcag","pricing_plan_id":"cebpf4jnsgd1na2vs0mg"},{"bike_id":"232ebf69-ccbe-46e6-a58b-622523485df1","system_id":"levelo_inurba_marseille","lat":43.30934,"lon":5.40141,"is_reserved":false,"is_disabled":false,"rental_uris":{"android":"levelo://app?vid=232ebf69-ccbe-46e6-a58b-622523485df1","ios":"levelo://app?vid=232ebf69-ccbe-46e6-a58b-622523485df1"},"vehicle_type_id":"4","last_reported":1731056970,"current_range_meters":28000,"station_id":"ce4bgvp2rcd13ifvqct0","pricing_plan_id":"cebpf4jnsgd1na2vs0mg"},{"bike_id":"e5e7465d-1f89-4768-b017-15428809116f","system_id":"levelo_inurba_marseille","lat":43.26678,"lon":5.38268,"is_reserved":false,"is_disabled":false,"rental_uris":{"android":"levelo://app?vid=e5e7465d-1f89-4768-b017-15428809116f","ios":"levelo://app?vid=e5e7465d-1f89-4768-b017-15428809116f"},"vehicle_type_id":"4","last_reported":1731056970,"current_range_meters":29600,"station_id":"ce4bhg92rcd13ifvqf90","pricing_plan_id":"cebpf4jnsgd1na2vs0mg"},{"bike_id":"2b783626-d1c8-4f0c-8266-9671985242ef","system_id":"levelo_inurba_marseille","lat":43.28147,"lon":5.42643,"is_reserved":false,"is_disabled":false,"rental_uris":{"android":"levelo://app?vid=2b783626-d1c8-4f0c-8266-9671985242ef","ios":"levelo://app?vid=2b783626-d1c8-4f0c-8266-9671985242ef"},"vehicle_type_id":"4","last_reported":1731056970,"current_range_meters":36000,"station_id":"ce4bhnh2rcd13ifvqgug","pricing_plan_id":"cebpf4jnsgd1na2vs0mg"},{"bike_id":"7f774ae5-6cb7-4c53-91e0-4e9519e7a5f3","system_id":"levelo_inurba_marseille","lat":43.31726,"lon":5.42386,"is_reserved":false,"is_disabled":false,"rental_uris":{"android":"levelo://app?vid=7f774ae5-6cb7-4c53-91e0-4e9519e7a5f3","ios":"levelo://app?vid=7f774ae5-6cb7-4c53-91e0-4e9519e7a5f3"},"vehicle_type_id":"4","last_reported":1731056970,"current_range_meters":31200,"station_id":"ce4bhp92rcd13ifvqhbg","pricing_plan_id":"cebpf4jnsgd1na2vs0mg"},{"bike_id":"6541c83f-290c-44b3-a472-aa915c826997","system_id":"levelo_inurba_marseille","lat":43.28349,"lon":5.38114,"is_reserved":false,"is_disabled":false,"rental_uris":{"android":"levelo://app?vid=6541c83f-290c-44b3-a472-aa915c826997","ios":"levelo://app?vid=6541c83f-290c-44b3-a472-aa915c826997"},"vehicle_type_id":"4","last_reported":1731056970,"current_range_meters":38000,"station_id":"ce4bh412rcd13ifvqdr0","pricing_plan_id":"cebpf4jnsgd1na2vs0mg"},{"bike_id":"0299bca0-5fc6-4dd4-970e-91611f65d287","system_id":"levelo_inurba_marseille","lat":43.24069,"lon":5.37743,"is_reserved":false,"is_disabled":false,"rental_uris":{"android":"levelo://app?vid=0299bca0-5fc6-4dd4-970e-91611f65d287","ios":"levelo://app?vid=0299bca0-5fc6-4dd4-970e-91611f65d287"},"vehicle_type_id":"4","last_reported":1731056970,"current_range_meters":21600,"station_id":"ce4bhnp2rcd13ifvqgvg","pricing_plan_id":"cebpf4jnsgd1na2vs0mg"},{"bike_id":"f0580123-09e6-48b9-8683-0c14e0462951","system_id":"levelo_inurba_marseille","lat":43.29699,"lon":5.37702,"is_reserved":false,"is_disabled":false,"rental_uris":{"android":"levelo://app?vid=f0580123-09e6-48b9-8683-0c14e0462951","ios":"levelo://app?vid=f0580123-09e6-48b9-8683-0c14e0462951"},"vehicle_type_id":"4","last_reported":1731056970,"current_range_meters":38000,"station_id":"ce4bgkh2rcd13ifvqbl0","pricing_plan_id":"cebpf4jnsgd1na2vs0mg"},{"bike_id":"41dc0cdc-e2a3-4364-9502-e92dd8e24227","system_id":"levelo_inurba_marseille","lat":43.31352,"lon":5.36731,"is_reserved":false,"is_disabled":false,"rental_uris":{"android":"levelo://app?vid=41dc0cdc-e2a3-4364-9502-e92dd8e24227","ios":"levelo://app?vid=41dc0cdc-e2a3-4364-9502-e92dd8e24227"},"vehicle_type_id":"4","last_reported":1731056970,"current_range_meters":14400,"station_id":"ce4bgr92rcd13ifvqc6g","pricing_plan_id":"cebpf4jnsgd1na2vs0mg"},{"bike_id":"08c6d234-e74d-43a3-840f-e8ebc5223ec5","system_id":"levelo_inurba_marseille","lat":43.29874,"lon":5.39728,"is_reserved":false,"is_disabled":false,"rental_uris":{"android":"levelo://app?vid=08c6d234-e74d-43a3-840f-e8ebc5223ec5","ios":"levelo://app?vid=08c6d234-e74d-43a3-840f-e8ebc5223ec5"},"vehicle_type_id":"4","last_reported":1731056970,"current_range_meters":11600,"station_id":"ce4bh0h2rcd13ifvqd50","pricing_plan_id":"cebpf4jnsgd1na2vs0mg"},{"bike_id":"799fd4b9-f2a4-491e-8761-eea11787c7e7","system_id":"levelo_inurba_marseille","lat":43.30536,"lon":5.36552,"is_reserved":false,"is_disabled":false,"rental_uris":{"android":"levelo://app?vid=799fd4b9-f2a4-491e-8761-eea11787c7e7","ios":"levelo://app?vid=799fd4b9-f2a4-491e-8761-eea11787c7e7"},"vehicle_type_id":"4","last_reported":1731056970,"current_range_meters":38000,"station_id":"ce4bgs12rcd13ifvqcag","pricing_plan_id":"cebpf4jnsgd1na2vs0mg"},{"bike_id":"504e5d62-7828-485f-b5c5-e0859c494a6c","system_id":"levelo_inurba_marseille","lat":43.32493,"lon":5.36569,"is_reserved":false,"is_disabled":false,"rental_uris":{"android":"levelo://app?vid=504e5d62-7828-485f-b5c5-e0859c494a6c","ios":"levelo://app?vid=504e5d62-7828-485f-b5c5-e0859c494a6c"},"vehicle_type_id":"4","last_reported":1731056970,"current_range_meters":37600,"station_id":"ce4bhs12rcd13ifvqhvg","pricing_plan_id":"cebpf4jnsgd1na2vs0mg"},{"bike_id":"9825ae62-b2c4-46f1-8d5f-b53e9cebc9f7","system_id":"levelo_inurba_marseille","lat":43.33023,"lon":5.39045,"is_reserved":false,"is_disabled":false,"rental_uris":{"android":"levelo://app?vid=9825ae62-b2c4-46f1-8d5f-b53e9cebc9f7","ios":"levelo://app?vid=9825ae62-b2c4-46f1-8d5f-b53e9cebc9f7"},"vehicle_type_id":"4","last_reported":1731056970,"current_range_meters":39200,"station_id":"ce4bhr92rcd13ifvqhrg","pricing_plan_id":"cebpf4jnsgd1na2vs0mg"},{"bike_id":"9ae4f991-a9aa-4d6a-9fff-95c16242b082","system_id":"levelo_inurba_marseille","lat":43.280481,"lon":5.400676,"is_reserved":false,"is_disabled":false,"rental_uris":{"android":"levelo://app?vid=9ae4f991-a9aa-4d6a-9fff-95c16242b082","ios":"levelo://app?vid=9ae4f991-a9aa-4d6a-9fff-95c16242b082"},"vehicle_type_id":"4","last_reported":1731056970,"current_range_meters":18000,"station_id":"ce4bho92rcd13ifvqh4g","pricing_plan_id":"cebpf4jnsgd1na2vs0mg"},{"bike_id":"c3f38005-81c9-4b6a-aacc-47675a849a63","system_id":"levelo_inurba_marseille","lat":43.29602,"lon":5.38107,"is_reserved":false,"is_disabled":false,"rental_uris":{"android":"levelo://app?vid=c3f38005-81c9-4b6a-aacc-47675a849a63","ios":"levelo://app?vid=c3f38005-81c9-4b6a-aacc-47675a849a63"},"vehicle_type_id":"4","last_reported":1731056970,"current_range_meters":23200,"station_id":"ce4bgl12rcd13ifvqbo0","pricing_plan_id":"cebpf4jnsgd1na2vs0mg"},{"bike_id":"e382a5f5-b97c-4326-befe-74fa542b41c7","system_id":"levelo_inurba_marseille","lat":43.23152,"lon":5.4371,"is_reserved":false,"is_disabled":false,"rental_uris":{"android":"levelo://app?vid=e382a5f5-b97c-4326-befe-74fa542b41c7","ios":"levelo://app?vid=e382a5f5-b97c-4326-befe-74fa542b41c7"},"vehicle_type_id":"4","last_reported":1731056970,"current_range_meters":28400,"station_id":"ce4bhmp2rcd13ifvqgog","pricing_plan_id":"cebpf4jnsgd1na2vs0mg"},{"bike_id":"a08c735d-a2ad-4fec-b005-ca5bb0562260","system_id":"levelo_inurba_marseille","lat":43.31492,"lon":5.37306,"is_reserved":false,"is_disabled":false,"rental_uris":{"android":"levelo://app?vid=a08c735d-a2ad-4fec-b005-ca5bb0562260","ios":"levelo://app?vid=a08c735d-a2ad-4fec-b005-ca5bb0562260"},"vehicle_type_id":"4","last_reported":1731056970,"current_range_meters":38800,"station_id":"ce4bgt12rcd13ifvqcd0","pricing_plan_id":"cebpf4jnsgd1na2vs0mg"},{"bike_id":"fd12b793-66ca-4f7d-ad00-0679e21d5de7","system_id":"levelo_inurba_marseille","lat":43.30531,"lon":5.36534,"is_reserved":false,"is_disabled":false,"rental_uris":{"android":"levelo://app?vid=fd12b793-66ca-4f7d-ad00-0679e21d5de7","ios":"levelo://app?vid=fd12b793-66ca-4f7d-ad00-0679e21d5de7"},"vehicle_type_id":"4","last_reported":1731056970,"current_range_meters":31200,"station_id":"ce4bgs12rcd13ifvqcag","pricing_plan_id":"cebpf4jnsgd1na2vs0mg"},{"bike_id":"e0550634-c99d-4fba-a1dc-9c9a77a31fb0","system_id":"levelo_inurba_marseille","lat":43.30544,"lon":5.36701,"is_reserved":false,"is_disabled":false,"rental_uris":{"android":"levelo://app?vid=e0550634-c99d-4fba-a1dc-9c9a77a31fb0","ios":"levelo://app?vid=e0550634-c99d-4fba-a1dc-9c9a77a31fb0"},"vehicle_type_id":"4","last_reported":1731056970,"current_range_meters":30400,"station_id":"ce4bgrp2rcd13ifvqc9g","pricing_plan_id":"cebpf4jnsgd1na2vs0mg"},{"bike_id":"a773c60d-75b1-400f-b744-7c7bc21c76a0","system_id":"levelo_inurba_marseille","lat":43.31078,"lon":5.42442,"is_reserved":false,"is_disabled":false,"rental_uris":{"android":"levelo://app?vid=a773c60d-75b1-400f-b744-7c7bc21c76a0","ios":"levelo://app?vid=a773c60d-75b1-400f-b744-7c7bc21c76a0"},"vehicle_type_id":"4","last_reported":1731056970,"current_range_meters":36800,"station_id":"ce4bhp92rcd13ifvqhag","pricing_plan_id":"cebpf4jnsgd1na2vs0mg"},{"bike_id":"bcf5dad1-721a-4f4e-82b2-15a9cc44926f","system_id":"levelo_inurba_marseille","lat":43.33776,"lon":5.37438,"is_reserved":false,"is_disabled":false,"rental_uris":{"android":"levelo://app?vid=bcf5dad1-721a-4f4e-82b2-15a9cc44926f","ios":"levelo://app?vid=bcf5dad1-721a-4f4e-82b2-15a9cc44926f"},"vehicle_type_id":"4","last_reported":1731056970,"current_range_meters":32000,"station_id":"","pricing_plan_id":"cebpf4jnsgd1na2vs0mg"},{"bike_id":"30871413-5e9d-42ff-be6f-adccddd3fae4","system_id":"levelo_inurba_marseille","lat":43.3361,"lon":5.41027,"is_reserved":false,"is_disabled":false,"rental_uris":{"android":"levelo://app?vid=30871413-5e9d-42ff-be6f-adccddd3fae4","ios":"levelo://app?vid=30871413-5e9d-42ff-be6f-adccddd3fae4"},"vehicle_type_id":"4","last_reported":1731056970,"current_range_meters":25600,"station_id":"ce4bhqh2rcd13ifvqhmg","pricing_plan_id":"cebpf4jnsgd1na2vs0mg"},{"bike_id":"796d0bd6-7e32-4a35-83d0-f1fe503adbaf","system_id":"levelo_inurba_marseille","lat":43.25007,"lon":5.38925,"is_reserved":false,"is_disabled":false,"rental_uris":{"android":"levelo://app?vid=796d0bd6-7e32-4a35-83d0-f1fe503adbaf","ios":"levelo://app?vid=796d0bd6-7e32-4a35-83d0-f1fe503adbaf"},"vehicle_type_id":"4","last_reported":1731056970,"current_range_meters":31200,"station_id":"ce4bhgp2rcd13ifvqfd0","pricing_plan_id":"cebpf4jnsgd1na2vs0mg"},{"bike_id":"4525546b-3417-4249-8f7d-ad73da8809c5","system_id":"levelo_inurba_marseille","lat":43.33605,"lon":5.41037,"is_reserved":false,"is_disabled":false,"rental_uris":{"android":"levelo://app?vid=4525546b-3417-4249-8f7d-ad73da8809c5","ios":"levelo://app?vid=4525546b-3417-4249-8f7d-ad73da8809c5"},"vehicle_type_id":"4","last_reported":1731056970,"current_range_meters":6800,"station_id":"ce4bhqh2rcd13ifvqhmg","pricing_plan_id":"cebpf4jnsgd1na2vs0mg"},{"bike_id":"2fe0360e-e7e5-476d-87e5-00cbfae7b7e5","system_id":"levelo_inurba_marseille","lat":43.3016,"lon":5.38085,"is_reserved":false,"is_disabled":false,"rental_uris":{"android":"levelo://app?vid=2fe0360e-e7e5-476d-87e5-00cbfae7b7e5","ios":"levelo://app?vid=2fe0360e-e7e5-476d-87e5-00cbfae7b7e5"},"vehicle_type_id":"4","last_reported":1731056970,"current_range_meters":35200,"station_id":"ce4bgjp2rcd13ifvqbh0","pricing_plan_id":"cebpf4jnsgd1na2vs0mg"},{"bike_id":"13cf8d57-aec1-43bb-81a1-2d0075b9e20a","system_id":"levelo_inurba_marseille","lat":43.28471,"lon":5.38413,"is_reserved":false,"is_disabled":false,"rental_uris":{"android":"levelo://app?vid=13cf8d57-aec1-43bb-81a1-2d0075b9e20a","ios":"levelo://app?vid=13cf8d57-aec1-43bb-81a1-2d0075b9e20a"},"vehicle_type_id":"4","last_reported":1731056970,"current_range_meters":38800,"station_id":"ce4bh512rcd13ifvqe3g","pricing_plan_id":"cebpf4jnsgd1na2vs0mg"},{"bike_id":"6fb32bb1-acec-47e9-a78c-5f0271edfd7f","system_id":"levelo_inurba_marseille","lat":43.26177,"lon":5.37501,"is_reserved":false,"is_disabled":false,"rental_uris":{"android":"levelo://app?vid=6fb32bb1-acec-47e9-a78c-5f0271edfd7f","ios":"levelo://app?vid=6fb32bb1-acec-47e9-a78c-5f0271edfd7f"},"vehicle_type_id":"4","last_reported":1731056970,"current_range_meters":22800,"station_id":"ce4bhgp2rcd13ifvqfc0","pricing_plan_id":"cebpf4jnsgd1na2vs0mg"},{"bike_id":"3d32f789-a044-47cc-8444-b1887a88a83f","system_id":"levelo_inurba_marseille","lat":43.30546,"lon":5.36713,"is_reserved":false,"is_disabled":false,"rental_uris":{"android":"levelo://app?vid=3d32f789-a044-47cc-8444-b1887a88a83f","ios":"levelo://app?vid=3d32f789-a044-47cc-8444-b1887a88a83f"},"vehicle_type_id":"4","last_reported":1731056970,"current_range_meters":38800,"station_id":"ce4bgrp2rcd13ifvqc9g","pricing_plan_id":"cebpf4jnsgd1na2vs0mg"},{"bike_id":"e507d365-9255-4b2a-90fc-6978326419e9","system_id":"levelo_inurba_marseille","lat":43.29557,"lon":5.42293,"is_reserved":false,"is_disabled":false,"rental_uris":{"android":"levelo://app?vid=e507d365-9255-4b2a-90fc-6978326419e9","ios":"levelo://app?vid=e507d365-9255-4b2a-90fc-6978326419e9"},"vehicle_type_id":"4","last_reported":1731056970,"current_range_meters":3600,"station_id":"ce4bhph2rcd13ifvqhdg","pricing_plan_id":"cebpf4jnsgd1na2vs0mg"},{"bike_id":"ea3e44e4-5607-432c-a36c-1dd1c2026358","system_id":"levelo_inurba_marseille","lat":43.32368,"lon":5.38895,"is_reserved":false,"is_disabled":false,"rental_uris":{"android":"levelo://app?vid=ea3e44e4-5607-432c-a36c-1dd1c2026358","ios":"levelo://app?vid=ea3e44e4-5607-432c-a36c-1dd1c2026358"},"vehicle_type_id":"4","last_reported":1731056970,"current_range_meters":36000,"station_id":"ce4bhqp2rcd13ifvqhog","pricing_plan_id":"cebpf4jnsgd1na2vs0mg"},{"bike_id":"8b98ee0f-5665-493a-b534-8b47984f8547","system_id":"levelo_inurba_marseille","lat":43.29791,"lon":5.38107,"is_reserved":false,"is_disabled":false,"rental_uris":{"android":"levelo://app?vid=8b98ee0f-5665-493a-b534-8b47984f8547","ios":"levelo://app?vid=8b98ee0f-5665-493a-b534-8b47984f8547"},"vehicle_type_id":"4","last_reported":1731056970,"current_range_meters":27600,"station_id":"ce4bgip2rcd13ifvqbb0","pricing_plan_id":"cebpf4jnsgd1na2vs0mg"},{"bike_id":"b1d16fbb-506b-4bfb-b0fe-a5316ea1ba0b","system_id":"levelo_inurba_marseille","lat":43.3096,"lon":5.39031,"is_reserved":false,"is_disabled":false,"rental_uris":{"android":"levelo://app?vid=b1d16fbb-506b-4bfb-b0fe-a5316ea1ba0b","ios":"levelo://app?vid=b1d16fbb-506b-4bfb-b0fe-a5316ea1ba0b"},"vehicle_type_id":"4","last_reported":1731056970,"current_range_meters":20800,"station_id":"ce4bgup2rcd13ifvqco0","pricing_plan_id":"cebpf4jnsgd1na2vs0mg"},{"bike_id":"62f1692e-9105-4c23-b692-f8e07e84b5b7","system_id":"levelo_inurba_marseille","lat":43.24177,"lon":5.39726,"is_reserved":false,"is_disabled":false,"rental_uris":{"android":"levelo://app?vid=62f1692e-9105-4c23-b692-f8e07e84b5b7","ios":"levelo://app?vid=62f1692e-9105-4c23-b692-f8e07e84b5b7"},"vehicle_type_id":"4","last_reported":1731056970,"current_range_meters":22000,"station_id":"ce4bhn12rcd13ifvqgpg","pricing_plan_id":"cebpf4jnsgd1na2vs0mg"},{"bike_id":"49900465-52dd-424c-b9df-70d26b98afe5","system_id":"levelo_inurba_marseille","lat":43.304637,"lon":5.379017,"is_reserved":false,"is_disabled":false,"rental_uris":{"android":"levelo://app?vid=49900465-52dd-424c-b9df-70d26b98afe5","ios":"levelo://app?vid=49900465-52dd-424c-b9df-70d26b98afe5"},"vehicle_type_id":"4","last_reported":1731056970,"current_range_meters":39200,"station_id":"ce4bgup2rcd13ifvqcn0","pricing_plan_id":"cebpf4jnsgd1na2vs0mg"},{"bike_id":"1ed8831a-a3da-44b2-8f67-fa4791d6ae74","system_id":"levelo_inurba_marseille","lat":43.28157,"lon":5.4264,"is_reserved":false,"is_disabled":false,"rental_uris":{"android":"levelo://app?vid=1ed8831a-a3da-44b2-8f67-fa4791d6ae74","ios":"levelo://app?vid=1ed8831a-a3da-44b2-8f67-fa4791d6ae74"},"vehicle_type_id":"4","last_reported":1731056970,"current_range_meters":32800,"station_id":"ce4bhnh2rcd13ifvqgug","pricing_plan_id":"cebpf4jnsgd1na2vs0mg"},{"bike_id":"a4b40dc7-8a83-45a9-a731-eb2f03350b7f","system_id":"levelo_inurba_marseille","lat":43.33611,"lon":5.4103,"is_reserved":false,"is_disabled":false,"rental_uris":{"android":"levelo://app?vid=a4b40dc7-8a83-45a9-a731-eb2f03350b7f","ios":"levelo://app?vid=a4b40dc7-8a83-45a9-a731-eb2f03350b7f"},"vehicle_type_id":"4","last_reported":1731056970,"current_range_meters":32800,"station_id":"ce4bhqh2rcd13ifvqhmg","pricing_plan_id":"cebpf4jnsgd1na2vs0mg"},{"bike_id":"b051edcd-5930-44fa-932b-e90c0217c107","system_id":"levelo_inurba_marseille","lat":43.254151,"lon":5.383457,"is_reserved":false,"is_disabled":false,"rental_uris":{"android":"levelo://app?vid=b051edcd-5930-44fa-932b-e90c0217c107","ios":"levelo://app?vid=b051edcd-5930-44fa-932b-e90c0217c107"},"vehicle_type_id":"4","last_reported":1731056970,"current_range_meters":34000,"station_id":"ce4bhih2rcd13ifvqfs0","pricing_plan_id":"cebpf4jnsgd1na2vs0mg"},{"bike_id":"f4ef053d-e709-4411-bdd9-de1d0f41e46f","system_id":"levelo_inurba_marseille","lat":43.2293,"lon":5.35374,"is_reserved":false,"is_disabled":false,"rental_uris":{"android":"levelo://app?vid=f4ef053d-e709-4411-bdd9-de1d0f41e46f","ios":"levelo://app?vid=f4ef053d-e709-4411-bdd9-de1d0f41e46f"},"vehicle_type_id":"4","last_reported":1731056970,"current_range_meters":38800,"station_id":"cpo3532slgdg3j2ikp40","pricing_plan_id":"cebpf4jnsgd1na2vs0mg"},{"bike_id":"c13a97d0-0530-41f0-a94a-cc0540876f4c","system_id":"levelo_inurba_marseille","lat":43.29034,"lon":5.40016,"is_reserved":false,"is_disabled":false,"rental_uris":{"android":"levelo://app?vid=c13a97d0-0530-41f0-a94a-cc0540876f4c","ios":"levelo://app?vid=c13a97d0-0530-41f0-a94a-cc0540876f4c"},"vehicle_type_id":"4","last_reported":1731056970,"current_range_meters":33200,"station_id":"ce4bh392rcd13ifvqdm0","pricing_plan_id":"cebpf4jnsgd1na2vs0mg"},{"bike_id":"c2daeb0b-f980-45e2-9d85-8632806de7a8","system_id":"levelo_inurba_marseille","lat":43.28354,"lon":5.38108,"is_reserved":false,"is_disabled":false,"rental_uris":{"android":"levelo://app?vid=c2daeb0b-f980-45e2-9d85-8632806de7a8","ios":"levelo://app?vid=c2daeb0b-f980-45e2-9d85-8632806de7a8"},"vehicle_type_id":"4","last_reported":1731056970,"current_range_meters":28400,"station_id":"ce4bh412rcd13ifvqdr0","pricing_plan_id":"cebpf4jnsgd1na2vs0mg"},{"bike_id":"f3ed79f1-c9ba-4a5b-8a81-52835f195c27","system_id":"levelo_inurba_marseille","lat":43.31684,"lon":5.40473,"is_reserved":false,"is_disabled":false,"rental_uris":{"android":"levelo://app?vid=f3ed79f1-c9ba-4a5b-8a81-52835f195c27","ios":"levelo://app?vid=f3ed79f1-c9ba-4a5b-8a81-52835f195c27"},"vehicle_type_id":"4","last_reported":1731056970,"current_range_meters":26000,"station_id":"ce4bh012rcd13ifvqd00","pricing_plan_id":"cebpf4jnsgd1na2vs0mg"},{"bike_id":"55dc1edb-bd53-442f-9b0b-074eadeeba72","system_id":"levelo_inurba_marseille","lat":43.33764,"lon":5.37461,"is_reserved":false,"is_disabled":false,"rental_uris":{"android":"levelo://app?vid=55dc1edb-bd53-442f-9b0b-074eadeeba72","ios":"levelo://app?vid=55dc1edb-bd53-442f-9b0b-074eadeeba72"},"vehicle_type_id":"4","last_reported":1731056970,"current_range_meters":38000,"station_id":"","pricing_plan_id":"cebpf4jnsgd1na2vs0mg"},{"bike_id":"8838674c-71ef-4915-9d5e-517d54e399ba","system_id":"levelo_inurba_marseille","lat":43.31716,"lon":5.37764,"is_reserved":false,"is_disabled":false,"rental_uris":{"android":"levelo://app?vid=8838674c-71ef-4915-9d5e-517d54e399ba","ios":"levelo://app?vid=8838674c-71ef-4915-9d5e-517d54e399ba"},"vehicle_type_id":"4","last_reported":1731056970,"current_range_meters":14000,"station_id":"ce4bgth2rcd13ifvqch0","pricing_plan_id":"cebpf4jnsgd1na2vs0mg"},{"bike_id":"eecc9cd5-31c3-4540-af72-7c121029aba2","system_id":"levelo_inurba_marseille","lat":43.30092,"lon":5.39083,"is_reserved":false,"is_disabled":false,"rental_uris":{"android":"levelo://app?vid=eecc9cd5-31c3-4540-af72-7c121029aba2","ios":"levelo://app?vid=eecc9cd5-31c3-4540-af72-7c121029aba2"},"vehicle_type_id":"4","last_reported":1731056970,"current_range_meters":36000,"station_id":"ce4bh192rcd13ifvqdb0","pricing_plan_id":"cebpf4jnsgd1na2vs0mg"},{"bike_id":"e3162c7b-6126-47c6-af7f-9dacd3d2af04","system_id":"levelo_inurba_marseille","lat":43.29793,"lon":5.38106,"is_reserved":false,"is_disabled":false,"rental_uris":{"android":"levelo://app?vid=e3162c7b-6126-47c6-af7f-9dacd3d2af04","ios":"levelo://app?vid=e3162c7b-6126-47c6-af7f-9dacd3d2af04"},"vehicle_type_id":"4","last_reported":1731056970,"current_range_meters":19600,"station_id":"ce4bgip2rcd13ifvqbb0","pricing_plan_id":"cebpf4jnsgd1na2vs0mg"},{"bike_id":"d180334b-9976-41b1-bab4-0aa04347c3e2","system_id":"levelo_inurba_marseille","lat":43.29872,"lon":5.39727,"is_reserved":false,"is_disabled":false,"rental_uris":{"android":"levelo://app?vid=d180334b-9976-41b1-bab4-0aa04347c3e2","ios":"levelo://app?vid=d180334b-9976-41b1-bab4-0aa04347c3e2"},"vehicle_type_id":"4","last_reported":1731056970,"current_range_meters":38000,"station_id":"ce4bh0h2rcd13ifvqd50","pricing_plan_id":"cebpf4jnsgd1na2vs0mg"},{"bike_id":"4e82d7b2-f0f9-4456-b524-157fbc33670b","system_id":"levelo_inurba_marseille","lat":43.24086,"lon":5.37749,"is_reserved":false,"is_disabled":false,"rental_uris":{"android":"levelo://app?vid=4e82d7b2-f0f9-4456-b524-157fbc33670b","ios":"levelo://app?vid=4e82d7b2-f0f9-4456-b524-157fbc33670b"},"vehicle_type_id":"4","last_reported":1731056970,"current_range_meters":30400,"station_id":"ce4bhnp2rcd13ifvqgvg","pricing_plan_id":"cebpf4jnsgd1na2vs0mg"},{"bike_id":"d46fc949-017c-4337-a007-b5f9f19a0bfa","system_id":"levelo_inurba_marseille","lat":43.337444,"lon":5.374475,"is_reserved":false,"is_disabled":false,"rental_uris":{"android":"levelo://app?vid=d46fc949-017c-4337-a007-b5f9f19a0bfa","ios":"levelo://app?vid=d46fc949-017c-4337-a007-b5f9f19a0bfa"},"vehicle_type_id":"4","last_reported":1731056970,"current_range_meters":30800,"station_id":"","pricing_plan_id":"cebpf4jnsgd1na2vs0mg"},{"bike_id":"49e2dd89-eb12-484c-8422-e2a799898f95","system_id":"levelo_inurba_marseille","lat":43.29792,"lon":5.37095,"is_reserved":false,"is_disabled":false,"rental_uris":{"android":"levelo://app?vid=49e2dd89-eb12-484c-8422-e2a799898f95","ios":"levelo://app?vid=49e2dd89-eb12-484c-8422-e2a799898f95"},"vehicle_type_id":"4","last_reported":1731056970,"current_range_meters":37600,"station_id":"ce4bgop2rcd13ifvqc1g","pricing_plan_id":"cebpf4jnsgd1na2vs0mg"},{"bike_id":"75a5d8ac-cf0b-46c5-b1c0-a4fb7875ad51","system_id":"levelo_inurba_marseille","lat":43.24072,"lon":5.37761,"is_reserved":false,"is_disabled":false,"rental_uris":{"android":"levelo://app?vid=75a5d8ac-cf0b-46c5-b1c0-a4fb7875ad51","ios":"levelo://app?vid=75a5d8ac-cf0b-46c5-b1c0-a4fb7875ad51"},"vehicle_type_id":"4","last_reported":1731056970,"current_range_meters":20800,"station_id":"ce4bhnp2rcd13ifvqgvg","pricing_plan_id":"cebpf4jnsgd1na2vs0mg"},{"bike_id":"4747ebe4-1671-4191-a78e-3553c138e8f2","system_id":"levelo_inurba_marseille","lat":43.337444,"lon":5.374475,"is_reserved":false,"is_disabled":false,"rental_uris":{"android":"levelo://app?vid=4747ebe4-1671-4191-a78e-3553c138e8f2","ios":"levelo://app?vid=4747ebe4-1671-4191-a78e-3553c138e8f2"},"vehicle_type_id":"4","last_reported":1731056970,"current_range_meters":26800,"station_id":"","pricing_plan_id":"cebpf4jnsgd1na2vs0mg"},{"bike_id":"f57ef509-c8e3-488a-9a06-f0af43d7da91","system_id":"levelo_inurba_marseille","lat":43.30529,"lon":5.36705,"is_reserved":false,"is_disabled":false,"rental_uris":{"android":"levelo://app?vid=f57ef509-c8e3-488a-9a06-f0af43d7da91","ios":"levelo://app?vid=f57ef509-c8e3-488a-9a06-f0af43d7da91"},"vehicle_type_id":"4","last_reported":1731056970,"current_range_meters":8800,"station_id":"ce4bgrp2rcd13ifvqc9g","pricing_plan_id":"cebpf4jnsgd1na2vs0mg"},{"bike_id":"b8fdd341-0697-41ca-82c9-e4253415f4e6","system_id":"levelo_inurba_marseille","lat":43.24582,"lon":5.39416,"is_reserved":false,"is_disabled":false,"rental_uris":{"android":"levelo://app?vid=b8fdd341-0697-41ca-82c9-e4253415f4e6","ios":"levelo://app?vid=b8fdd341-0697-41ca-82c9-e4253415f4e6"},"vehicle_type_id":"4","last_reported":1731056970,"current_range_meters":37600,"station_id":"","pricing_plan_id":"cebpf4jnsgd1na2vs0mg"},{"bike_id":"9b96d1a7-1bb0-4837-8ce5-5f6325109a7b","system_id":"levelo_inurba_marseille","lat":43.231932,"lon":5.399921,"is_reserved":false,"is_disabled":false,"rental_uris":{"android":"levelo://app?vid=9b96d1a7-1bb0-4837-8ce5-5f6325109a7b","ios":"levelo://app?vid=9b96d1a7-1bb0-4837-8ce5-5f6325109a7b"},"vehicle_type_id":"4","last_reported":1731056970,"current_range_meters":33200,"station_id":"ce4bhn12rcd13ifvqgqg","pricing_plan_id":"cebpf4jnsgd1na2vs0mg"},{"bike_id":"fb28e91f-389e-4aca-a8be-efb4ed115228","system_id":"levelo_inurba_marseille","lat":43.29619,"lon":5.37151,"is_reserved":false,"is_disabled":false,"rental_uris":{"android":"levelo://app?vid=fb28e91f-389e-4aca-a8be-efb4ed115228","ios":"levelo://app?vid=fb28e91f-389e-4aca-a8be-efb4ed115228"},"vehicle_type_id":"4","last_reported":1731056970,"current_range_meters":8800,"station_id":"ce4bgnh2rcd13ifvqc0g","pricing_plan_id":"cebpf4jnsgd1na2vs0mg"},{"bike_id":"7148e5a3-e345-4df8-9602-6c428d6f2779","system_id":"levelo_inurba_marseille","lat":43.2667,"lon":5.40289,"is_reserved":false,"is_disabled":false,"rental_uris":{"android":"levelo://app?vid=7148e5a3-e345-4df8-9602-6c428d6f2779","ios":"levelo://app?vid=7148e5a3-e345-4df8-9602-6c428d6f2779"},"vehicle_type_id":"4","last_reported":1731056970,"current_range_meters":12000,"station_id":"","pricing_plan_id":"cebpf4jnsgd1na2vs0mg"},{"bike_id":"dbf0c74c-dbc0-4cc7-b18b-21073c3ea907","system_id":"levelo_inurba_marseille","lat":43.27874,"lon":5.38048,"is_reserved":false,"is_disabled":false,"rental_uris":{"android":"levelo://app?vid=dbf0c74c-dbc0-4cc7-b18b-21073c3ea907","ios":"levelo://app?vid=dbf0c74c-dbc0-4cc7-b18b-21073c3ea907"},"vehicle_type_id":"4","last_reported":1731056970,"current_range_meters":37600,"station_id":"ce4bhf92rcd13ifvqf50","pricing_plan_id":"cebpf4jnsgd1na2vs0mg"},{"bike_id":"b210f0f8-8e57-4d19-9509-0dd5cf394cb5","system_id":"levelo_inurba_marseille","lat":43.28978,"lon":5.37832,"is_reserved":false,"is_disabled":false,"rental_uris":{"android":"levelo://app?vid=b210f0f8-8e57-4d19-9509-0dd5cf394cb5","ios":"levelo://app?vid=b210f0f8-8e57-4d19-9509-0dd5cf394cb5"},"vehicle_type_id":"4","last_reported":1731056970,"current_range_meters":37600,"station_id":"ce4bh9p2rcd13ifvqed0","pricing_plan_id":"cebpf4jnsgd1na2vs0mg"},{"bike_id":"ffa6a709-cf7b-41fd-acb6-77573eab6973","system_id":"levelo_inurba_marseille","lat":43.32484,"lon":5.36558,"is_reserved":false,"is_disabled":false,"rental_uris":{"android":"levelo://app?vid=ffa6a709-cf7b-41fd-acb6-77573eab6973","ios":"levelo://app?vid=ffa6a709-cf7b-41fd-acb6-77573eab6973"},"vehicle_type_id":"4","last_reported":1731056970,"current_range_meters":14800,"station_id":"ce4bhs12rcd13ifvqhvg","pricing_plan_id":"cebpf4jnsgd1na2vs0mg"},{"bike_id":"90f1eea9-3930-4b08-8815-951cdd67e9a4","system_id":"levelo_inurba_marseille","lat":43.304871,"lon":5.384695,"is_reserved":false,"is_disabled":false,"rental_uris":{"android":"levelo://app?vid=90f1eea9-3930-4b08-8815-951cdd67e9a4","ios":"levelo://app?vid=90f1eea9-3930-4b08-8815-951cdd67e9a4"},"vehicle_type_id":"4","last_reported":1731056970,"current_range_meters":26800,"station_id":"ce4bgg92rcd13ifvqb30","pricing_plan_id":"cebpf4jnsgd1na2vs0mg"},{"bike_id":"a8c379e9-4777-4dda-b09f-f9983c01cdce","system_id":"levelo_inurba_marseille","lat":43.30536,"lon":5.36696,"is_reserved":false,"is_disabled":false,"rental_uris":{"android":"levelo://app?vid=a8c379e9-4777-4dda-b09f-f9983c01cdce","ios":"levelo://app?vid=a8c379e9-4777-4dda-b09f-f9983c01cdce"},"vehicle_type_id":"4","last_reported":1731056970,"current_range_meters":22000,"station_id":"ce4bgrp2rcd13ifvqc9g","pricing_plan_id":"cebpf4jnsgd1na2vs0mg"},{"bike_id":"08c393c9-a6ce-4d4b-b12e-fcfa496a3bac","system_id":"levelo_inurba_marseille","lat":43.29368,"lon":5.37846,"is_reserved":false,"is_disabled":false,"rental_uris":{"android":"levelo://app?vid=08c393c9-a6ce-4d4b-b12e-fcfa496a3bac","ios":"levelo://app?vid=08c393c9-a6ce-4d4b-b12e-fcfa496a3bac"},"vehicle_type_id":"4","last_reported":1731056970,"current_range_meters":6000,"station_id":"ce4bgjh2rcd13ifvqbf0","pricing_plan_id":"cebpf4jnsgd1na2vs0mg"},{"bike_id":"e574d28e-b684-420d-90be-c66b9ac79572","system_id":"levelo_inurba_marseille","lat":43.24074,"lon":5.37762,"is_reserved":false,"is_disabled":false,"rental_uris":{"android":"levelo://app?vid=e574d28e-b684-420d-90be-c66b9ac79572","ios":"levelo://app?vid=e574d28e-b684-420d-90be-c66b9ac79572"},"vehicle_type_id":"4","last_reported":1731056970,"current_range_meters":8400,"station_id":"ce4bhnp2rcd13ifvqgvg","pricing_plan_id":"cebpf4jnsgd1na2vs0mg"},{"bike_id":"98aed817-e315-48de-b0fb-eb0acd2c2e95","system_id":"levelo_inurba_marseille","lat":43.29281,"lon":5.36851,"is_reserved":false,"is_disabled":false,"rental_uris":{"android":"levelo://app?vid=98aed817-e315-48de-b0fb-eb0acd2c2e95","ios":"levelo://app?vid=98aed817-e315-48de-b0fb-eb0acd2c2e95"},"vehicle_type_id":"4","last_reported":1731056970,"current_range_meters":30000,"station_id":"ce4bhbp2rcd13ifvqesg","pricing_plan_id":"cebpf4jnsgd1na2vs0mg"},{"bike_id":"b2237bbf-7bcf-4c64-bcc3-ed9e1d67efe7","system_id":"levelo_inurba_marseille","lat":43.3415,"lon":5.40906,"is_reserved":false,"is_disabled":false,"rental_uris":{"android":"levelo://app?vid=b2237bbf-7bcf-4c64-bcc3-ed9e1d67efe7","ios":"levelo://app?vid=b2237bbf-7bcf-4c64-bcc3-ed9e1d67efe7"},"vehicle_type_id":"4","last_reported":1731056970,"current_range_meters":10800,"station_id":"ce4bhqh2rcd13ifvqhlg","pricing_plan_id":"cebpf4jnsgd1na2vs0mg"},{"bike_id":"8d40a02f-4a6f-4c5c-97ee-47e201c0665b","system_id":"levelo_inurba_marseille","lat":43.2953,"lon":5.3855,"is_reserved":false,"is_disabled":false,"rental_uris":{"android":"levelo://app?vid=8d40a02f-4a6f-4c5c-97ee-47e201c0665b","ios":"levelo://app?vid=8d40a02f-4a6f-4c5c-97ee-47e201c0665b"},"vehicle_type_id":"4","last_reported":1731056970,"current_range_meters":8400,"station_id":"ce4bgup2rcd13ifvqco0","pricing_plan_id":"cebpf4jnsgd1na2vs0mg"},{"bike_id":"f25d5891-124e-470f-931d-7253b06fea97","system_id":"levelo_inurba_marseille","lat":43.3048,"lon":5.37913,"is_reserved":false,"is_disabled":false,"rental_uris":{"android":"levelo://app?vid=f25d5891-124e-470f-931d-7253b06fea97","ios":"levelo://app?vid=f25d5891-124e-470f-931d-7253b06fea97"},"vehicle_type_id":"4","last_reported":1731056970,"current_range_meters":31200,"station_id":"ce4bgup2rcd13ifvqcn0","pricing_plan_id":"cebpf4jnsgd1na2vs0mg"},{"bike_id":"3420b168-0a4d-440c-a8ea-f271ea71b987","system_id":"levelo_inurba_marseille","lat":43.29851,"lon":5.36286,"is_reserved":false,"is_disabled":false,"rental_uris":{"android":"levelo://app?vid=3420b168-0a4d-440c-a8ea-f271ea71b987","ios":"levelo://app?vid=3420b168-0a4d-440c-a8ea-f271ea71b987"},"vehicle_type_id":"4","last_reported":1731056970,"current_range_meters":31200,"station_id":"ce4bgpp2rcd13ifvqc3g","pricing_plan_id":"cebpf4jnsgd1na2vs0mg"},{"bike_id":"6001eb10-c676-485c-9f38-0e89ef1160f4","system_id":"levelo_inurba_marseille","lat":43.30913,"lon":5.36848,"is_reserved":false,"is_disabled":false,"rental_uris":{"android":"levelo://app?vid=6001eb10-c676-485c-9f38-0e89ef1160f4","ios":"levelo://app?vid=6001eb10-c676-485c-9f38-0e89ef1160f4"},"vehicle_type_id":"4","last_reported":1731056970,"current_range_meters":39200,"station_id":"ce4bgn92rcd13ifvqbvg","pricing_plan_id":"cebpf4jnsgd1na2vs0mg"},{"bike_id":"1f986931-33a6-407d-9691-981e5af33791","system_id":"levelo_inurba_marseille","lat":43.25933,"lon":5.40893,"is_reserved":false,"is_disabled":false,"rental_uris":{"android":"levelo://app?vid=1f986931-33a6-407d-9691-981e5af33791","ios":"levelo://app?vid=1f986931-33a6-407d-9691-981e5af33791"},"vehicle_type_id":"4","last_reported":1731056970,"current_range_meters":9200,"station_id":"ce4bhm92rcd13ifvqglg","pricing_plan_id":"cebpf4jnsgd1na2vs0mg"},{"bike_id":"820c2f71-6f95-41fb-bf27-3117987d2dca","system_id":"levelo_inurba_marseille","lat":43.28349,"lon":5.38107,"is_reserved":false,"is_disabled":false,"rental_uris":{"android":"levelo://app?vid=820c2f71-6f95-41fb-bf27-3117987d2dca","ios":"levelo://app?vid=820c2f71-6f95-41fb-bf27-3117987d2dca"},"vehicle_type_id":"4","last_reported":1731056970,"current_range_meters":14000,"station_id":"ce4bh412rcd13ifvqdr0","pricing_plan_id":"cebpf4jnsgd1na2vs0mg"},{"bike_id":"e8b3e3b1-008f-45b3-95fd-cefe33cd7b99","system_id":"levelo_inurba_marseille","lat":43.23966,"lon":5.36631,"is_reserved":false,"is_disabled":false,"rental_uris":{"android":"levelo://app?vid=e8b3e3b1-008f-45b3-95fd-cefe33cd7b99","ios":"levelo://app?vid=e8b3e3b1-008f-45b3-95fd-cefe33cd7b99"},"vehicle_type_id":"4","last_reported":1731056970,"current_range_meters":25600,"station_id":"ce4bhi12rcd13ifvqfp0","pricing_plan_id":"cebpf4jnsgd1na2vs0mg"},{"bike_id":"91467fd7-7280-4988-b47e-736b2926b157","system_id":"levelo_inurba_marseille","lat":43.2418,"lon":5.39728,"is_reserved":false,"is_disabled":false,"rental_uris":{"android":"levelo://app?vid=91467fd7-7280-4988-b47e-736b2926b157","ios":"levelo://app?vid=91467fd7-7280-4988-b47e-736b2926b157"},"vehicle_type_id":"4","last_reported":1731056970,"current_range_meters":20800,"station_id":"ce4bhn12rcd13ifvqgpg","pricing_plan_id":"cebpf4jnsgd1na2vs0mg"},{"bike_id":"8cf3bf6d-2068-4aac-b65e-8a3d3e5d47af","system_id":"levelo_inurba_marseille","lat":43.30154,"lon":5.38075,"is_reserved":false,"is_disabled":false,"rental_uris":{"android":"levelo://app?vid=8cf3bf6d-2068-4aac-b65e-8a3d3e5d47af","ios":"levelo://app?vid=8cf3bf6d-2068-4aac-b65e-8a3d3e5d47af"},"vehicle_type_id":"4","last_reported":1731056970,"current_range_meters":19200,"station_id":"ce4bgjp2rcd13ifvqbh0","pricing_plan_id":"cebpf4jnsgd1na2vs0mg"},{"bike_id":"c68419ae-5304-473c-904a-721cc7490645","system_id":"levelo_inurba_marseille","lat":43.24076,"lon":5.37754,"is_reserved":false,"is_disabled":false,"rental_uris":{"android":"levelo://app?vid=c68419ae-5304-473c-904a-721cc7490645","ios":"levelo://app?vid=c68419ae-5304-473c-904a-721cc7490645"},"vehicle_type_id":"4","last_reported":1731056970,"current_range_meters":27600,"station_id":"ce4bhnp2rcd13ifvqgvg","pricing_plan_id":"cebpf4jnsgd1na2vs0mg"},{"bike_id":"5dae8da9-34fd-43f0-886d-9017bc04ac44","system_id":"levelo_inurba_marseille","lat":43.28348,"lon":5.38105,"is_reserved":false,"is_disabled":false,"rental_uris":{"android":"levelo://app?vid=5dae8da9-34fd-43f0-886d-9017bc04ac44","ios":"levelo://app?vid=5dae8da9-34fd-43f0-886d-9017bc04ac44"},"vehicle_type_id":"4","last_reported":1731056970,"current_range_meters":28400,"station_id":"ce4bh412rcd13ifvqdr0","pricing_plan_id":"cebpf4jnsgd1na2vs0mg"},{"bike_id":"5641435e-5ee6-4d06-9ff9-7d6b73cd6a54","system_id":"levelo_inurba_marseille","lat":43.29626,"lon":5.37171,"is_reserved":false,"is_disabled":false,"rental_uris":{"android":"levelo://app?vid=5641435e-5ee6-4d06-9ff9-7d6b73cd6a54","ios":"levelo://app?vid=5641435e-5ee6-4d06-9ff9-7d6b73cd6a54"},"vehicle_type_id":"4","last_reported":1731056970,"current_range_meters":17200,"station_id":"ce4bgnh2rcd13ifvqc0g","pricing_plan_id":"cebpf4jnsgd1na2vs0mg"},{"bike_id":"38724a42-5299-4877-87b7-356500ef0d1c","system_id":"levelo_inurba_marseille","lat":43.31227,"lon":5.36857,"is_reserved":false,"is_disabled":false,"rental_uris":{"android":"levelo://app?vid=38724a42-5299-4877-87b7-356500ef0d1c","ios":"levelo://app?vid=38724a42-5299-4877-87b7-356500ef0d1c"},"vehicle_type_id":"4","last_reported":1731056970,"current_range_meters":24000,"station_id":"ce4bgl92rcd13ifvqbq0","pricing_plan_id":"cebpf4jnsgd1na2vs0mg"},{"bike_id":"548f1609-a23f-4c94-9059-28bdd7e2b851","system_id":"levelo_inurba_marseille","lat":43.32546,"lon":5.41432,"is_reserved":false,"is_disabled":false,"rental_uris":{"android":"levelo://app?vid=548f1609-a23f-4c94-9059-28bdd7e2b851","ios":"levelo://app?vid=548f1609-a23f-4c94-9059-28bdd7e2b851"},"vehicle_type_id":"4","last_reported":1731056970,"current_range_meters":38800,"station_id":"ce4bhq12rcd13ifvqhhg","pricing_plan_id":"cebpf4jnsgd1na2vs0mg"},{"bike_id":"7e33c538-5d40-4d7b-a006-4aeb442b1787","system_id":"levelo_inurba_marseille","lat":43.30274,"lon":5.37698,"is_reserved":false,"is_disabled":false,"rental_uris":{"android":"levelo://app?vid=7e33c538-5d40-4d7b-a006-4aeb442b1787","ios":"levelo://app?vid=7e33c538-5d40-4d7b-a006-4aeb442b1787"},"vehicle_type_id":"4","last_reported":1731056970,"current_range_meters":16000,"station_id":"ce4bguh2rcd13ifvqcj0","pricing_plan_id":"cebpf4jnsgd1na2vs0mg"},{"bike_id":"de0fc64f-7cd2-46fd-ae35-74aa6d0e9e58","system_id":"levelo_inurba_marseille","lat":43.26681,"lon":5.38267,"is_reserved":false,"is_disabled":false,"rental_uris":{"android":"levelo://app?vid=de0fc64f-7cd2-46fd-ae35-74aa6d0e9e58","ios":"levelo://app?vid=de0fc64f-7cd2-46fd-ae35-74aa6d0e9e58"},"vehicle_type_id":"4","last_reported":1731056970,"current_range_meters":35600,"station_id":"ce4bhg92rcd13ifvqf90","pricing_plan_id":"cebpf4jnsgd1na2vs0mg"},{"bike_id":"d0e49a69-e855-4bce-8af2-d751307e7ceb","system_id":"levelo_inurba_marseille","lat":43.33725,"lon":5.39181,"is_reserved":false,"is_disabled":false,"rental_uris":{"android":"levelo://app?vid=d0e49a69-e855-4bce-8af2-d751307e7ceb","ios":"levelo://app?vid=d0e49a69-e855-4bce-8af2-d751307e7ceb"},"vehicle_type_id":"4","last_reported":1731056970,"current_range_meters":28000,"station_id":"ce4bhr92rcd13ifvqhsg","pricing_plan_id":"cebpf4jnsgd1na2vs0mg"},{"bike_id":"065cc511-f6c2-41de-9ebc-8db637bb7c30","system_id":"levelo_inurba_marseille","lat":43.30137,"lon":5.37422,"is_reserved":false,"is_disabled":false,"rental_uris":{"android":"levelo://app?vid=065cc511-f6c2-41de-9ebc-8db637bb7c30","ios":"levelo://app?vid=065cc511-f6c2-41de-9ebc-8db637bb7c30"},"vehicle_type_id":"4","last_reported":1731056970,"current_range_meters":19200,"station_id":"ce4bgs92rcd13ifvqcc0","pricing_plan_id":"cebpf4jnsgd1na2vs0mg"},{"bike_id":"21ffac4b-d674-45df-a35d-369fa1b8067f","system_id":"levelo_inurba_marseille","lat":43.25937,"lon":5.40908,"is_reserved":false,"is_disabled":false,"rental_uris":{"android":"levelo://app?vid=21ffac4b-d674-45df-a35d-369fa1b8067f","ios":"levelo://app?vid=21ffac4b-d674-45df-a35d-369fa1b8067f"},"vehicle_type_id":"4","last_reported":1731056970,"current_range_meters":11200,"station_id":"ce4bhm92rcd13ifvqglg","pricing_plan_id":"cebpf4jnsgd1na2vs0mg"},{"bike_id":"2fd5ce01-773b-4760-9710-6704b8644245","system_id":"levelo_inurba_marseille","lat":43.30467,"lon":5.37916,"is_reserved":false,"is_disabled":false,"rental_uris":{"android":"levelo://app?vid=2fd5ce01-773b-4760-9710-6704b8644245","ios":"levelo://app?vid=2fd5ce01-773b-4760-9710-6704b8644245"},"vehicle_type_id":"4","last_reported":1731056970,"current_range_meters":32000,"station_id":"ce4bgup2rcd13ifvqcn0","pricing_plan_id":"cebpf4jnsgd1na2vs0mg"},{"bike_id":"e3710a37-02b6-48b0-9c2b-b4cd2183166a","system_id":"levelo_inurba_marseille","lat":43.29932,"lon":5.36554,"is_reserved":false,"is_disabled":false,"rental_uris":{"android":"levelo://app?vid=e3710a37-02b6-48b0-9c2b-b4cd2183166a","ios":"levelo://app?vid=e3710a37-02b6-48b0-9c2b-b4cd2183166a"},"vehicle_type_id":"4","last_reported":1731056970,"current_range_meters":38800,"station_id":"ce4bgm92rcd13ifvqbr0","pricing_plan_id":"cebpf4jnsgd1na2vs0mg"},{"bike_id":"781005c8-e92d-4538-ad39-54fa82b03703","system_id":"levelo_inurba_marseille","lat":43.30289,"lon":5.37697,"is_reserved":false,"is_disabled":false,"rental_uris":{"android":"levelo://app?vid=781005c8-e92d-4538-ad39-54fa82b03703","ios":"levelo://app?vid=781005c8-e92d-4538-ad39-54fa82b03703"},"vehicle_type_id":"4","last_reported":1731056970,"current_range_meters":38800,"station_id":"ce4bguh2rcd13ifvqcj0","pricing_plan_id":"cebpf4jnsgd1na2vs0mg"},{"bike_id":"2fe77fe1-22de-4287-b409-02ccb832da80","system_id":"levelo_inurba_marseille","lat":43.29925,"lon":5.37476,"is_reserved":false,"is_disabled":false,"rental_uris":{"android":"levelo://app?vid=2fe77fe1-22de-4287-b409-02ccb832da80","ios":"levelo://app?vid=2fe77fe1-22de-4287-b409-02ccb832da80"},"vehicle_type_id":"4","last_reported":1731056970,"current_range_meters":39200,"station_id":"ce4bgjh2rcd13ifvqbg0","pricing_plan_id":"cebpf4jnsgd1na2vs0mg"},{"bike_id":"9f4a1726-3a1f-411d-89f3-b19f07cd620f","system_id":"levelo_inurba_marseille","lat":43.25934,"lon":5.40909,"is_reserved":false,"is_disabled":false,"rental_uris":{"android":"levelo://app?vid=9f4a1726-3a1f-411d-89f3-b19f07cd620f","ios":"levelo://app?vid=9f4a1726-3a1f-411d-89f3-b19f07cd620f"},"vehicle_type_id":"4","last_reported":1731056970,"current_range_meters":20400,"station_id":"ce4bhm92rcd13ifvqglg","pricing_plan_id":"cebpf4jnsgd1na2vs0mg"},{"bike_id":"4d15416b-0c4f-454d-8d2b-90eb59749104","system_id":"levelo_inurba_marseille","lat":43.30545,"lon":5.36533,"is_reserved":false,"is_disabled":false,"rental_uris":{"android":"levelo://app?vid=4d15416b-0c4f-454d-8d2b-90eb59749104","ios":"levelo://app?vid=4d15416b-0c4f-454d-8d2b-90eb59749104"},"vehicle_type_id":"4","last_reported":1731056970,"current_range_meters":37600,"station_id":"ce4bgs12rcd13ifvqcag","pricing_plan_id":"cebpf4jnsgd1na2vs0mg"},{"bike_id":"2af64e43-1388-4808-b77d-fa82fb5fc307","system_id":"levelo_inurba_marseille","lat":43.341398,"lon":5.40901,"is_reserved":false,"is_disabled":false,"rental_uris":{"android":"levelo://app?vid=2af64e43-1388-4808-b77d-fa82fb5fc307","ios":"levelo://app?vid=2af64e43-1388-4808-b77d-fa82fb5fc307"},"vehicle_type_id":"4","last_reported":1731056970,"current_range_meters":24800,"station_id":"ce4bhqh2rcd13ifvqhlg","pricing_plan_id":"cebpf4jnsgd1na2vs0mg"},{"bike_id":"29824cde-4cdc-4355-9b22-a5922a403deb","system_id":"levelo_inurba_marseille","lat":43.337444,"lon":5.374475,"is_reserved":false,"is_disabled":false,"rental_uris":{"android":"levelo://app?vid=29824cde-4cdc-4355-9b22-a5922a403deb","ios":"levelo://app?vid=29824cde-4cdc-4355-9b22-a5922a403deb"},"vehicle_type_id":"4","last_reported":1731056970,"current_range_meters":38800,"station_id":"","pricing_plan_id":"cebpf4jnsgd1na2vs0mg"},{"bike_id":"49b1a6ec-c2a2-4eca-bc72-81c8fc4fb330","system_id":"levelo_inurba_marseille","lat":43.28335,"lon":5.38104,"is_reserved":false,"is_disabled":false,"rental_uris":{"android":"levelo://app?vid=49b1a6ec-c2a2-4eca-bc72-81c8fc4fb330","ios":"levelo://app?vid=49b1a6ec-c2a2-4eca-bc72-81c8fc4fb330"},"vehicle_type_id":"4","last_reported":1731056970,"current_range_meters":38800,"station_id":"ce4bh412rcd13ifvqdr0","pricing_plan_id":"cebpf4jnsgd1na2vs0mg"},{"bike_id":"80d5c89e-745d-46d6-9ab9-4f5ea40b6def","system_id":"levelo_inurba_marseille","lat":43.27186,"lon":5.40991,"is_reserved":false,"is_disabled":false,"rental_uris":{"android":"levelo://app?vid=80d5c89e-745d-46d6-9ab9-4f5ea40b6def","ios":"levelo://app?vid=80d5c89e-745d-46d6-9ab9-4f5ea40b6def"},"vehicle_type_id":"4","last_reported":1731056970,"current_range_meters":23200,"station_id":"ce4bhl12rcd13ifvqgf0","pricing_plan_id":"cebpf4jnsgd1na2vs0mg"},{"bike_id":"eccb9bf1-4a0c-4df5-8229-bf46f21c4329","system_id":"levelo_inurba_marseille","lat":43.31717,"lon":5.42407,"is_reserved":false,"is_disabled":false,"rental_uris":{"android":"levelo://app?vid=eccb9bf1-4a0c-4df5-8229-bf46f21c4329","ios":"levelo://app?vid=eccb9bf1-4a0c-4df5-8229-bf46f21c4329"},"vehicle_type_id":"4","last_reported":1731056970,"current_range_meters":38400,"station_id":"ce4bhp92rcd13ifvqhbg","pricing_plan_id":"cebpf4jnsgd1na2vs0mg"},{"bike_id":"ef288286-229d-4b9a-a189-8d61840dcffb","system_id":"levelo_inurba_marseille","lat":43.232,"lon":5.35545,"is_reserved":false,"is_disabled":false,"rental_uris":{"android":"levelo://app?vid=ef288286-229d-4b9a-a189-8d61840dcffb","ios":"levelo://app?vid=ef288286-229d-4b9a-a189-8d61840dcffb"},"vehicle_type_id":"4","last_reported":1731056970,"current_range_meters":6400,"station_id":"ce4bhu92rcd13ifvqi70","pricing_plan_id":"cebpf4jnsgd1na2vs0mg"},{"bike_id":"9044ed43-de46-4645-b2ad-5e136647239a","system_id":"levelo_inurba_marseille","lat":43.337444,"lon":5.374475,"is_reserved":false,"is_disabled":false,"rental_uris":{"android":"levelo://app?vid=9044ed43-de46-4645-b2ad-5e136647239a","ios":"levelo://app?vid=9044ed43-de46-4645-b2ad-5e136647239a"},"vehicle_type_id":"4","last_reported":1731056970,"current_range_meters":33200,"station_id":"","pricing_plan_id":"cebpf4jnsgd1na2vs0mg"},{"bike_id":"a7ed7f15-e2de-437f-8b0e-e37c1cd1c87d","system_id":"levelo_inurba_marseille","lat":43.30545,"lon":5.36703,"is_reserved":false,"is_disabled":false,"rental_uris":{"android":"levelo://app?vid=a7ed7f15-e2de-437f-8b0e-e37c1cd1c87d","ios":"levelo://app?vid=a7ed7f15-e2de-437f-8b0e-e37c1cd1c87d"},"vehicle_type_id":"4","last_reported":1731056970,"current_range_meters":36400,"station_id":"ce4bgrp2rcd13ifvqc9g","pricing_plan_id":"cebpf4jnsgd1na2vs0mg"},{"bike_id":"4d72e4fb-b9e1-4bf2-8560-e3832ef662ac","system_id":"levelo_inurba_marseille","lat":43.28935,"lon":5.3664,"is_reserved":false,"is_disabled":false,"rental_uris":{"android":"levelo://app?vid=4d72e4fb-b9e1-4bf2-8560-e3832ef662ac","ios":"levelo://app?vid=4d72e4fb-b9e1-4bf2-8560-e3832ef662ac"},"vehicle_type_id":"4","last_reported":1731056970,"current_range_meters":2800,"station_id":"ce4bhap2rcd13ifvqek0","pricing_plan_id":"cebpf4jnsgd1na2vs0mg"},{"bike_id":"8d94f27b-ae0d-491a-83aa-3e23cd6e67d3","system_id":"levelo_inurba_marseille","lat":43.3047,"lon":5.37904,"is_reserved":false,"is_disabled":false,"rental_uris":{"android":"levelo://app?vid=8d94f27b-ae0d-491a-83aa-3e23cd6e67d3","ios":"levelo://app?vid=8d94f27b-ae0d-491a-83aa-3e23cd6e67d3"},"vehicle_type_id":"4","last_reported":1731056970,"current_range_meters":38000,"station_id":"ce4bgup2rcd13ifvqcn0","pricing_plan_id":"cebpf4jnsgd1na2vs0mg"},{"bike_id":"f258d959-1ece-42bd-afca-cee212ded0f9","system_id":"levelo_inurba_marseille","lat":43.3009,"lon":5.39075,"is_reserved":false,"is_disabled":false,"rental_uris":{"android":"levelo://app?vid=f258d959-1ece-42bd-afca-cee212ded0f9","ios":"levelo://app?vid=f258d959-1ece-42bd-afca-cee212ded0f9"},"vehicle_type_id":"4","last_reported":1731056970,"current_range_meters":28400,"station_id":"ce4bh192rcd13ifvqdb0","pricing_plan_id":"cebpf4jnsgd1na2vs0mg"},{"bike_id":"546c522c-d858-4cc2-9ba9-af678b98d67a","system_id":"levelo_inurba_marseille","lat":43.24076,"lon":5.37754,"is_reserved":false,"is_disabled":false,"rental_uris":{"android":"levelo://app?vid=546c522c-d858-4cc2-9ba9-af678b98d67a","ios":"levelo://app?vid=546c522c-d858-4cc2-9ba9-af678b98d67a"},"vehicle_type_id":"4","last_reported":1731056970,"current_range_meters":38000,"station_id":"ce4bhnp2rcd13ifvqgvg","pricing_plan_id":"cebpf4jnsgd1na2vs0mg"},{"bike_id":"795d93dc-58cd-47d3-954f-fe5d9510e8f0","system_id":"levelo_inurba_marseille","lat":43.23153,"lon":5.4371,"is_reserved":false,"is_disabled":false,"rental_uris":{"android":"levelo://app?vid=795d93dc-58cd-47d3-954f-fe5d9510e8f0","ios":"levelo://app?vid=795d93dc-58cd-47d3-954f-fe5d9510e8f0"},"vehicle_type_id":"4","last_reported":1731056970,"current_range_meters":23200,"station_id":"ce4bhmp2rcd13ifvqgog","pricing_plan_id":"cebpf4jnsgd1na2vs0mg"},{"bike_id":"4be4a1fd-4cef-4fb5-8749-3bacc59f2b16","system_id":"levelo_inurba_marseille","lat":43.27058,"lon":5.4026,"is_reserved":false,"is_disabled":false,"rental_uris":{"android":"levelo://app?vid=4be4a1fd-4cef-4fb5-8749-3bacc59f2b16","ios":"levelo://app?vid=4be4a1fd-4cef-4fb5-8749-3bacc59f2b16"},"vehicle_type_id":"4","last_reported":1731056970,"current_range_meters":8800,"station_id":"ce4bhk92rcd13ifvqgc0","pricing_plan_id":"cebpf4jnsgd1na2vs0mg"},{"bike_id":"43ef446d-8adc-44a9-a73d-78a211be3855","system_id":"levelo_inurba_marseille","lat":43.29963,"lon":5.4132,"is_reserved":false,"is_disabled":false,"rental_uris":{"android":"levelo://app?vid=43ef446d-8adc-44a9-a73d-78a211be3855","ios":"levelo://app?vid=43ef446d-8adc-44a9-a73d-78a211be3855"},"vehicle_type_id":"4","last_reported":1731056970,"current_range_meters":38800,"station_id":"ce4bhp12rcd13ifvqh9g","pricing_plan_id":"cebpf4jnsgd1na2vs0mg"},{"bike_id":"12ab8a2b-bf2e-44a7-8096-67ee8e37b5b1","system_id":"levelo_inurba_marseille","lat":43.26942,"lon":5.40247,"is_reserved":false,"is_disabled":false,"rental_uris":{"android":"levelo://app?vid=12ab8a2b-bf2e-44a7-8096-67ee8e37b5b1","ios":"levelo://app?vid=12ab8a2b-bf2e-44a7-8096-67ee8e37b5b1"},"vehicle_type_id":"4","last_reported":1731056970,"current_range_meters":29600,"station_id":"cjm6bp8fraef2m0cb0m0","pricing_plan_id":"cebpf4jnsgd1na2vs0mg"},{"bike_id":"5821fb6e-7935-4627-a802-4e24cbbbef26","system_id":"levelo_inurba_marseille","lat":43.32481,"lon":5.3656,"is_reserved":false,"is_disabled":false,"rental_uris":{"android":"levelo://app?vid=5821fb6e-7935-4627-a802-4e24cbbbef26","ios":"levelo://app?vid=5821fb6e-7935-4627-a802-4e24cbbbef26"},"vehicle_type_id":"4","last_reported":1731056970,"current_range_meters":26800,"station_id":"ce4bhs12rcd13ifvqhvg","pricing_plan_id":"cebpf4jnsgd1na2vs0mg"},{"bike_id":"60e49674-1511-4fcd-bada-27d38afc5358","system_id":"levelo_inurba_marseille","lat":43.29188,"lon":5.39319,"is_reserved":false,"is_disabled":false,"rental_uris":{"android":"levelo://app?vid=60e49674-1511-4fcd-bada-27d38afc5358","ios":"levelo://app?vid=60e49674-1511-4fcd-bada-27d38afc5358"},"vehicle_type_id":"4","last_reported":1731056970,"current_range_meters":37600,"station_id":"ce4bh192rcd13ifvqdd0","pricing_plan_id":"cebpf4jnsgd1na2vs0mg"},{"bike_id":"72f08fe2-f161-4e86-9fb3-c058a8767538","system_id":"levelo_inurba_marseille","lat":43.29919,"lon":5.37475,"is_reserved":false,"is_disabled":false,"rental_uris":{"android":"levelo://app?vid=72f08fe2-f161-4e86-9fb3-c058a8767538","ios":"levelo://app?vid=72f08fe2-f161-4e86-9fb3-c058a8767538"},"vehicle_type_id":"4","last_reported":1731056970,"current_range_meters":8800,"station_id":"ce4bgjh2rcd13ifvqbg0","pricing_plan_id":"cebpf4jnsgd1na2vs0mg"},{"bike_id":"4eecdf01-2312-4036-b477-5b5650016af3","system_id":"levelo_inurba_marseille","lat":43.28349,"lon":5.38106,"is_reserved":false,"is_disabled":false,"rental_uris":{"android":"levelo://app?vid=4eecdf01-2312-4036-b477-5b5650016af3","ios":"levelo://app?vid=4eecdf01-2312-4036-b477-5b5650016af3"},"vehicle_type_id":"4","last_reported":1731056970,"current_range_meters":36800,"station_id":"ce4bh412rcd13ifvqdr0","pricing_plan_id":"cebpf4jnsgd1na2vs0mg"},{"bike_id":"1260319e-875a-495e-866b-01a112f4bbd0","system_id":"levelo_inurba_marseille","lat":43.2957,"lon":5.3751,"is_reserved":false,"is_disabled":false,"rental_uris":{"android":"levelo://app?vid=1260319e-875a-495e-866b-01a112f4bbd0","ios":"levelo://app?vid=1260319e-875a-495e-866b-01a112f4bbd0"},"vehicle_type_id":"4","last_reported":1731056970,"current_range_meters":37600,"station_id":"ce4bgh92rcd13ifvqb50","pricing_plan_id":"cebpf4jnsgd1na2vs0mg"},{"bike_id":"3bd80771-f0cc-449c-9cc8-4e6bf7a0b1d7","system_id":"levelo_inurba_marseille","lat":43.2594,"lon":5.40898,"is_reserved":false,"is_disabled":false,"rental_uris":{"android":"levelo://app?vid=3bd80771-f0cc-449c-9cc8-4e6bf7a0b1d7","ios":"levelo://app?vid=3bd80771-f0cc-449c-9cc8-4e6bf7a0b1d7"},"vehicle_type_id":"4","last_reported":1731056970,"current_range_meters":31200,"station_id":"ce4bhm92rcd13ifvqglg","pricing_plan_id":"cebpf4jnsgd1na2vs0mg"},{"bike_id":"959d59bd-f72f-4994-94f8-56a070a04e8a","system_id":"levelo_inurba_marseille","lat":43.23156,"lon":5.43714,"is_reserved":false,"is_disabled":false,"rental_uris":{"android":"levelo://app?vid=959d59bd-f72f-4994-94f8-56a070a04e8a","ios":"levelo://app?vid=959d59bd-f72f-4994-94f8-56a070a04e8a"},"vehicle_type_id":"4","last_reported":1731056970,"current_range_meters":24800,"station_id":"ce4bhmp2rcd13ifvqgog","pricing_plan_id":"cebpf4jnsgd1na2vs0mg"},{"bike_id":"e7cd005d-d362-4c36-a955-3c59f122a64d","system_id":"levelo_inurba_marseille","lat":43.28154,"lon":5.4264,"is_reserved":false,"is_disabled":false,"rental_uris":{"android":"levelo://app?vid=e7cd005d-d362-4c36-a955-3c59f122a64d","ios":"levelo://app?vid=e7cd005d-d362-4c36-a955-3c59f122a64d"},"vehicle_type_id":"4","last_reported":1731056970,"current_range_meters":26000,"station_id":"ce4bhnh2rcd13ifvqgug","pricing_plan_id":"cebpf4jnsgd1na2vs0mg"},{"bike_id":"39c61992-e463-43ab-a378-210ef0da23ae","system_id":"levelo_inurba_marseille","lat":43.30189,"lon":5.36622,"is_reserved":false,"is_disabled":false,"rental_uris":{"android":"levelo://app?vid=39c61992-e463-43ab-a378-210ef0da23ae","ios":"levelo://app?vid=39c61992-e463-43ab-a378-210ef0da23ae"},"vehicle_type_id":"4","last_reported":1731056970,"current_range_meters":9200,"station_id":"ce4bgrh2rcd13ifvqc8g","pricing_plan_id":"cebpf4jnsgd1na2vs0mg"},{"bike_id":"86e551d3-ab2d-40d8-99a2-4972feb9b710","system_id":"levelo_inurba_marseille","lat":43.26563,"lon":5.39011,"is_reserved":false,"is_disabled":false,"rental_uris":{"android":"levelo://app?vid=86e551d3-ab2d-40d8-99a2-4972feb9b710","ios":"levelo://app?vid=86e551d3-ab2d-40d8-99a2-4972feb9b710"},"vehicle_type_id":"4","last_reported":1731056970,"current_range_meters":22800,"station_id":"ce4bhe12rcd13ifvqf30","pricing_plan_id":"cebpf4jnsgd1na2vs0mg"},{"bike_id":"71655dbe-ce6c-47d2-97d5-cb062ba24e62","system_id":"levelo_inurba_marseille","lat":43.26078,"lon":5.39384,"is_reserved":false,"is_disabled":false,"rental_uris":{"android":"levelo://app?vid=71655dbe-ce6c-47d2-97d5-cb062ba24e62","ios":"levelo://app?vid=71655dbe-ce6c-47d2-97d5-cb062ba24e62"},"vehicle_type_id":"4","last_reported":1731056970,"current_range_meters":40000,"station_id":"ce4bhh92rcd13ifvqfj0","pricing_plan_id":"cebpf4jnsgd1na2vs0mg"},{"bike_id":"7e3135bb-d8fe-4a72-b755-620b4d0f29f8","system_id":"levelo_inurba_marseille","lat":43.27195,"lon":5.40989,"is_reserved":false,"is_disabled":false,"rental_uris":{"android":"levelo://app?vid=7e3135bb-d8fe-4a72-b755-620b4d0f29f8","ios":"levelo://app?vid=7e3135bb-d8fe-4a72-b755-620b4d0f29f8"},"vehicle_type_id":"4","last_reported":1731056970,"current_range_meters":4400,"station_id":"ce4bhl12rcd13ifvqgf0","pricing_plan_id":"cebpf4jnsgd1na2vs0mg"},{"bike_id":"c7022000-40bb-4946-aca4-3a5058fa7b80","system_id":"levelo_inurba_marseille","lat":43.24088,"lon":5.37726,"is_reserved":false,"is_disabled":false,"rental_uris":{"android":"levelo://app?vid=c7022000-40bb-4946-aca4-3a5058fa7b80","ios":"levelo://app?vid=c7022000-40bb-4946-aca4-3a5058fa7b80"},"vehicle_type_id":"4","last_reported":1731056970,"current_range_meters":9600,"station_id":"ce4bhnp2rcd13ifvqgvg","pricing_plan_id":"cebpf4jnsgd1na2vs0mg"},{"bike_id":"eefd0687-4492-41ad-9368-b877bab02ae1","system_id":"levelo_inurba_marseille","lat":43.31236,"lon":5.36856,"is_reserved":false,"is_disabled":false,"rental_uris":{"android":"levelo://app?vid=eefd0687-4492-41ad-9368-b877bab02ae1","ios":"levelo://app?vid=eefd0687-4492-41ad-9368-b877bab02ae1"},"vehicle_type_id":"4","last_reported":1731056970,"current_range_meters":27200,"station_id":"ce4bgl92rcd13ifvqbq0","pricing_plan_id":"cebpf4jnsgd1na2vs0mg"},{"bike_id":"18e6e268-ee5c-48eb-8cca-cf1683288be5","system_id":"levelo_inurba_marseille","lat":43.30082,"lon":5.39077,"is_reserved":false,"is_disabled":false,"rental_uris":{"android":"levelo://app?vid=18e6e268-ee5c-48eb-8cca-cf1683288be5","ios":"levelo://app?vid=18e6e268-ee5c-48eb-8cca-cf1683288be5"},"vehicle_type_id":"4","last_reported":1731056970,"current_range_meters":24000,"station_id":"ce4bh192rcd13ifvqdb0","pricing_plan_id":"cebpf4jnsgd1na2vs0mg"},{"bike_id":"1f3ba906-6e07-4370-b207-43e1aae1c14a","system_id":"levelo_inurba_marseille","lat":43.31347,"lon":5.36718,"is_reserved":false,"is_disabled":false,"rental_uris":{"android":"levelo://app?vid=1f3ba906-6e07-4370-b207-43e1aae1c14a","ios":"levelo://app?vid=1f3ba906-6e07-4370-b207-43e1aae1c14a"},"vehicle_type_id":"4","last_reported":1731056970,"current_range_meters":12800,"station_id":"ce4bgr92rcd13ifvqc6g","pricing_plan_id":"cebpf4jnsgd1na2vs0mg"},{"bike_id":"4d59d358-815a-446a-a452-fae3197fee50","system_id":"levelo_inurba_marseille","lat":43.30962,"lon":5.39037,"is_reserved":false,"is_disabled":false,"rental_uris":{"android":"levelo://app?vid=4d59d358-815a-446a-a452-fae3197fee50","ios":"levelo://app?vid=4d59d358-815a-446a-a452-fae3197fee50"},"vehicle_type_id":"4","last_reported":1731056970,"current_range_meters":11200,"station_id":"ce4bgup2rcd13ifvqco0","pricing_plan_id":"cebpf4jnsgd1na2vs0mg"},{"bike_id":"954edc53-6ad5-4959-8ef7-cfb53e49b006","system_id":"levelo_inurba_marseille","lat":43.30474,"lon":5.37908,"is_reserved":false,"is_disabled":false,"rental_uris":{"android":"levelo://app?vid=954edc53-6ad5-4959-8ef7-cfb53e49b006","ios":"levelo://app?vid=954edc53-6ad5-4959-8ef7-cfb53e49b006"},"vehicle_type_id":"4","last_reported":1731056970,"current_range_meters":28000,"station_id":"ce4bgup2rcd13ifvqcn0","pricing_plan_id":"cebpf4jnsgd1na2vs0mg"},{"bike_id":"c70f3a51-3c77-47f4-afdc-c467e625745f","system_id":"levelo_inurba_marseille","lat":43.281054,"lon":5.382206,"is_reserved":false,"is_disabled":false,"rental_uris":{"android":"levelo://app?vid=c70f3a51-3c77-47f4-afdc-c467e625745f","ios":"levelo://app?vid=c70f3a51-3c77-47f4-afdc-c467e625745f"},"vehicle_type_id":"4","last_reported":1731056970,"current_range_meters":24000,"station_id":"","pricing_plan_id":"cebpf4jnsgd1na2vs0mg"},{"bike_id":"62c6c25d-fa62-481d-920c-11de550cf759","system_id":"levelo_inurba_marseille","lat":43.33745,"lon":5.37439,"is_reserved":false,"is_disabled":false,"rental_uris":{"android":"levelo://app?vid=62c6c25d-fa62-481d-920c-11de550cf759","ios":"levelo://app?vid=62c6c25d-fa62-481d-920c-11de550cf759"},"vehicle_type_id":"4","last_reported":1731056970,"current_range_meters":22400,"station_id":"","pricing_plan_id":"cebpf4jnsgd1na2vs0mg"},{"bike_id":"d6fdae69-642e-4d84-a8fd-edeb75ed0ef4","system_id":"levelo_inurba_marseille","lat":43.22932,"lon":5.35376,"is_reserved":false,"is_disabled":false,"rental_uris":{"android":"levelo://app?vid=d6fdae69-642e-4d84-a8fd-edeb75ed0ef4","ios":"levelo://app?vid=d6fdae69-642e-4d84-a8fd-edeb75ed0ef4"},"vehicle_type_id":"4","last_reported":1731056970,"current_range_meters":30800,"station_id":"cpo3532slgdg3j2ikp40","pricing_plan_id":"cebpf4jnsgd1na2vs0mg"},{"bike_id":"bdc2614c-f690-4a70-b4fe-4ce04e111f7f","system_id":"levelo_inurba_marseille","lat":43.31342,"lon":5.36724,"is_reserved":false,"is_disabled":false,"rental_uris":{"android":"levelo://app?vid=bdc2614c-f690-4a70-b4fe-4ce04e111f7f","ios":"levelo://app?vid=bdc2614c-f690-4a70-b4fe-4ce04e111f7f"},"vehicle_type_id":"4","last_reported":1731056970,"current_range_meters":39200,"station_id":"ce4bgr92rcd13ifvqc6g","pricing_plan_id":"cebpf4jnsgd1na2vs0mg"},{"bike_id":"bb44c556-a5f4-4b7f-b745-d43a6d5511b2","system_id":"levelo_inurba_marseille","lat":43.27326,"lon":5.39081,"is_reserved":false,"is_disabled":false,"rental_uris":{"android":"levelo://app?vid=bb44c556-a5f4-4b7f-b745-d43a6d5511b2","ios":"levelo://app?vid=bb44c556-a5f4-4b7f-b745-d43a6d5511b2"},"vehicle_type_id":"4","last_reported":1731056970,"current_range_meters":38800,"station_id":"ce4bhgp2rcd13ifvqfe0","pricing_plan_id":"cebpf4jnsgd1na2vs0mg"},{"bike_id":"f3933fe6-7050-4ceb-a431-290d7378c77f","system_id":"levelo_inurba_marseille","lat":43.31494,"lon":5.37306,"is_reserved":false,"is_disabled":false,"rental_uris":{"android":"levelo://app?vid=f3933fe6-7050-4ceb-a431-290d7378c77f","ios":"levelo://app?vid=f3933fe6-7050-4ceb-a431-290d7378c77f"},"vehicle_type_id":"4","last_reported":1731056970,"current_range_meters":38000,"station_id":"ce4bgt12rcd13ifvqcd0","pricing_plan_id":"cebpf4jnsgd1na2vs0mg"},{"bike_id":"41d53fd0-a0d7-4b1c-b163-f930cdeac82c","system_id":"levelo_inurba_marseille","lat":43.27824,"lon":5.38328,"is_reserved":false,"is_disabled":false,"rental_uris":{"android":"levelo://app?vid=41d53fd0-a0d7-4b1c-b163-f930cdeac82c","ios":"levelo://app?vid=41d53fd0-a0d7-4b1c-b163-f930cdeac82c"},"vehicle_type_id":"4","last_reported":1731056970,"current_range_meters":38800,"station_id":"","pricing_plan_id":"cebpf4jnsgd1na2vs0mg"},{"bike_id":"86d64521-d332-4842-b4fb-5fa4820d8c81","system_id":"levelo_inurba_marseille","lat":43.337444,"lon":5.374475,"is_reserved":false,"is_disabled":false,"rental_uris":{"android":"levelo://app?vid=86d64521-d332-4842-b4fb-5fa4820d8c81","ios":"levelo://app?vid=86d64521-d332-4842-b4fb-5fa4820d8c81"},"vehicle_type_id":"4","last_reported":1731056970,"current_range_meters":38400,"station_id":"","pricing_plan_id":"cebpf4jnsgd1na2vs0mg"},{"bike_id":"9b73f4a7-bd7e-46c7-9f9d-5e7ba5c5b218","system_id":"levelo_inurba_marseille","lat":43.2958,"lon":5.36742,"is_reserved":false,"is_disabled":false,"rental_uris":{"android":"levelo://app?vid=9b73f4a7-bd7e-46c7-9f9d-5e7ba5c5b218","ios":"levelo://app?vid=9b73f4a7-bd7e-46c7-9f9d-5e7ba5c5b218"},"vehicle_type_id":"4","last_reported":1731056970,"current_range_meters":33600,"station_id":"ce4bgph2rcd13ifvqc2g","pricing_plan_id":"cebpf4jnsgd1na2vs0mg"},{"bike_id":"80f88f91-d648-453a-88b2-cfa7d57ba25b","system_id":"levelo_inurba_marseille","lat":43.23181,"lon":5.39991,"is_reserved":false,"is_disabled":false,"rental_uris":{"android":"levelo://app?vid=80f88f91-d648-453a-88b2-cfa7d57ba25b","ios":"levelo://app?vid=80f88f91-d648-453a-88b2-cfa7d57ba25b"},"vehicle_type_id":"4","last_reported":1731056970,"current_range_meters":24800,"station_id":"ce4bhn12rcd13ifvqgqg","pricing_plan_id":"cebpf4jnsgd1na2vs0mg"},{"bike_id":"ddded72e-0039-4abb-b7d4-f32778257f6e","system_id":"levelo_inurba_marseille","lat":43.30959,"lon":5.39036,"is_reserved":false,"is_disabled":false,"rental_uris":{"android":"levelo://app?vid=ddded72e-0039-4abb-b7d4-f32778257f6e","ios":"levelo://app?vid=ddded72e-0039-4abb-b7d4-f32778257f6e"},"vehicle_type_id":"4","last_reported":1731056970,"current_range_meters":29600,"station_id":"ce4bgup2rcd13ifvqco0","pricing_plan_id":"cebpf4jnsgd1na2vs0mg"},{"bike_id":"30c759a2-6df1-49dd-8b4a-2f09b3c85fab","system_id":"levelo_inurba_marseille","lat":43.28123,"lon":5.37857,"is_reserved":false,"is_disabled":false,"rental_uris":{"android":"levelo://app?vid=30c759a2-6df1-49dd-8b4a-2f09b3c85fab","ios":"levelo://app?vid=30c759a2-6df1-49dd-8b4a-2f09b3c85fab"},"vehicle_type_id":"4","last_reported":1731056970,"current_range_meters":28000,"station_id":"ce4bha12rcd13ifvqee0","pricing_plan_id":"cebpf4jnsgd1na2vs0mg"},{"bike_id":"5f81654e-8028-4504-9e8a-17d2df2e56d3","system_id":"levelo_inurba_marseille","lat":43.24077,"lon":5.37756,"is_reserved":false,"is_disabled":false,"rental_uris":{"android":"levelo://app?vid=5f81654e-8028-4504-9e8a-17d2df2e56d3","ios":"levelo://app?vid=5f81654e-8028-4504-9e8a-17d2df2e56d3"},"vehicle_type_id":"4","last_reported":1731056970,"current_range_meters":9200,"station_id":"ce4bhnp2rcd13ifvqgvg","pricing_plan_id":"cebpf4jnsgd1na2vs0mg"},{"bike_id":"c0ff6ac5-e73d-4157-b6f1-8368225d277a","system_id":"levelo_inurba_marseille","lat":43.24999,"lon":5.38925,"is_reserved":false,"is_disabled":false,"rental_uris":{"android":"levelo://app?vid=c0ff6ac5-e73d-4157-b6f1-8368225d277a","ios":"levelo://app?vid=c0ff6ac5-e73d-4157-b6f1-8368225d277a"},"vehicle_type_id":"4","last_reported":1731056970,"current_range_meters":8800,"station_id":"ce4bhgp2rcd13ifvqfd0","pricing_plan_id":"cebpf4jnsgd1na2vs0mg"},{"bike_id":"16241619-68a5-47ef-8ec1-a191e36146be","system_id":"levelo_inurba_marseille","lat":43.3046,"lon":5.37899,"is_reserved":false,"is_disabled":false,"rental_uris":{"android":"levelo://app?vid=16241619-68a5-47ef-8ec1-a191e36146be","ios":"levelo://app?vid=16241619-68a5-47ef-8ec1-a191e36146be"},"vehicle_type_id":"4","last_reported":1731056970,"current_range_meters":39200,"station_id":"ce4bgup2rcd13ifvqcn0","pricing_plan_id":"cebpf4jnsgd1na2vs0mg"},{"bike_id":"dcfeb495-eba8-43c2-a39d-e684f7df95ac","system_id":"levelo_inurba_marseille","lat":43.30633,"lon":5.37311,"is_reserved":false,"is_disabled":false,"rental_uris":{"android":"levelo://app?vid=dcfeb495-eba8-43c2-a39d-e684f7df95ac","ios":"levelo://app?vid=dcfeb495-eba8-43c2-a39d-e684f7df95ac"},"vehicle_type_id":"4","last_reported":1731056970,"current_range_meters":24000,"station_id":"","pricing_plan_id":"cebpf4jnsgd1na2vs0mg"},{"bike_id":"13ad741b-5269-4348-a9e8-09ad65ab743f","system_id":"levelo_inurba_marseille","lat":43.23155,"lon":5.43708,"is_reserved":false,"is_disabled":false,"rental_uris":{"android":"levelo://app?vid=13ad741b-5269-4348-a9e8-09ad65ab743f","ios":"levelo://app?vid=13ad741b-5269-4348-a9e8-09ad65ab743f"},"vehicle_type_id":"4","last_reported":1731056970,"current_range_meters":28400,"station_id":"ce4bhmp2rcd13ifvqgog","pricing_plan_id":"cebpf4jnsgd1na2vs0mg"},{"bike_id":"93f22be1-f1d4-40e6-9b32-f90befdc8177","system_id":"levelo_inurba_marseille","lat":43.23154,"lon":5.43714,"is_reserved":false,"is_disabled":false,"rental_uris":{"android":"levelo://app?vid=93f22be1-f1d4-40e6-9b32-f90befdc8177","ios":"levelo://app?vid=93f22be1-f1d4-40e6-9b32-f90befdc8177"},"vehicle_type_id":"4","last_reported":1731056970,"current_range_meters":36400,"station_id":"ce4bhmp2rcd13ifvqgog","pricing_plan_id":"cebpf4jnsgd1na2vs0mg"},{"bike_id":"297278e5-15d6-494f-bedc-e1bc1c8cf2d6","system_id":"levelo_inurba_marseille","lat":43.32545,"lon":5.41445,"is_reserved":false,"is_disabled":false,"rental_uris":{"android":"levelo://app?vid=297278e5-15d6-494f-bedc-e1bc1c8cf2d6","ios":"levelo://app?vid=297278e5-15d6-494f-bedc-e1bc1c8cf2d6"},"vehicle_type_id":"4","last_reported":1731056970,"current_range_meters":33600,"station_id":"ce4bhq12rcd13ifvqhhg","pricing_plan_id":"cebpf4jnsgd1na2vs0mg"},{"bike_id":"eb117832-b879-4edf-8795-86fc8cbbd11e","system_id":"levelo_inurba_marseille","lat":43.28015,"lon":5.399481,"is_reserved":false,"is_disabled":false,"rental_uris":{"android":"levelo://app?vid=eb117832-b879-4edf-8795-86fc8cbbd11e","ios":"levelo://app?vid=eb117832-b879-4edf-8795-86fc8cbbd11e"},"vehicle_type_id":"4","last_reported":1731056970,"current_range_meters":6400,"station_id":"ce4bho92rcd13ifvqh4g","pricing_plan_id":"cebpf4jnsgd1na2vs0mg"},{"bike_id":"f2fcd576-71b9-4460-89e1-54c6a9a71f54","system_id":"levelo_inurba_marseille","lat":43.32543,"lon":5.41446,"is_reserved":false,"is_disabled":false,"rental_uris":{"android":"levelo://app?vid=f2fcd576-71b9-4460-89e1-54c6a9a71f54","ios":"levelo://app?vid=f2fcd576-71b9-4460-89e1-54c6a9a71f54"},"vehicle_type_id":"4","last_reported":1731056970,"current_range_meters":6800,"station_id":"ce4bhq12rcd13ifvqhhg","pricing_plan_id":"cebpf4jnsgd1na2vs0mg"},{"bike_id":"e1298e98-38f4-4f03-af86-984cae027c59","system_id":"levelo_inurba_marseille","lat":43.26932,"lon":5.38917,"is_reserved":false,"is_disabled":false,"rental_uris":{"android":"levelo://app?vid=e1298e98-38f4-4f03-af86-984cae027c59","ios":"levelo://app?vid=e1298e98-38f4-4f03-af86-984cae027c59"},"vehicle_type_id":"4","last_reported":1731056970,"current_range_meters":38400,"station_id":"ce4bhhh2rcd13ifvqfl0","pricing_plan_id":"cebpf4jnsgd1na2vs0mg"},{"bike_id":"ce13fb32-8358-480c-ba73-764c39ca37c3","system_id":"levelo_inurba_marseille","lat":43.31345,"lon":5.3673,"is_reserved":false,"is_disabled":false,"rental_uris":{"android":"levelo://app?vid=ce13fb32-8358-480c-ba73-764c39ca37c3","ios":"levelo://app?vid=ce13fb32-8358-480c-ba73-764c39ca37c3"},"vehicle_type_id":"4","last_reported":1731056970,"current_range_meters":21600,"station_id":"ce4bgr92rcd13ifvqc6g","pricing_plan_id":"cebpf4jnsgd1na2vs0mg"},{"bike_id":"b2f51551-b8bc-4eff-bb86-7a000bad778e","system_id":"levelo_inurba_marseille","lat":43.25939,"lon":5.40899,"is_reserved":false,"is_disabled":false,"rental_uris":{"android":"levelo://app?vid=b2f51551-b8bc-4eff-bb86-7a000bad778e","ios":"levelo://app?vid=b2f51551-b8bc-4eff-bb86-7a000bad778e"},"vehicle_type_id":"4","last_reported":1731056970,"current_range_meters":28400,"station_id":"ce4bhm92rcd13ifvqglg","pricing_plan_id":"cebpf4jnsgd1na2vs0mg"},{"bike_id":"56995c30-db28-40f7-b8f1-a15a72ee5f8d","system_id":"levelo_inurba_marseille","lat":43.24084,"lon":5.37755,"is_reserved":false,"is_disabled":false,"rental_uris":{"android":"levelo://app?vid=56995c30-db28-40f7-b8f1-a15a72ee5f8d","ios":"levelo://app?vid=56995c30-db28-40f7-b8f1-a15a72ee5f8d"},"vehicle_type_id":"4","last_reported":1731056970,"current_range_meters":19200,"station_id":"ce4bhnp2rcd13ifvqgvg","pricing_plan_id":"cebpf4jnsgd1na2vs0mg"},{"bike_id":"d5d04d28-c569-4b5a-8ae1-571e6c5928b3","system_id":"levelo_inurba_marseille","lat":43.33026,"lon":5.39039,"is_reserved":false,"is_disabled":false,"rental_uris":{"android":"levelo://app?vid=d5d04d28-c569-4b5a-8ae1-571e6c5928b3","ios":"levelo://app?vid=d5d04d28-c569-4b5a-8ae1-571e6c5928b3"},"vehicle_type_id":"4","last_reported":1731056970,"current_range_meters":39200,"station_id":"ce4bhr92rcd13ifvqhrg","pricing_plan_id":"cebpf4jnsgd1na2vs0mg"},{"bike_id":"1fc60948-1d60-4cbb-b6e7-35e5856d8024","system_id":"levelo_inurba_marseille","lat":43.30141,"lon":5.37428,"is_reserved":false,"is_disabled":false,"rental_uris":{"android":"levelo://app?vid=1fc60948-1d60-4cbb-b6e7-35e5856d8024","ios":"levelo://app?vid=1fc60948-1d60-4cbb-b6e7-35e5856d8024"},"vehicle_type_id":"4","last_reported":1731056970,"current_range_meters":36400,"station_id":"ce4bgs92rcd13ifvqcc0","pricing_plan_id":"cebpf4jnsgd1na2vs0mg"},{"bike_id":"650f5835-bc4e-42c7-b5d8-20d584cdd8af","system_id":"levelo_inurba_marseille","lat":43.32472,"lon":5.36573,"is_reserved":false,"is_disabled":false,"rental_uris":{"android":"levelo://app?vid=650f5835-bc4e-42c7-b5d8-20d584cdd8af","ios":"levelo://app?vid=650f5835-bc4e-42c7-b5d8-20d584cdd8af"},"vehicle_type_id":"4","last_reported":1731056970,"current_range_meters":37600,"station_id":"ce4bhs12rcd13ifvqhvg","pricing_plan_id":"cebpf4jnsgd1na2vs0mg"},{"bike_id":"62a54398-3548-44a9-9f73-cdb541d73926","system_id":"levelo_inurba_marseille","lat":43.30954,"lon":5.39039,"is_reserved":false,"is_disabled":false,"rental_uris":{"android":"levelo://app?vid=62a54398-3548-44a9-9f73-cdb541d73926","ios":"levelo://app?vid=62a54398-3548-44a9-9f73-cdb541d73926"},"vehicle_type_id":"4","last_reported":1731056970,"current_range_meters":19200,"station_id":"ce4bgup2rcd13ifvqco0","pricing_plan_id":"cebpf4jnsgd1na2vs0mg"},{"bike_id":"6b9fc225-cd4f-47e5-bc5e-a4e18191acc9","system_id":"levelo_inurba_marseille","lat":43.2407,"lon":5.37757,"is_reserved":false,"is_disabled":false,"rental_uris":{"android":"levelo://app?vid=6b9fc225-cd4f-47e5-bc5e-a4e18191acc9","ios":"levelo://app?vid=6b9fc225-cd4f-47e5-bc5e-a4e18191acc9"},"vehicle_type_id":"4","last_reported":1731056970,"current_range_meters":31200,"station_id":"ce4bhnp2rcd13ifvqgvg","pricing_plan_id":"cebpf4jnsgd1na2vs0mg"},{"bike_id":"3fce9907-5a94-48a8-9013-cc802630286d","system_id":"levelo_inurba_marseille","lat":43.31359,"lon":5.36723,"is_reserved":false,"is_disabled":false,"rental_uris":{"android":"levelo://app?vid=3fce9907-5a94-48a8-9013-cc802630286d","ios":"levelo://app?vid=3fce9907-5a94-48a8-9013-cc802630286d"},"vehicle_type_id":"4","last_reported":1731056970,"current_range_meters":22800,"station_id":"ce4bgr92rcd13ifvqc6g","pricing_plan_id":"cebpf4jnsgd1na2vs0mg"},{"bike_id":"92bbe5af-b5d9-48fc-afb8-3b15fc8d3190","system_id":"levelo_inurba_marseille","lat":43.31714,"lon":5.42404,"is_reserved":false,"is_disabled":false,"rental_uris":{"android":"levelo://app?vid=92bbe5af-b5d9-48fc-afb8-3b15fc8d3190","ios":"levelo://app?vid=92bbe5af-b5d9-48fc-afb8-3b15fc8d3190"},"vehicle_type_id":"4","last_reported":1731056970,"current_range_meters":29600,"station_id":"ce4bhp92rcd13ifvqhbg","pricing_plan_id":"cebpf4jnsgd1na2vs0mg"},{"bike_id":"75eaf369-4a6d-49f4-92b4-b6d2925b63f9","system_id":"levelo_inurba_marseille","lat":43.29074,"lon":5.37163,"is_reserved":false,"is_disabled":false,"rental_uris":{"android":"levelo://app?vid=75eaf369-4a6d-49f4-92b4-b6d2925b63f9","ios":"levelo://app?vid=75eaf369-4a6d-49f4-92b4-b6d2925b63f9"},"vehicle_type_id":"4","last_reported":1731056970,"current_range_meters":38800,"station_id":"ce4bh5p2rcd13ifvqe4g","pricing_plan_id":"cebpf4jnsgd1na2vs0mg"},{"bike_id":"933b4846-c834-47f2-9adb-90df4c092593","system_id":"levelo_inurba_marseille","lat":43.2668,"lon":5.38267,"is_reserved":false,"is_disabled":false,"rental_uris":{"android":"levelo://app?vid=933b4846-c834-47f2-9adb-90df4c092593","ios":"levelo://app?vid=933b4846-c834-47f2-9adb-90df4c092593"},"vehicle_type_id":"4","last_reported":1731056970,"current_range_meters":9200,"station_id":"ce4bhg92rcd13ifvqf90","pricing_plan_id":"cebpf4jnsgd1na2vs0mg"},{"bike_id":"ae6411f3-ae31-4f90-8975-cbb8b6d77600","system_id":"levelo_inurba_marseille","lat":43.32482,"lon":5.36556,"is_reserved":false,"is_disabled":false,"rental_uris":{"android":"levelo://app?vid=ae6411f3-ae31-4f90-8975-cbb8b6d77600","ios":"levelo://app?vid=ae6411f3-ae31-4f90-8975-cbb8b6d77600"},"vehicle_type_id":"4","last_reported":1731056970,"current_range_meters":11600,"station_id":"ce4bhs12rcd13ifvqhvg","pricing_plan_id":"cebpf4jnsgd1na2vs0mg"},{"bike_id":"4b918122-42c5-46f4-98ac-7a2d6c6f4495","system_id":"levelo_inurba_marseille","lat":43.25934,"lon":5.40911,"is_reserved":false,"is_disabled":false,"rental_uris":{"android":"levelo://app?vid=4b918122-42c5-46f4-98ac-7a2d6c6f4495","ios":"levelo://app?vid=4b918122-42c5-46f4-98ac-7a2d6c6f4495"},"vehicle_type_id":"4","last_reported":1731056970,"current_range_meters":25200,"station_id":"ce4bhm92rcd13ifvqglg","pricing_plan_id":"cebpf4jnsgd1na2vs0mg"},{"bike_id":"f54bde22-39d9-429c-beb9-5c655cc1564e","system_id":"levelo_inurba_marseille","lat":43.31224,"lon":5.36863,"is_reserved":false,"is_disabled":false,"rental_uris":{"android":"levelo://app?vid=f54bde22-39d9-429c-beb9-5c655cc1564e","ios":"levelo://app?vid=f54bde22-39d9-429c-beb9-5c655cc1564e"},"vehicle_type_id":"4","last_reported":1731056970,"current_range_meters":39200,"station_id":"ce4bgl92rcd13ifvqbq0","pricing_plan_id":"cebpf4jnsgd1na2vs0mg"},{"bike_id":"95148b88-228e-47b1-9a0c-3baa9b1ffef9","system_id":"levelo_inurba_marseille","lat":43.3108,"lon":5.42427,"is_reserved":false,"is_disabled":false,"rental_uris":{"android":"levelo://app?vid=95148b88-228e-47b1-9a0c-3baa9b1ffef9","ios":"levelo://app?vid=95148b88-228e-47b1-9a0c-3baa9b1ffef9"},"vehicle_type_id":"4","last_reported":1731056970,"current_range_meters":32000,"station_id":"ce4bhp92rcd13ifvqhag","pricing_plan_id":"cebpf4jnsgd1na2vs0mg"},{"bike_id":"82df5641-1794-41ca-9567-6e77d2715cc6","system_id":"levelo_inurba_marseille","lat":43.30535,"lon":5.36725,"is_reserved":false,"is_disabled":false,"rental_uris":{"android":"levelo://app?vid=82df5641-1794-41ca-9567-6e77d2715cc6","ios":"levelo://app?vid=82df5641-1794-41ca-9567-6e77d2715cc6"},"vehicle_type_id":"4","last_reported":1731056970,"current_range_meters":24400,"station_id":"ce4bgrp2rcd13ifvqc9g","pricing_plan_id":"cebpf4jnsgd1na2vs0mg"},{"bike_id":"1435a64a-818c-4467-bbd8-540e30a4a176","system_id":"levelo_inurba_marseille","lat":43.29965,"lon":5.37167,"is_reserved":false,"is_disabled":false,"rental_uris":{"android":"levelo://app?vid=1435a64a-818c-4467-bbd8-540e30a4a176","ios":"levelo://app?vid=1435a64a-818c-4467-bbd8-540e30a4a176"},"vehicle_type_id":"4","last_reported":1731056970,"current_range_meters":27600,"station_id":"ce4bgr92rcd13ifvqc7g","pricing_plan_id":"cebpf4jnsgd1na2vs0mg"},{"bike_id":"b4d2b281-5873-4902-bc46-b113f3def767","system_id":"levelo_inurba_marseille","lat":43.24076,"lon":5.37751,"is_reserved":false,"is_disabled":false,"rental_uris":{"android":"levelo://app?vid=b4d2b281-5873-4902-bc46-b113f3def767","ios":"levelo://app?vid=b4d2b281-5873-4902-bc46-b113f3def767"},"vehicle_type_id":"4","last_reported":1731056970,"current_range_meters":38400,"station_id":"ce4bhnp2rcd13ifvqgvg","pricing_plan_id":"cebpf4jnsgd1na2vs0mg"},{"bike_id":"27a50299-178b-461c-8bfe-e9c0249ffc99","system_id":"levelo_inurba_marseille","lat":43.28039,"lon":5.36957,"is_reserved":false,"is_disabled":false,"rental_uris":{"android":"levelo://app?vid=27a50299-178b-461c-8bfe-e9c0249ffc99","ios":"levelo://app?vid=27a50299-178b-461c-8bfe-e9c0249ffc99"},"vehicle_type_id":"4","last_reported":1731056970,"current_range_meters":14000,"station_id":"ce4bha12rcd13ifvqef0","pricing_plan_id":"cebpf4jnsgd1na2vs0mg"},{"bike_id":"224b4f9b-8964-41f7-a92d-d6f79ed1277c","system_id":"levelo_inurba_marseille","lat":43.33603,"lon":5.41022,"is_reserved":false,"is_disabled":false,"rental_uris":{"android":"levelo://app?vid=224b4f9b-8964-41f7-a92d-d6f79ed1277c","ios":"levelo://app?vid=224b4f9b-8964-41f7-a92d-d6f79ed1277c"},"vehicle_type_id":"4","last_reported":1731056970,"current_range_meters":20000,"station_id":"ce4bhqh2rcd13ifvqhmg","pricing_plan_id":"cebpf4jnsgd1na2vs0mg"},{"bike_id":"438c3097-87e9-4b63-ac81-00ee962e9a9f","system_id":"levelo_inurba_marseille","lat":43.26682,"lon":5.38267,"is_reserved":false,"is_disabled":false,"rental_uris":{"android":"levelo://app?vid=438c3097-87e9-4b63-ac81-00ee962e9a9f","ios":"levelo://app?vid=438c3097-87e9-4b63-ac81-00ee962e9a9f"},"vehicle_type_id":"4","last_reported":1731056970,"current_range_meters":38400,"station_id":"ce4bhg92rcd13ifvqf90","pricing_plan_id":"cebpf4jnsgd1na2vs0mg"},{"bike_id":"0953c204-6257-49ee-99e1-fac599d5e6fb","system_id":"levelo_inurba_marseille","lat":43.23958,"lon":5.36636,"is_reserved":false,"is_disabled":false,"rental_uris":{"android":"levelo://app?vid=0953c204-6257-49ee-99e1-fac599d5e6fb","ios":"levelo://app?vid=0953c204-6257-49ee-99e1-fac599d5e6fb"},"vehicle_type_id":"4","last_reported":1731056970,"current_range_meters":37600,"station_id":"ce4bhi12rcd13ifvqfp0","pricing_plan_id":"cebpf4jnsgd1na2vs0mg"},{"bike_id":"8165eabf-8e73-489a-a380-139842280a9e","system_id":"levelo_inurba_marseille","lat":43.30479,"lon":5.3803,"is_reserved":false,"is_disabled":false,"rental_uris":{"android":"levelo://app?vid=8165eabf-8e73-489a-a380-139842280a9e","ios":"levelo://app?vid=8165eabf-8e73-489a-a380-139842280a9e"},"vehicle_type_id":"4","last_reported":1731056970,"current_range_meters":38800,"station_id":"","pricing_plan_id":"cebpf4jnsgd1na2vs0mg"},{"bike_id":"815a0138-3843-4918-a6bb-a635a504bec6","system_id":"levelo_inurba_marseille","lat":43.24075,"lon":5.37756,"is_reserved":false,"is_disabled":false,"rental_uris":{"android":"levelo://app?vid=815a0138-3843-4918-a6bb-a635a504bec6","ios":"levelo://app?vid=815a0138-3843-4918-a6bb-a635a504bec6"},"vehicle_type_id":"4","last_reported":1731056970,"current_range_meters":24400,"station_id":"ce4bhnp2rcd13ifvqgvg","pricing_plan_id":"cebpf4jnsgd1na2vs0mg"},{"bike_id":"f5da078b-5359-4a72-8642-c4bd0f9e6885","system_id":"levelo_inurba_marseille","lat":43.28344,"lon":5.3811,"is_reserved":false,"is_disabled":false,"rental_uris":{"android":"levelo://app?vid=f5da078b-5359-4a72-8642-c4bd0f9e6885","ios":"levelo://app?vid=f5da078b-5359-4a72-8642-c4bd0f9e6885"},"vehicle_type_id":"4","last_reported":1731056970,"current_range_meters":32800,"station_id":"ce4bh412rcd13ifvqdr0","pricing_plan_id":"cebpf4jnsgd1na2vs0mg"},{"bike_id":"1fbe8b34-59af-4326-86a2-a715ddf653ee","system_id":"levelo_inurba_marseille","lat":43.32477,"lon":5.36571,"is_reserved":false,"is_disabled":false,"rental_uris":{"android":"levelo://app?vid=1fbe8b34-59af-4326-86a2-a715ddf653ee","ios":"levelo://app?vid=1fbe8b34-59af-4326-86a2-a715ddf653ee"},"vehicle_type_id":"4","last_reported":1731056970,"current_range_meters":37600,"station_id":"ce4bhs12rcd13ifvqhvg","pricing_plan_id":"cebpf4jnsgd1na2vs0mg"},{"bike_id":"93e800a3-8b5c-4a17-a99e-16efe8faf410","system_id":"levelo_inurba_marseille","lat":43.32548,"lon":5.41444,"is_reserved":false,"is_disabled":false,"rental_uris":{"android":"levelo://app?vid=93e800a3-8b5c-4a17-a99e-16efe8faf410","ios":"levelo://app?vid=93e800a3-8b5c-4a17-a99e-16efe8faf410"},"vehicle_type_id":"4","last_reported":1731056970,"current_range_meters":28000,"station_id":"ce4bhq12rcd13ifvqhhg","pricing_plan_id":"cebpf4jnsgd1na2vs0mg"},{"bike_id":"1a278f87-9283-466b-97e0-36d36f134453","system_id":"levelo_inurba_marseille","lat":43.29584,"lon":5.36736,"is_reserved":false,"is_disabled":false,"rental_uris":{"android":"levelo://app?vid=1a278f87-9283-466b-97e0-36d36f134453","ios":"levelo://app?vid=1a278f87-9283-466b-97e0-36d36f134453"},"vehicle_type_id":"4","last_reported":1731056970,"current_range_meters":36000,"station_id":"ce4bgph2rcd13ifvqc2g","pricing_plan_id":"cebpf4jnsgd1na2vs0mg"},{"bike_id":"67a67de2-5262-42a9-b64a-4eae7029d493","system_id":"levelo_inurba_marseille","lat":43.30473,"lon":5.37911,"is_reserved":false,"is_disabled":false,"rental_uris":{"android":"levelo://app?vid=67a67de2-5262-42a9-b64a-4eae7029d493","ios":"levelo://app?vid=67a67de2-5262-42a9-b64a-4eae7029d493"},"vehicle_type_id":"4","last_reported":1731056970,"current_range_meters":30400,"station_id":"ce4bgup2rcd13ifvqcn0","pricing_plan_id":"cebpf4jnsgd1na2vs0mg"},{"bike_id":"d1fd55bf-56d3-4db2-999c-34eaf3a04400","system_id":"levelo_inurba_marseille","lat":43.298914,"lon":5.397409,"is_reserved":false,"is_disabled":false,"rental_uris":{"android":"levelo://app?vid=d1fd55bf-56d3-4db2-999c-34eaf3a04400","ios":"levelo://app?vid=d1fd55bf-56d3-4db2-999c-34eaf3a04400"},"vehicle_type_id":"4","last_reported":1731056970,"current_range_meters":38400,"station_id":"ce4bh0h2rcd13ifvqd50","pricing_plan_id":"cebpf4jnsgd1na2vs0mg"},{"bike_id":"dfcf3015-64e1-4c73-9065-23a58d1a316f","system_id":"levelo_inurba_marseille","lat":43.33742,"lon":5.37449,"is_reserved":false,"is_disabled":false,"rental_uris":{"android":"levelo://app?vid=dfcf3015-64e1-4c73-9065-23a58d1a316f","ios":"levelo://app?vid=dfcf3015-64e1-4c73-9065-23a58d1a316f"},"vehicle_type_id":"4","last_reported":1731056970,"current_range_meters":33200,"station_id":"","pricing_plan_id":"cebpf4jnsgd1na2vs0mg"},{"bike_id":"a857852f-ab68-41f9-9316-7113b72659b6","system_id":"levelo_inurba_marseille","lat":43.25011,"lon":5.38914,"is_reserved":false,"is_disabled":false,"rental_uris":{"android":"levelo://app?vid=a857852f-ab68-41f9-9316-7113b72659b6","ios":"levelo://app?vid=a857852f-ab68-41f9-9316-7113b72659b6"},"vehicle_type_id":"4","last_reported":1731056970,"current_range_meters":12800,"station_id":"ce4bhgp2rcd13ifvqfd0","pricing_plan_id":"cebpf4jnsgd1na2vs0mg"},{"bike_id":"7f2fea77-957a-450e-aafd-8a5fadc8bdce","system_id":"levelo_inurba_marseille","lat":43.25941,"lon":5.409,"is_reserved":false,"is_disabled":false,"rental_uris":{"android":"levelo://app?vid=7f2fea77-957a-450e-aafd-8a5fadc8bdce","ios":"levelo://app?vid=7f2fea77-957a-450e-aafd-8a5fadc8bdce"},"vehicle_type_id":"4","last_reported":1731056970,"current_range_meters":26000,"station_id":"ce4bhm92rcd13ifvqglg","pricing_plan_id":"cebpf4jnsgd1na2vs0mg"},{"bike_id":"b46ef1e8-1f5c-4ed9-8ea1-84ae97025f18","system_id":"levelo_inurba_marseille","lat":43.29322,"lon":5.37169,"is_reserved":false,"is_disabled":false,"rental_uris":{"android":"levelo://app?vid=b46ef1e8-1f5c-4ed9-8ea1-84ae97025f18","ios":"levelo://app?vid=b46ef1e8-1f5c-4ed9-8ea1-84ae97025f18"},"vehicle_type_id":"4","last_reported":1731056970,"current_range_meters":36800,"station_id":"ce4bgh92rcd13ifvqb40","pricing_plan_id":"cebpf4jnsgd1na2vs0mg"},{"bike_id":"994f2147-e130-4895-b32f-cea19e1b13aa","system_id":"levelo_inurba_marseille","lat":43.283417,"lon":5.381074,"is_reserved":false,"is_disabled":false,"rental_uris":{"android":"levelo://app?vid=994f2147-e130-4895-b32f-cea19e1b13aa","ios":"levelo://app?vid=994f2147-e130-4895-b32f-cea19e1b13aa"},"vehicle_type_id":"4","last_reported":1731056970,"current_range_meters":7200,"station_id":"","pricing_plan_id":"cebpf4jnsgd1na2vs0mg"},{"bike_id":"cf8f8482-f782-4c29-b6ce-e440f1c1c735","system_id":"levelo_inurba_marseille","lat":43.30539,"lon":5.36701,"is_reserved":false,"is_disabled":false,"rental_uris":{"android":"levelo://app?vid=cf8f8482-f782-4c29-b6ce-e440f1c1c735","ios":"levelo://app?vid=cf8f8482-f782-4c29-b6ce-e440f1c1c735"},"vehicle_type_id":"4","last_reported":1731056970,"current_range_meters":38000,"station_id":"ce4bgrp2rcd13ifvqc9g","pricing_plan_id":"cebpf4jnsgd1na2vs0mg"},{"bike_id":"ac960791-5923-4024-bf74-2e67976868bc","system_id":"levelo_inurba_marseille","lat":43.27612,"lon":5.36102,"is_reserved":false,"is_disabled":false,"rental_uris":{"android":"levelo://app?vid=ac960791-5923-4024-bf74-2e67976868bc","ios":"levelo://app?vid=ac960791-5923-4024-bf74-2e67976868bc"},"vehicle_type_id":"4","last_reported":1731056970,"current_range_meters":26800,"station_id":"ce4bgj92rcd13ifvqbe0","pricing_plan_id":"cebpf4jnsgd1na2vs0mg"},{"bike_id":"9086d00c-2d6e-4105-9897-c3711ab79722","system_id":"levelo_inurba_marseille","lat":43.25825,"lon":5.39438,"is_reserved":false,"is_disabled":false,"rental_uris":{"android":"levelo://app?vid=9086d00c-2d6e-4105-9897-c3711ab79722","ios":"levelo://app?vid=9086d00c-2d6e-4105-9897-c3711ab79722"},"vehicle_type_id":"4","last_reported":1731056970,"current_range_meters":23200,"station_id":"ce4bhip2rcd13ifvqft0","pricing_plan_id":"cebpf4jnsgd1na2vs0mg"},{"bike_id":"effa9bf3-1a26-43a8-949d-44fdf5caeec3","system_id":"levelo_inurba_marseille","lat":43.30134,"lon":5.37434,"is_reserved":false,"is_disabled":false,"rental_uris":{"android":"levelo://app?vid=effa9bf3-1a26-43a8-949d-44fdf5caeec3","ios":"levelo://app?vid=effa9bf3-1a26-43a8-949d-44fdf5caeec3"},"vehicle_type_id":"4","last_reported":1731056970,"current_range_meters":25200,"station_id":"ce4bgs92rcd13ifvqcc0","pricing_plan_id":"cebpf4jnsgd1na2vs0mg"},{"bike_id":"ff989801-f59b-46d1-867b-7c2b6eab1cca","system_id":"levelo_inurba_marseille","lat":43.337444,"lon":5.374475,"is_reserved":false,"is_disabled":false,"rental_uris":{"android":"levelo://app?vid=ff989801-f59b-46d1-867b-7c2b6eab1cca","ios":"levelo://app?vid=ff989801-f59b-46d1-867b-7c2b6eab1cca"},"vehicle_type_id":"4","last_reported":1731056970,"current_range_meters":38800,"station_id":"","pricing_plan_id":"cebpf4jnsgd1na2vs0mg"},{"bike_id":"0f445d8d-c5c6-4426-9c60-d64eb330cd19","system_id":"levelo_inurba_marseille","lat":43.32287,"lon":5.38267,"is_reserved":false,"is_disabled":false,"rental_uris":{"android":"levelo://app?vid=0f445d8d-c5c6-4426-9c60-d64eb330cd19","ios":"levelo://app?vid=0f445d8d-c5c6-4426-9c60-d64eb330cd19"},"vehicle_type_id":"4","last_reported":1731056970,"current_range_meters":38000,"station_id":"ce4bhr12rcd13ifvqhqg","pricing_plan_id":"cebpf4jnsgd1na2vs0mg"},{"bike_id":"e9c8a630-2d73-4117-9bf7-aca5570a0743","system_id":"levelo_inurba_marseille","lat":43.23194,"lon":5.39993,"is_reserved":false,"is_disabled":false,"rental_uris":{"android":"levelo://app?vid=e9c8a630-2d73-4117-9bf7-aca5570a0743","ios":"levelo://app?vid=e9c8a630-2d73-4117-9bf7-aca5570a0743"},"vehicle_type_id":"4","last_reported":1731056970,"current_range_meters":37600,"station_id":"ce4bhn12rcd13ifvqgqg","pricing_plan_id":"cebpf4jnsgd1na2vs0mg"},{"bike_id":"4b6a46d4-26ae-4101-bbd0-9f440eaafa94","system_id":"levelo_inurba_marseille","lat":43.2799,"lon":5.41655,"is_reserved":false,"is_disabled":false,"rental_uris":{"android":"levelo://app?vid=4b6a46d4-26ae-4101-bbd0-9f440eaafa94","ios":"levelo://app?vid=4b6a46d4-26ae-4101-bbd0-9f440eaafa94"},"vehicle_type_id":"4","last_reported":1731056970,"current_range_meters":30800,"station_id":"ce4bho12rcd13ifvqh1g","pricing_plan_id":"cebpf4jnsgd1na2vs0mg"},{"bike_id":"502c538f-739d-4605-9214-99ec0c3fdafd","system_id":"levelo_inurba_marseille","lat":43.25004,"lon":5.38925,"is_reserved":false,"is_disabled":false,"rental_uris":{"android":"levelo://app?vid=502c538f-739d-4605-9214-99ec0c3fdafd","ios":"levelo://app?vid=502c538f-739d-4605-9214-99ec0c3fdafd"},"vehicle_type_id":"4","last_reported":1731056970,"current_range_meters":39200,"station_id":"ce4bhgp2rcd13ifvqfd0","pricing_plan_id":"cebpf4jnsgd1na2vs0mg"},{"bike_id":"c0df1b92-e4d4-45fc-bd86-dade0340c7cb","system_id":"levelo_inurba_marseille","lat":43.29274,"lon":5.36837,"is_reserved":false,"is_disabled":false,"rental_uris":{"android":"levelo://app?vid=c0df1b92-e4d4-45fc-bd86-dade0340c7cb","ios":"levelo://app?vid=c0df1b92-e4d4-45fc-bd86-dade0340c7cb"},"vehicle_type_id":"4","last_reported":1731056970,"current_range_meters":25600,"station_id":"ce4bhbp2rcd13ifvqesg","pricing_plan_id":"cebpf4jnsgd1na2vs0mg"},{"bike_id":"36e44c8a-c997-49fd-9d3e-8db3824cffb5","system_id":"levelo_inurba_marseille","lat":43.29065,"lon":5.37172,"is_reserved":false,"is_disabled":false,"rental_uris":{"android":"levelo://app?vid=36e44c8a-c997-49fd-9d3e-8db3824cffb5","ios":"levelo://app?vid=36e44c8a-c997-49fd-9d3e-8db3824cffb5"},"vehicle_type_id":"4","last_reported":1731056970,"current_range_meters":20400,"station_id":"ce4bh5p2rcd13ifvqe4g","pricing_plan_id":"cebpf4jnsgd1na2vs0mg"},{"bike_id":"207e56ce-a511-4661-9af5-8808382282f4","system_id":"levelo_inurba_marseille","lat":43.25495,"lon":5.37647,"is_reserved":false,"is_disabled":false,"rental_uris":{"android":"levelo://app?vid=207e56ce-a511-4661-9af5-8808382282f4","ios":"levelo://app?vid=207e56ce-a511-4661-9af5-8808382282f4"},"vehicle_type_id":"4","last_reported":1731056970,"current_range_meters":8400,"station_id":"ce4bhh12rcd13ifvqff0","pricing_plan_id":"cebpf4jnsgd1na2vs0mg"},{"bike_id":"0ecd6961-d8ff-4b44-970f-5b588e733dde","system_id":"levelo_inurba_marseille","lat":43.26949,"lon":5.38638,"is_reserved":false,"is_disabled":false,"rental_uris":{"android":"levelo://app?vid=0ecd6961-d8ff-4b44-970f-5b588e733dde","ios":"levelo://app?vid=0ecd6961-d8ff-4b44-970f-5b588e733dde"},"vehicle_type_id":"4","last_reported":1731056970,"current_range_meters":29600,"station_id":"ce4bhh92rcd13ifvqfh0","pricing_plan_id":"cebpf4jnsgd1na2vs0mg"},{"bike_id":"a9426ee3-c4ae-494e-8066-9650a1e2f01d","system_id":"levelo_inurba_marseille","lat":43.28719,"lon":5.37938,"is_reserved":false,"is_disabled":false,"rental_uris":{"android":"levelo://app?vid=a9426ee3-c4ae-494e-8066-9650a1e2f01d","ios":"levelo://app?vid=a9426ee3-c4ae-494e-8066-9650a1e2f01d"},"vehicle_type_id":"4","last_reported":1731056970,"current_range_meters":37600,"station_id":"ce4bh9p2rcd13ifvqec0","pricing_plan_id":"cebpf4jnsgd1na2vs0mg"},{"bike_id":"fc7f83a7-009e-48ef-a8ff-3ce00ef445de","system_id":"levelo_inurba_marseille","lat":43.31223,"lon":5.36859,"is_reserved":false,"is_disabled":false,"rental_uris":{"android":"levelo://app?vid=fc7f83a7-009e-48ef-a8ff-3ce00ef445de","ios":"levelo://app?vid=fc7f83a7-009e-48ef-a8ff-3ce00ef445de"},"vehicle_type_id":"4","last_reported":1731056970,"current_range_meters":38800,"station_id":"ce4bgl92rcd13ifvqbq0","pricing_plan_id":"cebpf4jnsgd1na2vs0mg"},{"bike_id":"b2abf11b-3676-42fa-b7ae-566f17d83066","system_id":"levelo_inurba_marseille","lat":43.32052,"lon":5.41551,"is_reserved":false,"is_disabled":false,"rental_uris":{"android":"levelo://app?vid=b2abf11b-3676-42fa-b7ae-566f17d83066","ios":"levelo://app?vid=b2abf11b-3676-42fa-b7ae-566f17d83066"},"vehicle_type_id":"4","last_reported":1731056970,"current_range_meters":37600,"station_id":"ce4bhq92rcd13ifvqhkg","pricing_plan_id":"cebpf4jnsgd1na2vs0mg"},{"bike_id":"a1c19c6a-4fac-4951-857d-6a42ce63ea62","system_id":"levelo_inurba_marseille","lat":43.3014,"lon":5.37413,"is_reserved":false,"is_disabled":false,"rental_uris":{"android":"levelo://app?vid=a1c19c6a-4fac-4951-857d-6a42ce63ea62","ios":"levelo://app?vid=a1c19c6a-4fac-4951-857d-6a42ce63ea62"},"vehicle_type_id":"4","last_reported":1731056970,"current_range_meters":24400,"station_id":"ce4bgs92rcd13ifvqcc0","pricing_plan_id":"cebpf4jnsgd1na2vs0mg"},{"bike_id":"2d3f424c-e6be-47ab-baf1-11e844740067","system_id":"levelo_inurba_marseille","lat":43.30469,"lon":5.37907,"is_reserved":false,"is_disabled":false,"rental_uris":{"android":"levelo://app?vid=2d3f424c-e6be-47ab-baf1-11e844740067","ios":"levelo://app?vid=2d3f424c-e6be-47ab-baf1-11e844740067"},"vehicle_type_id":"4","last_reported":1731056970,"current_range_meters":36000,"station_id":"ce4bgup2rcd13ifvqcn0","pricing_plan_id":"cebpf4jnsgd1na2vs0mg"},{"bike_id":"a13edeee-a08a-46ac-b8d3-fbbec7ae9dcc","system_id":"levelo_inurba_marseille","lat":43.30467,"lon":5.37907,"is_reserved":false,"is_disabled":false,"rental_uris":{"android":"levelo://app?vid=a13edeee-a08a-46ac-b8d3-fbbec7ae9dcc","ios":"levelo://app?vid=a13edeee-a08a-46ac-b8d3-fbbec7ae9dcc"},"vehicle_type_id":"4","last_reported":1731056970,"current_range_meters":18000,"station_id":"ce4bgup2rcd13ifvqcn0","pricing_plan_id":"cebpf4jnsgd1na2vs0mg"},{"bike_id":"7fcf99fb-acc0-48dc-a132-c0c58f53852a","system_id":"levelo_inurba_marseille","lat":43.29076,"lon":5.38139,"is_reserved":false,"is_disabled":false,"rental_uris":{"android":"levelo://app?vid=7fcf99fb-acc0-48dc-a132-c0c58f53852a","ios":"levelo://app?vid=7fcf99fb-acc0-48dc-a132-c0c58f53852a"},"vehicle_type_id":"4","last_reported":1731056970,"current_range_meters":14000,"station_id":"ce4bh512rcd13ifvqe2g","pricing_plan_id":"cebpf4jnsgd1na2vs0mg"},{"bike_id":"50595a63-4a88-4807-8df2-51c3fbe587f7","system_id":"levelo_inurba_marseille","lat":43.32286,"lon":5.38274,"is_reserved":false,"is_disabled":false,"rental_uris":{"android":"levelo://app?vid=50595a63-4a88-4807-8df2-51c3fbe587f7","ios":"levelo://app?vid=50595a63-4a88-4807-8df2-51c3fbe587f7"},"vehicle_type_id":"4","last_reported":1731056970,"current_range_meters":38000,"station_id":"ce4bhr12rcd13ifvqhqg","pricing_plan_id":"cebpf4jnsgd1na2vs0mg"},{"bike_id":"878a1053-d78b-49a7-babf-42dbea1cc73b","system_id":"levelo_inurba_marseille","lat":43.29621,"lon":5.3716,"is_reserved":false,"is_disabled":false,"rental_uris":{"android":"levelo://app?vid=878a1053-d78b-49a7-babf-42dbea1cc73b","ios":"levelo://app?vid=878a1053-d78b-49a7-babf-42dbea1cc73b"},"vehicle_type_id":"4","last_reported":1731056970,"current_range_meters":36800,"station_id":"ce4bgnh2rcd13ifvqc0g","pricing_plan_id":"cebpf4jnsgd1na2vs0mg"},{"bike_id":"c4f91d88-a087-4dc6-849d-b8eaddd02046","system_id":"levelo_inurba_marseille","lat":43.30141,"lon":5.37424,"is_reserved":false,"is_disabled":false,"rental_uris":{"android":"levelo://app?vid=c4f91d88-a087-4dc6-849d-b8eaddd02046","ios":"levelo://app?vid=c4f91d88-a087-4dc6-849d-b8eaddd02046"},"vehicle_type_id":"4","last_reported":1731056970,"current_range_meters":38800,"station_id":"ce4bgs92rcd13ifvqcc0","pricing_plan_id":"cebpf4jnsgd1na2vs0mg"},{"bike_id":"3752dc2a-2405-4627-8a91-34aec4898f58","system_id":"levelo_inurba_marseille","lat":43.29574,"lon":5.39985,"is_reserved":false,"is_disabled":false,"rental_uris":{"android":"levelo://app?vid=3752dc2a-2405-4627-8a91-34aec4898f58","ios":"levelo://app?vid=3752dc2a-2405-4627-8a91-34aec4898f58"},"vehicle_type_id":"4","last_reported":1731056970,"current_range_meters":27600,"station_id":"ce4bh312rcd13ifvqdj0","pricing_plan_id":"cebpf4jnsgd1na2vs0mg"},{"bike_id":"cb6059c5-4c6e-48bc-a381-85c4b83dc132","system_id":"levelo_inurba_marseille","lat":43.26197,"lon":5.37935,"is_reserved":false,"is_disabled":false,"rental_uris":{"android":"levelo://app?vid=cb6059c5-4c6e-48bc-a381-85c4b83dc132","ios":"levelo://app?vid=cb6059c5-4c6e-48bc-a381-85c4b83dc132"},"vehicle_type_id":"4","last_reported":1731056970,"current_range_meters":28400,"station_id":"ce4bhjp2rcd13ifvqg90","pricing_plan_id":"cebpf4jnsgd1na2vs0mg"},{"bike_id":"e52420d4-63e9-418f-89d3-416320262e35","system_id":"levelo_inurba_marseille","lat":43.23962,"lon":5.36629,"is_reserved":false,"is_disabled":false,"rental_uris":{"android":"levelo://app?vid=e52420d4-63e9-418f-89d3-416320262e35","ios":"levelo://app?vid=e52420d4-63e9-418f-89d3-416320262e35"},"vehicle_type_id":"4","last_reported":1731056970,"current_range_meters":39200,"station_id":"ce4bhi12rcd13ifvqfp0","pricing_plan_id":"cebpf4jnsgd1na2vs0mg"},{"bike_id":"02f3bd69-c440-439f-96d2-1f56246cbb70","system_id":"levelo_inurba_marseille","lat":43.27394,"lon":5.42387,"is_reserved":false,"is_disabled":false,"rental_uris":{"android":"levelo://app?vid=02f3bd69-c440-439f-96d2-1f56246cbb70","ios":"levelo://app?vid=02f3bd69-c440-439f-96d2-1f56246cbb70"},"vehicle_type_id":"4","last_reported":1731056970,"current_range_meters":33600,"station_id":"","pricing_plan_id":"cebpf4jnsgd1na2vs0mg"},{"bike_id":"1304c55b-ba66-4def-8543-b51c00189aeb","system_id":"levelo_inurba_marseille","lat":43.301549,"lon":5.380759,"is_reserved":false,"is_disabled":false,"rental_uris":{"android":"levelo://app?vid=1304c55b-ba66-4def-8543-b51c00189aeb","ios":"levelo://app?vid=1304c55b-ba66-4def-8543-b51c00189aeb"},"vehicle_type_id":"4","last_reported":1731056970,"current_range_meters":35600,"station_id":"ce4bgjp2rcd13ifvqbh0","pricing_plan_id":"cebpf4jnsgd1na2vs0mg"},{"bike_id":"cca2255e-8fbc-45d1-9211-fe85bcfb0313","system_id":"levelo_inurba_marseille","lat":43.28152,"lon":5.42639,"is_reserved":false,"is_disabled":false,"rental_uris":{"android":"levelo://app?vid=cca2255e-8fbc-45d1-9211-fe85bcfb0313","ios":"levelo://app?vid=cca2255e-8fbc-45d1-9211-fe85bcfb0313"},"vehicle_type_id":"4","last_reported":1731056970,"current_range_meters":35600,"station_id":"ce4bhnh2rcd13ifvqgug","pricing_plan_id":"cebpf4jnsgd1na2vs0mg"},{"bike_id":"9275a333-972a-42ad-ac12-c66408e82761","system_id":"levelo_inurba_marseille","lat":43.2987,"lon":5.39726,"is_reserved":false,"is_disabled":false,"rental_uris":{"android":"levelo://app?vid=9275a333-972a-42ad-ac12-c66408e82761","ios":"levelo://app?vid=9275a333-972a-42ad-ac12-c66408e82761"},"vehicle_type_id":"4","last_reported":1731056970,"current_range_meters":38800,"station_id":"ce4bh0h2rcd13ifvqd50","pricing_plan_id":"cebpf4jnsgd1na2vs0mg"},{"bike_id":"30d2ae2d-016e-49cc-bd5f-9d043cd84d05","system_id":"levelo_inurba_marseille","lat":43.31374,"lon":5.38495,"is_reserved":false,"is_disabled":false,"rental_uris":{"android":"levelo://app?vid=30d2ae2d-016e-49cc-bd5f-9d043cd84d05","ios":"levelo://app?vid=30d2ae2d-016e-49cc-bd5f-9d043cd84d05"},"vehicle_type_id":"4","last_reported":1731056970,"current_range_meters":6800,"station_id":"ce4bgt92rcd13ifvqcf0","pricing_plan_id":"cebpf4jnsgd1na2vs0mg"},{"bike_id":"ad1a4eed-0121-40c8-8c1a-96a29bb86511","system_id":"levelo_inurba_marseille","lat":43.31763,"lon":5.39014,"is_reserved":false,"is_disabled":false,"rental_uris":{"android":"levelo://app?vid=ad1a4eed-0121-40c8-8c1a-96a29bb86511","ios":"levelo://app?vid=ad1a4eed-0121-40c8-8c1a-96a29bb86511"},"vehicle_type_id":"4","last_reported":1731056970,"current_range_meters":38800,"station_id":"ce4bhqp2rcd13ifvqhng","pricing_plan_id":"cebpf4jnsgd1na2vs0mg"},{"bike_id":"95036407-87c8-46e8-b3c5-db96b5b860e4","system_id":"levelo_inurba_marseille","lat":43.29932,"lon":5.36554,"is_reserved":false,"is_disabled":false,"rental_uris":{"android":"levelo://app?vid=95036407-87c8-46e8-b3c5-db96b5b860e4","ios":"levelo://app?vid=95036407-87c8-46e8-b3c5-db96b5b860e4"},"vehicle_type_id":"4","last_reported":1731056970,"current_range_meters":29600,"station_id":"ce4bgm92rcd13ifvqbr0","pricing_plan_id":"cebpf4jnsgd1na2vs0mg"},{"bike_id":"2d2f20bf-d7e7-4f1d-9da6-d9786e5be9ae","system_id":"levelo_inurba_marseille","lat":43.23147,"lon":5.43722,"is_reserved":false,"is_disabled":false,"rental_uris":{"android":"levelo://app?vid=2d2f20bf-d7e7-4f1d-9da6-d9786e5be9ae","ios":"levelo://app?vid=2d2f20bf-d7e7-4f1d-9da6-d9786e5be9ae"},"vehicle_type_id":"4","last_reported":1731056970,"current_range_meters":24800,"station_id":"ce4bhmp2rcd13ifvqgog","pricing_plan_id":"cebpf4jnsgd1na2vs0mg"},{"bike_id":"f6240ba0-900a-4bbb-b767-16165ed8fd4d","system_id":"levelo_inurba_marseille","lat":43.31816,"lon":5.38768,"is_reserved":false,"is_disabled":false,"rental_uris":{"android":"levelo://app?vid=f6240ba0-900a-4bbb-b767-16165ed8fd4d","ios":"levelo://app?vid=f6240ba0-900a-4bbb-b767-16165ed8fd4d"},"vehicle_type_id":"4","last_reported":1731056970,"current_range_meters":12000,"station_id":"","pricing_plan_id":"cebpf4jnsgd1na2vs0mg"},{"bike_id":"0cadfdbb-29cb-47f0-b0d2-065357ffe81f","system_id":"levelo_inurba_marseille","lat":43.30468,"lon":5.37905,"is_reserved":false,"is_disabled":false,"rental_uris":{"android":"levelo://app?vid=0cadfdbb-29cb-47f0-b0d2-065357ffe81f","ios":"levelo://app?vid=0cadfdbb-29cb-47f0-b0d2-065357ffe81f"},"vehicle_type_id":"4","last_reported":1731056970,"current_range_meters":23200,"station_id":"ce4bgup2rcd13ifvqcn0","pricing_plan_id":"cebpf4jnsgd1na2vs0mg"},