{"last_updated":1703520513,"ttl":30,"version":"2.2","data":{"bikes":[{"bike_id":"d4049f65-96a7-42e6-9771-6280d26288ba","system_id":"levelo_inurba_marseille","lat":43.309076,"lon":5.368465,"is_reserved":false,"is_disabled":false,"rental_uris":{"android":"levelo://app?vid=d4049f65-96a7-42e6-9771-6280d26288ba","ios":"levelo://app?vid=d4049f65-96a7-42e6-9771-6280d26288ba"},"vehicle_type_id":"4","last_reported":1703520514,"current_range_meters":26800,"station_id":"ce4bgn92rcd13ifvqbvg","pricing_plan_id":"free"},{"bike_id":"d2be49f4-d512-450f-80de-370a6da97420","system_id":"levelo_inurba_marseille","lat":43.318964,"lon":5.36877,"is_reserved":false,"is_disabled":false,"rental_uris":{"android":"levelo://app?vid=d2be49f4-d512-450f-80de-370a6da97420","ios":"levelo://app?vid=d2be49f4-d512-450f-80de-370a6da97420"},"vehicle_type_id":"4","last_reported":1703520514,"current_range_meters":10000,"station_id":"","pricing_plan_id":"free"},{"bike_id":"cc2f4e4f-2b28-4e84-be8f-32c8a171c9e1","system_id":"levelo_inurba_marseille","lat":43.313366,"lon":5.376228,"is_reserved":false,"is_disabled":false,"rental_uris":{"android":"levelo://app?vid=cc2f4e4f-2b28-4e84-be8f-32c8a171c9e1","ios":"levelo://app?vid=cc2f4e4f-2b28-4e84-be8f-32c8a171c9e1"},"vehicle_type_id":"4","last_reported":1703520514,"current_range_meters":27600,"station_id":"","pricing_plan_id":"free"},{"bike_id":"d566a67a-6e94-45e1-bdc3-512d2d571387","system_id":"levelo_inurba_marseille","lat":43.305706,"lon":5.365654,"is_reserved":false,"is_disabled":false,"rental_uris":{"android":"levelo://app?vid=d566a67a-6e94-45e1-bdc3-512d2d571387","ios":"levelo://app?vid=d566a67a-6e94-45e1-bdc3-512d2d571387"},"vehicle_type_id":"4","last_reported":1703520514,"current_range_meters":22400,"station_id":"ce4bgs12rcd13ifvqcag","pricing_plan_id":"free"},{"bike_id":"a05cf92b-6afb-4aa1-8199-baa62eb24219","system_id":"levelo_inurba_marseille","lat":43.305368,"lon":5.367343,"is_reserved":false,"is_disabled":false,"rental_uris":{"android":"levelo://app?vid=a05cf92b-6afb-4aa1-8199-baa62eb24219","ios":"levelo://app?vid=a05cf92b-6afb-4aa1-8199-baa62eb24219"},"vehicle_type_id":"4","last_reported":1703520514,"current_range_meters":17200,"station_id":"ce4bgrp2rcd13ifvqc9g","pricing_plan_id":"free"},{"bike_id":"8fef822f-8c06-4395-beea-4d9578bdea4b","system_id":"levelo_inurba_marseille","lat":43.305368,"lon":5.367343,"is_reserved":false,"is_disabled":false,"rental_uris":{"android":"levelo://app?vid=8fef822f-8c06-4395-beea-4d9578bdea4b","ios":"levelo://app?vid=8fef822f-8c06-4395-beea-4d9578bdea4b"},"vehicle_type_id":"4","last_reported":1703520514,"current_range_meters":20800,"station_id":"ce4bgrp2rcd13ifvqc9g","pricing_plan_id":"free"},{"bike_id":"62759e1c-4d38-446e-a86b-c3357c1bf0bd","system_id":"levelo_inurba_marseille","lat":43.305714,"lon":5.365633,"is_reserved":false,"is_disabled":false,"rental_uris":{"android":"levelo://app?vid=62759e1c-4d38-446e-a86b-c3357c1bf0bd","ios":"levelo://app?vid=62759e1c-4d38-446e-a86b-c3357c1bf0bd"},"vehicle_type_id":"4","last_reported":1703520514,"current_range_meters":25200,"station_id":"ce4bgs12rcd13ifvqcag","pricing_plan_id":"free"},{"bike_id":"f744c847-840c-40e3-a540-ffc46bd21a7d","system_id":"levelo_inurba_marseille","lat":43.305714,"lon":5.365633,"is_reserved":false,"is_disabled":false,"rental_uris":{"android":"levelo://app?vid=f744c847-840c-40e3-a540-ffc46bd21a7d","ios":"levelo://app?vid=f744c847-840c-40e3-a540-ffc46bd21a7d"},"vehicle_type_id":"4","last_reported":1703520514,"current_range_meters":1200,"station_id":"ce4bgs12rcd13ifvqcag","pricing_plan_id":"free"},{"bike_id":"b2c84a60-d410-4d25-8cc0-a1f3a05369cb","system_id":"levelo_inurba_marseille","lat":43.305706,"lon":5.365654,"is_reserved":false,"is_disabled":false,"rental_uris":{"android":"levelo://app?vid=b2c84a60-d410-4d25-8cc0-a1f3a05369cb","ios":"levelo://app?vid=b2c84a60-d410-4d25-8cc0-a1f3a05369cb"},"vehicle_type_id":"4","last_reported":1703520514,"current_range_meters":16400,"station_id":"ce4bgs12rcd13ifvqcag","pricing_plan_id":"free"},{"bike_id":"ed0ee458-d167-4624-8c61-96e3c5ea9645","system_id":"levelo_inurba_marseille","lat":43.305706,"lon":5.365654,"is_reserved":false,"is_disabled":false,"rental_uris":{"android":"levelo://app?vid=ed0ee458-d167-4624-8c61-96e3c5ea9645","ios":"levelo://app?vid=ed0ee458-d167-4624-8c61-96e3c5ea9645"},"vehicle_type_id":"4","last_reported":1703520514,"current_range_meters":5200,"station_id":"ce4bgs12rcd13ifvqcag","pricing_plan_id":"free"},{"bike_id":"ce418455-41d7-4e96-8b6d-d85548912fea","system_id":"levelo_inurba_marseille","lat":43.305706,"lon":5.365654,"is_reserved":false,"is_disabled":false,"rental_uris":{"android":"levelo://app?vid=ce418455-41d7-4e96-8b6d-d85548912fea","ios":"levelo://app?vid=ce418455-41d7-4e96-8b6d-d85548912fea"},"vehicle_type_id":"4","last_reported":1703520514,"current_range_meters":2400,"station_id":"ce4bgs12rcd13ifvqcag","pricing_plan_id":"free"},{"bike_id":"a340cac0-9ac1-4379-8a88-c286b939ce44","system_id":"levelo_inurba_marseille","lat":43.305368,"lon":5.367343,"is_reserved":false,"is_disabled":false,"rental_uris":{"android":"levelo://app?vid=a340cac0-9ac1-4379-8a88-c286b939ce44","ios":"levelo://app?vid=a340cac0-9ac1-4379-8a88-c286b939ce44"},"vehicle_type_id":"4","last_reported":1703520514,"current_range_meters":8000,"station_id":"ce4bgrp2rcd13ifvqc9g","pricing_plan_id":"free"},{"bike_id":"4b06a291-e51c-46d4-ba8c-adabf4f325eb","system_id":"levelo_inurba_marseille","lat":43.305706,"lon":5.365654,"is_reserved":false,"is_disabled":false,"rental_uris":{"android":"levelo://app?vid=4b06a291-e51c-46d4-ba8c-adabf4f325eb","ios":"levelo://app?vid=4b06a291-e51c-46d4-ba8c-adabf4f325eb"},"vehicle_type_id":"4","last_reported":1703520514,"current_range_meters":28000,"station_id":"ce4bgs12rcd13ifvqcag","pricing_plan_id":"free"},{"bike_id":"1a71022c-fdb5-4632-a425-38d7ef4f21e4","system_id":"levelo_inurba_marseille","lat":43.318369,"lon":5.373936,"is_reserved":false,"is_disabled":false,"rental_uris":{"android":"levelo://app?vid=1a71022c-fdb5-4632-a425-38d7ef4f21e4","ios":"levelo://app?vid=1a71022c-fdb5-4632-a425-38d7ef4f21e4"},"vehicle_type_id":"4","last_reported":1703520514,"current_range_meters":0,"station_id":"","pricing_plan_id":"free"},{"bike_id":"9a4d5f02-04a4-473e-8d0a-3cb743ba760a","system_id":"levelo_inurba_marseille","lat":43.309039,"lon":5.371797,"is_reserved":false,"is_disabled":false,"rental_uris":{"android":"levelo://app?vid=9a4d5f02-04a4-473e-8d0a-3cb743ba760a","ios":"levelo://app?vid=9a4d5f02-04a4-473e-8d0a-3cb743ba760a"},"vehicle_type_id":"4","last_reported":1703520514,"current_range_meters":23600,"station_id":"ce4bguh2rcd13ifvqckg","pricing_plan_id":"free"},{"bike_id":"d3de8212-6286-49a4-b0d3-fd02d927aba1","system_id":"levelo_inurba_marseille","lat":43.311125,"lon":5.377624,"is_reserved":false,"is_disabled":false,"rental_uris":{"android":"levelo://app?vid=d3de8212-6286-49a4-b0d3-fd02d927aba1","ios":"levelo://app?vid=d3de8212-6286-49a4-b0d3-fd02d927aba1"},"vehicle_type_id":"4","last_reported":1703520514,"current_range_meters":24800,"station_id":"ce4bgt92rcd13ifvqcg0","pricing_plan_id":"free"},{"bike_id":"f9b7b142-dae9-4c7f-a60e-059c4b240af6","system_id":"levelo_inurba_marseille","lat":43.311225,"lon":5.377743,"is_reserved":false,"is_disabled":false,"rental_uris":{"android":"levelo://app?vid=f9b7b142-dae9-4c7f-a60e-059c4b240af6","ios":"levelo://app?vid=f9b7b142-dae9-4c7f-a60e-059c4b240af6"},"vehicle_type_id":"4","last_reported":1703520514,"current_range_meters":16400,"station_id":"ce4bgt92rcd13ifvqcg0","pricing_plan_id":"free"},{"bike_id":"40693353-b0a1-417c-b954-405d529ef2a4","system_id":"levelo_inurba_marseille","lat":43.317075,"lon":5.377367,"is_reserved":false,"is_disabled":false,"rental_uris":{"android":"levelo://app?vid=40693353-b0a1-417c-b954-405d529ef2a4","ios":"levelo://app?vid=40693353-b0a1-417c-b954-405d529ef2a4"},"vehicle_type_id":"4","last_reported":1703520514,"current_range_meters":31200,"station_id":"ce4bgth2rcd13ifvqch0","pricing_plan_id":"free"},{"bike_id":"b334b641-5a55-48a0-be70-983c0edde04a","system_id":"levelo_inurba_marseille","lat":43.303046,"lon":5.368981,"is_reserved":false,"is_disabled":false,"rental_uris":{"android":"levelo://app?vid=b334b641-5a55-48a0-be70-983c0edde04a","ios":"levelo://app?vid=b334b641-5a55-48a0-be70-983c0edde04a"},"vehicle_type_id":"4","last_reported":1703520514,"current_range_meters":6800,"station_id":"ce4bgqh2rcd13ifvqc5g","pricing_plan_id":"free"},{"bike_id":"67f53113-bf46-4315-a50b-27f21e9dd5e0","system_id":"levelo_inurba_marseille","lat":43.31536,"lon":5.38019,"is_reserved":false,"is_disabled":false,"rental_uris":{"android":"levelo://app?vid=67f53113-bf46-4315-a50b-27f21e9dd5e0","ios":"levelo://app?vid=67f53113-bf46-4315-a50b-27f21e9dd5e0"},"vehicle_type_id":"4","last_reported":1703520514,"current_range_meters":27200,"station_id":"ce4bhsp2rcd13ifvqi50","pricing_plan_id":"free"},{"bike_id":"8707c2d4-2376-4897-a4cf-e6b1e82d0f51","system_id":"levelo_inurba_marseille","lat":43.315293,"lon":5.380349,"is_reserved":false,"is_disabled":false,"rental_uris":{"android":"levelo://app?vid=8707c2d4-2376-4897-a4cf-e6b1e82d0f51","ios":"levelo://app?vid=8707c2d4-2376-4897-a4cf-e6b1e82d0f51"},"vehicle_type_id":"4","last_reported":1703520514,"current_range_meters":21200,"station_id":"ce4bhsp2rcd13ifvqi50","pricing_plan_id":"free"},{"bike_id":"e6eefbd8-ecea-42cb-8c7a-0640952ddaea","system_id":"levelo_inurba_marseille","lat":43.31778,"lon":5.37908,"is_reserved":false,"is_disabled":false,"rental_uris":{"android":"levelo://app?vid=e6eefbd8-ecea-42cb-8c7a-0640952ddaea","ios":"levelo://app?vid=e6eefbd8-ecea-42cb-8c7a-0640952ddaea"},"vehicle_type_id":"4","last_reported":1703520514,"current_range_meters":22800,"station_id":"","pricing_plan_id":"free"},{"bike_id":"809faa9e-e50b-48d7-bd51-c19cfa6e7724","system_id":"levelo_inurba_marseille","lat":43.308012,"lon":5.381511,"is_reserved":false,"is_disabled":false,"rental_uris":{"android":"levelo://app?vid=809faa9e-e50b-48d7-bd51-c19cfa6e7724","ios":"levelo://app?vid=809faa9e-e50b-48d7-bd51-c19cfa6e7724"},"vehicle_type_id":"4","last_reported":1703520514,"current_range_meters":25200,"station_id":"ce4bgt12rcd13ifvqce0","pricing_plan_id":"free"},{"bike_id":"63b6e0bb-5501-419a-b780-c058590cbaae","system_id":"levelo_inurba_marseille","lat":43.30802,"lon":5.3815,"is_reserved":false,"is_disabled":false,"rental_uris":{"android":"levelo://app?vid=63b6e0bb-5501-419a-b780-c058590cbaae","ios":"levelo://app?vid=63b6e0bb-5501-419a-b780-c058590cbaae"},"vehicle_type_id":"4","last_reported":1703520514,"current_range_meters":28800,"station_id":"ce4bgt12rcd13ifvqce0","pricing_plan_id":"free"},{"bike_id":"290b1180-bd6f-44a8-a276-1ebefa73fb5b","system_id":"levelo_inurba_marseille","lat":43.308012,"lon":5.381511,"is_reserved":false,"is_disabled":false,"rental_uris":{"android":"levelo://app?vid=290b1180-bd6f-44a8-a276-1ebefa73fb5b","ios":"levelo://app?vid=290b1180-bd6f-44a8-a276-1ebefa73fb5b"},"vehicle_type_id":"4","last_reported":1703520514,"current_range_meters":20000,"station_id":"ce4bgt12rcd13ifvqce0","pricing_plan_id":"free"},{"bike_id":"7a586bf0-15a1-4789-887c-99b8776a5aae","system_id":"levelo_inurba_marseille","lat":43.30466,"lon":5.37898,"is_reserved":false,"is_disabled":false,"rental_uris":{"android":"levelo://app?vid=7a586bf0-15a1-4789-887c-99b8776a5aae","ios":"levelo://app?vid=7a586bf0-15a1-4789-887c-99b8776a5aae"},"vehicle_type_id":"4","last_reported":1703520514,"current_range_meters":12400,"station_id":"ce4bgup2rcd13ifvqcn0","pricing_plan_id":"free"},{"bike_id":"2416236a-4937-429d-815b-b00dd2eceadf","system_id":"levelo_inurba_marseille","lat":43.304606,"lon":5.379026,"is_reserved":false,"is_disabled":false,"rental_uris":{"android":"levelo://app?vid=2416236a-4937-429d-815b-b00dd2eceadf","ios":"levelo://app?vid=2416236a-4937-429d-815b-b00dd2eceadf"},"vehicle_type_id":"4","last_reported":1703520514,"current_range_meters":31200,"station_id":"ce4bgup2rcd13ifvqcn0","pricing_plan_id":"free"},{"bike_id":"2802b683-b4c3-4f8e-ae5b-10d90c717eec","system_id":"levelo_inurba_marseille","lat":43.304606,"lon":5.379026,"is_reserved":false,"is_disabled":false,"rental_uris":{"android":"levelo://app?vid=2802b683-b4c3-4f8e-ae5b-10d90c717eec","ios":"levelo://app?vid=2802b683-b4c3-4f8e-ae5b-10d90c717eec"},"vehicle_type_id":"4","last_reported":1703520514,"current_range_meters":31200,"station_id":"ce4bgup2rcd13ifvqcn0","pricing_plan_id":"free"},{"bike_id":"5f2c8efb-34f2-46f2-a9d1-d3627cc208c1","system_id":"levelo_inurba_marseille","lat":43.304606,"lon":5.379026,"is_reserved":false,"is_disabled":false,"rental_uris":{"android":"levelo://app?vid=5f2c8efb-34f2-46f2-a9d1-d3627cc208c1","ios":"levelo://app?vid=5f2c8efb-34f2-46f2-a9d1-d3627cc208c1"},"vehicle_type_id":"4","last_reported":1703520514,"current_range_meters":30800,"station_id":"ce4bgup2rcd13ifvqcn0","pricing_plan_id":"free"},{"bike_id":"3e3cea46-211e-4934-a3a4-d8465e65e881","system_id":"levelo_inurba_marseille","lat":43.304606,"lon":5.379026,"is_reserved":false,"is_disabled":false,"rental_uris":{"android":"levelo://app?vid=3e3cea46-211e-4934-a3a4-d8465e65e881","ios":"levelo://app?vid=3e3cea46-211e-4934-a3a4-d8465e65e881"},"vehicle_type_id":"4","last_reported":1703520514,"current_range_meters":18000,"station_id":"ce4bgup2rcd13ifvqcn0","pricing_plan_id":"free"},{"bike_id":"f5c0e4d6-16bd-47eb-ba92-aa201d0984ce","system_id":"levelo_inurba_marseille","lat":43.324771,"lon":5.36557,"is_reserved":false,"is_disabled":false,"rental_uris":{"android":"levelo://app?vid=f5c0e4d6-16bd-47eb-ba92-aa201d0984ce","ios":"levelo://app?vid=f5c0e4d6-16bd-47eb-ba92-aa201d0984ce"},"vehicle_type_id":"4","last_reported":1703520514,"current_range_meters":7600,"station_id":"ce4bhs12rcd13ifvqhvg","pricing_plan_id":"free"},{"bike_id":"6a3e3d28-1291-4d4b-bf7c-74834b7950d7","system_id":"levelo_inurba_marseille","lat":43.324771,"lon":5.36557,"is_reserved":false,"is_disabled":false,"rental_uris":{"android":"levelo://app?vid=6a3e3d28-1291-4d4b-bf7c-74834b7950d7","ios":"levelo://app?vid=6a3e3d28-1291-4d4b-bf7c-74834b7950d7"},"vehicle_type_id":"4","last_reported":1703520514,"current_range_meters":25200,"station_id":"ce4bhs12rcd13ifvqhvg","pricing_plan_id":"free"},{"bike_id":"673afe24-13ca-4117-906e-0ada444292f1","system_id":"levelo_inurba_marseille","lat":43.324771,"lon":5.36557,"is_reserved":false,"is_disabled":false,"rental_uris":{"android":"levelo://app?vid=673afe24-13ca-4117-906e-0ada444292f1","ios":"levelo://app?vid=673afe24-13ca-4117-906e-0ada444292f1"},"vehicle_type_id":"4","last_reported":1703520514,"current_range_meters":29600,"station_id":"ce4bhs12rcd13ifvqhvg","pricing_plan_id":"free"},{"bike_id":"9011995a-6fb0-4e38-9a9b-bdcc1110a2a4","system_id":"levelo_inurba_marseille","lat":43.303652,"lon":5.378082,"is_reserved":false,"is_disabled":false,"rental_uris":{"android":"levelo://app?vid=9011995a-6fb0-4e38-9a9b-bdcc1110a2a4","ios":"levelo://app?vid=9011995a-6fb0-4e38-9a9b-bdcc1110a2a4"},"vehicle_type_id":"4","last_reported":1703520514,"current_range_meters":22400,"station_id":"","pricing_plan_id":"free"},{"bike_id":"9d21651b-6703-48db-8f64-2df20565c3bb","system_id":"levelo_inurba_marseille","lat":43.302784,"lon":5.377158,"is_reserved":false,"is_disabled":false,"rental_uris":{"android":"levelo://app?vid=9d21651b-6703-48db-8f64-2df20565c3bb","ios":"levelo://app?vid=9d21651b-6703-48db-8f64-2df20565c3bb"},"vehicle_type_id":"4","last_reported":1703520514,"current_range_meters":16800,"station_id":"ce4bguh2rcd13ifvqcj0","pricing_plan_id":"free"},{"bike_id":"a606b4cd-916e-492f-95a7-5f8ebc892094","system_id":"levelo_inurba_marseille","lat":43.302784,"lon":5.377158,"is_reserved":false,"is_disabled":false,"rental_uris":{"android":"levelo://app?vid=a606b4cd-916e-492f-95a7-5f8ebc892094","ios":"levelo://app?vid=a606b4cd-916e-492f-95a7-5f8ebc892094"},"vehicle_type_id":"4","last_reported":1703520514,"current_range_meters":7200,"station_id":"ce4bguh2rcd13ifvqcj0","pricing_plan_id":"free"},{"bike_id":"06a81cfa-1cff-40bb-a848-35e3ef1f5cbc","system_id":"levelo_inurba_marseille","lat":43.302784,"lon":5.377158,"is_reserved":false,"is_disabled":false,"rental_uris":{"android":"levelo://app?vid=06a81cfa-1cff-40bb-a848-35e3ef1f5cbc","ios":"levelo://app?vid=06a81cfa-1cff-40bb-a848-35e3ef1f5cbc"},"vehicle_type_id":"4","last_reported":1703520514,"current_range_meters":18800,"station_id":"ce4bguh2rcd13ifvqcj0","pricing_plan_id":"free"},{"bike_id":"7cbc52a8-3902-44a9-b33c-9c857d17fadd","system_id":"levelo_inurba_marseille","lat":43.302784,"lon":5.377158,"is_reserved":false,"is_disabled":false,"rental_uris":{"android":"levelo://app?vid=7cbc52a8-3902-44a9-b33c-9c857d17fadd","ios":"levelo://app?vid=7cbc52a8-3902-44a9-b33c-9c857d17fadd"},"vehicle_type_id":"4","last_reported":1703520514,"current_range_meters":17600,"station_id":"ce4bguh2rcd13ifvqcj0","pricing_plan_id":"free"},{"bike_id":"5e547c41-abfe-4fdf-bbde-76de8418959e","system_id":"levelo_inurba_marseille","lat":43.30143,"lon":5.37413,"is_reserved":false,"is_disabled":false,"rental_uris":{"android":"levelo://app?vid=5e547c41-abfe-4fdf-bbde-76de8418959e","ios":"levelo://app?vid=5e547c41-abfe-4fdf-bbde-76de8418959e"},"vehicle_type_id":"4","last_reported":1703520514,"current_range_meters":25600,"station_id":"ce4bgs92rcd13ifvqcc0","pricing_plan_id":"free"},{"bike_id":"60759498-503d-4868-95df-2064b9e1ca57","system_id":"levelo_inurba_marseille","lat":43.30143,"lon":5.37413,"is_reserved":false,"is_disabled":false,"rental_uris":{"android":"levelo://app?vid=60759498-503d-4868-95df-2064b9e1ca57","ios":"levelo://app?vid=60759498-503d-4868-95df-2064b9e1ca57"},"vehicle_type_id":"4","last_reported":1703520514,"current_range_meters":18000,"station_id":"ce4bgs92rcd13ifvqcc0","pricing_plan_id":"free"},{"bike_id":"70b0ad2a-6533-4324-9176-53aa3f1f6a7a","system_id":"levelo_inurba_marseille","lat":43.32,"lon":5.3814,"is_reserved":false,"is_disabled":false,"rental_uris":{"android":"levelo://app?vid=70b0ad2a-6533-4324-9176-53aa3f1f6a7a","ios":"levelo://app?vid=70b0ad2a-6533-4324-9176-53aa3f1f6a7a"},"vehicle_type_id":"4","last_reported":1703520514,"current_range_meters":6400,"station_id":"ce4bhr12rcd13ifvqhpg","pricing_plan_id":"free"},{"bike_id":"644e9374-a8cb-4157-9ac5-720e438022e4","system_id":"levelo_inurba_marseille","lat":43.29934,"lon":5.36535,"is_reserved":false,"is_disabled":false,"rental_uris":{"android":"levelo://app?vid=644e9374-a8cb-4157-9ac5-720e438022e4","ios":"levelo://app?vid=644e9374-a8cb-4157-9ac5-720e438022e4"},"vehicle_type_id":"4","last_reported":1703520514,"current_range_meters":14800,"station_id":"ce4bgm92rcd13ifvqbr0","pricing_plan_id":"free"},{"bike_id":"b88ed181-7e3c-496e-9c83-6dbb4e711844","system_id":"levelo_inurba_marseille","lat":43.299724,"lon":5.371829,"is_reserved":false,"is_disabled":false,"rental_uris":{"android":"levelo://app?vid=b88ed181-7e3c-496e-9c83-6dbb4e711844","ios":"levelo://app?vid=b88ed181-7e3c-496e-9c83-6dbb4e711844"},"vehicle_type_id":"4","last_reported":1703520514,"current_range_meters":10800,"station_id":"ce4bgr92rcd13ifvqc7g","pricing_plan_id":"free"},{"bike_id":"e60cd8b0-5530-4c92-8c04-c92b96636ef7","system_id":"levelo_inurba_marseille","lat":43.299724,"lon":5.371829,"is_reserved":false,"is_disabled":false,"rental_uris":{"android":"levelo://app?vid=e60cd8b0-5530-4c92-8c04-c92b96636ef7","ios":"levelo://app?vid=e60cd8b0-5530-4c92-8c04-c92b96636ef7"},"vehicle_type_id":"4","last_reported":1703520514,"current_range_meters":8000,"station_id":"ce4bgr92rcd13ifvqc7g","pricing_plan_id":"free"},{"bike_id":"79375219-f7ad-4f6f-8fa1-0eef1373574b","system_id":"levelo_inurba_marseille","lat":43.305364,"lon":5.384119,"is_reserved":false,"is_disabled":false,"rental_uris":{"android":"levelo://app?vid=79375219-f7ad-4f6f-8fa1-0eef1373574b","ios":"levelo://app?vid=79375219-f7ad-4f6f-8fa1-0eef1373574b"},"vehicle_type_id":"4","last_reported":1703520514,"current_range_meters":18800,"station_id":"ce4bgg92rcd13ifvqb30","pricing_plan_id":"free"},{"bike_id":"f39b3777-6dd7-4a1a-9e4a-87b86c62b311","system_id":"levelo_inurba_marseille","lat":43.298433,"lon":5.362774,"is_reserved":false,"is_disabled":false,"rental_uris":{"android":"levelo://app?vid=f39b3777-6dd7-4a1a-9e4a-87b86c62b311","ios":"levelo://app?vid=f39b3777-6dd7-4a1a-9e4a-87b86c62b311"},"vehicle_type_id":"4","last_reported":1703520514,"current_range_meters":30400,"station_id":"ce4bgpp2rcd13ifvqc3g","pricing_plan_id":"free"},{"bike_id":"d31f8fdd-1aac-49d1-9a10-d3037c46de9d","system_id":"levelo_inurba_marseille","lat":43.299243,"lon":5.37481,"is_reserved":false,"is_disabled":false,"rental_uris":{"android":"levelo://app?vid=d31f8fdd-1aac-49d1-9a10-d3037c46de9d","ios":"levelo://app?vid=d31f8fdd-1aac-49d1-9a10-d3037c46de9d"},"vehicle_type_id":"4","last_reported":1703520514,"current_range_meters":26800,"station_id":"ce4bgjh2rcd13ifvqbg0","pricing_plan_id":"free"},{"bike_id":"787590ef-019c-4337-9188-e696612ac75f","system_id":"levelo_inurba_marseille","lat":43.305706,"lon":5.365654,"is_reserved":false,"is_disabled":false,"rental_uris":{"android":"levelo://app?vid=787590ef-019c-4337-9188-e696612ac75f","ios":"levelo://app?vid=787590ef-019c-4337-9188-e696612ac75f"},"vehicle_type_id":"4","last_reported":1703520514,"current_range_meters":25200,"station_id":"ce4bgs12rcd13ifvqcag","pricing_plan_id":"free"},{"bike_id":"ad88d230-720a-47a4-b98d-106ed129324e","system_id":"levelo_inurba_marseille","lat":43.29793,"lon":5.371,"is_reserved":false,"is_disabled":false,"rental_uris":{"android":"levelo://app?vid=ad88d230-720a-47a4-b98d-106ed129324e","ios":"levelo://app?vid=ad88d230-720a-47a4-b98d-106ed129324e"},"vehicle_type_id":"4","last_reported":1703520514,"current_range_meters":13200,"station_id":"ce4bgop2rcd13ifvqc1g","pricing_plan_id":"free"},{"bike_id":"7f8da149-074f-4e10-9ca1-c0eea6d60ec5","system_id":"levelo_inurba_marseille","lat":43.29785,"lon":5.37095,"is_reserved":false,"is_disabled":false,"rental_uris":{"android":"levelo://app?vid=7f8da149-074f-4e10-9ca1-c0eea6d60ec5","ios":"levelo://app?vid=7f8da149-074f-4e10-9ca1-c0eea6d60ec5"},"vehicle_type_id":"4","last_reported":1703520514,"current_range_meters":0,"station_id":"ce4bgop2rcd13ifvqc1g","pricing_plan_id":"free"},{"bike_id":"0a6e5893-c0ad-429f-b6d3-5dddc11c9f55","system_id":"levelo_inurba_marseille","lat":43.29785,"lon":5.37099,"is_reserved":false,"is_disabled":false,"rental_uris":{"android":"levelo://app?vid=0a6e5893-c0ad-429f-b6d3-5dddc11c9f55","ios":"levelo://app?vid=0a6e5893-c0ad-429f-b6d3-5dddc11c9f55"},"vehicle_type_id":"4","last_reported":1703520514,"current_range_meters":6800,"station_id":"ce4bgop2rcd13ifvqc1g","pricing_plan_id":"free"},{"bike_id":"06fe3602-7326-418b-a954-12c2c4b58017","system_id":"levelo_inurba_marseille","lat":43.297774,"lon":5.370875,"is_reserved":false,"is_disabled":false,"rental_uris":{"android":"levelo://app?vid=06fe3602-7326-418b-a954-12c2c4b58017","ios":"levelo://app?vid=06fe3602-7326-418b-a954-12c2c4b58017"},"vehicle_type_id":"4","last_reported":1703520514,"current_range_meters":27200,"station_id":"ce4bgop2rcd13ifvqc1g","pricing_plan_id":"free"},{"bike_id":"07313065-a8ed-4141-8697-9ae0023c87e5","system_id":"levelo_inurba_marseille","lat":43.29783,"lon":5.37096,"is_reserved":false,"is_disabled":false,"rental_uris":{"android":"levelo://app?vid=07313065-a8ed-4141-8697-9ae0023c87e5","ios":"levelo://app?vid=07313065-a8ed-4141-8697-9ae0023c87e5"},"vehicle_type_id":"4","last_reported":1703520514,"current_range_meters":17600,"station_id":"ce4bgop2rcd13ifvqc1g","pricing_plan_id":"free"},{"bike_id":"aba2c12f-55b2-49a0-8257-b49ddfb4c4ae","system_id":"levelo_inurba_marseille","lat":43.322872,"lon":5.382756,"is_reserved":false,"is_disabled":false,"rental_uris":{"android":"levelo://app?vid=aba2c12f-55b2-49a0-8257-b49ddfb4c4ae","ios":"levelo://app?vid=aba2c12f-55b2-49a0-8257-b49ddfb4c4ae"},"vehicle_type_id":"4","last_reported":1703520514,"current_range_meters":24000,"station_id":"ce4bhr12rcd13ifvqhqg","pricing_plan_id":"free"},{"bike_id":"928b19d8-c657-4555-9e21-d04cd6410c70","system_id":"levelo_inurba_marseille","lat":43.297774,"lon":5.370875,"is_reserved":false,"is_disabled":false,"rental_uris":{"android":"levelo://app?vid=928b19d8-c657-4555-9e21-d04cd6410c70","ios":"levelo://app?vid=928b19d8-c657-4555-9e21-d04cd6410c70"},"vehicle_type_id":"4","last_reported":1703520514,"current_range_meters":0,"station_id":"ce4bgop2rcd13ifvqc1g","pricing_plan_id":"free"},{"bike_id":"51714c4a-3132-4951-88ec-80e85fa125e8","system_id":"levelo_inurba_marseille","lat":43.32809,"lon":5.36686,"is_reserved":false,"is_disabled":false,"rental_uris":{"android":"levelo://app?vid=51714c4a-3132-4951-88ec-80e85fa125e8","ios":"levelo://app?vid=51714c4a-3132-4951-88ec-80e85fa125e8"},"vehicle_type_id":"4","last_reported":1703520514,"current_range_meters":12000,"station_id":"ce4bhs92rcd13ifvqi0g","pricing_plan_id":"free"},{"bike_id":"19d42bbe-b568-4d0a-affe-2c7823044edb","system_id":"levelo_inurba_marseille","lat":43.32827,"lon":5.366893,"is_reserved":false,"is_disabled":false,"rental_uris":{"android":"levelo://app?vid=19d42bbe-b568-4d0a-affe-2c7823044edb","ios":"levelo://app?vid=19d42bbe-b568-4d0a-affe-2c7823044edb"},"vehicle_type_id":"4","last_reported":1703520514,"current_range_meters":17600,"station_id":"ce4bhs92rcd13ifvqi0g","pricing_plan_id":"free"},{"bike_id":"de708f00-7118-4d7c-9021-d7dcbd798473","system_id":"levelo_inurba_marseille","lat":43.328371,"lon":5.366909,"is_reserved":false,"is_disabled":false,"rental_uris":{"android":"levelo://app?vid=de708f00-7118-4d7c-9021-d7dcbd798473","ios":"levelo://app?vid=de708f00-7118-4d7c-9021-d7dcbd798473"},"vehicle_type_id":"4","last_reported":1703520514,"current_range_meters":29600,"station_id":"ce4bhs92rcd13ifvqi0g","pricing_plan_id":"free"},{"bike_id":"0ea359f7-1aa4-4d04-af38-4990586453d2","system_id":"levelo_inurba_marseille","lat":43.328371,"lon":5.366909,"is_reserved":false,"is_disabled":false,"rental_uris":{"android":"levelo://app?vid=0ea359f7-1aa4-4d04-af38-4990586453d2","ios":"levelo://app?vid=0ea359f7-1aa4-4d04-af38-4990586453d2"},"vehicle_type_id":"4","last_reported":1703520514,"current_range_meters":21200,"station_id":"ce4bhs92rcd13ifvqi0g","pricing_plan_id":"free"},{"bike_id":"b22d5e96-ae51-458c-8279-1d308fe846b0","system_id":"levelo_inurba_marseille","lat":43.328371,"lon":5.366909,"is_reserved":false,"is_disabled":false,"rental_uris":{"android":"levelo://app?vid=b22d5e96-ae51-458c-8279-1d308fe846b0","ios":"levelo://app?vid=b22d5e96-ae51-458c-8279-1d308fe846b0"},"vehicle_type_id":"4","last_reported":1703520514,"current_range_meters":14400,"station_id":"ce4bhs92rcd13ifvqi0g","pricing_plan_id":"free"},{"bike_id":"21ccb4c5-93c1-46aa-87cd-55a0775e5a9b","system_id":"levelo_inurba_marseille","lat":43.297163,"lon":5.365866,"is_reserved":false,"is_disabled":false,"rental_uris":{"android":"levelo://app?vid=21ccb4c5-93c1-46aa-87cd-55a0775e5a9b","ios":"levelo://app?vid=21ccb4c5-93c1-46aa-87cd-55a0775e5a9b"},"vehicle_type_id":"4","last_reported":1703520514,"current_range_meters":26800,"station_id":"ce4bgn12rcd13ifvqbt0","pricing_plan_id":"free"},{"bike_id":"eba6867d-6d75-4354-b206-2059ecdc5071","system_id":"levelo_inurba_marseille","lat":43.328371,"lon":5.366909,"is_reserved":false,"is_disabled":false,"rental_uris":{"android":"levelo://app?vid=eba6867d-6d75-4354-b206-2059ecdc5071","ios":"levelo://app?vid=eba6867d-6d75-4354-b206-2059ecdc5071"},"vehicle_type_id":"4","last_reported":1703520514,"current_range_meters":10800,"station_id":"ce4bhs92rcd13ifvqi0g","pricing_plan_id":"free"},{"bike_id":"6f67326a-1664-406f-9978-902e013e2357","system_id":"levelo_inurba_marseille","lat":43.328371,"lon":5.366909,"is_reserved":false,"is_disabled":false,"rental_uris":{"android":"levelo://app?vid=6f67326a-1664-406f-9978-902e013e2357","ios":"levelo://app?vid=6f67326a-1664-406f-9978-902e013e2357"},"vehicle_type_id":"4","last_reported":1703520514,"current_range_meters":15200,"station_id":"ce4bhs92rcd13ifvqi0g","pricing_plan_id":"free"},{"bike_id":"098d14f9-0ff6-4c3a-aca9-b52d7aa219f1","system_id":"levelo_inurba_marseille","lat":43.297163,"lon":5.365866,"is_reserved":false,"is_disabled":false,"rental_uris":{"android":"levelo://app?vid=098d14f9-0ff6-4c3a-aca9-b52d7aa219f1","ios":"levelo://app?vid=098d14f9-0ff6-4c3a-aca9-b52d7aa219f1"},"vehicle_type_id":"4","last_reported":1703520514,"current_range_meters":30000,"station_id":"ce4bgn12rcd13ifvqbt0","pricing_plan_id":"free"},{"bike_id":"9a8f3351-118a-41e1-8eaa-1d261672ee73","system_id":"levelo_inurba_marseille","lat":43.2968,"lon":5.37291,"is_reserved":false,"is_disabled":false,"rental_uris":{"android":"levelo://app?vid=9a8f3351-118a-41e1-8eaa-1d261672ee73","ios":"levelo://app?vid=9a8f3351-118a-41e1-8eaa-1d261672ee73"},"vehicle_type_id":"4","last_reported":1703520514,"current_range_meters":30400,"station_id":"ce4bgk12rcd13ifvqbj0","pricing_plan_id":"free"},{"bike_id":"921b424d-ad0d-4c7a-9d74-66e3a49bfa19","system_id":"levelo_inurba_marseille","lat":43.32934,"lon":5.36612,"is_reserved":false,"is_disabled":false,"rental_uris":{"android":"levelo://app?vid=921b424d-ad0d-4c7a-9d74-66e3a49bfa19","ios":"levelo://app?vid=921b424d-ad0d-4c7a-9d74-66e3a49bfa19"},"vehicle_type_id":"4","last_reported":1703520514,"current_range_meters":24400,"station_id":"","pricing_plan_id":"free"},{"bike_id":"20bafe3c-f4d7-4b47-81ea-8458ecc54d47","system_id":"levelo_inurba_marseille","lat":43.29573,"lon":5.367355,"is_reserved":false,"is_disabled":false,"rental_uris":{"android":"levelo://app?vid=20bafe3c-f4d7-4b47-81ea-8458ecc54d47","ios":"levelo://app?vid=20bafe3c-f4d7-4b47-81ea-8458ecc54d47"},"vehicle_type_id":"4","last_reported":1703520514,"current_range_meters":23600,"station_id":"ce4bgph2rcd13ifvqc2g","pricing_plan_id":"free"},{"bike_id":"8478c010-1d21-4be9-bb6a-dd0208a330a1","system_id":"levelo_inurba_marseille","lat":43.29573,"lon":5.367355,"is_reserved":false,"is_disabled":false,"rental_uris":{"android":"levelo://app?vid=8478c010-1d21-4be9-bb6a-dd0208a330a1","ios":"levelo://app?vid=8478c010-1d21-4be9-bb6a-dd0208a330a1"},"vehicle_type_id":"4","last_reported":1703520514,"current_range_meters":25600,"station_id":"ce4bgph2rcd13ifvqc2g","pricing_plan_id":"free"},{"bike_id":"06e957bd-df49-4d32-abc4-2e72cf631ab7","system_id":"levelo_inurba_marseille","lat":43.29573,"lon":5.367355,"is_reserved":false,"is_disabled":false,"rental_uris":{"android":"levelo://app?vid=06e957bd-df49-4d32-abc4-2e72cf631ab7","ios":"levelo://app?vid=06e957bd-df49-4d32-abc4-2e72cf631ab7"},"vehicle_type_id":"4","last_reported":1703520514,"current_range_meters":16000,"station_id":"ce4bgph2rcd13ifvqc2g","pricing_plan_id":"free"},{"bike_id":"168ff66e-d3f0-4405-8a42-4e492b51d94f","system_id":"levelo_inurba_marseille","lat":43.29573,"lon":5.367355,"is_reserved":false,"is_disabled":false,"rental_uris":{"android":"levelo://app?vid=168ff66e-d3f0-4405-8a42-4e492b51d94f","ios":"levelo://app?vid=168ff66e-d3f0-4405-8a42-4e492b51d94f"},"vehicle_type_id":"4","last_reported":1703520514,"current_range_meters":12800,"station_id":"ce4bgph2rcd13ifvqc2g","pricing_plan_id":"free"},{"bike_id":"506b2531-968e-48c0-968a-4013ec46a47d","system_id":"levelo_inurba_marseille","lat":43.299028,"lon":5.381509,"is_reserved":false,"is_disabled":false,"rental_uris":{"android":"levelo://app?vid=506b2531-968e-48c0-968a-4013ec46a47d","ios":"levelo://app?vid=506b2531-968e-48c0-968a-4013ec46a47d"},"vehicle_type_id":"4","last_reported":1703520514,"current_range_meters":21600,"station_id":"ce4bgj12rcd13ifvqbc0","pricing_plan_id":"free"},{"bike_id":"5e260a01-66aa-427a-b163-23558f45cc9e","system_id":"levelo_inurba_marseille","lat":43.299028,"lon":5.381509,"is_reserved":false,"is_disabled":false,"rental_uris":{"android":"levelo://app?vid=5e260a01-66aa-427a-b163-23558f45cc9e","ios":"levelo://app?vid=5e260a01-66aa-427a-b163-23558f45cc9e"},"vehicle_type_id":"4","last_reported":1703520514,"current_range_meters":30800,"station_id":"ce4bgj12rcd13ifvqbc0","pricing_plan_id":"free"},{"bike_id":"887b29a9-b28d-4343-bd08-f302b619aa86","system_id":"levelo_inurba_marseille","lat":43.296921,"lon":5.376579,"is_reserved":false,"is_disabled":false,"rental_uris":{"android":"levelo://app?vid=887b29a9-b28d-4343-bd08-f302b619aa86","ios":"levelo://app?vid=887b29a9-b28d-4343-bd08-f302b619aa86"},"vehicle_type_id":"4","last_reported":1703520514,"current_range_meters":8800,"station_id":"ce4bgkh2rcd13ifvqbl0","pricing_plan_id":"free"},{"bike_id":"17cc0b98-d890-4054-b8af-b9948e7f4e3c","system_id":"levelo_inurba_marseille","lat":43.309589,"lon":5.390258,"is_reserved":false,"is_disabled":false,"rental_uris":{"android":"levelo://app?vid=17cc0b98-d890-4054-b8af-b9948e7f4e3c","ios":"levelo://app?vid=17cc0b98-d890-4054-b8af-b9948e7f4e3c"},"vehicle_type_id":"4","last_reported":1703520514,"current_range_meters":21600,"station_id":"ce4bgup2rcd13ifvqco0","pricing_plan_id":"free"},{"bike_id":"832e2173-c8ed-4c6f-a3b2-146af632aa3e","system_id":"levelo_inurba_marseille","lat":43.299028,"lon":5.381509,"is_reserved":false,"is_disabled":false,"rental_uris":{"android":"levelo://app?vid=832e2173-c8ed-4c6f-a3b2-146af632aa3e","ios":"levelo://app?vid=832e2173-c8ed-4c6f-a3b2-146af632aa3e"},"vehicle_type_id":"4","last_reported":1703520514,"current_range_meters":31200,"station_id":"ce4bgj12rcd13ifvqbc0","pricing_plan_id":"free"},{"bike_id":"a5dd4d66-89f1-42c2-852e-a08e45e70d07","system_id":"levelo_inurba_marseille","lat":43.299028,"lon":5.381509,"is_reserved":false,"is_disabled":false,"rental_uris":{"android":"levelo://app?vid=a5dd4d66-89f1-42c2-852e-a08e45e70d07","ios":"levelo://app?vid=a5dd4d66-89f1-42c2-852e-a08e45e70d07"},"vehicle_type_id":"4","last_reported":1703520514,"current_range_meters":15200,"station_id":"ce4bgj12rcd13ifvqbc0","pricing_plan_id":"free"},{"bike_id":"90d9cf58-1dc5-4d8a-824f-802a3b33bbc1","system_id":"levelo_inurba_marseille","lat":43.317625,"lon":5.390113,"is_reserved":false,"is_disabled":false,"rental_uris":{"android":"levelo://app?vid=90d9cf58-1dc5-4d8a-824f-802a3b33bbc1","ios":"levelo://app?vid=90d9cf58-1dc5-4d8a-824f-802a3b33bbc1"},"vehicle_type_id":"4","last_reported":1703520514,"current_range_meters":29600,"station_id":"ce4bhqp2rcd13ifvqhng","pricing_plan_id":"free"},{"bike_id":"ddcd3e06-ed30-4cd5-9587-9ed88d456aa5","system_id":"levelo_inurba_marseille","lat":43.29806,"lon":5.38092,"is_reserved":false,"is_disabled":false,"rental_uris":{"android":"levelo://app?vid=ddcd3e06-ed30-4cd5-9587-9ed88d456aa5","ios":"levelo://app?vid=ddcd3e06-ed30-4cd5-9587-9ed88d456aa5"},"vehicle_type_id":"4","last_reported":1703520514,"current_range_meters":29200,"station_id":"ce4bgip2rcd13ifvqbb0","pricing_plan_id":"free"},{"bike_id":"7d707291-7ce0-4206-ab51-d38fc2436b5b","system_id":"levelo_inurba_marseille","lat":43.29803,"lon":5.380877,"is_reserved":false,"is_disabled":false,"rental_uris":{"android":"levelo://app?vid=7d707291-7ce0-4206-ab51-d38fc2436b5b","ios":"levelo://app?vid=7d707291-7ce0-4206-ab51-d38fc2436b5b"},"vehicle_type_id":"4","last_reported":1703520514,"current_range_meters":31200,"station_id":"ce4bgip2rcd13ifvqbb0","pricing_plan_id":"free"},{"bike_id":"84f30766-a64a-469a-8c1a-4d6a6f04c1e8","system_id":"levelo_inurba_marseille","lat":43.298037,"lon":5.381066,"is_reserved":false,"is_disabled":false,"rental_uris":{"android":"levelo://app?vid=84f30766-a64a-469a-8c1a-4d6a6f04c1e8","ios":"levelo://app?vid=84f30766-a64a-469a-8c1a-4d6a6f04c1e8"},"vehicle_type_id":"4","last_reported":1703520514,"current_range_meters":26400,"station_id":"ce4bgip2rcd13ifvqbb0","pricing_plan_id":"free"},{"bike_id":"f709a0d3-de95-4c5a-be4f-40b27519dd22","system_id":"levelo_inurba_marseille","lat":43.296263,"lon":5.377094,"is_reserved":false,"is_disabled":false,"rental_uris":{"android":"levelo://app?vid=f709a0d3-de95-4c5a-be4f-40b27519dd22","ios":"levelo://app?vid=f709a0d3-de95-4c5a-be4f-40b27519dd22"},"vehicle_type_id":"4","last_reported":1703520514,"current_range_meters":28400,"station_id":"ce4bgi92rcd13ifvqb90","pricing_plan_id":"free"},{"bike_id":"a3b57ccb-dcbf-4531-ba0a-d20f84c541dc","system_id":"levelo_inurba_marseille","lat":43.29616,"lon":5.37719,"is_reserved":false,"is_disabled":false,"rental_uris":{"android":"levelo://app?vid=a3b57ccb-dcbf-4531-ba0a-d20f84c541dc","ios":"levelo://app?vid=a3b57ccb-dcbf-4531-ba0a-d20f84c541dc"},"vehicle_type_id":"4","last_reported":1703520514,"current_range_meters":16400,"station_id":"ce4bgi92rcd13ifvqb90","pricing_plan_id":"free"},{"bike_id":"d0d1b1b2-de20-414c-b53c-fd97b584cfeb","system_id":"levelo_inurba_marseille","lat":43.29613,"lon":5.37718,"is_reserved":false,"is_disabled":false,"rental_uris":{"android":"levelo://app?vid=d0d1b1b2-de20-414c-b53c-fd97b584cfeb","ios":"levelo://app?vid=d0d1b1b2-de20-414c-b53c-fd97b584cfeb"},"vehicle_type_id":"4","last_reported":1703520514,"current_range_meters":13600,"station_id":"ce4bgi92rcd13ifvqb90","pricing_plan_id":"free"},{"bike_id":"ee20e05d-a5ba-4c3e-9897-220e380196be","system_id":"levelo_inurba_marseille","lat":43.29611,"lon":5.37726,"is_reserved":false,"is_disabled":false,"rental_uris":{"android":"levelo://app?vid=ee20e05d-a5ba-4c3e-9897-220e380196be","ios":"levelo://app?vid=ee20e05d-a5ba-4c3e-9897-220e380196be"},"vehicle_type_id":"4","last_reported":1703520514,"current_range_meters":2800,"station_id":"ce4bgi92rcd13ifvqb90","pricing_plan_id":"free"},{"bike_id":"3bf49611-7226-4eeb-8641-7f648bfd1fad","system_id":"levelo_inurba_marseille","lat":43.29611,"lon":5.37729,"is_reserved":false,"is_disabled":false,"rental_uris":{"android":"levelo://app?vid=3bf49611-7226-4eeb-8641-7f648bfd1fad","ios":"levelo://app?vid=3bf49611-7226-4eeb-8641-7f648bfd1fad"},"vehicle_type_id":"4","last_reported":1703520514,"current_range_meters":23200,"station_id":"ce4bgi92rcd13ifvqb90","pricing_plan_id":"free"},{"bike_id":"2a183a83-0497-402f-b796-bd5222fac445","system_id":"levelo_inurba_marseille","lat":43.29607,"lon":5.3772,"is_reserved":false,"is_disabled":false,"rental_uris":{"android":"levelo://app?vid=2a183a83-0497-402f-b796-bd5222fac445","ios":"levelo://app?vid=2a183a83-0497-402f-b796-bd5222fac445"},"vehicle_type_id":"4","last_reported":1703520514,"current_range_meters":1600,"station_id":"ce4bgi92rcd13ifvqb90","pricing_plan_id":"free"},{"bike_id":"efe35a27-9372-4971-a7bd-efa498509817","system_id":"levelo_inurba_marseille","lat":43.295279,"lon":5.375048,"is_reserved":false,"is_disabled":false,"rental_uris":{"android":"levelo://app?vid=efe35a27-9372-4971-a7bd-efa498509817","ios":"levelo://app?vid=efe35a27-9372-4971-a7bd-efa498509817"},"vehicle_type_id":"4","last_reported":1703520514,"current_range_meters":29600,"station_id":"ce4bgkp2rcd13ifvqbmg","pricing_plan_id":"free"},{"bike_id":"0d75a666-fe00-403e-8687-fbf7659c88b8","system_id":"levelo_inurba_marseille","lat":43.299724,"lon":5.384848,"is_reserved":false,"is_disabled":false,"rental_uris":{"android":"levelo://app?vid=0d75a666-fe00-403e-8687-fbf7659c88b8","ios":"levelo://app?vid=0d75a666-fe00-403e-8687-fbf7659c88b8"},"vehicle_type_id":"4","last_reported":1703520514,"current_range_meters":15200,"station_id":"ce4bgj92rcd13ifvqbd0","pricing_plan_id":"free"},{"bike_id":"263aaf91-c7ab-4d06-bd76-3d523fd01cf8","system_id":"levelo_inurba_marseille","lat":43.296277,"lon":5.377108,"is_reserved":false,"is_disabled":false,"rental_uris":{"android":"levelo://app?vid=263aaf91-c7ab-4d06-bd76-3d523fd01cf8","ios":"levelo://app?vid=263aaf91-c7ab-4d06-bd76-3d523fd01cf8"},"vehicle_type_id":"4","last_reported":1703520514,"current_range_meters":26800,"station_id":"ce4bgi92rcd13ifvqb90","pricing_plan_id":"free"},{"bike_id":"d2d590c7-c59e-4b6f-b784-b11eaae8b37d","system_id":"levelo_inurba_marseille","lat":43.29601,"lon":5.381084,"is_reserved":false,"is_disabled":false,"rental_uris":{"android":"levelo://app?vid=d2d590c7-c59e-4b6f-b784-b11eaae8b37d","ios":"levelo://app?vid=d2d590c7-c59e-4b6f-b784-b11eaae8b37d"},"vehicle_type_id":"4","last_reported":1703520514,"current_range_meters":24400,"station_id":"ce4bgl12rcd13ifvqbo0","pricing_plan_id":"free"},{"bike_id":"3665daa3-afb5-46b9-8680-b61fd6af315d","system_id":"levelo_inurba_marseille","lat":43.293259,"lon":5.371586,"is_reserved":false,"is_disabled":false,"rental_uris":{"android":"levelo://app?vid=3665daa3-afb5-46b9-8680-b61fd6af315d","ios":"levelo://app?vid=3665daa3-afb5-46b9-8680-b61fd6af315d"},"vehicle_type_id":"4","last_reported":1703520514,"current_range_meters":26800,"station_id":"ce4bgh92rcd13ifvqb40","pricing_plan_id":"free"},{"bike_id":"66090169-56d0-4327-ac4a-5a0739ff15e9","system_id":"levelo_inurba_marseille","lat":43.292749,"lon":5.368402,"is_reserved":false,"is_disabled":false,"rental_uris":{"android":"levelo://app?vid=66090169-56d0-4327-ac4a-5a0739ff15e9","ios":"levelo://app?vid=66090169-56d0-4327-ac4a-5a0739ff15e9"},"vehicle_type_id":"4","last_reported":1703520514,"current_range_meters":15200,"station_id":"ce4bhbp2rcd13ifvqesg","pricing_plan_id":"free"},{"bike_id":"06bd850f-eb79-4fca-bf70-822288b6fc83","system_id":"levelo_inurba_marseille","lat":43.292749,"lon":5.368402,"is_reserved":false,"is_disabled":false,"rental_uris":{"android":"levelo://app?vid=06bd850f-eb79-4fca-bf70-822288b6fc83","ios":"levelo://app?vid=06bd850f-eb79-4fca-bf70-822288b6fc83"},"vehicle_type_id":"4","last_reported":1703520514,"current_range_meters":8800,"station_id":"ce4bhbp2rcd13ifvqesg","pricing_plan_id":"free"},{"bike_id":"bdad69d8-b8dd-4b54-b27f-a73e64195fdc","system_id":"levelo_inurba_marseille","lat":43.305994,"lon":5.393687,"is_reserved":false,"is_disabled":false,"rental_uris":{"android":"levelo://app?vid=bdad69d8-b8dd-4b54-b27f-a73e64195fdc","ios":"levelo://app?vid=bdad69d8-b8dd-4b54-b27f-a73e64195fdc"},"vehicle_type_id":"4","last_reported":1703520514,"current_range_meters":20000,"station_id":"ce4bh0p2rcd13ifvqd80","pricing_plan_id":"free"},{"bike_id":"963f7616-7745-415c-9791-deb1a8581094","system_id":"levelo_inurba_marseille","lat":43.293009,"lon":5.374584,"is_reserved":false,"is_disabled":false,"rental_uris":{"android":"levelo://app?vid=963f7616-7745-415c-9791-deb1a8581094","ios":"levelo://app?vid=963f7616-7745-415c-9791-deb1a8581094"},"vehicle_type_id":"4","last_reported":1703520514,"current_range_meters":30400,"station_id":"ce4bgi12rcd13ifvqb70","pricing_plan_id":"free"},{"bike_id":"08d469d9-b1c9-48bb-9a15-0ab488b0385f","system_id":"levelo_inurba_marseille","lat":43.2936,"lon":5.37835,"is_reserved":false,"is_disabled":false,"rental_uris":{"android":"levelo://app?vid=08d469d9-b1c9-48bb-9a15-0ab488b0385f","ios":"levelo://app?vid=08d469d9-b1c9-48bb-9a15-0ab488b0385f"},"vehicle_type_id":"4","last_reported":1703520514,"current_range_meters":14400,"station_id":"ce4bgjh2rcd13ifvqbf0","pricing_plan_id":"free"},{"bike_id":"f96d04ca-0caa-4070-be0d-6deb29de79c9","system_id":"levelo_inurba_marseille","lat":43.2936,"lon":5.37835,"is_reserved":false,"is_disabled":false,"rental_uris":{"android":"levelo://app?vid=f96d04ca-0caa-4070-be0d-6deb29de79c9","ios":"levelo://app?vid=f96d04ca-0caa-4070-be0d-6deb29de79c9"},"vehicle_type_id":"4","last_reported":1703520514,"current_range_meters":24800,"station_id":"ce4bgjh2rcd13ifvqbf0","pricing_plan_id":"free"},{"bike_id":"0b87f915-612f-4eb1-b708-173086f5daa7","system_id":"levelo_inurba_marseille","lat":43.2936,"lon":5.37835,"is_reserved":false,"is_disabled":false,"rental_uris":{"android":"levelo://app?vid=0b87f915-612f-4eb1-b708-173086f5daa7","ios":"levelo://app?vid=0b87f915-612f-4eb1-b708-173086f5daa7"},"vehicle_type_id":"4","last_reported":1703520514,"current_range_meters":29200,"station_id":"ce4bgjh2rcd13ifvqbf0","pricing_plan_id":"free"},{"bike_id":"71634296-c8ee-4d85-9410-35340e19d460","system_id":"levelo_inurba_marseille","lat":43.300852,"lon":5.390859,"is_reserved":false,"is_disabled":false,"rental_uris":{"android":"levelo://app?vid=71634296-c8ee-4d85-9410-35340e19d460","ios":"levelo://app?vid=71634296-c8ee-4d85-9410-35340e19d460"},"vehicle_type_id":"4","last_reported":1703520514,"current_range_meters":30800,"station_id":"ce4bh192rcd13ifvqdb0","pricing_plan_id":"free"},{"bike_id":"d8849233-8dc7-4818-8711-b19bbe612b97","system_id":"levelo_inurba_marseille","lat":43.2936,"lon":5.37835,"is_reserved":false,"is_disabled":false,"rental_uris":{"android":"levelo://app?vid=d8849233-8dc7-4818-8711-b19bbe612b97","ios":"levelo://app?vid=d8849233-8dc7-4818-8711-b19bbe612b97"},"vehicle_type_id":"4","last_reported":1703520514,"current_range_meters":31200,"station_id":"ce4bgjh2rcd13ifvqbf0","pricing_plan_id":"free"},{"bike_id":"ad190476-7660-4f41-abf6-dc0d5cdb255a","system_id":"levelo_inurba_marseille","lat":43.292311,"lon":5.360731,"is_reserved":false,"is_disabled":false,"rental_uris":{"android":"levelo://app?vid=ad190476-7660-4f41-abf6-dc0d5cdb255a","ios":"levelo://app?vid=ad190476-7660-4f41-abf6-dc0d5cdb255a"},"vehicle_type_id":"4","last_reported":1703520514,"current_range_meters":4800,"station_id":"ce4bhbh2rcd13ifvqeqg","pricing_plan_id":"free"},{"bike_id":"ce7acbf2-fb7c-4fe8-9362-953a71469661","system_id":"levelo_inurba_marseille","lat":43.292311,"lon":5.360731,"is_reserved":false,"is_disabled":false,"rental_uris":{"android":"levelo://app?vid=ce7acbf2-fb7c-4fe8-9362-953a71469661","ios":"levelo://app?vid=ce7acbf2-fb7c-4fe8-9362-953a71469661"},"vehicle_type_id":"4","last_reported":1703520514,"current_range_meters":26400,"station_id":"ce4bhbh2rcd13ifvqeqg","pricing_plan_id":"free"},{"bike_id":"aa6f8bf6-a475-4ccb-be18-acf2042172a8","system_id":"levelo_inurba_marseille","lat":43.292311,"lon":5.360731,"is_reserved":false,"is_disabled":false,"rental_uris":{"android":"levelo://app?vid=aa6f8bf6-a475-4ccb-be18-acf2042172a8","ios":"levelo://app?vid=aa6f8bf6-a475-4ccb-be18-acf2042172a8"},"vehicle_type_id":"4","last_reported":1703520514,"current_range_meters":10800,"station_id":"ce4bhbh2rcd13ifvqeqg","pricing_plan_id":"free"},{"bike_id":"72ac065c-7251-4189-bc2c-122cad109416","system_id":"levelo_inurba_marseille","lat":43.292311,"lon":5.360731,"is_reserved":false,"is_disabled":false,"rental_uris":{"android":"levelo://app?vid=72ac065c-7251-4189-bc2c-122cad109416","ios":"levelo://app?vid=72ac065c-7251-4189-bc2c-122cad109416"},"vehicle_type_id":"4","last_reported":1703520514,"current_range_meters":21200,"station_id":"ce4bhbh2rcd13ifvqeqg","pricing_plan_id":"free"},{"bike_id":"a68bedd8-716a-406a-9614-81cd0a851415","system_id":"levelo_inurba_marseille","lat":43.292311,"lon":5.360731,"is_reserved":false,"is_disabled":false,"rental_uris":{"android":"levelo://app?vid=a68bedd8-716a-406a-9614-81cd0a851415","ios":"levelo://app?vid=a68bedd8-716a-406a-9614-81cd0a851415"},"vehicle_type_id":"4","last_reported":1703520514,"current_range_meters":18400,"station_id":"ce4bhbh2rcd13ifvqeqg","pricing_plan_id":"free"},{"bike_id":"e13596dc-3511-40e7-9708-1e90ad04f821","system_id":"levelo_inurba_marseille","lat":43.292311,"lon":5.360731,"is_reserved":false,"is_disabled":false,"rental_uris":{"android":"levelo://app?vid=e13596dc-3511-40e7-9708-1e90ad04f821","ios":"levelo://app?vid=e13596dc-3511-40e7-9708-1e90ad04f821"},"vehicle_type_id":"4","last_reported":1703520514,"current_range_meters":24400,"station_id":"ce4bhbh2rcd13ifvqeqg","pricing_plan_id":"free"},{"bike_id":"13c0040a-a450-4801-96d9-4c506853d407","system_id":"levelo_inurba_marseille","lat":43.29799,"lon":5.388035,"is_reserved":false,"is_disabled":false,"rental_uris":{"android":"levelo://app?vid=13c0040a-a450-4801-96d9-4c506853d407","ios":"levelo://app?vid=13c0040a-a450-4801-96d9-4c506853d407"},"vehicle_type_id":"4","last_reported":1703520514,"current_range_meters":20800,"station_id":"chh1huq6cuj3fo74tm60","pricing_plan_id":"free"},{"bike_id":"c2ede81f-1b07-4dbb-a330-68523034310e","system_id":"levelo_inurba_marseille","lat":43.291687,"lon":5.37154,"is_reserved":false,"is_disabled":false,"rental_uris":{"android":"levelo://app?vid=c2ede81f-1b07-4dbb-a330-68523034310e","ios":"levelo://app?vid=c2ede81f-1b07-4dbb-a330-68523034310e"},"vehicle_type_id":"4","last_reported":1703520514,"current_range_meters":22400,"station_id":"ce4bha92rcd13ifvqeh0","pricing_plan_id":"free"},{"bike_id":"b64c1f66-58c7-4b29-9f19-9395fcdaef8e","system_id":"levelo_inurba_marseille","lat":43.298687,"lon":5.389154,"is_reserved":false,"is_disabled":false,"rental_uris":{"android":"levelo://app?vid=b64c1f66-58c7-4b29-9f19-9395fcdaef8e","ios":"levelo://app?vid=b64c1f66-58c7-4b29-9f19-9395fcdaef8e"},"vehicle_type_id":"4","last_reported":1703520514,"current_range_meters":12000,"station_id":"","pricing_plan_id":"free"},{"bike_id":"2050bbd9-9ea3-4674-a01e-c5ff6f9b8ab7","system_id":"levelo_inurba_marseille","lat":43.313291,"lon":5.396838,"is_reserved":false,"is_disabled":false,"rental_uris":{"android":"levelo://app?vid=2050bbd9-9ea3-4674-a01e-c5ff6f9b8ab7","ios":"levelo://app?vid=2050bbd9-9ea3-4674-a01e-c5ff6f9b8ab7"},"vehicle_type_id":"4","last_reported":1703520514,"current_range_meters":13600,"station_id":"ce4bgvp2rcd13ifvqcu0","pricing_plan_id":"free"},{"bike_id":"89bf1791-be67-48fb-ac43-0d7cb962ae97","system_id":"levelo_inurba_marseille","lat":43.313291,"lon":5.396838,"is_reserved":false,"is_disabled":false,"rental_uris":{"android":"levelo://app?vid=89bf1791-be67-48fb-ac43-0d7cb962ae97","ios":"levelo://app?vid=89bf1791-be67-48fb-ac43-0d7cb962ae97"},"vehicle_type_id":"4","last_reported":1703520514,"current_range_meters":17200,"station_id":"ce4bgvp2rcd13ifvqcu0","pricing_plan_id":"free"},{"bike_id":"3b6a2954-e5f3-459d-a612-236a61fd8a06","system_id":"levelo_inurba_marseille","lat":43.313291,"lon":5.396838,"is_reserved":false,"is_disabled":false,"rental_uris":{"android":"levelo://app?vid=3b6a2954-e5f3-459d-a612-236a61fd8a06","ios":"levelo://app?vid=3b6a2954-e5f3-459d-a612-236a61fd8a06"},"vehicle_type_id":"4","last_reported":1703520514,"current_range_meters":27600,"station_id":"ce4bgvp2rcd13ifvqcu0","pricing_plan_id":"free"},{"bike_id":"c6c77287-6f1e-47ae-bf36-3971fcf7baed","system_id":"levelo_inurba_marseille","lat":43.313291,"lon":5.396838,"is_reserved":false,"is_disabled":false,"rental_uris":{"android":"levelo://app?vid=c6c77287-6f1e-47ae-bf36-3971fcf7baed","ios":"levelo://app?vid=c6c77287-6f1e-47ae-bf36-3971fcf7baed"},"vehicle_type_id":"4","last_reported":1703520514,"current_range_meters":9200,"station_id":"ce4bgvp2rcd13ifvqcu0","pricing_plan_id":"free"},{"bike_id":"d41031d7-9dd7-4fa3-8a31-38585844c516","system_id":"levelo_inurba_marseille","lat":43.309047,"lon":5.396551,"is_reserved":false,"is_disabled":false,"rental_uris":{"android":"levelo://app?vid=d41031d7-9dd7-4fa3-8a31-38585844c516","ios":"levelo://app?vid=d41031d7-9dd7-4fa3-8a31-38585844c516"},"vehicle_type_id":"4","last_reported":1703520514,"current_range_meters":28400,"station_id":"ce4bh012rcd13ifvqcv0","pricing_plan_id":"free"},{"bike_id":"40ccd2b3-40be-4112-a24b-78c581c9abf0","system_id":"levelo_inurba_marseille","lat":43.29529,"lon":5.385581,"is_reserved":false,"is_disabled":false,"rental_uris":{"android":"levelo://app?vid=40ccd2b3-40be-4112-a24b-78c581c9abf0","ios":"levelo://app?vid=40ccd2b3-40be-4112-a24b-78c581c9abf0"},"vehicle_type_id":"4","last_reported":1703520514,"current_range_meters":26000,"station_id":"ce4bgih2rcd13ifvqba0","pricing_plan_id":"free"},{"bike_id":"81913b3c-2064-4217-a2d0-4a7e4ac1675b","system_id":"levelo_inurba_marseille","lat":43.290779,"lon":5.371482,"is_reserved":false,"is_disabled":false,"rental_uris":{"android":"levelo://app?vid=81913b3c-2064-4217-a2d0-4a7e4ac1675b","ios":"levelo://app?vid=81913b3c-2064-4217-a2d0-4a7e4ac1675b"},"vehicle_type_id":"4","last_reported":1703520514,"current_range_meters":26000,"station_id":"ce4bh5p2rcd13ifvqe4g","pricing_plan_id":"free"},{"bike_id":"a10222d9-2a8a-42e9-bffd-12eb8d32fce5","system_id":"levelo_inurba_marseille","lat":43.302008,"lon":5.394694,"is_reserved":false,"is_disabled":false,"rental_uris":{"android":"levelo://app?vid=a10222d9-2a8a-42e9-bffd-12eb8d32fce5","ios":"levelo://app?vid=a10222d9-2a8a-42e9-bffd-12eb8d32fce5"},"vehicle_type_id":"4","last_reported":1703520514,"current_range_meters":27600,"station_id":"ce4bh0p2rcd13ifvqd70","pricing_plan_id":"free"},{"bike_id":"3467c40d-4fd4-48c8-9937-e6ef031f21b5","system_id":"levelo_inurba_marseille","lat":43.290631,"lon":5.359244,"is_reserved":false,"is_disabled":false,"rental_uris":{"android":"levelo://app?vid=3467c40d-4fd4-48c8-9937-e6ef031f21b5","ios":"levelo://app?vid=3467c40d-4fd4-48c8-9937-e6ef031f21b5"},"vehicle_type_id":"4","last_reported":1703520514,"current_range_meters":30000,"station_id":"ce4bha92rcd13ifvqeg0","pricing_plan_id":"free"},{"bike_id":"ba524f44-e848-43cb-bdb2-b8c3f283941c","system_id":"levelo_inurba_marseille","lat":43.290631,"lon":5.359244,"is_reserved":false,"is_disabled":false,"rental_uris":{"android":"levelo://app?vid=ba524f44-e848-43cb-bdb2-b8c3f283941c","ios":"levelo://app?vid=ba524f44-e848-43cb-bdb2-b8c3f283941c"},"vehicle_type_id":"4","last_reported":1703520514,"current_range_meters":31200,"station_id":"ce4bha92rcd13ifvqeg0","pricing_plan_id":"free"},{"bike_id":"e9cb8df2-c06e-409c-9475-927912973a1c","system_id":"levelo_inurba_marseille","lat":43.290631,"lon":5.359244,"is_reserved":false,"is_disabled":false,"rental_uris":{"android":"levelo://app?vid=e9cb8df2-c06e-409c-9475-927912973a1c","ios":"levelo://app?vid=e9cb8df2-c06e-409c-9475-927912973a1c"},"vehicle_type_id":"4","last_reported":1703520514,"current_range_meters":16000,"station_id":"ce4bha92rcd13ifvqeg0","pricing_plan_id":"free"},{"bike_id":"888f3fb0-d815-4005-ab01-e0f9e87776f3","system_id":"levelo_inurba_marseille","lat":43.290327,"lon":5.375711,"is_reserved":false,"is_disabled":false,"rental_uris":{"android":"levelo://app?vid=888f3fb0-d815-4005-ab01-e0f9e87776f3","ios":"levelo://app?vid=888f3fb0-d815-4005-ab01-e0f9e87776f3"},"vehicle_type_id":"4","last_reported":1703520514,"current_range_meters":19200,"station_id":"ce4bh692rcd13ifvqe90","pricing_plan_id":"free"},{"bike_id":"d2ac1886-0057-4e06-8bf6-545275773e70","system_id":"levelo_inurba_marseille","lat":43.294162,"lon":5.386292,"is_reserved":false,"is_disabled":false,"rental_uris":{"android":"levelo://app?vid=d2ac1886-0057-4e06-8bf6-545275773e70","ios":"levelo://app?vid=d2ac1886-0057-4e06-8bf6-545275773e70"},"vehicle_type_id":"4","last_reported":1703520514,"current_range_meters":26800,"station_id":"ce4bh2h2rcd13ifvqdh0","pricing_plan_id":"free"},{"bike_id":"234d0f32-c8f0-4e65-8b43-29df15b6e85f","system_id":"levelo_inurba_marseille","lat":43.294162,"lon":5.386292,"is_reserved":false,"is_disabled":false,"rental_uris":{"android":"levelo://app?vid=234d0f32-c8f0-4e65-8b43-29df15b6e85f","ios":"levelo://app?vid=234d0f32-c8f0-4e65-8b43-29df15b6e85f"},"vehicle_type_id":"4","last_reported":1703520514,"current_range_meters":29600,"station_id":"ce4bh2h2rcd13ifvqdh0","pricing_plan_id":"free"},{"bike_id":"de271d97-325c-4951-9c1f-465587c24656","system_id":"levelo_inurba_marseille","lat":43.304296,"lon":5.397513,"is_reserved":false,"is_disabled":false,"rental_uris":{"android":"levelo://app?vid=de271d97-325c-4951-9c1f-465587c24656","ios":"levelo://app?vid=de271d97-325c-4951-9c1f-465587c24656"},"vehicle_type_id":"4","last_reported":1703520514,"current_range_meters":31600,"station_id":"ce4bh092rcd13ifvqd20","pricing_plan_id":"free"},{"bike_id":"2101f4c5-3d7f-4ba0-aa2f-9c131253b6d7","system_id":"levelo_inurba_marseille","lat":43.304296,"lon":5.397513,"is_reserved":false,"is_disabled":false,"rental_uris":{"android":"levelo://app?vid=2101f4c5-3d7f-4ba0-aa2f-9c131253b6d7","ios":"levelo://app?vid=2101f4c5-3d7f-4ba0-aa2f-9c131253b6d7"},"vehicle_type_id":"4","last_reported":1703520514,"current_range_meters":19200,"station_id":"ce4bh092rcd13ifvqd20","pricing_plan_id":"free"},{"bike_id":"a53fb760-b4f1-45c4-a9e8-30a05e9d0f74","system_id":"levelo_inurba_marseille","lat":43.292644,"lon":5.384257,"is_reserved":false,"is_disabled":false,"rental_uris":{"android":"levelo://app?vid=a53fb760-b4f1-45c4-a9e8-30a05e9d0f74","ios":"levelo://app?vid=a53fb760-b4f1-45c4-a9e8-30a05e9d0f74"},"vehicle_type_id":"4","last_reported":1703520514,"current_range_meters":26400,"station_id":"ce4bh692rcd13ifvqea0","pricing_plan_id":"free"},{"bike_id":"bd632759-b17b-41a2-992c-13c5f14921de","system_id":"levelo_inurba_marseille","lat":43.292644,"lon":5.384257,"is_reserved":false,"is_disabled":false,"rental_uris":{"android":"levelo://app?vid=bd632759-b17b-41a2-992c-13c5f14921de","ios":"levelo://app?vid=bd632759-b17b-41a2-992c-13c5f14921de"},"vehicle_type_id":"4","last_reported":1703520514,"current_range_meters":8400,"station_id":"ce4bh692rcd13ifvqea0","pricing_plan_id":"free"},{"bike_id":"1fb90f5b-2bdd-436b-88df-f0d52ae47fd7","system_id":"levelo_inurba_marseille","lat":43.292644,"lon":5.384257,"is_reserved":false,"is_disabled":false,"rental_uris":{"android":"levelo://app?vid=1fb90f5b-2bdd-436b-88df-f0d52ae47fd7","ios":"levelo://app?vid=1fb90f5b-2bdd-436b-88df-f0d52ae47fd7"},"vehicle_type_id":"4","last_reported":1703520514,"current_range_meters":20400,"station_id":"ce4bh692rcd13ifvqea0","pricing_plan_id":"free"},{"bike_id":"08338668-1e11-48a6-b26f-7b51b891d2b9","system_id":"levelo_inurba_marseille","lat":43.29009,"lon":5.35616,"is_reserved":false,"is_disabled":false,"rental_uris":{"android":"levelo://app?vid=08338668-1e11-48a6-b26f-7b51b891d2b9","ios":"levelo://app?vid=08338668-1e11-48a6-b26f-7b51b891d2b9"},"vehicle_type_id":"4","last_reported":1703520514,"current_range_meters":28800,"station_id":"ce4bhb92rcd13ifvqen0","pricing_plan_id":"free"},{"bike_id":"12708a6a-d1ff-490c-aee7-74c058c348ee","system_id":"levelo_inurba_marseille","lat":43.29006,"lon":5.35615,"is_reserved":false,"is_disabled":false,"rental_uris":{"android":"levelo://app?vid=12708a6a-d1ff-490c-aee7-74c058c348ee","ios":"levelo://app?vid=12708a6a-d1ff-490c-aee7-74c058c348ee"},"vehicle_type_id":"4","last_reported":1703520514,"current_range_meters":25200,"station_id":"ce4bhb92rcd13ifvqen0","pricing_plan_id":"free"},{"bike_id":"27fdccb2-a690-4f74-9473-644e6241edea","system_id":"levelo_inurba_marseille","lat":43.29006,"lon":5.35612,"is_reserved":false,"is_disabled":false,"rental_uris":{"android":"levelo://app?vid=27fdccb2-a690-4f74-9473-644e6241edea","ios":"levelo://app?vid=27fdccb2-a690-4f74-9473-644e6241edea"},"vehicle_type_id":"4","last_reported":1703520514,"current_range_meters":19200,"station_id":"ce4bhb92rcd13ifvqen0","pricing_plan_id":"free"},{"bike_id":"7c6c2da1-823f-4589-b8f4-de246535b809","system_id":"levelo_inurba_marseille","lat":43.290104,"lon":5.356111,"is_reserved":false,"is_disabled":false,"rental_uris":{"android":"levelo://app?vid=7c6c2da1-823f-4589-b8f4-de246535b809","ios":"levelo://app?vid=7c6c2da1-823f-4589-b8f4-de246535b809"},"vehicle_type_id":"4","last_reported":1703520514,"current_range_meters":24000,"station_id":"ce4bhb92rcd13ifvqen0","pricing_plan_id":"free"},{"bike_id":"a0a19d8f-6462-4c9b-ae19-0f4f1f9b84c5","system_id":"levelo_inurba_marseille","lat":43.29005,"lon":5.35609,"is_reserved":false,"is_disabled":false,"rental_uris":{"android":"levelo://app?vid=a0a19d8f-6462-4c9b-ae19-0f4f1f9b84c5","ios":"levelo://app?vid=a0a19d8f-6462-4c9b-ae19-0f4f1f9b84c5"},"vehicle_type_id":"4","last_reported":1703520514,"current_range_meters":22400,"station_id":"ce4bhb92rcd13ifvqen0","pricing_plan_id":"free"},{"bike_id":"4ac28f22-dcba-4116-9e3b-a1e232acf836","system_id":"levelo_inurba_marseille","lat":43.290103,"lon":5.356114,"is_reserved":false,"is_disabled":false,"rental_uris":{"android":"levelo://app?vid=4ac28f22-dcba-4116-9e3b-a1e232acf836","ios":"levelo://app?vid=4ac28f22-dcba-4116-9e3b-a1e232acf836"},"vehicle_type_id":"4","last_reported":1703520514,"current_range_meters":0,"station_id":"ce4bhb92rcd13ifvqen0","pricing_plan_id":"free"},{"bike_id":"d198f326-7ac0-4255-9f31-d846221eef49","system_id":"levelo_inurba_marseille","lat":43.29002,"lon":5.35614,"is_reserved":false,"is_disabled":false,"rental_uris":{"android":"levelo://app?vid=d198f326-7ac0-4255-9f31-d846221eef49","ios":"levelo://app?vid=d198f326-7ac0-4255-9f31-d846221eef49"},"vehicle_type_id":"4","last_reported":1703520514,"current_range_meters":22400,"station_id":"ce4bhb92rcd13ifvqen0","pricing_plan_id":"free"},{"bike_id":"c3854897-e276-4895-ad27-df8d0d5fa40e","system_id":"levelo_inurba_marseille","lat":43.290104,"lon":5.356111,"is_reserved":false,"is_disabled":false,"rental_uris":{"android":"levelo://app?vid=c3854897-e276-4895-ad27-df8d0d5fa40e","ios":"levelo://app?vid=c3854897-e276-4895-ad27-df8d0d5fa40e"},"vehicle_type_id":"4","last_reported":1703520514,"current_range_meters":30000,"station_id":"ce4bhb92rcd13ifvqen0","pricing_plan_id":"free"},{"bike_id":"c5089163-3cbe-4cf3-8920-bf268dd7f199","system_id":"levelo_inurba_marseille","lat":43.290104,"lon":5.356111,"is_reserved":false,"is_disabled":false,"rental_uris":{"android":"levelo://app?vid=c5089163-3cbe-4cf3-8920-bf268dd7f199","ios":"levelo://app?vid=c5089163-3cbe-4cf3-8920-bf268dd7f199"},"vehicle_type_id":"4","last_reported":1703520514,"current_range_meters":31600,"station_id":"ce4bhb92rcd13ifvqen0","pricing_plan_id":"free"},{"bike_id":"5d1bde58-2c7b-438a-bd37-7bc100df62bf","system_id":"levelo_inurba_marseille","lat":43.33024,"lon":5.39037,"is_reserved":false,"is_disabled":false,"rental_uris":{"android":"levelo://app?vid=5d1bde58-2c7b-438a-bd37-7bc100df62bf","ios":"levelo://app?vid=5d1bde58-2c7b-438a-bd37-7bc100df62bf"},"vehicle_type_id":"4","last_reported":1703520514,"current_range_meters":16800,"station_id":"","pricing_plan_id":"free"},{"bike_id":"6605743d-bdce-4e30-ba93-7382b3d46a80","system_id":"levelo_inurba_marseille","lat":43.295169,"lon":5.390426,"is_reserved":false,"is_disabled":false,"rental_uris":{"android":"levelo://app?vid=6605743d-bdce-4e30-ba93-7382b3d46a80","ios":"levelo://app?vid=6605743d-bdce-4e30-ba93-7382b3d46a80"},"vehicle_type_id":"4","last_reported":1703520514,"current_range_meters":23200,"station_id":"ce4bh3p2rcd13ifvqdp0","pricing_plan_id":"free"},{"bike_id":"4b388e93-8359-494a-93e7-a691dd1edc09","system_id":"levelo_inurba_marseille","lat":43.33023,"lon":5.39047,"is_reserved":false,"is_disabled":false,"rental_uris":{"android":"levelo://app?vid=4b388e93-8359-494a-93e7-a691dd1edc09","ios":"levelo://app?vid=4b388e93-8359-494a-93e7-a691dd1edc09"},"vehicle_type_id":"4","last_reported":1703520514,"current_range_meters":26000,"station_id":"","pricing_plan_id":"free"},{"bike_id":"7244b12c-a4ed-4fcc-a53c-0222ae84e7e2","system_id":"levelo_inurba_marseille","lat":43.33119,"lon":5.38976,"is_reserved":false,"is_disabled":false,"rental_uris":{"android":"levelo://app?vid=7244b12c-a4ed-4fcc-a53c-0222ae84e7e2","ios":"levelo://app?vid=7244b12c-a4ed-4fcc-a53c-0222ae84e7e2"},"vehicle_type_id":"4","last_reported":1703520514,"current_range_meters":28800,"station_id":"","pricing_plan_id":"free"},{"bike_id":"4aac448d-ea19-4dee-b69b-8b32bd67559b","system_id":"levelo_inurba_marseille","lat":43.28856,"lon":5.358371,"is_reserved":false,"is_disabled":false,"rental_uris":{"android":"levelo://app?vid=4aac448d-ea19-4dee-b69b-8b32bd67559b","ios":"levelo://app?vid=4aac448d-ea19-4dee-b69b-8b32bd67559b"},"vehicle_type_id":"4","last_reported":1703520514,"current_range_meters":12400,"station_id":"ce4bhb12rcd13ifvqem0","pricing_plan_id":"free"},{"bike_id":"4a567f15-c8c7-45a1-89d2-82c585dbdf31","system_id":"levelo_inurba_marseille","lat":43.293259,"lon":5.371586,"is_reserved":false,"is_disabled":false,"rental_uris":{"android":"levelo://app?vid=4a567f15-c8c7-45a1-89d2-82c585dbdf31","ios":"levelo://app?vid=4a567f15-c8c7-45a1-89d2-82c585dbdf31"},"vehicle_type_id":"4","last_reported":1703520514,"current_range_meters":11600,"station_id":"ce4bgh92rcd13ifvqb40","pricing_plan_id":"free"},{"bike_id":"f82a442a-07dc-42b4-9342-5b2892b8a8b1","system_id":"levelo_inurba_marseille","lat":43.309371,"lon":5.401449,"is_reserved":false,"is_disabled":false,"rental_uris":{"android":"levelo://app?vid=f82a442a-07dc-42b4-9342-5b2892b8a8b1","ios":"levelo://app?vid=f82a442a-07dc-42b4-9342-5b2892b8a8b1"},"vehicle_type_id":"4","last_reported":1703520514,"current_range_meters":5600,"station_id":"ce4bgvp2rcd13ifvqct0","pricing_plan_id":"free"},{"bike_id":"eda1d4be-a826-4263-b216-464e803eb4ba","system_id":"levelo_inurba_marseille","lat":43.30642,"lon":5.401031,"is_reserved":false,"is_disabled":false,"rental_uris":{"android":"levelo://app?vid=eda1d4be-a826-4263-b216-464e803eb4ba","ios":"levelo://app?vid=eda1d4be-a826-4263-b216-464e803eb4ba"},"vehicle_type_id":"4","last_reported":1703520514,"current_range_meters":26000,"station_id":"ce4bh112rcd13ifvqda0","pricing_plan_id":"free"},{"bike_id":"0d21ac44-3a04-4244-93d8-d373159518f7","system_id":"levelo_inurba_marseille","lat":43.301117,"lon":5.398795,"is_reserved":false,"is_disabled":false,"rental_uris":{"android":"levelo://app?vid=0d21ac44-3a04-4244-93d8-d373159518f7","ios":"levelo://app?vid=0d21ac44-3a04-4244-93d8-d373159518f7"},"vehicle_type_id":"4","last_reported":1703520514,"current_range_meters":18800,"station_id":"ce4bh0h2rcd13ifvqd40","pricing_plan_id":"free"},{"bike_id":"1dc0891e-bdae-4471-9be5-e8ba59d42c01","system_id":"levelo_inurba_marseille","lat":43.28727,"lon":5.36078,"is_reserved":false,"is_disabled":false,"rental_uris":{"android":"levelo://app?vid=1dc0891e-bdae-4471-9be5-e8ba59d42c01","ios":"levelo://app?vid=1dc0891e-bdae-4471-9be5-e8ba59d42c01"},"vehicle_type_id":"4","last_reported":1703520514,"current_range_meters":26400,"station_id":"cki0cbj6b192h4jlfktg","pricing_plan_id":"free"},{"bike_id":"02a1e374-cea2-4b13-83f7-16fcfeaddb67","system_id":"levelo_inurba_marseille","lat":43.298681,"lon":5.397225,"is_reserved":false,"is_disabled":false,"rental_uris":{"android":"levelo://app?vid=02a1e374-cea2-4b13-83f7-16fcfeaddb67","ios":"levelo://app?vid=02a1e374-cea2-4b13-83f7-16fcfeaddb67"},"vehicle_type_id":"4","last_reported":1703520514,"current_range_meters":22800,"station_id":"ce4bh0h2rcd13ifvqd50","pricing_plan_id":"free"},{"bike_id":"790ac815-6fb3-4772-9fb6-1d8b35d6fe27","system_id":"levelo_inurba_marseille","lat":43.286961,"lon":5.373785,"is_reserved":false,"is_disabled":false,"rental_uris":{"android":"levelo://app?vid=790ac815-6fb3-4772-9fb6-1d8b35d6fe27","ios":"levelo://app?vid=790ac815-6fb3-4772-9fb6-1d8b35d6fe27"},"vehicle_type_id":"4","last_reported":1703520514,"current_range_meters":23600,"station_id":"ce4bh3p2rcd13ifvqdq0","pricing_plan_id":"free"},{"bike_id":"a4f81d61-acdb-444b-af8b-b6298de33ea6","system_id":"levelo_inurba_marseille","lat":43.290345,"lon":5.38646,"is_reserved":false,"is_disabled":false,"rental_uris":{"android":"levelo://app?vid=a4f81d61-acdb-444b-af8b-b6298de33ea6","ios":"levelo://app?vid=a4f81d61-acdb-444b-af8b-b6298de33ea6"},"vehicle_type_id":"4","last_reported":1703520514,"current_range_meters":12800,"station_id":"ce4bh4p2rcd13ifvqe0g","pricing_plan_id":"free"},{"bike_id":"d59e8884-ab49-4eee-b8d1-c25f52a7bbc0","system_id":"levelo_inurba_marseille","lat":43.290345,"lon":5.38646,"is_reserved":false,"is_disabled":false,"rental_uris":{"android":"levelo://app?vid=d59e8884-ab49-4eee-b8d1-c25f52a7bbc0","ios":"levelo://app?vid=d59e8884-ab49-4eee-b8d1-c25f52a7bbc0"},"vehicle_type_id":"4","last_reported":1703520514,"current_range_meters":25200,"station_id":"ce4bh4p2rcd13ifvqe0g","pricing_plan_id":"free"},{"bike_id":"a0b03d8e-4166-4eac-aae3-14551c30d7f6","system_id":"levelo_inurba_marseille","lat":43.289307,"lon":5.38406,"is_reserved":false,"is_disabled":false,"rental_uris":{"android":"levelo://app?vid=a0b03d8e-4166-4eac-aae3-14551c30d7f6","ios":"levelo://app?vid=a0b03d8e-4166-4eac-aae3-14551c30d7f6"},"vehicle_type_id":"4","last_reported":1703520514,"current_range_meters":21200,"station_id":"ce4bh612rcd13ifvqe6g","pricing_plan_id":"free"},{"bike_id":"58287bc2-f798-447f-98f0-1feb0986d5f9","system_id":"levelo_inurba_marseille","lat":43.289307,"lon":5.38406,"is_reserved":false,"is_disabled":false,"rental_uris":{"android":"levelo://app?vid=58287bc2-f798-447f-98f0-1feb0986d5f9","ios":"levelo://app?vid=58287bc2-f798-447f-98f0-1feb0986d5f9"},"vehicle_type_id":"4","last_reported":1703520514,"current_range_meters":9600,"station_id":"ce4bh612rcd13ifvqe6g","pricing_plan_id":"free"},{"bike_id":"137bbfc5-9177-4077-99a9-f5aca3ded894","system_id":"levelo_inurba_marseille","lat":43.290345,"lon":5.38646,"is_reserved":false,"is_disabled":false,"rental_uris":{"android":"levelo://app?vid=137bbfc5-9177-4077-99a9-f5aca3ded894","ios":"levelo://app?vid=137bbfc5-9177-4077-99a9-f5aca3ded894"},"vehicle_type_id":"4","last_reported":1703520514,"current_range_meters":26000,"station_id":"ce4bh4p2rcd13ifvqe0g","pricing_plan_id":"free"},{"bike_id":"40436662-c7ae-4617-883d-ffcf134f5c00","system_id":"levelo_inurba_marseille","lat":43.286039,"lon":5.370679,"is_reserved":false,"is_disabled":false,"rental_uris":{"android":"levelo://app?vid=40436662-c7ae-4617-883d-ffcf134f5c00","ios":"levelo://app?vid=40436662-c7ae-4617-883d-ffcf134f5c00"},"vehicle_type_id":"4","last_reported":1703520514,"current_range_meters":20400,"station_id":"ce4bht12rcd13ifvqi60","pricing_plan_id":"free"},{"bike_id":"f18d69ad-4295-4791-8f7b-3efa7b62719f","system_id":"levelo_inurba_marseille","lat":43.286039,"lon":5.370679,"is_reserved":false,"is_disabled":false,"rental_uris":{"android":"levelo://app?vid=f18d69ad-4295-4791-8f7b-3efa7b62719f","ios":"levelo://app?vid=f18d69ad-4295-4791-8f7b-3efa7b62719f"},"vehicle_type_id":"4","last_reported":1703520514,"current_range_meters":2400,"station_id":"ce4bht12rcd13ifvqi60","pricing_plan_id":"free"},{"bike_id":"b269c749-19b3-457a-9f11-021ccc443c55","system_id":"levelo_inurba_marseille","lat":43.286039,"lon":5.370679,"is_reserved":false,"is_disabled":false,"rental_uris":{"android":"levelo://app?vid=b269c749-19b3-457a-9f11-021ccc443c55","ios":"levelo://app?vid=b269c749-19b3-457a-9f11-021ccc443c55"},"vehicle_type_id":"4","last_reported":1703520514,"current_range_meters":7600,"station_id":"ce4bht12rcd13ifvqi60","pricing_plan_id":"free"},{"bike_id":"96032c65-ad05-4627-9655-b64d1764d84b","system_id":"levelo_inurba_marseille","lat":43.286078,"lon":5.370631,"is_reserved":false,"is_disabled":false,"rental_uris":{"android":"levelo://app?vid=96032c65-ad05-4627-9655-b64d1764d84b","ios":"levelo://app?vid=96032c65-ad05-4627-9655-b64d1764d84b"},"vehicle_type_id":"4","last_reported":1703520514,"current_range_meters":7600,"station_id":"ce4bht12rcd13ifvqi60","pricing_plan_id":"free"},{"bike_id":"1b81ae89-ad57-479b-9bf6-99b606e887a6","system_id":"levelo_inurba_marseille","lat":43.286039,"lon":5.370679,"is_reserved":false,"is_disabled":false,"rental_uris":{"android":"levelo://app?vid=1b81ae89-ad57-479b-9bf6-99b606e887a6","ios":"levelo://app?vid=1b81ae89-ad57-479b-9bf6-99b606e887a6"},"vehicle_type_id":"4","last_reported":1703520514,"current_range_meters":24000,"station_id":"ce4bht12rcd13ifvqi60","pricing_plan_id":"free"},{"bike_id":"0ade99fb-20fc-423b-a697-58876a6bf0b1","system_id":"levelo_inurba_marseille","lat":43.287093,"lon":5.379405,"is_reserved":false,"is_disabled":false,"rental_uris":{"android":"levelo://app?vid=0ade99fb-20fc-423b-a697-58876a6bf0b1","ios":"levelo://app?vid=0ade99fb-20fc-423b-a697-58876a6bf0b1"},"vehicle_type_id":"4","last_reported":1703520514,"current_range_meters":21600,"station_id":"ce4bh9p2rcd13ifvqec0","pricing_plan_id":"free"},{"bike_id":"82c671d4-0abf-439b-9456-64ab18b9082a","system_id":"levelo_inurba_marseille","lat":43.316828,"lon":5.404723,"is_reserved":false,"is_disabled":false,"rental_uris":{"android":"levelo://app?vid=82c671d4-0abf-439b-9456-64ab18b9082a","ios":"levelo://app?vid=82c671d4-0abf-439b-9456-64ab18b9082a"},"vehicle_type_id":"4","last_reported":1703520514,"current_range_meters":26400,"station_id":"ce4bh012rcd13ifvqd00","pricing_plan_id":"free"},{"bike_id":"dbeecb73-5059-45c7-a2e2-9e11f0ac9bbb","system_id":"levelo_inurba_marseille","lat":43.316828,"lon":5.404723,"is_reserved":false,"is_disabled":false,"rental_uris":{"android":"levelo://app?vid=dbeecb73-5059-45c7-a2e2-9e11f0ac9bbb","ios":"levelo://app?vid=dbeecb73-5059-45c7-a2e2-9e11f0ac9bbb"},"vehicle_type_id":"4","last_reported":1703520514,"current_range_meters":6400,"station_id":"ce4bh012rcd13ifvqd00","pricing_plan_id":"free"},{"bike_id":"e2adfa7c-882e-48a1-9ee4-b36e6186ebbf","system_id":"levelo_inurba_marseille","lat":43.330912,"lon":5.396935,"is_reserved":false,"is_disabled":false,"rental_uris":{"android":"levelo://app?vid=e2adfa7c-882e-48a1-9ee4-b36e6186ebbf","ios":"levelo://app?vid=e2adfa7c-882e-48a1-9ee4-b36e6186ebbf"},"vehicle_type_id":"4","last_reported":1703520514,"current_range_meters":6400,"station_id":"","pricing_plan_id":"free"},{"bike_id":"6fce6cf9-3857-4ce7-8dd8-c8d6febadb9e","system_id":"levelo_inurba_marseille","lat":43.284538,"lon":5.358657,"is_reserved":false,"is_disabled":false,"rental_uris":{"android":"levelo://app?vid=6fce6cf9-3857-4ce7-8dd8-c8d6febadb9e","ios":"levelo://app?vid=6fce6cf9-3857-4ce7-8dd8-c8d6febadb9e"},"vehicle_type_id":"4","last_reported":1703520514,"current_range_meters":29200,"station_id":"ce4bhah2rcd13ifvqei0","pricing_plan_id":"free"},{"bike_id":"fa0d768b-2b55-4dfa-9363-1bce84821d07","system_id":"levelo_inurba_marseille","lat":43.283998,"lon":5.375062,"is_reserved":false,"is_disabled":false,"rental_uris":{"android":"levelo://app?vid=fa0d768b-2b55-4dfa-9363-1bce84821d07","ios":"levelo://app?vid=fa0d768b-2b55-4dfa-9363-1bce84821d07"},"vehicle_type_id":"4","last_reported":1703520514,"current_range_meters":24000,"station_id":"ce4bh412rcd13ifvqds0","pricing_plan_id":"free"},{"bike_id":"5b1afb58-c930-4557-9618-ca62cd8cb908","system_id":"levelo_inurba_marseille","lat":43.283998,"lon":5.375062,"is_reserved":false,"is_disabled":false,"rental_uris":{"android":"levelo://app?vid=5b1afb58-c930-4557-9618-ca62cd8cb908","ios":"levelo://app?vid=5b1afb58-c930-4557-9618-ca62cd8cb908"},"vehicle_type_id":"4","last_reported":1703520514,"current_range_meters":7200,"station_id":"ce4bh412rcd13ifvqds0","pricing_plan_id":"free"},{"bike_id":"89867a69-c089-47be-910e-1c8a1d09a954","system_id":"levelo_inurba_marseille","lat":43.331649,"lon":5.397455,"is_reserved":false,"is_disabled":false,"rental_uris":{"android":"levelo://app?vid=89867a69-c089-47be-910e-1c8a1d09a954","ios":"levelo://app?vid=89867a69-c089-47be-910e-1c8a1d09a954"},"vehicle_type_id":"4","last_reported":1703520514,"current_range_meters":17200,"station_id":"","pricing_plan_id":"free"},{"bike_id":"7cd54627-9d9c-47a0-bc06-cdf97fe4b863","system_id":"levelo_inurba_marseille","lat":43.284134,"lon":5.375148,"is_reserved":false,"is_disabled":false,"rental_uris":{"android":"levelo://app?vid=7cd54627-9d9c-47a0-bc06-cdf97fe4b863","ios":"levelo://app?vid=7cd54627-9d9c-47a0-bc06-cdf97fe4b863"},"vehicle_type_id":"4","last_reported":1703520514,"current_range_meters":28400,"station_id":"ce4bh412rcd13ifvqds0","pricing_plan_id":"free"},{"bike_id":"f9603070-0680-427d-9d31-c2a8be4b77dd","system_id":"levelo_inurba_marseille","lat":43.284106,"lon":5.37518,"is_reserved":false,"is_disabled":false,"rental_uris":{"android":"levelo://app?vid=f9603070-0680-427d-9d31-c2a8be4b77dd","ios":"levelo://app?vid=f9603070-0680-427d-9d31-c2a8be4b77dd"},"vehicle_type_id":"4","last_reported":1703520514,"current_range_meters":27200,"station_id":"ce4bh412rcd13ifvqds0","pricing_plan_id":"free"},{"bike_id":"d3f87648-fa46-4e0f-85a3-39f063b748e0","system_id":"levelo_inurba_marseille","lat":43.331703,"lon":5.397623,"is_reserved":false,"is_disabled":false,"rental_uris":{"android":"levelo://app?vid=d3f87648-fa46-4e0f-85a3-39f063b748e0","ios":"levelo://app?vid=d3f87648-fa46-4e0f-85a3-39f063b748e0"},"vehicle_type_id":"4","last_reported":1703520514,"current_range_meters":28800,"station_id":"","pricing_plan_id":"free"},{"bike_id":"e850cd16-ef78-4deb-869a-2ee37313d924","system_id":"levelo_inurba_marseille","lat":43.284068,"lon":5.375215,"is_reserved":false,"is_disabled":false,"rental_uris":{"android":"levelo://app?vid=e850cd16-ef78-4deb-869a-2ee37313d924","ios":"levelo://app?vid=e850cd16-ef78-4deb-869a-2ee37313d924"},"vehicle_type_id":"4","last_reported":1703520514,"current_range_meters":28400,"station_id":"ce4bh412rcd13ifvqds0","pricing_plan_id":"free"},{"bike_id":"e485450b-2736-4f4c-b94b-0da5a69b88aa","system_id":"levelo_inurba_marseille","lat":43.331957,"lon":5.39736,"is_reserved":false,"is_disabled":false,"rental_uris":{"android":"levelo://app?vid=e485450b-2736-4f4c-b94b-0da5a69b88aa","ios":"levelo://app?vid=e485450b-2736-4f4c-b94b-0da5a69b88aa"},"vehicle_type_id":"4","last_reported":1703520514,"current_range_meters":24000,"station_id":"","pricing_plan_id":"free"},{"bike_id":"ca85105c-2942-4e34-baf9-8a1f18d8f8e5","system_id":"levelo_inurba_marseille","lat":43.283998,"lon":5.375062,"is_reserved":false,"is_disabled":false,"rental_uris":{"android":"levelo://app?vid=ca85105c-2942-4e34-baf9-8a1f18d8f8e5","ios":"levelo://app?vid=ca85105c-2942-4e34-baf9-8a1f18d8f8e5"},"vehicle_type_id":"4","last_reported":1703520514,"current_range_meters":20400,"station_id":"ce4bh412rcd13ifvqds0","pricing_plan_id":"free"},{"bike_id":"0b44b7bd-9d3d-4ceb-a5e2-97dbfe7de1a8","system_id":"levelo_inurba_marseille","lat":43.286595,"lon":5.386795,"is_reserved":false,"is_disabled":false,"rental_uris":{"android":"levelo://app?vid=0b44b7bd-9d3d-4ceb-a5e2-97dbfe7de1a8","ios":"levelo://app?vid=0b44b7bd-9d3d-4ceb-a5e2-97dbfe7de1a8"},"vehicle_type_id":"4","last_reported":1703520514,"current_range_meters":28400,"station_id":"ce4bh492rcd13ifvqdug","pricing_plan_id":"free"},{"bike_id":"ff6ebe2d-10e0-4bee-8d5b-0d34d0573673","system_id":"levelo_inurba_marseille","lat":43.337132,"lon":5.391634,"is_reserved":false,"is_disabled":false,"rental_uris":{"android":"levelo://app?vid=ff6ebe2d-10e0-4bee-8d5b-0d34d0573673","ios":"levelo://app?vid=ff6ebe2d-10e0-4bee-8d5b-0d34d0573673"},"vehicle_type_id":"4","last_reported":1703520514,"current_range_meters":21600,"station_id":"ce4bhr92rcd13ifvqhsg","pricing_plan_id":"free"},{"bike_id":"9960fa43-3a3b-4d5b-8fe2-258b49d47b49","system_id":"levelo_inurba_marseille","lat":43.323464,"lon":5.406297,"is_reserved":false,"is_disabled":false,"rental_uris":{"android":"levelo://app?vid=9960fa43-3a3b-4d5b-8fe2-258b49d47b49","ios":"levelo://app?vid=9960fa43-3a3b-4d5b-8fe2-258b49d47b49"},"vehicle_type_id":"4","last_reported":1703520514,"current_range_meters":28000,"station_id":"ce4bhq92rcd13ifvqhjg","pricing_plan_id":"free"},{"bike_id":"1446c8b5-0b03-4856-a320-37fe670115f4","system_id":"levelo_inurba_marseille","lat":43.284787,"lon":5.384116,"is_reserved":false,"is_disabled":false,"rental_uris":{"android":"levelo://app?vid=1446c8b5-0b03-4856-a320-37fe670115f4","ios":"levelo://app?vid=1446c8b5-0b03-4856-a320-37fe670115f4"},"vehicle_type_id":"4","last_reported":1703520514,"current_range_meters":8400,"station_id":"ce4bh512rcd13ifvqe3g","pricing_plan_id":"free"},{"bike_id":"6c7ad006-b75d-4814-8b86-449615593e61","system_id":"levelo_inurba_marseille","lat":43.283052,"lon":5.350613,"is_reserved":false,"is_disabled":false,"rental_uris":{"android":"levelo://app?vid=6c7ad006-b75d-4814-8b86-449615593e61","ios":"levelo://app?vid=6c7ad006-b75d-4814-8b86-449615593e61"},"vehicle_type_id":"4","last_reported":1703520514,"current_range_meters":4000,"station_id":"","pricing_plan_id":"free"},{"bike_id":"e4cd560c-81ae-4435-a296-c81406a05177","system_id":"levelo_inurba_marseille","lat":43.2827,"lon":5.35074,"is_reserved":false,"is_disabled":false,"rental_uris":{"android":"levelo://app?vid=e4cd560c-81ae-4435-a296-c81406a05177","ios":"levelo://app?vid=e4cd560c-81ae-4435-a296-c81406a05177"},"vehicle_type_id":"4","last_reported":1703520514,"current_range_meters":0,"station_id":"ce4bhbp2rcd13ifvqerg","pricing_plan_id":"free"},{"bike_id":"520017e3-c193-4570-a641-455fee481bf5","system_id":"levelo_inurba_marseille","lat":43.282754,"lon":5.350519,"is_reserved":false,"is_disabled":false,"rental_uris":{"android":"levelo://app?vid=520017e3-c193-4570-a641-455fee481bf5","ios":"levelo://app?vid=520017e3-c193-4570-a641-455fee481bf5"},"vehicle_type_id":"4","last_reported":1703520514,"current_range_meters":25200,"station_id":"ce4bhbp2rcd13ifvqerg","pricing_plan_id":"free"},{"bike_id":"a1a376e9-f1bf-476d-80d5-7ad3655ed9dc","system_id":"levelo_inurba_marseille","lat":43.283502,"lon":5.386471,"is_reserved":false,"is_disabled":false,"rental_uris":{"android":"levelo://app?vid=a1a376e9-f1bf-476d-80d5-7ad3655ed9dc","ios":"levelo://app?vid=a1a376e9-f1bf-476d-80d5-7ad3655ed9dc"},"vehicle_type_id":"4","last_reported":1703520514,"current_range_meters":28800,"station_id":"ce4bh492rcd13ifvqdvg","pricing_plan_id":"free"},{"bike_id":"7cf62db5-4e32-4d0f-8a93-88073343000f","system_id":"levelo_inurba_marseille","lat":43.282754,"lon":5.350519,"is_reserved":false,"is_disabled":false,"rental_uris":{"android":"levelo://app?vid=7cf62db5-4e32-4d0f-8a93-88073343000f","ios":"levelo://app?vid=7cf62db5-4e32-4d0f-8a93-88073343000f"},"vehicle_type_id":"4","last_reported":1703520514,"current_range_meters":21200,"station_id":"ce4bhbp2rcd13ifvqerg","pricing_plan_id":"free"},{"bike_id":"0a929a2c-ce39-45aa-94c2-1ba7bce635a7","system_id":"levelo_inurba_marseille","lat":43.290412,"lon":5.399633,"is_reserved":false,"is_disabled":false,"rental_uris":{"android":"levelo://app?vid=0a929a2c-ce39-45aa-94c2-1ba7bce635a7","ios":"levelo://app?vid=0a929a2c-ce39-45aa-94c2-1ba7bce635a7"},"vehicle_type_id":"4","last_reported":1703520514,"current_range_meters":8400,"station_id":"ce4bh392rcd13ifvqdm0","pricing_plan_id":"free"},{"bike_id":"7a417aba-c5f3-4415-b83a-4b27f33f5efa","system_id":"levelo_inurba_marseille","lat":43.290412,"lon":5.399633,"is_reserved":false,"is_disabled":false,"rental_uris":{"android":"levelo://app?vid=7a417aba-c5f3-4415-b83a-4b27f33f5efa","ios":"levelo://app?vid=7a417aba-c5f3-4415-b83a-4b27f33f5efa"},"vehicle_type_id":"4","last_reported":1703520514,"current_range_meters":18800,"station_id":"ce4bh392rcd13ifvqdm0","pricing_plan_id":"free"},{"bike_id":"7bda42b1-cf3b-4a3b-91a2-af0c446a45a8","system_id":"levelo_inurba_marseille","lat":43.281044,"lon":5.378308,"is_reserved":false,"is_disabled":false,"rental_uris":{"android":"levelo://app?vid=7bda42b1-cf3b-4a3b-91a2-af0c446a45a8","ios":"levelo://app?vid=7bda42b1-cf3b-4a3b-91a2-af0c446a45a8"},"vehicle_type_id":"4","last_reported":1703520514,"current_range_meters":3200,"station_id":"ce4bha12rcd13ifvqee0","pricing_plan_id":"free"},{"bike_id":"a33a7a4b-9a19-4006-9725-7e2164696921","system_id":"levelo_inurba_marseille","lat":43.281044,"lon":5.378308,"is_reserved":false,"is_disabled":false,"rental_uris":{"android":"levelo://app?vid=a33a7a4b-9a19-4006-9725-7e2164696921","ios":"levelo://app?vid=a33a7a4b-9a19-4006-9725-7e2164696921"},"vehicle_type_id":"4","last_reported":1703520514,"current_range_meters":13200,"station_id":"ce4bha12rcd13ifvqee0","pricing_plan_id":"free"},{"bike_id":"386b6e80-ff1e-45a3-8fe6-96e070e7707f","system_id":"levelo_inurba_marseille","lat":43.28573,"lon":5.394992,"is_reserved":false,"is_disabled":false,"rental_uris":{"android":"levelo://app?vid=386b6e80-ff1e-45a3-8fe6-96e070e7707f","ios":"levelo://app?vid=386b6e80-ff1e-45a3-8fe6-96e070e7707f"},"vehicle_type_id":"4","last_reported":1703520514,"current_range_meters":28000,"station_id":"ce4bh292rcd13ifvqdg0","pricing_plan_id":"free"},{"bike_id":"a90a4511-e052-416d-9223-4aa98a65dd34","system_id":"levelo_inurba_marseille","lat":43.279087,"lon":5.380114,"is_reserved":false,"is_disabled":false,"rental_uris":{"android":"levelo://app?vid=a90a4511-e052-416d-9223-4aa98a65dd34","ios":"levelo://app?vid=a90a4511-e052-416d-9223-4aa98a65dd34"},"vehicle_type_id":"4","last_reported":1703520514,"current_range_meters":30400,"station_id":"ce4bhf92rcd13ifvqf50","pricing_plan_id":"free"},{"bike_id":"54b7d54a-960b-4b3b-9356-ba0fe924846b","system_id":"levelo_inurba_marseille","lat":43.279087,"lon":5.380114,"is_reserved":false,"is_disabled":false,"rental_uris":{"android":"levelo://app?vid=54b7d54a-960b-4b3b-9356-ba0fe924846b","ios":"levelo://app?vid=54b7d54a-960b-4b3b-9356-ba0fe924846b"},"vehicle_type_id":"4","last_reported":1703520514,"current_range_meters":28000,"station_id":"ce4bhf92rcd13ifvqf50","pricing_plan_id":"free"},{"bike_id":"3b78673b-588e-44b5-b901-0c3d2b33956d","system_id":"levelo_inurba_marseille","lat":43.287154,"lon":5.399979,"is_reserved":false,"is_disabled":false,"rental_uris":{"android":"levelo://app?vid=3b78673b-588e-44b5-b901-0c3d2b33956d","ios":"levelo://app?vid=3b78673b-588e-44b5-b901-0c3d2b33956d"},"vehicle_type_id":"4","last_reported":1703520514,"current_range_meters":4400,"station_id":"ce4bho92rcd13ifvqh3g","pricing_plan_id":"free"},{"bike_id":"8273d5ec-0acc-4ee7-99a3-3e42bcc89121","system_id":"levelo_inurba_marseille","lat":43.320045,"lon":5.415046,"is_reserved":false,"is_disabled":false,"rental_uris":{"android":"levelo://app?vid=8273d5ec-0acc-4ee7-99a3-3e42bcc89121","ios":"levelo://app?vid=8273d5ec-0acc-4ee7-99a3-3e42bcc89121"},"vehicle_type_id":"4","last_reported":1703520514,"current_range_meters":31200,"station_id":"ce4bhq92rcd13ifvqhkg","pricing_plan_id":"free"},{"bike_id":"94e0b362-e115-460f-a39a-ef14e9953cd7","system_id":"levelo_inurba_marseille","lat":43.320045,"lon":5.415046,"is_reserved":false,"is_disabled":false,"rental_uris":{"android":"levelo://app?vid=94e0b362-e115-460f-a39a-ef14e9953cd7","ios":"levelo://app?vid=94e0b362-e115-460f-a39a-ef14e9953cd7"},"vehicle_type_id":"4","last_reported":1703520514,"current_range_meters":26800,"station_id":"ce4bhq92rcd13ifvqhkg","pricing_plan_id":"free"},{"bike_id":"37926cbf-ad5e-4098-9ab7-ae757dff2bee","system_id":"levelo_inurba_marseille","lat":43.279742,"lon":5.38744,"is_reserved":false,"is_disabled":false,"rental_uris":{"android":"levelo://app?vid=37926cbf-ad5e-4098-9ab7-ae757dff2bee","ios":"levelo://app?vid=37926cbf-ad5e-4098-9ab7-ae757dff2bee"},"vehicle_type_id":"4","last_reported":1703520514,"current_range_meters":24000,"station_id":"ce4bhg12rcd13ifvqf80","pricing_plan_id":"free"},{"bike_id":"49e520e1-7c90-48f7-b38c-c853e4beed6a","system_id":"levelo_inurba_marseille","lat":43.325243,"lon":5.414326,"is_reserved":false,"is_disabled":false,"rental_uris":{"android":"levelo://app?vid=49e520e1-7c90-48f7-b38c-c853e4beed6a","ios":"levelo://app?vid=49e520e1-7c90-48f7-b38c-c853e4beed6a"},"vehicle_type_id":"4","last_reported":1703520514,"current_range_meters":22000,"station_id":"ce4bhq12rcd13ifvqhhg","pricing_plan_id":"free"},{"bike_id":"143a6b6a-65da-44af-ba7e-91189f646f24","system_id":"levelo_inurba_marseille","lat":43.280784,"lon":5.396622,"is_reserved":false,"is_disabled":false,"rental_uris":{"android":"levelo://app?vid=143a6b6a-65da-44af-ba7e-91189f646f24","ios":"levelo://app?vid=143a6b6a-65da-44af-ba7e-91189f646f24"},"vehicle_type_id":"4","last_reported":1703520514,"current_range_meters":27600,"station_id":"ce4bho12rcd13ifvqh2g","pricing_plan_id":"free"},{"bike_id":"921ed6c5-ef26-40fb-b950-d9f07fbc2ffa","system_id":"levelo_inurba_marseille","lat":43.279779,"lon":5.39492,"is_reserved":false,"is_disabled":false,"rental_uris":{"android":"levelo://app?vid=921ed6c5-ef26-40fb-b950-d9f07fbc2ffa","ios":"levelo://app?vid=921ed6c5-ef26-40fb-b950-d9f07fbc2ffa"},"vehicle_type_id":"4","last_reported":1703520514,"current_range_meters":18400,"station_id":"","pricing_plan_id":"free"},{"bike_id":"a1fd9245-3a45-44e6-ad1e-18749d45dc12","system_id":"levelo_inurba_marseille","lat":43.303837,"lon":5.418724,"is_reserved":false,"is_disabled":false,"rental_uris":{"android":"levelo://app?vid=a1fd9245-3a45-44e6-ad1e-18749d45dc12","ios":"levelo://app?vid=a1fd9245-3a45-44e6-ad1e-18749d45dc12"},"vehicle_type_id":"4","last_reported":1703520514,"current_range_meters":22800,"station_id":"ce4bhop2rcd13ifvqh7g","pricing_plan_id":"free"},{"bike_id":"c7d2b71c-f070-44d6-ae24-858cb6126dae","system_id":"levelo_inurba_marseille","lat":43.278399,"lon":5.392139,"is_reserved":false,"is_disabled":false,"rental_uris":{"android":"levelo://app?vid=c7d2b71c-f070-44d6-ae24-858cb6126dae","ios":"levelo://app?vid=c7d2b71c-f070-44d6-ae24-858cb6126dae"},"vehicle_type_id":"4","last_reported":1703520514,"current_range_meters":21200,"station_id":"ce4bhjp2rcd13ifvqga0","pricing_plan_id":"free"},{"bike_id":"986a7138-ad86-4d7e-ad8c-82cd647ebfaf","system_id":"levelo_inurba_marseille","lat":43.275625,"lon":5.384392,"is_reserved":false,"is_disabled":false,"rental_uris":{"android":"levelo://app?vid=986a7138-ad86-4d7e-ad8c-82cd647ebfaf","ios":"levelo://app?vid=986a7138-ad86-4d7e-ad8c-82cd647ebfaf"},"vehicle_type_id":"4","last_reported":1703520514,"current_range_meters":27200,"station_id":"ce4bhh92rcd13ifvqfi0","pricing_plan_id":"free"},{"bike_id":"2dc2ff66-bbde-495f-a5b0-3943049902b0","system_id":"levelo_inurba_marseille","lat":43.275625,"lon":5.384392,"is_reserved":false,"is_disabled":false,"rental_uris":{"android":"levelo://app?vid=2dc2ff66-bbde-495f-a5b0-3943049902b0","ios":"levelo://app?vid=2dc2ff66-bbde-495f-a5b0-3943049902b0"},"vehicle_type_id":"4","last_reported":1703520514,"current_range_meters":12800,"station_id":"ce4bhh92rcd13ifvqfi0","pricing_plan_id":"free"},{"bike_id":"10795a91-6c03-4074-85a3-120093d0f2d5","system_id":"levelo_inurba_marseille","lat":43.276771,"lon":5.388799,"is_reserved":false,"is_disabled":false,"rental_uris":{"android":"levelo://app?vid=10795a91-6c03-4074-85a3-120093d0f2d5","ios":"levelo://app?vid=10795a91-6c03-4074-85a3-120093d0f2d5"},"vehicle_type_id":"4","last_reported":1703520514,"current_range_meters":18000,"station_id":"ce4bhi12rcd13ifvqfo0","pricing_plan_id":"free"},{"bike_id":"a31403d3-3f52-46c5-bf04-84e097645452","system_id":"levelo_inurba_marseille","lat":43.317121,"lon":5.423936,"is_reserved":false,"is_disabled":false,"rental_uris":{"android":"levelo://app?vid=a31403d3-3f52-46c5-bf04-84e097645452","ios":"levelo://app?vid=a31403d3-3f52-46c5-bf04-84e097645452"},"vehicle_type_id":"4","last_reported":1703520514,"current_range_meters":28000,"station_id":"ce4bhp92rcd13ifvqhbg","pricing_plan_id":"free"},{"bike_id":"136cb9da-15ee-40e3-bc2c-40c9c9d6a86d","system_id":"levelo_inurba_marseille","lat":43.317121,"lon":5.423936,"is_reserved":false,"is_disabled":false,"rental_uris":{"android":"levelo://app?vid=136cb9da-15ee-40e3-bc2c-40c9c9d6a86d","ios":"levelo://app?vid=136cb9da-15ee-40e3-bc2c-40c9c9d6a86d"},"vehicle_type_id":"4","last_reported":1703520514,"current_range_meters":30400,"station_id":"ce4bhp92rcd13ifvqhbg","pricing_plan_id":"free"},{"bike_id":"ec9bed21-ab15-4437-b93e-3ba68087485a","system_id":"levelo_inurba_marseille","lat":43.31086,"lon":5.42431,"is_reserved":false,"is_disabled":false,"rental_uris":{"android":"levelo://app?vid=ec9bed21-ab15-4437-b93e-3ba68087485a","ios":"levelo://app?vid=ec9bed21-ab15-4437-b93e-3ba68087485a"},"vehicle_type_id":"4","last_reported":1703520514,"current_range_meters":26000,"station_id":"ce4bhp92rcd13ifvqhag","pricing_plan_id":"free"},{"bike_id":"a7e1630d-5abf-4ba0-bf3c-e3cca96ba50f","system_id":"levelo_inurba_marseille","lat":43.310785,"lon":5.424305,"is_reserved":false,"is_disabled":false,"rental_uris":{"android":"levelo://app?vid=a7e1630d-5abf-4ba0-bf3c-e3cca96ba50f","ios":"levelo://app?vid=a7e1630d-5abf-4ba0-bf3c-e3cca96ba50f"},"vehicle_type_id":"4","last_reported":1703520514,"current_range_meters":24400,"station_id":"ce4bhp92rcd13ifvqhag","pricing_plan_id":"free"},{"bike_id":"89fad256-a692-486c-a6b6-a6875e277971","system_id":"levelo_inurba_marseille","lat":43.273125,"lon":5.390731,"is_reserved":false,"is_disabled":false,"rental_uris":{"android":"levelo://app?vid=89fad256-a692-486c-a6b6-a6875e277971","ios":"levelo://app?vid=89fad256-a692-486c-a6b6-a6875e277971"},"vehicle_type_id":"4","last_reported":1703520514,"current_range_meters":12400,"station_id":"ce4bhgp2rcd13ifvqfe0","pricing_plan_id":"free"},{"bike_id":"f6133491-ff83-415f-8a7d-195abfef63a4","system_id":"levelo_inurba_marseille","lat":43.304096,"lon":5.425385,"is_reserved":false,"is_disabled":false,"rental_uris":{"android":"levelo://app?vid=f6133491-ff83-415f-8a7d-195abfef63a4","ios":"levelo://app?vid=f6133491-ff83-415f-8a7d-195abfef63a4"},"vehicle_type_id":"4","last_reported":1703520514,"current_range_meters":10000,"station_id":"ce4bhoh2rcd13ifvqh6g","pricing_plan_id":"free"},{"bike_id":"0347a5a3-d10e-4624-870f-f108089b65eb","system_id":"levelo_inurba_marseille","lat":43.295523,"lon":5.422926,"is_reserved":false,"is_disabled":false,"rental_uris":{"android":"levelo://app?vid=0347a5a3-d10e-4624-870f-f108089b65eb","ios":"levelo://app?vid=0347a5a3-d10e-4624-870f-f108089b65eb"},"vehicle_type_id":"4","last_reported":1703520514,"current_range_meters":16400,"station_id":"ce4bhph2rcd13ifvqhdg","pricing_plan_id":"free"},{"bike_id":"e192df68-2c2b-482d-b6fd-3b8920434290","system_id":"levelo_inurba_marseille","lat":43.295523,"lon":5.422926,"is_reserved":false,"is_disabled":false,"rental_uris":{"android":"levelo://app?vid=e192df68-2c2b-482d-b6fd-3b8920434290","ios":"levelo://app?vid=e192df68-2c2b-482d-b6fd-3b8920434290"},"vehicle_type_id":"4","last_reported":1703520514,"current_range_meters":31600,"station_id":"ce4bhph2rcd13ifvqhdg","pricing_plan_id":"free"},{"bike_id":"3ab5deb5-914c-4a52-8d7a-4e9a6cac5680","system_id":"levelo_inurba_marseille","lat":43.29558,"lon":5.42286,"is_reserved":false,"is_disabled":false,"rental_uris":{"android":"levelo://app?vid=3ab5deb5-914c-4a52-8d7a-4e9a6cac5680","ios":"levelo://app?vid=3ab5deb5-914c-4a52-8d7a-4e9a6cac5680"},"vehicle_type_id":"4","last_reported":1703520514,"current_range_meters":26000,"station_id":"ce4bhph2rcd13ifvqhdg","pricing_plan_id":"free"},{"bike_id":"cb6b2288-2fd3-4282-94eb-683acd48348a","system_id":"levelo_inurba_marseille","lat":43.295511,"lon":5.422926,"is_reserved":false,"is_disabled":false,"rental_uris":{"android":"levelo://app?vid=cb6b2288-2fd3-4282-94eb-683acd48348a","ios":"levelo://app?vid=cb6b2288-2fd3-4282-94eb-683acd48348a"},"vehicle_type_id":"4","last_reported":1703520514,"current_range_meters":26000,"station_id":"ce4bhph2rcd13ifvqhdg","pricing_plan_id":"free"},{"bike_id":"5b8be4a2-9e7a-457f-b482-e2479c2a3178","system_id":"levelo_inurba_marseille","lat":43.295511,"lon":5.422926,"is_reserved":false,"is_disabled":false,"rental_uris":{"android":"levelo://app?vid=5b8be4a2-9e7a-457f-b482-e2479c2a3178","ios":"levelo://app?vid=5b8be4a2-9e7a-457f-b482-e2479c2a3178"},"vehicle_type_id":"4","last_reported":1703520514,"current_range_meters":31200,"station_id":"ce4bhph2rcd13ifvqhdg","pricing_plan_id":"free"},{"bike_id":"8d5bec82-4442-4f4e-b4ac-39fd3add04cc","system_id":"levelo_inurba_marseille","lat":43.295523,"lon":5.422926,"is_reserved":false,"is_disabled":false,"rental_uris":{"android":"levelo://app?vid=8d5bec82-4442-4f4e-b4ac-39fd3add04cc","ios":"levelo://app?vid=8d5bec82-4442-4f4e-b4ac-39fd3add04cc"},"vehicle_type_id":"4","last_reported":1703520514,"current_range_meters":27600,"station_id":"ce4bhph2rcd13ifvqhdg","pricing_plan_id":"free"},{"bike_id":"e7c971c0-b25b-4979-b5ad-c0ec41966e7d","system_id":"levelo_inurba_marseille","lat":43.27212,"lon":5.39168,"is_reserved":false,"is_disabled":false,"rental_uris":{"android":"levelo://app?vid=e7c971c0-b25b-4979-b5ad-c0ec41966e7d","ios":"levelo://app?vid=e7c971c0-b25b-4979-b5ad-c0ec41966e7d"},"vehicle_type_id":"4","last_reported":1703520514,"current_range_meters":26000,"station_id":"","pricing_plan_id":"free"},{"bike_id":"0a1c9761-3829-40c1-9bf1-a885a74fb019","system_id":"levelo_inurba_marseille","lat":43.272118,"lon":5.391758,"is_reserved":false,"is_disabled":false,"rental_uris":{"android":"levelo://app?vid=0a1c9761-3829-40c1-9bf1-a885a74fb019","ios":"levelo://app?vid=0a1c9761-3829-40c1-9bf1-a885a74fb019"},"vehicle_type_id":"4","last_reported":1703520514,"current_range_meters":25600,"station_id":"ce4bhhp2rcd13ifvqfm0","pricing_plan_id":"free"},{"bike_id":"685c8026-1b53-4c3d-8eb9-4b4566dbf23c","system_id":"levelo_inurba_marseille","lat":43.272116,"lon":5.391747,"is_reserved":false,"is_disabled":false,"rental_uris":{"android":"levelo://app?vid=685c8026-1b53-4c3d-8eb9-4b4566dbf23c","ios":"levelo://app?vid=685c8026-1b53-4c3d-8eb9-4b4566dbf23c"},"vehicle_type_id":"4","last_reported":1703520514,"current_range_meters":28400,"station_id":"ce4bhhp2rcd13ifvqfm0","pricing_plan_id":"free"},{"bike_id":"54931eaa-b633-4ada-9886-68c85f99977c","system_id":"levelo_inurba_marseille","lat":43.278128,"lon":5.407195,"is_reserved":false,"is_disabled":false,"rental_uris":{"android":"levelo://app?vid=54931eaa-b633-4ada-9886-68c85f99977c","ios":"levelo://app?vid=54931eaa-b633-4ada-9886-68c85f99977c"},"vehicle_type_id":"4","last_reported":1703520514,"current_range_meters":31200,"station_id":"ce4bhnh2rcd13ifvqgtg","pricing_plan_id":"free"},{"bike_id":"88eca545-ca64-4376-a7b4-f8e25edb4467","system_id":"levelo_inurba_marseille","lat":43.278128,"lon":5.407195,"is_reserved":false,"is_disabled":false,"rental_uris":{"android":"levelo://app?vid=88eca545-ca64-4376-a7b4-f8e25edb4467","ios":"levelo://app?vid=88eca545-ca64-4376-a7b4-f8e25edb4467"},"vehicle_type_id":"4","last_reported":1703520514,"current_range_meters":5600,"station_id":"ce4bhnh2rcd13ifvqgtg","pricing_plan_id":"free"},{"bike_id":"ca449159-21e9-4973-9caf-89f05b20c9b8","system_id":"levelo_inurba_marseille","lat":43.278128,"lon":5.407195,"is_reserved":false,"is_disabled":false,"rental_uris":{"android":"levelo://app?vid=ca449159-21e9-4973-9caf-89f05b20c9b8","ios":"levelo://app?vid=ca449159-21e9-4973-9caf-89f05b20c9b8"},"vehicle_type_id":"4","last_reported":1703520514,"current_range_meters":0,"station_id":"ce4bhnh2rcd13ifvqgtg","pricing_plan_id":"free"},{"bike_id":"20f05b18-f1ac-406b-9a44-a196c3d60941","system_id":"levelo_inurba_marseille","lat":43.269467,"lon":5.386439,"is_reserved":false,"is_disabled":false,"rental_uris":{"android":"levelo://app?vid=20f05b18-f1ac-406b-9a44-a196c3d60941","ios":"levelo://app?vid=20f05b18-f1ac-406b-9a44-a196c3d60941"},"vehicle_type_id":"4","last_reported":1703520514,"current_range_meters":30000,"station_id":"ce4bhh92rcd13ifvqfh0","pricing_plan_id":"free"},{"bike_id":"c56ab9c4-6e27-468e-876f-4e2f1e1192e2","system_id":"levelo_inurba_marseille","lat":43.269467,"lon":5.386439,"is_reserved":false,"is_disabled":false,"rental_uris":{"android":"levelo://app?vid=c56ab9c4-6e27-468e-876f-4e2f1e1192e2","ios":"levelo://app?vid=c56ab9c4-6e27-468e-876f-4e2f1e1192e2"},"vehicle_type_id":"4","last_reported":1703520514,"current_range_meters":24000,"station_id":"ce4bhh92rcd13ifvqfh0","pricing_plan_id":"free"},{"bike_id":"1a6d35b7-b201-48ee-b758-cb3855588fb0","system_id":"levelo_inurba_marseille","lat":43.279465,"lon":5.410561,"is_reserved":false,"is_disabled":false,"rental_uris":{"android":"levelo://app?vid=1a6d35b7-b201-48ee-b758-cb3855588fb0","ios":"levelo://app?vid=1a6d35b7-b201-48ee-b758-cb3855588fb0"},"vehicle_type_id":"4","last_reported":1703520514,"current_range_meters":22800,"station_id":"ce4bhnp2rcd13ifvqh0g","pricing_plan_id":"free"},{"bike_id":"ad393b89-5f5e-4f93-827b-16c15385b5e4","system_id":"levelo_inurba_marseille","lat":43.279465,"lon":5.410561,"is_reserved":false,"is_disabled":false,"rental_uris":{"android":"levelo://app?vid=ad393b89-5f5e-4f93-827b-16c15385b5e4","ios":"levelo://app?vid=ad393b89-5f5e-4f93-827b-16c15385b5e4"},"vehicle_type_id":"4","last_reported":1703520514,"current_range_meters":4000,"station_id":"ce4bhnp2rcd13ifvqh0g","pricing_plan_id":"free"},{"bike_id":"52420c2a-3507-4327-9372-752a57eb1964","system_id":"levelo_inurba_marseille","lat":43.279465,"lon":5.410561,"is_reserved":false,"is_disabled":false,"rental_uris":{"android":"levelo://app?vid=52420c2a-3507-4327-9372-752a57eb1964","ios":"levelo://app?vid=52420c2a-3507-4327-9372-752a57eb1964"},"vehicle_type_id":"4","last_reported":1703520514,"current_range_meters":22000,"station_id":"ce4bhnp2rcd13ifvqh0g","pricing_plan_id":"free"},{"bike_id":"8e9c0fb4-4c9d-4e98-812e-57ada78f4d44","system_id":"levelo_inurba_marseille","lat":43.261782,"lon":5.374515,"is_reserved":false,"is_disabled":false,"rental_uris":{"android":"levelo://app?vid=8e9c0fb4-4c9d-4e98-812e-57ada78f4d44","ios":"levelo://app?vid=8e9c0fb4-4c9d-4e98-812e-57ada78f4d44"},"vehicle_type_id":"4","last_reported":1703520514,"current_range_meters":19200,"station_id":"ce4bhgp2rcd13ifvqfc0","pricing_plan_id":"free"},{"bike_id":"970fad72-bcca-4a22-9b60-e9d8e6c18e6a","system_id":"levelo_inurba_marseille","lat":43.26559,"lon":5.37281,"is_reserved":false,"is_disabled":false,"rental_uris":{"android":"levelo://app?vid=970fad72-bcca-4a22-9b60-e9d8e6c18e6a","ios":"levelo://app?vid=970fad72-bcca-4a22-9b60-e9d8e6c18e6a"},"vehicle_type_id":"4","last_reported":1703520514,"current_range_meters":19600,"station_id":"ce4bhg12rcd13ifvqf70","pricing_plan_id":"free"},{"bike_id":"33c0c3f9-cbb8-4326-b372-c452f1580733","system_id":"levelo_inurba_marseille","lat":43.26555,"lon":5.37285,"is_reserved":false,"is_disabled":false,"rental_uris":{"android":"levelo://app?vid=33c0c3f9-cbb8-4326-b372-c452f1580733","ios":"levelo://app?vid=33c0c3f9-cbb8-4326-b372-c452f1580733"},