{"last_updated":1745003268,"ttl":60,"version":"2.2","data":{"bikes":[{"bike_id":"5b7f6d17-41fd-4871-8e93-5f60162d0560","system_id":"levelo_inurba_marseille","lat":43.290061,"lon":5.356097,"is_reserved":false,"is_disabled":true,"rental_uris":{"android":"levelo://app?vid=5b7f6d17-41fd-4871-8e93-5f60162d0560","ios":"levelo://app?vid=5b7f6d17-41fd-4871-8e93-5f60162d0560"},"vehicle_type_id":"4","last_reported":1745003268,"current_range_meters":2800,"station_id":"ce4bhb92rcd13ifvqen0","pricing_plan_id":"cebpf4jnsgd1na2vs0mg"},{"bike_id":"4992d484-a546-455f-8433-2cde287c477e","system_id":"levelo_inurba_marseille","lat":43.30313,"lon":5.40446,"is_reserved":false,"is_disabled":true,"rental_uris":{"android":"levelo://app?vid=4992d484-a546-455f-8433-2cde287c477e","ios":"levelo://app?vid=4992d484-a546-455f-8433-2cde287c477e"},"vehicle_type_id":"4","last_reported":1745003268,"current_range_meters":2800,"station_id":"ce4bh012rcd13ifvqd10","pricing_plan_id":"cebpf4jnsgd1na2vs0mg"},{"bike_id":"b4843c49-65b4-4b2d-af48-462760601d3c","system_id":"levelo_inurba_marseille","lat":43.27817,"lon":5.40713,"is_reserved":false,"is_disabled":true,"rental_uris":{"android":"levelo://app?vid=b4843c49-65b4-4b2d-af48-462760601d3c","ios":"levelo://app?vid=b4843c49-65b4-4b2d-af48-462760601d3c"},"vehicle_type_id":"4","last_reported":1745003268,"current_range_meters":2800,"station_id":"ce4bhnh2rcd13ifvqgtg","pricing_plan_id":"cebpf4jnsgd1na2vs0mg"},{"bike_id":"2017698c-a326-448e-970d-559472c018d3","system_id":"levelo_inurba_marseille","lat":43.23141,"lon":5.43719,"is_reserved":false,"is_disabled":false,"rental_uris":{"android":"levelo://app?vid=2017698c-a326-448e-970d-559472c018d3","ios":"levelo://app?vid=2017698c-a326-448e-970d-559472c018d3"},"vehicle_type_id":"4","last_reported":1745003268,"current_range_meters":2800,"station_id":"ce4bhmp2rcd13ifvqgog","pricing_plan_id":"cebpf4jnsgd1na2vs0mg"},{"bike_id":"11d3e3fc-71d6-41bc-b07a-ca8d2e94cf18","system_id":"levelo_inurba_marseille","lat":43.30929,"lon":5.40141,"is_reserved":false,"is_disabled":false,"rental_uris":{"android":"levelo://app?vid=11d3e3fc-71d6-41bc-b07a-ca8d2e94cf18","ios":"levelo://app?vid=11d3e3fc-71d6-41bc-b07a-ca8d2e94cf18"},"vehicle_type_id":"4","last_reported":1745003268,"current_range_meters":2800,"station_id":"ce4bgvp2rcd13ifvqct0","pricing_plan_id":"cebpf4jnsgd1na2vs0mg"},{"bike_id":"faaece45-65cd-4495-8c6e-881c362a64fa","system_id":"levelo_inurba_marseille","lat":43.2916,"lon":5.38295,"is_reserved":false,"is_disabled":false,"rental_uris":{"android":"levelo://app?vid=faaece45-65cd-4495-8c6e-881c362a64fa","ios":"levelo://app?vid=faaece45-65cd-4495-8c6e-881c362a64fa"},"vehicle_type_id":"4","last_reported":1745003268,"current_range_meters":3600,"station_id":"","pricing_plan_id":"cebpf4jnsgd1na2vs0mg"},{"bike_id":"ddb86578-db78-4483-8ee7-814b80447ea2","system_id":"levelo_inurba_marseille","lat":43.30883,"lon":5.37195,"is_reserved":false,"is_disabled":false,"rental_uris":{"android":"levelo://app?vid=ddb86578-db78-4483-8ee7-814b80447ea2","ios":"levelo://app?vid=ddb86578-db78-4483-8ee7-814b80447ea2"},"vehicle_type_id":"4","last_reported":1745003268,"current_range_meters":3600,"station_id":"ce4bguh2rcd13ifvqckg","pricing_plan_id":"cebpf4jnsgd1na2vs0mg"},{"bike_id":"208a8069-b7ea-42ee-8dec-ad30f2e44046","system_id":"levelo_inurba_marseille","lat":43.29738,"lon":5.40941,"is_reserved":false,"is_disabled":false,"rental_uris":{"android":"levelo://app?vid=208a8069-b7ea-42ee-8dec-ad30f2e44046","ios":"levelo://app?vid=208a8069-b7ea-42ee-8dec-ad30f2e44046"},"vehicle_type_id":"4","last_reported":1745003268,"current_range_meters":3600,"station_id":"","pricing_plan_id":"cebpf4jnsgd1na2vs0mg"},{"bike_id":"ec1859fe-6b84-4f77-8c60-3981582bd5bd","system_id":"levelo_inurba_marseille","lat":43.26542,"lon":5.39458,"is_reserved":false,"is_disabled":false,"rental_uris":{"android":"levelo://app?vid=ec1859fe-6b84-4f77-8c60-3981582bd5bd","ios":"levelo://app?vid=ec1859fe-6b84-4f77-8c60-3981582bd5bd"},"vehicle_type_id":"4","last_reported":1745003268,"current_range_meters":2000,"station_id":"","pricing_plan_id":"cebpf4jnsgd1na2vs0mg"},{"bike_id":"2f52ccf4-3e28-48d6-b697-035216e876ef","system_id":"levelo_inurba_marseille","lat":43.2927,"lon":5.384337,"is_reserved":false,"is_disabled":false,"rental_uris":{"android":"levelo://app?vid=2f52ccf4-3e28-48d6-b697-035216e876ef","ios":"levelo://app?vid=2f52ccf4-3e28-48d6-b697-035216e876ef"},"vehicle_type_id":"4","last_reported":1745003268,"current_range_meters":3600,"station_id":"ce4bgn12rcd13ifvqbt0","pricing_plan_id":"cebpf4jnsgd1na2vs0mg"},{"bike_id":"72ce0587-2bb2-44b5-a2d1-4128c15663d2","system_id":"levelo_inurba_marseille","lat":43.29316,"lon":5.37166,"is_reserved":false,"is_disabled":false,"rental_uris":{"android":"levelo://app?vid=72ce0587-2bb2-44b5-a2d1-4128c15663d2","ios":"levelo://app?vid=72ce0587-2bb2-44b5-a2d1-4128c15663d2"},"vehicle_type_id":"4","last_reported":1745003268,"current_range_meters":3600,"station_id":"ce4bgh92rcd13ifvqb40","pricing_plan_id":"cebpf4jnsgd1na2vs0mg"},{"bike_id":"6732ee5e-8819-4a07-b2cb-5663052e18aa","system_id":"levelo_inurba_marseille","lat":43.30263,"lon":5.4008,"is_reserved":false,"is_disabled":false,"rental_uris":{"android":"levelo://app?vid=6732ee5e-8819-4a07-b2cb-5663052e18aa","ios":"levelo://app?vid=6732ee5e-8819-4a07-b2cb-5663052e18aa"},"vehicle_type_id":"4","last_reported":1745003268,"current_range_meters":3200,"station_id":"ce4bgvh2rcd13ifvqcs0","pricing_plan_id":"cebpf4jnsgd1na2vs0mg"},{"bike_id":"8ef7a348-4834-401c-8de1-443f7dc7e4d9","system_id":"levelo_inurba_marseille","lat":43.30802,"lon":5.38164,"is_reserved":false,"is_disabled":false,"rental_uris":{"android":"levelo://app?vid=8ef7a348-4834-401c-8de1-443f7dc7e4d9","ios":"levelo://app?vid=8ef7a348-4834-401c-8de1-443f7dc7e4d9"},"vehicle_type_id":"4","last_reported":1745003268,"current_range_meters":4000,"station_id":"ce4bgt12rcd13ifvqce0","pricing_plan_id":"cebpf4jnsgd1na2vs0mg"},{"bike_id":"0cd7448c-170a-48be-bc79-f10bcaf69806","system_id":"levelo_inurba_marseille","lat":43.23053,"lon":5.35483,"is_reserved":false,"is_disabled":true,"rental_uris":{"android":"levelo://app?vid=0cd7448c-170a-48be-bc79-f10bcaf69806","ios":"levelo://app?vid=0cd7448c-170a-48be-bc79-f10bcaf69806"},"vehicle_type_id":"4","last_reported":1745003268,"current_range_meters":4000,"station_id":"cpo3342slgdg3j2ifvpg","pricing_plan_id":"cebpf4jnsgd1na2vs0mg"},{"bike_id":"316918aa-d048-4669-8803-e5da40ebaee0","system_id":"levelo_inurba_marseille","lat":43.29417,"lon":5.38639,"is_reserved":false,"is_disabled":false,"rental_uris":{"android":"levelo://app?vid=316918aa-d048-4669-8803-e5da40ebaee0","ios":"levelo://app?vid=316918aa-d048-4669-8803-e5da40ebaee0"},"vehicle_type_id":"4","last_reported":1745003268,"current_range_meters":4000,"station_id":"ce4bh2h2rcd13ifvqdh0","pricing_plan_id":"cebpf4jnsgd1na2vs0mg"},{"bike_id":"22745c05-2d00-4bdf-a328-438a3732cd50","system_id":"levelo_inurba_marseille","lat":43.29377,"lon":5.37845,"is_reserved":false,"is_disabled":false,"rental_uris":{"android":"levelo://app?vid=22745c05-2d00-4bdf-a328-438a3732cd50","ios":"levelo://app?vid=22745c05-2d00-4bdf-a328-438a3732cd50"},"vehicle_type_id":"4","last_reported":1745003268,"current_range_meters":4000,"station_id":"ce4bgjh2rcd13ifvqbf0","pricing_plan_id":"cebpf4jnsgd1na2vs0mg"},{"bike_id":"9416f458-ef32-4593-b496-5da308ec7a0f","system_id":"levelo_inurba_marseille","lat":43.305925,"lon":5.372329,"is_reserved":false,"is_disabled":false,"rental_uris":{"android":"levelo://app?vid=9416f458-ef32-4593-b496-5da308ec7a0f","ios":"levelo://app?vid=9416f458-ef32-4593-b496-5da308ec7a0f"},"vehicle_type_id":"4","last_reported":1745003268,"current_range_meters":4400,"station_id":"ce4bgqh2rcd13ifvqc4g","pricing_plan_id":"cebpf4jnsgd1na2vs0mg"},{"bike_id":"42f41982-3faf-441a-8494-c7e022e6f803","system_id":"levelo_inurba_marseille","lat":43.24386,"lon":5.37056,"is_reserved":false,"is_disabled":false,"rental_uris":{"android":"levelo://app?vid=42f41982-3faf-441a-8494-c7e022e6f803","ios":"levelo://app?vid=42f41982-3faf-441a-8494-c7e022e6f803"},"vehicle_type_id":"4","last_reported":1745003268,"current_range_meters":4400,"station_id":"ce4bhhh2rcd13ifvqfk0","pricing_plan_id":"cebpf4jnsgd1na2vs0mg"},{"bike_id":"2df22311-bac1-4b8f-abff-11893969de63","system_id":"levelo_inurba_marseille","lat":43.31075,"lon":5.37833,"is_reserved":false,"is_disabled":false,"rental_uris":{"android":"levelo://app?vid=2df22311-bac1-4b8f-abff-11893969de63","ios":"levelo://app?vid=2df22311-bac1-4b8f-abff-11893969de63"},"vehicle_type_id":"4","last_reported":1745003268,"current_range_meters":4400,"station_id":"","pricing_plan_id":"cebpf4jnsgd1na2vs0mg"},{"bike_id":"e45ae9b6-64e5-47e4-95b6-92b3953803a9","system_id":"levelo_inurba_marseille","lat":43.2795,"lon":5.41053,"is_reserved":false,"is_disabled":false,"rental_uris":{"android":"levelo://app?vid=e45ae9b6-64e5-47e4-95b6-92b3953803a9","ios":"levelo://app?vid=e45ae9b6-64e5-47e4-95b6-92b3953803a9"},"vehicle_type_id":"4","last_reported":1745003268,"current_range_meters":4400,"station_id":"ce4bhnp2rcd13ifvqh0g","pricing_plan_id":"cebpf4jnsgd1na2vs0mg"},{"bike_id":"f96f9dee-e407-4ae3-9f29-3ea98940c9fe","system_id":"levelo_inurba_marseille","lat":43.2892,"lon":5.38389,"is_reserved":false,"is_disabled":false,"rental_uris":{"android":"levelo://app?vid=f96f9dee-e407-4ae3-9f29-3ea98940c9fe","ios":"levelo://app?vid=f96f9dee-e407-4ae3-9f29-3ea98940c9fe"},"vehicle_type_id":"4","last_reported":1745003268,"current_range_meters":4400,"station_id":"ce4bh612rcd13ifvqe6g","pricing_plan_id":"cebpf4jnsgd1na2vs0mg"},{"bike_id":"2a297b53-e6c9-4a44-8832-a1535085da75","system_id":"levelo_inurba_marseille","lat":43.31996,"lon":5.38152,"is_reserved":false,"is_disabled":true,"rental_uris":{"android":"levelo://app?vid=2a297b53-e6c9-4a44-8832-a1535085da75","ios":"levelo://app?vid=2a297b53-e6c9-4a44-8832-a1535085da75"},"vehicle_type_id":"4","last_reported":1745003268,"current_range_meters":4800,"station_id":"ce4bhr12rcd13ifvqhpg","pricing_plan_id":"cebpf4jnsgd1na2vs0mg"},{"bike_id":"0a9e17ca-da01-461c-8784-61593b4e0d74","system_id":"levelo_inurba_marseille","lat":43.30887,"lon":5.39663,"is_reserved":false,"is_disabled":false,"rental_uris":{"android":"levelo://app?vid=0a9e17ca-da01-461c-8784-61593b4e0d74","ios":"levelo://app?vid=0a9e17ca-da01-461c-8784-61593b4e0d74"},"vehicle_type_id":"4","last_reported":1745003268,"current_range_meters":4800,"station_id":"ce4bh012rcd13ifvqcv0","pricing_plan_id":"cebpf4jnsgd1na2vs0mg"},{"bike_id":"09e2e1ec-98f6-4512-926a-5b3441e9a189","system_id":"levelo_inurba_marseille","lat":43.30315,"lon":5.36886,"is_reserved":false,"is_disabled":false,"rental_uris":{"android":"levelo://app?vid=09e2e1ec-98f6-4512-926a-5b3441e9a189","ios":"levelo://app?vid=09e2e1ec-98f6-4512-926a-5b3441e9a189"},"vehicle_type_id":"4","last_reported":1745003268,"current_range_meters":4800,"station_id":"ce4bgqh2rcd13ifvqc5g","pricing_plan_id":"cebpf4jnsgd1na2vs0mg"},{"bike_id":"fc6c4859-d7e2-403d-83c0-0a933c292c68","system_id":"levelo_inurba_marseille","lat":43.290253,"lon":5.386247,"is_reserved":false,"is_disabled":false,"rental_uris":{"android":"levelo://app?vid=fc6c4859-d7e2-403d-83c0-0a933c292c68","ios":"levelo://app?vid=fc6c4859-d7e2-403d-83c0-0a933c292c68"},"vehicle_type_id":"4","last_reported":1745003268,"current_range_meters":4800,"station_id":"ce4bh4p2rcd13ifvqe0g","pricing_plan_id":"cebpf4jnsgd1na2vs0mg"},{"bike_id":"d3c64834-8ecf-473e-97d9-0491c0849bee","system_id":"levelo_inurba_marseille","lat":43.295763,"lon":5.37521,"is_reserved":false,"is_disabled":false,"rental_uris":{"android":"levelo://app?vid=d3c64834-8ecf-473e-97d9-0491c0849bee","ios":"levelo://app?vid=d3c64834-8ecf-473e-97d9-0491c0849bee"},"vehicle_type_id":"4","last_reported":1745003268,"current_range_meters":4800,"station_id":"ce4bhb12rcd13ifvqel0","pricing_plan_id":"cebpf4jnsgd1na2vs0mg"},{"bike_id":"1acfece4-9cd0-401d-97ca-6704551f0b95","system_id":"levelo_inurba_marseille","lat":43.29425,"lon":5.38634,"is_reserved":false,"is_disabled":false,"rental_uris":{"android":"levelo://app?vid=1acfece4-9cd0-401d-97ca-6704551f0b95","ios":"levelo://app?vid=1acfece4-9cd0-401d-97ca-6704551f0b95"},"vehicle_type_id":"4","last_reported":1745003268,"current_range_meters":4800,"station_id":"ce4bh2h2rcd13ifvqdh0","pricing_plan_id":"cebpf4jnsgd1na2vs0mg"},{"bike_id":"683727aa-af5c-4a30-b620-923da0da034b","system_id":"levelo_inurba_marseille","lat":43.26862,"lon":5.40467,"is_reserved":false,"is_disabled":false,"rental_uris":{"android":"levelo://app?vid=683727aa-af5c-4a30-b620-923da0da034b","ios":"levelo://app?vid=683727aa-af5c-4a30-b620-923da0da034b"},"vehicle_type_id":"4","last_reported":1745003268,"current_range_meters":4800,"station_id":"cjm6bp8fraef2m0cb0m0","pricing_plan_id":"cebpf4jnsgd1na2vs0mg"},{"bike_id":"94fe99e1-c20d-44b7-b566-68b91b33f9e0","system_id":"levelo_inurba_marseille","lat":43.28942,"lon":5.36634,"is_reserved":false,"is_disabled":false,"rental_uris":{"android":"levelo://app?vid=94fe99e1-c20d-44b7-b566-68b91b33f9e0","ios":"levelo://app?vid=94fe99e1-c20d-44b7-b566-68b91b33f9e0"},"vehicle_type_id":"4","last_reported":1745003268,"current_range_meters":4800,"station_id":"ce4bhap2rcd13ifvqek0","pricing_plan_id":"cebpf4jnsgd1na2vs0mg"},{"bike_id":"e85d2342-168d-4f96-82f2-e4ddb91508cb","system_id":"levelo_inurba_marseille","lat":43.2979,"lon":5.39341,"is_reserved":false,"is_disabled":false,"rental_uris":{"android":"levelo://app?vid=e85d2342-168d-4f96-82f2-e4ddb91508cb","ios":"levelo://app?vid=e85d2342-168d-4f96-82f2-e4ddb91508cb"},"vehicle_type_id":"4","last_reported":1745003268,"current_range_meters":6800,"station_id":"chh1huq6cuj3fo74tm60","pricing_plan_id":"cebpf4jnsgd1na2vs0mg"},{"bike_id":"76dfa1d5-d503-47a3-8c93-c3d209591f1f","system_id":"levelo_inurba_marseille","lat":43.251193,"lon":5.403203,"is_reserved":false,"is_disabled":true,"rental_uris":{"android":"levelo://app?vid=76dfa1d5-d503-47a3-8c93-c3d209591f1f","ios":"levelo://app?vid=76dfa1d5-d503-47a3-8c93-c3d209591f1f"},"vehicle_type_id":"4","last_reported":1745003268,"current_range_meters":5600,"station_id":"ce4bhlh2rcd13ifvqgig","pricing_plan_id":"cebpf4jnsgd1na2vs0mg"},{"bike_id":"b8b21473-ecb7-4359-ad3d-8e7f949e938f","system_id":"levelo_inurba_marseille","lat":43.29528,"lon":5.39037,"is_reserved":false,"is_disabled":false,"rental_uris":{"android":"levelo://app?vid=b8b21473-ecb7-4359-ad3d-8e7f949e938f","ios":"levelo://app?vid=b8b21473-ecb7-4359-ad3d-8e7f949e938f"},"vehicle_type_id":"4","last_reported":1745003268,"current_range_meters":2800,"station_id":"ce4bh3p2rcd13ifvqdp0","pricing_plan_id":"cebpf4jnsgd1na2vs0mg"},{"bike_id":"3f9c1b56-fe20-4d6f-8f6b-44ccfc33b667","system_id":"levelo_inurba_marseille","lat":43.28971,"lon":5.37849,"is_reserved":false,"is_disabled":false,"rental_uris":{"android":"levelo://app?vid=3f9c1b56-fe20-4d6f-8f6b-44ccfc33b667","ios":"levelo://app?vid=3f9c1b56-fe20-4d6f-8f6b-44ccfc33b667"},"vehicle_type_id":"4","last_reported":1745003268,"current_range_meters":5600,"station_id":"ce4bh9p2rcd13ifvqed0","pricing_plan_id":"cebpf4jnsgd1na2vs0mg"},{"bike_id":"bf92ecc1-6cb7-48e0-99c7-3e068be9e89c","system_id":"levelo_inurba_marseille","lat":43.27558,"lon":5.38439,"is_reserved":false,"is_disabled":false,"rental_uris":{"android":"levelo://app?vid=bf92ecc1-6cb7-48e0-99c7-3e068be9e89c","ios":"levelo://app?vid=bf92ecc1-6cb7-48e0-99c7-3e068be9e89c"},"vehicle_type_id":"4","last_reported":1745003268,"current_range_meters":6000,"station_id":"ce4bhh92rcd13ifvqfi0","pricing_plan_id":"cebpf4jnsgd1na2vs0mg"},{"bike_id":"b710fbb1-b765-492e-8cff-58a86822a607","system_id":"levelo_inurba_marseille","lat":43.23192,"lon":5.35561,"is_reserved":false,"is_disabled":true,"rental_uris":{"android":"levelo://app?vid=b710fbb1-b765-492e-8cff-58a86822a607","ios":"levelo://app?vid=b710fbb1-b765-492e-8cff-58a86822a607"},"vehicle_type_id":"4","last_reported":1745003268,"current_range_meters":6000,"station_id":"ce4bhu92rcd13ifvqi70","pricing_plan_id":"cebpf4jnsgd1na2vs0mg"},{"bike_id":"32dc4790-468a-4482-9bfb-e93f0faae6ce","system_id":"levelo_inurba_marseille","lat":43.248047,"lon":5.374507,"is_reserved":false,"is_disabled":false,"rental_uris":{"android":"levelo://app?vid=32dc4790-468a-4482-9bfb-e93f0faae6ce","ios":"levelo://app?vid=32dc4790-468a-4482-9bfb-e93f0faae6ce"},"vehicle_type_id":"4","last_reported":1745003268,"current_range_meters":6400,"station_id":"ce4bhgh2rcd13ifvqfb0","pricing_plan_id":"cebpf4jnsgd1na2vs0mg"},{"bike_id":"816df36c-bbbc-4189-8f4c-f44d5188130a","system_id":"levelo_inurba_marseille","lat":43.303064,"lon":5.36913,"is_reserved":false,"is_disabled":false,"rental_uris":{"android":"levelo://app?vid=816df36c-bbbc-4189-8f4c-f44d5188130a","ios":"levelo://app?vid=816df36c-bbbc-4189-8f4c-f44d5188130a"},"vehicle_type_id":"4","last_reported":1745003268,"current_range_meters":6400,"station_id":"ce4bgqh2rcd13ifvqc5g","pricing_plan_id":"cebpf4jnsgd1na2vs0mg"},{"bike_id":"4c0548a5-2e41-4ba6-aa4a-ed669c2d86fb","system_id":"levelo_inurba_marseille","lat":43.27424,"lon":5.39419,"is_reserved":false,"is_disabled":false,"rental_uris":{"android":"levelo://app?vid=4c0548a5-2e41-4ba6-aa4a-ed669c2d86fb","ios":"levelo://app?vid=4c0548a5-2e41-4ba6-aa4a-ed669c2d86fb"},"vehicle_type_id":"4","last_reported":1745003268,"current_range_meters":6400,"station_id":"ce4bhdp2rcd13ifvqf20","pricing_plan_id":"cebpf4jnsgd1na2vs0mg"},{"bike_id":"75410b06-f40d-4b7b-b49c-b58373d5adc7","system_id":"levelo_inurba_marseille","lat":43.28933,"lon":5.36625,"is_reserved":false,"is_disabled":false,"rental_uris":{"android":"levelo://app?vid=75410b06-f40d-4b7b-b49c-b58373d5adc7","ios":"levelo://app?vid=75410b06-f40d-4b7b-b49c-b58373d5adc7"},"vehicle_type_id":"4","last_reported":1745003268,"current_range_meters":6400,"station_id":"ce4bhap2rcd13ifvqek0","pricing_plan_id":"cebpf4jnsgd1na2vs0mg"},{"bike_id":"7b2b2cef-c022-4d24-b49c-8c1952b4364c","system_id":"levelo_inurba_marseille","lat":43.23183,"lon":5.3556,"is_reserved":false,"is_disabled":false,"rental_uris":{"android":"levelo://app?vid=7b2b2cef-c022-4d24-b49c-8c1952b4364c","ios":"levelo://app?vid=7b2b2cef-c022-4d24-b49c-8c1952b4364c"},"vehicle_type_id":"4","last_reported":1745003268,"current_range_meters":6400,"station_id":"ce4bhu92rcd13ifvqi70","pricing_plan_id":"cebpf4jnsgd1na2vs0mg"},{"bike_id":"d5622ad7-f27b-40f3-bd58-9cfbb9182800","system_id":"levelo_inurba_marseille","lat":43.28945,"lon":5.3639,"is_reserved":false,"is_disabled":false,"rental_uris":{"android":"levelo://app?vid=d5622ad7-f27b-40f3-bd58-9cfbb9182800","ios":"levelo://app?vid=d5622ad7-f27b-40f3-bd58-9cfbb9182800"},"vehicle_type_id":"4","last_reported":1745003268,"current_range_meters":6400,"station_id":"ce4bhc92rcd13ifvqetg","pricing_plan_id":"cebpf4jnsgd1na2vs0mg"},{"bike_id":"6fba013f-04b8-465e-b5a7-0f4585eaa8ec","system_id":"levelo_inurba_marseille","lat":43.30651,"lon":5.4009,"is_reserved":false,"is_disabled":false,"rental_uris":{"android":"levelo://app?vid=6fba013f-04b8-465e-b5a7-0f4585eaa8ec","ios":"levelo://app?vid=6fba013f-04b8-465e-b5a7-0f4585eaa8ec"},"vehicle_type_id":"4","last_reported":1745003268,"current_range_meters":6400,"station_id":"ce4bh112rcd13ifvqda0","pricing_plan_id":"cebpf4jnsgd1na2vs0mg"},{"bike_id":"50753838-bb78-4e1f-b87a-7f5f5098d56d","system_id":"levelo_inurba_marseille","lat":43.29263,"lon":5.38438,"is_reserved":false,"is_disabled":true,"rental_uris":{"android":"levelo://app?vid=50753838-bb78-4e1f-b87a-7f5f5098d56d","ios":"levelo://app?vid=50753838-bb78-4e1f-b87a-7f5f5098d56d"},"vehicle_type_id":"4","last_reported":1745003268,"current_range_meters":6800,"station_id":"ce4bh692rcd13ifvqea0","pricing_plan_id":"cebpf4jnsgd1na2vs0mg"},{"bike_id":"f61143c4-134c-45fe-b0a9-190050e28cd5","system_id":"levelo_inurba_marseille","lat":43.28728,"lon":5.37956,"is_reserved":false,"is_disabled":false,"rental_uris":{"android":"levelo://app?vid=f61143c4-134c-45fe-b0a9-190050e28cd5","ios":"levelo://app?vid=f61143c4-134c-45fe-b0a9-190050e28cd5"},"vehicle_type_id":"4","last_reported":1745003268,"current_range_meters":6800,"station_id":"ce4bh9p2rcd13ifvqec0","pricing_plan_id":"cebpf4jnsgd1na2vs0mg"},{"bike_id":"0387d6ed-0201-4465-a83e-d9f20733156b","system_id":"levelo_inurba_marseille","lat":43.28931,"lon":5.38402,"is_reserved":false,"is_disabled":false,"rental_uris":{"android":"levelo://app?vid=0387d6ed-0201-4465-a83e-d9f20733156b","ios":"levelo://app?vid=0387d6ed-0201-4465-a83e-d9f20733156b"},"vehicle_type_id":"4","last_reported":1745003268,"current_range_meters":6800,"station_id":"ce4bh612rcd13ifvqe6g","pricing_plan_id":"cebpf4jnsgd1na2vs0mg"},{"bike_id":"587a57a4-4b12-477e-8c48-54dbadd912cb","system_id":"levelo_inurba_marseille","lat":43.3009,"lon":5.39069,"is_reserved":false,"is_disabled":false,"rental_uris":{"android":"levelo://app?vid=587a57a4-4b12-477e-8c48-54dbadd912cb","ios":"levelo://app?vid=587a57a4-4b12-477e-8c48-54dbadd912cb"},"vehicle_type_id":"4","last_reported":1745003268,"current_range_meters":6800,"station_id":"ce4bh192rcd13ifvqdb0","pricing_plan_id":"cebpf4jnsgd1na2vs0mg"},{"bike_id":"4761dcf1-842b-488e-975a-8d385217af9c","system_id":"levelo_inurba_marseille","lat":43.29578,"lon":5.36745,"is_reserved":false,"is_disabled":false,"rental_uris":{"android":"levelo://app?vid=4761dcf1-842b-488e-975a-8d385217af9c","ios":"levelo://app?vid=4761dcf1-842b-488e-975a-8d385217af9c"},"vehicle_type_id":"4","last_reported":1745003268,"current_range_meters":7200,"station_id":"ce4bgph2rcd13ifvqc2g","pricing_plan_id":"cebpf4jnsgd1na2vs0mg"},{"bike_id":"6abcdd56-e494-4877-b2e6-b79dfbcb1078","system_id":"levelo_inurba_marseille","lat":43.29098,"lon":5.38135,"is_reserved":false,"is_disabled":false,"rental_uris":{"android":"levelo://app?vid=6abcdd56-e494-4877-b2e6-b79dfbcb1078","ios":"levelo://app?vid=6abcdd56-e494-4877-b2e6-b79dfbcb1078"},"vehicle_type_id":"4","last_reported":1745003268,"current_range_meters":7200,"station_id":"ce4bh512rcd13ifvqe2g","pricing_plan_id":"cebpf4jnsgd1na2vs0mg"},{"bike_id":"a9379aca-3751-40fb-9d44-ca159a97fff4","system_id":"levelo_inurba_marseille","lat":43.28615,"lon":5.37072,"is_reserved":false,"is_disabled":false,"rental_uris":{"android":"levelo://app?vid=a9379aca-3751-40fb-9d44-ca159a97fff4","ios":"levelo://app?vid=a9379aca-3751-40fb-9d44-ca159a97fff4"},"vehicle_type_id":"4","last_reported":1745003268,"current_range_meters":7200,"station_id":"ce4bht12rcd13ifvqi60","pricing_plan_id":"cebpf4jnsgd1na2vs0mg"},{"bike_id":"9477405c-80af-4a6d-8d7a-b062781d9c38","system_id":"levelo_inurba_marseille","lat":43.28729,"lon":5.37941,"is_reserved":false,"is_disabled":false,"rental_uris":{"android":"levelo://app?vid=9477405c-80af-4a6d-8d7a-b062781d9c38","ios":"levelo://app?vid=9477405c-80af-4a6d-8d7a-b062781d9c38"},"vehicle_type_id":"4","last_reported":1745003268,"current_range_meters":7200,"station_id":"ce4bh9p2rcd13ifvqec0","pricing_plan_id":"cebpf4jnsgd1na2vs0mg"},{"bike_id":"f559e335-1c1a-4a89-8ecf-88221ce0dc03","system_id":"levelo_inurba_marseille","lat":43.29318,"lon":5.37188,"is_reserved":false,"is_disabled":false,"rental_uris":{"android":"levelo://app?vid=f559e335-1c1a-4a89-8ecf-88221ce0dc03","ios":"levelo://app?vid=f559e335-1c1a-4a89-8ecf-88221ce0dc03"},"vehicle_type_id":"4","last_reported":1745003268,"current_range_meters":6400,"station_id":"ce4bgh92rcd13ifvqb40","pricing_plan_id":"cebpf4jnsgd1na2vs0mg"},{"bike_id":"a9eb962f-7d8b-4c1e-8c65-8047073e3592","system_id":"levelo_inurba_marseille","lat":43.24169,"lon":5.36402,"is_reserved":false,"is_disabled":false,"rental_uris":{"android":"levelo://app?vid=a9eb962f-7d8b-4c1e-8c65-8047073e3592","ios":"levelo://app?vid=a9eb962f-7d8b-4c1e-8c65-8047073e3592"},"vehicle_type_id":"4","last_reported":1745003268,"current_range_meters":7200,"station_id":"cpo36qri1sfpv3e86is0","pricing_plan_id":"cebpf4jnsgd1na2vs0mg"},{"bike_id":"fafbc126-9ff2-4d92-b0d8-a131448d3834","system_id":"levelo_inurba_marseille","lat":43.32367,"lon":5.38896,"is_reserved":false,"is_disabled":false,"rental_uris":{"android":"levelo://app?vid=fafbc126-9ff2-4d92-b0d8-a131448d3834","ios":"levelo://app?vid=fafbc126-9ff2-4d92-b0d8-a131448d3834"},"vehicle_type_id":"4","last_reported":1745003268,"current_range_meters":7200,"station_id":"ce4bhqp2rcd13ifvqhog","pricing_plan_id":"cebpf4jnsgd1na2vs0mg"},{"bike_id":"1605b2fa-3fe3-4bfe-8377-543cc407709b","system_id":"levelo_inurba_marseille","lat":43.299316,"lon":5.365576,"is_reserved":false,"is_disabled":false,"rental_uris":{"android":"levelo://app?vid=1605b2fa-3fe3-4bfe-8377-543cc407709b","ios":"levelo://app?vid=1605b2fa-3fe3-4bfe-8377-543cc407709b"},"vehicle_type_id":"4","last_reported":1745003268,"current_range_meters":7200,"station_id":"ce4bgm92rcd13ifvqbr0","pricing_plan_id":"cebpf4jnsgd1na2vs0mg"},{"bike_id":"fb0d42e6-2521-4abe-80a0-2605ae32538c","system_id":"levelo_inurba_marseille","lat":43.30143,"lon":5.38788,"is_reserved":false,"is_disabled":false,"rental_uris":{"android":"levelo://app?vid=fb0d42e6-2521-4abe-80a0-2605ae32538c","ios":"levelo://app?vid=fb0d42e6-2521-4abe-80a0-2605ae32538c"},"vehicle_type_id":"4","last_reported":1745003268,"current_range_meters":8000,"station_id":"ce4bghh2rcd13ifvqb60","pricing_plan_id":"cebpf4jnsgd1na2vs0mg"},{"bike_id":"2ee45dc8-6632-4c7d-854d-7faf30a7c206","system_id":"levelo_inurba_marseille","lat":43.29272,"lon":5.38422,"is_reserved":false,"is_disabled":false,"rental_uris":{"android":"levelo://app?vid=2ee45dc8-6632-4c7d-854d-7faf30a7c206","ios":"levelo://app?vid=2ee45dc8-6632-4c7d-854d-7faf30a7c206"},"vehicle_type_id":"4","last_reported":1745003268,"current_range_meters":7200,"station_id":"ce4bh692rcd13ifvqea0","pricing_plan_id":"cebpf4jnsgd1na2vs0mg"},{"bike_id":"12e61b61-a165-4320-af5e-d9d6c29090fc","system_id":"levelo_inurba_marseille","lat":43.22968,"lon":5.35344,"is_reserved":false,"is_disabled":false,"rental_uris":{"android":"levelo://app?vid=12e61b61-a165-4320-af5e-d9d6c29090fc","ios":"levelo://app?vid=12e61b61-a165-4320-af5e-d9d6c29090fc"},"vehicle_type_id":"4","last_reported":1745003268,"current_range_meters":7200,"station_id":"","pricing_plan_id":"cebpf4jnsgd1na2vs0mg"},{"bike_id":"c415b972-8ead-4e78-8d80-7a091746c0aa","system_id":"levelo_inurba_marseille","lat":43.24389,"lon":5.37068,"is_reserved":false,"is_disabled":false,"rental_uris":{"android":"levelo://app?vid=c415b972-8ead-4e78-8d80-7a091746c0aa","ios":"levelo://app?vid=c415b972-8ead-4e78-8d80-7a091746c0aa"},"vehicle_type_id":"4","last_reported":1745003268,"current_range_meters":8000,"station_id":"ce4bhhh2rcd13ifvqfk0","pricing_plan_id":"cebpf4jnsgd1na2vs0mg"},{"bike_id":"0af77c92-149b-43d9-9513-08be3c078200","system_id":"levelo_inurba_marseille","lat":43.29423,"lon":5.38607,"is_reserved":false,"is_disabled":false,"rental_uris":{"android":"levelo://app?vid=0af77c92-149b-43d9-9513-08be3c078200","ios":"levelo://app?vid=0af77c92-149b-43d9-9513-08be3c078200"},"vehicle_type_id":"4","last_reported":1745003268,"current_range_meters":8000,"station_id":"ce4bh2h2rcd13ifvqdh0","pricing_plan_id":"cebpf4jnsgd1na2vs0mg"},{"bike_id":"a268c0f6-572b-456f-954e-cf21a0b23f10","system_id":"levelo_inurba_marseille","lat":43.24163,"lon":5.36393,"is_reserved":false,"is_disabled":false,"rental_uris":{"android":"levelo://app?vid=a268c0f6-572b-456f-954e-cf21a0b23f10","ios":"levelo://app?vid=a268c0f6-572b-456f-954e-cf21a0b23f10"},"vehicle_type_id":"4","last_reported":1745003268,"current_range_meters":8000,"station_id":"cpo36qri1sfpv3e86is0","pricing_plan_id":"cebpf4jnsgd1na2vs0mg"},{"bike_id":"78c61dc2-93e0-4d9f-9dc2-b672cba306ce","system_id":"levelo_inurba_marseille","lat":43.29427,"lon":5.38618,"is_reserved":false,"is_disabled":false,"rental_uris":{"android":"levelo://app?vid=78c61dc2-93e0-4d9f-9dc2-b672cba306ce","ios":"levelo://app?vid=78c61dc2-93e0-4d9f-9dc2-b672cba306ce"},"vehicle_type_id":"4","last_reported":1745003268,"current_range_meters":8000,"station_id":"ce4bh2h2rcd13ifvqdh0","pricing_plan_id":"cebpf4jnsgd1na2vs0mg"},{"bike_id":"2774cd11-b448-48c9-b8bb-a258897de624","system_id":"levelo_inurba_marseille","lat":43.29418,"lon":5.38605,"is_reserved":false,"is_disabled":false,"rental_uris":{"android":"levelo://app?vid=2774cd11-b448-48c9-b8bb-a258897de624","ios":"levelo://app?vid=2774cd11-b448-48c9-b8bb-a258897de624"},"vehicle_type_id":"4","last_reported":1745003268,"current_range_meters":8000,"station_id":"ce4bh2h2rcd13ifvqdh0","pricing_plan_id":"cebpf4jnsgd1na2vs0mg"},{"bike_id":"08a3067c-0a3d-4c7e-9b5f-8d7ad65a3398","system_id":"levelo_inurba_marseille","lat":43.251103,"lon":5.403238,"is_reserved":false,"is_disabled":false,"rental_uris":{"android":"levelo://app?vid=08a3067c-0a3d-4c7e-9b5f-8d7ad65a3398","ios":"levelo://app?vid=08a3067c-0a3d-4c7e-9b5f-8d7ad65a3398"},"vehicle_type_id":"4","last_reported":1745003268,"current_range_meters":8000,"station_id":"ce4bhlh2rcd13ifvqgig","pricing_plan_id":"cebpf4jnsgd1na2vs0mg"},{"bike_id":"486d7865-ed33-4874-854b-800bbad36ad2","system_id":"levelo_inurba_marseille","lat":43.24387,"lon":5.37061,"is_reserved":false,"is_disabled":false,"rental_uris":{"android":"levelo://app?vid=486d7865-ed33-4874-854b-800bbad36ad2","ios":"levelo://app?vid=486d7865-ed33-4874-854b-800bbad36ad2"},"vehicle_type_id":"4","last_reported":1745003268,"current_range_meters":8000,"station_id":"ce4bhhh2rcd13ifvqfk0","pricing_plan_id":"cebpf4jnsgd1na2vs0mg"},{"bike_id":"496ae8c2-e96d-40eb-bbc5-0247e90a1b25","system_id":"levelo_inurba_marseille","lat":43.29412,"lon":5.38638,"is_reserved":false,"is_disabled":false,"rental_uris":{"android":"levelo://app?vid=496ae8c2-e96d-40eb-bbc5-0247e90a1b25","ios":"levelo://app?vid=496ae8c2-e96d-40eb-bbc5-0247e90a1b25"},"vehicle_type_id":"4","last_reported":1745003268,"current_range_meters":8000,"station_id":"ce4bh2h2rcd13ifvqdh0","pricing_plan_id":"cebpf4jnsgd1na2vs0mg"},{"bike_id":"b8dc13c6-fd62-4e25-99cb-2072a3329842","system_id":"levelo_inurba_marseille","lat":43.26564,"lon":5.39011,"is_reserved":false,"is_disabled":false,"rental_uris":{"android":"levelo://app?vid=b8dc13c6-fd62-4e25-99cb-2072a3329842","ios":"levelo://app?vid=b8dc13c6-fd62-4e25-99cb-2072a3329842"},"vehicle_type_id":"4","last_reported":1745003268,"current_range_meters":8000,"station_id":"ce4bhe12rcd13ifvqf30","pricing_plan_id":"cebpf4jnsgd1na2vs0mg"},{"bike_id":"5583a1cb-ef8e-4930-b38d-8d47fac1b289","system_id":"levelo_inurba_marseille","lat":43.27821,"lon":5.40715,"is_reserved":false,"is_disabled":true,"rental_uris":{"android":"levelo://app?vid=5583a1cb-ef8e-4930-b38d-8d47fac1b289","ios":"levelo://app?vid=5583a1cb-ef8e-4930-b38d-8d47fac1b289"},"vehicle_type_id":"4","last_reported":1745003268,"current_range_meters":8000,"station_id":"ce4bhnh2rcd13ifvqgtg","pricing_plan_id":"cebpf4jnsgd1na2vs0mg"},{"bike_id":"a65bff60-15d9-45ea-adbf-6c4c44601a01","system_id":"levelo_inurba_marseille","lat":43.29434,"lon":5.38618,"is_reserved":false,"is_disabled":false,"rental_uris":{"android":"levelo://app?vid=a65bff60-15d9-45ea-adbf-6c4c44601a01","ios":"levelo://app?vid=a65bff60-15d9-45ea-adbf-6c4c44601a01"},"vehicle_type_id":"4","last_reported":1745003268,"current_range_meters":8000,"station_id":"ce4bh2h2rcd13ifvqdh0","pricing_plan_id":"cebpf4jnsgd1na2vs0mg"},{"bike_id":"7d16229d-7a03-4b78-9de6-ce0352620c48","system_id":"levelo_inurba_marseille","lat":43.29424,"lon":5.38616,"is_reserved":false,"is_disabled":false,"rental_uris":{"android":"levelo://app?vid=7d16229d-7a03-4b78-9de6-ce0352620c48","ios":"levelo://app?vid=7d16229d-7a03-4b78-9de6-ce0352620c48"},"vehicle_type_id":"4","last_reported":1745003268,"current_range_meters":8000,"station_id":"ce4bh2h2rcd13ifvqdh0","pricing_plan_id":"cebpf4jnsgd1na2vs0mg"},{"bike_id":"0f5a097a-ebba-4f4d-b5b0-feb0f13a2ebd","system_id":"levelo_inurba_marseille","lat":43.2953,"lon":5.39402,"is_reserved":false,"is_disabled":false,"rental_uris":{"android":"levelo://app?vid=0f5a097a-ebba-4f4d-b5b0-feb0f13a2ebd","ios":"levelo://app?vid=0f5a097a-ebba-4f4d-b5b0-feb0f13a2ebd"},"vehicle_type_id":"4","last_reported":1745003268,"current_range_meters":8000,"station_id":"ce4bh292rcd13ifvqdf0","pricing_plan_id":"cebpf4jnsgd1na2vs0mg"},{"bike_id":"36028acb-1986-4460-84fe-b2aca491647c","system_id":"levelo_inurba_marseille","lat":43.2679,"lon":5.39417,"is_reserved":false,"is_disabled":true,"rental_uris":{"android":"levelo://app?vid=36028acb-1986-4460-84fe-b2aca491647c","ios":"levelo://app?vid=36028acb-1986-4460-84fe-b2aca491647c"},"vehicle_type_id":"4","last_reported":1745003268,"current_range_meters":8400,"station_id":"ce4bhh12rcd13ifvqfg0","pricing_plan_id":"cebpf4jnsgd1na2vs0mg"},{"bike_id":"e63a514e-275c-49a7-822a-270e45aadd76","system_id":"levelo_inurba_marseille","lat":43.29532,"lon":5.38529,"is_reserved":false,"is_disabled":false,"rental_uris":{"android":"levelo://app?vid=e63a514e-275c-49a7-822a-270e45aadd76","ios":"levelo://app?vid=e63a514e-275c-49a7-822a-270e45aadd76"},"vehicle_type_id":"4","last_reported":1745003268,"current_range_meters":8400,"station_id":"ce4bgih2rcd13ifvqba0","pricing_plan_id":"cebpf4jnsgd1na2vs0mg"},{"bike_id":"2adc63fd-f304-44b8-8143-5a0fa8b3bb60","system_id":"levelo_inurba_marseille","lat":43.2942,"lon":5.38617,"is_reserved":false,"is_disabled":false,"rental_uris":{"android":"levelo://app?vid=2adc63fd-f304-44b8-8143-5a0fa8b3bb60","ios":"levelo://app?vid=2adc63fd-f304-44b8-8143-5a0fa8b3bb60"},"vehicle_type_id":"4","last_reported":1745003268,"current_range_meters":8400,"station_id":"ce4bh2h2rcd13ifvqdh0","pricing_plan_id":"cebpf4jnsgd1na2vs0mg"},{"bike_id":"22209dda-afa5-4a31-9c25-a5d94a331926","system_id":"levelo_inurba_marseille","lat":43.24081,"lon":5.37721,"is_reserved":false,"is_disabled":true,"rental_uris":{"android":"levelo://app?vid=22209dda-afa5-4a31-9c25-a5d94a331926","ios":"levelo://app?vid=22209dda-afa5-4a31-9c25-a5d94a331926"},"vehicle_type_id":"4","last_reported":1745003268,"current_range_meters":8400,"station_id":"ce4bhnp2rcd13ifvqgvg","pricing_plan_id":"cebpf4jnsgd1na2vs0mg"},{"bike_id":"b84c17ee-9585-4db5-a4b0-c4e55529f57c","system_id":"levelo_inurba_marseille","lat":43.29531,"lon":5.38546,"is_reserved":false,"is_disabled":false,"rental_uris":{"android":"levelo://app?vid=b84c17ee-9585-4db5-a4b0-c4e55529f57c","ios":"levelo://app?vid=b84c17ee-9585-4db5-a4b0-c4e55529f57c"},"vehicle_type_id":"4","last_reported":1745003268,"current_range_meters":8400,"station_id":"ce4bgih2rcd13ifvqba0","pricing_plan_id":"cebpf4jnsgd1na2vs0mg"},{"bike_id":"ae67b943-5a06-469c-a948-2dacbbc8a098","system_id":"levelo_inurba_marseille","lat":43.31123,"lon":5.37759,"is_reserved":false,"is_disabled":false,"rental_uris":{"android":"levelo://app?vid=ae67b943-5a06-469c-a948-2dacbbc8a098","ios":"levelo://app?vid=ae67b943-5a06-469c-a948-2dacbbc8a098"},"vehicle_type_id":"4","last_reported":1745003268,"current_range_meters":8400,"station_id":"ce4bgt92rcd13ifvqcg0","pricing_plan_id":"cebpf4jnsgd1na2vs0mg"},{"bike_id":"61cae8bc-19bf-4855-a2cd-e8c27ed277ba","system_id":"levelo_inurba_marseille","lat":43.29419,"lon":5.38632,"is_reserved":false,"is_disabled":false,"rental_uris":{"android":"levelo://app?vid=61cae8bc-19bf-4855-a2cd-e8c27ed277ba","ios":"levelo://app?vid=61cae8bc-19bf-4855-a2cd-e8c27ed277ba"},"vehicle_type_id":"4","last_reported":1745003268,"current_range_meters":8400,"station_id":"ce4bh2h2rcd13ifvqdh0","pricing_plan_id":"cebpf4jnsgd1na2vs0mg"},{"bike_id":"3287305e-dc20-444a-9949-00d7352f401a","system_id":"levelo_inurba_marseille","lat":43.24172,"lon":5.36388,"is_reserved":false,"is_disabled":false,"rental_uris":{"android":"levelo://app?vid=3287305e-dc20-444a-9949-00d7352f401a","ios":"levelo://app?vid=3287305e-dc20-444a-9949-00d7352f401a"},"vehicle_type_id":"4","last_reported":1745003268,"current_range_meters":8400,"station_id":"cpo36qri1sfpv3e86is0","pricing_plan_id":"cebpf4jnsgd1na2vs0mg"},{"bike_id":"dc3ac7a9-b5a9-4ac3-aa8f-e58024eedf59","system_id":"levelo_inurba_marseille","lat":43.28615,"lon":5.37066,"is_reserved":false,"is_disabled":false,"rental_uris":{"android":"levelo://app?vid=dc3ac7a9-b5a9-4ac3-aa8f-e58024eedf59","ios":"levelo://app?vid=dc3ac7a9-b5a9-4ac3-aa8f-e58024eedf59"},"vehicle_type_id":"4","last_reported":1745003268,"current_range_meters":8400,"station_id":"ce4bht12rcd13ifvqi60","pricing_plan_id":"cebpf4jnsgd1na2vs0mg"},{"bike_id":"d7488ed2-0dca-4a18-bf83-c830acee64ca","system_id":"levelo_inurba_marseille","lat":43.29265,"lon":5.38421,"is_reserved":false,"is_disabled":false,"rental_uris":{"android":"levelo://app?vid=d7488ed2-0dca-4a18-bf83-c830acee64ca","ios":"levelo://app?vid=d7488ed2-0dca-4a18-bf83-c830acee64ca"},"vehicle_type_id":"4","last_reported":1745003268,"current_range_meters":8400,"station_id":"ce4bh692rcd13ifvqea0","pricing_plan_id":"cebpf4jnsgd1na2vs0mg"},{"bike_id":"30365f92-20c2-40bb-9e40-356cd63c5a4a","system_id":"levelo_inurba_marseille","lat":43.2894,"lon":5.36633,"is_reserved":false,"is_disabled":false,"rental_uris":{"android":"levelo://app?vid=30365f92-20c2-40bb-9e40-356cd63c5a4a","ios":"levelo://app?vid=30365f92-20c2-40bb-9e40-356cd63c5a4a"},"vehicle_type_id":"4","last_reported":1745003268,"current_range_meters":8400,"station_id":"ce4bhap2rcd13ifvqek0","pricing_plan_id":"cebpf4jnsgd1na2vs0mg"},{"bike_id":"fd6c0775-647e-4c13-82d8-0fca40552e82","system_id":"levelo_inurba_marseille","lat":43.291,"lon":5.38133,"is_reserved":false,"is_disabled":false,"rental_uris":{"android":"levelo://app?vid=fd6c0775-647e-4c13-82d8-0fca40552e82","ios":"levelo://app?vid=fd6c0775-647e-4c13-82d8-0fca40552e82"},"vehicle_type_id":"4","last_reported":1745003268,"current_range_meters":8800,"station_id":"ce4bh512rcd13ifvqe2g","pricing_plan_id":"cebpf4jnsgd1na2vs0mg"},{"bike_id":"ec8c9ac7-1e95-4171-97f3-226ce1e3c951","system_id":"levelo_inurba_marseille","lat":43.32113,"lon":5.3677,"is_reserved":false,"is_disabled":false,"rental_uris":{"android":"levelo://app?vid=ec8c9ac7-1e95-4171-97f3-226ce1e3c951","ios":"levelo://app?vid=ec8c9ac7-1e95-4171-97f3-226ce1e3c951"},"vehicle_type_id":"4","last_reported":1745003268,"current_range_meters":8800,"station_id":"ce4bhrh2rcd13ifvqhug","pricing_plan_id":"cebpf4jnsgd1na2vs0mg"},{"bike_id":"b3df2fff-5d79-45ed-b098-a0bcef70f89f","system_id":"levelo_inurba_marseille","lat":43.29272,"lon":5.36851,"is_reserved":false,"is_disabled":false,"rental_uris":{"android":"levelo://app?vid=b3df2fff-5d79-45ed-b098-a0bcef70f89f","ios":"levelo://app?vid=b3df2fff-5d79-45ed-b098-a0bcef70f89f"},"vehicle_type_id":"4","last_reported":1745003268,"current_range_meters":8800,"station_id":"ce4bhbp2rcd13ifvqesg","pricing_plan_id":"cebpf4jnsgd1na2vs0mg"},{"bike_id":"1b64792f-21f4-460e-a9cd-429e0da41292","system_id":"levelo_inurba_marseille","lat":43.29429,"lon":5.38626,"is_reserved":false,"is_disabled":false,"rental_uris":{"android":"levelo://app?vid=1b64792f-21f4-460e-a9cd-429e0da41292","ios":"levelo://app?vid=1b64792f-21f4-460e-a9cd-429e0da41292"},"vehicle_type_id":"4","last_reported":1745003268,"current_range_meters":8800,"station_id":"ce4bh2h2rcd13ifvqdh0","pricing_plan_id":"cebpf4jnsgd1na2vs0mg"},{"bike_id":"d0693017-3219-4f2c-9252-be27486404d3","system_id":"levelo_inurba_marseille","lat":43.2469,"lon":5.38153,"is_reserved":false,"is_disabled":false,"rental_uris":{"android":"levelo://app?vid=d0693017-3219-4f2c-9252-be27486404d3","ios":"levelo://app?vid=d0693017-3219-4f2c-9252-be27486404d3"},"vehicle_type_id":"4","last_reported":1745003268,"current_range_meters":8800,"station_id":"ce4bhih2rcd13ifvqfr0","pricing_plan_id":"cebpf4jnsgd1na2vs0mg"},{"bike_id":"862fe7a2-b3bf-49d2-a3be-31619ee662c1","system_id":"levelo_inurba_marseille","lat":43.28934,"lon":5.3841,"is_reserved":false,"is_disabled":false,"rental_uris":{"android":"levelo://app?vid=862fe7a2-b3bf-49d2-a3be-31619ee662c1","ios":"levelo://app?vid=862fe7a2-b3bf-49d2-a3be-31619ee662c1"},"vehicle_type_id":"4","last_reported":1745003268,"current_range_meters":8800,"station_id":"ce4bh612rcd13ifvqe6g","pricing_plan_id":"cebpf4jnsgd1na2vs0mg"},{"bike_id":"9b29d7c1-fe06-4fe4-910e-79bca8b0b91f","system_id":"levelo_inurba_marseille","lat":43.29023,"lon":5.38651,"is_reserved":false,"is_disabled":false,"rental_uris":{"android":"levelo://app?vid=9b29d7c1-fe06-4fe4-910e-79bca8b0b91f","ios":"levelo://app?vid=9b29d7c1-fe06-4fe4-910e-79bca8b0b91f"},"vehicle_type_id":"4","last_reported":1745003268,"current_range_meters":8800,"station_id":"ce4bh4p2rcd13ifvqe0g","pricing_plan_id":"cebpf4jnsgd1na2vs0mg"},{"bike_id":"70b6b133-6705-4dfd-b4a7-6e88067904e8","system_id":"levelo_inurba_marseille","lat":43.24169,"lon":5.36428,"is_reserved":false,"is_disabled":false,"rental_uris":{"android":"levelo://app?vid=70b6b133-6705-4dfd-b4a7-6e88067904e8","ios":"levelo://app?vid=70b6b133-6705-4dfd-b4a7-6e88067904e8"},"vehicle_type_id":"4","last_reported":1745003268,"current_range_meters":8800,"station_id":"cpo36qri1sfpv3e86is0","pricing_plan_id":"cebpf4jnsgd1na2vs0mg"},{"bike_id":"c6a55721-f48b-45a6-9504-f26b061b7258","system_id":"levelo_inurba_marseille","lat":43.29419,"lon":5.38607,"is_reserved":false,"is_disabled":false,"rental_uris":{"android":"levelo://app?vid=c6a55721-f48b-45a6-9504-f26b061b7258","ios":"levelo://app?vid=c6a55721-f48b-45a6-9504-f26b061b7258"},"vehicle_type_id":"4","last_reported":1745003268,"current_range_meters":8800,"station_id":"ce4bh2h2rcd13ifvqdh0","pricing_plan_id":"cebpf4jnsgd1na2vs0mg"},{"bike_id":"b603a7b9-29f6-4ca5-b728-a653169ecd8c","system_id":"levelo_inurba_marseille","lat":43.27807,"lon":5.40711,"is_reserved":false,"is_disabled":false,"rental_uris":{"android":"levelo://app?vid=b603a7b9-29f6-4ca5-b728-a653169ecd8c","ios":"levelo://app?vid=b603a7b9-29f6-4ca5-b728-a653169ecd8c"},"vehicle_type_id":"4","last_reported":1745003268,"current_range_meters":8800,"station_id":"ce4bhnh2rcd13ifvqgtg","pricing_plan_id":"cebpf4jnsgd1na2vs0mg"},{"bike_id":"271c8c79-7ca6-4367-80fb-8a0efc84181c","system_id":"levelo_inurba_marseille","lat":43.23229,"lon":5.3547,"is_reserved":false,"is_disabled":false,"rental_uris":{"android":"levelo://app?vid=271c8c79-7ca6-4367-80fb-8a0efc84181c","ios":"levelo://app?vid=271c8c79-7ca6-4367-80fb-8a0efc84181c"},"vehicle_type_id":"4","last_reported":1745003268,"current_range_meters":8800,"station_id":"","pricing_plan_id":"cebpf4jnsgd1na2vs0mg"},{"bike_id":"f2d09a49-02ca-41b9-870e-fdff640473d6","system_id":"levelo_inurba_marseille","lat":43.24167,"lon":5.36405,"is_reserved":false,"is_disabled":false,"rental_uris":{"android":"levelo://app?vid=f2d09a49-02ca-41b9-870e-fdff640473d6","ios":"levelo://app?vid=f2d09a49-02ca-41b9-870e-fdff640473d6"},"vehicle_type_id":"4","last_reported":1745003268,"current_range_meters":9200,"station_id":"cpo36qri1sfpv3e86is0","pricing_plan_id":"cebpf4jnsgd1na2vs0mg"},{"bike_id":"f0f978d1-65a4-437c-a91a-76861e0d2e07","system_id":"levelo_inurba_marseille","lat":43.29049,"lon":5.35908,"is_reserved":false,"is_disabled":false,"rental_uris":{"android":"levelo://app?vid=f0f978d1-65a4-437c-a91a-76861e0d2e07","ios":"levelo://app?vid=f0f978d1-65a4-437c-a91a-76861e0d2e07"},"vehicle_type_id":"4","last_reported":1745003268,"current_range_meters":9200,"station_id":"ce4bha92rcd13ifvqeg0","pricing_plan_id":"cebpf4jnsgd1na2vs0mg"},{"bike_id":"cf4db056-d3f7-4001-aa54-c43d57090a49","system_id":"levelo_inurba_marseille","lat":43.23185,"lon":5.3558,"is_reserved":false,"is_disabled":false,"rental_uris":{"android":"levelo://app?vid=cf4db056-d3f7-4001-aa54-c43d57090a49","ios":"levelo://app?vid=cf4db056-d3f7-4001-aa54-c43d57090a49"},"vehicle_type_id":"4","last_reported":1745003268,"current_range_meters":9200,"station_id":"ce4bhu92rcd13ifvqi70","pricing_plan_id":"cebpf4jnsgd1na2vs0mg"},{"bike_id":"f9ca6a4d-bd46-472b-9e76-cb0f86073571","system_id":"levelo_inurba_marseille","lat":43.25397,"lon":5.41904,"is_reserved":false,"is_disabled":false,"rental_uris":{"android":"levelo://app?vid=f9ca6a4d-bd46-472b-9e76-cb0f86073571","ios":"levelo://app?vid=f9ca6a4d-bd46-472b-9e76-cb0f86073571"},"vehicle_type_id":"4","last_reported":1745003268,"current_range_meters":9200,"station_id":"","pricing_plan_id":"cebpf4jnsgd1na2vs0mg"},{"bike_id":"d2ea8807-bd57-4df4-9d4f-b9a9c5d2d9b2","system_id":"levelo_inurba_marseille","lat":43.2953,"lon":5.39042,"is_reserved":false,"is_disabled":false,"rental_uris":{"android":"levelo://app?vid=d2ea8807-bd57-4df4-9d4f-b9a9c5d2d9b2","ios":"levelo://app?vid=d2ea8807-bd57-4df4-9d4f-b9a9c5d2d9b2"},"vehicle_type_id":"4","last_reported":1745003268,"current_range_meters":8800,"station_id":"ce4bh3p2rcd13ifvqdp0","pricing_plan_id":"cebpf4jnsgd1na2vs0mg"},{"bike_id":"0f0c2c9d-c11a-480f-8137-c5315e4ded3a","system_id":"levelo_inurba_marseille","lat":43.23197,"lon":5.35526,"is_reserved":false,"is_disabled":false,"rental_uris":{"android":"levelo://app?vid=0f0c2c9d-c11a-480f-8137-c5315e4ded3a","ios":"levelo://app?vid=0f0c2c9d-c11a-480f-8137-c5315e4ded3a"},"vehicle_type_id":"4","last_reported":1745003268,"current_range_meters":9200,"station_id":"ce4bhu92rcd13ifvqi70","pricing_plan_id":"cebpf4jnsgd1na2vs0mg"},{"bike_id":"4cd53476-67ac-4128-b155-1bdcceee2e72","system_id":"levelo_inurba_marseille","lat":43.29027,"lon":5.38645,"is_reserved":false,"is_disabled":false,"rental_uris":{"android":"levelo://app?vid=4cd53476-67ac-4128-b155-1bdcceee2e72","ios":"levelo://app?vid=4cd53476-67ac-4128-b155-1bdcceee2e72"},"vehicle_type_id":"4","last_reported":1745003268,"current_range_meters":9200,"station_id":"ce4bh4p2rcd13ifvqe0g","pricing_plan_id":"cebpf4jnsgd1na2vs0mg"},{"bike_id":"7f174117-e5d9-4e09-9d71-4a11ef6882f7","system_id":"levelo_inurba_marseille","lat":43.24681,"lon":5.38144,"is_reserved":false,"is_disabled":false,"rental_uris":{"android":"levelo://app?vid=7f174117-e5d9-4e09-9d71-4a11ef6882f7","ios":"levelo://app?vid=7f174117-e5d9-4e09-9d71-4a11ef6882f7"},"vehicle_type_id":"4","last_reported":1745003268,"current_range_meters":9200,"station_id":"ce4bhih2rcd13ifvqfr0","pricing_plan_id":"cebpf4jnsgd1na2vs0mg"},{"bike_id":"9d4ab737-12d9-4c73-b925-3248fc805df1","system_id":"levelo_inurba_marseille","lat":43.29175,"lon":5.3715,"is_reserved":false,"is_disabled":false,"rental_uris":{"android":"levelo://app?vid=9d4ab737-12d9-4c73-b925-3248fc805df1","ios":"levelo://app?vid=9d4ab737-12d9-4c73-b925-3248fc805df1"},"vehicle_type_id":"4","last_reported":1745003268,"current_range_meters":9200,"station_id":"ce4bha92rcd13ifvqeh0","pricing_plan_id":"cebpf4jnsgd1na2vs0mg"},{"bike_id":"38d71541-39fa-44bc-b9fa-dad7cbdc7434","system_id":"levelo_inurba_marseille","lat":43.28758,"lon":5.38658,"is_reserved":false,"is_disabled":false,"rental_uris":{"android":"levelo://app?vid=38d71541-39fa-44bc-b9fa-dad7cbdc7434","ios":"levelo://app?vid=38d71541-39fa-44bc-b9fa-dad7cbdc7434"},"vehicle_type_id":"4","last_reported":1745003268,"current_range_meters":9200,"station_id":"","pricing_plan_id":"cebpf4jnsgd1na2vs0mg"},{"bike_id":"2b1ea31b-f29c-4572-bb75-8752f9960ecd","system_id":"levelo_inurba_marseille","lat":43.30142,"lon":5.387796,"is_reserved":false,"is_disabled":false,"rental_uris":{"android":"levelo://app?vid=2b1ea31b-f29c-4572-bb75-8752f9960ecd","ios":"levelo://app?vid=2b1ea31b-f29c-4572-bb75-8752f9960ecd"},"vehicle_type_id":"4","last_reported":1745003268,"current_range_meters":9600,"station_id":"ce4bghh2rcd13ifvqb60","pricing_plan_id":"cebpf4jnsgd1na2vs0mg"},{"bike_id":"1210dc72-37b8-49f7-b249-6faa54daba28","system_id":"levelo_inurba_marseille","lat":43.324,"lon":5.36592,"is_reserved":false,"is_disabled":false,"rental_uris":{"android":"levelo://app?vid=1210dc72-37b8-49f7-b249-6faa54daba28","ios":"levelo://app?vid=1210dc72-37b8-49f7-b249-6faa54daba28"},"vehicle_type_id":"4","last_reported":1745003268,"current_range_meters":9600,"station_id":"","pricing_plan_id":"cebpf4jnsgd1na2vs0mg"},{"bike_id":"2e775fbf-713f-4b00-91cd-fb38108a9ed5","system_id":"levelo_inurba_marseille","lat":43.28082,"lon":5.39666,"is_reserved":false,"is_disabled":false,"rental_uris":{"android":"levelo://app?vid=2e775fbf-713f-4b00-91cd-fb38108a9ed5","ios":"levelo://app?vid=2e775fbf-713f-4b00-91cd-fb38108a9ed5"},"vehicle_type_id":"4","last_reported":1745003268,"current_range_meters":9600,"station_id":"ce4bho12rcd13ifvqh2g","pricing_plan_id":"cebpf4jnsgd1na2vs0mg"},{"bike_id":"d2c2f125-3b1d-4b50-bea7-5a4c767f45b2","system_id":"levelo_inurba_marseille","lat":43.29365,"lon":5.37853,"is_reserved":false,"is_disabled":false,"rental_uris":{"android":"levelo://app?vid=d2c2f125-3b1d-4b50-bea7-5a4c767f45b2","ios":"levelo://app?vid=d2c2f125-3b1d-4b50-bea7-5a4c767f45b2"},"vehicle_type_id":"4","last_reported":1745003268,"current_range_meters":9200,"station_id":"ce4bgjh2rcd13ifvqbf0","pricing_plan_id":"cebpf4jnsgd1na2vs0mg"},{"bike_id":"5942e936-0638-49c0-b5b4-ad5358ca064f","system_id":"levelo_inurba_marseille","lat":43.29258,"lon":5.38446,"is_reserved":false,"is_disabled":false,"rental_uris":{"android":"levelo://app?vid=5942e936-0638-49c0-b5b4-ad5358ca064f","ios":"levelo://app?vid=5942e936-0638-49c0-b5b4-ad5358ca064f"},"vehicle_type_id":"4","last_reported":1745003268,"current_range_meters":9600,"station_id":"ce4bh692rcd13ifvqea0","pricing_plan_id":"cebpf4jnsgd1na2vs0mg"},{"bike_id":"92ef9b57-ef0f-4670-96c3-49db45d89c4e","system_id":"levelo_inurba_marseille","lat":43.29431,"lon":5.38611,"is_reserved":false,"is_disabled":false,"rental_uris":{"android":"levelo://app?vid=92ef9b57-ef0f-4670-96c3-49db45d89c4e","ios":"levelo://app?vid=92ef9b57-ef0f-4670-96c3-49db45d89c4e"},"vehicle_type_id":"4","last_reported":1745003268,"current_range_meters":9600,"station_id":"ce4bh2h2rcd13ifvqdh0","pricing_plan_id":"cebpf4jnsgd1na2vs0mg"},{"bike_id":"5548ffe0-cb1a-45d9-bdce-46f85b3c1ba3","system_id":"levelo_inurba_marseille","lat":43.28153,"lon":5.42647,"is_reserved":false,"is_disabled":false,"rental_uris":{"android":"levelo://app?vid=5548ffe0-cb1a-45d9-bdce-46f85b3c1ba3","ios":"levelo://app?vid=5548ffe0-cb1a-45d9-bdce-46f85b3c1ba3"},"vehicle_type_id":"4","last_reported":1745003268,"current_range_meters":9600,"station_id":"ce4bhnh2rcd13ifvqgug","pricing_plan_id":"cebpf4jnsgd1na2vs0mg"},{"bike_id":"2d5e0c9c-0ffb-477c-b643-a218fa5eee9b","system_id":"levelo_inurba_marseille","lat":43.29298,"lon":5.3746,"is_reserved":false,"is_disabled":false,"rental_uris":{"android":"levelo://app?vid=2d5e0c9c-0ffb-477c-b643-a218fa5eee9b","ios":"levelo://app?vid=2d5e0c9c-0ffb-477c-b643-a218fa5eee9b"},"vehicle_type_id":"4","last_reported":1745003268,"current_range_meters":9600,"station_id":"ce4bgi12rcd13ifvqb70","pricing_plan_id":"cebpf4jnsgd1na2vs0mg"},{"bike_id":"83a0447d-cd43-441f-bfc0-791a3c75cd8a","system_id":"levelo_inurba_marseille","lat":43.26217,"lon":5.37435,"is_reserved":false,"is_disabled":false,"rental_uris":{"android":"levelo://app?vid=83a0447d-cd43-441f-bfc0-791a3c75cd8a","ios":"levelo://app?vid=83a0447d-cd43-441f-bfc0-791a3c75cd8a"},"vehicle_type_id":"4","last_reported":1745003268,"current_range_meters":9600,"station_id":"ce4bhgp2rcd13ifvqfc0","pricing_plan_id":"cebpf4jnsgd1na2vs0mg"},{"bike_id":"50dc23ed-5e19-46ee-92cf-f2ca4c445852","system_id":"levelo_inurba_marseille","lat":43.33718,"lon":5.39192,"is_reserved":false,"is_disabled":false,"rental_uris":{"android":"levelo://app?vid=50dc23ed-5e19-46ee-92cf-f2ca4c445852","ios":"levelo://app?vid=50dc23ed-5e19-46ee-92cf-f2ca4c445852"},"vehicle_type_id":"4","last_reported":1745003268,"current_range_meters":9600,"station_id":"ce4bhr92rcd13ifvqhsg","pricing_plan_id":"cebpf4jnsgd1na2vs0mg"},{"bike_id":"17642069-7989-4aab-a602-6ec6914a863c","system_id":"levelo_inurba_marseille","lat":43.294159,"lon":5.386061,"is_reserved":false,"is_disabled":false,"rental_uris":{"android":"levelo://app?vid=17642069-7989-4aab-a602-6ec6914a863c","ios":"levelo://app?vid=17642069-7989-4aab-a602-6ec6914a863c"},"vehicle_type_id":"4","last_reported":1745003268,"current_range_meters":9600,"station_id":"ce4bh2h2rcd13ifvqdh0","pricing_plan_id":"cebpf4jnsgd1na2vs0mg"},{"bike_id":"beeab3bb-45d8-460a-95bb-1f1944c7f006","system_id":"levelo_inurba_marseille","lat":43.29105,"lon":5.38133,"is_reserved":false,"is_disabled":false,"rental_uris":{"android":"levelo://app?vid=beeab3bb-45d8-460a-95bb-1f1944c7f006","ios":"levelo://app?vid=beeab3bb-45d8-460a-95bb-1f1944c7f006"},"vehicle_type_id":"4","last_reported":1745003268,"current_range_meters":9600,"station_id":"ce4bh512rcd13ifvqe2g","pricing_plan_id":"cebpf4jnsgd1na2vs0mg"},{"bike_id":"28654726-25ec-4f0a-9a9c-d2417671d9dc","system_id":"levelo_inurba_marseille","lat":43.29413,"lon":5.38692,"is_reserved":false,"is_disabled":false,"rental_uris":{"android":"levelo://app?vid=28654726-25ec-4f0a-9a9c-d2417671d9dc","ios":"levelo://app?vid=28654726-25ec-4f0a-9a9c-d2417671d9dc"},"vehicle_type_id":"4","last_reported":1745003268,"current_range_meters":10000,"station_id":"","pricing_plan_id":"cebpf4jnsgd1na2vs0mg"},{"bike_id":"9cfa0569-f4ce-413e-a964-cac35f2f3a97","system_id":"levelo_inurba_marseille","lat":43.30141,"lon":5.38785,"is_reserved":false,"is_disabled":false,"rental_uris":{"android":"levelo://app?vid=9cfa0569-f4ce-413e-a964-cac35f2f3a97","ios":"levelo://app?vid=9cfa0569-f4ce-413e-a964-cac35f2f3a97"},"vehicle_type_id":"4","last_reported":1745003268,"current_range_meters":10000,"station_id":"ce4bghh2rcd13ifvqb60","pricing_plan_id":"cebpf4jnsgd1na2vs0mg"},{"bike_id":"91b0f96d-1a6e-4e28-98b9-2c86f2485aee","system_id":"levelo_inurba_marseille","lat":43.32416,"lon":5.39048,"is_reserved":false,"is_disabled":false,"rental_uris":{"android":"levelo://app?vid=91b0f96d-1a6e-4e28-98b9-2c86f2485aee","ios":"levelo://app?vid=91b0f96d-1a6e-4e28-98b9-2c86f2485aee"},"vehicle_type_id":"4","last_reported":1745003268,"current_range_meters":10000,"station_id":"","pricing_plan_id":"cebpf4jnsgd1na2vs0mg"},{"bike_id":"026998ee-2fc5-4abb-8898-81f2af563a8f","system_id":"levelo_inurba_marseille","lat":43.29713,"lon":5.37692,"is_reserved":false,"is_disabled":true,"rental_uris":{"android":"levelo://app?vid=026998ee-2fc5-4abb-8898-81f2af563a8f","ios":"levelo://app?vid=026998ee-2fc5-4abb-8898-81f2af563a8f"},"vehicle_type_id":"4","last_reported":1745003268,"current_range_meters":10000,"station_id":"ce4bgkh2rcd13ifvqbl0","pricing_plan_id":"cebpf4jnsgd1na2vs0mg"},{"bike_id":"ab61782c-cb10-4dda-acee-b506f63baea8","system_id":"levelo_inurba_marseille","lat":43.29424,"lon":5.3861,"is_reserved":false,"is_disabled":false,"rental_uris":{"android":"levelo://app?vid=ab61782c-cb10-4dda-acee-b506f63baea8","ios":"levelo://app?vid=ab61782c-cb10-4dda-acee-b506f63baea8"},"vehicle_type_id":"4","last_reported":1745003268,"current_range_meters":10000,"station_id":"ce4bh2h2rcd13ifvqdh0","pricing_plan_id":"cebpf4jnsgd1na2vs0mg"},{"bike_id":"90e906c6-6298-4815-ac97-19e0458a0e64","system_id":"levelo_inurba_marseille","lat":43.30276,"lon":5.37719,"is_reserved":false,"is_disabled":false,"rental_uris":{"android":"levelo://app?vid=90e906c6-6298-4815-ac97-19e0458a0e64","ios":"levelo://app?vid=90e906c6-6298-4815-ac97-19e0458a0e64"},"vehicle_type_id":"4","last_reported":1745003268,"current_range_meters":10000,"station_id":"ce4bguh2rcd13ifvqcj0","pricing_plan_id":"cebpf4jnsgd1na2vs0mg"},{"bike_id":"2beed655-f41f-4a2a-83b2-51d24e10bf8d","system_id":"levelo_inurba_marseille","lat":43.29886,"lon":5.38899,"is_reserved":false,"is_disabled":false,"rental_uris":{"android":"levelo://app?vid=2beed655-f41f-4a2a-83b2-51d24e10bf8d","ios":"levelo://app?vid=2beed655-f41f-4a2a-83b2-51d24e10bf8d"},"vehicle_type_id":"4","last_reported":1745003268,"current_range_meters":10000,"station_id":"ce4bh392rcd13ifvqdl0","pricing_plan_id":"cebpf4jnsgd1na2vs0mg"},{"bike_id":"9b4d5e07-bf1a-4418-b544-e78b0d83a1c0","system_id":"levelo_inurba_marseille","lat":43.26226,"lon":5.40453,"is_reserved":false,"is_disabled":false,"rental_uris":{"android":"levelo://app?vid=9b4d5e07-bf1a-4418-b544-e78b0d83a1c0","ios":"levelo://app?vid=9b4d5e07-bf1a-4418-b544-e78b0d83a1c0"},"vehicle_type_id":"4","last_reported":1745003268,"current_range_meters":10000,"station_id":"ce4bhmh2rcd13ifvqgmg","pricing_plan_id":"cebpf4jnsgd1na2vs0mg"},{"bike_id":"63a074fa-273d-44ab-a149-f387b6cacec8","system_id":"levelo_inurba_marseille","lat":43.29168,"lon":5.37147,"is_reserved":false,"is_disabled":false,"rental_uris":{"android":"levelo://app?vid=63a074fa-273d-44ab-a149-f387b6cacec8","ios":"levelo://app?vid=63a074fa-273d-44ab-a149-f387b6cacec8"},"vehicle_type_id":"4","last_reported":1745003268,"current_range_meters":10800,"station_id":"ce4bha92rcd13ifvqeh0","pricing_plan_id":"cebpf4jnsgd1na2vs0mg"},{"bike_id":"682aafef-3abf-4b14-b545-4cc1341f10cb","system_id":"levelo_inurba_marseille","lat":43.33729,"lon":5.39187,"is_reserved":false,"is_disabled":false,"rental_uris":{"android":"levelo://app?vid=682aafef-3abf-4b14-b545-4cc1341f10cb","ios":"levelo://app?vid=682aafef-3abf-4b14-b545-4cc1341f10cb"},"vehicle_type_id":"4","last_reported":1745003268,"current_range_meters":10800,"station_id":"ce4bhr92rcd13ifvqhsg","pricing_plan_id":"cebpf4jnsgd1na2vs0mg"},{"bike_id":"36ed5a67-0f48-4180-8190-b0eca2975deb","system_id":"levelo_inurba_marseille","lat":43.29263,"lon":5.38437,"is_reserved":false,"is_disabled":false,"rental_uris":{"android":"levelo://app?vid=36ed5a67-0f48-4180-8190-b0eca2975deb","ios":"levelo://app?vid=36ed5a67-0f48-4180-8190-b0eca2975deb"},"vehicle_type_id":"4","last_reported":1745003268,"current_range_meters":10800,"station_id":"ce4bh692rcd13ifvqea0","pricing_plan_id":"cebpf4jnsgd1na2vs0mg"},{"bike_id":"bfb16fd0-cd03-49d9-9843-0c4efbea0c05","system_id":"levelo_inurba_marseille","lat":43.2991,"lon":5.38142,"is_reserved":false,"is_disabled":false,"rental_uris":{"android":"levelo://app?vid=bfb16fd0-cd03-49d9-9843-0c4efbea0c05","ios":"levelo://app?vid=bfb16fd0-cd03-49d9-9843-0c4efbea0c05"},"vehicle_type_id":"4","last_reported":1745003268,"current_range_meters":10800,"station_id":"ce4bgj12rcd13ifvqbc0","pricing_plan_id":"cebpf4jnsgd1na2vs0mg"},{"bike_id":"3fb00f12-f422-4c57-93cf-c85631c66627","system_id":"levelo_inurba_marseille","lat":43.28912,"lon":5.39569,"is_reserved":false,"is_disabled":false,"rental_uris":{"android":"levelo://app?vid=3fb00f12-f422-4c57-93cf-c85631c66627","ios":"levelo://app?vid=3fb00f12-f422-4c57-93cf-c85631c66627"},"vehicle_type_id":"4","last_reported":1745003268,"current_range_meters":10800,"station_id":"","pricing_plan_id":"cebpf4jnsgd1na2vs0mg"},{"bike_id":"02b77d53-67ac-4f0f-aef7-9d0b7eb169da","system_id":"levelo_inurba_marseille","lat":43.29044,"lon":5.38668,"is_reserved":false,"is_disabled":false,"rental_uris":{"android":"levelo://app?vid=02b77d53-67ac-4f0f-aef7-9d0b7eb169da","ios":"levelo://app?vid=02b77d53-67ac-4f0f-aef7-9d0b7eb169da"},"vehicle_type_id":"4","last_reported":1745003268,"current_range_meters":10800,"station_id":"ce4bh4p2rcd13ifvqe0g","pricing_plan_id":"cebpf4jnsgd1na2vs0mg"},{"bike_id":"db683e79-1939-434e-b081-b9990fd856fe","system_id":"levelo_inurba_marseille","lat":43.22943,"lon":5.35376,"is_reserved":false,"is_disabled":false,"rental_uris":{"android":"levelo://app?vid=db683e79-1939-434e-b081-b9990fd856fe","ios":"levelo://app?vid=db683e79-1939-434e-b081-b9990fd856fe"},"vehicle_type_id":"4","last_reported":1745003268,"current_range_meters":10800,"station_id":"cpo3532slgdg3j2ikp40","pricing_plan_id":"cebpf4jnsgd1na2vs0mg"},{"bike_id":"cff69856-04ff-4a2b-8ae9-354d32591735","system_id":"levelo_inurba_marseille","lat":43.29438,"lon":5.38629,"is_reserved":false,"is_disabled":false,"rental_uris":{"android":"levelo://app?vid=cff69856-04ff-4a2b-8ae9-354d32591735","ios":"levelo://app?vid=cff69856-04ff-4a2b-8ae9-354d32591735"},"vehicle_type_id":"4","last_reported":1745003268,"current_range_meters":10800,"station_id":"ce4bh2h2rcd13ifvqdh0","pricing_plan_id":"cebpf4jnsgd1na2vs0mg"},{"bike_id":"01e72403-7515-45aa-ac43-d12f1f0c5d88","system_id":"levelo_inurba_marseille","lat":43.295959,"lon":5.375333,"is_reserved":false,"is_disabled":false,"rental_uris":{"android":"levelo://app?vid=01e72403-7515-45aa-ac43-d12f1f0c5d88","ios":"levelo://app?vid=01e72403-7515-45aa-ac43-d12f1f0c5d88"},"vehicle_type_id":"4","last_reported":1745003268,"current_range_meters":13600,"station_id":"ce4bhb12rcd13ifvqel0","pricing_plan_id":"cebpf4jnsgd1na2vs0mg"},{"bike_id":"5ab4a80e-364b-48b0-a070-906bb9e16755","system_id":"levelo_inurba_marseille","lat":43.31994,"lon":5.38144,"is_reserved":false,"is_disabled":false,"rental_uris":{"android":"levelo://app?vid=5ab4a80e-364b-48b0-a070-906bb9e16755","ios":"levelo://app?vid=5ab4a80e-364b-48b0-a070-906bb9e16755"},"vehicle_type_id":"4","last_reported":1745003268,"current_range_meters":11200,"station_id":"ce4bhr12rcd13ifvqhpg","pricing_plan_id":"cebpf4jnsgd1na2vs0mg"},{"bike_id":"4bcaca61-be58-49cf-89c9-274b98e3c699","system_id":"levelo_inurba_marseille","lat":43.32,"lon":5.38157,"is_reserved":false,"is_disabled":true,"rental_uris":{"android":"levelo://app?vid=4bcaca61-be58-49cf-89c9-274b98e3c699","ios":"levelo://app?vid=4bcaca61-be58-49cf-89c9-274b98e3c699"},"vehicle_type_id":"4","last_reported":1745003268,"current_range_meters":11200,"station_id":"ce4bhr12rcd13ifvqhpg","pricing_plan_id":"cebpf4jnsgd1na2vs0mg"},{"bike_id":"5a1624b7-5413-4d98-9942-27c3de693971","system_id":"levelo_inurba_marseille","lat":43.3033,"lon":5.40432,"is_reserved":false,"is_disabled":false,"rental_uris":{"android":"levelo://app?vid=5a1624b7-5413-4d98-9942-27c3de693971","ios":"levelo://app?vid=5a1624b7-5413-4d98-9942-27c3de693971"},"vehicle_type_id":"4","last_reported":1745003268,"current_range_meters":14000,"station_id":"ce4bh012rcd13ifvqd10","pricing_plan_id":"cebpf4jnsgd1na2vs0mg"},{"bike_id":"a2d38a3f-a3d4-4408-b507-df7620f98c93","system_id":"levelo_inurba_marseille","lat":43.248046,"lon":5.374562,"is_reserved":false,"is_disabled":false,"rental_uris":{"android":"levelo://app?vid=a2d38a3f-a3d4-4408-b507-df7620f98c93","ios":"levelo://app?vid=a2d38a3f-a3d4-4408-b507-df7620f98c93"},"vehicle_type_id":"4","last_reported":1745003268,"current_range_meters":10800,"station_id":"ce4bhg92rcd13ifvqf90","pricing_plan_id":"cebpf4jnsgd1na2vs0mg"},{"bike_id":"934a8fc0-98f8-4aaf-a145-d485dee937c7","system_id":"levelo_inurba_marseille","lat":43.32358,"lon":5.3675,"is_reserved":false,"is_disabled":false,"rental_uris":{"android":"levelo://app?vid=934a8fc0-98f8-4aaf-a145-d485dee937c7","ios":"levelo://app?vid=934a8fc0-98f8-4aaf-a145-d485dee937c7"},"vehicle_type_id":"4","last_reported":1745003268,"current_range_meters":11200,"station_id":"ce4bhsh2rcd13ifvqi2g","pricing_plan_id":"cebpf4jnsgd1na2vs0mg"},{"bike_id":"2af940b0-8be3-42bb-8448-46eea25b08f6","system_id":"levelo_inurba_marseille","lat":43.29577,"lon":5.36732,"is_reserved":false,"is_disabled":false,"rental_uris":{"android":"levelo://app?vid=2af940b0-8be3-42bb-8448-46eea25b08f6","ios":"levelo://app?vid=2af940b0-8be3-42bb-8448-46eea25b08f6"},"vehicle_type_id":"4","last_reported":1745003268,"current_range_meters":11600,"station_id":"ce4bgph2rcd13ifvqc2g","pricing_plan_id":"cebpf4jnsgd1na2vs0mg"},{"bike_id":"26c15f87-ae77-4a5b-bc72-584c09827ecb","system_id":"levelo_inurba_marseille","lat":43.29172,"lon":5.37156,"is_reserved":false,"is_disabled":false,"rental_uris":{"android":"levelo://app?vid=26c15f87-ae77-4a5b-bc72-584c09827ecb","ios":"levelo://app?vid=26c15f87-ae77-4a5b-bc72-584c09827ecb"},"vehicle_type_id":"4","last_reported":1745003268,"current_range_meters":11600,"station_id":"ce4bha92rcd13ifvqeh0","pricing_plan_id":"cebpf4jnsgd1na2vs0mg"},{"bike_id":"7e5de594-f4e8-4ae5-8d4c-a3076910649f","system_id":"levelo_inurba_marseille","lat":43.28,"lon":5.40012,"is_reserved":false,"is_disabled":false,"rental_uris":{"android":"levelo://app?vid=7e5de594-f4e8-4ae5-8d4c-a3076910649f","ios":"levelo://app?vid=7e5de594-f4e8-4ae5-8d4c-a3076910649f"},"vehicle_type_id":"4","last_reported":1745003268,"current_range_meters":11600,"station_id":"ce4bho92rcd13ifvqh4g","pricing_plan_id":"cebpf4jnsgd1na2vs0mg"},{"bike_id":"0412a1ca-4def-4ac7-bfaa-effc8cbb5510","system_id":"levelo_inurba_marseille","lat":43.229314,"lon":5.35377,"is_reserved":false,"is_disabled":false,"rental_uris":{"android":"levelo://app?vid=0412a1ca-4def-4ac7-bfaa-effc8cbb5510","ios":"levelo://app?vid=0412a1ca-4def-4ac7-bfaa-effc8cbb5510"},"vehicle_type_id":"4","last_reported":1745003268,"current_range_meters":11600,"station_id":"cpo3532slgdg3j2ikp40","pricing_plan_id":"cebpf4jnsgd1na2vs0mg"},{"bike_id":"417c5c67-275d-4c56-a715-6c8784d1242b","system_id":"levelo_inurba_marseille","lat":43.30546,"lon":5.38432,"is_reserved":false,"is_disabled":false,"rental_uris":{"android":"levelo://app?vid=417c5c67-275d-4c56-a715-6c8784d1242b","ios":"levelo://app?vid=417c5c67-275d-4c56-a715-6c8784d1242b"},"vehicle_type_id":"4","last_reported":1745003268,"current_range_meters":11600,"station_id":"ce4bgg92rcd13ifvqb30","pricing_plan_id":"cebpf4jnsgd1na2vs0mg"},{"bike_id":"ee182953-1571-4866-bb0a-d793046b2ff4","system_id":"levelo_inurba_marseille","lat":43.29095,"lon":5.38136,"is_reserved":false,"is_disabled":false,"rental_uris":{"android":"levelo://app?vid=ee182953-1571-4866-bb0a-d793046b2ff4","ios":"levelo://app?vid=ee182953-1571-4866-bb0a-d793046b2ff4"},"vehicle_type_id":"4","last_reported":1745003268,"current_range_meters":11600,"station_id":"ce4bh512rcd13ifvqe2g","pricing_plan_id":"cebpf4jnsgd1na2vs0mg"},{"bike_id":"d8d870e5-fde7-484e-bc75-b73e644173a7","system_id":"levelo_inurba_marseille","lat":43.28721,"lon":5.36085,"is_reserved":false,"is_disabled":false,"rental_uris":{"android":"levelo://app?vid=d8d870e5-fde7-484e-bc75-b73e644173a7","ios":"levelo://app?vid=d8d870e5-fde7-484e-bc75-b73e644173a7"},"vehicle_type_id":"4","last_reported":1745003268,"current_range_meters":11200,"station_id":"cki0cbj6b192h4jlfktg","pricing_plan_id":"cebpf4jnsgd1na2vs0mg"},{"bike_id":"a11540d7-3aa5-4ca9-99f7-73d591e3e259","system_id":"levelo_inurba_marseille","lat":43.29307,"lon":5.37187,"is_reserved":false,"is_disabled":false,"rental_uris":{"android":"levelo://app?vid=a11540d7-3aa5-4ca9-99f7-73d591e3e259","ios":"levelo://app?vid=a11540d7-3aa5-4ca9-99f7-73d591e3e259"},"vehicle_type_id":"4","last_reported":1745003268,"current_range_meters":11600,"station_id":"ce4bgh92rcd13ifvqb40","pricing_plan_id":"cebpf4jnsgd1na2vs0mg"},{"bike_id":"df467091-2cad-4ef2-90e9-87c9f7ee040c","system_id":"levelo_inurba_marseille","lat":43.322741,"lon":5.382792,"is_reserved":false,"is_disabled":false,"rental_uris":{"android":"levelo://app?vid=df467091-2cad-4ef2-90e9-87c9f7ee040c","ios":"levelo://app?vid=df467091-2cad-4ef2-90e9-87c9f7ee040c"},"vehicle_type_id":"4","last_reported":1745003268,"current_range_meters":11600,"station_id":"ce4bhr12rcd13ifvqhqg","pricing_plan_id":"cebpf4jnsgd1na2vs0mg"},{"bike_id":"d4a81327-087b-420b-805e-36808c966b3c","system_id":"levelo_inurba_marseille","lat":43.28921,"lon":5.36641,"is_reserved":false,"is_disabled":false,"rental_uris":{"android":"levelo://app?vid=d4a81327-087b-420b-805e-36808c966b3c","ios":"levelo://app?vid=d4a81327-087b-420b-805e-36808c966b3c"},"vehicle_type_id":"4","last_reported":1745003268,"current_range_meters":12000,"station_id":"ce4bhap2rcd13ifvqek0","pricing_plan_id":"cebpf4jnsgd1na2vs0mg"},{"bike_id":"c09b1ff6-1e1f-4cd6-9ee9-4e1b23955bbc","system_id":"levelo_inurba_marseille","lat":43.231965,"lon":5.355517,"is_reserved":false,"is_disabled":true,"rental_uris":{"android":"levelo://app?vid=c09b1ff6-1e1f-4cd6-9ee9-4e1b23955bbc","ios":"levelo://app?vid=c09b1ff6-1e1f-4cd6-9ee9-4e1b23955bbc"},"vehicle_type_id":"4","last_reported":1745003268,"current_range_meters":12000,"station_id":"ce4bhu92rcd13ifvqi70","pricing_plan_id":"cebpf4jnsgd1na2vs0mg"},{"bike_id":"b548ebe5-1c23-4158-a043-5345beee3847","system_id":"levelo_inurba_marseille","lat":43.29407,"lon":5.3856,"is_reserved":false,"is_disabled":false,"rental_uris":{"android":"levelo://app?vid=b548ebe5-1c23-4158-a043-5345beee3847","ios":"levelo://app?vid=b548ebe5-1c23-4158-a043-5345beee3847"},"vehicle_type_id":"4","last_reported":1745003268,"current_range_meters":12000,"station_id":"ce4bh2h2rcd13ifvqdh0","pricing_plan_id":"cebpf4jnsgd1na2vs0mg"},{"bike_id":"dc8e8b08-311f-4123-bdbc-19651a9dc4f8","system_id":"levelo_inurba_marseille","lat":43.24111,"lon":5.37759,"is_reserved":false,"is_disabled":false,"rental_uris":{"android":"levelo://app?vid=dc8e8b08-311f-4123-bdbc-19651a9dc4f8","ios":"levelo://app?vid=dc8e8b08-311f-4123-bdbc-19651a9dc4f8"},"vehicle_type_id":"4","last_reported":1745003268,"current_range_meters":12000,"station_id":"ce4bhnp2rcd13ifvqgvg","pricing_plan_id":"cebpf4jnsgd1na2vs0mg"},{"bike_id":"e9c5ee9f-77a7-4de0-8179-93882aa10d6e","system_id":"levelo_inurba_marseille","lat":43.24826,"lon":5.37447,"is_reserved":false,"is_disabled":false,"rental_uris":{"android":"levelo://app?vid=e9c5ee9f-77a7-4de0-8179-93882aa10d6e","ios":"levelo://app?vid=e9c5ee9f-77a7-4de0-8179-93882aa10d6e"},"vehicle_type_id":"4","last_reported":1745003268,"current_range_meters":12000,"station_id":"ce4bhgh2rcd13ifvqfb0","pricing_plan_id":"cebpf4jnsgd1na2vs0mg"},{"bike_id":"b9752cb7-fb27-470b-814a-a83851de7d41","system_id":"levelo_inurba_marseille","lat":43.32474,"lon":5.36566,"is_reserved":false,"is_disabled":false,"rental_uris":{"android":"levelo://app?vid=b9752cb7-fb27-470b-814a-a83851de7d41","ios":"levelo://app?vid=b9752cb7-fb27-470b-814a-a83851de7d41"},"vehicle_type_id":"4","last_reported":1745003268,"current_range_meters":12000,"station_id":"ce4bhs12rcd13ifvqhvg","pricing_plan_id":"cebpf4jnsgd1na2vs0mg"},{"bike_id":"a0ddb0a5-f7f0-4281-aa27-9e82747cc573","system_id":"levelo_inurba_marseille","lat":43.33754,"lon":5.37491,"is_reserved":false,"is_disabled":false,"rental_uris":{"android":"levelo://app?vid=a0ddb0a5-f7f0-4281-aa27-9e82747cc573","ios":"levelo://app?vid=a0ddb0a5-f7f0-4281-aa27-9e82747cc573"},"vehicle_type_id":"4","last_reported":1745003268,"current_range_meters":12000,"station_id":"","pricing_plan_id":"cebpf4jnsgd1na2vs0mg"},{"bike_id":"9e9cbba7-48da-45ef-8ec5-899bf5e8a253","system_id":"levelo_inurba_marseille","lat":43.24077,"lon":5.37761,"is_reserved":false,"is_disabled":false,"rental_uris":{"android":"levelo://app?vid=9e9cbba7-48da-45ef-8ec5-899bf5e8a253","ios":"levelo://app?vid=9e9cbba7-48da-45ef-8ec5-899bf5e8a253"},"vehicle_type_id":"4","last_reported":1745003268,"current_range_meters":12400,"station_id":"ce4bhnp2rcd13ifvqgvg","pricing_plan_id":"cebpf4jnsgd1na2vs0mg"},{"bike_id":"ca448678-1dde-4f9f-8719-2fcd6cc10887","system_id":"levelo_inurba_marseille","lat":43.28486,"lon":5.3856,"is_reserved":false,"is_disabled":false,"rental_uris":{"android":"levelo://app?vid=ca448678-1dde-4f9f-8719-2fcd6cc10887","ios":"levelo://app?vid=ca448678-1dde-4f9f-8719-2fcd6cc10887"},"vehicle_type_id":"4","last_reported":1745003268,"current_range_meters":12400,"station_id":"ce4bh8p2rcd13ifvqeb0","pricing_plan_id":"cebpf4jnsgd1na2vs0mg"},{"bike_id":"2521a350-ef67-406e-97dd-8e229ac28a69","system_id":"levelo_inurba_marseille","lat":43.28947,"lon":5.36645,"is_reserved":false,"is_disabled":false,"rental_uris":{"android":"levelo://app?vid=2521a350-ef67-406e-97dd-8e229ac28a69","ios":"levelo://app?vid=2521a350-ef67-406e-97dd-8e229ac28a69"},"vehicle_type_id":"4","last_reported":1745003268,"current_range_meters":12400,"station_id":"ce4bhap2rcd13ifvqek0","pricing_plan_id":"cebpf4jnsgd1na2vs0mg"},{"bike_id":"ac3b6de7-1104-4ece-b05f-759597ad0b79","system_id":"levelo_inurba_marseille","lat":43.30147,"lon":5.38792,"is_reserved":false,"is_disabled":false,"rental_uris":{"android":"levelo://app?vid=ac3b6de7-1104-4ece-b05f-759597ad0b79","ios":"levelo://app?vid=ac3b6de7-1104-4ece-b05f-759597ad0b79"},"vehicle_type_id":"4","last_reported":1745003268,"current_range_meters":12400,"station_id":"ce4bghh2rcd13ifvqb60","pricing_plan_id":"cebpf4jnsgd1na2vs0mg"},{"bike_id":"cfde33ff-e6f4-413d-9693-4774caf8c1d7","system_id":"levelo_inurba_marseille","lat":43.28918,"lon":5.38407,"is_reserved":false,"is_disabled":false,"rental_uris":{"android":"levelo://app?vid=cfde33ff-e6f4-413d-9693-4774caf8c1d7","ios":"levelo://app?vid=cfde33ff-e6f4-413d-9693-4774caf8c1d7"},"vehicle_type_id":"4","last_reported":1745003268,"current_range_meters":12400,"station_id":"ce4bh612rcd13ifvqe6g","pricing_plan_id":"cebpf4jnsgd1na2vs0mg"},{"bike_id":"14bfc94c-bac0-4c65-8a8f-04cdd164cd0e","system_id":"levelo_inurba_marseille","lat":43.29414,"lon":5.38643,"is_reserved":false,"is_disabled":false,"rental_uris":{"android":"levelo://app?vid=14bfc94c-bac0-4c65-8a8f-04cdd164cd0e","ios":"levelo://app?vid=14bfc94c-bac0-4c65-8a8f-04cdd164cd0e"},"vehicle_type_id":"4","last_reported":1745003268,"current_range_meters":12400,"station_id":"ce4bh2h2rcd13ifvqdh0","pricing_plan_id":"cebpf4jnsgd1na2vs0mg"},{"bike_id":"33efbe4e-e642-4271-be29-4926b421ca5b","system_id":"levelo_inurba_marseille","lat":43.24167,"lon":5.36396,"is_reserved":false,"is_disabled":false,"rental_uris":{"android":"levelo://app?vid=33efbe4e-e642-4271-be29-4926b421ca5b","ios":"levelo://app?vid=33efbe4e-e642-4271-be29-4926b421ca5b"},"vehicle_type_id":"4","last_reported":1745003268,"current_range_meters":12400,"station_id":"cpo36qri1sfpv3e86is0","pricing_plan_id":"cebpf4jnsgd1na2vs0mg"},{"bike_id":"bee0444d-380e-415d-9a66-5d9742a78bb7","system_id":"levelo_inurba_marseille","lat":43.29551,"lon":5.42293,"is_reserved":false,"is_disabled":false,"rental_uris":{"android":"levelo://app?vid=bee0444d-380e-415d-9a66-5d9742a78bb7","ios":"levelo://app?vid=bee0444d-380e-415d-9a66-5d9742a78bb7"},"vehicle_type_id":"4","last_reported":1745003268,"current_range_meters":12400,"station_id":"ce4bhph2rcd13ifvqhdg","pricing_plan_id":"cebpf4jnsgd1na2vs0mg"},{"bike_id":"a28a3f8c-38fc-4308-b382-75c9a725c27e","system_id":"levelo_inurba_marseille","lat":43.29433,"lon":5.38604,"is_reserved":false,"is_disabled":false,"rental_uris":{"android":"levelo://app?vid=a28a3f8c-38fc-4308-b382-75c9a725c27e","ios":"levelo://app?vid=a28a3f8c-38fc-4308-b382-75c9a725c27e"},"vehicle_type_id":"4","last_reported":1745003268,"current_range_meters":12400,"station_id":"ce4bh2h2rcd13ifvqdh0","pricing_plan_id":"cebpf4jnsgd1na2vs0mg"},{"bike_id":"a84688f5-ddc9-4712-806a-aac0865d582d","system_id":"levelo_inurba_marseille","lat":43.31891,"lon":5.40731,"is_reserved":false,"is_disabled":false,"rental_uris":{"android":"levelo://app?vid=a84688f5-ddc9-4712-806a-aac0865d582d","ios":"levelo://app?vid=a84688f5-ddc9-4712-806a-aac0865d582d"},"vehicle_type_id":"4","last_reported":1745003268,"current_range_meters":12400,"station_id":"ce4bhq12rcd13ifvqhig","pricing_plan_id":"cebpf4jnsgd1na2vs0mg"},{"bike_id":"53d0978b-d825-436e-a201-162caca96d5d","system_id":"levelo_inurba_marseille","lat":43.27609,"lon":5.36137,"is_reserved":false,"is_disabled":false,"rental_uris":{"android":"levelo://app?vid=53d0978b-d825-436e-a201-162caca96d5d","ios":"levelo://app?vid=53d0978b-d825-436e-a201-162caca96d5d"},"vehicle_type_id":"4","last_reported":1745003268,"current_range_meters":12400,"station_id":"ce4bgj92rcd13ifvqbe0","pricing_plan_id":"cebpf4jnsgd1na2vs0mg"},{"bike_id":"fe138ec5-1082-449c-9eaf-9288fd680334","system_id":"levelo_inurba_marseille","lat":43.25102,"lon":5.40334,"is_reserved":false,"is_disabled":false,"rental_uris":{"android":"levelo://app?vid=fe138ec5-1082-449c-9eaf-9288fd680334","ios":"levelo://app?vid=fe138ec5-1082-449c-9eaf-9288fd680334"},"vehicle_type_id":"4","last_reported":1745003268,"current_range_meters":12800,"station_id":"ce4bhlh2rcd13ifvqgig","pricing_plan_id":"cebpf4jnsgd1na2vs0mg"},{"bike_id":"773e4f31-1b77-4aad-b330-03d6c76954fb","system_id":"levelo_inurba_marseille","lat":43.29423,"lon":5.38619,"is_reserved":false,"is_disabled":false,"rental_uris":{"android":"levelo://app?vid=773e4f31-1b77-4aad-b330-03d6c76954fb","ios":"levelo://app?vid=773e4f31-1b77-4aad-b330-03d6c76954fb"},"vehicle_type_id":"4","last_reported":1745003268,"current_range_meters":12800,"station_id":"ce4bh2h2rcd13ifvqdh0","pricing_plan_id":"cebpf4jnsgd1na2vs0mg"},{"bike_id":"f869802b-18a3-4053-bdf7-4a684e9e133e","system_id":"levelo_inurba_marseille","lat":43.28935,"lon":5.36644,"is_reserved":false,"is_disabled":false,"rental_uris":{"android":"levelo://app?vid=f869802b-18a3-4053-bdf7-4a684e9e133e","ios":"levelo://app?vid=f869802b-18a3-4053-bdf7-4a684e9e133e"},"vehicle_type_id":"4","last_reported":1745003268,"current_range_meters":12800,"station_id":"ce4bhap2rcd13ifvqek0","pricing_plan_id":"cebpf4jnsgd1na2vs0mg"},{"bike_id":"ef6e9c6f-8f69-4fcf-9727-b556a001e5bc","system_id":"levelo_inurba_marseille","lat":43.29558,"lon":5.42293,"is_reserved":false,"is_disabled":false,"rental_uris":{"android":"levelo://app?vid=ef6e9c6f-8f69-4fcf-9727-b556a001e5bc","ios":"levelo://app?vid=ef6e9c6f-8f69-4fcf-9727-b556a001e5bc"},"vehicle_type_id":"4","last_reported":1745003268,"current_range_meters":12800,"station_id":"ce4bhph2rcd13ifvqhdg","pricing_plan_id":"cebpf4jnsgd1na2vs0mg"},{"bike_id":"2a261f88-3764-4cba-8208-7dface0e9631","system_id":"levelo_inurba_marseille","lat":43.28933,"lon":5.36625,"is_reserved":false,"is_disabled":false,"rental_uris":{"android":"levelo://app?vid=2a261f88-3764-4cba-8208-7dface0e9631","ios":"levelo://app?vid=2a261f88-3764-4cba-8208-7dface0e9631"},"vehicle_type_id":"4","last_reported":1745003268,"current_range_meters":12800,"station_id":"ce4bhap2rcd13ifvqek0","pricing_plan_id":"cebpf4jnsgd1na2vs0mg"},{"bike_id":"d2cfc9f6-8bb7-4bff-81e1-1bc6d0e7a8f0","system_id":"levelo_inurba_marseille","lat":43.31984,"lon":5.38142,"is_reserved":false,"is_disabled":false,"rental_uris":{"android":"levelo://app?vid=d2cfc9f6-8bb7-4bff-81e1-1bc6d0e7a8f0","ios":"levelo://app?vid=d2cfc9f6-8bb7-4bff-81e1-1bc6d0e7a8f0"},"vehicle_type_id":"4","last_reported":1745003268,"current_range_meters":12800,"station_id":"ce4bhr12rcd13ifvqhpg","pricing_plan_id":"cebpf4jnsgd1na2vs0mg"},{"bike_id":"4fe31a1a-47e1-4300-81c1-36feeb12404e","system_id":"levelo_inurba_marseille","lat":43.29281,"lon":5.38437,"is_reserved":false,"is_disabled":false,"rental_uris":{"android":"levelo://app?vid=4fe31a1a-47e1-4300-81c1-36feeb12404e","ios":"levelo://app?vid=4fe31a1a-47e1-4300-81c1-36feeb12404e"},"vehicle_type_id":"4","last_reported":1745003268,"current_range_meters":12800,"station_id":"ce4bh692rcd13ifvqea0","pricing_plan_id":"cebpf4jnsgd1na2vs0mg"},{"bike_id":"6cd98a68-dfc0-4aef-a25d-03e1f7826476","system_id":"levelo_inurba_marseille","lat":43.23669,"lon":5.37772,"is_reserved":false,"is_disabled":false,"rental_uris":{"android":"levelo://app?vid=6cd98a68-dfc0-4aef-a25d-03e1f7826476","ios":"levelo://app?vid=6cd98a68-dfc0-4aef-a25d-03e1f7826476"},"vehicle_type_id":"4","last_reported":1745003268,"current_range_meters":13600,"station_id":"","pricing_plan_id":"cebpf4jnsgd1na2vs0mg"},{"bike_id":"e60b8b06-f4fb-4308-9a64-8e0dd4f09968","system_id":"levelo_inurba_marseille","lat":43.29418,"lon":5.3864,"is_reserved":false,"is_disabled":false,"rental_uris":{"android":"levelo://app?vid=e60b8b06-f4fb-4308-9a64-8e0dd4f09968","ios":"levelo://app?vid=e60b8b06-f4fb-4308-9a64-8e0dd4f09968"},"vehicle_type_id":"4","last_reported":1745003268,"current_range_meters":13600,"station_id":"ce4bh2h2rcd13ifvqdh0","pricing_plan_id":"cebpf4jnsgd1na2vs0mg"},{"bike_id":"68342d9f-f0b6-47e7-b690-b27078e67a77","system_id":"levelo_inurba_marseille","lat":43.2416,"lon":5.36414,"is_reserved":false,"is_disabled":false,"rental_uris":{"android":"levelo://app?vid=68342d9f-f0b6-47e7-b690-b27078e67a77","ios":"levelo://app?vid=68342d9f-f0b6-47e7-b690-b27078e67a77"},"vehicle_type_id":"4","last_reported":1745003268,"current_range_meters":13600,"station_id":"cpo36qri1sfpv3e86is0","pricing_plan_id":"cebpf4jnsgd1na2vs0mg"},{"bike_id":"2d631212-32a5-40bb-9433-bc87636a39fe","system_id":"levelo_inurba_marseille","lat":43.2945,"lon":5.3862,"is_reserved":false,"is_disabled":false,"rental_uris":{"android":"levelo://app?vid=2d631212-32a5-40bb-9433-bc87636a39fe","ios":"levelo://app?vid=2d631212-32a5-40bb-9433-bc87636a39fe"},"vehicle_type_id":"4","last_reported":1745003268,"current_range_meters":13600,"station_id":"ce4bh2h2rcd13ifvqdh0","pricing_plan_id":"cebpf4jnsgd1na2vs0mg"},{"bike_id":"7ecb74f0-1b60-499f-a9b5-a9a623c1b5d2","system_id":"levelo_inurba_marseille","lat":43.29276,"lon":5.3844,"is_reserved":false,"is_disabled":false,"rental_uris":{"android":"levelo://app?vid=7ecb74f0-1b60-499f-a9b5-a9a623c1b5d2","ios":"levelo://app?vid=7ecb74f0-1b60-499f-a9b5-a9a623c1b5d2"},"vehicle_type_id":"4","last_reported":1745003268,"current_range_meters":13600,"station_id":"ce4bh692rcd13ifvqea0","pricing_plan_id":"cebpf4jnsgd1na2vs0mg"},{"bike_id":"18e745c3-947b-4834-85a0-69f7ba15084a","system_id":"levelo_inurba_marseille","lat":43.2893,"lon":5.38399,"is_reserved":false,"is_disabled":false,"rental_uris":{"android":"levelo://app?vid=18e745c3-947b-4834-85a0-69f7ba15084a","ios":"levelo://app?vid=18e745c3-947b-4834-85a0-69f7ba15084a"},"vehicle_type_id":"4","last_reported":1745003268,"current_range_meters":13600,"station_id":"ce4bh612rcd13ifvqe6g","pricing_plan_id":"cebpf4jnsgd1na2vs0mg"},{"bike_id":"e9eab627-d1cc-4251-9aaa-e6071603b415","system_id":"levelo_inurba_marseille","lat":43.28924,"lon":5.36649,"is_reserved":false,"is_disabled":false,"rental_uris":{"android":"levelo://app?vid=e9eab627-d1cc-4251-9aaa-e6071603b415","ios":"levelo://app?vid=e9eab627-d1cc-4251-9aaa-e6071603b415"},"vehicle_type_id":"4","last_reported":1745003268,"current_range_meters":13600,"station_id":"ce4bhap2rcd13ifvqek0","pricing_plan_id":"cebpf4jnsgd1na2vs0mg"},{"bike_id":"6f523da1-5f60-475c-93df-7a5b709bcac9","system_id":"levelo_inurba_marseille","lat":43.23218,"lon":5.35511,"is_reserved":false,"is_disabled":false,"rental_uris":{"android":"levelo://app?vid=6f523da1-5f60-475c-93df-7a5b709bcac9","ios":"levelo://app?vid=6f523da1-5f60-475c-93df-7a5b709bcac9"},"vehicle_type_id":"4","last_reported":1745003268,"current_range_meters":13600,"station_id":"ce4bhu92rcd13ifvqi70","pricing_plan_id":"cebpf4jnsgd1na2vs0mg"},{"bike_id":"512f633c-d839-4571-b311-d7c1989bbe04","system_id":"levelo_inurba_marseille","lat":43.273185,"lon":5.390744,"is_reserved":false,"is_disabled":false,"rental_uris":{"android":"levelo://app?vid=512f633c-d839-4571-b311-d7c1989bbe04","ios":"levelo://app?vid=512f633c-d839-4571-b311-d7c1989bbe04"},"vehicle_type_id":"4","last_reported":1745003268,"current_range_meters":14800,"station_id":"ce4bhgp2rcd13ifvqfe0","pricing_plan_id":"cebpf4jnsgd1na2vs0mg"},{"bike_id":"7eb8853e-3665-40f5-8308-1299f0674652","system_id":"levelo_inurba_marseille","lat":43.30379,"lon":5.42491,"is_reserved":false,"is_disabled":false,"rental_uris":{"android":"levelo://app?vid=7eb8853e-3665-40f5-8308-1299f0674652","ios":"levelo://app?vid=7eb8853e-3665-40f5-8308-1299f0674652"},"vehicle_type_id":"4","last_reported":1745003268,"current_range_meters":13600,"station_id":"ce4bhoh2rcd13ifvqh6g","pricing_plan_id":"cebpf4jnsgd1na2vs0mg"},{"bike_id":"84479aba-7dcf-4ed5-859b-fd33aa9ad312","system_id":"levelo_inurba_marseille","lat":43.29257,"lon":5.38431,"is_reserved":false,"is_disabled":false,"rental_uris":{"android":"levelo://app?vid=84479aba-7dcf-4ed5-859b-fd33aa9ad312","ios":"levelo://app?vid=84479aba-7dcf-4ed5-859b-fd33aa9ad312"},"vehicle_type_id":"4","last_reported":1745003268,"current_range_meters":13600,"station_id":"ce4bh692rcd13ifvqea0","pricing_plan_id":"cebpf4jnsgd1na2vs0mg"},{"bike_id":"1eaca8f5-0017-418a-9bfc-52185bf67513","system_id":"levelo_inurba_marseille","lat":43.33723,"lon":5.39188,"is_reserved":false,"is_disabled":false,"rental_uris":{"android":"levelo://app?vid=1eaca8f5-0017-418a-9bfc-52185bf67513","ios":"levelo://app?vid=1eaca8f5-0017-418a-9bfc-52185bf67513"},"vehicle_type_id":"4","last_reported":1745003268,"current_range_meters":14000,"station_id":"ce4bhr92rcd13ifvqhsg","pricing_plan_id":"cebpf4jnsgd1na2vs0mg"},{"bike_id":"0d8a11c4-6b70-4f7f-a29f-47a83c966805","system_id":"levelo_inurba_marseille","lat":43.31689,"lon":5.40473,"is_reserved":false,"is_disabled":false,"rental_uris":{"android":"levelo://app?vid=0d8a11c4-6b70-4f7f-a29f-47a83c966805","ios":"levelo://app?vid=0d8a11c4-6b70-4f7f-a29f-47a83c966805"},"vehicle_type_id":"4","last_reported":1745003268,"current_range_meters":14000,"station_id":"ce4bh012rcd13ifvqd00","pricing_plan_id":"cebpf4jnsgd1na2vs0mg"},{"bike_id":"709594ef-4d5a-43e4-8bb0-c482c9fa12f8","system_id":"levelo_inurba_marseille","lat":43.30876,"lon":5.39652,"is_reserved":false,"is_disabled":true,"rental_uris":{"android":"levelo://app?vid=709594ef-4d5a-43e4-8bb0-c482c9fa12f8","ios":"levelo://app?vid=709594ef-4d5a-43e4-8bb0-c482c9fa12f8"},"vehicle_type_id":"4","last_reported":1745003268,"current_range_meters":14000,"station_id":"ce4bh012rcd13ifvqcv0","pricing_plan_id":"cebpf4jnsgd1na2vs0mg"},{"bike_id":"ef871c8e-2013-4622-a683-0ab17a74d870","system_id":"levelo_inurba_marseille","lat":43.23189,"lon":5.35566,"is_reserved":false,"is_disabled":true,"rental_uris":{"android":"levelo://app?vid=ef871c8e-2013-4622-a683-0ab17a74d870","ios":"levelo://app?vid=ef871c8e-2013-4622-a683-0ab17a74d870"},"vehicle_type_id":"4","last_reported":1745003268,"current_range_meters":14000,"station_id":"ce4bhu92rcd13ifvqi70","pricing_plan_id":"cebpf4jnsgd1na2vs0mg"},{"bike_id":"bf71340b-9e94-492b-85ca-b4453004b630","system_id":"levelo_inurba_marseille","lat":43.29256,"lon":5.3844,"is_reserved":false,"is_disabled":false,"rental_uris":{"android":"levelo://app?vid=bf71340b-9e94-492b-85ca-b4453004b630","ios":"levelo://app?vid=bf71340b-9e94-492b-85ca-b4453004b630"},"vehicle_type_id":"4","last_reported":1745003268,"current_range_meters":14000,"station_id":"ce4bh692rcd13ifvqea0","pricing_plan_id":"cebpf4jnsgd1na2vs0mg"},{"bike_id":"084dd57b-f009-46c7-bbc6-9dfc3a81f85b","system_id":"levelo_inurba_marseille","lat":43.2924,"lon":5.38447,"is_reserved":false,"is_disabled":false,"rental_uris":{"android":"levelo://app?vid=084dd57b-f009-46c7-bbc6-9dfc3a81f85b","ios":"levelo://app?vid=084dd57b-f009-46c7-bbc6-9dfc3a81f85b"},"vehicle_type_id":"4","last_reported":1745003268,"current_range_meters":14000,"station_id":"ce4bh692rcd13ifvqea0","pricing_plan_id":"cebpf4jnsgd1na2vs0mg"},{"bike_id":"31ca7500-48ec-44a7-81b2-90e54a165a7e","system_id":"levelo_inurba_marseille","lat":43.29093,"lon":5.38117,"is_reserved":false,"is_disabled":false,"rental_uris":{"android":"levelo://app?vid=31ca7500-48ec-44a7-81b2-90e54a165a7e","ios":"levelo://app?vid=31ca7500-48ec-44a7-81b2-90e54a165a7e"},"vehicle_type_id":"4","last_reported":1745003268,"current_range_meters":13600,"station_id":"ce4bh512rcd13ifvqe2g","pricing_plan_id":"cebpf4jnsgd1na2vs0mg"},{"bike_id":"038fb4e5-c931-4705-a9fa-9de0bb326467","system_id":"levelo_inurba_marseille","lat":43.28431,"lon":5.39186,"is_reserved":false,"is_disabled":false,"rental_uris":{"android":"levelo://app?vid=038fb4e5-c931-4705-a9fa-9de0bb326467","ios":"levelo://app?vid=038fb4e5-c931-4705-a9fa-9de0bb326467"},"vehicle_type_id":"4","last_reported":1745003268,"current_range_meters":14000,"station_id":"ce4bhoh2rcd13ifvqh5g","pricing_plan_id":"cebpf4jnsgd1na2vs0mg"},{"bike_id":"110c4abb-ffb8-4fd0-ba35-0e68e73379e5","system_id":"levelo_inurba_marseille","lat":43.22935,"lon":5.35389,"is_reserved":false,"is_disabled":false,"rental_uris":{"android":"levelo://app?vid=110c4abb-ffb8-4fd0-ba35-0e68e73379e5","ios":"levelo://app?vid=110c4abb-ffb8-4fd0-ba35-0e68e73379e5"},"vehicle_type_id":"4","last_reported":1745003268,"current_range_meters":14000,"station_id":"cpo3532slgdg3j2ikp40","pricing_plan_id":"cebpf4jnsgd1na2vs0mg"},{"bike_id":"47fd5eaf-6394-4686-af3a-71d4da2e6423","system_id":"levelo_inurba_marseille","lat":43.29299,"lon":5.37459,"is_reserved":false,"is_disabled":false,"rental_uris":{"android":"levelo://app?vid=47fd5eaf-6394-4686-af3a-71d4da2e6423","ios":"levelo://app?vid=47fd5eaf-6394-4686-af3a-71d4da2e6423"},"vehicle_type_id":"4","last_reported":1745003268,"current_range_meters":14400,"station_id":"ce4bgi12rcd13ifvqb70","pricing_plan_id":"cebpf4jnsgd1na2vs0mg"},{"bike_id":"e6dd6ae1-3bcb-4010-8c4f-946f95c5cd66","system_id":"levelo_inurba_marseille","lat":43.28839,"lon":5.35832,"is_reserved":false,"is_disabled":true,"rental_uris":{"android":"levelo://app?vid=e6dd6ae1-3bcb-4010-8c4f-946f95c5cd66","ios":"levelo://app?vid=e6dd6ae1-3bcb-4010-8c4f-946f95c5cd66"},"vehicle_type_id":"4","last_reported":1745003268,"current_range_meters":14400,"station_id":"ce4bhb12rcd13ifvqem0","pricing_plan_id":"cebpf4jnsgd1na2vs0mg"},{"bike_id":"91030bce-0170-41ea-92bb-bfa06125f3a7","system_id":"levelo_inurba_marseille","lat":43.31684,"lon":5.4047,"is_reserved":false,"is_disabled":false,"rental_uris":{"android":"levelo://app?vid=91030bce-0170-41ea-92bb-bfa06125f3a7","ios":"levelo://app?vid=91030bce-0170-41ea-92bb-bfa06125f3a7"},"vehicle_type_id":"4","last_reported":1745003268,"current_range_meters":14400,"station_id":"ce4bh012rcd13ifvqd00","pricing_plan_id":"cebpf4jnsgd1na2vs0mg"},{"bike_id":"173d3a94-5527-44b6-a64d-f245d36b21f5","system_id":"levelo_inurba_marseille","lat":43.31265,"lon":5.4017,"is_reserved":false,"is_disabled":false,"rental_uris":{"android":"levelo://app?vid=173d3a94-5527-44b6-a64d-f245d36b21f5","ios":"levelo://app?vid=173d3a94-5527-44b6-a64d-f245d36b21f5"},"vehicle_type_id":"4","last_reported":1745003268,"current_range_meters":14000,"station_id":"ce4bh092rcd13ifvqd30","pricing_plan_id":"cebpf4jnsgd1na2vs0mg"},{"bike_id":"848cc50f-bef5-4c77-b943-be18610ff74d","system_id":"levelo_inurba_marseille","lat":43.25107,"lon":5.40328,"is_reserved":false,"is_disabled":false,"rental_uris":{"android":"levelo://app?vid=848cc50f-bef5-4c77-b943-be18610ff74d","ios":"levelo://app?vid=848cc50f-bef5-4c77-b943-be18610ff74d"},"vehicle_type_id":"4","last_reported":1745003268,"current_range_meters":14400,"station_id":"ce4bhlh2rcd13ifvqgig","pricing_plan_id":"cebpf4jnsgd1na2vs0mg"},{"bike_id":"186380b9-3dab-457b-b648-71d123fa0368","system_id":"levelo_inurba_marseille","lat":43.25101,"lon":5.40295,"is_reserved":false,"is_disabled":true,"rental_uris":{"android":"levelo://app?vid=186380b9-3dab-457b-b648-71d123fa0368","ios":"levelo://app?vid=186380b9-3dab-457b-b648-71d123fa0368"},"vehicle_type_id":"4","last_reported":1745003268,"current_range_meters":14400,"station_id":"ce4bhlh2rcd13ifvqgig","pricing_plan_id":"cebpf4jnsgd1na2vs0mg"},{"bike_id":"83d0b7ce-03a2-4174-b6ba-773768df57e1","system_id":"levelo_inurba_marseille","lat":43.30888,"lon":5.39646,"is_reserved":false,"is_disabled":false,"rental_uris":{"android":"levelo://app?vid=83d0b7ce-03a2-4174-b6ba-773768df57e1","ios":"levelo://app?vid=83d0b7ce-03a2-4174-b6ba-773768df57e1"},"vehicle_type_id":"4","last_reported":1745003268,"current_range_meters":14400,"station_id":"ce4bh012rcd13ifvqcv0","pricing_plan_id":"cebpf4jnsgd1na2vs0mg"},{"bike_id":"331be414-ada1-42d4-a7d8-c8c412d62ca8","system_id":"levelo_inurba_marseille","lat":43.29024,"lon":5.38658,"is_reserved":false,"is_disabled":false,"rental_uris":{"android":"levelo://app?vid=331be414-ada1-42d4-a7d8-c8c412d62ca8","ios":"levelo://app?vid=331be414-ada1-42d4-a7d8-c8c412d62ca8"},"vehicle_type_id":"4","last_reported":1745003268,"current_range_meters":14400,"station_id":"ce4bh4p2rcd13ifvqe0g","pricing_plan_id":"cebpf4jnsgd1na2vs0mg"},{"bike_id":"27d01c52-45f4-4bed-9686-d4f04e637726","system_id":"levelo_inurba_marseille","lat":43.31281,"lon":5.40176,"is_reserved":false,"is_disabled":false,"rental_uris":{"android":"levelo://app?vid=27d01c52-45f4-4bed-9686-d4f04e637726","ios":"levelo://app?vid=27d01c52-45f4-4bed-9686-d4f04e637726"},"vehicle_type_id":"4","last_reported":1745003268,"current_range_meters":14800,"station_id":"ce4bh092rcd13ifvqd30","pricing_plan_id":"cebpf4jnsgd1na2vs0mg"},{"bike_id":"63ea7073-28fc-44a7-bbc2-5ff0877db960","system_id":"levelo_inurba_marseille","lat":43.29091,"lon":5.37181,"is_reserved":false,"is_disabled":false,"rental_uris":{"android":"levelo://app?vid=63ea7073-28fc-44a7-bbc2-5ff0877db960","ios":"levelo://app?vid=63ea7073-28fc-44a7-bbc2-5ff0877db960"},"vehicle_type_id":"4","last_reported":1745003268,"current_range_meters":14800,"station_id":"ce4bh5p2rcd13ifvqe4g","pricing_plan_id":"cebpf4jnsgd1na2vs0mg"},{"bike_id":"fc2b0774-7e24-4dbb-bf98-9945320714bb","system_id":"levelo_inurba_marseille","lat":43.305632,"lon":5.39348,"is_reserved":false,"is_disabled":false,"rental_uris":{"android":"levelo://app?vid=fc2b0774-7e24-4dbb-bf98-9945320714bb","ios":"levelo://app?vid=fc2b0774-7e24-4dbb-bf98-9945320714bb"},"vehicle_type_id":"4","last_reported":1745003268,"current_range_meters":14800,"station_id":"ce4bh0p2rcd13ifvqd80","pricing_plan_id":"cebpf4jnsgd1na2vs0mg"},{"bike_id":"49f5d333-54bf-475d-8c25-f538119ecd21","system_id":"levelo_inurba_marseille","lat":43.29427,"lon":5.38616,"is_reserved":false,"is_disabled":false,"rental_uris":{"android":"levelo://app?vid=49f5d333-54bf-475d-8c25-f538119ecd21","ios":"levelo://app?vid=49f5d333-54bf-475d-8c25-f538119ecd21"},"vehicle_type_id":"4","last_reported":1745003268,"current_range_meters":14800,"station_id":"ce4bh2h2rcd13ifvqdh0","pricing_plan_id":"cebpf4jnsgd1na2vs0mg"},{"bike_id":"02e2a07c-90fe-4306-aa49-db8c906cd278","system_id":"levelo_inurba_marseille","lat":43.288536,"lon":5.358431,"is_reserved":false,"is_disabled":false,"rental_uris":{"android":"levelo://app?vid=02e2a07c-90fe-4306-aa49-db8c906cd278","ios":"levelo://app?vid=02e2a07c-90fe-4306-aa49-db8c906cd278"},"vehicle_type_id":"4","last_reported":1745003268,"current_range_meters":14800,"station_id":"ce4bhb12rcd13ifvqem0","pricing_plan_id":"cebpf4jnsgd1na2vs0mg"},{"bike_id":"5c4ead29-1e5e-49af-829a-7868c3cf014f","system_id":"levelo_inurba_marseille","lat":43.25103,"lon":5.40328,"is_reserved":false,"is_disabled":false,"rental_uris":{"android":"levelo://app?vid=5c4ead29-1e5e-49af-829a-7868c3cf014f","ios":"levelo://app?vid=5c4ead29-1e5e-49af-829a-7868c3cf014f"},"vehicle_type_id":"4","last_reported":1745003268,"current_range_meters":14800,"station_id":"ce4bhlh2rcd13ifvqgig","pricing_plan_id":"cebpf4jnsgd1na2vs0mg"},{"bike_id":"5d4c9cc0-56a3-468c-9bfd-437b9498da8b","system_id":"levelo_inurba_marseille","lat":43.2834,"lon":5.38113,"is_reserved":false,"is_disabled":false,"rental_uris":{"android":"levelo://app?vid=5d4c9cc0-56a3-468c-9bfd-437b9498da8b","ios":"levelo://app?vid=5d4c9cc0-56a3-468c-9bfd-437b9498da8b"},"vehicle_type_id":"4","last_reported":1745003268,"current_range_meters":14800,"station_id":"ce4bh412rcd13ifvqdr0","pricing_plan_id":"cebpf4jnsgd1na2vs0mg"},{"bike_id":"4e06c3fc-3625-4a51-ae2b-172c13219790","system_id":"levelo_inurba_marseille","lat":43.30774,"lon":5.37653,"is_reserved":false,"is_disabled":false,"rental_uris":{"android":"levelo://app?vid=4e06c3fc-3625-4a51-ae2b-172c13219790","ios":"levelo://app?vid=4e06c3fc-3625-4a51-ae2b-172c13219790"},"vehicle_type_id":"4","last_reported":1745003268,"current_range_meters":14800,"station_id":"ce4bgv92rcd13ifvqcq0","pricing_plan_id":"cebpf4jnsgd1na2vs0mg"},{"bike_id":"81d07084-66a1-44dc-ae08-3b708e7b5eb3","system_id":"levelo_inurba_marseille","lat":43.2501,"lon":5.38927,"is_reserved":false,"is_disabled":false,"rental_uris":{"android":"levelo://app?vid=81d07084-66a1-44dc-ae08-3b708e7b5eb3","ios":"levelo://app?vid=81d07084-66a1-44dc-ae08-3b708e7b5eb3"},"vehicle_type_id":"4","last_reported":1745003268,"current_range_meters":15200,"station_id":"ce4bhgp2rcd13ifvqfd0","pricing_plan_id":"cebpf4jnsgd1na2vs0mg"},{"bike_id":"789c3822-56ca-4769-bcd4-8845bdea2fda","system_id":"levelo_inurba_marseille","lat":43.24186,"lon":5.36405,"is_reserved":false,"is_disabled":false,"rental_uris":{"android":"levelo://app?vid=789c3822-56ca-4769-bcd4-8845bdea2fda","ios":"levelo://app?vid=789c3822-56ca-4769-bcd4-8845bdea2fda"},"vehicle_type_id":"4","last_reported":1745003268,"current_range_meters":15200,"station_id":"cpo36qri1sfpv3e86is0","pricing_plan_id":"cebpf4jnsgd1na2vs0mg"},{"bike_id":"64441cc6-6166-4b78-8bb3-58b8c4d00529","system_id":"levelo_inurba_marseille","lat":43.29274,"lon":5.36844,"is_reserved":false,"is_disabled":false,"rental_uris":{"android":"levelo://app?vid=64441cc6-6166-4b78-8bb3-58b8c4d00529","ios":"levelo://app?vid=64441cc6-6166-4b78-8bb3-58b8c4d00529"},"vehicle_type_id":"4","last_reported":1745003268,"current_range_meters":15200,"station_id":"ce4bhbp2rcd13ifvqesg","pricing_plan_id":"cebpf4jnsgd1na2vs0mg"},{"bike_id":"98ee1dc2-37b6-4818-8c1d-54f03e5f798c","system_id":"levelo_inurba_marseille","lat":43.27832,"lon":5.39209,"is_reserved":false,"is_disabled":false,"rental_uris":{"android":"levelo://app?vid=98ee1dc2-37b6-4818-8c1d-54f03e5f798c","ios":"levelo://app?vid=98ee1dc2-37b6-4818-8c1d-54f03e5f798c"},"vehicle_type_id":"4","last_reported":1745003268,"current_range_meters":15200,"station_id":"ce4bhjp2rcd13ifvqga0","pricing_plan_id":"cebpf4jnsgd1na2vs0mg"},{"bike_id":"c469bc33-7555-4ecd-b448-f6808a10c590","system_id":"levelo_inurba_marseille","lat":43.251139,"lon":5.403131,"is_reserved":false,"is_disabled":false,"rental_uris":{"android":"levelo://app?vid=c469bc33-7555-4ecd-b448-f6808a10c590","ios":"levelo://app?vid=c469bc33-7555-4ecd-b448-f6808a10c590"},"vehicle_type_id":"4","last_reported":1745003268,"current_range_meters":14800,"station_id":"ce4bhlh2rcd13ifvqgig","pricing_plan_id":"cebpf4jnsgd1na2vs0mg"},{"bike_id":"97e50bb0-9a70-481b-b370-e509345e710a","system_id":"levelo_inurba_marseille","lat":43.28016,"lon":5.36931,"is_reserved":false,"is_disabled":true,"rental_uris":{"android":"levelo://app?vid=97e50bb0-9a70-481b-b370-e509345e710a","ios":"levelo://app?vid=97e50bb0-9a70-481b-b370-e509345e710a"},"vehicle_type_id":"4","last_reported":1745003268,"current_range_meters":16000,"station_id":"ce4bha12rcd13ifvqef0","pricing_plan_id":"cebpf4jnsgd1na2vs0mg"},{"bike_id":"10750f8d-2c15-4e4e-bad5-e3acf86b7303","system_id":"levelo_inurba_marseille","lat":43.29441,"lon":5.38605,"is_reserved":false,"is_disabled":false,"rental_uris":{"android":"levelo://app?vid=10750f8d-2c15-4e4e-bad5-e3acf86b7303","ios":"levelo://app?vid=10750f8d-2c15-4e4e-bad5-e3acf86b7303"},"vehicle_type_id":"4","last_reported":1745003268,"current_range_meters":16000,"station_id":"ce4bh2h2rcd13ifvqdh0","pricing_plan_id":"cebpf4jnsgd1na2vs0mg"},{"bike_id":"d480d0a4-2614-490a-b65d-a17b031a157f","system_id":"levelo_inurba_marseille","lat":43.29523,"lon":5.38508,"is_reserved":false,"is_disabled":false,"rental_uris":{"android":"levelo://app?vid=d480d0a4-2614-490a-b65d-a17b031a157f","ios":"levelo://app?vid=d480d0a4-2614-490a-b65d-a17b031a157f"},"vehicle_type_id":"4","last_reported":1745003268,"current_range_meters":16000,"station_id":"ce4bgih2rcd13ifvqba0","pricing_plan_id":"cebpf4jnsgd1na2vs0mg"},{"bike_id":"b6821e5f-2b42-4cde-8784-0fb0fe3fb2be","system_id":"levelo_inurba_marseille","lat":43.24672,"lon":5.38131,"is_reserved":false,"is_disabled":false,"rental_uris":{"android":"levelo://app?vid=b6821e5f-2b42-4cde-8784-0fb0fe3fb2be","ios":"levelo://app?vid=b6821e5f-2b42-4cde-8784-0fb0fe3fb2be"},"vehicle_type_id":"4","last_reported":1745003268,"current_range_meters":16000,"station_id":"ce4bhih2rcd13ifvqfr0","pricing_plan_id":"cebpf4jnsgd1na2vs0mg"},{"bike_id":"26277edd-362a-40e2-be81-122d264bb4c5","system_id":"levelo_inurba_marseille","lat":43.29414,"lon":5.38633,"is_reserved":false,"is_disabled":false,"rental_uris":{"android":"levelo://app?vid=26277edd-362a-40e2-be81-122d264bb4c5","ios":"levelo://app?vid=26277edd-362a-40e2-be81-122d264bb4c5"},"vehicle_type_id":"4","last_reported":1745003268,"current_range_meters":16000,"station_id":"ce4bh2h2rcd13ifvqdh0","pricing_plan_id":"cebpf4jnsgd1na2vs0mg"},{"bike_id":"32114de9-c526-480f-98c0-6ffe2345af1c","system_id":"levelo_inurba_marseille","lat":43.290006,"lon":5.356172,"is_reserved":false,"is_disabled":false,"rental_uris":{"android":"levelo://app?vid=32114de9-c526-480f-98c0-6ffe2345af1c","ios":"levelo://app?vid=32114de9-c526-480f-98c0-6ffe2345af1c"},"vehicle_type_id":"4","last_reported":1745003268,"current_range_meters":16000,"station_id":"ce4bhb92rcd13ifvqen0","pricing_plan_id":"cebpf4jnsgd1na2vs0mg"},{"bike_id":"42380231-def3-476d-af50-7af7ee866142","system_id":"levelo_inurba_marseille","lat":43.29421,"lon":5.38634,"is_reserved":false,"is_disabled":false,"rental_uris":{"android":"levelo://app?vid=42380231-def3-476d-af50-7af7ee866142","ios":"levelo://app?vid=42380231-def3-476d-af50-7af7ee866142"},"vehicle_type_id":"4","last_reported":1745003268,"current_range_meters":16000,"station_id":"ce4bh2h2rcd13ifvqdh0","pricing_plan_id":"cebpf4jnsgd1na2vs0mg"},{"bike_id":"320adbcc-fda4-44e6-b83a-a8011272b083","system_id":"levelo_inurba_marseille","lat":43.28944,"lon":5.36626,"is_reserved":false,"is_disabled":false,"rental_uris":{"android":"levelo://app?vid=320adbcc-fda4-44e6-b83a-a8011272b083","ios":"levelo://app?vid=320adbcc-fda4-44e6-b83a-a8011272b083"},"vehicle_type_id":"4","last_reported":1745003268,"current_range_meters":16000,"station_id":"ce4bhap2rcd13ifvqek0","pricing_plan_id":"cebpf4jnsgd1na2vs0mg"},