{"last_updated":1729753780,"ttl":60,"version":"2.2","data":{"bikes":[{"bike_id":"6bb28513-7ba6-4d73-94c5-cbf1dfef8b42","system_id":"levelo_inurba_marseille","lat":43.32469,"lon":5.36558,"is_reserved":false,"is_disabled":false,"rental_uris":{"android":"levelo://app?vid=6bb28513-7ba6-4d73-94c5-cbf1dfef8b42","ios":"levelo://app?vid=6bb28513-7ba6-4d73-94c5-cbf1dfef8b42"},"vehicle_type_id":"4","last_reported":1729753780,"current_range_meters":23200,"station_id":"ce4bhs12rcd13ifvqhvg","pricing_plan_id":"cebpf4jnsgd1na2vs0mg"},{"bike_id":"e0a1e9b4-8513-46db-93c4-0de3aa5a9a6d","system_id":"levelo_inurba_marseille","lat":43.30137,"lon":5.38774,"is_reserved":false,"is_disabled":false,"rental_uris":{"android":"levelo://app?vid=e0a1e9b4-8513-46db-93c4-0de3aa5a9a6d","ios":"levelo://app?vid=e0a1e9b4-8513-46db-93c4-0de3aa5a9a6d"},"vehicle_type_id":"4","last_reported":1729753780,"current_range_meters":34800,"station_id":"ce4bghh2rcd13ifvqb60","pricing_plan_id":"cebpf4jnsgd1na2vs0mg"},{"bike_id":"6e7189c8-6d34-4945-8fbf-b2a1a37960a8","system_id":"levelo_inurba_marseille","lat":43.31698,"lon":5.37762,"is_reserved":false,"is_disabled":false,"rental_uris":{"android":"levelo://app?vid=6e7189c8-6d34-4945-8fbf-b2a1a37960a8","ios":"levelo://app?vid=6e7189c8-6d34-4945-8fbf-b2a1a37960a8"},"vehicle_type_id":"4","last_reported":1729753780,"current_range_meters":24000,"station_id":"ce4bgth2rcd13ifvqch0","pricing_plan_id":"cebpf4jnsgd1na2vs0mg"},{"bike_id":"eade461a-aa19-4c88-8a23-026bf01bff18","system_id":"levelo_inurba_marseille","lat":43.27201,"lon":5.39186,"is_reserved":false,"is_disabled":false,"rental_uris":{"android":"levelo://app?vid=eade461a-aa19-4c88-8a23-026bf01bff18","ios":"levelo://app?vid=eade461a-aa19-4c88-8a23-026bf01bff18"},"vehicle_type_id":"4","last_reported":1729753780,"current_range_meters":33600,"station_id":"ce4bhhp2rcd13ifvqfm0","pricing_plan_id":"cebpf4jnsgd1na2vs0mg"},{"bike_id":"4e718520-217c-4986-8e4a-4dbcae9b7210","system_id":"levelo_inurba_marseille","lat":43.27987,"lon":5.41655,"is_reserved":false,"is_disabled":false,"rental_uris":{"android":"levelo://app?vid=4e718520-217c-4986-8e4a-4dbcae9b7210","ios":"levelo://app?vid=4e718520-217c-4986-8e4a-4dbcae9b7210"},"vehicle_type_id":"4","last_reported":1729753780,"current_range_meters":9200,"station_id":"ce4bho12rcd13ifvqh1g","pricing_plan_id":"cebpf4jnsgd1na2vs0mg"},{"bike_id":"5f4aec62-2a56-42d5-832d-2830b957cfbe","system_id":"levelo_inurba_marseille","lat":43.23182,"lon":5.39981,"is_reserved":false,"is_disabled":false,"rental_uris":{"android":"levelo://app?vid=5f4aec62-2a56-42d5-832d-2830b957cfbe","ios":"levelo://app?vid=5f4aec62-2a56-42d5-832d-2830b957cfbe"},"vehicle_type_id":"4","last_reported":1729753780,"current_range_meters":19600,"station_id":"ce4bhn12rcd13ifvqgqg","pricing_plan_id":"cebpf4jnsgd1na2vs0mg"},{"bike_id":"cf00bfcd-9f87-4011-81c6-4541ee31d8cd","system_id":"levelo_inurba_marseille","lat":43.31353,"lon":5.36694,"is_reserved":false,"is_disabled":false,"rental_uris":{"android":"levelo://app?vid=cf00bfcd-9f87-4011-81c6-4541ee31d8cd","ios":"levelo://app?vid=cf00bfcd-9f87-4011-81c6-4541ee31d8cd"},"vehicle_type_id":"4","last_reported":1729753780,"current_range_meters":38800,"station_id":"ce4bgr92rcd13ifvqc6g","pricing_plan_id":"cebpf4jnsgd1na2vs0mg"},{"bike_id":"497fc25b-f171-4786-80a0-e1e124b8028f","system_id":"levelo_inurba_marseille","lat":43.30797,"lon":5.38156,"is_reserved":false,"is_disabled":false,"rental_uris":{"android":"levelo://app?vid=497fc25b-f171-4786-80a0-e1e124b8028f","ios":"levelo://app?vid=497fc25b-f171-4786-80a0-e1e124b8028f"},"vehicle_type_id":"4","last_reported":1729753780,"current_range_meters":24000,"station_id":"ce4bgt12rcd13ifvqce0","pricing_plan_id":"cebpf4jnsgd1na2vs0mg"},{"bike_id":"21c7101c-ca4b-4c55-b4b1-4130a4e6a9f4","system_id":"levelo_inurba_marseille","lat":43.30543,"lon":5.36715,"is_reserved":false,"is_disabled":false,"rental_uris":{"android":"levelo://app?vid=21c7101c-ca4b-4c55-b4b1-4130a4e6a9f4","ios":"levelo://app?vid=21c7101c-ca4b-4c55-b4b1-4130a4e6a9f4"},"vehicle_type_id":"4","last_reported":1729753780,"current_range_meters":38800,"station_id":"ce4bgrp2rcd13ifvqc9g","pricing_plan_id":"cebpf4jnsgd1na2vs0mg"},{"bike_id":"baeefa78-7ce8-4887-a3d0-6e5bbac47486","system_id":"levelo_inurba_marseille","lat":43.27314,"lon":5.39074,"is_reserved":false,"is_disabled":false,"rental_uris":{"android":"levelo://app?vid=baeefa78-7ce8-4887-a3d0-6e5bbac47486","ios":"levelo://app?vid=baeefa78-7ce8-4887-a3d0-6e5bbac47486"},"vehicle_type_id":"4","last_reported":1729753780,"current_range_meters":33200,"station_id":"ce4bhgp2rcd13ifvqfe0","pricing_plan_id":"cebpf4jnsgd1na2vs0mg"},{"bike_id":"9f074ccd-7b5d-4615-a0de-1df1963b28b4","system_id":"levelo_inurba_marseille","lat":43.31495,"lon":5.37305,"is_reserved":false,"is_disabled":false,"rental_uris":{"android":"levelo://app?vid=9f074ccd-7b5d-4615-a0de-1df1963b28b4","ios":"levelo://app?vid=9f074ccd-7b5d-4615-a0de-1df1963b28b4"},"vehicle_type_id":"4","last_reported":1729753780,"current_range_meters":6400,"station_id":"ce4bgt12rcd13ifvqcd0","pricing_plan_id":"cebpf4jnsgd1na2vs0mg"},{"bike_id":"10f8451f-9821-4300-be68-0aad69d29e91","system_id":"levelo_inurba_marseille","lat":43.29981,"lon":5.37186,"is_reserved":false,"is_disabled":false,"rental_uris":{"android":"levelo://app?vid=10f8451f-9821-4300-be68-0aad69d29e91","ios":"levelo://app?vid=10f8451f-9821-4300-be68-0aad69d29e91"},"vehicle_type_id":"4","last_reported":1729753780,"current_range_meters":26000,"station_id":"ce4bgr92rcd13ifvqc7g","pricing_plan_id":"cebpf4jnsgd1na2vs0mg"},{"bike_id":"2d822b03-c80b-4c07-a06f-070d2983a7cf","system_id":"levelo_inurba_marseille","lat":43.30462,"lon":5.37905,"is_reserved":false,"is_disabled":false,"rental_uris":{"android":"levelo://app?vid=2d822b03-c80b-4c07-a06f-070d2983a7cf","ios":"levelo://app?vid=2d822b03-c80b-4c07-a06f-070d2983a7cf"},"vehicle_type_id":"4","last_reported":1729753780,"current_range_meters":38800,"station_id":"ce4bgup2rcd13ifvqcn0","pricing_plan_id":"cebpf4jnsgd1na2vs0mg"},{"bike_id":"f6c534e4-14cc-4b07-94a1-b0e66c6d8b62","system_id":"levelo_inurba_marseille","lat":43.29809,"lon":5.381075,"is_reserved":false,"is_disabled":false,"rental_uris":{"android":"levelo://app?vid=f6c534e4-14cc-4b07-94a1-b0e66c6d8b62","ios":"levelo://app?vid=f6c534e4-14cc-4b07-94a1-b0e66c6d8b62"},"vehicle_type_id":"4","last_reported":1729753780,"current_range_meters":8400,"station_id":"ce4bgip2rcd13ifvqbb0","pricing_plan_id":"cebpf4jnsgd1na2vs0mg"},{"bike_id":"f69d8b26-6605-49d3-beec-731a49a43d11","system_id":"levelo_inurba_marseille","lat":43.24391,"lon":5.3706,"is_reserved":false,"is_disabled":false,"rental_uris":{"android":"levelo://app?vid=f69d8b26-6605-49d3-beec-731a49a43d11","ios":"levelo://app?vid=f69d8b26-6605-49d3-beec-731a49a43d11"},"vehicle_type_id":"4","last_reported":1729753780,"current_range_meters":24400,"station_id":"ce4bhhh2rcd13ifvqfk0","pricing_plan_id":"cebpf4jnsgd1na2vs0mg"},{"bike_id":"0a1b479d-52cc-43be-b555-b0ec65cfda36","system_id":"levelo_inurba_marseille","lat":43.24075,"lon":5.37769,"is_reserved":false,"is_disabled":false,"rental_uris":{"android":"levelo://app?vid=0a1b479d-52cc-43be-b555-b0ec65cfda36","ios":"levelo://app?vid=0a1b479d-52cc-43be-b555-b0ec65cfda36"},"vehicle_type_id":"4","last_reported":1729753780,"current_range_meters":38000,"station_id":"ce4bhnp2rcd13ifvqgvg","pricing_plan_id":"cebpf4jnsgd1na2vs0mg"},{"bike_id":"93b004d5-e088-4995-a4b0-f34bd0d548c5","system_id":"levelo_inurba_marseille","lat":43.33716,"lon":5.39189,"is_reserved":false,"is_disabled":false,"rental_uris":{"android":"levelo://app?vid=93b004d5-e088-4995-a4b0-f34bd0d548c5","ios":"levelo://app?vid=93b004d5-e088-4995-a4b0-f34bd0d548c5"},"vehicle_type_id":"4","last_reported":1729753780,"current_range_meters":28000,"station_id":"ce4bhr92rcd13ifvqhsg","pricing_plan_id":"cebpf4jnsgd1na2vs0mg"},{"bike_id":"29022cab-0aa3-4fff-9ddc-958bddb55705","system_id":"levelo_inurba_marseille","lat":43.30152,"lon":5.38084,"is_reserved":false,"is_disabled":false,"rental_uris":{"android":"levelo://app?vid=29022cab-0aa3-4fff-9ddc-958bddb55705","ios":"levelo://app?vid=29022cab-0aa3-4fff-9ddc-958bddb55705"},"vehicle_type_id":"4","last_reported":1729753780,"current_range_meters":24400,"station_id":"ce4bgjp2rcd13ifvqbh0","pricing_plan_id":"cebpf4jnsgd1na2vs0mg"},{"bike_id":"2e131b58-2054-4e77-b451-bf31396efab3","system_id":"levelo_inurba_marseille","lat":43.30887,"lon":5.37199,"is_reserved":false,"is_disabled":false,"rental_uris":{"android":"levelo://app?vid=2e131b58-2054-4e77-b451-bf31396efab3","ios":"levelo://app?vid=2e131b58-2054-4e77-b451-bf31396efab3"},"vehicle_type_id":"4","last_reported":1729753780,"current_range_meters":34800,"station_id":"ce4bguh2rcd13ifvqckg","pricing_plan_id":"cebpf4jnsgd1na2vs0mg"},{"bike_id":"cc9315d9-2520-4cc1-8b0e-7c92bd8403db","system_id":"levelo_inurba_marseille","lat":43.25863,"lon":5.39898,"is_reserved":false,"is_disabled":false,"rental_uris":{"android":"levelo://app?vid=cc9315d9-2520-4cc1-8b0e-7c92bd8403db","ios":"levelo://app?vid=cc9315d9-2520-4cc1-8b0e-7c92bd8403db"},"vehicle_type_id":"4","last_reported":1729753780,"current_range_meters":12800,"station_id":"ce4bhl92rcd13ifvqghg","pricing_plan_id":"cebpf4jnsgd1na2vs0mg"},{"bike_id":"49290cad-a773-41f6-9a9d-3962f6f9c0d9","system_id":"levelo_inurba_marseille","lat":43.31699,"lon":5.37748,"is_reserved":false,"is_disabled":false,"rental_uris":{"android":"levelo://app?vid=49290cad-a773-41f6-9a9d-3962f6f9c0d9","ios":"levelo://app?vid=49290cad-a773-41f6-9a9d-3962f6f9c0d9"},"vehicle_type_id":"4","last_reported":1729753780,"current_range_meters":29600,"station_id":"ce4bgth2rcd13ifvqch0","pricing_plan_id":"cebpf4jnsgd1na2vs0mg"},{"bike_id":"4ec3695d-7c69-4f95-8dd6-38475afb8e55","system_id":"levelo_inurba_marseille","lat":43.24663,"lon":5.38162,"is_reserved":false,"is_disabled":false,"rental_uris":{"android":"levelo://app?vid=4ec3695d-7c69-4f95-8dd6-38475afb8e55","ios":"levelo://app?vid=4ec3695d-7c69-4f95-8dd6-38475afb8e55"},"vehicle_type_id":"4","last_reported":1729753780,"current_range_meters":19600,"station_id":"ce4bhih2rcd13ifvqfr0","pricing_plan_id":"cebpf4jnsgd1na2vs0mg"},{"bike_id":"2aaf6891-c923-4803-bbf1-9f27c6460088","system_id":"levelo_inurba_marseille","lat":43.30948,"lon":5.39027,"is_reserved":false,"is_disabled":false,"rental_uris":{"android":"levelo://app?vid=2aaf6891-c923-4803-bbf1-9f27c6460088","ios":"levelo://app?vid=2aaf6891-c923-4803-bbf1-9f27c6460088"},"vehicle_type_id":"4","last_reported":1729753780,"current_range_meters":28400,"station_id":"ce4bgup2rcd13ifvqco0","pricing_plan_id":"cebpf4jnsgd1na2vs0mg"},{"bike_id":"3e6dacef-7721-4fd6-908f-05fbf9bc0354","system_id":"levelo_inurba_marseille","lat":43.23196,"lon":5.3556,"is_reserved":false,"is_disabled":false,"rental_uris":{"android":"levelo://app?vid=3e6dacef-7721-4fd6-908f-05fbf9bc0354","ios":"levelo://app?vid=3e6dacef-7721-4fd6-908f-05fbf9bc0354"},"vehicle_type_id":"4","last_reported":1729753780,"current_range_meters":37600,"station_id":"ce4bhu92rcd13ifvqi70","pricing_plan_id":"cebpf4jnsgd1na2vs0mg"},{"bike_id":"3314ee57-70b2-4a02-be6d-9e5257e35257","system_id":"levelo_inurba_marseille","lat":43.28153,"lon":5.42645,"is_reserved":false,"is_disabled":false,"rental_uris":{"android":"levelo://app?vid=3314ee57-70b2-4a02-be6d-9e5257e35257","ios":"levelo://app?vid=3314ee57-70b2-4a02-be6d-9e5257e35257"},"vehicle_type_id":"4","last_reported":1729753780,"current_range_meters":37600,"station_id":"ce4bhnh2rcd13ifvqgug","pricing_plan_id":"cebpf4jnsgd1na2vs0mg"},{"bike_id":"adffc188-1bf6-4d8a-963f-d032bdf1345e","system_id":"levelo_inurba_marseille","lat":43.33743,"lon":5.37472,"is_reserved":false,"is_disabled":false,"rental_uris":{"android":"levelo://app?vid=adffc188-1bf6-4d8a-963f-d032bdf1345e","ios":"levelo://app?vid=adffc188-1bf6-4d8a-963f-d032bdf1345e"},"vehicle_type_id":"4","last_reported":1729753780,"current_range_meters":38800,"station_id":"","pricing_plan_id":"cebpf4jnsgd1na2vs0mg"},{"bike_id":"7a2118ca-d4d4-4b5e-b122-adbe0687cf16","system_id":"levelo_inurba_marseille","lat":43.30463,"lon":5.37915,"is_reserved":false,"is_disabled":false,"rental_uris":{"android":"levelo://app?vid=7a2118ca-d4d4-4b5e-b122-adbe0687cf16","ios":"levelo://app?vid=7a2118ca-d4d4-4b5e-b122-adbe0687cf16"},"vehicle_type_id":"4","last_reported":1729753780,"current_range_meters":32000,"station_id":"ce4bgup2rcd13ifvqcn0","pricing_plan_id":"cebpf4jnsgd1na2vs0mg"},{"bike_id":"7cdd6195-de31-45c8-9f0c-b5495cb503f4","system_id":"levelo_inurba_marseille","lat":43.23965,"lon":5.36633,"is_reserved":false,"is_disabled":false,"rental_uris":{"android":"levelo://app?vid=7cdd6195-de31-45c8-9f0c-b5495cb503f4","ios":"levelo://app?vid=7cdd6195-de31-45c8-9f0c-b5495cb503f4"},"vehicle_type_id":"4","last_reported":1729753780,"current_range_meters":38400,"station_id":"ce4bhi12rcd13ifvqfp0","pricing_plan_id":"cebpf4jnsgd1na2vs0mg"},{"bike_id":"97ce6431-cdfe-4c86-8575-534875aed7f5","system_id":"levelo_inurba_marseille","lat":43.3053,"lon":5.36659,"is_reserved":false,"is_disabled":false,"rental_uris":{"android":"levelo://app?vid=97ce6431-cdfe-4c86-8575-534875aed7f5","ios":"levelo://app?vid=97ce6431-cdfe-4c86-8575-534875aed7f5"},"vehicle_type_id":"4","last_reported":1729753780,"current_range_meters":8400,"station_id":"","pricing_plan_id":"cebpf4jnsgd1na2vs0mg"},{"bike_id":"bc4efb73-4734-4293-a1eb-82c722d0ec12","system_id":"levelo_inurba_marseille","lat":43.25503,"lon":5.37649,"is_reserved":false,"is_disabled":false,"rental_uris":{"android":"levelo://app?vid=bc4efb73-4734-4293-a1eb-82c722d0ec12","ios":"levelo://app?vid=bc4efb73-4734-4293-a1eb-82c722d0ec12"},"vehicle_type_id":"4","last_reported":1729753780,"current_range_meters":38000,"station_id":"ce4bhh12rcd13ifvqff0","pricing_plan_id":"cebpf4jnsgd1na2vs0mg"},{"bike_id":"b69d0c64-0724-4563-ab4e-cdb5166b1cd5","system_id":"levelo_inurba_marseille","lat":43.33107,"lon":5.38208,"is_reserved":false,"is_disabled":false,"rental_uris":{"android":"levelo://app?vid=b69d0c64-0724-4563-ab4e-cdb5166b1cd5","ios":"levelo://app?vid=b69d0c64-0724-4563-ab4e-cdb5166b1cd5"},"vehicle_type_id":"4","last_reported":1729753780,"current_range_meters":22000,"station_id":"","pricing_plan_id":"cebpf4jnsgd1na2vs0mg"},{"bike_id":"e05535c8-56a4-4714-aaa2-9ead5e6ba38b","system_id":"levelo_inurba_marseille","lat":43.26446,"lon":5.40408,"is_reserved":false,"is_disabled":false,"rental_uris":{"android":"levelo://app?vid=e05535c8-56a4-4714-aaa2-9ead5e6ba38b","ios":"levelo://app?vid=e05535c8-56a4-4714-aaa2-9ead5e6ba38b"},"vehicle_type_id":"4","last_reported":1729753780,"current_range_meters":30800,"station_id":"","pricing_plan_id":"cebpf4jnsgd1na2vs0mg"},{"bike_id":"ccaf4d34-2d41-45e6-a1d6-e41bc45cb57d","system_id":"levelo_inurba_marseille","lat":43.337444,"lon":5.374475,"is_reserved":false,"is_disabled":false,"rental_uris":{"android":"levelo://app?vid=ccaf4d34-2d41-45e6-a1d6-e41bc45cb57d","ios":"levelo://app?vid=ccaf4d34-2d41-45e6-a1d6-e41bc45cb57d"},"vehicle_type_id":"4","last_reported":1729753780,"current_range_meters":12800,"station_id":"","pricing_plan_id":"cebpf4jnsgd1na2vs0mg"},{"bike_id":"039d9520-5588-49ee-bfb9-14e6aff89ebf","system_id":"levelo_inurba_marseille","lat":43.30467,"lon":5.37905,"is_reserved":false,"is_disabled":false,"rental_uris":{"android":"levelo://app?vid=039d9520-5588-49ee-bfb9-14e6aff89ebf","ios":"levelo://app?vid=039d9520-5588-49ee-bfb9-14e6aff89ebf"},"vehicle_type_id":"4","last_reported":1729753780,"current_range_meters":27200,"station_id":"ce4bgup2rcd13ifvqcn0","pricing_plan_id":"cebpf4jnsgd1na2vs0mg"},{"bike_id":"557ddb18-b938-4fcb-9a56-28a8b11474d8","system_id":"levelo_inurba_marseille","lat":43.30053,"lon":5.37443,"is_reserved":false,"is_disabled":false,"rental_uris":{"android":"levelo://app?vid=557ddb18-b938-4fcb-9a56-28a8b11474d8","ios":"levelo://app?vid=557ddb18-b938-4fcb-9a56-28a8b11474d8"},"vehicle_type_id":"4","last_reported":1729753780,"current_range_meters":33200,"station_id":"ce4bgnh2rcd13ifvqc0g","pricing_plan_id":"cebpf4jnsgd1na2vs0mg"},{"bike_id":"14409eb4-ad05-472c-b159-4c4e115fba1c","system_id":"levelo_inurba_marseille","lat":43.31084,"lon":5.42428,"is_reserved":false,"is_disabled":false,"rental_uris":{"android":"levelo://app?vid=14409eb4-ad05-472c-b159-4c4e115fba1c","ios":"levelo://app?vid=14409eb4-ad05-472c-b159-4c4e115fba1c"},"vehicle_type_id":"4","last_reported":1729753780,"current_range_meters":24800,"station_id":"ce4bhp92rcd13ifvqhag","pricing_plan_id":"cebpf4jnsgd1na2vs0mg"},{"bike_id":"a68b006b-665e-44e2-9334-fc2645f71c44","system_id":"levelo_inurba_marseille","lat":43.27064,"lon":5.3933,"is_reserved":false,"is_disabled":false,"rental_uris":{"android":"levelo://app?vid=a68b006b-665e-44e2-9334-fc2645f71c44","ios":"levelo://app?vid=a68b006b-665e-44e2-9334-fc2645f71c44"},"vehicle_type_id":"4","last_reported":1729753780,"current_range_meters":29600,"station_id":"ce4bhhp2rcd13ifvqfm0","pricing_plan_id":"cebpf4jnsgd1na2vs0mg"},{"bike_id":"8e40de37-296d-47ae-a26b-2fc39d683675","system_id":"levelo_inurba_marseille","lat":43.28415,"lon":5.38517,"is_reserved":false,"is_disabled":false,"rental_uris":{"android":"levelo://app?vid=8e40de37-296d-47ae-a26b-2fc39d683675","ios":"levelo://app?vid=8e40de37-296d-47ae-a26b-2fc39d683675"},"vehicle_type_id":"4","last_reported":1729753780,"current_range_meters":27200,"station_id":"","pricing_plan_id":"cebpf4jnsgd1na2vs0mg"},{"bike_id":"d559dc1b-ba63-4390-a50c-92e4adeb1a9d","system_id":"levelo_inurba_marseille","lat":43.25939,"lon":5.40904,"is_reserved":false,"is_disabled":false,"rental_uris":{"android":"levelo://app?vid=d559dc1b-ba63-4390-a50c-92e4adeb1a9d","ios":"levelo://app?vid=d559dc1b-ba63-4390-a50c-92e4adeb1a9d"},"vehicle_type_id":"4","last_reported":1729753780,"current_range_meters":8800,"station_id":"ce4bhm92rcd13ifvqglg","pricing_plan_id":"cebpf4jnsgd1na2vs0mg"},{"bike_id":"aa4f0503-c068-45d3-8f93-3c32e61598e4","system_id":"levelo_inurba_marseille","lat":43.30471,"lon":5.37909,"is_reserved":false,"is_disabled":false,"rental_uris":{"android":"levelo://app?vid=aa4f0503-c068-45d3-8f93-3c32e61598e4","ios":"levelo://app?vid=aa4f0503-c068-45d3-8f93-3c32e61598e4"},"vehicle_type_id":"4","last_reported":1729753780,"current_range_meters":14800,"station_id":"ce4bgup2rcd13ifvqcn0","pricing_plan_id":"cebpf4jnsgd1na2vs0mg"},{"bike_id":"aa99f811-363e-46a8-aef9-b5e22fccd73b","system_id":"levelo_inurba_marseille","lat":43.279,"lon":5.380107,"is_reserved":false,"is_disabled":false,"rental_uris":{"android":"levelo://app?vid=aa99f811-363e-46a8-aef9-b5e22fccd73b","ios":"levelo://app?vid=aa99f811-363e-46a8-aef9-b5e22fccd73b"},"vehicle_type_id":"4","last_reported":1729753780,"current_range_meters":38800,"station_id":"ce4bhf92rcd13ifvqf50","pricing_plan_id":"cebpf4jnsgd1na2vs0mg"},{"bike_id":"d7515cbf-5aa1-41fd-b258-49d42fd5997e","system_id":"levelo_inurba_marseille","lat":43.30462,"lon":5.37912,"is_reserved":false,"is_disabled":false,"rental_uris":{"android":"levelo://app?vid=d7515cbf-5aa1-41fd-b258-49d42fd5997e","ios":"levelo://app?vid=d7515cbf-5aa1-41fd-b258-49d42fd5997e"},"vehicle_type_id":"4","last_reported":1729753780,"current_range_meters":14800,"station_id":"ce4bgup2rcd13ifvqcn0","pricing_plan_id":"cebpf4jnsgd1na2vs0mg"},{"bike_id":"38482edd-0631-46af-9334-ca5dbcf750e6","system_id":"levelo_inurba_marseille","lat":43.30896,"lon":5.37207,"is_reserved":false,"is_disabled":false,"rental_uris":{"android":"levelo://app?vid=38482edd-0631-46af-9334-ca5dbcf750e6","ios":"levelo://app?vid=38482edd-0631-46af-9334-ca5dbcf750e6"},"vehicle_type_id":"4","last_reported":1729753780,"current_range_meters":36000,"station_id":"ce4bguh2rcd13ifvqckg","pricing_plan_id":"cebpf4jnsgd1na2vs0mg"},{"bike_id":"8f40f5a1-dff7-42c7-90d7-c956ea526b89","system_id":"levelo_inurba_marseille","lat":43.30143,"lon":5.37415,"is_reserved":false,"is_disabled":false,"rental_uris":{"android":"levelo://app?vid=8f40f5a1-dff7-42c7-90d7-c956ea526b89","ios":"levelo://app?vid=8f40f5a1-dff7-42c7-90d7-c956ea526b89"},"vehicle_type_id":"4","last_reported":1729753780,"current_range_meters":35200,"station_id":"ce4bgs92rcd13ifvqcc0","pricing_plan_id":"cebpf4jnsgd1na2vs0mg"},{"bike_id":"2832bc3b-df1b-46a9-9d06-298450b00efc","system_id":"levelo_inurba_marseille","lat":43.28855,"lon":5.35852,"is_reserved":false,"is_disabled":false,"rental_uris":{"android":"levelo://app?vid=2832bc3b-df1b-46a9-9d06-298450b00efc","ios":"levelo://app?vid=2832bc3b-df1b-46a9-9d06-298450b00efc"},"vehicle_type_id":"4","last_reported":1729753780,"current_range_meters":35600,"station_id":"ce4bhb12rcd13ifvqem0","pricing_plan_id":"cebpf4jnsgd1na2vs0mg"},{"bike_id":"21c6d686-0309-4b34-be15-dcea672164bd","system_id":"levelo_inurba_marseille","lat":43.30797,"lon":5.38168,"is_reserved":false,"is_disabled":false,"rental_uris":{"android":"levelo://app?vid=21c6d686-0309-4b34-be15-dcea672164bd","ios":"levelo://app?vid=21c6d686-0309-4b34-be15-dcea672164bd"},"vehicle_type_id":"4","last_reported":1729753780,"current_range_meters":11600,"station_id":"ce4bgt12rcd13ifvqce0","pricing_plan_id":"cebpf4jnsgd1na2vs0mg"},{"bike_id":"c4952fdf-4507-4eca-98d7-7fe3a0b445b0","system_id":"levelo_inurba_marseille","lat":43.26928,"lon":5.38913,"is_reserved":false,"is_disabled":false,"rental_uris":{"android":"levelo://app?vid=c4952fdf-4507-4eca-98d7-7fe3a0b445b0","ios":"levelo://app?vid=c4952fdf-4507-4eca-98d7-7fe3a0b445b0"},"vehicle_type_id":"4","last_reported":1729753780,"current_range_meters":28000,"station_id":"ce4bhhh2rcd13ifvqfl0","pricing_plan_id":"cebpf4jnsgd1na2vs0mg"},{"bike_id":"efa42ff0-fcbb-4391-98d4-4b32fd7b9000","system_id":"levelo_inurba_marseille","lat":43.3047,"lon":5.37897,"is_reserved":false,"is_disabled":false,"rental_uris":{"android":"levelo://app?vid=efa42ff0-fcbb-4391-98d4-4b32fd7b9000","ios":"levelo://app?vid=efa42ff0-fcbb-4391-98d4-4b32fd7b9000"},"vehicle_type_id":"4","last_reported":1729753780,"current_range_meters":35200,"station_id":"ce4bgup2rcd13ifvqcn0","pricing_plan_id":"cebpf4jnsgd1na2vs0mg"},{"bike_id":"96a043ce-77ce-498b-86ef-d3c6f3e0c893","system_id":"levelo_inurba_marseille","lat":43.32654,"lon":5.40997,"is_reserved":false,"is_disabled":false,"rental_uris":{"android":"levelo://app?vid=96a043ce-77ce-498b-86ef-d3c6f3e0c893","ios":"levelo://app?vid=96a043ce-77ce-498b-86ef-d3c6f3e0c893"},"vehicle_type_id":"4","last_reported":1729753780,"current_range_meters":20000,"station_id":"ce4bhpp2rcd13ifvqhgg","pricing_plan_id":"cebpf4jnsgd1na2vs0mg"},{"bike_id":"c74c66a9-6cbd-46c5-b458-bb901e39e485","system_id":"levelo_inurba_marseille","lat":43.26555,"lon":5.37282,"is_reserved":false,"is_disabled":false,"rental_uris":{"android":"levelo://app?vid=c74c66a9-6cbd-46c5-b458-bb901e39e485","ios":"levelo://app?vid=c74c66a9-6cbd-46c5-b458-bb901e39e485"},"vehicle_type_id":"4","last_reported":1729753780,"current_range_meters":9600,"station_id":"ce4bhg12rcd13ifvqf70","pricing_plan_id":"cebpf4jnsgd1na2vs0mg"},{"bike_id":"15bf3f86-f551-45cf-aa6e-89d9451c8125","system_id":"levelo_inurba_marseille","lat":43.28454,"lon":5.35894,"is_reserved":false,"is_disabled":false,"rental_uris":{"android":"levelo://app?vid=15bf3f86-f551-45cf-aa6e-89d9451c8125","ios":"levelo://app?vid=15bf3f86-f551-45cf-aa6e-89d9451c8125"},"vehicle_type_id":"4","last_reported":1729753780,"current_range_meters":38400,"station_id":"ce4bhah2rcd13ifvqei0","pricing_plan_id":"cebpf4jnsgd1na2vs0mg"},{"bike_id":"87b6995d-9c77-4c54-bef7-5ea2d7376b5f","system_id":"levelo_inurba_marseille","lat":43.30269,"lon":5.37698,"is_reserved":false,"is_disabled":false,"rental_uris":{"android":"levelo://app?vid=87b6995d-9c77-4c54-bef7-5ea2d7376b5f","ios":"levelo://app?vid=87b6995d-9c77-4c54-bef7-5ea2d7376b5f"},"vehicle_type_id":"4","last_reported":1729753780,"current_range_meters":11200,"station_id":"ce4bguh2rcd13ifvqcj0","pricing_plan_id":"cebpf4jnsgd1na2vs0mg"},{"bike_id":"08a41d86-bf74-42d1-b350-4800246eef64","system_id":"levelo_inurba_marseille","lat":43.24183,"lon":5.38812,"is_reserved":false,"is_disabled":false,"rental_uris":{"android":"levelo://app?vid=08a41d86-bf74-42d1-b350-4800246eef64","ios":"levelo://app?vid=08a41d86-bf74-42d1-b350-4800246eef64"},"vehicle_type_id":"4","last_reported":1729753780,"current_range_meters":32000,"station_id":"","pricing_plan_id":"cebpf4jnsgd1na2vs0mg"},{"bike_id":"db69ea4c-1c7d-43a0-b7f1-e0da5b76f2ea","system_id":"levelo_inurba_marseille","lat":43.28433,"lon":5.45948,"is_reserved":false,"is_disabled":false,"rental_uris":{"android":"levelo://app?vid=db69ea4c-1c7d-43a0-b7f1-e0da5b76f2ea","ios":"levelo://app?vid=db69ea4c-1c7d-43a0-b7f1-e0da5b76f2ea"},"vehicle_type_id":"4","last_reported":1729753780,"current_range_meters":9600,"station_id":"","pricing_plan_id":"cebpf4jnsgd1na2vs0mg"},{"bike_id":"ec787f1a-01a2-4575-b819-14ce3e52d368","system_id":"levelo_inurba_marseille","lat":43.33722,"lon":5.39186,"is_reserved":false,"is_disabled":false,"rental_uris":{"android":"levelo://app?vid=ec787f1a-01a2-4575-b819-14ce3e52d368","ios":"levelo://app?vid=ec787f1a-01a2-4575-b819-14ce3e52d368"},"vehicle_type_id":"4","last_reported":1729753780,"current_range_meters":27600,"station_id":"ce4bhr92rcd13ifvqhsg","pricing_plan_id":"cebpf4jnsgd1na2vs0mg"},{"bike_id":"336dc2a1-9f47-4122-a45b-661b7b212b9e","system_id":"levelo_inurba_marseille","lat":43.28972,"lon":5.37836,"is_reserved":false,"is_disabled":false,"rental_uris":{"android":"levelo://app?vid=336dc2a1-9f47-4122-a45b-661b7b212b9e","ios":"levelo://app?vid=336dc2a1-9f47-4122-a45b-661b7b212b9e"},"vehicle_type_id":"4","last_reported":1729753780,"current_range_meters":2000,"station_id":"ce4bh9p2rcd13ifvqed0","pricing_plan_id":"cebpf4jnsgd1na2vs0mg"},{"bike_id":"448e7c40-cd4f-4d9b-a9a6-9b669b0b0b3f","system_id":"levelo_inurba_marseille","lat":43.29621,"lon":5.37172,"is_reserved":false,"is_disabled":false,"rental_uris":{"android":"levelo://app?vid=448e7c40-cd4f-4d9b-a9a6-9b669b0b0b3f","ios":"levelo://app?vid=448e7c40-cd4f-4d9b-a9a6-9b669b0b0b3f"},"vehicle_type_id":"4","last_reported":1729753780,"current_range_meters":31200,"station_id":"ce4bgnh2rcd13ifvqc0g","pricing_plan_id":"cebpf4jnsgd1na2vs0mg"},{"bike_id":"bd43ec2f-c4b1-4ce2-b7ac-96c83c81bf39","system_id":"levelo_inurba_marseille","lat":43.24993,"lon":5.38931,"is_reserved":false,"is_disabled":false,"rental_uris":{"android":"levelo://app?vid=bd43ec2f-c4b1-4ce2-b7ac-96c83c81bf39","ios":"levelo://app?vid=bd43ec2f-c4b1-4ce2-b7ac-96c83c81bf39"},"vehicle_type_id":"4","last_reported":1729753780,"current_range_meters":30000,"station_id":"ce4bhgp2rcd13ifvqfd0","pricing_plan_id":"cebpf4jnsgd1na2vs0mg"},{"bike_id":"b995583f-b1c8-4b22-98b9-9d5eb39de5d2","system_id":"levelo_inurba_marseille","lat":43.30152,"lon":5.38074,"is_reserved":false,"is_disabled":false,"rental_uris":{"android":"levelo://app?vid=b995583f-b1c8-4b22-98b9-9d5eb39de5d2","ios":"levelo://app?vid=b995583f-b1c8-4b22-98b9-9d5eb39de5d2"},"vehicle_type_id":"4","last_reported":1729753780,"current_range_meters":27600,"station_id":"ce4bgjp2rcd13ifvqbh0","pricing_plan_id":"cebpf4jnsgd1na2vs0mg"},{"bike_id":"ec13b053-8bdc-432d-87d1-aad3d3afed5b","system_id":"levelo_inurba_marseille","lat":43.30469,"lon":5.37901,"is_reserved":false,"is_disabled":false,"rental_uris":{"android":"levelo://app?vid=ec13b053-8bdc-432d-87d1-aad3d3afed5b","ios":"levelo://app?vid=ec13b053-8bdc-432d-87d1-aad3d3afed5b"},"vehicle_type_id":"4","last_reported":1729753780,"current_range_meters":38800,"station_id":"ce4bgup2rcd13ifvqcn0","pricing_plan_id":"cebpf4jnsgd1na2vs0mg"},{"bike_id":"f1263351-9f0f-41ba-b8f6-38db19b22437","system_id":"levelo_inurba_marseille","lat":43.30472,"lon":5.37912,"is_reserved":false,"is_disabled":false,"rental_uris":{"android":"levelo://app?vid=f1263351-9f0f-41ba-b8f6-38db19b22437","ios":"levelo://app?vid=f1263351-9f0f-41ba-b8f6-38db19b22437"},"vehicle_type_id":"4","last_reported":1729753780,"current_range_meters":28400,"station_id":"ce4bgup2rcd13ifvqcn0","pricing_plan_id":"cebpf4jnsgd1na2vs0mg"},{"bike_id":"0994d49a-7eed-4d8a-bcc8-9e28c022f3c4","system_id":"levelo_inurba_marseille","lat":43.30557,"lon":5.36541,"is_reserved":false,"is_disabled":false,"rental_uris":{"android":"levelo://app?vid=0994d49a-7eed-4d8a-bcc8-9e28c022f3c4","ios":"levelo://app?vid=0994d49a-7eed-4d8a-bcc8-9e28c022f3c4"},"vehicle_type_id":"4","last_reported":1729753780,"current_range_meters":26800,"station_id":"ce4bgs12rcd13ifvqcag","pricing_plan_id":"cebpf4jnsgd1na2vs0mg"},{"bike_id":"f990f0f4-bf4b-41b4-a95e-0260b16863b6","system_id":"levelo_inurba_marseille","lat":43.3031,"lon":5.36897,"is_reserved":false,"is_disabled":false,"rental_uris":{"android":"levelo://app?vid=f990f0f4-bf4b-41b4-a95e-0260b16863b6","ios":"levelo://app?vid=f990f0f4-bf4b-41b4-a95e-0260b16863b6"},"vehicle_type_id":"4","last_reported":1729753780,"current_range_meters":34800,"station_id":"ce4bgqh2rcd13ifvqc5g","pricing_plan_id":"cebpf4jnsgd1na2vs0mg"},{"bike_id":"32090a56-d013-4d5c-8379-d81e2e46055b","system_id":"levelo_inurba_marseille","lat":43.24659,"lon":5.38171,"is_reserved":false,"is_disabled":false,"rental_uris":{"android":"levelo://app?vid=32090a56-d013-4d5c-8379-d81e2e46055b","ios":"levelo://app?vid=32090a56-d013-4d5c-8379-d81e2e46055b"},"vehicle_type_id":"4","last_reported":1729753780,"current_range_meters":6800,"station_id":"ce4bhih2rcd13ifvqfr0","pricing_plan_id":"cebpf4jnsgd1na2vs0mg"},{"bike_id":"ee56864d-0289-4ab0-b1d9-4e118a6c50f5","system_id":"levelo_inurba_marseille","lat":43.34142,"lon":5.40895,"is_reserved":false,"is_disabled":false,"rental_uris":{"android":"levelo://app?vid=ee56864d-0289-4ab0-b1d9-4e118a6c50f5","ios":"levelo://app?vid=ee56864d-0289-4ab0-b1d9-4e118a6c50f5"},"vehicle_type_id":"4","last_reported":1729753780,"current_range_meters":39200,"station_id":"ce4bhqh2rcd13ifvqhlg","pricing_plan_id":"cebpf4jnsgd1na2vs0mg"},{"bike_id":"1e0bfa34-cda6-4930-a78a-aab2c731dbff","system_id":"levelo_inurba_marseille","lat":43.30547,"lon":5.36561,"is_reserved":false,"is_disabled":false,"rental_uris":{"android":"levelo://app?vid=1e0bfa34-cda6-4930-a78a-aab2c731dbff","ios":"levelo://app?vid=1e0bfa34-cda6-4930-a78a-aab2c731dbff"},"vehicle_type_id":"4","last_reported":1729753780,"current_range_meters":4400,"station_id":"ce4bgs12rcd13ifvqcag","pricing_plan_id":"cebpf4jnsgd1na2vs0mg"},{"bike_id":"7913233d-fb51-4bd4-b266-33309023b21a","system_id":"levelo_inurba_marseille","lat":43.30149,"lon":5.38078,"is_reserved":false,"is_disabled":false,"rental_uris":{"android":"levelo://app?vid=7913233d-fb51-4bd4-b266-33309023b21a","ios":"levelo://app?vid=7913233d-fb51-4bd4-b266-33309023b21a"},"vehicle_type_id":"4","last_reported":1729753780,"current_range_meters":33600,"station_id":"ce4bgjp2rcd13ifvqbh0","pricing_plan_id":"cebpf4jnsgd1na2vs0mg"},{"bike_id":"8851e641-2a34-4df4-9c62-4bc8ce7ebb4a","system_id":"levelo_inurba_marseille","lat":43.28692,"lon":5.37395,"is_reserved":false,"is_disabled":false,"rental_uris":{"android":"levelo://app?vid=8851e641-2a34-4df4-9c62-4bc8ce7ebb4a","ios":"levelo://app?vid=8851e641-2a34-4df4-9c62-4bc8ce7ebb4a"},"vehicle_type_id":"4","last_reported":1729753780,"current_range_meters":37600,"station_id":"ce4bh3p2rcd13ifvqdq0","pricing_plan_id":"cebpf4jnsgd1na2vs0mg"},{"bike_id":"05a0d57c-8c95-4215-bcd6-85aea099ed42","system_id":"levelo_inurba_marseille","lat":43.23155,"lon":5.437,"is_reserved":false,"is_disabled":false,"rental_uris":{"android":"levelo://app?vid=05a0d57c-8c95-4215-bcd6-85aea099ed42","ios":"levelo://app?vid=05a0d57c-8c95-4215-bcd6-85aea099ed42"},"vehicle_type_id":"4","last_reported":1729753780,"current_range_meters":30800,"station_id":"ce4bhmp2rcd13ifvqgog","pricing_plan_id":"cebpf4jnsgd1na2vs0mg"},{"bike_id":"71d7f328-a427-4358-bc2f-cc1d51a56f06","system_id":"levelo_inurba_marseille","lat":43.30957,"lon":5.39031,"is_reserved":false,"is_disabled":false,"rental_uris":{"android":"levelo://app?vid=71d7f328-a427-4358-bc2f-cc1d51a56f06","ios":"levelo://app?vid=71d7f328-a427-4358-bc2f-cc1d51a56f06"},"vehicle_type_id":"4","last_reported":1729753780,"current_range_meters":18800,"station_id":"ce4bgup2rcd13ifvqco0","pricing_plan_id":"cebpf4jnsgd1na2vs0mg"},{"bike_id":"3a904881-c49f-42f3-ab29-bca1bed304a9","system_id":"levelo_inurba_marseille","lat":43.25938,"lon":5.40899,"is_reserved":false,"is_disabled":false,"rental_uris":{"android":"levelo://app?vid=3a904881-c49f-42f3-ab29-bca1bed304a9","ios":"levelo://app?vid=3a904881-c49f-42f3-ab29-bca1bed304a9"},"vehicle_type_id":"4","last_reported":1729753780,"current_range_meters":28000,"station_id":"ce4bhm92rcd13ifvqglg","pricing_plan_id":"cebpf4jnsgd1na2vs0mg"},{"bike_id":"53100c54-a4e3-45a7-9427-b292d95b6c16","system_id":"levelo_inurba_marseille","lat":43.30883,"lon":5.37193,"is_reserved":false,"is_disabled":false,"rental_uris":{"android":"levelo://app?vid=53100c54-a4e3-45a7-9427-b292d95b6c16","ios":"levelo://app?vid=53100c54-a4e3-45a7-9427-b292d95b6c16"},"vehicle_type_id":"4","last_reported":1729753780,"current_range_meters":38800,"station_id":"ce4bguh2rcd13ifvqckg","pricing_plan_id":"cebpf4jnsgd1na2vs0mg"},{"bike_id":"293a0eda-a37d-4172-bb6f-d028643c9783","system_id":"levelo_inurba_marseille","lat":43.23145,"lon":5.43718,"is_reserved":false,"is_disabled":false,"rental_uris":{"android":"levelo://app?vid=293a0eda-a37d-4172-bb6f-d028643c9783","ios":"levelo://app?vid=293a0eda-a37d-4172-bb6f-d028643c9783"},"vehicle_type_id":"4","last_reported":1729753780,"current_range_meters":16400,"station_id":"ce4bhmp2rcd13ifvqgog","pricing_plan_id":"cebpf4jnsgd1na2vs0mg"},{"bike_id":"29c617a6-00f3-460d-abea-5d05c6478338","system_id":"levelo_inurba_marseille","lat":43.25934,"lon":5.40911,"is_reserved":false,"is_disabled":false,"rental_uris":{"android":"levelo://app?vid=29c617a6-00f3-460d-abea-5d05c6478338","ios":"levelo://app?vid=29c617a6-00f3-460d-abea-5d05c6478338"},"vehicle_type_id":"4","last_reported":1729753780,"current_range_meters":38000,"station_id":"ce4bhm92rcd13ifvqglg","pricing_plan_id":"cebpf4jnsgd1na2vs0mg"},{"bike_id":"7047a3bf-94a7-4264-823c-a5d9cb990656","system_id":"levelo_inurba_marseille","lat":43.29262,"lon":5.40143,"is_reserved":false,"is_disabled":false,"rental_uris":{"android":"levelo://app?vid=7047a3bf-94a7-4264-823c-a5d9cb990656","ios":"levelo://app?vid=7047a3bf-94a7-4264-823c-a5d9cb990656"},"vehicle_type_id":"4","last_reported":1729753780,"current_range_meters":20800,"station_id":"ce4bh312rcd13ifvqdk0","pricing_plan_id":"cebpf4jnsgd1na2vs0mg"},{"bike_id":"91bfa645-9cfa-4568-8072-595cbd3b9c72","system_id":"levelo_inurba_marseille","lat":43.28908,"lon":5.36106,"is_reserved":false,"is_disabled":false,"rental_uris":{"android":"levelo://app?vid=91bfa645-9cfa-4568-8072-595cbd3b9c72","ios":"levelo://app?vid=91bfa645-9cfa-4568-8072-595cbd3b9c72"},"vehicle_type_id":"4","last_reported":1729753780,"current_range_meters":24400,"station_id":"","pricing_plan_id":"cebpf4jnsgd1na2vs0mg"},{"bike_id":"92a6c0a9-673b-4b80-acf9-a133e3259aea","system_id":"levelo_inurba_marseille","lat":43.31221,"lon":5.36865,"is_reserved":false,"is_disabled":false,"rental_uris":{"android":"levelo://app?vid=92a6c0a9-673b-4b80-acf9-a133e3259aea","ios":"levelo://app?vid=92a6c0a9-673b-4b80-acf9-a133e3259aea"},"vehicle_type_id":"4","last_reported":1729753780,"current_range_meters":34800,"station_id":"ce4bgl92rcd13ifvqbq0","pricing_plan_id":"cebpf4jnsgd1na2vs0mg"},{"bike_id":"835c24e0-80ee-4321-97dc-0c2a526a960c","system_id":"levelo_inurba_marseille","lat":43.30468,"lon":5.37907,"is_reserved":false,"is_disabled":false,"rental_uris":{"android":"levelo://app?vid=835c24e0-80ee-4321-97dc-0c2a526a960c","ios":"levelo://app?vid=835c24e0-80ee-4321-97dc-0c2a526a960c"},"vehicle_type_id":"4","last_reported":1729753780,"current_range_meters":22800,"station_id":"ce4bgup2rcd13ifvqcn0","pricing_plan_id":"cebpf4jnsgd1na2vs0mg"},{"bike_id":"12965f57-3a1d-4768-83c5-e018ff17ce98","system_id":"levelo_inurba_marseille","lat":43.24172,"lon":5.39734,"is_reserved":false,"is_disabled":false,"rental_uris":{"android":"levelo://app?vid=12965f57-3a1d-4768-83c5-e018ff17ce98","ios":"levelo://app?vid=12965f57-3a1d-4768-83c5-e018ff17ce98"},"vehicle_type_id":"4","last_reported":1729753780,"current_range_meters":38800,"station_id":"ce4bhn12rcd13ifvqgpg","pricing_plan_id":"cebpf4jnsgd1na2vs0mg"},{"bike_id":"8ba70215-a884-4d71-9485-545809fd8d40","system_id":"levelo_inurba_marseille","lat":43.26781,"lon":5.39412,"is_reserved":false,"is_disabled":false,"rental_uris":{"android":"levelo://app?vid=8ba70215-a884-4d71-9485-545809fd8d40","ios":"levelo://app?vid=8ba70215-a884-4d71-9485-545809fd8d40"},"vehicle_type_id":"4","last_reported":1729753780,"current_range_meters":27600,"station_id":"ce4bhh12rcd13ifvqfg0","pricing_plan_id":"cebpf4jnsgd1na2vs0mg"},{"bike_id":"0300ae8c-d89e-4fc9-94c4-e4571dd93d5f","system_id":"levelo_inurba_marseille","lat":43.24643,"lon":5.4247,"is_reserved":false,"is_disabled":false,"rental_uris":{"android":"levelo://app?vid=0300ae8c-d89e-4fc9-94c4-e4571dd93d5f","ios":"levelo://app?vid=0300ae8c-d89e-4fc9-94c4-e4571dd93d5f"},"vehicle_type_id":"4","last_reported":1729753780,"current_range_meters":32400,"station_id":"","pricing_plan_id":"cebpf4jnsgd1na2vs0mg"},{"bike_id":"443ee2dd-84cd-40bf-ab91-1e9a93413591","system_id":"levelo_inurba_marseille","lat":43.28842,"lon":5.35842,"is_reserved":false,"is_disabled":false,"rental_uris":{"android":"levelo://app?vid=443ee2dd-84cd-40bf-ab91-1e9a93413591","ios":"levelo://app?vid=443ee2dd-84cd-40bf-ab91-1e9a93413591"},"vehicle_type_id":"4","last_reported":1729753780,"current_range_meters":33200,"station_id":"ce4bhb12rcd13ifvqem0","pricing_plan_id":"cebpf4jnsgd1na2vs0mg"},{"bike_id":"8b368eb4-d88f-4e27-9a59-f48c296d2a4c","system_id":"levelo_inurba_marseille","lat":43.27993,"lon":5.41673,"is_reserved":false,"is_disabled":false,"rental_uris":{"android":"levelo://app?vid=8b368eb4-d88f-4e27-9a59-f48c296d2a4c","ios":"levelo://app?vid=8b368eb4-d88f-4e27-9a59-f48c296d2a4c"},"vehicle_type_id":"4","last_reported":1729753780,"current_range_meters":24000,"station_id":"ce4bho12rcd13ifvqh1g","pricing_plan_id":"cebpf4jnsgd1na2vs0mg"},{"bike_id":"a159004c-6b0d-4cda-b6c0-b8546774c9f5","system_id":"levelo_inurba_marseille","lat":43.24542,"lon":5.39523,"is_reserved":false,"is_disabled":false,"rental_uris":{"android":"levelo://app?vid=a159004c-6b0d-4cda-b6c0-b8546774c9f5","ios":"levelo://app?vid=a159004c-6b0d-4cda-b6c0-b8546774c9f5"},"vehicle_type_id":"4","last_reported":1729753780,"current_range_meters":4800,"station_id":"ce4bhlp2rcd13ifvqgjg","pricing_plan_id":"cebpf4jnsgd1na2vs0mg"},{"bike_id":"fd9701c6-ca47-4ddc-b523-a4a888532baa","system_id":"levelo_inurba_marseille","lat":43.30464,"lon":5.37899,"is_reserved":false,"is_disabled":false,"rental_uris":{"android":"levelo://app?vid=fd9701c6-ca47-4ddc-b523-a4a888532baa","ios":"levelo://app?vid=fd9701c6-ca47-4ddc-b523-a4a888532baa"},"vehicle_type_id":"4","last_reported":1729753780,"current_range_meters":17600,"station_id":"ce4bgup2rcd13ifvqcn0","pricing_plan_id":"cebpf4jnsgd1na2vs0mg"},{"bike_id":"0964197e-a959-42c5-83d3-1a0d8ca2b4c5","system_id":"levelo_inurba_marseille","lat":43.30462,"lon":5.37914,"is_reserved":false,"is_disabled":false,"rental_uris":{"android":"levelo://app?vid=0964197e-a959-42c5-83d3-1a0d8ca2b4c5","ios":"levelo://app?vid=0964197e-a959-42c5-83d3-1a0d8ca2b4c5"},"vehicle_type_id":"4","last_reported":1729753780,"current_range_meters":38800,"station_id":"ce4bgup2rcd13ifvqcn0","pricing_plan_id":"cebpf4jnsgd1na2vs0mg"},{"bike_id":"9c980766-3696-42be-8e1a-d22fb6edb5c5","system_id":"levelo_inurba_marseille","lat":43.3063,"lon":5.38223,"is_reserved":false,"is_disabled":false,"rental_uris":{"android":"levelo://app?vid=9c980766-3696-42be-8e1a-d22fb6edb5c5","ios":"levelo://app?vid=9c980766-3696-42be-8e1a-d22fb6edb5c5"},"vehicle_type_id":"4","last_reported":1729753780,"current_range_meters":28800,"station_id":"","pricing_plan_id":"cebpf4jnsgd1na2vs0mg"},{"bike_id":"fe164d07-c2c2-4793-9b1e-6b6f0bf7d295","system_id":"levelo_inurba_marseille","lat":43.30151,"lon":5.38073,"is_reserved":false,"is_disabled":false,"rental_uris":{"android":"levelo://app?vid=fe164d07-c2c2-4793-9b1e-6b6f0bf7d295","ios":"levelo://app?vid=fe164d07-c2c2-4793-9b1e-6b6f0bf7d295"},"vehicle_type_id":"4","last_reported":1729753780,"current_range_meters":36400,"station_id":"ce4bgjp2rcd13ifvqbh0","pricing_plan_id":"cebpf4jnsgd1na2vs0mg"},{"bike_id":"aaad5918-3236-4251-91d5-23e92e34f36d","system_id":"levelo_inurba_marseille","lat":43.29361,"lon":5.3785,"is_reserved":false,"is_disabled":false,"rental_uris":{"android":"levelo://app?vid=aaad5918-3236-4251-91d5-23e92e34f36d","ios":"levelo://app?vid=aaad5918-3236-4251-91d5-23e92e34f36d"},"vehicle_type_id":"4","last_reported":1729753780,"current_range_meters":12400,"station_id":"ce4bgjh2rcd13ifvqbf0","pricing_plan_id":"cebpf4jnsgd1na2vs0mg"},{"bike_id":"fbf97ef8-bd1b-4c04-9a9d-32289ab679c9","system_id":"levelo_inurba_marseille","lat":43.31701,"lon":5.3776,"is_reserved":false,"is_disabled":false,"rental_uris":{"android":"levelo://app?vid=fbf97ef8-bd1b-4c04-9a9d-32289ab679c9","ios":"levelo://app?vid=fbf97ef8-bd1b-4c04-9a9d-32289ab679c9"},"vehicle_type_id":"4","last_reported":1729753780,"current_range_meters":38800,"station_id":"ce4bgth2rcd13ifvqch0","pricing_plan_id":"cebpf4jnsgd1na2vs0mg"},{"bike_id":"e9ad741b-3551-466e-b5bc-26b5d5b49933","system_id":"levelo_inurba_marseille","lat":43.24806,"lon":5.37456,"is_reserved":false,"is_disabled":false,"rental_uris":{"android":"levelo://app?vid=e9ad741b-3551-466e-b5bc-26b5d5b49933","ios":"levelo://app?vid=e9ad741b-3551-466e-b5bc-26b5d5b49933"},"vehicle_type_id":"4","last_reported":1729753780,"current_range_meters":30800,"station_id":"ce4bhgh2rcd13ifvqfb0","pricing_plan_id":"cebpf4jnsgd1na2vs0mg"},{"bike_id":"9a199fdc-356b-4ef8-bdfd-a18029f970d4","system_id":"levelo_inurba_marseille","lat":43.31338,"lon":5.36712,"is_reserved":false,"is_disabled":false,"rental_uris":{"android":"levelo://app?vid=9a199fdc-356b-4ef8-bdfd-a18029f970d4","ios":"levelo://app?vid=9a199fdc-356b-4ef8-bdfd-a18029f970d4"},"vehicle_type_id":"4","last_reported":1729753780,"current_range_meters":16800,"station_id":"ce4bgr92rcd13ifvqc6g","pricing_plan_id":"cebpf4jnsgd1na2vs0mg"},{"bike_id":"8d3a665e-b607-4c6b-bfa9-0539dee50c40","system_id":"levelo_inurba_marseille","lat":43.30462,"lon":5.37907,"is_reserved":false,"is_disabled":false,"rental_uris":{"android":"levelo://app?vid=8d3a665e-b607-4c6b-bfa9-0539dee50c40","ios":"levelo://app?vid=8d3a665e-b607-4c6b-bfa9-0539dee50c40"},"vehicle_type_id":"4","last_reported":1729753780,"current_range_meters":28800,"station_id":"ce4bgup2rcd13ifvqcn0","pricing_plan_id":"cebpf4jnsgd1na2vs0mg"},{"bike_id":"f2d61d8e-b330-4f19-85fc-278ebd52f014","system_id":"levelo_inurba_marseille","lat":43.29552,"lon":5.4229,"is_reserved":false,"is_disabled":false,"rental_uris":{"android":"levelo://app?vid=f2d61d8e-b330-4f19-85fc-278ebd52f014","ios":"levelo://app?vid=f2d61d8e-b330-4f19-85fc-278ebd52f014"},"vehicle_type_id":"4","last_reported":1729753780,"current_range_meters":36800,"station_id":"ce4bhph2rcd13ifvqhdg","pricing_plan_id":"cebpf4jnsgd1na2vs0mg"},{"bike_id":"90c3a3ae-e1f9-49f9-8230-c82dc265a457","system_id":"levelo_inurba_marseille","lat":43.31995,"lon":5.38147,"is_reserved":false,"is_disabled":false,"rental_uris":{"android":"levelo://app?vid=90c3a3ae-e1f9-49f9-8230-c82dc265a457","ios":"levelo://app?vid=90c3a3ae-e1f9-49f9-8230-c82dc265a457"},"vehicle_type_id":"4","last_reported":1729753780,"current_range_meters":7200,"station_id":"ce4bhr12rcd13ifvqhpg","pricing_plan_id":"cebpf4jnsgd1na2vs0mg"},{"bike_id":"1227eb8d-9f23-41a3-aa69-a2da26e5ecf4","system_id":"levelo_inurba_marseille","lat":43.27201,"lon":5.39184,"is_reserved":false,"is_disabled":false,"rental_uris":{"android":"levelo://app?vid=1227eb8d-9f23-41a3-aa69-a2da26e5ecf4","ios":"levelo://app?vid=1227eb8d-9f23-41a3-aa69-a2da26e5ecf4"},"vehicle_type_id":"4","last_reported":1729753780,"current_range_meters":30400,"station_id":"ce4bhhp2rcd13ifvqfm0","pricing_plan_id":"cebpf4jnsgd1na2vs0mg"},{"bike_id":"e6b310af-d763-4708-a97e-f6f2e27c7b8b","system_id":"levelo_inurba_marseille","lat":43.27172,"lon":5.4098,"is_reserved":false,"is_disabled":false,"rental_uris":{"android":"levelo://app?vid=e6b310af-d763-4708-a97e-f6f2e27c7b8b","ios":"levelo://app?vid=e6b310af-d763-4708-a97e-f6f2e27c7b8b"},"vehicle_type_id":"4","last_reported":1729753780,"current_range_meters":8400,"station_id":"ce4bhl12rcd13ifvqgf0","pricing_plan_id":"cebpf4jnsgd1na2vs0mg"},{"bike_id":"fb27a464-e585-4aa2-8d67-69d5ca446418","system_id":"levelo_inurba_marseille","lat":43.32033,"lon":5.41578,"is_reserved":false,"is_disabled":false,"rental_uris":{"android":"levelo://app?vid=fb27a464-e585-4aa2-8d67-69d5ca446418","ios":"levelo://app?vid=fb27a464-e585-4aa2-8d67-69d5ca446418"},"vehicle_type_id":"4","last_reported":1729753780,"current_range_meters":18000,"station_id":"ce4bhq92rcd13ifvqhkg","pricing_plan_id":"cebpf4jnsgd1na2vs0mg"},{"bike_id":"f36ff287-1568-4c08-93bf-292e61a3a499","system_id":"levelo_inurba_marseille","lat":43.30464,"lon":5.37906,"is_reserved":false,"is_disabled":false,"rental_uris":{"android":"levelo://app?vid=f36ff287-1568-4c08-93bf-292e61a3a499","ios":"levelo://app?vid=f36ff287-1568-4c08-93bf-292e61a3a499"},"vehicle_type_id":"4","last_reported":1729753780,"current_range_meters":39200,"station_id":"ce4bgup2rcd13ifvqcn0","pricing_plan_id":"cebpf4jnsgd1na2vs0mg"},{"bike_id":"57dfa82b-35a5-4e19-9a9a-cd2e56a43c86","system_id":"levelo_inurba_marseille","lat":43.30467,"lon":5.37898,"is_reserved":false,"is_disabled":false,"rental_uris":{"android":"levelo://app?vid=57dfa82b-35a5-4e19-9a9a-cd2e56a43c86","ios":"levelo://app?vid=57dfa82b-35a5-4e19-9a9a-cd2e56a43c86"},"vehicle_type_id":"4","last_reported":1729753780,"current_range_meters":38800,"station_id":"ce4bgup2rcd13ifvqcn0","pricing_plan_id":"cebpf4jnsgd1na2vs0mg"},{"bike_id":"0d3c81fa-6a31-4452-b5b1-b7fbe245fca5","system_id":"levelo_inurba_marseille","lat":43.29079,"lon":5.37165,"is_reserved":false,"is_disabled":false,"rental_uris":{"android":"levelo://app?vid=0d3c81fa-6a31-4452-b5b1-b7fbe245fca5","ios":"levelo://app?vid=0d3c81fa-6a31-4452-b5b1-b7fbe245fca5"},"vehicle_type_id":"4","last_reported":1729753780,"current_range_meters":9200,"station_id":"ce4bh5p2rcd13ifvqe4g","pricing_plan_id":"cebpf4jnsgd1na2vs0mg"},{"bike_id":"61ce41c0-c830-4f5f-b326-d71c02bdc8f9","system_id":"levelo_inurba_marseille","lat":43.33729,"lon":5.39176,"is_reserved":false,"is_disabled":false,"rental_uris":{"android":"levelo://app?vid=61ce41c0-c830-4f5f-b326-d71c02bdc8f9","ios":"levelo://app?vid=61ce41c0-c830-4f5f-b326-d71c02bdc8f9"},"vehicle_type_id":"4","last_reported":1729753780,"current_range_meters":38000,"station_id":"ce4bhr92rcd13ifvqhsg","pricing_plan_id":"cebpf4jnsgd1na2vs0mg"},{"bike_id":"53643c73-ebff-4438-9bbc-d1455671aa2b","system_id":"levelo_inurba_marseille","lat":43.32002,"lon":5.38148,"is_reserved":false,"is_disabled":false,"rental_uris":{"android":"levelo://app?vid=53643c73-ebff-4438-9bbc-d1455671aa2b","ios":"levelo://app?vid=53643c73-ebff-4438-9bbc-d1455671aa2b"},"vehicle_type_id":"4","last_reported":1729753780,"current_range_meters":30400,"station_id":"ce4bhr12rcd13ifvqhpg","pricing_plan_id":"cebpf4jnsgd1na2vs0mg"},{"bike_id":"ccdc46be-3359-4fc8-85a3-4029df8711ec","system_id":"levelo_inurba_marseille","lat":43.26685,"lon":5.38274,"is_reserved":false,"is_disabled":false,"rental_uris":{"android":"levelo://app?vid=ccdc46be-3359-4fc8-85a3-4029df8711ec","ios":"levelo://app?vid=ccdc46be-3359-4fc8-85a3-4029df8711ec"},"vehicle_type_id":"4","last_reported":1729753780,"current_range_meters":35600,"station_id":"ce4bhg92rcd13ifvqf90","pricing_plan_id":"cebpf4jnsgd1na2vs0mg"},{"bike_id":"b1f744b5-3965-482e-866d-9ca62efe429a","system_id":"levelo_inurba_marseille","lat":43.31882,"lon":5.40744,"is_reserved":false,"is_disabled":false,"rental_uris":{"android":"levelo://app?vid=b1f744b5-3965-482e-866d-9ca62efe429a","ios":"levelo://app?vid=b1f744b5-3965-482e-866d-9ca62efe429a"},"vehicle_type_id":"4","last_reported":1729753780,"current_range_meters":24400,"station_id":"ce4bhq12rcd13ifvqhig","pricing_plan_id":"cebpf4jnsgd1na2vs0mg"},{"bike_id":"00a8bd9d-eef3-42e3-9e17-61a6e620d1f8","system_id":"levelo_inurba_marseille","lat":43.33021,"lon":5.39041,"is_reserved":false,"is_disabled":false,"rental_uris":{"android":"levelo://app?vid=00a8bd9d-eef3-42e3-9e17-61a6e620d1f8","ios":"levelo://app?vid=00a8bd9d-eef3-42e3-9e17-61a6e620d1f8"},"vehicle_type_id":"4","last_reported":1729753780,"current_range_meters":39200,"station_id":"ce4bhr92rcd13ifvqhrg","pricing_plan_id":"cebpf4jnsgd1na2vs0mg"},{"bike_id":"0f261f88-a2a9-4e5c-bdb1-cfc0ed81ef54","system_id":"levelo_inurba_marseille","lat":43.24999,"lon":5.38924,"is_reserved":false,"is_disabled":false,"rental_uris":{"android":"levelo://app?vid=0f261f88-a2a9-4e5c-bdb1-cfc0ed81ef54","ios":"levelo://app?vid=0f261f88-a2a9-4e5c-bdb1-cfc0ed81ef54"},"vehicle_type_id":"4","last_reported":1729753780,"current_range_meters":35200,"station_id":"ce4bhgp2rcd13ifvqfd0","pricing_plan_id":"cebpf4jnsgd1na2vs0mg"},{"bike_id":"40d7d049-8518-4ec4-b0e7-a82d69869ad0","system_id":"levelo_inurba_marseille","lat":43.30276,"lon":5.37708,"is_reserved":false,"is_disabled":false,"rental_uris":{"android":"levelo://app?vid=40d7d049-8518-4ec4-b0e7-a82d69869ad0","ios":"levelo://app?vid=40d7d049-8518-4ec4-b0e7-a82d69869ad0"},"vehicle_type_id":"4","last_reported":1729753780,"current_range_meters":39200,"station_id":"ce4bguh2rcd13ifvqcj0","pricing_plan_id":"cebpf4jnsgd1na2vs0mg"},{"bike_id":"3bd1e45c-77e7-484c-a4cd-42c393daeced","system_id":"levelo_inurba_marseille","lat":43.25935,"lon":5.40908,"is_reserved":false,"is_disabled":false,"rental_uris":{"android":"levelo://app?vid=3bd1e45c-77e7-484c-a4cd-42c393daeced","ios":"levelo://app?vid=3bd1e45c-77e7-484c-a4cd-42c393daeced"},"vehicle_type_id":"4","last_reported":1729753780,"current_range_meters":33600,"station_id":"ce4bhm92rcd13ifvqglg","pricing_plan_id":"cebpf4jnsgd1na2vs0mg"},{"bike_id":"8ce57554-64b3-4920-b8e3-71eb84b84e83","system_id":"levelo_inurba_marseille","lat":43.31339,"lon":5.36708,"is_reserved":false,"is_disabled":false,"rental_uris":{"android":"levelo://app?vid=8ce57554-64b3-4920-b8e3-71eb84b84e83","ios":"levelo://app?vid=8ce57554-64b3-4920-b8e3-71eb84b84e83"},"vehicle_type_id":"4","last_reported":1729753780,"current_range_meters":30400,"station_id":"ce4bgr92rcd13ifvqc6g","pricing_plan_id":"cebpf4jnsgd1na2vs0mg"},{"bike_id":"292ae588-7da8-4e37-83a8-3c80924cbc10","system_id":"levelo_inurba_marseille","lat":43.30327,"lon":5.36893,"is_reserved":false,"is_disabled":false,"rental_uris":{"android":"levelo://app?vid=292ae588-7da8-4e37-83a8-3c80924cbc10","ios":"levelo://app?vid=292ae588-7da8-4e37-83a8-3c80924cbc10"},"vehicle_type_id":"4","last_reported":1729753780,"current_range_meters":10800,"station_id":"ce4bgqh2rcd13ifvqc5g","pricing_plan_id":"cebpf4jnsgd1na2vs0mg"},{"bike_id":"4b6769f0-9d52-4427-92eb-85214df0463d","system_id":"levelo_inurba_marseille","lat":43.23192,"lon":5.35552,"is_reserved":false,"is_disabled":false,"rental_uris":{"android":"levelo://app?vid=4b6769f0-9d52-4427-92eb-85214df0463d","ios":"levelo://app?vid=4b6769f0-9d52-4427-92eb-85214df0463d"},"vehicle_type_id":"4","last_reported":1729753780,"current_range_meters":16400,"station_id":"ce4bhu92rcd13ifvqi70","pricing_plan_id":"cebpf4jnsgd1na2vs0mg"},{"bike_id":"4ec25af9-2c50-4187-b3b7-1dc66bf6c68a","system_id":"levelo_inurba_marseille","lat":43.28297,"lon":5.40829,"is_reserved":false,"is_disabled":false,"rental_uris":{"android":"levelo://app?vid=4ec25af9-2c50-4187-b3b7-1dc66bf6c68a","ios":"levelo://app?vid=4ec25af9-2c50-4187-b3b7-1dc66bf6c68a"},"vehicle_type_id":"4","last_reported":1729753780,"current_range_meters":8800,"station_id":"","pricing_plan_id":"cebpf4jnsgd1na2vs0mg"},{"bike_id":"4f174316-9070-468d-a457-ea6bbd8a75e5","system_id":"levelo_inurba_marseille","lat":43.31213,"lon":5.36827,"is_reserved":false,"is_disabled":false,"rental_uris":{"android":"levelo://app?vid=4f174316-9070-468d-a457-ea6bbd8a75e5","ios":"levelo://app?vid=4f174316-9070-468d-a457-ea6bbd8a75e5"},"vehicle_type_id":"4","last_reported":1729753780,"current_range_meters":20000,"station_id":"ce4bgl92rcd13ifvqbq0","pricing_plan_id":"cebpf4jnsgd1na2vs0mg"},{"bike_id":"242d4500-aa1e-4136-a85e-25ba8e445514","system_id":"levelo_inurba_marseille","lat":43.31694,"lon":5.40472,"is_reserved":false,"is_disabled":false,"rental_uris":{"android":"levelo://app?vid=242d4500-aa1e-4136-a85e-25ba8e445514","ios":"levelo://app?vid=242d4500-aa1e-4136-a85e-25ba8e445514"},"vehicle_type_id":"4","last_reported":1729753780,"current_range_meters":38800,"station_id":"ce4bh012rcd13ifvqd00","pricing_plan_id":"cebpf4jnsgd1na2vs0mg"},{"bike_id":"91989275-0d1f-4cd9-8078-425599e100f1","system_id":"levelo_inurba_marseille","lat":43.30465,"lon":5.37902,"is_reserved":false,"is_disabled":false,"rental_uris":{"android":"levelo://app?vid=91989275-0d1f-4cd9-8078-425599e100f1","ios":"levelo://app?vid=91989275-0d1f-4cd9-8078-425599e100f1"},"vehicle_type_id":"4","last_reported":1729753780,"current_range_meters":19600,"station_id":"ce4bgup2rcd13ifvqcn0","pricing_plan_id":"cebpf4jnsgd1na2vs0mg"},{"bike_id":"11f4da9f-54d4-4fc3-bb64-30048373bf8c","system_id":"levelo_inurba_marseille","lat":43.2315,"lon":5.43717,"is_reserved":false,"is_disabled":false,"rental_uris":{"android":"levelo://app?vid=11f4da9f-54d4-4fc3-bb64-30048373bf8c","ios":"levelo://app?vid=11f4da9f-54d4-4fc3-bb64-30048373bf8c"},"vehicle_type_id":"4","last_reported":1729753780,"current_range_meters":18000,"station_id":"ce4bhmp2rcd13ifvqgog","pricing_plan_id":"cebpf4jnsgd1na2vs0mg"},{"bike_id":"103ed008-6f4b-4142-8ae0-e6b210d9a427","system_id":"levelo_inurba_marseille","lat":43.22928,"lon":5.35374,"is_reserved":false,"is_disabled":false,"rental_uris":{"android":"levelo://app?vid=103ed008-6f4b-4142-8ae0-e6b210d9a427","ios":"levelo://app?vid=103ed008-6f4b-4142-8ae0-e6b210d9a427"},"vehicle_type_id":"4","last_reported":1729753780,"current_range_meters":12000,"station_id":"cpo3532slgdg3j2ikp40","pricing_plan_id":"cebpf4jnsgd1na2vs0mg"},{"bike_id":"bb92452b-e0fa-457c-8756-ff35abe487d6","system_id":"levelo_inurba_marseille","lat":43.296923,"lon":5.373475,"is_reserved":false,"is_disabled":false,"rental_uris":{"android":"levelo://app?vid=bb92452b-e0fa-457c-8756-ff35abe487d6","ios":"levelo://app?vid=bb92452b-e0fa-457c-8756-ff35abe487d6"},"vehicle_type_id":"4","last_reported":1729753780,"current_range_meters":25200,"station_id":"ce4bgk12rcd13ifvqbj0","pricing_plan_id":"cebpf4jnsgd1na2vs0mg"},{"bike_id":"38d019f9-d47d-490f-a1ed-cf43cebc293d","system_id":"levelo_inurba_marseille","lat":43.27145,"lon":5.3922,"is_reserved":false,"is_disabled":false,"rental_uris":{"android":"levelo://app?vid=38d019f9-d47d-490f-a1ed-cf43cebc293d","ios":"levelo://app?vid=38d019f9-d47d-490f-a1ed-cf43cebc293d"},"vehicle_type_id":"4","last_reported":1729753780,"current_range_meters":19200,"station_id":"ce4bhhp2rcd13ifvqfm0","pricing_plan_id":"cebpf4jnsgd1na2vs0mg"},{"bike_id":"dded596a-f90c-4c39-88ca-17060e5fd4d0","system_id":"levelo_inurba_marseille","lat":43.25933,"lon":5.40913,"is_reserved":false,"is_disabled":false,"rental_uris":{"android":"levelo://app?vid=dded596a-f90c-4c39-88ca-17060e5fd4d0","ios":"levelo://app?vid=dded596a-f90c-4c39-88ca-17060e5fd4d0"},"vehicle_type_id":"4","last_reported":1729753780,"current_range_meters":8000,"station_id":"ce4bhm92rcd13ifvqglg","pricing_plan_id":"cebpf4jnsgd1na2vs0mg"},{"bike_id":"78cd2e9b-6801-4bef-96b5-e7a5c8c2e050","system_id":"levelo_inurba_marseille","lat":43.284881,"lon":5.384254,"is_reserved":false,"is_disabled":false,"rental_uris":{"android":"levelo://app?vid=78cd2e9b-6801-4bef-96b5-e7a5c8c2e050","ios":"levelo://app?vid=78cd2e9b-6801-4bef-96b5-e7a5c8c2e050"},"vehicle_type_id":"4","last_reported":1729753780,"current_range_meters":23200,"station_id":"ce4bhhh2rcd13ifvqfk0","pricing_plan_id":"cebpf4jnsgd1na2vs0mg"},{"bike_id":"c468e0d5-c151-4f66-9d60-fecd3bd47d75","system_id":"levelo_inurba_marseille","lat":43.31884,"lon":5.4073,"is_reserved":false,"is_disabled":false,"rental_uris":{"android":"levelo://app?vid=c468e0d5-c151-4f66-9d60-fecd3bd47d75","ios":"levelo://app?vid=c468e0d5-c151-4f66-9d60-fecd3bd47d75"},"vehicle_type_id":"4","last_reported":1729753780,"current_range_meters":17200,"station_id":"ce4bhq12rcd13ifvqhig","pricing_plan_id":"cebpf4jnsgd1na2vs0mg"},{"bike_id":"e93d0849-6889-4c3b-b756-5d2c77aee686","system_id":"levelo_inurba_marseille","lat":43.279931,"lon":5.416646,"is_reserved":false,"is_disabled":false,"rental_uris":{"android":"levelo://app?vid=e93d0849-6889-4c3b-b756-5d2c77aee686","ios":"levelo://app?vid=e93d0849-6889-4c3b-b756-5d2c77aee686"},"vehicle_type_id":"4","last_reported":1729753780,"current_range_meters":38400,"station_id":"ce4bho12rcd13ifvqh1g","pricing_plan_id":"cebpf4jnsgd1na2vs0mg"},{"bike_id":"40aef2b4-8e15-4951-ac8c-4ec26d41b1e7","system_id":"levelo_inurba_marseille","lat":43.26947,"lon":5.3863,"is_reserved":false,"is_disabled":false,"rental_uris":{"android":"levelo://app?vid=40aef2b4-8e15-4951-ac8c-4ec26d41b1e7","ios":"levelo://app?vid=40aef2b4-8e15-4951-ac8c-4ec26d41b1e7"},"vehicle_type_id":"4","last_reported":1729753780,"current_range_meters":37600,"station_id":"ce4bhh92rcd13ifvqfh0","pricing_plan_id":"cebpf4jnsgd1na2vs0mg"},{"bike_id":"6f7ba4c2-3706-407e-a6b2-3253ca6cf511","system_id":"levelo_inurba_marseille","lat":43.27214,"lon":5.39183,"is_reserved":false,"is_disabled":false,"rental_uris":{"android":"levelo://app?vid=6f7ba4c2-3706-407e-a6b2-3253ca6cf511","ios":"levelo://app?vid=6f7ba4c2-3706-407e-a6b2-3253ca6cf511"},"vehicle_type_id":"4","last_reported":1729753780,"current_range_meters":21600,"station_id":"ce4bhhp2rcd13ifvqfm0","pricing_plan_id":"cebpf4jnsgd1na2vs0mg"},{"bike_id":"53c31639-0c10-4eec-929c-a4ad5bb37ce6","system_id":"levelo_inurba_marseille","lat":43.30533,"lon":5.36712,"is_reserved":false,"is_disabled":false,"rental_uris":{"android":"levelo://app?vid=53c31639-0c10-4eec-929c-a4ad5bb37ce6","ios":"levelo://app?vid=53c31639-0c10-4eec-929c-a4ad5bb37ce6"},"vehicle_type_id":"4","last_reported":1729753780,"current_range_meters":30400,"station_id":"ce4bgrp2rcd13ifvqc9g","pricing_plan_id":"cebpf4jnsgd1na2vs0mg"},{"bike_id":"0bc90dc2-cf8c-457e-a6aa-9b91de95f992","system_id":"levelo_inurba_marseille","lat":43.2278,"lon":5.41569,"is_reserved":false,"is_disabled":false,"rental_uris":{"android":"levelo://app?vid=0bc90dc2-cf8c-457e-a6aa-9b91de95f992","ios":"levelo://app?vid=0bc90dc2-cf8c-457e-a6aa-9b91de95f992"},"vehicle_type_id":"4","last_reported":1729753780,"current_range_meters":34000,"station_id":"","pricing_plan_id":"cebpf4jnsgd1na2vs0mg"},{"bike_id":"f3631442-88e4-4b99-802a-caff4044a5fa","system_id":"levelo_inurba_marseille","lat":43.25581,"lon":5.38231,"is_reserved":false,"is_disabled":false,"rental_uris":{"android":"levelo://app?vid=f3631442-88e4-4b99-802a-caff4044a5fa","ios":"levelo://app?vid=f3631442-88e4-4b99-802a-caff4044a5fa"},"vehicle_type_id":"4","last_reported":1729753780,"current_range_meters":10000,"station_id":"ce4bhih2rcd13ifvqfs0","pricing_plan_id":"cebpf4jnsgd1na2vs0mg"},{"bike_id":"762654aa-66ee-437d-8267-622f264d18c5","system_id":"levelo_inurba_marseille","lat":43.30471,"lon":5.3792,"is_reserved":false,"is_disabled":false,"rental_uris":{"android":"levelo://app?vid=762654aa-66ee-437d-8267-622f264d18c5","ios":"levelo://app?vid=762654aa-66ee-437d-8267-622f264d18c5"},"vehicle_type_id":"4","last_reported":1729753780,"current_range_meters":32000,"station_id":"ce4bgup2rcd13ifvqcn0","pricing_plan_id":"cebpf4jnsgd1na2vs0mg"},{"bike_id":"adb692e3-757f-448e-88e2-08bb58fbf765","system_id":"levelo_inurba_marseille","lat":43.304749,"lon":5.37889,"is_reserved":false,"is_disabled":false,"rental_uris":{"android":"levelo://app?vid=adb692e3-757f-448e-88e2-08bb58fbf765","ios":"levelo://app?vid=adb692e3-757f-448e-88e2-08bb58fbf765"},"vehicle_type_id":"4","last_reported":1729753780,"current_range_meters":17200,"station_id":"ce4bgup2rcd13ifvqcn0","pricing_plan_id":"cebpf4jnsgd1na2vs0mg"},{"bike_id":"77f4b066-aec9-4c35-96ec-732b3f9a5964","system_id":"levelo_inurba_marseille","lat":43.27906,"lon":5.38011,"is_reserved":false,"is_disabled":false,"rental_uris":{"android":"levelo://app?vid=77f4b066-aec9-4c35-96ec-732b3f9a5964","ios":"levelo://app?vid=77f4b066-aec9-4c35-96ec-732b3f9a5964"},"vehicle_type_id":"4","last_reported":1729753780,"current_range_meters":34000,"station_id":"ce4bhf92rcd13ifvqf50","pricing_plan_id":"cebpf4jnsgd1na2vs0mg"},{"bike_id":"bb2a666e-d4fd-434c-9930-bd52d9e92c1d","system_id":"levelo_inurba_marseille","lat":43.2594,"lon":5.40904,"is_reserved":false,"is_disabled":false,"rental_uris":{"android":"levelo://app?vid=bb2a666e-d4fd-434c-9930-bd52d9e92c1d","ios":"levelo://app?vid=bb2a666e-d4fd-434c-9930-bd52d9e92c1d"},"vehicle_type_id":"4","last_reported":1729753780,"current_range_meters":37600,"station_id":"ce4bhm92rcd13ifvqglg","pricing_plan_id":"cebpf4jnsgd1na2vs0mg"},{"bike_id":"ff00785b-04a0-4500-9ec8-1c88305f70fd","system_id":"levelo_inurba_marseille","lat":43.337444,"lon":5.374475,"is_reserved":false,"is_disabled":false,"rental_uris":{"android":"levelo://app?vid=ff00785b-04a0-4500-9ec8-1c88305f70fd","ios":"levelo://app?vid=ff00785b-04a0-4500-9ec8-1c88305f70fd"},"vehicle_type_id":"4","last_reported":1729753780,"current_range_meters":6000,"station_id":"","pricing_plan_id":"cebpf4jnsgd1na2vs0mg"},{"bike_id":"9050aa27-210e-4a00-99a6-53ce385deffc","system_id":"levelo_inurba_marseille","lat":43.29616,"lon":5.37158,"is_reserved":false,"is_disabled":false,"rental_uris":{"android":"levelo://app?vid=9050aa27-210e-4a00-99a6-53ce385deffc","ios":"levelo://app?vid=9050aa27-210e-4a00-99a6-53ce385deffc"},"vehicle_type_id":"4","last_reported":1729753780,"current_range_meters":23200,"station_id":"ce4bgnh2rcd13ifvqc0g","pricing_plan_id":"cebpf4jnsgd1na2vs0mg"},{"bike_id":"a0bfcec4-1019-4422-bc30-2e46cb48cb4e","system_id":"levelo_inurba_marseille","lat":43.33753,"lon":5.37433,"is_reserved":false,"is_disabled":false,"rental_uris":{"android":"levelo://app?vid=a0bfcec4-1019-4422-bc30-2e46cb48cb4e","ios":"levelo://app?vid=a0bfcec4-1019-4422-bc30-2e46cb48cb4e"},"vehicle_type_id":"4","last_reported":1729753780,"current_range_meters":24000,"station_id":"","pricing_plan_id":"cebpf4jnsgd1na2vs0mg"},{"bike_id":"1073f825-e44c-4e4a-b9cc-76b207edc148","system_id":"levelo_inurba_marseille","lat":43.25934,"lon":5.40909,"is_reserved":false,"is_disabled":false,"rental_uris":{"android":"levelo://app?vid=1073f825-e44c-4e4a-b9cc-76b207edc148","ios":"levelo://app?vid=1073f825-e44c-4e4a-b9cc-76b207edc148"},"vehicle_type_id":"4","last_reported":1729753780,"current_range_meters":26000,"station_id":"ce4bhm92rcd13ifvqglg","pricing_plan_id":"cebpf4jnsgd1na2vs0mg"},{"bike_id":"2b8730be-ef37-4431-9d19-d02d441014a3","system_id":"levelo_inurba_marseille","lat":43.2593,"lon":5.40912,"is_reserved":false,"is_disabled":false,"rental_uris":{"android":"levelo://app?vid=2b8730be-ef37-4431-9d19-d02d441014a3","ios":"levelo://app?vid=2b8730be-ef37-4431-9d19-d02d441014a3"},"vehicle_type_id":"4","last_reported":1729753780,"current_range_meters":33200,"station_id":"ce4bhm92rcd13ifvqglg","pricing_plan_id":"cebpf4jnsgd1na2vs0mg"},{"bike_id":"96899c8c-0ef9-4a29-be88-9667e7a7b523","system_id":"levelo_inurba_marseille","lat":43.24387,"lon":5.37064,"is_reserved":false,"is_disabled":false,"rental_uris":{"android":"levelo://app?vid=96899c8c-0ef9-4a29-be88-9667e7a7b523","ios":"levelo://app?vid=96899c8c-0ef9-4a29-be88-9667e7a7b523"},"vehicle_type_id":"4","last_reported":1729753780,"current_range_meters":36800,"station_id":"ce4bhhh2rcd13ifvqfk0","pricing_plan_id":"cebpf4jnsgd1na2vs0mg"},{"bike_id":"af860a9e-cf32-446b-acb1-d20c9a569468","system_id":"levelo_inurba_marseille","lat":43.25728,"lon":5.41107,"is_reserved":false,"is_disabled":false,"rental_uris":{"android":"levelo://app?vid=af860a9e-cf32-446b-acb1-d20c9a569468","ios":"levelo://app?vid=af860a9e-cf32-446b-acb1-d20c9a569468"},"vehicle_type_id":"4","last_reported":1729753780,"current_range_meters":36800,"station_id":"ce4bhkp2rcd13ifvqgd0","pricing_plan_id":"cebpf4jnsgd1na2vs0mg"},{"bike_id":"9cc86360-5eab-45ae-a458-952e8a91e43e","system_id":"levelo_inurba_marseille","lat":43.22933,"lon":5.35379,"is_reserved":false,"is_disabled":false,"rental_uris":{"android":"levelo://app?vid=9cc86360-5eab-45ae-a458-952e8a91e43e","ios":"levelo://app?vid=9cc86360-5eab-45ae-a458-952e8a91e43e"},"vehicle_type_id":"4","last_reported":1729753780,"current_range_meters":17600,"station_id":"cpo3532slgdg3j2ikp40","pricing_plan_id":"cebpf4jnsgd1na2vs0mg"},{"bike_id":"8a9cca5f-223c-467f-855d-d3df929a18d7","system_id":"levelo_inurba_marseille","lat":43.29035,"lon":5.37563,"is_reserved":false,"is_disabled":false,"rental_uris":{"android":"levelo://app?vid=8a9cca5f-223c-467f-855d-d3df929a18d7","ios":"levelo://app?vid=8a9cca5f-223c-467f-855d-d3df929a18d7"},"vehicle_type_id":"4","last_reported":1729753780,"current_range_meters":36800,"station_id":"ce4bh692rcd13ifvqe90","pricing_plan_id":"cebpf4jnsgd1na2vs0mg"},{"bike_id":"e58254e7-ba4e-4d9d-8fff-364ee51af42e","system_id":"levelo_inurba_marseille","lat":43.23149,"lon":5.43717,"is_reserved":false,"is_disabled":false,"rental_uris":{"android":"levelo://app?vid=e58254e7-ba4e-4d9d-8fff-364ee51af42e","ios":"levelo://app?vid=e58254e7-ba4e-4d9d-8fff-364ee51af42e"},"vehicle_type_id":"4","last_reported":1729753780,"current_range_meters":5600,"station_id":"ce4bhmp2rcd13ifvqgog","pricing_plan_id":"cebpf4jnsgd1na2vs0mg"},{"bike_id":"05083cda-b9cc-4bdd-bc7c-5ea0c6b0fa98","system_id":"levelo_inurba_marseille","lat":43.29894,"lon":5.385,"is_reserved":false,"is_disabled":false,"rental_uris":{"android":"levelo://app?vid=05083cda-b9cc-4bdd-bc7c-5ea0c6b0fa98","ios":"levelo://app?vid=05083cda-b9cc-4bdd-bc7c-5ea0c6b0fa98"},"vehicle_type_id":"4","last_reported":1729753780,"current_range_meters":6400,"station_id":"","pricing_plan_id":"cebpf4jnsgd1na2vs0mg"},{"bike_id":"334339a2-7b68-46ab-84f8-5314e58f57b5","system_id":"levelo_inurba_marseille","lat":43.308086,"lon":5.381603,"is_reserved":false,"is_disabled":false,"rental_uris":{"android":"levelo://app?vid=334339a2-7b68-46ab-84f8-5314e58f57b5","ios":"levelo://app?vid=334339a2-7b68-46ab-84f8-5314e58f57b5"},"vehicle_type_id":"4","last_reported":1729753780,"current_range_meters":37600,"station_id":"ce4bgt12rcd13ifvqce0","pricing_plan_id":"cebpf4jnsgd1na2vs0mg"},{"bike_id":"8b900a92-59b7-489f-8bcb-cd0143bc2a5d","system_id":"levelo_inurba_marseille","lat":43.29303,"lon":5.37174,"is_reserved":false,"is_disabled":false,"rental_uris":{"android":"levelo://app?vid=8b900a92-59b7-489f-8bcb-cd0143bc2a5d","ios":"levelo://app?vid=8b900a92-59b7-489f-8bcb-cd0143bc2a5d"},"vehicle_type_id":"4","last_reported":1729753780,"current_range_meters":27200,"station_id":"ce4bgh92rcd13ifvqb40","pricing_plan_id":"cebpf4jnsgd1na2vs0mg"},{"bike_id":"2791bec2-772a-458f-a57f-284af3c571b9","system_id":"levelo_inurba_marseille","lat":43.2761,"lon":5.36114,"is_reserved":false,"is_disabled":false,"rental_uris":{"android":"levelo://app?vid=2791bec2-772a-458f-a57f-284af3c571b9","ios":"levelo://app?vid=2791bec2-772a-458f-a57f-284af3c571b9"},"vehicle_type_id":"4","last_reported":1729753780,"current_range_meters":38000,"station_id":"ce4bgj92rcd13ifvqbe0","pricing_plan_id":"cebpf4jnsgd1na2vs0mg"},{"bike_id":"bbb4600c-9366-419c-8bcb-c3c1c4bc5806","system_id":"levelo_inurba_marseille","lat":43.27482,"lon":5.4246,"is_reserved":false,"is_disabled":false,"rental_uris":{"android":"levelo://app?vid=bbb4600c-9366-419c-8bcb-c3c1c4bc5806","ios":"levelo://app?vid=bbb4600c-9366-419c-8bcb-c3c1c4bc5806"},"vehicle_type_id":"4","last_reported":1729753780,"current_range_meters":38800,"station_id":"ce4bhn92rcd13ifvqgrg","pricing_plan_id":"cebpf4jnsgd1na2vs0mg"},{"bike_id":"1d81a412-c960-4c8c-a1bd-a2ce9c48f0b8","system_id":"levelo_inurba_marseille","lat":43.27976,"lon":5.38766,"is_reserved":false,"is_disabled":false,"rental_uris":{"android":"levelo://app?vid=1d81a412-c960-4c8c-a1bd-a2ce9c48f0b8","ios":"levelo://app?vid=1d81a412-c960-4c8c-a1bd-a2ce9c48f0b8"},"vehicle_type_id":"4","last_reported":1729753780,"current_range_meters":38800,"station_id":"ce4bhg12rcd13ifvqf80","pricing_plan_id":"cebpf4jnsgd1na2vs0mg"},{"bike_id":"e8d0ac63-9341-4151-adb7-1e0c24619ff3","system_id":"levelo_inurba_marseille","lat":43.33609,"lon":5.41036,"is_reserved":false,"is_disabled":false,"rental_uris":{"android":"levelo://app?vid=e8d0ac63-9341-4151-adb7-1e0c24619ff3","ios":"levelo://app?vid=e8d0ac63-9341-4151-adb7-1e0c24619ff3"},"vehicle_type_id":"4","last_reported":1729753780,"current_range_meters":35200,"station_id":"ce4bhqh2rcd13ifvqhmg","pricing_plan_id":"cebpf4jnsgd1na2vs0mg"},{"bike_id":"cfcebfa7-3f59-4d32-a8f1-45e59f6e2f26","system_id":"levelo_inurba_marseille","lat":43.22932,"lon":5.35378,"is_reserved":false,"is_disabled":false,"rental_uris":{"android":"levelo://app?vid=cfcebfa7-3f59-4d32-a8f1-45e59f6e2f26","ios":"levelo://app?vid=cfcebfa7-3f59-4d32-a8f1-45e59f6e2f26"},"vehicle_type_id":"4","last_reported":1729753780,"current_range_meters":32400,"station_id":"cpo3532slgdg3j2ikp40","pricing_plan_id":"cebpf4jnsgd1na2vs0mg"},{"bike_id":"3e381e9b-65a4-436a-a571-b4ba1ee13663","system_id":"levelo_inurba_marseille","lat":43.32483,"lon":5.36559,"is_reserved":false,"is_disabled":false,"rental_uris":{"android":"levelo://app?vid=3e381e9b-65a4-436a-a571-b4ba1ee13663","ios":"levelo://app?vid=3e381e9b-65a4-436a-a571-b4ba1ee13663"},"vehicle_type_id":"4","last_reported":1729753780,"current_range_meters":16800,"station_id":"ce4bhs12rcd13ifvqhvg","pricing_plan_id":"cebpf4jnsgd1na2vs0mg"},{"bike_id":"a3dcf7ee-59f1-4f53-936b-77f32b59962d","system_id":"levelo_inurba_marseille","lat":43.2749,"lon":5.42458,"is_reserved":false,"is_disabled":false,"rental_uris":{"android":"levelo://app?vid=a3dcf7ee-59f1-4f53-936b-77f32b59962d","ios":"levelo://app?vid=a3dcf7ee-59f1-4f53-936b-77f32b59962d"},"vehicle_type_id":"4","last_reported":1729753780,"current_range_meters":38800,"station_id":"ce4bhn92rcd13ifvqgrg","pricing_plan_id":"cebpf4jnsgd1na2vs0mg"},{"bike_id":"3a526fc6-5f14-429c-8829-287dc38ef285","system_id":"levelo_inurba_marseille","lat":43.22931,"lon":5.35374,"is_reserved":false,"is_disabled":false,"rental_uris":{"android":"levelo://app?vid=3a526fc6-5f14-429c-8829-287dc38ef285","ios":"levelo://app?vid=3a526fc6-5f14-429c-8829-287dc38ef285"},"vehicle_type_id":"4","last_reported":1729753780,"current_range_meters":32800,"station_id":"cpo3532slgdg3j2ikp40","pricing_plan_id":"cebpf4jnsgd1na2vs0mg"},{"bike_id":"50d120a1-10db-46f7-af46-f5262df90342","system_id":"levelo_inurba_marseille","lat":43.24176,"lon":5.39729,"is_reserved":false,"is_disabled":false,"rental_uris":{"android":"levelo://app?vid=50d120a1-10db-46f7-af46-f5262df90342","ios":"levelo://app?vid=50d120a1-10db-46f7-af46-f5262df90342"},"vehicle_type_id":"4","last_reported":1729753780,"current_range_meters":30400,"station_id":"ce4bhn12rcd13ifvqgpg","pricing_plan_id":"cebpf4jnsgd1na2vs0mg"},{"bike_id":"99fe6284-fb3b-440c-a562-356f6e70dcfd","system_id":"levelo_inurba_marseille","lat":43.26504,"lon":5.39529,"is_reserved":false,"is_disabled":false,"rental_uris":{"android":"levelo://app?vid=99fe6284-fb3b-440c-a562-356f6e70dcfd","ios":"levelo://app?vid=99fe6284-fb3b-440c-a562-356f6e70dcfd"},"vehicle_type_id":"4","last_reported":1729753780,"current_range_meters":32000,"station_id":"ce4bhi12rcd13ifvqfq0","pricing_plan_id":"cebpf4jnsgd1na2vs0mg"},{"bike_id":"b81b6723-1c8b-49b7-ad0b-96c74e66ddea","system_id":"levelo_inurba_marseille","lat":43.29621,"lon":5.37173,"is_reserved":false,"is_disabled":false,"rental_uris":{"android":"levelo://app?vid=b81b6723-1c8b-49b7-ad0b-96c74e66ddea","ios":"levelo://app?vid=b81b6723-1c8b-49b7-ad0b-96c74e66ddea"},"vehicle_type_id":"4","last_reported":1729753780,"current_range_meters":18000,"station_id":"ce4bgnh2rcd13ifvqc0g","pricing_plan_id":"cebpf4jnsgd1na2vs0mg"},{"bike_id":"365a5e76-e012-4983-b8a9-1a07480bde83","system_id":"levelo_inurba_marseille","lat":43.23184,"lon":5.35544,"is_reserved":false,"is_disabled":false,"rental_uris":{"android":"levelo://app?vid=365a5e76-e012-4983-b8a9-1a07480bde83","ios":"levelo://app?vid=365a5e76-e012-4983-b8a9-1a07480bde83"},"vehicle_type_id":"4","last_reported":1729753780,"current_range_meters":38800,"station_id":"ce4bhu92rcd13ifvqi70","pricing_plan_id":"cebpf4jnsgd1na2vs0mg"},{"bike_id":"938d8c4d-d673-4d78-937d-7a4db3c7b23b","system_id":"levelo_inurba_marseille","lat":43.25106,"lon":5.40326,"is_reserved":false,"is_disabled":false,"rental_uris":{"android":"levelo://app?vid=938d8c4d-d673-4d78-937d-7a4db3c7b23b","ios":"levelo://app?vid=938d8c4d-d673-4d78-937d-7a4db3c7b23b"},"vehicle_type_id":"4","last_reported":1729753780,"current_range_meters":28000,"station_id":"ce4bhlh2rcd13ifvqgig","pricing_plan_id":"cebpf4jnsgd1na2vs0mg"},{"bike_id":"0b9e4057-ab6b-4f8d-b677-caa270a65354","system_id":"levelo_inurba_marseille","lat":43.34139,"lon":5.40903,"is_reserved":false,"is_disabled":false,"rental_uris":{"android":"levelo://app?vid=0b9e4057-ab6b-4f8d-b677-caa270a65354","ios":"levelo://app?vid=0b9e4057-ab6b-4f8d-b677-caa270a65354"},"vehicle_type_id":"4","last_reported":1729753780,"current_range_meters":25600,"station_id":"ce4bhqh2rcd13ifvqhlg","pricing_plan_id":"cebpf4jnsgd1na2vs0mg"},{"bike_id":"3d79d8c7-210c-438d-beb7-1aefc7439ccc","system_id":"levelo_inurba_marseille","lat":43.30462,"lon":5.37902,"is_reserved":false,"is_disabled":false,"rental_uris":{"android":"levelo://app?vid=3d79d8c7-210c-438d-beb7-1aefc7439ccc","ios":"levelo://app?vid=3d79d8c7-210c-438d-beb7-1aefc7439ccc"},"vehicle_type_id":"4","last_reported":1729753780,"current_range_meters":35600,"station_id":"ce4bgup2rcd13ifvqcn0","pricing_plan_id":"cebpf4jnsgd1na2vs0mg"},{"bike_id":"391db758-31b7-472c-a887-7b1d43668e66","system_id":"levelo_inurba_marseille","lat":43.27972,"lon":5.38739,"is_reserved":false,"is_disabled":false,"rental_uris":{"android":"levelo://app?vid=391db758-31b7-472c-a887-7b1d43668e66","ios":"levelo://app?vid=391db758-31b7-472c-a887-7b1d43668e66"},"vehicle_type_id":"4","last_reported":1729753780,"current_range_meters":9200,"station_id":"ce4bhg12rcd13ifvqf80","pricing_plan_id":"cebpf4jnsgd1na2vs0mg"},{"bike_id":"4a638cf6-defc-408e-b127-366c1f15f3fd","system_id":"levelo_inurba_marseille","lat":43.31071,"lon":5.3835,"is_reserved":false,"is_disabled":false,"rental_uris":{"android":"levelo://app?vid=4a638cf6-defc-408e-b127-366c1f15f3fd","ios":"levelo://app?vid=4a638cf6-defc-408e-b127-366c1f15f3fd"},"vehicle_type_id":"4","last_reported":1729753780,"current_range_meters":25600,"station_id":"ce4bgv92rcd13ifvqcr0","pricing_plan_id":"cebpf4jnsgd1na2vs0mg"},{"bike_id":"0b09b582-0ee7-4ddb-9854-87e85e7391b2","system_id":"levelo_inurba_marseille","lat":43.30149,"lon":5.38078,"is_reserved":false,"is_disabled":false,"rental_uris":{"android":"levelo://app?vid=0b09b582-0ee7-4ddb-9854-87e85e7391b2","ios":"levelo://app?vid=0b09b582-0ee7-4ddb-9854-87e85e7391b2"},"vehicle_type_id":"4","last_reported":1729753780,"current_range_meters":38800,"station_id":"ce4bgjp2rcd13ifvqbh0","pricing_plan_id":"cebpf4jnsgd1na2vs0mg"},{"bike_id":"556ff004-378b-4009-b612-ceb766720a5e","system_id":"levelo_inurba_marseille","lat":43.24167,"lon":5.397507,"is_reserved":false,"is_disabled":false,"rental_uris":{"android":"levelo://app?vid=556ff004-378b-4009-b612-ceb766720a5e","ios":"levelo://app?vid=556ff004-378b-4009-b612-ceb766720a5e"},"vehicle_type_id":"4","last_reported":1729753780,"current_range_meters":20400,"station_id":"ce4bhn12rcd13ifvqgpg","pricing_plan_id":"cebpf4jnsgd1na2vs0mg"},{"bike_id":"10ed8c7b-0b46-4899-be3c-72844b8799cd","system_id":"levelo_inurba_marseille","lat":43.30152,"lon":5.38087,"is_reserved":false,"is_disabled":false,"rental_uris":{"android":"levelo://app?vid=10ed8c7b-0b46-4899-be3c-72844b8799cd","ios":"levelo://app?vid=10ed8c7b-0b46-4899-be3c-72844b8799cd"},"vehicle_type_id":"4","last_reported":1729753780,"current_range_meters":25600,"station_id":"ce4bgjp2rcd13ifvqbh0","pricing_plan_id":"cebpf4jnsgd1na2vs0mg"},{"bike_id":"1d180020-2774-494a-9712-55fe63b19d77","system_id":"levelo_inurba_marseille","lat":43.25934,"lon":5.40908,"is_reserved":false,"is_disabled":false,"rental_uris":{"android":"levelo://app?vid=1d180020-2774-494a-9712-55fe63b19d77","ios":"levelo://app?vid=1d180020-2774-494a-9712-55fe63b19d77"},"vehicle_type_id":"4","last_reported":1729753780,"current_range_meters":14000,"station_id":"ce4bhm92rcd13ifvqglg","pricing_plan_id":"cebpf4jnsgd1na2vs0mg"},{"bike_id":"2b8263e0-7230-429e-ad59-46fe84792315","system_id":"levelo_inurba_marseille","lat":43.30461,"lon":5.37907,"is_reserved":false,"is_disabled":false,"rental_uris":{"android":"levelo://app?vid=2b8263e0-7230-429e-ad59-46fe84792315","ios":"levelo://app?vid=2b8263e0-7230-429e-ad59-46fe84792315"},"vehicle_type_id":"4","last_reported":1729753780,"current_range_meters":38000,"station_id":"ce4bgup2rcd13ifvqcn0","pricing_plan_id":"cebpf4jnsgd1na2vs0mg"},{"bike_id":"e81f752a-f928-4eb7-9115-6c337d3b2995","system_id":"levelo_inurba_marseille","lat":43.33025,"lon":5.39045,"is_reserved":false,"is_disabled":false,"rental_uris":{"android":"levelo://app?vid=e81f752a-f928-4eb7-9115-6c337d3b2995","ios":"levelo://app?vid=e81f752a-f928-4eb7-9115-6c337d3b2995"},"vehicle_type_id":"4","last_reported":1729753780,"current_range_meters":38800,"station_id":"ce4bhr92rcd13ifvqhrg","pricing_plan_id":"cebpf4jnsgd1na2vs0mg"},{"bike_id":"ef3cc303-ae16-49cf-a45d-995a4b2abd0a","system_id":"levelo_inurba_marseille","lat":43.28711,"lon":5.37935,"is_reserved":false,"is_disabled":false,"rental_uris":{"android":"levelo://app?vid=ef3cc303-ae16-49cf-a45d-995a4b2abd0a","ios":"levelo://app?vid=ef3cc303-ae16-49cf-a45d-995a4b2abd0a"},"vehicle_type_id":"4","last_reported":1729753780,"current_range_meters":16000,"station_id":"ce4bgn92rcd13ifvqbvg","pricing_plan_id":"cebpf4jnsgd1na2vs0mg"},{"bike_id":"2c4a684a-b69b-4a59-9f8f-3e61716fa58f","system_id":"levelo_inurba_marseille","lat":43.305483,"lon":5.365382,"is_reserved":false,"is_disabled":false,"rental_uris":{"android":"levelo://app?vid=2c4a684a-b69b-4a59-9f8f-3e61716fa58f","ios":"levelo://app?vid=2c4a684a-b69b-4a59-9f8f-3e61716fa58f"},"vehicle_type_id":"4","last_reported":1729753780,"current_range_meters":24400,"station_id":"ce4bgs12rcd13ifvqcag","pricing_plan_id":"cebpf4jnsgd1na2vs0mg"},{"bike_id":"8e025807-b8a3-4c88-9ce3-82d27c455dfe","system_id":"levelo_inurba_marseille","lat":43.29837,"lon":5.36266,"is_reserved":false,"is_disabled":false,"rental_uris":{"android":"levelo://app?vid=8e025807-b8a3-4c88-9ce3-82d27c455dfe","ios":"levelo://app?vid=8e025807-b8a3-4c88-9ce3-82d27c455dfe"},"vehicle_type_id":"4","last_reported":1729753780,"current_range_meters":38800,"station_id":"ce4bgpp2rcd13ifvqc3g","pricing_plan_id":"cebpf4jnsgd1na2vs0mg"},{"bike_id":"049e6b8b-6b24-416d-ada9-4a21fd898aad","system_id":"levelo_inurba_marseille","lat":43.25934,"lon":5.40913,"is_reserved":false,"is_disabled":false,"rental_uris":{"android":"levelo://app?vid=049e6b8b-6b24-416d-ada9-4a21fd898aad","ios":"levelo://app?vid=049e6b8b-6b24-416d-ada9-4a21fd898aad"},"vehicle_type_id":"4","last_reported":1729753780,"current_range_meters":27200,"station_id":"ce4bhm92rcd13ifvqglg","pricing_plan_id":"cebpf4jnsgd1na2vs0mg"},{"bike_id":"83a9006a-d82c-4d33-9d6f-beaa77592c64","system_id":"levelo_inurba_marseille","lat":43.2962,"lon":5.37152,"is_reserved":false,"is_disabled":false,"rental_uris":{"android":"levelo://app?vid=83a9006a-d82c-4d33-9d6f-beaa77592c64","ios":"levelo://app?vid=83a9006a-d82c-4d33-9d6f-beaa77592c64"},"vehicle_type_id":"4","last_reported":1729753780,"current_range_meters":16000,"station_id":"ce4bgnh2rcd13ifvqc0g","pricing_plan_id":"cebpf4jnsgd1na2vs0mg"},{"bike_id":"0377021b-19f1-4369-b21f-561830a5c3fc","system_id":"levelo_inurba_marseille","lat":43.30147,"lon":5.38084,"is_reserved":false,"is_disabled":false,"rental_uris":{"android":"levelo://app?vid=0377021b-19f1-4369-b21f-561830a5c3fc","ios":"levelo://app?vid=0377021b-19f1-4369-b21f-561830a5c3fc"},"vehicle_type_id":"4","last_reported":1729753780,"current_range_meters":30000,"station_id":"ce4bgjp2rcd13ifvqbh0","pricing_plan_id":"cebpf4jnsgd1na2vs0mg"},{"bike_id":"4f409860-e0f7-4877-99ee-a24fed7f0e97","system_id":"levelo_inurba_marseille","lat":43.27812,"lon":5.40713,"is_reserved":false,"is_disabled":false,"rental_uris":{"android":"levelo://app?vid=4f409860-e0f7-4877-99ee-a24fed7f0e97","ios":"levelo://app?vid=4f409860-e0f7-4877-99ee-a24fed7f0e97"},"vehicle_type_id":"4","last_reported":1729753780,"current_range_meters":37600,"station_id":"ce4bhnh2rcd13ifvqgtg","pricing_plan_id":"cebpf4jnsgd1na2vs0mg"},{"bike_id":"ad4ea531-167c-4431-8d16-8500a9645a80","system_id":"levelo_inurba_marseille","lat":43.25113,"lon":5.40316,"is_reserved":false,"is_disabled":false,"rental_uris":{"android":"levelo://app?vid=ad4ea531-167c-4431-8d16-8500a9645a80","ios":"levelo://app?vid=ad4ea531-167c-4431-8d16-8500a9645a80"},"vehicle_type_id":"4","last_reported":1729753780,"current_range_meters":32400,"station_id":"ce4bhlh2rcd13ifvqgig","pricing_plan_id":"cebpf4jnsgd1na2vs0mg"},{"bike_id":"6017143d-6131-40ea-b1e9-db5566ca71fd","system_id":"levelo_inurba_marseille","lat":43.29916,"lon":5.37454,"is_reserved":false,"is_disabled":false,"rental_uris":{"android":"levelo://app?vid=6017143d-6131-40ea-b1e9-db5566ca71fd","ios":"levelo://app?vid=6017143d-6131-40ea-b1e9-db5566ca71fd"},"vehicle_type_id":"4","last_reported":1729753780,"current_range_meters":38000,"station_id":"ce4bgjh2rcd13ifvqbg0","pricing_plan_id":"cebpf4jnsgd1na2vs0mg"},{"bike_id":"62ffa3f4-9d42-434c-a2ce-0d53c352b7c8","system_id":"levelo_inurba_marseille","lat":43.27376,"lon":5.36257,"is_reserved":false,"is_disabled":false,"rental_uris":{"android":"levelo://app?vid=62ffa3f4-9d42-434c-a2ce-0d53c352b7c8","ios":"levelo://app?vid=62ffa3f4-9d42-434c-a2ce-0d53c352b7c8"},"vehicle_type_id":"4","last_reported":1729753780,"current_range_meters":38800,"station_id":"ce4bhbh2rcd13ifvqeo0","pricing_plan_id":"cebpf4jnsgd1na2vs0mg"},{"bike_id":"3d94fec5-828e-465b-811e-6d6f6df1662b","system_id":"levelo_inurba_marseille","lat":43.30555,"lon":5.36706,"is_reserved":false,"is_disabled":false,"rental_uris":{"android":"levelo://app?vid=3d94fec5-828e-465b-811e-6d6f6df1662b","ios":"levelo://app?vid=3d94fec5-828e-465b-811e-6d6f6df1662b"},"vehicle_type_id":"4","last_reported":1729753780,"current_range_meters":36800,"station_id":"ce4bgrp2rcd13ifvqc9g","pricing_plan_id":"cebpf4jnsgd1na2vs0mg"},{"bike_id":"2854d331-28eb-438a-87c3-ad05cf179a80","system_id":"levelo_inurba_marseille","lat":43.30466,"lon":5.3791,"is_reserved":false,"is_disabled":false,"rental_uris":{"android":"levelo://app?vid=2854d331-28eb-438a-87c3-ad05cf179a80","ios":"levelo://app?vid=2854d331-28eb-438a-87c3-ad05cf179a80"},"vehicle_type_id":"4","last_reported":1729753780,"current_range_meters":24400,"station_id":"ce4bgup2rcd13ifvqcn0","pricing_plan_id":"cebpf4jnsgd1na2vs0mg"},{"bike_id":"b4e6ddf4-e94c-4cf2-9931-296d9ca0f55e","system_id":"levelo_inurba_marseille","lat":43.25899,"lon":5.409,"is_reserved":false,"is_disabled":false,"rental_uris":{"android":"levelo://app?vid=b4e6ddf4-e94c-4cf2-9931-296d9ca0f55e","ios":"levelo://app?vid=b4e6ddf4-e94c-4cf2-9931-296d9ca0f55e"},"vehicle_type_id":"4","last_reported":1729753780,"current_range_meters":14000,"station_id":"ce4bhm92rcd13ifvqglg","pricing_plan_id":"cebpf4jnsgd1na2vs0mg"},{"bike_id":"045439c4-5bc5-4d89-a2e5-3fbfe1bd344a","system_id":"levelo_inurba_marseille","lat":43.31999,"lon":5.38162,"is_reserved":false,"is_disabled":false,"rental_uris":{"android":"levelo://app?vid=045439c4-5bc5-4d89-a2e5-3fbfe1bd344a","ios":"levelo://app?vid=045439c4-5bc5-4d89-a2e5-3fbfe1bd344a"},"vehicle_type_id":"4","last_reported":1729753780,"current_range_meters":9200,"station_id":"ce4bhr12rcd13ifvqhpg","pricing_plan_id":"cebpf4jnsgd1na2vs0mg"},{"bike_id":"ba281863-9f58-430c-b368-eaaf45a66db6","system_id":"levelo_inurba_marseille","lat":43.31995,"lon":5.38143,"is_reserved":false,"is_disabled":false,"rental_uris":{"android":"levelo://app?vid=ba281863-9f58-430c-b368-eaaf45a66db6","ios":"levelo://app?vid=ba281863-9f58-430c-b368-eaaf45a66db6"},"vehicle_type_id":"4","last_reported":1729753780,"current_range_meters":18000,"station_id":"ce4bhr12rcd13ifvqhpg","pricing_plan_id":"cebpf4jnsgd1na2vs0mg"},{"bike_id":"06e334e9-cd89-4c02-9877-e800c847cdb2","system_id":"levelo_inurba_marseille","lat":43.31357,"lon":5.3669,"is_reserved":false,"is_disabled":false,"rental_uris":{"android":"levelo://app?vid=06e334e9-cd89-4c02-9877-e800c847cdb2","ios":"levelo://app?vid=06e334e9-cd89-4c02-9877-e800c847cdb2"},"vehicle_type_id":"4","last_reported":1729753780,"current_range_meters":38800,"station_id":"ce4bgr92rcd13ifvqc6g","pricing_plan_id":"cebpf4jnsgd1na2vs0mg"},{"bike_id":"692d59dd-dba9-477a-9f51-22282e244bbe","system_id":"levelo_inurba_marseille","lat":43.30428,"lon":5.39751,"is_reserved":false,"is_disabled":false,"rental_uris":{"android":"levelo://app?vid=692d59dd-dba9-477a-9f51-22282e244bbe","ios":"levelo://app?vid=692d59dd-dba9-477a-9f51-22282e244bbe"},"vehicle_type_id":"4","last_reported":1729753780,"current_range_meters":20000,"station_id":"ce4bh092rcd13ifvqd20","pricing_plan_id":"cebpf4jnsgd1na2vs0mg"},{"bike_id":"57e6135d-1211-4fb1-903b-9dfbb3469c49","system_id":"levelo_inurba_marseille","lat":43.26204,"lon":5.37927,"is_reserved":false,"is_disabled":false,"rental_uris":{"android":"levelo://app?vid=57e6135d-1211-4fb1-903b-9dfbb3469c49","ios":"levelo://app?vid=57e6135d-1211-4fb1-903b-9dfbb3469c49"},"vehicle_type_id":"4","last_reported":1729753780,"current_range_meters":38400,"station_id":"ce4bhjp2rcd13ifvqg90","pricing_plan_id":"cebpf4jnsgd1na2vs0mg"},{"bike_id":"6afec774-c3c3-4ec5-9192-8e42dae79597","system_id":"levelo_inurba_marseille","lat":43.24177,"lon":5.39726,"is_reserved":false,"is_disabled":false,"rental_uris":{"android":"levelo://app?vid=6afec774-c3c3-4ec5-9192-8e42dae79597","ios":"levelo://app?vid=6afec774-c3c3-4ec5-9192-8e42dae79597"},"vehicle_type_id":"4","last_reported":1729753780,"current_range_meters":8000,"station_id":"ce4bhn12rcd13ifvqgpg","pricing_plan_id":"cebpf4jnsgd1na2vs0mg"},{"bike_id":"807e98e3-c05c-42d0-b77c-7c8989c5bdc4","system_id":"levelo_inurba_marseille","lat":43.32478,"lon":5.36575,"is_reserved":false,"is_disabled":false,"rental_uris":{"android":"levelo://app?vid=807e98e3-c05c-42d0-b77c-7c8989c5bdc4","ios":"levelo://app?vid=807e98e3-c05c-42d0-b77c-7c8989c5bdc4"},"vehicle_type_id":"4","last_reported":1729753780,"current_range_meters":38000,"station_id":"ce4bhs12rcd13ifvqhvg","pricing_plan_id":"cebpf4jnsgd1na2vs0mg"},{"bike_id":"4e5e4355-30f3-4aa2-a0ba-1b9175c7f0bb","system_id":"levelo_inurba_marseille","lat":43.337444,"lon":5.374475,"is_reserved":false,"is_disabled":false,"rental_uris":{"android":"levelo://app?vid=4e5e4355-30f3-4aa2-a0ba-1b9175c7f0bb","ios":"levelo://app?vid=4e5e4355-30f3-4aa2-a0ba-1b9175c7f0bb"},"vehicle_type_id":"4","last_reported":1729753780,"current_range_meters":14400,"station_id":"","pricing_plan_id":"cebpf4jnsgd1na2vs0mg"},{"bike_id":"eb35fc6a-1a46-485a-ba9a-75f8f86442b7","system_id":"levelo_inurba_marseille","lat":43.30882,"lon":5.37199,"is_reserved":false,"is_disabled":false,"rental_uris":{"android":"levelo://app?vid=eb35fc6a-1a46-485a-ba9a-75f8f86442b7","ios":"levelo://app?vid=eb35fc6a-1a46-485a-ba9a-75f8f86442b7"},"vehicle_type_id":"4","last_reported":1729753780,"current_range_meters":27200,"station_id":"ce4bguh2rcd13ifvqckg","pricing_plan_id":"cebpf4jnsgd1na2vs0mg"},{"bike_id":"d75bec2a-e1d3-491e-90ca-e38a5d8adcf3","system_id":"levelo_inurba_marseille","lat":43.23153,"lon":5.43725,"is_reserved":false,"is_disabled":false,"rental_uris":{"android":"levelo://app?vid=d75bec2a-e1d3-491e-90ca-e38a5d8adcf3","ios":"levelo://app?vid=d75bec2a-e1d3-491e-90ca-e38a5d8adcf3"},"vehicle_type_id":"4","last_reported":1729753780,"current_range_meters":22800,"station_id":"ce4bhmp2rcd13ifvqgog","pricing_plan_id":"cebpf4jnsgd1na2vs0mg"},{"bike_id":"0595933a-7c61-4a38-acf2-da2633244d70","system_id":"levelo_inurba_marseille","lat":43.29768,"lon":5.371,"is_reserved":false,"is_disabled":false,"rental_uris":{"android":"levelo://app?vid=0595933a-7c61-4a38-acf2-da2633244d70","ios":"levelo://app?vid=0595933a-7c61-4a38-acf2-da2633244d70"},"vehicle_type_id":"4","last_reported":1729753780,"current_range_meters":14400,"station_id":"ce4bgop2rcd13ifvqc1g","pricing_plan_id":"cebpf4jnsgd1na2vs0mg"},{"bike_id":"cc8afa2a-65eb-4472-82d0-4de278737e2b","system_id":"levelo_inurba_marseille","lat":43.33609,"lon":5.41024,"is_reserved":false,"is_disabled":false,"rental_uris":{"android":"levelo://app?vid=cc8afa2a-65eb-4472-82d0-4de278737e2b","ios":"levelo://app?vid=cc8afa2a-65eb-4472-82d0-4de278737e2b"},"vehicle_type_id":"4","last_reported":1729753780,"current_range_meters":22400,"station_id":"ce4bhqh2rcd13ifvqhmg","pricing_plan_id":"cebpf4jnsgd1na2vs0mg"},{"bike_id":"46e5a48f-4501-4e4e-bfa0-f17a7aed52b9","system_id":"levelo_inurba_marseille","lat":43.33601,"lon":5.41018,"is_reserved":false,"is_disabled":false,"rental_uris":{"android":"levelo://app?vid=46e5a48f-4501-4e4e-bfa0-f17a7aed52b9","ios":"levelo://app?vid=46e5a48f-4501-4e4e-bfa0-f17a7aed52b9"},"vehicle_type_id":"4","last_reported":1729753780,"current_range_meters":25200,"station_id":"ce4bhqh2rcd13ifvqhmg","pricing_plan_id":"cebpf4jnsgd1na2vs0mg"},{"bike_id":"5ee5278b-8c8a-42d0-874a-1f9c7bb2b973","system_id":"levelo_inurba_marseille","lat":43.2407,"lon":5.37762,"is_reserved":false,"is_disabled":false,"rental_uris":{"android":"levelo://app?vid=5ee5278b-8c8a-42d0-874a-1f9c7bb2b973","ios":"levelo://app?vid=5ee5278b-8c8a-42d0-874a-1f9c7bb2b973"},"vehicle_type_id":"4","last_reported":1729753780,"current_range_meters":4400,"station_id":"ce4bhnp2rcd13ifvqgvg","pricing_plan_id":"cebpf4jnsgd1na2vs0mg"},{"bike_id":"0787288b-3aa2-4043-9249-5248c2af295e","system_id":"levelo_inurba_marseille","lat":43.30795,"lon":5.38164,"is_reserved":false,"is_disabled":false,"rental_uris":{"android":"levelo://app?vid=0787288b-3aa2-4043-9249-5248c2af295e","ios":"levelo://app?vid=0787288b-3aa2-4043-9249-5248c2af295e"},"vehicle_type_id":"4","last_reported":1729753780,"current_range_meters":38800,"station_id":"ce4bgt12rcd13ifvqce0","pricing_plan_id":"cebpf4jnsgd1na2vs0mg"},{"bike_id":"4d301cd0-a2e0-42f3-9c0d-233509403e70","system_id":"levelo_inurba_marseille","lat":43.24066,"lon":5.37762,"is_reserved":false,"is_disabled":false,"rental_uris":{"android":"levelo://app?vid=4d301cd0-a2e0-42f3-9c0d-233509403e70","ios":"levelo://app?vid=4d301cd0-a2e0-42f3-9c0d-233509403e70"},"vehicle_type_id":"4","last_reported":1729753780,"current_range_meters":20000,"station_id":"ce4bhnp2rcd13ifvqgvg","pricing_plan_id":"cebpf4jnsgd1na2vs0mg"},{"bike_id":"28ff410d-1399-4b82-946d-cad2c8e724e6","system_id":"levelo_inurba_marseille","lat":43.30151,"lon":5.38078,"is_reserved":false,"is_disabled":false,"rental_uris":{"android":"levelo://app?vid=28ff410d-1399-4b82-946d-cad2c8e724e6","ios":"levelo://app?vid=28ff410d-1399-4b82-946d-cad2c8e724e6"},"vehicle_type_id":"4","last_reported":1729753780,"current_range_meters":28000,"station_id":"ce4bgjp2rcd13ifvqbh0","pricing_plan_id":"cebpf4jnsgd1na2vs0mg"},{"bike_id":"54e22695-c48b-40b2-8aa7-e4631e5eb99c","system_id":"levelo_inurba_marseille","lat":43.25734,"lon":5.41106,"is_reserved":false,"is_disabled":false,"rental_uris":{"android":"levelo://app?vid=54e22695-c48b-40b2-8aa7-e4631e5eb99c","ios":"levelo://app?vid=54e22695-c48b-40b2-8aa7-e4631e5eb99c"},"vehicle_type_id":"4","last_reported":1729753780,"current_range_meters":38800,"station_id":"ce4bhkp2rcd13ifvqgd0","pricing_plan_id":"cebpf4jnsgd1na2vs0mg"},{"bike_id":"055026e7-aca3-466f-b7b0-f1dd313c923a","system_id":"levelo_inurba_marseille","lat":43.32475,"lon":5.36569,"is_reserved":false,"is_disabled":false,"rental_uris":{"android":"levelo://app?vid=055026e7-aca3-466f-b7b0-f1dd313c923a","ios":"levelo://app?vid=055026e7-aca3-466f-b7b0-f1dd313c923a"},"vehicle_type_id":"4","last_reported":1729753780,"current_range_meters":14800,"station_id":"ce4bhs12rcd13ifvqhvg","pricing_plan_id":"cebpf4jnsgd1na2vs0mg"},{"bike_id":"5dac752b-5f3e-449b-8933-09241deb391d","system_id":"levelo_inurba_marseille","lat":43.26822,"lon":5.41116,"is_reserved":false,"is_disabled":false,"rental_uris":{"android":"levelo://app?vid=5dac752b-5f3e-449b-8933-09241deb391d","ios":"levelo://app?vid=5dac752b-5f3e-449b-8933-09241deb391d"},"vehicle_type_id":"4","last_reported":1729753780,"current_range_meters":16800,"station_id":"","pricing_plan_id":"cebpf4jnsgd1na2vs0mg"},{"bike_id":"fc3e14d8-9401-45dd-a714-0ffda8419e19","system_id":"levelo_inurba_marseille","lat":43.3047,"lon":5.37903,"is_reserved":false,"is_disabled":false,"rental_uris":{"android":"levelo://app?vid=fc3e14d8-9401-45dd-a714-0ffda8419e19","ios":"levelo://app?vid=fc3e14d8-9401-45dd-a714-0ffda8419e19"},"vehicle_type_id":"4","last_reported":1729753780,"current_range_meters":26800,"station_id":"ce4bgup2rcd13ifvqcn0","pricing_plan_id":"cebpf4jnsgd1na2vs0mg"},{"bike_id":"98665e64-fc4f-4304-a651-52484c3887e0","system_id":"levelo_inurba_marseille","lat":43.28404,"lon":5.37518,"is_reserved":false,"is_disabled":false,"rental_uris":{"android":"levelo://app?vid=98665e64-fc4f-4304-a651-52484c3887e0","ios":"levelo://app?vid=98665e64-fc4f-4304-a651-52484c3887e0"},"vehicle_type_id":"4","last_reported":1729753780,"current_range_meters":8400,"station_id":"ce4bgnh2rcd13ifvqc0g","pricing_plan_id":"cebpf4jnsgd1na2vs0mg"},{"bike_id":"13da6b91-9db0-4a61-a8cc-a26b1fbbf6e6","system_id":"levelo_inurba_marseille","lat":43.30141,"lon":5.37426,"is_reserved":false,"is_disabled":false,"rental_uris":{"android":"levelo://app?vid=13da6b91-9db0-4a61-a8cc-a26b1fbbf6e6","ios":"levelo://app?vid=13da6b91-9db0-4a61-a8cc-a26b1fbbf6e6"},"vehicle_type_id":"4","last_reported":1729753780,"current_range_meters":21600,"station_id":"ce4bgs92rcd13ifvqcc0","pricing_plan_id":"cebpf4jnsgd1na2vs0mg"},{"bike_id":"8e17a2db-dbf2-4cab-89b2-251eaec5be4c","system_id":"levelo_inurba_marseille","lat":43.30459,"lon":5.37904,"is_reserved":false,"is_disabled":false,"rental_uris":{"android":"levelo://app?vid=8e17a2db-dbf2-4cab-89b2-251eaec5be4c","ios":"levelo://app?vid=8e17a2db-dbf2-4cab-89b2-251eaec5be4c"},"vehicle_type_id":"4","last_reported":1729753780,"current_range_meters":35200,"station_id":"ce4bgup2rcd13ifvqcn0","pricing_plan_id":"cebpf4jnsgd1na2vs0mg"},{"bike_id":"bacd65ad-87f5-41e6-a2cb-7f26a494a4ed","system_id":"levelo_inurba_marseille","lat":43.28414,"lon":5.37514,"is_reserved":false,"is_disabled":false,"rental_uris":{"android":"levelo://app?vid=bacd65ad-87f5-41e6-a2cb-7f26a494a4ed","ios":"levelo://app?vid=bacd65ad-87f5-41e6-a2cb-7f26a494a4ed"},"vehicle_type_id":"4","last_reported":1729753780,"current_range_meters":36000,"station_id":"ce4bh412rcd13ifvqds0","pricing_plan_id":"cebpf4jnsgd1na2vs0mg"},{"bike_id":"e2958e72-62c7-4536-b16f-4e2f7958c8ec","system_id":"levelo_inurba_marseille","lat":43.34141,"lon":5.40906,"is_reserved":false,"is_disabled":false,"rental_uris":{"android":"levelo://app?vid=e2958e72-62c7-4536-b16f-4e2f7958c8ec","ios":"levelo://app?vid=e2958e72-62c7-4536-b16f-4e2f7958c8ec"},"vehicle_type_id":"4","last_reported":1729753780,"current_range_meters":7200,"station_id":"ce4bhqh2rcd13ifvqhlg","pricing_plan_id":"cebpf4jnsgd1na2vs0mg"},{"bike_id":"62c3aa43-1485-490c-96a3-23ca4f976a8d","system_id":"levelo_inurba_marseille","lat":43.31345,"lon":5.36708,"is_reserved":false,"is_disabled":false,"rental_uris":{"android":"levelo://app?vid=62c3aa43-1485-490c-96a3-23ca4f976a8d","ios":"levelo://app?vid=62c3aa43-1485-490c-96a3-23ca4f976a8d"},"vehicle_type_id":"4","last_reported":1729753780,"current_range_meters":16400,"station_id":"ce4bgr92rcd13ifvqc6g","pricing_plan_id":"cebpf4jnsgd1na2vs0mg"},{"bike_id":"0197bc8c-183b-43a2-bade-80baddcb5d15","system_id":"levelo_inurba_marseille","lat":43.25936,"lon":5.409,"is_reserved":false,"is_disabled":false,"rental_uris":{"android":"levelo://app?vid=0197bc8c-183b-43a2-bade-80baddcb5d15","ios":"levelo://app?vid=0197bc8c-183b-43a2-bade-80baddcb5d15"},"vehicle_type_id":"4","last_reported":1729753780,"current_range_meters":28000,"station_id":"ce4bhm92rcd13ifvqglg","pricing_plan_id":"cebpf4jnsgd1na2vs0mg"},{"bike_id":"fd82ba31-6cce-493a-89ba-b2b8e792bf28","system_id":"levelo_inurba_marseille","lat":43.24072,"lon":5.37756,"is_reserved":false,"is_disabled":false,"rental_uris":{"android":"levelo://app?vid=fd82ba31-6cce-493a-89ba-b2b8e792bf28","ios":"levelo://app?vid=fd82ba31-6cce-493a-89ba-b2b8e792bf28"},"vehicle_type_id":"4","last_reported":1729753780,"current_range_meters":14000,"station_id":"ce4bhnp2rcd13ifvqgvg","pricing_plan_id":"cebpf4jnsgd1na2vs0mg"},{"bike_id":"86342eb7-fa35-450a-a0b5-16904f335076","system_id":"levelo_inurba_marseille","lat":43.2881,"lon":5.36333,"is_reserved":false,"is_disabled":false,"rental_uris":{"android":"levelo://app?vid=86342eb7-fa35-450a-a0b5-16904f335076","ios":"levelo://app?vid=86342eb7-fa35-450a-a0b5-16904f335076"},"vehicle_type_id":"4","last_reported":1729753780,"current_range_meters":36800,"station_id":"ce4bhah2rcd13ifvqei0","pricing_plan_id":"cebpf4jnsgd1na2vs0mg"},{"bike_id":"e19440e4-2e3f-47bb-bfe5-baa9cae94046","system_id":"levelo_inurba_marseille","lat":43.24177,"lon":5.39734,"is_reserved":false,"is_disabled":false,"rental_uris":{"android":"levelo://app?vid=e19440e4-2e3f-47bb-bfe5-baa9cae94046","ios":"levelo://app?vid=e19440e4-2e3f-47bb-bfe5-baa9cae94046"},"vehicle_type_id":"4","last_reported":1729753780,"current_range_meters":38800,"station_id":"ce4bhn12rcd13ifvqgpg","pricing_plan_id":"cebpf4jnsgd1na2vs0mg"},{"bike_id":"265bc578-93b8-4ac5-902b-453ea1aa7d70","system_id":"levelo_inurba_marseille","lat":43.2797,"lon":5.38762,"is_reserved":false,"is_disabled":false,"rental_uris":{"android":"levelo://app?vid=265bc578-93b8-4ac5-902b-453ea1aa7d70","ios":"levelo://app?vid=265bc578-93b8-4ac5-902b-453ea1aa7d70"},"vehicle_type_id":"4","last_reported":1729753780,"current_range_meters":38800,"station_id":"ce4bhg12rcd13ifvqf80","pricing_plan_id":"cebpf4jnsgd1na2vs0mg"},{"bike_id":"1bcb304c-6864-441d-ac3f-5dbf47343aec","system_id":"levelo_inurba_marseille","lat":43.30906,"lon":5.36851,"is_reserved":false,"is_disabled":false,"rental_uris":{"android":"levelo://app?vid=1bcb304c-6864-441d-ac3f-5dbf47343aec","ios":"levelo://app?vid=1bcb304c-6864-441d-ac3f-5dbf47343aec"},"vehicle_type_id":"4","last_reported":1729753780,"current_range_meters":38800,"station_id":"ce4bgn92rcd13ifvqbvg","pricing_plan_id":"cebpf4jnsgd1na2vs0mg"},{"bike_id":"b8cc0e56-65a8-4eef-90c8-d00737180174","system_id":"levelo_inurba_marseille","lat":43.23151,"lon":5.43721,"is_reserved":false,"is_disabled":false,"rental_uris":{"android":"levelo://app?vid=b8cc0e56-65a8-4eef-90c8-d00737180174","ios":"levelo://app?vid=b8cc0e56-65a8-4eef-90c8-d00737180174"},"vehicle_type_id":"4","last_reported":1729753780,"current_range_meters":39200,"station_id":"ce4bhmp2rcd13ifvqgog","pricing_plan_id":"cebpf4jnsgd1na2vs0mg"},{"bike_id":"5701dda8-1fa5-45ab-a465-9dda2e6329cf","system_id":"levelo_inurba_marseille","lat":43.30154,"lon":5.38092,"is_reserved":false,"is_disabled":false,"rental_uris":{"android":"levelo://app?vid=5701dda8-1fa5-45ab-a465-9dda2e6329cf","ios":"levelo://app?vid=5701dda8-1fa5-45ab-a465-9dda2e6329cf"},"vehicle_type_id":"4","last_reported":1729753780,"current_range_meters":30400,"station_id":"ce4bgjp2rcd13ifvqbh0","pricing_plan_id":"cebpf4jnsgd1na2vs0mg"},{"bike_id":"70d2dc88-2e72-46d2-85fa-420210eb6b40","system_id":"levelo_inurba_marseille","lat":43.32052,"lon":5.41545,"is_reserved":false,"is_disabled":false,"rental_uris":{"android":"levelo://app?vid=70d2dc88-2e72-46d2-85fa-420210eb6b40","ios":"levelo://app?vid=70d2dc88-2e72-46d2-85fa-420210eb6b40"},"vehicle_type_id":"4","last_reported":1729753780,"current_range_meters":20400,"station_id":"ce4bhq92rcd13ifvqhkg","pricing_plan_id":"cebpf4jnsgd1na2vs0mg"},{"bike_id":"fe40ba03-6e7d-484a-9677-e76f75347b31","system_id":"levelo_inurba_marseille","lat":43.30913,"lon":5.36842,"is_reserved":false,"is_disabled":false,"rental_uris":{"android":"levelo://app?vid=fe40ba03-6e7d-484a-9677-e76f75347b31","ios":"levelo://app?vid=fe40ba03-6e7d-484a-9677-e76f75347b31"},"vehicle_type_id":"4","last_reported":1729753780,"current_range_meters":22000,"station_id":"ce4bgn92rcd13ifvqbvg","pricing_plan_id":"cebpf4jnsgd1na2vs0mg"},