{"last_updated":1768814669,"ttl":60,"version":"2.2","data":{"bikes":[{"bike_id":"f4045573-a6a6-46f4-9d77-cfcc7f95c464","system_id":"levelo_inurba_marseille","lat":43.337444,"lon":5.374475,"is_reserved":false,"is_disabled":false,"rental_uris":{"android":"levelo://app?vid=f4045573-a6a6-46f4-9d77-cfcc7f95c464","ios":"levelo://app?vid=f4045573-a6a6-46f4-9d77-cfcc7f95c464"},"vehicle_type_id":"4","last_reported":1768814670,"current_range_meters":0,"station_id":"","pricing_plan_id":"cebpf4jnsgd1na2vs0mg"},{"bike_id":"3edcb619-e140-4ca7-af08-f551c6a288f3","system_id":"levelo_inurba_marseille","lat":43.2847,"lon":5.48397,"is_reserved":false,"is_disabled":false,"rental_uris":{"android":"levelo://app?vid=3edcb619-e140-4ca7-af08-f551c6a288f3","ios":"levelo://app?vid=3edcb619-e140-4ca7-af08-f551c6a288f3"},"vehicle_type_id":"4","last_reported":1768814670,"current_range_meters":2800,"station_id":"","pricing_plan_id":"cebpf4jnsgd1na2vs0mg"},{"bike_id":"d311ffc7-6d26-41ec-96e5-fc35ec52cdc7","system_id":"levelo_inurba_marseille","lat":43.323486,"lon":5.367325,"is_reserved":false,"is_disabled":false,"rental_uris":{"android":"levelo://app?vid=d311ffc7-6d26-41ec-96e5-fc35ec52cdc7","ios":"levelo://app?vid=d311ffc7-6d26-41ec-96e5-fc35ec52cdc7"},"vehicle_type_id":"4","last_reported":1768814670,"current_range_meters":2800,"station_id":"ce4bhsh2rcd13ifvqi2g","pricing_plan_id":"cebpf4jnsgd1na2vs0mg"},{"bike_id":"baeba9fe-27e3-4add-bcb6-46dcea715524","system_id":"levelo_inurba_marseille","lat":43.27556,"lon":5.3843,"is_reserved":false,"is_disabled":false,"rental_uris":{"android":"levelo://app?vid=baeba9fe-27e3-4add-bcb6-46dcea715524","ios":"levelo://app?vid=baeba9fe-27e3-4add-bcb6-46dcea715524"},"vehicle_type_id":"4","last_reported":1768814670,"current_range_meters":2800,"station_id":"ce4bhh92rcd13ifvqfi0","pricing_plan_id":"cebpf4jnsgd1na2vs0mg"},{"bike_id":"3132fa67-c262-4e29-827f-15946b0155b7","system_id":"levelo_inurba_marseille","lat":43.31578,"lon":5.36883,"is_reserved":false,"is_disabled":false,"rental_uris":{"android":"levelo://app?vid=3132fa67-c262-4e29-827f-15946b0155b7","ios":"levelo://app?vid=3132fa67-c262-4e29-827f-15946b0155b7"},"vehicle_type_id":"4","last_reported":1768814670,"current_range_meters":2800,"station_id":"","pricing_plan_id":"cebpf4jnsgd1na2vs0mg"},{"bike_id":"7eded3b1-4745-4b4d-b80d-d88da3addd51","system_id":"levelo_inurba_marseille","lat":43.27615,"lon":5.36119,"is_reserved":false,"is_disabled":false,"rental_uris":{"android":"levelo://app?vid=7eded3b1-4745-4b4d-b80d-d88da3addd51","ios":"levelo://app?vid=7eded3b1-4745-4b4d-b80d-d88da3addd51"},"vehicle_type_id":"4","last_reported":1768814670,"current_range_meters":2800,"station_id":"ce4bgj92rcd13ifvqbe0","pricing_plan_id":"cebpf4jnsgd1na2vs0mg"},{"bike_id":"c5aedb3b-f715-45c8-98ed-e4eeb6bc7222","system_id":"levelo_inurba_marseille","lat":43.30886,"lon":5.37206,"is_reserved":false,"is_disabled":false,"rental_uris":{"android":"levelo://app?vid=c5aedb3b-f715-45c8-98ed-e4eeb6bc7222","ios":"levelo://app?vid=c5aedb3b-f715-45c8-98ed-e4eeb6bc7222"},"vehicle_type_id":"4","last_reported":1768814670,"current_range_meters":2800,"station_id":"ce4bguh2rcd13ifvqckg","pricing_plan_id":"cebpf4jnsgd1na2vs0mg"},{"bike_id":"e26421cb-b649-41f4-ac27-ad5b8bc090e2","system_id":"levelo_inurba_marseille","lat":43.26545,"lon":5.37292,"is_reserved":false,"is_disabled":false,"rental_uris":{"android":"levelo://app?vid=e26421cb-b649-41f4-ac27-ad5b8bc090e2","ios":"levelo://app?vid=e26421cb-b649-41f4-ac27-ad5b8bc090e2"},"vehicle_type_id":"4","last_reported":1768814670,"current_range_meters":2800,"station_id":"ce4bhg12rcd13ifvqf70","pricing_plan_id":"cebpf4jnsgd1na2vs0mg"},{"bike_id":"1eb60e44-2f1e-4053-8f0d-6cff86d384dc","system_id":"levelo_inurba_marseille","lat":43.24067,"lon":5.37766,"is_reserved":false,"is_disabled":false,"rental_uris":{"android":"levelo://app?vid=1eb60e44-2f1e-4053-8f0d-6cff86d384dc","ios":"levelo://app?vid=1eb60e44-2f1e-4053-8f0d-6cff86d384dc"},"vehicle_type_id":"4","last_reported":1768814670,"current_range_meters":2800,"station_id":"","pricing_plan_id":"cebpf4jnsgd1na2vs0mg"},{"bike_id":"d0b29b07-5102-4e6f-97b9-23723e4c0614","system_id":"levelo_inurba_marseille","lat":43.28495,"lon":5.48407,"is_reserved":false,"is_disabled":false,"rental_uris":{"android":"levelo://app?vid=d0b29b07-5102-4e6f-97b9-23723e4c0614","ios":"levelo://app?vid=d0b29b07-5102-4e6f-97b9-23723e4c0614"},"vehicle_type_id":"4","last_reported":1768814670,"current_range_meters":2800,"station_id":"","pricing_plan_id":"cebpf4jnsgd1na2vs0mg"},{"bike_id":"55b528c1-9ff9-4a70-bd95-4edeb25254ac","system_id":"levelo_inurba_marseille","lat":43.274928,"lon":5.424506,"is_reserved":false,"is_disabled":false,"rental_uris":{"android":"levelo://app?vid=55b528c1-9ff9-4a70-bd95-4edeb25254ac","ios":"levelo://app?vid=55b528c1-9ff9-4a70-bd95-4edeb25254ac"},"vehicle_type_id":"4","last_reported":1768814670,"current_range_meters":2800,"station_id":"ce4bhn92rcd13ifvqgrg","pricing_plan_id":"cebpf4jnsgd1na2vs0mg"},{"bike_id":"724da048-f937-4446-a0b2-3f881c76c59a","system_id":"levelo_inurba_marseille","lat":43.28173,"lon":5.42628,"is_reserved":false,"is_disabled":false,"rental_uris":{"android":"levelo://app?vid=724da048-f937-4446-a0b2-3f881c76c59a","ios":"levelo://app?vid=724da048-f937-4446-a0b2-3f881c76c59a"},"vehicle_type_id":"4","last_reported":1768814670,"current_range_meters":3200,"station_id":"ce4bhnh2rcd13ifvqgug","pricing_plan_id":"cebpf4jnsgd1na2vs0mg"},{"bike_id":"3fcd7be5-9e86-4360-8db1-236a81bdedf0","system_id":"levelo_inurba_marseille","lat":43.26024,"lon":5.39688,"is_reserved":false,"is_disabled":false,"rental_uris":{"android":"levelo://app?vid=3fcd7be5-9e86-4360-8db1-236a81bdedf0","ios":"levelo://app?vid=3fcd7be5-9e86-4360-8db1-236a81bdedf0"},"vehicle_type_id":"4","last_reported":1768814670,"current_range_meters":3200,"station_id":"","pricing_plan_id":"cebpf4jnsgd1na2vs0mg"},{"bike_id":"facd135e-5d16-41e6-9df2-8346db37bc1b","system_id":"levelo_inurba_marseille","lat":43.26951,"lon":5.38651,"is_reserved":false,"is_disabled":false,"rental_uris":{"android":"levelo://app?vid=facd135e-5d16-41e6-9df2-8346db37bc1b","ios":"levelo://app?vid=facd135e-5d16-41e6-9df2-8346db37bc1b"},"vehicle_type_id":"4","last_reported":1768814670,"current_range_meters":3200,"station_id":"ce4bhh92rcd13ifvqfh0","pricing_plan_id":"cebpf4jnsgd1na2vs0mg"},{"bike_id":"ee944490-322d-4e82-9fc0-1f3cfa45072a","system_id":"levelo_inurba_marseille","lat":43.28852,"lon":5.42538,"is_reserved":false,"is_disabled":false,"rental_uris":{"android":"levelo://app?vid=ee944490-322d-4e82-9fc0-1f3cfa45072a","ios":"levelo://app?vid=ee944490-322d-4e82-9fc0-1f3cfa45072a"},"vehicle_type_id":"4","last_reported":1768814670,"current_range_meters":3200,"station_id":"st_d3b462108ojc7389ooeg","pricing_plan_id":"cebpf4jnsgd1na2vs0mg"},{"bike_id":"d7aca1c2-8f9a-47ca-b5c4-75aeeaa4a368","system_id":"levelo_inurba_marseille","lat":43.23955,"lon":5.36642,"is_reserved":false,"is_disabled":false,"rental_uris":{"android":"levelo://app?vid=d7aca1c2-8f9a-47ca-b5c4-75aeeaa4a368","ios":"levelo://app?vid=d7aca1c2-8f9a-47ca-b5c4-75aeeaa4a368"},"vehicle_type_id":"4","last_reported":1768814670,"current_range_meters":3600,"station_id":"ce4bhi12rcd13ifvqfp0","pricing_plan_id":"cebpf4jnsgd1na2vs0mg"},{"bike_id":"10aefc87-ce0b-443e-ad00-dc0a0914183b","system_id":"levelo_inurba_marseille","lat":43.24079,"lon":5.37744,"is_reserved":false,"is_disabled":false,"rental_uris":{"android":"levelo://app?vid=10aefc87-ce0b-443e-ad00-dc0a0914183b","ios":"levelo://app?vid=10aefc87-ce0b-443e-ad00-dc0a0914183b"},"vehicle_type_id":"4","last_reported":1768814670,"current_range_meters":3600,"station_id":"ce4bhnp2rcd13ifvqgvg","pricing_plan_id":"cebpf4jnsgd1na2vs0mg"},{"bike_id":"f9650e24-8048-44b3-9275-13d881c210a3","system_id":"levelo_inurba_marseille","lat":43.30268,"lon":5.3773,"is_reserved":false,"is_disabled":false,"rental_uris":{"android":"levelo://app?vid=f9650e24-8048-44b3-9275-13d881c210a3","ios":"levelo://app?vid=f9650e24-8048-44b3-9275-13d881c210a3"},"vehicle_type_id":"4","last_reported":1768814670,"current_range_meters":3600,"station_id":"ce4bguh2rcd13ifvqcj0","pricing_plan_id":"cebpf4jnsgd1na2vs0mg"},{"bike_id":"54ca0a01-ac8b-45e4-b71b-2e60991a79e3","system_id":"levelo_inurba_marseille","lat":43.2439,"lon":5.37072,"is_reserved":false,"is_disabled":false,"rental_uris":{"android":"levelo://app?vid=54ca0a01-ac8b-45e4-b71b-2e60991a79e3","ios":"levelo://app?vid=54ca0a01-ac8b-45e4-b71b-2e60991a79e3"},"vehicle_type_id":"4","last_reported":1768814670,"current_range_meters":3600,"station_id":"ce4bhhh2rcd13ifvqfk0","pricing_plan_id":"cebpf4jnsgd1na2vs0mg"},{"bike_id":"503a69a9-9c3d-4d52-8f91-b76ecb5b75ff","system_id":"levelo_inurba_marseille","lat":43.266766,"lon":5.38282,"is_reserved":false,"is_disabled":false,"rental_uris":{"android":"levelo://app?vid=503a69a9-9c3d-4d52-8f91-b76ecb5b75ff","ios":"levelo://app?vid=503a69a9-9c3d-4d52-8f91-b76ecb5b75ff"},"vehicle_type_id":"4","last_reported":1768814670,"current_range_meters":3600,"station_id":"ce4bhg92rcd13ifvqf90","pricing_plan_id":"cebpf4jnsgd1na2vs0mg"},{"bike_id":"3e2432c6-9eec-4860-ba04-28dbee8a3fe6","system_id":"levelo_inurba_marseille","lat":43.27494,"lon":5.42448,"is_reserved":false,"is_disabled":false,"rental_uris":{"android":"levelo://app?vid=3e2432c6-9eec-4860-ba04-28dbee8a3fe6","ios":"levelo://app?vid=3e2432c6-9eec-4860-ba04-28dbee8a3fe6"},"vehicle_type_id":"4","last_reported":1768814670,"current_range_meters":3600,"station_id":"ce4bhn92rcd13ifvqgrg","pricing_plan_id":"cebpf4jnsgd1na2vs0mg"},{"bike_id":"2e4ee5e8-6d91-467b-8480-688c2671b88d","system_id":"levelo_inurba_marseille","lat":43.27797,"lon":5.40743,"is_reserved":false,"is_disabled":false,"rental_uris":{"android":"levelo://app?vid=2e4ee5e8-6d91-467b-8480-688c2671b88d","ios":"levelo://app?vid=2e4ee5e8-6d91-467b-8480-688c2671b88d"},"vehicle_type_id":"4","last_reported":1768814670,"current_range_meters":4000,"station_id":"ce4bhnh2rcd13ifvqgtg","pricing_plan_id":"cebpf4jnsgd1na2vs0mg"},{"bike_id":"53e3bdc2-3350-4597-b889-679f95ce65f7","system_id":"levelo_inurba_marseille","lat":43.284725,"lon":5.384184,"is_reserved":false,"is_disabled":false,"rental_uris":{"android":"levelo://app?vid=53e3bdc2-3350-4597-b889-679f95ce65f7","ios":"levelo://app?vid=53e3bdc2-3350-4597-b889-679f95ce65f7"},"vehicle_type_id":"4","last_reported":1768814670,"current_range_meters":4000,"station_id":"","pricing_plan_id":"cebpf4jnsgd1na2vs0mg"},{"bike_id":"24160edd-d39f-4289-876a-e9144f93a2c6","system_id":"levelo_inurba_marseille","lat":43.32346,"lon":5.36753,"is_reserved":false,"is_disabled":false,"rental_uris":{"android":"levelo://app?vid=24160edd-d39f-4289-876a-e9144f93a2c6","ios":"levelo://app?vid=24160edd-d39f-4289-876a-e9144f93a2c6"},"vehicle_type_id":"4","last_reported":1768814670,"current_range_meters":4000,"station_id":"ce4bhsh2rcd13ifvqi2g","pricing_plan_id":"cebpf4jnsgd1na2vs0mg"},{"bike_id":"6f14ae8d-8959-4661-a35e-ffbf6c793c91","system_id":"levelo_inurba_marseille","lat":43.24395,"lon":5.37075,"is_reserved":false,"is_disabled":false,"rental_uris":{"android":"levelo://app?vid=6f14ae8d-8959-4661-a35e-ffbf6c793c91","ios":"levelo://app?vid=6f14ae8d-8959-4661-a35e-ffbf6c793c91"},"vehicle_type_id":"4","last_reported":1768814670,"current_range_meters":4000,"station_id":"ce4bhhh2rcd13ifvqfk0","pricing_plan_id":"cebpf4jnsgd1na2vs0mg"},{"bike_id":"c6b7d41c-17d5-4d4d-98f7-04f5d62108df","system_id":"levelo_inurba_marseille","lat":43.225563,"lon":5.416261,"is_reserved":false,"is_disabled":true,"rental_uris":{"android":"levelo://app?vid=c6b7d41c-17d5-4d4d-98f7-04f5d62108df","ios":"levelo://app?vid=c6b7d41c-17d5-4d4d-98f7-04f5d62108df"},"vehicle_type_id":"4","last_reported":1768814670,"current_range_meters":4000,"station_id":"st_d2o4gvlbi1j2169b742g","pricing_plan_id":"cebpf4jnsgd1na2vs0mg"},{"bike_id":"ffca010b-03ed-4be6-931c-938494bc3dcd","system_id":"levelo_inurba_marseille","lat":43.28858,"lon":5.4252,"is_reserved":false,"is_disabled":false,"rental_uris":{"android":"levelo://app?vid=ffca010b-03ed-4be6-931c-938494bc3dcd","ios":"levelo://app?vid=ffca010b-03ed-4be6-931c-938494bc3dcd"},"vehicle_type_id":"4","last_reported":1768814670,"current_range_meters":4000,"station_id":"st_d3b462108ojc7389ooeg","pricing_plan_id":"cebpf4jnsgd1na2vs0mg"},{"bike_id":"0105de79-43a8-4de9-af65-6d3d110a6400","system_id":"levelo_inurba_marseille","lat":43.2415,"lon":5.39722,"is_reserved":false,"is_disabled":false,"rental_uris":{"android":"levelo://app?vid=0105de79-43a8-4de9-af65-6d3d110a6400","ios":"levelo://app?vid=0105de79-43a8-4de9-af65-6d3d110a6400"},"vehicle_type_id":"4","last_reported":1768814670,"current_range_meters":4400,"station_id":"ce4bhn12rcd13ifvqgpg","pricing_plan_id":"cebpf4jnsgd1na2vs0mg"},{"bike_id":"c55653aa-3b40-49b8-ab2e-4981db381d01","system_id":"levelo_inurba_marseille","lat":43.27996,"lon":5.41681,"is_reserved":false,"is_disabled":false,"rental_uris":{"android":"levelo://app?vid=c55653aa-3b40-49b8-ab2e-4981db381d01","ios":"levelo://app?vid=c55653aa-3b40-49b8-ab2e-4981db381d01"},"vehicle_type_id":"4","last_reported":1768814670,"current_range_meters":4400,"station_id":"ce4bho12rcd13ifvqh1g","pricing_plan_id":"cebpf4jnsgd1na2vs0mg"},{"bike_id":"d857f41c-a21e-45ca-b411-cb68c6172c05","system_id":"levelo_inurba_marseille","lat":43.2872,"lon":5.37395,"is_reserved":false,"is_disabled":false,"rental_uris":{"android":"levelo://app?vid=d857f41c-a21e-45ca-b411-cb68c6172c05","ios":"levelo://app?vid=d857f41c-a21e-45ca-b411-cb68c6172c05"},"vehicle_type_id":"4","last_reported":1768814670,"current_range_meters":4400,"station_id":"ce4bh3p2rcd13ifvqdq0","pricing_plan_id":"cebpf4jnsgd1na2vs0mg"},{"bike_id":"ff839314-dbe7-407b-b40a-0a369c1d2176","system_id":"levelo_inurba_marseille","lat":43.29243,"lon":5.38456,"is_reserved":false,"is_disabled":false,"rental_uris":{"android":"levelo://app?vid=ff839314-dbe7-407b-b40a-0a369c1d2176","ios":"levelo://app?vid=ff839314-dbe7-407b-b40a-0a369c1d2176"},"vehicle_type_id":"4","last_reported":1768814670,"current_range_meters":4400,"station_id":"ce4bh692rcd13ifvqea0","pricing_plan_id":"cebpf4jnsgd1na2vs0mg"},{"bike_id":"4a28a0a5-92a3-4f41-871e-f75bf8fb68f3","system_id":"levelo_inurba_marseille","lat":43.3039,"lon":5.40982,"is_reserved":false,"is_disabled":false,"rental_uris":{"android":"levelo://app?vid=4a28a0a5-92a3-4f41-871e-f75bf8fb68f3","ios":"levelo://app?vid=4a28a0a5-92a3-4f41-871e-f75bf8fb68f3"},"vehicle_type_id":"4","last_reported":1768814670,"current_range_meters":4400,"station_id":"","pricing_plan_id":"cebpf4jnsgd1na2vs0mg"},{"bike_id":"4127f607-aa3a-484d-aaf5-da423da90890","system_id":"levelo_inurba_marseille","lat":43.24071,"lon":5.37765,"is_reserved":false,"is_disabled":false,"rental_uris":{"android":"levelo://app?vid=4127f607-aa3a-484d-aaf5-da423da90890","ios":"levelo://app?vid=4127f607-aa3a-484d-aaf5-da423da90890"},"vehicle_type_id":"4","last_reported":1768814670,"current_range_meters":4400,"station_id":"ce4bhnp2rcd13ifvqgvg","pricing_plan_id":"cebpf4jnsgd1na2vs0mg"},{"bike_id":"2b38c1fe-7b40-40b3-a3f9-5013de1a9ac2","system_id":"levelo_inurba_marseille","lat":43.2621,"lon":5.37471,"is_reserved":false,"is_disabled":false,"rental_uris":{"android":"levelo://app?vid=2b38c1fe-7b40-40b3-a3f9-5013de1a9ac2","ios":"levelo://app?vid=2b38c1fe-7b40-40b3-a3f9-5013de1a9ac2"},"vehicle_type_id":"4","last_reported":1768814670,"current_range_meters":4800,"station_id":"ce4bhgp2rcd13ifvqfc0","pricing_plan_id":"cebpf4jnsgd1na2vs0mg"},{"bike_id":"d2e09b08-74a4-4d06-8ec0-688eef749fe6","system_id":"levelo_inurba_marseille","lat":43.31212,"lon":5.36881,"is_reserved":false,"is_disabled":false,"rental_uris":{"android":"levelo://app?vid=d2e09b08-74a4-4d06-8ec0-688eef749fe6","ios":"levelo://app?vid=d2e09b08-74a4-4d06-8ec0-688eef749fe6"},"vehicle_type_id":"4","last_reported":1768814670,"current_range_meters":4800,"station_id":"ce4bgl92rcd13ifvqbq0","pricing_plan_id":"cebpf4jnsgd1na2vs0mg"},{"bike_id":"e95eb614-35af-4d13-86ba-a59b6ae5ccee","system_id":"levelo_inurba_marseille","lat":43.23778,"lon":5.36635,"is_reserved":false,"is_disabled":false,"rental_uris":{"android":"levelo://app?vid=e95eb614-35af-4d13-86ba-a59b6ae5ccee","ios":"levelo://app?vid=e95eb614-35af-4d13-86ba-a59b6ae5ccee"},"vehicle_type_id":"4","last_reported":1768814670,"current_range_meters":4800,"station_id":"st_d3nk18o9ro0c73en2l3g","pricing_plan_id":"cebpf4jnsgd1na2vs0mg"},{"bike_id":"52d76d5a-c8fd-4dbd-b507-0ab60f5b55ae","system_id":"levelo_inurba_marseille","lat":43.25539,"lon":5.43232,"is_reserved":false,"is_disabled":false,"rental_uris":{"android":"levelo://app?vid=52d76d5a-c8fd-4dbd-b507-0ab60f5b55ae","ios":"levelo://app?vid=52d76d5a-c8fd-4dbd-b507-0ab60f5b55ae"},"vehicle_type_id":"4","last_reported":1768814670,"current_range_meters":4800,"station_id":"","pricing_plan_id":"cebpf4jnsgd1na2vs0mg"},{"bike_id":"3a475153-6ef0-44f8-9ae8-5fb636697c6b","system_id":"levelo_inurba_marseille","lat":43.311583,"lon":5.38809,"is_reserved":false,"is_disabled":false,"rental_uris":{"android":"levelo://app?vid=3a475153-6ef0-44f8-9ae8-5fb636697c6b","ios":"levelo://app?vid=3a475153-6ef0-44f8-9ae8-5fb636697c6b"},"vehicle_type_id":"4","last_reported":1768814670,"current_range_meters":4800,"station_id":"ce4bgv12rcd13ifvqcp0","pricing_plan_id":"cebpf4jnsgd1na2vs0mg"},{"bike_id":"ec84f853-3c1e-432f-84f1-c7932f803205","system_id":"levelo_inurba_marseille","lat":43.24455,"lon":5.42556,"is_reserved":false,"is_disabled":false,"rental_uris":{"android":"levelo://app?vid=ec84f853-3c1e-432f-84f1-c7932f803205","ios":"levelo://app?vid=ec84f853-3c1e-432f-84f1-c7932f803205"},"vehicle_type_id":"4","last_reported":1768814670,"current_range_meters":4800,"station_id":"st_d4a3vfp97mjs738cd8kg","pricing_plan_id":"cebpf4jnsgd1na2vs0mg"},{"bike_id":"ab74dafd-bdde-4806-9312-7ac8c28f3c12","system_id":"levelo_inurba_marseille","lat":43.28844,"lon":5.42527,"is_reserved":false,"is_disabled":false,"rental_uris":{"android":"levelo://app?vid=ab74dafd-bdde-4806-9312-7ac8c28f3c12","ios":"levelo://app?vid=ab74dafd-bdde-4806-9312-7ac8c28f3c12"},"vehicle_type_id":"4","last_reported":1768814670,"current_range_meters":4800,"station_id":"st_d3b462108ojc7389ooeg","pricing_plan_id":"cebpf4jnsgd1na2vs0mg"},{"bike_id":"f105a622-1eec-4225-9e46-e84e6e6b6073","system_id":"levelo_inurba_marseille","lat":43.24817,"lon":5.37468,"is_reserved":false,"is_disabled":false,"rental_uris":{"android":"levelo://app?vid=f105a622-1eec-4225-9e46-e84e6e6b6073","ios":"levelo://app?vid=f105a622-1eec-4225-9e46-e84e6e6b6073"},"vehicle_type_id":"4","last_reported":1768814670,"current_range_meters":4800,"station_id":"ce4bhgh2rcd13ifvqfb0","pricing_plan_id":"cebpf4jnsgd1na2vs0mg"},{"bike_id":"80dd23a5-0dde-4636-a849-634c5c6760f9","system_id":"levelo_inurba_marseille","lat":43.24066,"lon":5.37772,"is_reserved":false,"is_disabled":false,"rental_uris":{"android":"levelo://app?vid=80dd23a5-0dde-4636-a849-634c5c6760f9","ios":"levelo://app?vid=80dd23a5-0dde-4636-a849-634c5c6760f9"},"vehicle_type_id":"4","last_reported":1768814670,"current_range_meters":4800,"station_id":"ce4bhnp2rcd13ifvqgvg","pricing_plan_id":"cebpf4jnsgd1na2vs0mg"},{"bike_id":"f85f4c33-1265-4e47-befa-9150dd174599","system_id":"levelo_inurba_marseille","lat":43.3027,"lon":5.37734,"is_reserved":false,"is_disabled":false,"rental_uris":{"android":"levelo://app?vid=f85f4c33-1265-4e47-befa-9150dd174599","ios":"levelo://app?vid=f85f4c33-1265-4e47-befa-9150dd174599"},"vehicle_type_id":"4","last_reported":1768814670,"current_range_meters":4800,"station_id":"ce4bguh2rcd13ifvqcj0","pricing_plan_id":"cebpf4jnsgd1na2vs0mg"},{"bike_id":"5cafc65a-336d-461b-9c9b-24020b0d2e9d","system_id":"levelo_inurba_marseille","lat":43.33515,"lon":5.37465,"is_reserved":false,"is_disabled":false,"rental_uris":{"android":"levelo://app?vid=5cafc65a-336d-461b-9c9b-24020b0d2e9d","ios":"levelo://app?vid=5cafc65a-336d-461b-9c9b-24020b0d2e9d"},"vehicle_type_id":"4","last_reported":1768814670,"current_range_meters":4800,"station_id":"","pricing_plan_id":"cebpf4jnsgd1na2vs0mg"},{"bike_id":"7598ef3a-b665-4fa8-b3de-2e188254c5cb","system_id":"levelo_inurba_marseille","lat":43.26501,"lon":5.39538,"is_reserved":false,"is_disabled":false,"rental_uris":{"android":"levelo://app?vid=7598ef3a-b665-4fa8-b3de-2e188254c5cb","ios":"levelo://app?vid=7598ef3a-b665-4fa8-b3de-2e188254c5cb"},"vehicle_type_id":"4","last_reported":1768814670,"current_range_meters":5600,"station_id":"ce4bhi12rcd13ifvqfq0","pricing_plan_id":"cebpf4jnsgd1na2vs0mg"},{"bike_id":"e67e42fe-b68e-4d43-9d57-582dc6eaf5d9","system_id":"levelo_inurba_marseille","lat":43.255734,"lon":5.382223,"is_reserved":false,"is_disabled":false,"rental_uris":{"android":"levelo://app?vid=e67e42fe-b68e-4d43-9d57-582dc6eaf5d9","ios":"levelo://app?vid=e67e42fe-b68e-4d43-9d57-582dc6eaf5d9"},"vehicle_type_id":"4","last_reported":1768814670,"current_range_meters":5600,"station_id":"ce4bhih2rcd13ifvqfs0","pricing_plan_id":"cebpf4jnsgd1na2vs0mg"},{"bike_id":"5cccdad3-57e0-40c4-bb97-5effe42d761a","system_id":"levelo_inurba_marseille","lat":43.24786,"lon":5.37467,"is_reserved":false,"is_disabled":false,"rental_uris":{"android":"levelo://app?vid=5cccdad3-57e0-40c4-bb97-5effe42d761a","ios":"levelo://app?vid=5cccdad3-57e0-40c4-bb97-5effe42d761a"},"vehicle_type_id":"4","last_reported":1768814670,"current_range_meters":5600,"station_id":"ce4bhgh2rcd13ifvqfb0","pricing_plan_id":"cebpf4jnsgd1na2vs0mg"},{"bike_id":"02ab98c5-1cd1-4d33-a034-5f5e1f65b38a","system_id":"levelo_inurba_marseille","lat":43.28466,"lon":5.48468,"is_reserved":false,"is_disabled":false,"rental_uris":{"android":"levelo://app?vid=02ab98c5-1cd1-4d33-a034-5f5e1f65b38a","ios":"levelo://app?vid=02ab98c5-1cd1-4d33-a034-5f5e1f65b38a"},"vehicle_type_id":"4","last_reported":1768814670,"current_range_meters":5600,"station_id":"st_d3svhcjqgbts73a3dn0g","pricing_plan_id":"cebpf4jnsgd1na2vs0mg"},{"bike_id":"6355e7aa-a5cc-4172-b776-1eb210d2dfc4","system_id":"levelo_inurba_marseille","lat":43.31225,"lon":5.36829,"is_reserved":false,"is_disabled":false,"rental_uris":{"android":"levelo://app?vid=6355e7aa-a5cc-4172-b776-1eb210d2dfc4","ios":"levelo://app?vid=6355e7aa-a5cc-4172-b776-1eb210d2dfc4"},"vehicle_type_id":"4","last_reported":1768814670,"current_range_meters":5600,"station_id":"ce4bgl92rcd13ifvqbq0","pricing_plan_id":"cebpf4jnsgd1na2vs0mg"},{"bike_id":"e03c617e-ceb1-4279-a329-b1d541816b13","system_id":"levelo_inurba_marseille","lat":43.26952,"lon":5.38641,"is_reserved":false,"is_disabled":false,"rental_uris":{"android":"levelo://app?vid=e03c617e-ceb1-4279-a329-b1d541816b13","ios":"levelo://app?vid=e03c617e-ceb1-4279-a329-b1d541816b13"},"vehicle_type_id":"4","last_reported":1768814670,"current_range_meters":5600,"station_id":"ce4bhh92rcd13ifvqfh0","pricing_plan_id":"cebpf4jnsgd1na2vs0mg"},{"bike_id":"39133ef5-deb1-4ed5-9a13-e89d3e4fa4d7","system_id":"levelo_inurba_marseille","lat":43.30947,"lon":5.39035,"is_reserved":false,"is_disabled":false,"rental_uris":{"android":"levelo://app?vid=39133ef5-deb1-4ed5-9a13-e89d3e4fa4d7","ios":"levelo://app?vid=39133ef5-deb1-4ed5-9a13-e89d3e4fa4d7"},"vehicle_type_id":"4","last_reported":1768814670,"current_range_meters":5600,"station_id":"ce4bgup2rcd13ifvqco0","pricing_plan_id":"cebpf4jnsgd1na2vs0mg"},{"bike_id":"41b4e991-1d9f-4695-ade5-bf13dab3a4b5","system_id":"levelo_inurba_marseille","lat":43.31378,"lon":5.36679,"is_reserved":false,"is_disabled":false,"rental_uris":{"android":"levelo://app?vid=41b4e991-1d9f-4695-ade5-bf13dab3a4b5","ios":"levelo://app?vid=41b4e991-1d9f-4695-ade5-bf13dab3a4b5"},"vehicle_type_id":"4","last_reported":1768814670,"current_range_meters":5600,"station_id":"ce4bgr92rcd13ifvqc6g","pricing_plan_id":"cebpf4jnsgd1na2vs0mg"},{"bike_id":"7ed5f5fe-b971-410d-806f-a167c85f1377","system_id":"levelo_inurba_marseille","lat":43.31357,"lon":5.38497,"is_reserved":false,"is_disabled":false,"rental_uris":{"android":"levelo://app?vid=7ed5f5fe-b971-410d-806f-a167c85f1377","ios":"levelo://app?vid=7ed5f5fe-b971-410d-806f-a167c85f1377"},"vehicle_type_id":"4","last_reported":1768814670,"current_range_meters":5600,"station_id":"ce4bgt92rcd13ifvqcf0","pricing_plan_id":"cebpf4jnsgd1na2vs0mg"},{"bike_id":"709dc689-4731-4ffa-bf91-91a9c6d6b2c0","system_id":"levelo_inurba_marseille","lat":43.27938,"lon":5.41044,"is_reserved":false,"is_disabled":false,"rental_uris":{"android":"levelo://app?vid=709dc689-4731-4ffa-bf91-91a9c6d6b2c0","ios":"levelo://app?vid=709dc689-4731-4ffa-bf91-91a9c6d6b2c0"},"vehicle_type_id":"4","last_reported":1768814670,"current_range_meters":5600,"station_id":"ce4bhnp2rcd13ifvqh0g","pricing_plan_id":"cebpf4jnsgd1na2vs0mg"},{"bike_id":"9d4e52fe-5fd6-47e1-841a-1b3079f7fe1d","system_id":"levelo_inurba_marseille","lat":43.309,"lon":5.36873,"is_reserved":false,"is_disabled":false,"rental_uris":{"android":"levelo://app?vid=9d4e52fe-5fd6-47e1-841a-1b3079f7fe1d","ios":"levelo://app?vid=9d4e52fe-5fd6-47e1-841a-1b3079f7fe1d"},"vehicle_type_id":"4","last_reported":1768814670,"current_range_meters":6000,"station_id":"ce4bgn92rcd13ifvqbvg","pricing_plan_id":"cebpf4jnsgd1na2vs0mg"},{"bike_id":"5037036f-188b-4c9c-9f7e-772a64c012d7","system_id":"levelo_inurba_marseille","lat":43.24191,"lon":5.39727,"is_reserved":false,"is_disabled":false,"rental_uris":{"android":"levelo://app?vid=5037036f-188b-4c9c-9f7e-772a64c012d7","ios":"levelo://app?vid=5037036f-188b-4c9c-9f7e-772a64c012d7"},"vehicle_type_id":"4","last_reported":1768814670,"current_range_meters":6000,"station_id":"ce4bhn12rcd13ifvqgpg","pricing_plan_id":"cebpf4jnsgd1na2vs0mg"},{"bike_id":"5ae218fc-4b59-47bf-843d-07e184a1a6c6","system_id":"levelo_inurba_marseille","lat":43.25605,"lon":5.38239,"is_reserved":false,"is_disabled":false,"rental_uris":{"android":"levelo://app?vid=5ae218fc-4b59-47bf-843d-07e184a1a6c6","ios":"levelo://app?vid=5ae218fc-4b59-47bf-843d-07e184a1a6c6"},"vehicle_type_id":"4","last_reported":1768814670,"current_range_meters":6000,"station_id":"ce4bhih2rcd13ifvqfs0","pricing_plan_id":"cebpf4jnsgd1na2vs0mg"},{"bike_id":"3e1b0ae8-bc2e-47bc-9eec-b1e55fd276e4","system_id":"levelo_inurba_marseille","lat":43.28478,"lon":5.48389,"is_reserved":false,"is_disabled":false,"rental_uris":{"android":"levelo://app?vid=3e1b0ae8-bc2e-47bc-9eec-b1e55fd276e4","ios":"levelo://app?vid=3e1b0ae8-bc2e-47bc-9eec-b1e55fd276e4"},"vehicle_type_id":"4","last_reported":1768814670,"current_range_meters":6000,"station_id":"st_d3svhcjqgbts73a3dn0g","pricing_plan_id":"cebpf4jnsgd1na2vs0mg"},{"bike_id":"4471b153-47fa-489c-846a-d53b16f561e8","system_id":"levelo_inurba_marseille","lat":43.26197,"lon":5.37458,"is_reserved":false,"is_disabled":false,"rental_uris":{"android":"levelo://app?vid=4471b153-47fa-489c-846a-d53b16f561e8","ios":"levelo://app?vid=4471b153-47fa-489c-846a-d53b16f561e8"},"vehicle_type_id":"4","last_reported":1768814670,"current_range_meters":6000,"station_id":"ce4bhgp2rcd13ifvqfc0","pricing_plan_id":"cebpf4jnsgd1na2vs0mg"},{"bike_id":"997bd131-bc4b-4ed3-be50-234bd23db618","system_id":"levelo_inurba_marseille","lat":43.23779,"lon":5.36634,"is_reserved":false,"is_disabled":false,"rental_uris":{"android":"levelo://app?vid=997bd131-bc4b-4ed3-be50-234bd23db618","ios":"levelo://app?vid=997bd131-bc4b-4ed3-be50-234bd23db618"},"vehicle_type_id":"4","last_reported":1768814670,"current_range_meters":6000,"station_id":"st_d3nk18o9ro0c73en2l3g","pricing_plan_id":"cebpf4jnsgd1na2vs0mg"},{"bike_id":"e94c8ee4-b0a5-4778-abc5-57f1c73a979e","system_id":"levelo_inurba_marseille","lat":43.29578,"lon":5.3675,"is_reserved":false,"is_disabled":false,"rental_uris":{"android":"levelo://app?vid=e94c8ee4-b0a5-4778-abc5-57f1c73a979e","ios":"levelo://app?vid=e94c8ee4-b0a5-4778-abc5-57f1c73a979e"},"vehicle_type_id":"4","last_reported":1768814670,"current_range_meters":6000,"station_id":"ce4bgph2rcd13ifvqc2g","pricing_plan_id":"cebpf4jnsgd1na2vs0mg"},{"bike_id":"d19cfc42-b2b1-43d1-b130-a67d6f4e20e0","system_id":"levelo_inurba_marseille","lat":43.31909,"lon":5.4011,"is_reserved":false,"is_disabled":false,"rental_uris":{"android":"levelo://app?vid=d19cfc42-b2b1-43d1-b130-a67d6f4e20e0","ios":"levelo://app?vid=d19cfc42-b2b1-43d1-b130-a67d6f4e20e0"},"vehicle_type_id":"4","last_reported":1768814670,"current_range_meters":6000,"station_id":"","pricing_plan_id":"cebpf4jnsgd1na2vs0mg"},{"bike_id":"a54d5df4-8e04-455c-aff5-6470c2bee2e4","system_id":"levelo_inurba_marseille","lat":43.27972,"lon":5.38525,"is_reserved":false,"is_disabled":false,"rental_uris":{"android":"levelo://app?vid=a54d5df4-8e04-455c-aff5-6470c2bee2e4","ios":"levelo://app?vid=a54d5df4-8e04-455c-aff5-6470c2bee2e4"},"vehicle_type_id":"4","last_reported":1768814670,"current_range_meters":6400,"station_id":"","pricing_plan_id":"cebpf4jnsgd1na2vs0mg"},{"bike_id":"e3ab7fbc-a543-4ce6-8bfb-a545434b1568","system_id":"levelo_inurba_marseille","lat":43.28875,"lon":5.42541,"is_reserved":false,"is_disabled":false,"rental_uris":{"android":"levelo://app?vid=e3ab7fbc-a543-4ce6-8bfb-a545434b1568","ios":"levelo://app?vid=e3ab7fbc-a543-4ce6-8bfb-a545434b1568"},"vehicle_type_id":"4","last_reported":1768814670,"current_range_meters":6400,"station_id":"st_d3b462108ojc7389ooeg","pricing_plan_id":"cebpf4jnsgd1na2vs0mg"},{"bike_id":"9d5bd6e3-5f32-42e7-82c4-5b32e671c5bf","system_id":"levelo_inurba_marseille","lat":43.31755,"lon":5.39011,"is_reserved":false,"is_disabled":false,"rental_uris":{"android":"levelo://app?vid=9d5bd6e3-5f32-42e7-82c4-5b32e671c5bf","ios":"levelo://app?vid=9d5bd6e3-5f32-42e7-82c4-5b32e671c5bf"},"vehicle_type_id":"4","last_reported":1768814670,"current_range_meters":6400,"station_id":"ce4bhqp2rcd13ifvqhng","pricing_plan_id":"cebpf4jnsgd1na2vs0mg"},{"bike_id":"4eadcc1b-0762-4040-86d7-ebfc094275a1","system_id":"levelo_inurba_marseille","lat":43.27202,"lon":5.39183,"is_reserved":false,"is_disabled":false,"rental_uris":{"android":"levelo://app?vid=4eadcc1b-0762-4040-86d7-ebfc094275a1","ios":"levelo://app?vid=4eadcc1b-0762-4040-86d7-ebfc094275a1"},"vehicle_type_id":"4","last_reported":1768814670,"current_range_meters":6400,"station_id":"","pricing_plan_id":"cebpf4jnsgd1na2vs0mg"},{"bike_id":"456fa838-bde1-41a1-bacb-725c5d31c7ed","system_id":"levelo_inurba_marseille","lat":43.27385,"lon":5.362456,"is_reserved":false,"is_disabled":false,"rental_uris":{"android":"levelo://app?vid=456fa838-bde1-41a1-bacb-725c5d31c7ed","ios":"levelo://app?vid=456fa838-bde1-41a1-bacb-725c5d31c7ed"},"vehicle_type_id":"4","last_reported":1768814670,"current_range_meters":6400,"station_id":"ce4bhbh2rcd13ifvqeo0","pricing_plan_id":"cebpf4jnsgd1na2vs0mg"},{"bike_id":"3685f9e3-08c8-45d7-ab98-5f889efb34b2","system_id":"levelo_inurba_marseille","lat":43.2587,"lon":5.39927,"is_reserved":false,"is_disabled":false,"rental_uris":{"android":"levelo://app?vid=3685f9e3-08c8-45d7-ab98-5f889efb34b2","ios":"levelo://app?vid=3685f9e3-08c8-45d7-ab98-5f889efb34b2"},"vehicle_type_id":"4","last_reported":1768814670,"current_range_meters":6400,"station_id":"ce4bhl92rcd13ifvqghg","pricing_plan_id":"cebpf4jnsgd1na2vs0mg"},{"bike_id":"825dbe6a-05ff-42c5-b686-988034ec5c97","system_id":"levelo_inurba_marseille","lat":43.2794,"lon":5.41044,"is_reserved":false,"is_disabled":true,"rental_uris":{"android":"levelo://app?vid=825dbe6a-05ff-42c5-b686-988034ec5c97","ios":"levelo://app?vid=825dbe6a-05ff-42c5-b686-988034ec5c97"},"vehicle_type_id":"4","last_reported":1768814670,"current_range_meters":6400,"station_id":"ce4bhnp2rcd13ifvqh0g","pricing_plan_id":"cebpf4jnsgd1na2vs0mg"},{"bike_id":"e0b3d136-4efd-4410-be5e-53b3cc12c4c3","system_id":"levelo_inurba_marseille","lat":43.26052,"lon":5.38645,"is_reserved":false,"is_disabled":false,"rental_uris":{"android":"levelo://app?vid=e0b3d136-4efd-4410-be5e-53b3cc12c4c3","ios":"levelo://app?vid=e0b3d136-4efd-4410-be5e-53b3cc12c4c3"},"vehicle_type_id":"4","last_reported":1768814670,"current_range_meters":6400,"station_id":"","pricing_plan_id":"cebpf4jnsgd1na2vs0mg"},{"bike_id":"f760a7b1-29a2-400f-be88-26a576d0ed33","system_id":"levelo_inurba_marseille","lat":43.22558,"lon":5.41645,"is_reserved":false,"is_disabled":false,"rental_uris":{"android":"levelo://app?vid=f760a7b1-29a2-400f-be88-26a576d0ed33","ios":"levelo://app?vid=f760a7b1-29a2-400f-be88-26a576d0ed33"},"vehicle_type_id":"4","last_reported":1768814670,"current_range_meters":6400,"station_id":"st_d2o4gvlbi1j2169b742g","pricing_plan_id":"cebpf4jnsgd1na2vs0mg"},{"bike_id":"12b105ac-593d-473b-a16a-a4d1f9fb50c6","system_id":"levelo_inurba_marseille","lat":43.279786,"lon":5.38735,"is_reserved":false,"is_disabled":false,"rental_uris":{"android":"levelo://app?vid=12b105ac-593d-473b-a16a-a4d1f9fb50c6","ios":"levelo://app?vid=12b105ac-593d-473b-a16a-a4d1f9fb50c6"},"vehicle_type_id":"4","last_reported":1768814670,"current_range_meters":6400,"station_id":"","pricing_plan_id":"cebpf4jnsgd1na2vs0mg"},{"bike_id":"9ea71dd4-557a-49eb-872d-de0717506d64","system_id":"levelo_inurba_marseille","lat":43.23195,"lon":5.35543,"is_reserved":false,"is_disabled":false,"rental_uris":{"android":"levelo://app?vid=9ea71dd4-557a-49eb-872d-de0717506d64","ios":"levelo://app?vid=9ea71dd4-557a-49eb-872d-de0717506d64"},"vehicle_type_id":"4","last_reported":1768814670,"current_range_meters":6400,"station_id":"ce4bhu92rcd13ifvqi70","pricing_plan_id":"cebpf4jnsgd1na2vs0mg"},{"bike_id":"99eb7f6e-7d47-4fe7-a5ad-44af0b5818fb","system_id":"levelo_inurba_marseille","lat":43.24073,"lon":5.39709,"is_reserved":false,"is_disabled":false,"rental_uris":{"android":"levelo://app?vid=99eb7f6e-7d47-4fe7-a5ad-44af0b5818fb","ios":"levelo://app?vid=99eb7f6e-7d47-4fe7-a5ad-44af0b5818fb"},"vehicle_type_id":"4","last_reported":1768814670,"current_range_meters":6400,"station_id":"","pricing_plan_id":"cebpf4jnsgd1na2vs0mg"},{"bike_id":"84d602b3-8943-4780-bcf1-164d29a27b66","system_id":"levelo_inurba_marseille","lat":43.28472,"lon":5.48423,"is_reserved":false,"is_disabled":false,"rental_uris":{"android":"levelo://app?vid=84d602b3-8943-4780-bcf1-164d29a27b66","ios":"levelo://app?vid=84d602b3-8943-4780-bcf1-164d29a27b66"},"vehicle_type_id":"4","last_reported":1768814670,"current_range_meters":6400,"station_id":"","pricing_plan_id":"cebpf4jnsgd1na2vs0mg"},{"bike_id":"5eb9bc53-a072-4c6e-bcc5-1c986a512b73","system_id":"levelo_inurba_marseille","lat":43.28659,"lon":5.36347,"is_reserved":false,"is_disabled":false,"rental_uris":{"android":"levelo://app?vid=5eb9bc53-a072-4c6e-bcc5-1c986a512b73","ios":"levelo://app?vid=5eb9bc53-a072-4c6e-bcc5-1c986a512b73"},"vehicle_type_id":"4","last_reported":1768814670,"current_range_meters":6400,"station_id":"ce4bhah2rcd13ifvqej0","pricing_plan_id":"cebpf4jnsgd1na2vs0mg"},{"bike_id":"188c635f-31eb-4e45-b29f-e748801ba7a3","system_id":"levelo_inurba_marseille","lat":43.28466,"lon":5.48407,"is_reserved":false,"is_disabled":false,"rental_uris":{"android":"levelo://app?vid=188c635f-31eb-4e45-b29f-e748801ba7a3","ios":"levelo://app?vid=188c635f-31eb-4e45-b29f-e748801ba7a3"},"vehicle_type_id":"4","last_reported":1768814670,"current_range_meters":6400,"station_id":"st_d3svhcjqgbts73a3dn0g","pricing_plan_id":"cebpf4jnsgd1na2vs0mg"},{"bike_id":"c17fb97b-ae07-4c98-a543-c0e22027b693","system_id":"levelo_inurba_marseille","lat":43.24397,"lon":5.3707,"is_reserved":false,"is_disabled":false,"rental_uris":{"android":"levelo://app?vid=c17fb97b-ae07-4c98-a543-c0e22027b693","ios":"levelo://app?vid=c17fb97b-ae07-4c98-a543-c0e22027b693"},"vehicle_type_id":"4","last_reported":1768814670,"current_range_meters":6400,"station_id":"ce4bhhh2rcd13ifvqfk0","pricing_plan_id":"cebpf4jnsgd1na2vs0mg"},{"bike_id":"aaf31786-2977-4186-a7af-d50e49e4bbc5","system_id":"levelo_inurba_marseille","lat":43.274895,"lon":5.424565,"is_reserved":false,"is_disabled":false,"rental_uris":{"android":"levelo://app?vid=aaf31786-2977-4186-a7af-d50e49e4bbc5","ios":"levelo://app?vid=aaf31786-2977-4186-a7af-d50e49e4bbc5"},"vehicle_type_id":"4","last_reported":1768814670,"current_range_meters":6400,"station_id":"ce4bhn92rcd13ifvqgrg","pricing_plan_id":"cebpf4jnsgd1na2vs0mg"},{"bike_id":"491787b0-44f5-4c27-b37c-c32750d2bf5e","system_id":"levelo_inurba_marseille","lat":43.301,"lon":5.40175,"is_reserved":false,"is_disabled":false,"rental_uris":{"android":"levelo://app?vid=491787b0-44f5-4c27-b37c-c32750d2bf5e","ios":"levelo://app?vid=491787b0-44f5-4c27-b37c-c32750d2bf5e"},"vehicle_type_id":"4","last_reported":1768814670,"current_range_meters":6400,"station_id":"","pricing_plan_id":"cebpf4jnsgd1na2vs0mg"},{"bike_id":"d61d55f2-38b3-47bf-8db3-dd8829f32d8f","system_id":"levelo_inurba_marseille","lat":43.28517,"lon":5.44097,"is_reserved":false,"is_disabled":false,"rental_uris":{"android":"levelo://app?vid=d61d55f2-38b3-47bf-8db3-dd8829f32d8f","ios":"levelo://app?vid=d61d55f2-38b3-47bf-8db3-dd8829f32d8f"},"vehicle_type_id":"4","last_reported":1768814670,"current_range_meters":6400,"station_id":"st_d3j3df2ikq2c7380ej80","pricing_plan_id":"cebpf4jnsgd1na2vs0mg"},{"bike_id":"71626338-6367-4396-9144-31c68bad13f6","system_id":"levelo_inurba_marseille","lat":43.28932,"lon":5.39637,"is_reserved":false,"is_disabled":false,"rental_uris":{"android":"levelo://app?vid=71626338-6367-4396-9144-31c68bad13f6","ios":"levelo://app?vid=71626338-6367-4396-9144-31c68bad13f6"},"vehicle_type_id":"4","last_reported":1768814670,"current_range_meters":6800,"station_id":"ce4bh3h2rcd13ifvqdn0","pricing_plan_id":"cebpf4jnsgd1na2vs0mg"},{"bike_id":"ba07251e-69c5-4418-ace3-7cd844e33077","system_id":"levelo_inurba_marseille","lat":43.27806,"lon":5.40715,"is_reserved":false,"is_disabled":false,"rental_uris":{"android":"levelo://app?vid=ba07251e-69c5-4418-ace3-7cd844e33077","ios":"levelo://app?vid=ba07251e-69c5-4418-ace3-7cd844e33077"},"vehicle_type_id":"4","last_reported":1768814670,"current_range_meters":6800,"station_id":"ce4bhnh2rcd13ifvqgtg","pricing_plan_id":"cebpf4jnsgd1na2vs0mg"},{"bike_id":"1606f888-b4dc-4200-b20c-005f9a7c7417","system_id":"levelo_inurba_marseille","lat":43.22949,"lon":5.3542,"is_reserved":false,"is_disabled":false,"rental_uris":{"android":"levelo://app?vid=1606f888-b4dc-4200-b20c-005f9a7c7417","ios":"levelo://app?vid=1606f888-b4dc-4200-b20c-005f9a7c7417"},"vehicle_type_id":"4","last_reported":1768814670,"current_range_meters":6800,"station_id":"cpo3532slgdg3j2ikp40","pricing_plan_id":"cebpf4jnsgd1na2vs0mg"},{"bike_id":"da5ec0dc-b428-4d22-9b7d-d9f0923ad17e","system_id":"levelo_inurba_marseille","lat":43.29634,"lon":5.371526,"is_reserved":false,"is_disabled":true,"rental_uris":{"android":"levelo://app?vid=da5ec0dc-b428-4d22-9b7d-d9f0923ad17e","ios":"levelo://app?vid=da5ec0dc-b428-4d22-9b7d-d9f0923ad17e"},"vehicle_type_id":"4","last_reported":1768814670,"current_range_meters":6800,"station_id":"ce4bgnh2rcd13ifvqc0g","pricing_plan_id":"cebpf4jnsgd1na2vs0mg"},{"bike_id":"6cf01478-fde2-46e6-bdc7-d20cd609786f","system_id":"levelo_inurba_marseille","lat":43.28485,"lon":5.38536,"is_reserved":false,"is_disabled":false,"rental_uris":{"android":"levelo://app?vid=6cf01478-fde2-46e6-bdc7-d20cd609786f","ios":"levelo://app?vid=6cf01478-fde2-46e6-bdc7-d20cd609786f"},"vehicle_type_id":"4","last_reported":1768814670,"current_range_meters":6800,"station_id":"ce4bh8p2rcd13ifvqeb0","pricing_plan_id":"cebpf4jnsgd1na2vs0mg"},{"bike_id":"29afe764-5bd3-4798-b90c-797c6f1ff8b4","system_id":"levelo_inurba_marseille","lat":43.27301,"lon":5.39118,"is_reserved":false,"is_disabled":false,"rental_uris":{"android":"levelo://app?vid=29afe764-5bd3-4798-b90c-797c6f1ff8b4","ios":"levelo://app?vid=29afe764-5bd3-4798-b90c-797c6f1ff8b4"},"vehicle_type_id":"4","last_reported":1768814670,"current_range_meters":6800,"station_id":"ce4bhgp2rcd13ifvqfe0","pricing_plan_id":"cebpf4jnsgd1na2vs0mg"},{"bike_id":"2d060480-4076-4ee0-b2c8-9a6123da7b4a","system_id":"levelo_inurba_marseille","lat":43.30466,"lon":5.37902,"is_reserved":false,"is_disabled":false,"rental_uris":{"android":"levelo://app?vid=2d060480-4076-4ee0-b2c8-9a6123da7b4a","ios":"levelo://app?vid=2d060480-4076-4ee0-b2c8-9a6123da7b4a"},"vehicle_type_id":"4","last_reported":1768814670,"current_range_meters":6800,"station_id":"ce4bgup2rcd13ifvqcn0","pricing_plan_id":"cebpf4jnsgd1na2vs0mg"},{"bike_id":"9e956125-d135-4c5b-a672-b787c5ecd852","system_id":"levelo_inurba_marseille","lat":43.24178,"lon":5.39725,"is_reserved":false,"is_disabled":false,"rental_uris":{"android":"levelo://app?vid=9e956125-d135-4c5b-a672-b787c5ecd852","ios":"levelo://app?vid=9e956125-d135-4c5b-a672-b787c5ecd852"},"vehicle_type_id":"4","last_reported":1768814670,"current_range_meters":6800,"station_id":"ce4bhn12rcd13ifvqgpg","pricing_plan_id":"cebpf4jnsgd1na2vs0mg"},{"bike_id":"b8f52dd2-3ff0-49cc-ab26-cd9d95af28fe","system_id":"levelo_inurba_marseille","lat":43.25937,"lon":5.40899,"is_reserved":false,"is_disabled":false,"rental_uris":{"android":"levelo://app?vid=b8f52dd2-3ff0-49cc-ab26-cd9d95af28fe","ios":"levelo://app?vid=b8f52dd2-3ff0-49cc-ab26-cd9d95af28fe"},"vehicle_type_id":"4","last_reported":1768814670,"current_range_meters":6800,"station_id":"ce4bhm92rcd13ifvqglg","pricing_plan_id":"cebpf4jnsgd1na2vs0mg"},{"bike_id":"80b40564-d8ca-4fba-94c7-74b7e6e95b0e","system_id":"levelo_inurba_marseille","lat":43.30523,"lon":5.36555,"is_reserved":false,"is_disabled":false,"rental_uris":{"android":"levelo://app?vid=80b40564-d8ca-4fba-94c7-74b7e6e95b0e","ios":"levelo://app?vid=80b40564-d8ca-4fba-94c7-74b7e6e95b0e"},"vehicle_type_id":"4","last_reported":1768814670,"current_range_meters":6800,"station_id":"ce4bgs12rcd13ifvqcag","pricing_plan_id":"cebpf4jnsgd1na2vs0mg"},{"bike_id":"1837b76f-55b2-4942-aef4-b0d299ab4019","system_id":"levelo_inurba_marseille","lat":43.25221,"lon":5.38037,"is_reserved":false,"is_disabled":false,"rental_uris":{"android":"levelo://app?vid=1837b76f-55b2-4942-aef4-b0d299ab4019","ios":"levelo://app?vid=1837b76f-55b2-4942-aef4-b0d299ab4019"},"vehicle_type_id":"4","last_reported":1768814670,"current_range_meters":6800,"station_id":"","pricing_plan_id":"cebpf4jnsgd1na2vs0mg"},{"bike_id":"1149869c-2dca-45dc-8e7a-dda897f2d36c","system_id":"levelo_inurba_marseille","lat":43.26681,"lon":5.38282,"is_reserved":false,"is_disabled":false,"rental_uris":{"android":"levelo://app?vid=1149869c-2dca-45dc-8e7a-dda897f2d36c","ios":"levelo://app?vid=1149869c-2dca-45dc-8e7a-dda897f2d36c"},"vehicle_type_id":"4","last_reported":1768814670,"current_range_meters":6800,"station_id":"ce4bhg92rcd13ifvqf90","pricing_plan_id":"cebpf4jnsgd1na2vs0mg"},{"bike_id":"a9cdf974-4322-4744-b774-7480af4d3eeb","system_id":"levelo_inurba_marseille","lat":43.27992,"lon":5.41667,"is_reserved":false,"is_disabled":false,"rental_uris":{"android":"levelo://app?vid=a9cdf974-4322-4744-b774-7480af4d3eeb","ios":"levelo://app?vid=a9cdf974-4322-4744-b774-7480af4d3eeb"},"vehicle_type_id":"4","last_reported":1768814670,"current_range_meters":7200,"station_id":"ce4bho12rcd13ifvqh1g","pricing_plan_id":"cebpf4jnsgd1na2vs0mg"},{"bike_id":"0975f492-1758-4813-958c-364296bfbee6","system_id":"levelo_inurba_marseille","lat":43.26061,"lon":5.39374,"is_reserved":false,"is_disabled":false,"rental_uris":{"android":"levelo://app?vid=0975f492-1758-4813-958c-364296bfbee6","ios":"levelo://app?vid=0975f492-1758-4813-958c-364296bfbee6"},"vehicle_type_id":"4","last_reported":1768814670,"current_range_meters":7200,"station_id":"ce4bhh92rcd13ifvqfj0","pricing_plan_id":"cebpf4jnsgd1na2vs0mg"},{"bike_id":"ec1861e3-cf5e-47e7-9bee-92fe639b30f4","system_id":"levelo_inurba_marseille","lat":43.24543,"lon":5.39533,"is_reserved":false,"is_disabled":false,"rental_uris":{"android":"levelo://app?vid=ec1861e3-cf5e-47e7-9bee-92fe639b30f4","ios":"levelo://app?vid=ec1861e3-cf5e-47e7-9bee-92fe639b30f4"},"vehicle_type_id":"4","last_reported":1768814670,"current_range_meters":7200,"station_id":"ce4bhlp2rcd13ifvqgjg","pricing_plan_id":"cebpf4jnsgd1na2vs0mg"},{"bike_id":"681232eb-8730-4455-bfaa-f9a1ecc3ac98","system_id":"levelo_inurba_marseille","lat":43.24789,"lon":5.37455,"is_reserved":false,"is_disabled":false,"rental_uris":{"android":"levelo://app?vid=681232eb-8730-4455-bfaa-f9a1ecc3ac98","ios":"levelo://app?vid=681232eb-8730-4455-bfaa-f9a1ecc3ac98"},"vehicle_type_id":"4","last_reported":1768814670,"current_range_meters":7200,"station_id":"ce4bhgh2rcd13ifvqfb0","pricing_plan_id":"cebpf4jnsgd1na2vs0mg"},{"bike_id":"de49ed89-2e2b-4343-a8dd-48cf0a30b784","system_id":"levelo_inurba_marseille","lat":43.28921,"lon":5.38404,"is_reserved":false,"is_disabled":false,"rental_uris":{"android":"levelo://app?vid=de49ed89-2e2b-4343-a8dd-48cf0a30b784","ios":"levelo://app?vid=de49ed89-2e2b-4343-a8dd-48cf0a30b784"},"vehicle_type_id":"4","last_reported":1768814670,"current_range_meters":7200,"station_id":"ce4bh612rcd13ifvqe6g","pricing_plan_id":"cebpf4jnsgd1na2vs0mg"},{"bike_id":"76bd8662-78d2-416e-bd1f-dbf6b13bf763","system_id":"levelo_inurba_marseille","lat":43.26937,"lon":5.40259,"is_reserved":false,"is_disabled":false,"rental_uris":{"android":"levelo://app?vid=76bd8662-78d2-416e-bd1f-dbf6b13bf763","ios":"levelo://app?vid=76bd8662-78d2-416e-bd1f-dbf6b13bf763"},"vehicle_type_id":"4","last_reported":1768814670,"current_range_meters":7200,"station_id":"cjm6bp8fraef2m0cb0m0","pricing_plan_id":"cebpf4jnsgd1na2vs0mg"},{"bike_id":"0fd21be0-2047-4c19-93b0-3d78a043614b","system_id":"levelo_inurba_marseille","lat":43.23759,"lon":5.36655,"is_reserved":false,"is_disabled":false,"rental_uris":{"android":"levelo://app?vid=0fd21be0-2047-4c19-93b0-3d78a043614b","ios":"levelo://app?vid=0fd21be0-2047-4c19-93b0-3d78a043614b"},"vehicle_type_id":"4","last_reported":1768814670,"current_range_meters":7200,"station_id":"st_d3nk18o9ro0c73en2l3g","pricing_plan_id":"cebpf4jnsgd1na2vs0mg"},{"bike_id":"f6dee482-e963-4223-be46-6a1a82c523df","system_id":"levelo_inurba_marseille","lat":43.24192,"lon":5.3968,"is_reserved":false,"is_disabled":false,"rental_uris":{"android":"levelo://app?vid=f6dee482-e963-4223-be46-6a1a82c523df","ios":"levelo://app?vid=f6dee482-e963-4223-be46-6a1a82c523df"},"vehicle_type_id":"4","last_reported":1768814670,"current_range_meters":7200,"station_id":"ce4bhn12rcd13ifvqgpg","pricing_plan_id":"cebpf4jnsgd1na2vs0mg"},{"bike_id":"c3633228-22c1-48b6-a73d-2db8665cea58","system_id":"levelo_inurba_marseille","lat":43.27812,"lon":5.40718,"is_reserved":false,"is_disabled":false,"rental_uris":{"android":"levelo://app?vid=c3633228-22c1-48b6-a73d-2db8665cea58","ios":"levelo://app?vid=c3633228-22c1-48b6-a73d-2db8665cea58"},"vehicle_type_id":"4","last_reported":1768814670,"current_range_meters":7200,"station_id":"ce4bhnh2rcd13ifvqgtg","pricing_plan_id":"cebpf4jnsgd1na2vs0mg"},{"bike_id":"6e6668ca-b731-4a0f-96be-569ad39a25a1","system_id":"levelo_inurba_marseille","lat":43.23145,"lon":5.43729,"is_reserved":false,"is_disabled":true,"rental_uris":{"android":"levelo://app?vid=6e6668ca-b731-4a0f-96be-569ad39a25a1","ios":"levelo://app?vid=6e6668ca-b731-4a0f-96be-569ad39a25a1"},"vehicle_type_id":"4","last_reported":1768814670,"current_range_meters":7200,"station_id":"ce4bhmp2rcd13ifvqgog","pricing_plan_id":"cebpf4jnsgd1na2vs0mg"},{"bike_id":"44d80ca6-dac0-4000-97a2-ac8fa224bc0e","system_id":"levelo_inurba_marseille","lat":43.28742,"lon":5.37172,"is_reserved":false,"is_disabled":false,"rental_uris":{"android":"levelo://app?vid=44d80ca6-dac0-4000-97a2-ac8fa224bc0e","ios":"levelo://app?vid=44d80ca6-dac0-4000-97a2-ac8fa224bc0e"},"vehicle_type_id":"4","last_reported":1768814670,"current_range_meters":7200,"station_id":"","pricing_plan_id":"cebpf4jnsgd1na2vs0mg"},{"bike_id":"5e5e22bc-3c3d-4ad0-8a90-45bf55ecfadc","system_id":"levelo_inurba_marseille","lat":43.29042,"lon":5.37584,"is_reserved":false,"is_disabled":false,"rental_uris":{"android":"levelo://app?vid=5e5e22bc-3c3d-4ad0-8a90-45bf55ecfadc","ios":"levelo://app?vid=5e5e22bc-3c3d-4ad0-8a90-45bf55ecfadc"},"vehicle_type_id":"4","last_reported":1768814670,"current_range_meters":7200,"station_id":"ce4bh692rcd13ifvqe90","pricing_plan_id":"cebpf4jnsgd1na2vs0mg"},{"bike_id":"5769f0d8-7e27-4d55-b2cb-01667d53507b","system_id":"levelo_inurba_marseille","lat":43.27488,"lon":5.42464,"is_reserved":false,"is_disabled":false,"rental_uris":{"android":"levelo://app?vid=5769f0d8-7e27-4d55-b2cb-01667d53507b","ios":"levelo://app?vid=5769f0d8-7e27-4d55-b2cb-01667d53507b"},"vehicle_type_id":"4","last_reported":1768814670,"current_range_meters":7200,"station_id":"ce4bhn92rcd13ifvqgrg","pricing_plan_id":"cebpf4jnsgd1na2vs0mg"},{"bike_id":"13c7565e-579a-4d8c-8e4a-79f4880e8378","system_id":"levelo_inurba_marseille","lat":43.25337,"lon":5.37994,"is_reserved":false,"is_disabled":false,"rental_uris":{"android":"levelo://app?vid=13c7565e-579a-4d8c-8e4a-79f4880e8378","ios":"levelo://app?vid=13c7565e-579a-4d8c-8e4a-79f4880e8378"},"vehicle_type_id":"4","last_reported":1768814670,"current_range_meters":7200,"station_id":"","pricing_plan_id":"cebpf4jnsgd1na2vs0mg"},{"bike_id":"85e5b6f5-3fad-4389-a62d-0d5edd813f11","system_id":"levelo_inurba_marseille","lat":43.26563,"lon":5.40336,"is_reserved":false,"is_disabled":false,"rental_uris":{"android":"levelo://app?vid=85e5b6f5-3fad-4389-a62d-0d5edd813f11","ios":"levelo://app?vid=85e5b6f5-3fad-4389-a62d-0d5edd813f11"},"vehicle_type_id":"4","last_reported":1768814670,"current_range_meters":7200,"station_id":"ce4bhmp2rcd13ifvqgng","pricing_plan_id":"cebpf4jnsgd1na2vs0mg"},{"bike_id":"bbe519d1-7d24-4dfc-8eea-7f3e8bf5a4b8","system_id":"levelo_inurba_marseille","lat":43.24182,"lon":5.39732,"is_reserved":false,"is_disabled":false,"rental_uris":{"android":"levelo://app?vid=bbe519d1-7d24-4dfc-8eea-7f3e8bf5a4b8","ios":"levelo://app?vid=bbe519d1-7d24-4dfc-8eea-7f3e8bf5a4b8"},"vehicle_type_id":"4","last_reported":1768814670,"current_range_meters":7200,"station_id":"ce4bhn12rcd13ifvqgpg","pricing_plan_id":"cebpf4jnsgd1na2vs0mg"},{"bike_id":"18e4a624-1bc1-4973-b8b8-838ab5a2f022","system_id":"levelo_inurba_marseille","lat":43.30524,"lon":5.36725,"is_reserved":false,"is_disabled":false,"rental_uris":{"android":"levelo://app?vid=18e4a624-1bc1-4973-b8b8-838ab5a2f022","ios":"levelo://app?vid=18e4a624-1bc1-4973-b8b8-838ab5a2f022"},"vehicle_type_id":"4","last_reported":1768814670,"current_range_meters":7200,"station_id":"ce4bgrp2rcd13ifvqc9g","pricing_plan_id":"cebpf4jnsgd1na2vs0mg"},{"bike_id":"edbdf6e9-2547-490c-a2bd-1ef1e295ef67","system_id":"levelo_inurba_marseille","lat":43.27227,"lon":5.39131,"is_reserved":false,"is_disabled":false,"rental_uris":{"android":"levelo://app?vid=edbdf6e9-2547-490c-a2bd-1ef1e295ef67","ios":"levelo://app?vid=edbdf6e9-2547-490c-a2bd-1ef1e295ef67"},"vehicle_type_id":"4","last_reported":1768814670,"current_range_meters":8000,"station_id":"ce4bhhp2rcd13ifvqfm0","pricing_plan_id":"cebpf4jnsgd1na2vs0mg"},{"bike_id":"017ac6ba-5de6-4940-8209-8a79986e4549","system_id":"levelo_inurba_marseille","lat":43.29262,"lon":5.38464,"is_reserved":false,"is_disabled":true,"rental_uris":{"android":"levelo://app?vid=017ac6ba-5de6-4940-8209-8a79986e4549","ios":"levelo://app?vid=017ac6ba-5de6-4940-8209-8a79986e4549"},"vehicle_type_id":"4","last_reported":1768814670,"current_range_meters":8000,"station_id":"ce4bh692rcd13ifvqea0","pricing_plan_id":"cebpf4jnsgd1na2vs0mg"},{"bike_id":"71e3ca9b-9c57-4342-92a7-c4d37bb24fa5","system_id":"levelo_inurba_marseille","lat":43.30944,"lon":5.39039,"is_reserved":false,"is_disabled":false,"rental_uris":{"android":"levelo://app?vid=71e3ca9b-9c57-4342-92a7-c4d37bb24fa5","ios":"levelo://app?vid=71e3ca9b-9c57-4342-92a7-c4d37bb24fa5"},"vehicle_type_id":"4","last_reported":1768814670,"current_range_meters":8000,"station_id":"ce4bgup2rcd13ifvqco0","pricing_plan_id":"cebpf4jnsgd1na2vs0mg"},{"bike_id":"0b0bd9e8-0e91-4cd7-8087-c13549508128","system_id":"levelo_inurba_marseille","lat":43.28517,"lon":5.44104,"is_reserved":false,"is_disabled":false,"rental_uris":{"android":"levelo://app?vid=0b0bd9e8-0e91-4cd7-8087-c13549508128","ios":"levelo://app?vid=0b0bd9e8-0e91-4cd7-8087-c13549508128"},"vehicle_type_id":"4","last_reported":1768814670,"current_range_meters":8000,"station_id":"st_d3j3df2ikq2c7380ej80","pricing_plan_id":"cebpf4jnsgd1na2vs0mg"},{"bike_id":"a793b43a-2f1a-44e5-b8fd-5c578f863f85","system_id":"levelo_inurba_marseille","lat":43.317563,"lon":5.3902,"is_reserved":false,"is_disabled":false,"rental_uris":{"android":"levelo://app?vid=a793b43a-2f1a-44e5-b8fd-5c578f863f85","ios":"levelo://app?vid=a793b43a-2f1a-44e5-b8fd-5c578f863f85"},"vehicle_type_id":"4","last_reported":1768814670,"current_range_meters":8000,"station_id":"ce4bhqp2rcd13ifvqhng","pricing_plan_id":"cebpf4jnsgd1na2vs0mg"},{"bike_id":"f105bb30-5feb-43b7-adae-39f585dd1cca","system_id":"levelo_inurba_marseille","lat":43.28585,"lon":5.35146,"is_reserved":false,"is_disabled":true,"rental_uris":{"android":"levelo://app?vid=f105bb30-5feb-43b7-adae-39f585dd1cca","ios":"levelo://app?vid=f105bb30-5feb-43b7-adae-39f585dd1cca"},"vehicle_type_id":"4","last_reported":1768814670,"current_range_meters":8000,"station_id":"","pricing_plan_id":"cebpf4jnsgd1na2vs0mg"},{"bike_id":"536f7c96-4167-4be5-8a94-92113cb642f7","system_id":"levelo_inurba_marseille","lat":43.22561,"lon":5.41637,"is_reserved":false,"is_disabled":false,"rental_uris":{"android":"levelo://app?vid=536f7c96-4167-4be5-8a94-92113cb642f7","ios":"levelo://app?vid=536f7c96-4167-4be5-8a94-92113cb642f7"},"vehicle_type_id":"4","last_reported":1768814670,"current_range_meters":8000,"station_id":"st_d2o4gvlbi1j2169b742g","pricing_plan_id":"cebpf4jnsgd1na2vs0mg"},{"bike_id":"7dbbcfab-8796-4f78-b67c-fb95c692bb9a","system_id":"levelo_inurba_marseille","lat":43.25216,"lon":5.40085,"is_reserved":false,"is_disabled":false,"rental_uris":{"android":"levelo://app?vid=7dbbcfab-8796-4f78-b67c-fb95c692bb9a","ios":"levelo://app?vid=7dbbcfab-8796-4f78-b67c-fb95c692bb9a"},"vehicle_type_id":"4","last_reported":1768814670,"current_range_meters":8000,"station_id":"","pricing_plan_id":"cebpf4jnsgd1na2vs0mg"},{"bike_id":"80aa19b1-66cd-4933-b925-214cbe47378f","system_id":"levelo_inurba_marseille","lat":43.28475,"lon":5.38439,"is_reserved":false,"is_disabled":false,"rental_uris":{"android":"levelo://app?vid=80aa19b1-66cd-4933-b925-214cbe47378f","ios":"levelo://app?vid=80aa19b1-66cd-4933-b925-214cbe47378f"},"vehicle_type_id":"4","last_reported":1768814670,"current_range_meters":8000,"station_id":"ce4bh512rcd13ifvqe3g","pricing_plan_id":"cebpf4jnsgd1na2vs0mg"},{"bike_id":"94631cb0-3656-4d69-b507-fbfd79198860","system_id":"levelo_inurba_marseille","lat":43.24066,"lon":5.37771,"is_reserved":false,"is_disabled":false,"rental_uris":{"android":"levelo://app?vid=94631cb0-3656-4d69-b507-fbfd79198860","ios":"levelo://app?vid=94631cb0-3656-4d69-b507-fbfd79198860"},"vehicle_type_id":"4","last_reported":1768814670,"current_range_meters":8000,"station_id":"ce4bhnp2rcd13ifvqgvg","pricing_plan_id":"cebpf4jnsgd1na2vs0mg"},{"bike_id":"643a0bb3-7f00-438c-b64a-14f811a7652b","system_id":"levelo_inurba_marseille","lat":43.29697,"lon":5.37779,"is_reserved":false,"is_disabled":false,"rental_uris":{"android":"levelo://app?vid=643a0bb3-7f00-438c-b64a-14f811a7652b","ios":"levelo://app?vid=643a0bb3-7f00-438c-b64a-14f811a7652b"},"vehicle_type_id":"4","last_reported":1768814670,"current_range_meters":8000,"station_id":"","pricing_plan_id":"cebpf4jnsgd1na2vs0mg"},{"bike_id":"ef88c352-189d-4372-beb9-7002182fbb2b","system_id":"levelo_inurba_marseille","lat":43.279937,"lon":5.399927,"is_reserved":false,"is_disabled":false,"rental_uris":{"android":"levelo://app?vid=ef88c352-189d-4372-beb9-7002182fbb2b","ios":"levelo://app?vid=ef88c352-189d-4372-beb9-7002182fbb2b"},"vehicle_type_id":"4","last_reported":1768814670,"current_range_meters":8000,"station_id":"ce4bho92rcd13ifvqh4g","pricing_plan_id":"cebpf4jnsgd1na2vs0mg"},{"bike_id":"10f8e8a6-bdc7-4e43-8c0c-300c58938757","system_id":"levelo_inurba_marseille","lat":43.26677,"lon":5.38286,"is_reserved":false,"is_disabled":false,"rental_uris":{"android":"levelo://app?vid=10f8e8a6-bdc7-4e43-8c0c-300c58938757","ios":"levelo://app?vid=10f8e8a6-bdc7-4e43-8c0c-300c58938757"},"vehicle_type_id":"4","last_reported":1768814670,"current_range_meters":8000,"station_id":"ce4bhg92rcd13ifvqf90","pricing_plan_id":"cebpf4jnsgd1na2vs0mg"},{"bike_id":"abf30d9a-8f0c-4626-8dc8-b0faa0cf4d72","system_id":"levelo_inurba_marseille","lat":43.24944,"lon":5.40482,"is_reserved":false,"is_disabled":false,"rental_uris":{"android":"levelo://app?vid=abf30d9a-8f0c-4626-8dc8-b0faa0cf4d72","ios":"levelo://app?vid=abf30d9a-8f0c-4626-8dc8-b0faa0cf4d72"},"vehicle_type_id":"4","last_reported":1768814670,"current_range_meters":8000,"station_id":"st_d2ngiaodas8pm72gd1h0","pricing_plan_id":"cebpf4jnsgd1na2vs0mg"},{"bike_id":"791ccb0c-3ea6-4f65-9436-65087a5f1af6","system_id":"levelo_inurba_marseille","lat":43.33753,"lon":5.37462,"is_reserved":false,"is_disabled":false,"rental_uris":{"android":"levelo://app?vid=791ccb0c-3ea6-4f65-9436-65087a5f1af6","ios":"levelo://app?vid=791ccb0c-3ea6-4f65-9436-65087a5f1af6"},"vehicle_type_id":"4","last_reported":1768814670,"current_range_meters":8000,"station_id":"","pricing_plan_id":"cebpf4jnsgd1na2vs0mg"},{"bike_id":"f422f916-5651-447a-b545-20bdb14e8bf5","system_id":"levelo_inurba_marseille","lat":43.30531,"lon":5.36548,"is_reserved":false,"is_disabled":false,"rental_uris":{"android":"levelo://app?vid=f422f916-5651-447a-b545-20bdb14e8bf5","ios":"levelo://app?vid=f422f916-5651-447a-b545-20bdb14e8bf5"},"vehicle_type_id":"4","last_reported":1768814670,"current_range_meters":8000,"station_id":"ce4bgs12rcd13ifvqcag","pricing_plan_id":"cebpf4jnsgd1na2vs0mg"},{"bike_id":"3019b242-daef-4adc-9001-a765b1be88a4","system_id":"levelo_inurba_marseille","lat":43.28518,"lon":5.44114,"is_reserved":false,"is_disabled":false,"rental_uris":{"android":"levelo://app?vid=3019b242-daef-4adc-9001-a765b1be88a4","ios":"levelo://app?vid=3019b242-daef-4adc-9001-a765b1be88a4"},"vehicle_type_id":"4","last_reported":1768814670,"current_range_meters":8000,"station_id":"st_d3j3df2ikq2c7380ej80","pricing_plan_id":"cebpf4jnsgd1na2vs0mg"},{"bike_id":"8455fcca-6f48-4b26-9ef4-64e076fe4155","system_id":"levelo_inurba_marseille","lat":43.26362,"lon":5.41089,"is_reserved":false,"is_disabled":false,"rental_uris":{"android":"levelo://app?vid=8455fcca-6f48-4b26-9ef4-64e076fe4155","ios":"levelo://app?vid=8455fcca-6f48-4b26-9ef4-64e076fe4155"},"vehicle_type_id":"4","last_reported":1768814670,"current_range_meters":8000,"station_id":"st_d4e5ca6na9uc73bfl5fg","pricing_plan_id":"cebpf4jnsgd1na2vs0mg"},{"bike_id":"f6adf0c1-f5b5-44a2-95f0-fade2e340101","system_id":"levelo_inurba_marseille","lat":43.27793,"lon":5.40728,"is_reserved":false,"is_disabled":false,"rental_uris":{"android":"levelo://app?vid=f6adf0c1-f5b5-44a2-95f0-fade2e340101","ios":"levelo://app?vid=f6adf0c1-f5b5-44a2-95f0-fade2e340101"},"vehicle_type_id":"4","last_reported":1768814670,"current_range_meters":8000,"station_id":"ce4bhnh2rcd13ifvqgtg","pricing_plan_id":"cebpf4jnsgd1na2vs0mg"},{"bike_id":"544bcdbb-4ade-4e28-8d58-bd0ce6c900eb","system_id":"levelo_inurba_marseille","lat":43.25322,"lon":5.42179,"is_reserved":false,"is_disabled":false,"rental_uris":{"android":"levelo://app?vid=544bcdbb-4ade-4e28-8d58-bd0ce6c900eb","ios":"levelo://app?vid=544bcdbb-4ade-4e28-8d58-bd0ce6c900eb"},"vehicle_type_id":"4","last_reported":1768814670,"current_range_meters":8000,"station_id":"st_d2m65c5bi1j21697t3ng","pricing_plan_id":"cebpf4jnsgd1na2vs0mg"},{"bike_id":"5197f958-cf80-4607-b163-03ff06a676ef","system_id":"levelo_inurba_marseille","lat":43.25333,"lon":5.42174,"is_reserved":false,"is_disabled":false,"rental_uris":{"android":"levelo://app?vid=5197f958-cf80-4607-b163-03ff06a676ef","ios":"levelo://app?vid=5197f958-cf80-4607-b163-03ff06a676ef"},"vehicle_type_id":"4","last_reported":1768814670,"current_range_meters":8400,"station_id":"st_d2m65c5bi1j21697t3ng","pricing_plan_id":"cebpf4jnsgd1na2vs0mg"},{"bike_id":"5845b659-1597-4bd4-93db-e8640e3da170","system_id":"levelo_inurba_marseille","lat":43.23184,"lon":5.39981,"is_reserved":false,"is_disabled":false,"rental_uris":{"android":"levelo://app?vid=5845b659-1597-4bd4-93db-e8640e3da170","ios":"levelo://app?vid=5845b659-1597-4bd4-93db-e8640e3da170"},"vehicle_type_id":"4","last_reported":1768814670,"current_range_meters":8400,"station_id":"ce4bhn12rcd13ifvqgqg","pricing_plan_id":"cebpf4jnsgd1na2vs0mg"},{"bike_id":"f8bf59b4-3e23-4e90-bc70-5ee15a6c83c2","system_id":"levelo_inurba_marseille","lat":43.25328,"lon":5.42183,"is_reserved":false,"is_disabled":false,"rental_uris":{"android":"levelo://app?vid=f8bf59b4-3e23-4e90-bc70-5ee15a6c83c2","ios":"levelo://app?vid=f8bf59b4-3e23-4e90-bc70-5ee15a6c83c2"},"vehicle_type_id":"4","last_reported":1768814670,"current_range_meters":8400,"station_id":"st_d2m65c5bi1j21697t3ng","pricing_plan_id":"cebpf4jnsgd1na2vs0mg"},{"bike_id":"18dac61a-1dea-47ed-a42c-a887573968cf","system_id":"levelo_inurba_marseille","lat":43.31205,"lon":5.36863,"is_reserved":false,"is_disabled":false,"rental_uris":{"android":"levelo://app?vid=18dac61a-1dea-47ed-a42c-a887573968cf","ios":"levelo://app?vid=18dac61a-1dea-47ed-a42c-a887573968cf"},"vehicle_type_id":"4","last_reported":1768814670,"current_range_meters":8400,"station_id":"ce4bgl92rcd13ifvqbq0","pricing_plan_id":"cebpf4jnsgd1na2vs0mg"},{"bike_id":"016900bc-5ac6-4330-ab84-4d755560128b","system_id":"levelo_inurba_marseille","lat":43.279468,"lon":5.399406,"is_reserved":false,"is_disabled":false,"rental_uris":{"android":"levelo://app?vid=016900bc-5ac6-4330-ab84-4d755560128b","ios":"levelo://app?vid=016900bc-5ac6-4330-ab84-4d755560128b"},"vehicle_type_id":"4","last_reported":1768814670,"current_range_meters":8400,"station_id":"","pricing_plan_id":"cebpf4jnsgd1na2vs0mg"},{"bike_id":"58fcb4ec-9c17-42cd-9134-f379e029a9fd","system_id":"levelo_inurba_marseille","lat":43.3016,"lon":5.38024,"is_reserved":false,"is_disabled":false,"rental_uris":{"android":"levelo://app?vid=58fcb4ec-9c17-42cd-9134-f379e029a9fd","ios":"levelo://app?vid=58fcb4ec-9c17-42cd-9134-f379e029a9fd"},"vehicle_type_id":"4","last_reported":1768814670,"current_range_meters":8400,"station_id":"","pricing_plan_id":"cebpf4jnsgd1na2vs0mg"},{"bike_id":"da91b041-43f0-4fc2-a665-c2c687c7ea44","system_id":"levelo_inurba_marseille","lat":43.3134,"lon":5.36728,"is_reserved":false,"is_disabled":false,"rental_uris":{"android":"levelo://app?vid=da91b041-43f0-4fc2-a665-c2c687c7ea44","ios":"levelo://app?vid=da91b041-43f0-4fc2-a665-c2c687c7ea44"},"vehicle_type_id":"4","last_reported":1768814670,"current_range_meters":8400,"station_id":"ce4bgr92rcd13ifvqc6g","pricing_plan_id":"cebpf4jnsgd1na2vs0mg"},{"bike_id":"a701194d-0cc5-497a-93ea-f1faca1626fe","system_id":"levelo_inurba_marseille","lat":43.2658,"lon":5.40362,"is_reserved":false,"is_disabled":false,"rental_uris":{"android":"levelo://app?vid=a701194d-0cc5-497a-93ea-f1faca1626fe","ios":"levelo://app?vid=a701194d-0cc5-497a-93ea-f1faca1626fe"},"vehicle_type_id":"4","last_reported":1768814670,"current_range_meters":8400,"station_id":"ce4bhmp2rcd13ifvqgng","pricing_plan_id":"cebpf4jnsgd1na2vs0mg"},{"bike_id":"4cdfadb1-1bf3-4d49-ad80-a271fd97b4c1","system_id":"levelo_inurba_marseille","lat":43.33758,"lon":5.37493,"is_reserved":false,"is_disabled":false,"rental_uris":{"android":"levelo://app?vid=4cdfadb1-1bf3-4d49-ad80-a271fd97b4c1","ios":"levelo://app?vid=4cdfadb1-1bf3-4d49-ad80-a271fd97b4c1"},"vehicle_type_id":"4","last_reported":1768814670,"current_range_meters":8400,"station_id":"","pricing_plan_id":"cebpf4jnsgd1na2vs0mg"},{"bike_id":"6eabd888-c6a1-4aa4-b081-69393e8da4b6","system_id":"levelo_inurba_marseille","lat":43.27808,"lon":5.40709,"is_reserved":false,"is_disabled":false,"rental_uris":{"android":"levelo://app?vid=6eabd888-c6a1-4aa4-b081-69393e8da4b6","ios":"levelo://app?vid=6eabd888-c6a1-4aa4-b081-69393e8da4b6"},"vehicle_type_id":"4","last_reported":1768814670,"current_range_meters":8400,"station_id":"ce4bhnh2rcd13ifvqgtg","pricing_plan_id":"cebpf4jnsgd1na2vs0mg"},{"bike_id":"f70a59b4-29fe-4c71-a82c-c9b428830b98","system_id":"levelo_inurba_marseille","lat":43.24064,"lon":5.37745,"is_reserved":false,"is_disabled":false,"rental_uris":{"android":"levelo://app?vid=f70a59b4-29fe-4c71-a82c-c9b428830b98","ios":"levelo://app?vid=f70a59b4-29fe-4c71-a82c-c9b428830b98"},"vehicle_type_id":"4","last_reported":1768814670,"current_range_meters":8400,"station_id":"ce4bhnp2rcd13ifvqgvg","pricing_plan_id":"cebpf4jnsgd1na2vs0mg"},{"bike_id":"5e7df9d7-418f-4368-a954-d50fe151d8de","system_id":"levelo_inurba_marseille","lat":43.22918,"lon":5.35363,"is_reserved":false,"is_disabled":false,"rental_uris":{"android":"levelo://app?vid=5e7df9d7-418f-4368-a954-d50fe151d8de","ios":"levelo://app?vid=5e7df9d7-418f-4368-a954-d50fe151d8de"},"vehicle_type_id":"4","last_reported":1768814670,"current_range_meters":8400,"station_id":"cpo3532slgdg3j2ikp40","pricing_plan_id":"cebpf4jnsgd1na2vs0mg"},{"bike_id":"6735a20a-0321-423c-a55a-4ecf97e291d0","system_id":"levelo_inurba_marseille","lat":43.22942,"lon":5.35375,"is_reserved":false,"is_disabled":false,"rental_uris":{"android":"levelo://app?vid=6735a20a-0321-423c-a55a-4ecf97e291d0","ios":"levelo://app?vid=6735a20a-0321-423c-a55a-4ecf97e291d0"},"vehicle_type_id":"4","last_reported":1768814670,"current_range_meters":8400,"station_id":"cpo3532slgdg3j2ikp40","pricing_plan_id":"cebpf4jnsgd1na2vs0mg"},{"bike_id":"676b108a-8631-463b-ac20-0a121b44cff0","system_id":"levelo_inurba_marseille","lat":43.264946,"lon":5.395401,"is_reserved":false,"is_disabled":false,"rental_uris":{"android":"levelo://app?vid=676b108a-8631-463b-ac20-0a121b44cff0","ios":"levelo://app?vid=676b108a-8631-463b-ac20-0a121b44cff0"},"vehicle_type_id":"4","last_reported":1768814670,"current_range_meters":8400,"station_id":"ce4bhi12rcd13ifvqfq0","pricing_plan_id":"cebpf4jnsgd1na2vs0mg"},{"bike_id":"7f13c47a-95ee-4905-8a5d-8ddc6be02549","system_id":"levelo_inurba_marseille","lat":43.25927,"lon":5.40907,"is_reserved":false,"is_disabled":false,"rental_uris":{"android":"levelo://app?vid=7f13c47a-95ee-4905-8a5d-8ddc6be02549","ios":"levelo://app?vid=7f13c47a-95ee-4905-8a5d-8ddc6be02549"},"vehicle_type_id":"4","last_reported":1768814670,"current_range_meters":8400,"station_id":"ce4bhm92rcd13ifvqglg","pricing_plan_id":"cebpf4jnsgd1na2vs0mg"},{"bike_id":"40ec9b3e-8a68-4f21-9a1a-c3df8cc32599","system_id":"levelo_inurba_marseille","lat":43.24056,"lon":5.37794,"is_reserved":false,"is_disabled":false,"rental_uris":{"android":"levelo://app?vid=40ec9b3e-8a68-4f21-9a1a-c3df8cc32599","ios":"levelo://app?vid=40ec9b3e-8a68-4f21-9a1a-c3df8cc32599"},"vehicle_type_id":"4","last_reported":1768814670,"current_range_meters":8400,"station_id":"ce4bhnp2rcd13ifvqgvg","pricing_plan_id":"cebpf4jnsgd1na2vs0mg"},{"bike_id":"6bbadf6c-8015-4f56-b9a7-49931e981533","system_id":"levelo_inurba_marseille","lat":43.30523,"lon":5.36729,"is_reserved":false,"is_disabled":false,"rental_uris":{"android":"levelo://app?vid=6bbadf6c-8015-4f56-b9a7-49931e981533","ios":"levelo://app?vid=6bbadf6c-8015-4f56-b9a7-49931e981533"},"vehicle_type_id":"4","last_reported":1768814670,"current_range_meters":8400,"station_id":"ce4bgrp2rcd13ifvqc9g","pricing_plan_id":"cebpf4jnsgd1na2vs0mg"},{"bike_id":"4460606d-0ed7-4e85-bbd0-7e06212046ac","system_id":"levelo_inurba_marseille","lat":43.26772,"lon":5.39427,"is_reserved":false,"is_disabled":true,"rental_uris":{"android":"levelo://app?vid=4460606d-0ed7-4e85-bbd0-7e06212046ac","ios":"levelo://app?vid=4460606d-0ed7-4e85-bbd0-7e06212046ac"},"vehicle_type_id":"4","last_reported":1768814670,"current_range_meters":8800,"station_id":"ce4bhh12rcd13ifvqfg0","pricing_plan_id":"cebpf4jnsgd1na2vs0mg"},{"bike_id":"7890d8a9-a5ee-4c6a-9a9c-ecbe6e802b3b","system_id":"levelo_inurba_marseille","lat":43.28005,"lon":5.40003,"is_reserved":false,"is_disabled":false,"rental_uris":{"android":"levelo://app?vid=7890d8a9-a5ee-4c6a-9a9c-ecbe6e802b3b","ios":"levelo://app?vid=7890d8a9-a5ee-4c6a-9a9c-ecbe6e802b3b"},"vehicle_type_id":"4","last_reported":1768814670,"current_range_meters":8800,"station_id":"ce4bho92rcd13ifvqh4g","pricing_plan_id":"cebpf4jnsgd1na2vs0mg"},{"bike_id":"de6c90fb-dd51-4e08-9dbd-a70160fc9495","system_id":"levelo_inurba_marseille","lat":43.26361,"lon":5.41076,"is_reserved":false,"is_disabled":false,"rental_uris":{"android":"levelo://app?vid=de6c90fb-dd51-4e08-9dbd-a70160fc9495","ios":"levelo://app?vid=de6c90fb-dd51-4e08-9dbd-a70160fc9495"},"vehicle_type_id":"4","last_reported":1768814670,"current_range_meters":8800,"station_id":"st_d4e5ca6na9uc73bfl5fg","pricing_plan_id":"cebpf4jnsgd1na2vs0mg"},{"bike_id":"5993e2ef-a9ab-45d2-826c-ed7d952584cd","system_id":"levelo_inurba_marseille","lat":43.337546,"lon":5.374427,"is_reserved":false,"is_disabled":false,"rental_uris":{"android":"levelo://app?vid=5993e2ef-a9ab-45d2-826c-ed7d952584cd","ios":"levelo://app?vid=5993e2ef-a9ab-45d2-826c-ed7d952584cd"},"vehicle_type_id":"4","last_reported":1768814670,"current_range_meters":8800,"station_id":"","pricing_plan_id":"cebpf4jnsgd1na2vs0mg"},{"bike_id":"484705cd-b20d-4716-8e33-beec169a25e2","system_id":"levelo_inurba_marseille","lat":43.29035,"lon":5.37563,"is_reserved":false,"is_disabled":false,"rental_uris":{"android":"levelo://app?vid=484705cd-b20d-4716-8e33-beec169a25e2","ios":"levelo://app?vid=484705cd-b20d-4716-8e33-beec169a25e2"},"vehicle_type_id":"4","last_reported":1768814670,"current_range_meters":8800,"station_id":"ce4bh692rcd13ifvqe90","pricing_plan_id":"cebpf4jnsgd1na2vs0mg"},{"bike_id":"86c3f0b8-2cd4-4a60-9cca-42812eafe40e","system_id":"levelo_inurba_marseille","lat":43.2814,"lon":5.42636,"is_reserved":false,"is_disabled":false,"rental_uris":{"android":"levelo://app?vid=86c3f0b8-2cd4-4a60-9cca-42812eafe40e","ios":"levelo://app?vid=86c3f0b8-2cd4-4a60-9cca-42812eafe40e"},"vehicle_type_id":"4","last_reported":1768814670,"current_range_meters":8800,"station_id":"ce4bhnh2rcd13ifvqgug","pricing_plan_id":"cebpf4jnsgd1na2vs0mg"},{"bike_id":"d816586a-894c-424b-aac9-ef0daf69ea76","system_id":"levelo_inurba_marseille","lat":43.30571,"lon":5.36719,"is_reserved":false,"is_disabled":false,"rental_uris":{"android":"levelo://app?vid=d816586a-894c-424b-aac9-ef0daf69ea76","ios":"levelo://app?vid=d816586a-894c-424b-aac9-ef0daf69ea76"},"vehicle_type_id":"4","last_reported":1768814670,"current_range_meters":8800,"station_id":"ce4bgrp2rcd13ifvqc9g","pricing_plan_id":"cebpf4jnsgd1na2vs0mg"},{"bike_id":"1bae9140-ff17-4e53-90ce-59eb9d8c1a5d","system_id":"levelo_inurba_marseille","lat":43.27989,"lon":5.41647,"is_reserved":false,"is_disabled":false,"rental_uris":{"android":"levelo://app?vid=1bae9140-ff17-4e53-90ce-59eb9d8c1a5d","ios":"levelo://app?vid=1bae9140-ff17-4e53-90ce-59eb9d8c1a5d"},"vehicle_type_id":"4","last_reported":1768814670,"current_range_meters":8800,"station_id":"ce4bho12rcd13ifvqh1g","pricing_plan_id":"cebpf4jnsgd1na2vs0mg"},{"bike_id":"5cbbbed7-1b78-4268-8b83-0756dccd4250","system_id":"levelo_inurba_marseille","lat":43.24955,"lon":5.40456,"is_reserved":false,"is_disabled":false,"rental_uris":{"android":"levelo://app?vid=5cbbbed7-1b78-4268-8b83-0756dccd4250","ios":"levelo://app?vid=5cbbbed7-1b78-4268-8b83-0756dccd4250"},"vehicle_type_id":"4","last_reported":1768814670,"current_range_meters":8800,"station_id":"st_d2ngiaodas8pm72gd1h0","pricing_plan_id":"cebpf4jnsgd1na2vs0mg"},{"bike_id":"fc7f4ac5-c043-433a-a8a5-7c04f75b6e03","system_id":"levelo_inurba_marseille","lat":43.23145,"lon":5.43733,"is_reserved":false,"is_disabled":false,"rental_uris":{"android":"levelo://app?vid=fc7f4ac5-c043-433a-a8a5-7c04f75b6e03","ios":"levelo://app?vid=fc7f4ac5-c043-433a-a8a5-7c04f75b6e03"},"vehicle_type_id":"4","last_reported":1768814670,"current_range_meters":8800,"station_id":"ce4bhmp2rcd13ifvqgog","pricing_plan_id":"cebpf4jnsgd1na2vs0mg"},{"bike_id":"9587f1fa-31e3-4db2-ac74-7cf8336f9978","system_id":"levelo_inurba_marseille","lat":43.27489,"lon":5.42457,"is_reserved":false,"is_disabled":false,"rental_uris":{"android":"levelo://app?vid=9587f1fa-31e3-4db2-ac74-7cf8336f9978","ios":"levelo://app?vid=9587f1fa-31e3-4db2-ac74-7cf8336f9978"},"vehicle_type_id":"4","last_reported":1768814670,"current_range_meters":8800,"station_id":"ce4bhn92rcd13ifvqgrg","pricing_plan_id":"cebpf4jnsgd1na2vs0mg"},{"bike_id":"95929fb5-d4a5-43e1-9587-bbb56080ad2a","system_id":"levelo_inurba_marseille","lat":43.32464,"lon":5.36537,"is_reserved":false,"is_disabled":false,"rental_uris":{"android":"levelo://app?vid=95929fb5-d4a5-43e1-9587-bbb56080ad2a","ios":"levelo://app?vid=95929fb5-d4a5-43e1-9587-bbb56080ad2a"},"vehicle_type_id":"4","last_reported":1768814670,"current_range_meters":8800,"station_id":"ce4bhs12rcd13ifvqhvg","pricing_plan_id":"cebpf4jnsgd1na2vs0mg"},{"bike_id":"22082c15-ecce-4cbe-939e-5e9c10f2ba84","system_id":"levelo_inurba_marseille","lat":43.31713,"lon":5.42436,"is_reserved":false,"is_disabled":false,"rental_uris":{"android":"levelo://app?vid=22082c15-ecce-4cbe-939e-5e9c10f2ba84","ios":"levelo://app?vid=22082c15-ecce-4cbe-939e-5e9c10f2ba84"},"vehicle_type_id":"4","last_reported":1768814670,"current_range_meters":8800,"station_id":"ce4bhp92rcd13ifvqhbg","pricing_plan_id":"cebpf4jnsgd1na2vs0mg"},{"bike_id":"6c0c0e97-1608-4e02-a61d-972184c6c4d0","system_id":"levelo_inurba_marseille","lat":43.24122,"lon":5.37643,"is_reserved":false,"is_disabled":false,"rental_uris":{"android":"levelo://app?vid=6c0c0e97-1608-4e02-a61d-972184c6c4d0","ios":"levelo://app?vid=6c0c0e97-1608-4e02-a61d-972184c6c4d0"},"vehicle_type_id":"4","last_reported":1768814670,"current_range_meters":8800,"station_id":"","pricing_plan_id":"cebpf4jnsgd1na2vs0mg"},{"bike_id":"e2ef0d85-7e9e-4699-945b-3bd5ff257a37","system_id":"levelo_inurba_marseille","lat":43.31144,"lon":5.37972,"is_reserved":false,"is_disabled":false,"rental_uris":{"android":"levelo://app?vid=e2ef0d85-7e9e-4699-945b-3bd5ff257a37","ios":"levelo://app?vid=e2ef0d85-7e9e-4699-945b-3bd5ff257a37"},"vehicle_type_id":"4","last_reported":1768814670,"current_range_meters":8800,"station_id":"","pricing_plan_id":"cebpf4jnsgd1na2vs0mg"},{"bike_id":"760dca37-a904-42a9-b08c-dcd355cb4e4d","system_id":"levelo_inurba_marseille","lat":43.279939,"lon":5.400059,"is_reserved":false,"is_disabled":false,"rental_uris":{"android":"levelo://app?vid=760dca37-a904-42a9-b08c-dcd355cb4e4d","ios":"levelo://app?vid=760dca37-a904-42a9-b08c-dcd355cb4e4d"},"vehicle_type_id":"4","last_reported":1768814670,"current_range_meters":9200,"station_id":"ce4bho92rcd13ifvqh4g","pricing_plan_id":"cebpf4jnsgd1na2vs0mg"},{"bike_id":"e1093d92-684f-463f-9907-089eedd95fa6","system_id":"levelo_inurba_marseille","lat":43.24223,"lon":5.39705,"is_reserved":false,"is_disabled":false,"rental_uris":{"android":"levelo://app?vid=e1093d92-684f-463f-9907-089eedd95fa6","ios":"levelo://app?vid=e1093d92-684f-463f-9907-089eedd95fa6"},"vehicle_type_id":"4","last_reported":1768814670,"current_range_meters":9200,"station_id":"","pricing_plan_id":"cebpf4jnsgd1na2vs0mg"},{"bike_id":"7c6df23a-2034-4556-a426-ef6f0d837e29","system_id":"levelo_inurba_marseille","lat":43.29747,"lon":5.42777,"is_reserved":false,"is_disabled":false,"rental_uris":{"android":"levelo://app?vid=7c6df23a-2034-4556-a426-ef6f0d837e29","ios":"levelo://app?vid=7c6df23a-2034-4556-a426-ef6f0d837e29"},"vehicle_type_id":"4","last_reported":1768814670,"current_range_meters":9200,"station_id":"st_d3md5207bmas73dh9klg","pricing_plan_id":"cebpf4jnsgd1na2vs0mg"},{"bike_id":"87f35a5d-485c-42c0-a0d6-d17c180ada41","system_id":"levelo_inurba_marseille","lat":43.24159,"lon":5.36444,"is_reserved":false,"is_disabled":false,"rental_uris":{"android":"levelo://app?vid=87f35a5d-485c-42c0-a0d6-d17c180ada41","ios":"levelo://app?vid=87f35a5d-485c-42c0-a0d6-d17c180ada41"},"vehicle_type_id":"4","last_reported":1768814670,"current_range_meters":9200,"station_id":"cpo36qri1sfpv3e86is0","pricing_plan_id":"cebpf4jnsgd1na2vs0mg"},{"bike_id":"0ce10287-7e22-4888-ba07-d145d0f55b6f","system_id":"levelo_inurba_marseille","lat":43.30163,"lon":5.36655,"is_reserved":false,"is_disabled":false,"rental_uris":{"android":"levelo://app?vid=0ce10287-7e22-4888-ba07-d145d0f55b6f","ios":"levelo://app?vid=0ce10287-7e22-4888-ba07-d145d0f55b6f"},"vehicle_type_id":"4","last_reported":1768814670,"current_range_meters":9200,"station_id":"ce4bgrh2rcd13ifvqc8g","pricing_plan_id":"cebpf4jnsgd1na2vs0mg"},{"bike_id":"f15b1f46-8371-48f1-8aa3-d6a3ebdd2129","system_id":"levelo_inurba_marseille","lat":43.25818,"lon":5.39442,"is_reserved":false,"is_disabled":false,"rental_uris":{"android":"levelo://app?vid=f15b1f46-8371-48f1-8aa3-d6a3ebdd2129","ios":"levelo://app?vid=f15b1f46-8371-48f1-8aa3-d6a3ebdd2129"},"vehicle_type_id":"4","last_reported":1768814670,"current_range_meters":9200,"station_id":"ce4bhip2rcd13ifvqft0","pricing_plan_id":"cebpf4jnsgd1na2vs0mg"},{"bike_id":"da374a68-90e5-477e-a817-f1fe29574ea6","system_id":"levelo_inurba_marseille","lat":43.30125,"lon":5.37435,"is_reserved":false,"is_disabled":false,"rental_uris":{"android":"levelo://app?vid=da374a68-90e5-477e-a817-f1fe29574ea6","ios":"levelo://app?vid=da374a68-90e5-477e-a817-f1fe29574ea6"},"vehicle_type_id":"4","last_reported":1768814670,"current_range_meters":9200,"station_id":"ce4bgs92rcd13ifvqcc0","pricing_plan_id":"cebpf4jnsgd1na2vs0mg"},{"bike_id":"816bb8a8-f8c1-4c2c-800a-b75b4245f3eb","system_id":"levelo_inurba_marseille","lat":43.26871,"lon":5.39572,"is_reserved":false,"is_disabled":false,"rental_uris":{"android":"levelo://app?vid=816bb8a8-f8c1-4c2c-800a-b75b4245f3eb","ios":"levelo://app?vid=816bb8a8-f8c1-4c2c-800a-b75b4245f3eb"},"vehicle_type_id":"4","last_reported":1768814670,"current_range_meters":9200,"station_id":"","pricing_plan_id":"cebpf4jnsgd1na2vs0mg"},{"bike_id":"6dbd3745-ce81-4e97-a7a0-fa0184775e48","system_id":"levelo_inurba_marseille","lat":43.24471,"lon":5.42576,"is_reserved":false,"is_disabled":false,"rental_uris":{"android":"levelo://app?vid=6dbd3745-ce81-4e97-a7a0-fa0184775e48","ios":"levelo://app?vid=6dbd3745-ce81-4e97-a7a0-fa0184775e48"},"vehicle_type_id":"4","last_reported":1768814670,"current_range_meters":9200,"station_id":"st_d4a3vfp97mjs738cd8kg","pricing_plan_id":"cebpf4jnsgd1na2vs0mg"},{"bike_id":"10f99d68-7903-413b-9603-6b566054a04b","system_id":"levelo_inurba_marseille","lat":43.31213,"lon":5.3683,"is_reserved":false,"is_disabled":false,"rental_uris":{"android":"levelo://app?vid=10f99d68-7903-413b-9603-6b566054a04b","ios":"levelo://app?vid=10f99d68-7903-413b-9603-6b566054a04b"},"vehicle_type_id":"4","last_reported":1768814670,"current_range_meters":9200,"station_id":"ce4bgl92rcd13ifvqbq0","pricing_plan_id":"cebpf4jnsgd1na2vs0mg"},{"bike_id":"87a54c48-d7ac-433a-ae3b-f1377c77482d","system_id":"levelo_inurba_marseille","lat":43.31488,"lon":5.38017,"is_reserved":false,"is_disabled":false,"rental_uris":{"android":"levelo://app?vid=87a54c48-d7ac-433a-ae3b-f1377c77482d","ios":"levelo://app?vid=87a54c48-d7ac-433a-ae3b-f1377c77482d"},"vehicle_type_id":"4","last_reported":1768814670,"current_range_meters":9200,"station_id":"ce4bhsp2rcd13ifvqi50","pricing_plan_id":"cebpf4jnsgd1na2vs0mg"},{"bike_id":"c55d2662-b8a4-4dbb-b9fa-a6ed00dce4ff","system_id":"levelo_inurba_marseille","lat":43.26794,"lon":5.39402,"is_reserved":false,"is_disabled":false,"rental_uris":{"android":"levelo://app?vid=c55d2662-b8a4-4dbb-b9fa-a6ed00dce4ff","ios":"levelo://app?vid=c55d2662-b8a4-4dbb-b9fa-a6ed00dce4ff"},"vehicle_type_id":"4","last_reported":1768814670,"current_range_meters":9200,"station_id":"ce4bhh12rcd13ifvqfg0","pricing_plan_id":"cebpf4jnsgd1na2vs0mg"},{"bike_id":"c578439e-9109-42d3-8a05-9688893825d6","system_id":"levelo_inurba_marseille","lat":43.31263,"lon":5.36843,"is_reserved":false,"is_disabled":false,"rental_uris":{"android":"levelo://app?vid=c578439e-9109-42d3-8a05-9688893825d6","ios":"levelo://app?vid=c578439e-9109-42d3-8a05-9688893825d6"},"vehicle_type_id":"4","last_reported":1768814670,"current_range_meters":9200,"station_id":"ce4bgl92rcd13ifvqbq0","pricing_plan_id":"cebpf4jnsgd1na2vs0mg"},{"bike_id":"80b5b6ec-0d84-4f18-8da8-d8ab913ec870","system_id":"levelo_inurba_marseille","lat":43.27896,"lon":5.37409,"is_reserved":false,"is_disabled":false,"rental_uris":{"android":"levelo://app?vid=80b5b6ec-0d84-4f18-8da8-d8ab913ec870","ios":"levelo://app?vid=80b5b6ec-0d84-4f18-8da8-d8ab913ec870"},"vehicle_type_id":"4","last_reported":1768814670,"current_range_meters":9200,"station_id":"","pricing_plan_id":"cebpf4jnsgd1na2vs0mg"},{"bike_id":"2d7efe21-47b1-4bf3-a4fd-2dff75e156c5","system_id":"levelo_inurba_marseille","lat":43.217387,"lon":5.346013,"is_reserved":false,"is_disabled":false,"rental_uris":{"android":"levelo://app?vid=2d7efe21-47b1-4bf3-a4fd-2dff75e156c5","ios":"levelo://app?vid=2d7efe21-47b1-4bf3-a4fd-2dff75e156c5"},"vehicle_type_id":"4","last_reported":1768814670,"current_range_meters":9200,"station_id":"st_cvj6r9ubvosntc0bgbag","pricing_plan_id":"cebpf4jnsgd1na2vs0mg"},{"bike_id":"0f3a19af-39a2-4082-bd8e-26d337f54773","system_id":"levelo_inurba_marseille","lat":43.28878,"lon":5.42502,"is_reserved":false,"is_disabled":false,"rental_uris":{"android":"levelo://app?vid=0f3a19af-39a2-4082-bd8e-26d337f54773","ios":"levelo://app?vid=0f3a19af-39a2-4082-bd8e-26d337f54773"},"vehicle_type_id":"4","last_reported":1768814670,"current_range_meters":9200,"station_id":"st_d3b462108ojc7389ooeg","pricing_plan_id":"cebpf4jnsgd1na2vs0mg"},{"bike_id":"5d8287a5-3061-48d5-87b1-51f51bcef429","system_id":"levelo_inurba_marseille","lat":43.27967,"lon":5.38738,"is_reserved":false,"is_disabled":false,"rental_uris":{"android":"levelo://app?vid=5d8287a5-3061-48d5-87b1-51f51bcef429","ios":"levelo://app?vid=5d8287a5-3061-48d5-87b1-51f51bcef429"},"vehicle_type_id":"4","last_reported":1768814670,"current_range_meters":9200,"station_id":"ce4bhg12rcd13ifvqf80","pricing_plan_id":"cebpf4jnsgd1na2vs0mg"},{"bike_id":"5e47478e-2bb2-4617-945e-678ef1fb8faf","system_id":"levelo_inurba_marseille","lat":43.29753,"lon":5.42788,"is_reserved":false,"is_disabled":false,"rental_uris":{"android":"levelo://app?vid=5e47478e-2bb2-4617-945e-678ef1fb8faf","ios":"levelo://app?vid=5e47478e-2bb2-4617-945e-678ef1fb8faf"},"vehicle_type_id":"4","last_reported":1768814670,"current_range_meters":9200,"station_id":"st_d3md5207bmas73dh9klg","pricing_plan_id":"cebpf4jnsgd1na2vs0mg"},{"bike_id":"dfa72997-bdba-48f4-a1d1-63ff5130518c","system_id":"levelo_inurba_marseille","lat":43.323496,"lon":5.367318,"is_reserved":false,"is_disabled":false,"rental_uris":{"android":"levelo://app?vid=dfa72997-bdba-48f4-a1d1-63ff5130518c","ios":"levelo://app?vid=dfa72997-bdba-48f4-a1d1-63ff5130518c"},"vehicle_type_id":"4","last_reported":1768814670,"current_range_meters":9600,"station_id":"ce4bhsh2rcd13ifvqi2g","pricing_plan_id":"cebpf4jnsgd1na2vs0mg"},{"bike_id":"9731fe98-eff6-423c-9230-04d49ef1e664","system_id":"levelo_inurba_marseille","lat":43.24464,"lon":5.4254,"is_reserved":false,"is_disabled":false,"rental_uris":{"android":"levelo://app?vid=9731fe98-eff6-423c-9230-04d49ef1e664","ios":"levelo://app?vid=9731fe98-eff6-423c-9230-04d49ef1e664"},"vehicle_type_id":"4","last_reported":1768814670,"current_range_meters":9600,"station_id":"st_d4a3vfp97mjs738cd8kg","pricing_plan_id":"cebpf4jnsgd1na2vs0mg"},{"bike_id":"f9dc3e16-2a68-4cd6-a051-94f73f8c584d","system_id":"levelo_inurba_marseille","lat":43.27808,"lon":5.40735,"is_reserved":false,"is_disabled":false,"rental_uris":{"android":"levelo://app?vid=f9dc3e16-2a68-4cd6-a051-94f73f8c584d","ios":"levelo://app?vid=f9dc3e16-2a68-4cd6-a051-94f73f8c584d"},"vehicle_type_id":"4","last_reported":1768814670,"current_range_meters":9600,"station_id":"ce4bhnh2rcd13ifvqgtg","pricing_plan_id":"cebpf4jnsgd1na2vs0mg"},{"bike_id":"784bf8ae-0097-45a5-89e6-e9987ffc4672","system_id":"levelo_inurba_marseille","lat":43.24171,"lon":5.39729,"is_reserved":false,"is_disabled":false,"rental_uris":{"android":"levelo://app?vid=784bf8ae-0097-45a5-89e6-e9987ffc4672","ios":"levelo://app?vid=784bf8ae-0097-45a5-89e6-e9987ffc4672"},"vehicle_type_id":"4","last_reported":1768814670,"current_range_meters":9600,"station_id":"ce4bhn12rcd13ifvqgpg","pricing_plan_id":"cebpf4jnsgd1na2vs0mg"},{"bike_id":"6eaba300-7dc8-44c2-a644-44ad4313f929","system_id":"levelo_inurba_marseille","lat":43.27048,"lon":5.40262,"is_reserved":false,"is_disabled":false,"rental_uris":{"android":"levelo://app?vid=6eaba300-7dc8-44c2-a644-44ad4313f929","ios":"levelo://app?vid=6eaba300-7dc8-44c2-a644-44ad4313f929"},"vehicle_type_id":"4","last_reported":1768814670,"current_range_meters":9600,"station_id":"ce4bhk92rcd13ifvqgc0","pricing_plan_id":"cebpf4jnsgd1na2vs0mg"},{"bike_id":"a18875b2-7fec-46fb-be96-0954e45585f5","system_id":"levelo_inurba_marseille","lat":43.27948,"lon":5.41051,"is_reserved":false,"is_disabled":false,"rental_uris":{"android":"levelo://app?vid=a18875b2-7fec-46fb-be96-0954e45585f5","ios":"levelo://app?vid=a18875b2-7fec-46fb-be96-0954e45585f5"},"vehicle_type_id":"4","last_reported":1768814670,"current_range_meters":9600,"station_id":"ce4bhnp2rcd13ifvqh0g","pricing_plan_id":"cebpf4jnsgd1na2vs0mg"},{"bike_id":"257237c4-ad17-4c5c-bd8c-33a3d3f05dc6","system_id":"levelo_inurba_marseille","lat":43.285338,"lon":5.440969,"is_reserved":false,"is_disabled":false,"rental_uris":{"android":"levelo://app?vid=257237c4-ad17-4c5c-bd8c-33a3d3f05dc6","ios":"levelo://app?vid=257237c4-ad17-4c5c-bd8c-33a3d3f05dc6"},"vehicle_type_id":"4","last_reported":1768814670,"current_range_meters":9600,"station_id":"st_d3j3df2ikq2c7380ej80","pricing_plan_id":"cebpf4jnsgd1na2vs0mg"},{"bike_id":"79ee09ef-c9ef-45df-873b-2180e772469b","system_id":"levelo_inurba_marseille","lat":43.2621,"lon":5.388,"is_reserved":false,"is_disabled":false,"rental_uris":{"android":"levelo://app?vid=79ee09ef-c9ef-45df-873b-2180e772469b","ios":"levelo://app?vid=79ee09ef-c9ef-45df-873b-2180e772469b"},"vehicle_type_id":"4","last_reported":1768814670,"current_range_meters":9600,"station_id":"","pricing_plan_id":"cebpf4jnsgd1na2vs0mg"},{"bike_id":"74410b7c-20f3-464f-b084-77cf6745e281","system_id":"levelo_inurba_marseille","lat":43.29745,"lon":5.42776,"is_reserved":false,"is_disabled":false,"rental_uris":{"android":"levelo://app?vid=74410b7c-20f3-464f-b084-77cf6745e281","ios":"levelo://app?vid=74410b7c-20f3-464f-b084-77cf6745e281"},"vehicle_type_id":"4","last_reported":1768814670,"current_range_meters":10000,"station_id":"st_d3md5207bmas73dh9klg","pricing_plan_id":"cebpf4jnsgd1na2vs0mg"},{"bike_id":"cc75d74f-edcb-4d0c-834e-ebf6d03d0901","system_id":"levelo_inurba_marseille","lat":43.27936,"lon":5.41039,"is_reserved":false,"is_disabled":false,"rental_uris":{"android":"levelo://app?vid=cc75d74f-edcb-4d0c-834e-ebf6d03d0901","ios":"levelo://app?vid=cc75d74f-edcb-4d0c-834e-ebf6d03d0901"},"vehicle_type_id":"4","last_reported":1768814670,"current_range_meters":10000,"station_id":"ce4bhnp2rcd13ifvqh0g","pricing_plan_id":"cebpf4jnsgd1na2vs0mg"},{"bike_id":"0c250cd0-6f0a-4492-8c3a-6d60fb5f5d61","system_id":"levelo_inurba_marseille","lat":43.31009,"lon":5.37189,"is_reserved":false,"is_disabled":false,"rental_uris":{"android":"levelo://app?vid=0c250cd0-6f0a-4492-8c3a-6d60fb5f5d61","ios":"levelo://app?vid=0c250cd0-6f0a-4492-8c3a-6d60fb5f5d61"},"vehicle_type_id":"4","last_reported":1768814670,"current_range_meters":10000,"station_id":"st_d4kl2rp97mjs73e7tdfg","pricing_plan_id":"cebpf4jnsgd1na2vs0mg"},{"bike_id":"266e48ea-908e-4dc8-855a-c7fc287a6fac","system_id":"levelo_inurba_marseille","lat":43.30248,"lon":5.37793,"is_reserved":false,"is_disabled":false,"rental_uris":{"android":"levelo://app?vid=266e48ea-908e-4dc8-855a-c7fc287a6fac","ios":"levelo://app?vid=266e48ea-908e-4dc8-855a-c7fc287a6fac"},"vehicle_type_id":"4","last_reported":1768814670,"current_range_meters":10000,"station_id":"","pricing_plan_id":"cebpf4jnsgd1na2vs0mg"},{"bike_id":"fe068e4e-5726-4387-b759-602413089295","system_id":"levelo_inurba_marseille","lat":43.26005,"lon":5.3952,"is_reserved":false,"is_disabled":false,"rental_uris":{"android":"levelo://app?vid=fe068e4e-5726-4387-b759-602413089295","ios":"levelo://app?vid=fe068e4e-5726-4387-b759-602413089295"},"vehicle_type_id":"4","last_reported":1768814670,"current_range_meters":10000,"station_id":"","pricing_plan_id":"cebpf4jnsgd1na2vs0mg"},{"bike_id":"405bacf0-7d07-4ec7-aad7-72e1c5147c0f","system_id":"levelo_inurba_marseille","lat":43.3014,"lon":5.374258,"is_reserved":false,"is_disabled":false,"rental_uris":{"android":"levelo://app?vid=405bacf0-7d07-4ec7-aad7-72e1c5147c0f","ios":"levelo://app?vid=405bacf0-7d07-4ec7-aad7-72e1c5147c0f"},"vehicle_type_id":"4","last_reported":1768814670,"current_range_meters":10000,"station_id":"ce4bgs92rcd13ifvqcc0","pricing_plan_id":"cebpf4jnsgd1na2vs0mg"},{"bike_id":"15fa7938-6e9d-4ff0-8c10-f0e05689a462","system_id":"levelo_inurba_marseille","lat":43.33157,"lon":5.37732,"is_reserved":false,"is_disabled":false,"rental_uris":{"android":"levelo://app?vid=15fa7938-6e9d-4ff0-8c10-f0e05689a462","ios":"levelo://app?vid=15fa7938-6e9d-4ff0-8c10-f0e05689a462"},"vehicle_type_id":"4","last_reported":1768814670,"current_range_meters":10000,"station_id":"st_d46cu089ee8s73dldbu0","pricing_plan_id":"cebpf4jnsgd1na2vs0mg"},{"bike_id":"98b7c4bc-df41-4591-92d4-d03ff0b10e8b","system_id":"levelo_inurba_marseille","lat":43.30117,"lon":5.43113,"is_reserved":false,"is_disabled":false,"rental_uris":{"android":"levelo://app?vid=98b7c4bc-df41-4591-92d4-d03ff0b10e8b","ios":"levelo://app?vid=98b7c4bc-df41-4591-92d4-d03ff0b10e8b"},"vehicle_type_id":"4","last_reported":1768814670,"current_range_meters":10000,"station_id":"st_d3js3co5814s73ftftug","pricing_plan_id":"cebpf4jnsgd1na2vs0mg"},{"bike_id":"897afa57-164c-4cfc-901d-614d477f19fd","system_id":"levelo_inurba_marseille","lat":43.29726,"lon":5.37376,"is_reserved":false,"is_disabled":false,"rental_uris":{"android":"levelo://app?vid=897afa57-164c-4cfc-901d-614d477f19fd","ios":"levelo://app?vid=897afa57-164c-4cfc-901d-614d477f19fd"},"vehicle_type_id":"4","last_reported":1768814670,"current_range_meters":10000,"station_id":"","pricing_plan_id":"cebpf4jnsgd1na2vs0mg"},{"bike_id":"157ffa4a-f256-4b41-8fcc-ea73097712b8","system_id":"levelo_inurba_marseille","lat":43.2668,"lon":5.38269,"is_reserved":false,"is_disabled":false,"rental_uris":{"android":"levelo://app?vid=157ffa4a-f256-4b41-8fcc-ea73097712b8","ios":"levelo://app?vid=157ffa4a-f256-4b41-8fcc-ea73097712b8"},"vehicle_type_id":"4","last_reported":1768814670,"current_range_meters":10000,"station_id":"ce4bhg92rcd13ifvqf90","pricing_plan_id":"cebpf4jnsgd1na2vs0mg"},{"bike_id":"f02a6d56-5cc6-441d-b096-ec037e71ba0d","system_id":"levelo_inurba_marseille","lat":43.29104,"lon":5.38913,"is_reserved":false,"is_disabled":false,"rental_uris":{"android":"levelo://app?vid=f02a6d56-5cc6-441d-b096-ec037e71ba0d","ios":"levelo://app?vid=f02a6d56-5cc6-441d-b096-ec037e71ba0d"},"vehicle_type_id":"4","last_reported":1768814670,"current_range_meters":10000,"station_id":"","pricing_plan_id":"cebpf4jnsgd1na2vs0mg"},{"bike_id":"8d5cc49b-0637-468f-bdc8-396f5ac55bc7","system_id":"levelo_inurba_marseille","lat":43.29932,"lon":5.36546,"is_reserved":false,"is_disabled":false,"rental_uris":{"android":"levelo://app?vid=8d5cc49b-0637-468f-bdc8-396f5ac55bc7","ios":"levelo://app?vid=8d5cc49b-0637-468f-bdc8-396f5ac55bc7"},"vehicle_type_id":"4","last_reported":1768814670,"current_range_meters":10000,"station_id":"ce4bgm92rcd13ifvqbr0","pricing_plan_id":"cebpf4jnsgd1na2vs0mg"},{"bike_id":"d81ef32a-a56b-4784-81ce-01a9faf82e78","system_id":"levelo_inurba_marseille","lat":43.24937,"lon":5.40515,"is_reserved":false,"is_disabled":false,"rental_uris":{"android":"levelo://app?vid=d81ef32a-a56b-4784-81ce-01a9faf82e78","ios":"levelo://app?vid=d81ef32a-a56b-4784-81ce-01a9faf82e78"},"vehicle_type_id":"4","last_reported":1768814670,"current_range_meters":10000,"station_id":"st_d2ngiaodas8pm72gd1h0","pricing_plan_id":"cebpf4jnsgd1na2vs0mg"},{"bike_id":"aad2f2a1-05d5-483b-af83-ed9a3138acee","system_id":"levelo_inurba_marseille","lat":43.24139,"lon":5.39714,"is_reserved":false,"is_disabled":false,"rental_uris":{"android":"levelo://app?vid=aad2f2a1-05d5-483b-af83-ed9a3138acee","ios":"levelo://app?vid=aad2f2a1-05d5-483b-af83-ed9a3138acee"},"vehicle_type_id":"4","last_reported":1768814670,"current_range_meters":10000,"station_id":"ce4bhn12rcd13ifvqgpg","pricing_plan_id":"cebpf4jnsgd1na2vs0mg"},{"bike_id":"d37fbd57-975a-458d-86c1-4646adc5d0a1","system_id":"levelo_inurba_marseille","lat":43.26004,"lon":5.41754,"is_reserved":false,"is_disabled":false,"rental_uris":{"android":"levelo://app?vid=d37fbd57-975a-458d-86c1-4646adc5d0a1","ios":"levelo://app?vid=d37fbd57-975a-458d-86c1-4646adc5d0a1"},"vehicle_type_id":"4","last_reported":1768814670,"current_range_meters":10000,"station_id":"","pricing_plan_id":"cebpf4jnsgd1na2vs0mg"},{"bike_id":"78aa8ab7-857a-4eb3-8420-e1306e947450","system_id":"levelo_inurba_marseille","lat":43.30475,"lon":5.37915,"is_reserved":false,"is_disabled":false,"rental_uris":{"android":"levelo://app?vid=78aa8ab7-857a-4eb3-8420-e1306e947450","ios":"levelo://app?vid=78aa8ab7-857a-4eb3-8420-e1306e947450"},"vehicle_type_id":"4","last_reported":1768814670,"current_range_meters":10000,"station_id":"ce4bgup2rcd13ifvqcn0","pricing_plan_id":"cebpf4jnsgd1na2vs0mg"},{"bike_id":"a230c296-8f76-4461-85f3-cef961a68cae","system_id":"levelo_inurba_marseille","lat":43.28145,"lon":5.43147,"is_reserved":false,"is_disabled":false,"rental_uris":{"android":"levelo://app?vid=a230c296-8f76-4461-85f3-cef961a68cae","ios":"levelo://app?vid=a230c296-8f76-4461-85f3-cef961a68cae"},"vehicle_type_id":"4","last_reported":1768814670,"current_range_meters":10000,"station_id":"","pricing_plan_id":"cebpf4jnsgd1na2vs0mg"},{"bike_id":"4011715e-b4bb-49be-9e0d-22ddc9ffc04a","system_id":"levelo_inurba_marseille","lat":43.28676,"lon":5.38656,"is_reserved":false,"is_disabled":false,"rental_uris":{"android":"levelo://app?vid=4011715e-b4bb-49be-9e0d-22ddc9ffc04a","ios":"levelo://app?vid=4011715e-b4bb-49be-9e0d-22ddc9ffc04a"},"vehicle_type_id":"4","last_reported":1768814670,"current_range_meters":10000,"station_id":"ce4bh492rcd13ifvqdug","pricing_plan_id":"cebpf4jnsgd1na2vs0mg"},{"bike_id":"f90ea28f-5d1d-4745-a60a-36d2bf2091ad","system_id":"levelo_inurba_marseille","lat":43.27497,"lon":5.42465,"is_reserved":false,"is_disabled":false,"rental_uris":{"android":"levelo://app?vid=f90ea28f-5d1d-4745-a60a-36d2bf2091ad","ios":"levelo://app?vid=f90ea28f-5d1d-4745-a60a-36d2bf2091ad"},"vehicle_type_id":"4","last_reported":1768814670,"current_range_meters":10000,"station_id":"ce4bhn92rcd13ifvqgrg","pricing_plan_id":"cebpf4jnsgd1na2vs0mg"},{"bike_id":"289c4030-5ccc-4696-99db-11899f84ed21","system_id":"levelo_inurba_marseille","lat":43.23146,"lon":5.43724,"is_reserved":false,"is_disabled":false,"rental_uris":{"android":"levelo://app?vid=289c4030-5ccc-4696-99db-11899f84ed21","ios":"levelo://app?vid=289c4030-5ccc-4696-99db-11899f84ed21"},"vehicle_type_id":"4","last_reported":1768814670,"current_range_meters":10000,"station_id":"ce4bhmp2rcd13ifvqgog","pricing_plan_id":"cebpf4jnsgd1na2vs0mg"},{"bike_id":"ea64526a-5533-47b9-9c09-5171f3da77ab","system_id":"levelo_inurba_marseille","lat":43.28914,"lon":5.42967,"is_reserved":false,"is_disabled":false,"rental_uris":{"android":"levelo://app?vid=ea64526a-5533-47b9-9c09-5171f3da77ab","ios":"levelo://app?vid=ea64526a-5533-47b9-9c09-5171f3da77ab"},"vehicle_type_id":"4","last_reported":1768814670,"current_range_meters":10000,"station_id":"","pricing_plan_id":"cebpf4jnsgd1na2vs0mg"},{"bike_id":"56e385ce-3f8c-4732-b9b0-4ab42132f101","system_id":"levelo_inurba_marseille","lat":43.27979,"lon":5.41645,"is_reserved":false,"is_disabled":false,"rental_uris":{"android":"levelo://app?vid=56e385ce-3f8c-4732-b9b0-4ab42132f101","ios":"levelo://app?vid=56e385ce-3f8c-4732-b9b0-4ab42132f101"},"vehicle_type_id":"4","last_reported":1768814670,"current_range_meters":10000,"station_id":"ce4bho12rcd13ifvqh1g","pricing_plan_id":"cebpf4jnsgd1na2vs0mg"},{"bike_id":"e6930391-011a-4703-b893-52cbf2211c23","system_id":"levelo_inurba_marseille","lat":43.27481,"lon":5.42451,"is_reserved":false,"is_disabled":false,"rental_uris":{"android":"levelo://app?vid=e6930391-011a-4703-b893-52cbf2211c23","ios":"levelo://app?vid=e6930391-011a-4703-b893-52cbf2211c23"},"vehicle_type_id":"4","last_reported":1768814670,"current_range_meters":10000,"station_id":"ce4bhn92rcd13ifvqgrg","pricing_plan_id":"cebpf4jnsgd1na2vs0mg"},{"bike_id":"59976ec8-c2a7-4cc0-bf57-cc6d440be4fd","system_id":"levelo_inurba_marseille","lat":43.26553,"lon":5.39036,"is_reserved":false,"is_disabled":false,"rental_uris":{"android":"levelo://app?vid=59976ec8-c2a7-4cc0-bf57-cc6d440be4fd","ios":"levelo://app?vid=59976ec8-c2a7-4cc0-bf57-cc6d440be4fd"},"vehicle_type_id":"4","last_reported":1768814670,"current_range_meters":10800,"station_id":"ce4bhe12rcd13ifvqf30","pricing_plan_id":"cebpf4jnsgd1na2vs0mg"},{"bike_id":"2754e82f-4036-4992-bd65-d11cd290c0f7","system_id":"levelo_inurba_marseille","lat":43.28002,"lon":5.40021,"is_reserved":false,"is_disabled":false,"rental_uris":{"android":"levelo://app?vid=2754e82f-4036-4992-bd65-d11cd290c0f7","ios":"levelo://app?vid=2754e82f-4036-4992-bd65-d11cd290c0f7"},"vehicle_type_id":"4","last_reported":1768814670,"current_range_meters":10800,"station_id":"ce4bho92rcd13ifvqh4g","pricing_plan_id":"cebpf4jnsgd1na2vs0mg"},{"bike_id":"4cb573dc-401b-492a-b8ff-576425d99d62","system_id":"levelo_inurba_marseille","lat":43.24072,"lon":5.37757,"is_reserved":false,"is_disabled":false,"rental_uris":{"android":"levelo://app?vid=4cb573dc-401b-492a-b8ff-576425d99d62","ios":"levelo://app?vid=4cb573dc-401b-492a-b8ff-576425d99d62"},"vehicle_type_id":"4","last_reported":1768814670,"current_range_meters":10800,"station_id":"ce4bhnp2rcd13ifvqgvg","pricing_plan_id":"cebpf4jnsgd1na2vs0mg"},{"bike_id":"361494c3-cd3d-450c-9015-a2ad0304dbbd","system_id":"levelo_inurba_marseille","lat":43.27999,"lon":5.41663,"is_reserved":false,"is_disabled":false,"rental_uris":{"android":"levelo://app?vid=361494c3-cd3d-450c-9015-a2ad0304dbbd","ios":"levelo://app?vid=361494c3-cd3d-450c-9015-a2ad0304dbbd"},"vehicle_type_id":"4","last_reported":1768814670,"current_range_meters":10800,"station_id":"ce4bho12rcd13ifvqh1g","pricing_plan_id":"cebpf4jnsgd1na2vs0mg"},{"bike_id":"8bc5911e-e7fc-49e5-87c3-fd8fb417263b","system_id":"levelo_inurba_marseille","lat":43.30676,"lon":5.36547,"is_reserved":false,"is_disabled":false,"rental_uris":{"android":"levelo://app?vid=8bc5911e-e7fc-49e5-87c3-fd8fb417263b","ios":"levelo://app?vid=8bc5911e-e7fc-49e5-87c3-fd8fb417263b"},"vehicle_type_id":"4","last_reported":1768814670,"current_range_meters":10800,"station_id":"","pricing_plan_id":"cebpf4jnsgd1na2vs0mg"},{"bike_id":"4d5a34c4-5f2e-4ef5-bb82-35f550258ee1","system_id":"levelo_inurba_marseille","lat":43.26055,"lon":5.39391,"is_reserved":false,"is_disabled":false,"rental_uris":{"android":"levelo://app?vid=4d5a34c4-5f2e-4ef5-bb82-35f550258ee1","ios":"levelo://app?vid=4d5a34c4-5f2e-4ef5-bb82-35f550258ee1"},"vehicle_type_id":"4","last_reported":1768814670,"current_range_meters":10800,"station_id":"ce4bhh92rcd13ifvqfj0","pricing_plan_id":"cebpf4jnsgd1na2vs0mg"},{"bike_id":"2f068eb9-df25-4c78-ae73-fc5bb4ded60a","system_id":"levelo_inurba_marseille","lat":43.259253,"lon":5.409116,"is_reserved":false,"is_disabled":false,"rental_uris":{"android":"levelo://app?vid=2f068eb9-df25-4c78-ae73-fc5bb4ded60a","ios":"levelo://app?vid=2f068eb9-df25-4c78-ae73-fc5bb4ded60a"},"vehicle_type_id":"4","last_reported":1768814670,"current_range_meters":10800,"station_id":"ce4bhm92rcd13ifvqglg","pricing_plan_id":"cebpf4jnsgd1na2vs0mg"},{"bike_id":"9f8a798f-f95b-4979-8eb8-4ed719f4c356","system_id":"levelo_inurba_marseille","lat":43.303178,"lon":5.369221,"is_reserved":false,"is_disabled":false,"rental_uris":{"android":"levelo://app?vid=9f8a798f-f95b-4979-8eb8-4ed719f4c356","ios":"levelo://app?vid=9f8a798f-f95b-4979-8eb8-4ed719f4c356"},"vehicle_type_id":"4","last_reported":1768814670,"current_range_meters":10800,"station_id":"ce4bgqh2rcd13ifvqc5g","pricing_plan_id":"cebpf4jnsgd1na2vs0mg"},{"bike_id":"fffdac45-0a17-4303-b03b-94594e1f20e9","system_id":"levelo_inurba_marseille","lat":43.31225,"lon":5.36888,"is_reserved":false,"is_disabled":false,"rental_uris":{"android":"levelo://app?vid=fffdac45-0a17-4303-b03b-94594e1f20e9","ios":"levelo://app?vid=fffdac45-0a17-4303-b03b-94594e1f20e9"},"vehicle_type_id":"4","last_reported":1768814670,"current_range_meters":10800,"station_id":"ce4bgl92rcd13ifvqbq0","pricing_plan_id":"cebpf4jnsgd1na2vs0mg"},{"bike_id":"586dfadf-e81a-4fc2-a454-26b1964d327d","system_id":"levelo_inurba_marseille","lat":43.32347,"lon":5.36753,"is_reserved":false,"is_disabled":false,"rental_uris":{"android":"levelo://app?vid=586dfadf-e81a-4fc2-a454-26b1964d327d","ios":"levelo://app?vid=586dfadf-e81a-4fc2-a454-26b1964d327d"},