{"last_updated":1739992068,"ttl":60,"version":"2.2","data":{"bikes":[{"bike_id":"b6d1d09e-4860-4f8c-9731-cd15a0490fa0","system_id":"levelo_inurba_marseille","lat":43.29793,"lon":5.38122,"is_reserved":false,"is_disabled":false,"rental_uris":{"android":"levelo://app?vid=b6d1d09e-4860-4f8c-9731-cd15a0490fa0","ios":"levelo://app?vid=b6d1d09e-4860-4f8c-9731-cd15a0490fa0"},"vehicle_type_id":"4","last_reported":1739992068,"current_range_meters":2800,"station_id":"ce4bgip2rcd13ifvqbb0","pricing_plan_id":"cebpf4jnsgd1na2vs0mg"},{"bike_id":"6e06d03c-0776-432c-b5af-8a25557fb65a","system_id":"levelo_inurba_marseille","lat":43.26072,"lon":5.39395,"is_reserved":false,"is_disabled":true,"rental_uris":{"android":"levelo://app?vid=6e06d03c-0776-432c-b5af-8a25557fb65a","ios":"levelo://app?vid=6e06d03c-0776-432c-b5af-8a25557fb65a"},"vehicle_type_id":"4","last_reported":1739992068,"current_range_meters":2800,"station_id":"ce4bhh92rcd13ifvqfj0","pricing_plan_id":"cebpf4jnsgd1na2vs0mg"},{"bike_id":"b8e15dec-192d-485a-930b-5fcd3913de65","system_id":"levelo_inurba_marseille","lat":43.30302,"lon":5.37431,"is_reserved":false,"is_disabled":false,"rental_uris":{"android":"levelo://app?vid=b8e15dec-192d-485a-930b-5fcd3913de65","ios":"levelo://app?vid=b8e15dec-192d-485a-930b-5fcd3913de65"},"vehicle_type_id":"4","last_reported":1739992068,"current_range_meters":3200,"station_id":"","pricing_plan_id":"cebpf4jnsgd1na2vs0mg"},{"bike_id":"c092b550-e0ef-4139-819e-dbdb1a1f6c1e","system_id":"levelo_inurba_marseille","lat":43.24371,"lon":5.40617,"is_reserved":false,"is_disabled":false,"rental_uris":{"android":"levelo://app?vid=c092b550-e0ef-4139-819e-dbdb1a1f6c1e","ios":"levelo://app?vid=c092b550-e0ef-4139-819e-dbdb1a1f6c1e"},"vehicle_type_id":"4","last_reported":1739992068,"current_range_meters":3200,"station_id":"","pricing_plan_id":"cebpf4jnsgd1na2vs0mg"},{"bike_id":"cd51358a-28c4-49c8-8577-da058fdce59c","system_id":"levelo_inurba_marseille","lat":43.27979,"lon":5.38626,"is_reserved":false,"is_disabled":false,"rental_uris":{"android":"levelo://app?vid=cd51358a-28c4-49c8-8577-da058fdce59c","ios":"levelo://app?vid=cd51358a-28c4-49c8-8577-da058fdce59c"},"vehicle_type_id":"4","last_reported":1739992068,"current_range_meters":3200,"station_id":"","pricing_plan_id":"cebpf4jnsgd1na2vs0mg"},{"bike_id":"5321a740-e782-4dc5-b2bb-548aa82a3ab9","system_id":"levelo_inurba_marseille","lat":43.23964,"lon":5.36619,"is_reserved":false,"is_disabled":false,"rental_uris":{"android":"levelo://app?vid=5321a740-e782-4dc5-b2bb-548aa82a3ab9","ios":"levelo://app?vid=5321a740-e782-4dc5-b2bb-548aa82a3ab9"},"vehicle_type_id":"4","last_reported":1739992068,"current_range_meters":3200,"station_id":"","pricing_plan_id":"cebpf4jnsgd1na2vs0mg"},{"bike_id":"95aa7d9d-ce86-42e1-9948-d0bb9c00bf72","system_id":"levelo_inurba_marseille","lat":43.29864,"lon":5.39744,"is_reserved":false,"is_disabled":false,"rental_uris":{"android":"levelo://app?vid=95aa7d9d-ce86-42e1-9948-d0bb9c00bf72","ios":"levelo://app?vid=95aa7d9d-ce86-42e1-9948-d0bb9c00bf72"},"vehicle_type_id":"4","last_reported":1739992068,"current_range_meters":3600,"station_id":"","pricing_plan_id":"cebpf4jnsgd1na2vs0mg"},{"bike_id":"8e2abd30-9a3c-4c6b-9d01-90a2a5f82353","system_id":"levelo_inurba_marseille","lat":43.29598,"lon":5.38102,"is_reserved":false,"is_disabled":false,"rental_uris":{"android":"levelo://app?vid=8e2abd30-9a3c-4c6b-9d01-90a2a5f82353","ios":"levelo://app?vid=8e2abd30-9a3c-4c6b-9d01-90a2a5f82353"},"vehicle_type_id":"4","last_reported":1739992068,"current_range_meters":4000,"station_id":"ce4bgl12rcd13ifvqbo0","pricing_plan_id":"cebpf4jnsgd1na2vs0mg"},{"bike_id":"568f90d6-4ac9-46a1-ba8e-b48573ad7f85","system_id":"levelo_inurba_marseille","lat":43.24429,"lon":5.37851,"is_reserved":false,"is_disabled":true,"rental_uris":{"android":"levelo://app?vid=568f90d6-4ac9-46a1-ba8e-b48573ad7f85","ios":"levelo://app?vid=568f90d6-4ac9-46a1-ba8e-b48573ad7f85"},"vehicle_type_id":"4","last_reported":1739992068,"current_range_meters":4000,"station_id":"","pricing_plan_id":"cebpf4jnsgd1na2vs0mg"},{"bike_id":"a8f9767b-2969-41e2-b9cf-a378997cc9dd","system_id":"levelo_inurba_marseille","lat":43.24666,"lon":5.38161,"is_reserved":false,"is_disabled":false,"rental_uris":{"android":"levelo://app?vid=a8f9767b-2969-41e2-b9cf-a378997cc9dd","ios":"levelo://app?vid=a8f9767b-2969-41e2-b9cf-a378997cc9dd"},"vehicle_type_id":"4","last_reported":1739992068,"current_range_meters":4400,"station_id":"ce4bhih2rcd13ifvqfr0","pricing_plan_id":"cebpf4jnsgd1na2vs0mg"},{"bike_id":"9c52293b-9315-4c09-ac24-8ab69ef41881","system_id":"levelo_inurba_marseille","lat":43.291143,"lon":5.382821,"is_reserved":false,"is_disabled":false,"rental_uris":{"android":"levelo://app?vid=9c52293b-9315-4c09-ac24-8ab69ef41881","ios":"levelo://app?vid=9c52293b-9315-4c09-ac24-8ab69ef41881"},"vehicle_type_id":"4","last_reported":1739992068,"current_range_meters":800,"station_id":"ce4bhdp2rcd13ifvqf20","pricing_plan_id":"cebpf4jnsgd1na2vs0mg"},{"bike_id":"7f9ebab6-4bb9-4992-8d47-2b3fc12ee264","system_id":"levelo_inurba_marseille","lat":43.293375,"lon":5.383683,"is_reserved":false,"is_disabled":false,"rental_uris":{"android":"levelo://app?vid=7f9ebab6-4bb9-4992-8d47-2b3fc12ee264","ios":"levelo://app?vid=7f9ebab6-4bb9-4992-8d47-2b3fc12ee264"},"vehicle_type_id":"4","last_reported":1739992068,"current_range_meters":3600,"station_id":"ce4bh2h2rcd13ifvqdh0","pricing_plan_id":"cebpf4jnsgd1na2vs0mg"},{"bike_id":"ac714da2-391e-48cb-9e2a-bf5bea5e4b1c","system_id":"levelo_inurba_marseille","lat":43.29711,"lon":5.36622,"is_reserved":false,"is_disabled":false,"rental_uris":{"android":"levelo://app?vid=ac714da2-391e-48cb-9e2a-bf5bea5e4b1c","ios":"levelo://app?vid=ac714da2-391e-48cb-9e2a-bf5bea5e4b1c"},"vehicle_type_id":"4","last_reported":1739992068,"current_range_meters":5600,"station_id":"ce4bgn12rcd13ifvqbt0","pricing_plan_id":"cebpf4jnsgd1na2vs0mg"},{"bike_id":"ee6b748b-87a4-4d29-8a4a-78f08127c5d9","system_id":"levelo_inurba_marseille","lat":43.24664,"lon":5.3817,"is_reserved":false,"is_disabled":false,"rental_uris":{"android":"levelo://app?vid=ee6b748b-87a4-4d29-8a4a-78f08127c5d9","ios":"levelo://app?vid=ee6b748b-87a4-4d29-8a4a-78f08127c5d9"},"vehicle_type_id":"4","last_reported":1739992068,"current_range_meters":5600,"station_id":"ce4bhih2rcd13ifvqfr0","pricing_plan_id":"cebpf4jnsgd1na2vs0mg"},{"bike_id":"b12a7717-e3d0-43f5-bd81-3cd03a8873a3","system_id":"levelo_inurba_marseille","lat":43.28348,"lon":5.38108,"is_reserved":false,"is_disabled":false,"rental_uris":{"android":"levelo://app?vid=b12a7717-e3d0-43f5-bd81-3cd03a8873a3","ios":"levelo://app?vid=b12a7717-e3d0-43f5-bd81-3cd03a8873a3"},"vehicle_type_id":"4","last_reported":1739992068,"current_range_meters":5600,"station_id":"","pricing_plan_id":"cebpf4jnsgd1na2vs0mg"},{"bike_id":"603f276b-9a98-4c7b-b888-9d6d576d40f6","system_id":"levelo_inurba_marseille","lat":43.2989,"lon":5.3891,"is_reserved":false,"is_disabled":false,"rental_uris":{"android":"levelo://app?vid=603f276b-9a98-4c7b-b888-9d6d576d40f6","ios":"levelo://app?vid=603f276b-9a98-4c7b-b888-9d6d576d40f6"},"vehicle_type_id":"4","last_reported":1739992068,"current_range_meters":5600,"station_id":"ce4bh392rcd13ifvqdl0","pricing_plan_id":"cebpf4jnsgd1na2vs0mg"},{"bike_id":"ce7e7330-6b9e-4b8c-92a7-7f16dcd81844","system_id":"levelo_inurba_marseille","lat":43.28718,"lon":5.36099,"is_reserved":false,"is_disabled":false,"rental_uris":{"android":"levelo://app?vid=ce7e7330-6b9e-4b8c-92a7-7f16dcd81844","ios":"levelo://app?vid=ce7e7330-6b9e-4b8c-92a7-7f16dcd81844"},"vehicle_type_id":"4","last_reported":1739992068,"current_range_meters":5600,"station_id":"cki0cbj6b192h4jlfktg","pricing_plan_id":"cebpf4jnsgd1na2vs0mg"},{"bike_id":"87a4c1f0-073e-4404-93ec-979572549863","system_id":"levelo_inurba_marseille","lat":43.29273,"lon":5.36845,"is_reserved":false,"is_disabled":false,"rental_uris":{"android":"levelo://app?vid=87a4c1f0-073e-4404-93ec-979572549863","ios":"levelo://app?vid=87a4c1f0-073e-4404-93ec-979572549863"},"vehicle_type_id":"4","last_reported":1739992068,"current_range_meters":6000,"station_id":"ce4bhbp2rcd13ifvqesg","pricing_plan_id":"cebpf4jnsgd1na2vs0mg"},{"bike_id":"989a1c05-c74a-4632-af21-81b3f55f7909","system_id":"levelo_inurba_marseille","lat":43.29214,"lon":5.36056,"is_reserved":false,"is_disabled":true,"rental_uris":{"android":"levelo://app?vid=989a1c05-c74a-4632-af21-81b3f55f7909","ios":"levelo://app?vid=989a1c05-c74a-4632-af21-81b3f55f7909"},"vehicle_type_id":"4","last_reported":1739992068,"current_range_meters":6000,"station_id":"","pricing_plan_id":"cebpf4jnsgd1na2vs0mg"},{"bike_id":"90594337-172f-46fe-b716-40c02c614fe9","system_id":"levelo_inurba_marseille","lat":43.29511,"lon":5.39389,"is_reserved":false,"is_disabled":false,"rental_uris":{"android":"levelo://app?vid=90594337-172f-46fe-b716-40c02c614fe9","ios":"levelo://app?vid=90594337-172f-46fe-b716-40c02c614fe9"},"vehicle_type_id":"4","last_reported":1739992068,"current_range_meters":6400,"station_id":"ce4bh292rcd13ifvqdf0","pricing_plan_id":"cebpf4jnsgd1na2vs0mg"},{"bike_id":"3ea61ce7-50b1-4abc-b876-64df12f1792e","system_id":"levelo_inurba_marseille","lat":43.2594,"lon":5.40899,"is_reserved":false,"is_disabled":false,"rental_uris":{"android":"levelo://app?vid=3ea61ce7-50b1-4abc-b876-64df12f1792e","ios":"levelo://app?vid=3ea61ce7-50b1-4abc-b876-64df12f1792e"},"vehicle_type_id":"4","last_reported":1739992068,"current_range_meters":6400,"station_id":"ce4bhm92rcd13ifvqglg","pricing_plan_id":"cebpf4jnsgd1na2vs0mg"},{"bike_id":"2ada5265-b246-413e-8abb-562565dc0beb","system_id":"levelo_inurba_marseille","lat":43.29309,"lon":5.37427,"is_reserved":false,"is_disabled":false,"rental_uris":{"android":"levelo://app?vid=2ada5265-b246-413e-8abb-562565dc0beb","ios":"levelo://app?vid=2ada5265-b246-413e-8abb-562565dc0beb"},"vehicle_type_id":"4","last_reported":1739992068,"current_range_meters":6400,"station_id":"ce4bgi12rcd13ifvqb70","pricing_plan_id":"cebpf4jnsgd1na2vs0mg"},{"bike_id":"0c513a74-af0a-4906-812f-ba73fbf2b871","system_id":"levelo_inurba_marseille","lat":43.31717,"lon":5.43703,"is_reserved":false,"is_disabled":false,"rental_uris":{"android":"levelo://app?vid=0c513a74-af0a-4906-812f-ba73fbf2b871","ios":"levelo://app?vid=0c513a74-af0a-4906-812f-ba73fbf2b871"},"vehicle_type_id":"4","last_reported":1739992068,"current_range_meters":6400,"station_id":"ce4bhp92rcd13ifvqhcg","pricing_plan_id":"cebpf4jnsgd1na2vs0mg"},{"bike_id":"a8400ab3-e37d-4405-9005-59c990f8783a","system_id":"levelo_inurba_marseille","lat":43.23963,"lon":5.36652,"is_reserved":false,"is_disabled":false,"rental_uris":{"android":"levelo://app?vid=a8400ab3-e37d-4405-9005-59c990f8783a","ios":"levelo://app?vid=a8400ab3-e37d-4405-9005-59c990f8783a"},"vehicle_type_id":"4","last_reported":1739992068,"current_range_meters":6800,"station_id":"ce4bhi12rcd13ifvqfp0","pricing_plan_id":"cebpf4jnsgd1na2vs0mg"},{"bike_id":"c650b050-c841-4aa6-8008-6f3087c8fbdb","system_id":"levelo_inurba_marseille","lat":43.31004,"lon":5.3789,"is_reserved":false,"is_disabled":false,"rental_uris":{"android":"levelo://app?vid=c650b050-c841-4aa6-8008-6f3087c8fbdb","ios":"levelo://app?vid=c650b050-c841-4aa6-8008-6f3087c8fbdb"},"vehicle_type_id":"4","last_reported":1739992068,"current_range_meters":6800,"station_id":"ce4bguh2rcd13ifvqckg","pricing_plan_id":"cebpf4jnsgd1na2vs0mg"},{"bike_id":"e80d162d-3c63-4b49-ad33-5a6c1cf1dc20","system_id":"levelo_inurba_marseille","lat":43.29905,"lon":5.38148,"is_reserved":false,"is_disabled":false,"rental_uris":{"android":"levelo://app?vid=e80d162d-3c63-4b49-ad33-5a6c1cf1dc20","ios":"levelo://app?vid=e80d162d-3c63-4b49-ad33-5a6c1cf1dc20"},"vehicle_type_id":"4","last_reported":1739992068,"current_range_meters":6800,"station_id":"","pricing_plan_id":"cebpf4jnsgd1na2vs0mg"},{"bike_id":"adb3d6df-7149-4295-84c9-8f4cb47f9c0e","system_id":"levelo_inurba_marseille","lat":43.27269,"lon":5.40679,"is_reserved":false,"is_disabled":true,"rental_uris":{"android":"levelo://app?vid=adb3d6df-7149-4295-84c9-8f4cb47f9c0e","ios":"levelo://app?vid=adb3d6df-7149-4295-84c9-8f4cb47f9c0e"},"vehicle_type_id":"4","last_reported":1739992068,"current_range_meters":6800,"station_id":"","pricing_plan_id":"cebpf4jnsgd1na2vs0mg"},{"bike_id":"d3a06231-fb0d-458d-9ab9-ee250a38730c","system_id":"levelo_inurba_marseille","lat":43.29394,"lon":5.42856,"is_reserved":false,"is_disabled":false,"rental_uris":{"android":"levelo://app?vid=d3a06231-fb0d-458d-9ab9-ee250a38730c","ios":"levelo://app?vid=d3a06231-fb0d-458d-9ab9-ee250a38730c"},"vehicle_type_id":"4","last_reported":1739992068,"current_range_meters":6800,"station_id":"","pricing_plan_id":"cebpf4jnsgd1na2vs0mg"},{"bike_id":"4089f1a0-cd12-42d3-a6c3-01d445970a86","system_id":"levelo_inurba_marseille","lat":43.31289,"lon":5.37422,"is_reserved":false,"is_disabled":false,"rental_uris":{"android":"levelo://app?vid=4089f1a0-cd12-42d3-a6c3-01d445970a86","ios":"levelo://app?vid=4089f1a0-cd12-42d3-a6c3-01d445970a86"},"vehicle_type_id":"4","last_reported":1739992068,"current_range_meters":7200,"station_id":"","pricing_plan_id":"cebpf4jnsgd1na2vs0mg"},{"bike_id":"bb852df7-dd74-43f4-8582-0650a376dfcb","system_id":"levelo_inurba_marseille","lat":43.27501,"lon":5.42465,"is_reserved":false,"is_disabled":false,"rental_uris":{"android":"levelo://app?vid=bb852df7-dd74-43f4-8582-0650a376dfcb","ios":"levelo://app?vid=bb852df7-dd74-43f4-8582-0650a376dfcb"},"vehicle_type_id":"4","last_reported":1739992068,"current_range_meters":7200,"station_id":"ce4bhn92rcd13ifvqgrg","pricing_plan_id":"cebpf4jnsgd1na2vs0mg"},{"bike_id":"f132c26b-a0b7-4a7e-a4a4-e96fad5d51ff","system_id":"levelo_inurba_marseille","lat":43.2872,"lon":5.39991,"is_reserved":false,"is_disabled":true,"rental_uris":{"android":"levelo://app?vid=f132c26b-a0b7-4a7e-a4a4-e96fad5d51ff","ios":"levelo://app?vid=f132c26b-a0b7-4a7e-a4a4-e96fad5d51ff"},"vehicle_type_id":"4","last_reported":1739992068,"current_range_meters":7200,"station_id":"ce4bho92rcd13ifvqh3g","pricing_plan_id":"cebpf4jnsgd1na2vs0mg"},{"bike_id":"4391ae73-d7ce-4930-bac4-306eca66be35","system_id":"levelo_inurba_marseille","lat":43.23964,"lon":5.36625,"is_reserved":false,"is_disabled":false,"rental_uris":{"android":"levelo://app?vid=4391ae73-d7ce-4930-bac4-306eca66be35","ios":"levelo://app?vid=4391ae73-d7ce-4930-bac4-306eca66be35"},"vehicle_type_id":"4","last_reported":1739992068,"current_range_meters":7200,"station_id":"ce4bhi12rcd13ifvqfp0","pricing_plan_id":"cebpf4jnsgd1na2vs0mg"},{"bike_id":"22f5d8a1-0aa4-4589-ad00-73aebcf17ca3","system_id":"levelo_inurba_marseille","lat":43.28945,"lon":5.39634,"is_reserved":false,"is_disabled":false,"rental_uris":{"android":"levelo://app?vid=22f5d8a1-0aa4-4589-ad00-73aebcf17ca3","ios":"levelo://app?vid=22f5d8a1-0aa4-4589-ad00-73aebcf17ca3"},"vehicle_type_id":"4","last_reported":1739992068,"current_range_meters":7200,"station_id":"ce4bh3h2rcd13ifvqdn0","pricing_plan_id":"cebpf4jnsgd1na2vs0mg"},{"bike_id":"49f7f55b-b319-4078-ab9b-08cb692db18a","system_id":"levelo_inurba_marseille","lat":43.2656,"lon":5.39032,"is_reserved":false,"is_disabled":false,"rental_uris":{"android":"levelo://app?vid=49f7f55b-b319-4078-ab9b-08cb692db18a","ios":"levelo://app?vid=49f7f55b-b319-4078-ab9b-08cb692db18a"},"vehicle_type_id":"4","last_reported":1739992068,"current_range_meters":8000,"station_id":"ce4bhe12rcd13ifvqf30","pricing_plan_id":"cebpf4jnsgd1na2vs0mg"},{"bike_id":"e0c5ffbe-ce8b-475a-a680-98cfa2b98ecc","system_id":"levelo_inurba_marseille","lat":43.26804,"lon":5.40269,"is_reserved":false,"is_disabled":false,"rental_uris":{"android":"levelo://app?vid=e0c5ffbe-ce8b-475a-a680-98cfa2b98ecc","ios":"levelo://app?vid=e0c5ffbe-ce8b-475a-a680-98cfa2b98ecc"},"vehicle_type_id":"4","last_reported":1739992068,"current_range_meters":8000,"station_id":"ce501612rcd8frsf0b60","pricing_plan_id":"cebpf4jnsgd1na2vs0mg"},{"bike_id":"97da2850-30e4-49a9-aed9-3fabc78dad21","system_id":"levelo_inurba_marseille","lat":43.33771,"lon":5.37475,"is_reserved":false,"is_disabled":false,"rental_uris":{"android":"levelo://app?vid=97da2850-30e4-49a9-aed9-3fabc78dad21","ios":"levelo://app?vid=97da2850-30e4-49a9-aed9-3fabc78dad21"},"vehicle_type_id":"4","last_reported":1739992068,"current_range_meters":8000,"station_id":"","pricing_plan_id":"cebpf4jnsgd1na2vs0mg"},{"bike_id":"a794cf33-74ce-4e43-b9e4-a2ccbdd466c6","system_id":"levelo_inurba_marseille","lat":43.29419,"lon":5.38626,"is_reserved":false,"is_disabled":false,"rental_uris":{"android":"levelo://app?vid=a794cf33-74ce-4e43-b9e4-a2ccbdd466c6","ios":"levelo://app?vid=a794cf33-74ce-4e43-b9e4-a2ccbdd466c6"},"vehicle_type_id":"4","last_reported":1739992068,"current_range_meters":8000,"station_id":"ce4bh2h2rcd13ifvqdh0","pricing_plan_id":"cebpf4jnsgd1na2vs0mg"},{"bike_id":"cf64b7cd-4626-4d79-afac-2611db88ce28","system_id":"levelo_inurba_marseille","lat":43.27993,"lon":5.41666,"is_reserved":false,"is_disabled":false,"rental_uris":{"android":"levelo://app?vid=cf64b7cd-4626-4d79-afac-2611db88ce28","ios":"levelo://app?vid=cf64b7cd-4626-4d79-afac-2611db88ce28"},"vehicle_type_id":"4","last_reported":1739992068,"current_range_meters":8000,"station_id":"ce4bho12rcd13ifvqh1g","pricing_plan_id":"cebpf4jnsgd1na2vs0mg"},{"bike_id":"24df837f-1402-46ba-bb1c-c30dc27259f2","system_id":"levelo_inurba_marseille","lat":43.3023,"lon":5.4008,"is_reserved":false,"is_disabled":false,"rental_uris":{"android":"levelo://app?vid=24df837f-1402-46ba-bb1c-c30dc27259f2","ios":"levelo://app?vid=24df837f-1402-46ba-bb1c-c30dc27259f2"},"vehicle_type_id":"4","last_reported":1739992068,"current_range_meters":4000,"station_id":"ce4bgvh2rcd13ifvqcs0","pricing_plan_id":"cebpf4jnsgd1na2vs0mg"},{"bike_id":"c70bff92-a34e-450a-9e5b-5dbce5b203b5","system_id":"levelo_inurba_marseille","lat":43.29372,"lon":5.397668,"is_reserved":false,"is_disabled":false,"rental_uris":{"android":"levelo://app?vid=c70bff92-a34e-450a-9e5b-5dbce5b203b5","ios":"levelo://app?vid=c70bff92-a34e-450a-9e5b-5dbce5b203b5"},"vehicle_type_id":"4","last_reported":1739992068,"current_range_meters":8000,"station_id":"ce4bh3h2rcd13ifvqdo0","pricing_plan_id":"cebpf4jnsgd1na2vs0mg"},{"bike_id":"dca61eaa-f691-4ac3-b29a-f547954bc405","system_id":"levelo_inurba_marseille","lat":43.28086,"lon":5.39674,"is_reserved":false,"is_disabled":false,"rental_uris":{"android":"levelo://app?vid=dca61eaa-f691-4ac3-b29a-f547954bc405","ios":"levelo://app?vid=dca61eaa-f691-4ac3-b29a-f547954bc405"},"vehicle_type_id":"4","last_reported":1739992068,"current_range_meters":8000,"station_id":"ce4bho12rcd13ifvqh2g","pricing_plan_id":"cebpf4jnsgd1na2vs0mg"},{"bike_id":"92843970-44e9-42f5-900c-160ec5215267","system_id":"levelo_inurba_marseille","lat":43.29879,"lon":5.39731,"is_reserved":false,"is_disabled":false,"rental_uris":{"android":"levelo://app?vid=92843970-44e9-42f5-900c-160ec5215267","ios":"levelo://app?vid=92843970-44e9-42f5-900c-160ec5215267"},"vehicle_type_id":"4","last_reported":1739992068,"current_range_meters":8000,"station_id":"ce4bh0h2rcd13ifvqd50","pricing_plan_id":"cebpf4jnsgd1na2vs0mg"},{"bike_id":"f7da762d-5a0a-4f2e-b406-b599b0bd3adb","system_id":"levelo_inurba_marseille","lat":43.29274,"lon":5.37613,"is_reserved":false,"is_disabled":false,"rental_uris":{"android":"levelo://app?vid=f7da762d-5a0a-4f2e-b406-b599b0bd3adb","ios":"levelo://app?vid=f7da762d-5a0a-4f2e-b406-b599b0bd3adb"},"vehicle_type_id":"4","last_reported":1739992068,"current_range_meters":8000,"station_id":"ce4bgi12rcd13ifvqb80","pricing_plan_id":"cebpf4jnsgd1na2vs0mg"},{"bike_id":"92a595bd-28a0-4272-9bf7-db276b07d0f8","system_id":"levelo_inurba_marseille","lat":43.29046,"lon":5.39962,"is_reserved":false,"is_disabled":false,"rental_uris":{"android":"levelo://app?vid=92a595bd-28a0-4272-9bf7-db276b07d0f8","ios":"levelo://app?vid=92a595bd-28a0-4272-9bf7-db276b07d0f8"},"vehicle_type_id":"4","last_reported":1739992068,"current_range_meters":8000,"station_id":"ce4bh392rcd13ifvqdm0","pricing_plan_id":"cebpf4jnsgd1na2vs0mg"},{"bike_id":"e79d1c03-ea93-4ee5-8cb2-ecdeca48b0aa","system_id":"levelo_inurba_marseille","lat":43.23172,"lon":5.43691,"is_reserved":false,"is_disabled":true,"rental_uris":{"android":"levelo://app?vid=e79d1c03-ea93-4ee5-8cb2-ecdeca48b0aa","ios":"levelo://app?vid=e79d1c03-ea93-4ee5-8cb2-ecdeca48b0aa"},"vehicle_type_id":"4","last_reported":1739992068,"current_range_meters":8000,"station_id":"ce4bhmp2rcd13ifvqgog","pricing_plan_id":"cebpf4jnsgd1na2vs0mg"},{"bike_id":"18fe3d06-df15-4747-b0a1-d25df88e009c","system_id":"levelo_inurba_marseille","lat":43.28151,"lon":5.42647,"is_reserved":false,"is_disabled":false,"rental_uris":{"android":"levelo://app?vid=18fe3d06-df15-4747-b0a1-d25df88e009c","ios":"levelo://app?vid=18fe3d06-df15-4747-b0a1-d25df88e009c"},"vehicle_type_id":"4","last_reported":1739992068,"current_range_meters":8000,"station_id":"ce4bhnh2rcd13ifvqgug","pricing_plan_id":"cebpf4jnsgd1na2vs0mg"},{"bike_id":"219557c3-133c-4171-b454-69afa7181eeb","system_id":"levelo_inurba_marseille","lat":43.28364,"lon":5.38109,"is_reserved":false,"is_disabled":false,"rental_uris":{"android":"levelo://app?vid=219557c3-133c-4171-b454-69afa7181eeb","ios":"levelo://app?vid=219557c3-133c-4171-b454-69afa7181eeb"},"vehicle_type_id":"4","last_reported":1739992068,"current_range_meters":8400,"station_id":"","pricing_plan_id":"cebpf4jnsgd1na2vs0mg"},{"bike_id":"51ab539e-1825-4cf2-9196-1daa14daedf6","system_id":"levelo_inurba_marseille","lat":43.24999,"lon":5.38922,"is_reserved":false,"is_disabled":false,"rental_uris":{"android":"levelo://app?vid=51ab539e-1825-4cf2-9196-1daa14daedf6","ios":"levelo://app?vid=51ab539e-1825-4cf2-9196-1daa14daedf6"},"vehicle_type_id":"4","last_reported":1739992068,"current_range_meters":8400,"station_id":"ce4bhgp2rcd13ifvqfd0","pricing_plan_id":"cebpf4jnsgd1na2vs0mg"},{"bike_id":"81b56bef-84bf-4224-afe4-772001018859","system_id":"levelo_inurba_marseille","lat":43.25085,"lon":5.39519,"is_reserved":false,"is_disabled":false,"rental_uris":{"android":"levelo://app?vid=81b56bef-84bf-4224-afe4-772001018859","ios":"levelo://app?vid=81b56bef-84bf-4224-afe4-772001018859"},"vehicle_type_id":"4","last_reported":1739992068,"current_range_meters":8400,"station_id":"ce4bhm12rcd13ifvqgkg","pricing_plan_id":"cebpf4jnsgd1na2vs0mg"},{"bike_id":"9198c6ef-bd5b-45d9-bd7b-e058d791d44b","system_id":"levelo_inurba_marseille","lat":43.2484,"lon":5.37467,"is_reserved":false,"is_disabled":false,"rental_uris":{"android":"levelo://app?vid=9198c6ef-bd5b-45d9-bd7b-e058d791d44b","ios":"levelo://app?vid=9198c6ef-bd5b-45d9-bd7b-e058d791d44b"},"vehicle_type_id":"4","last_reported":1739992068,"current_range_meters":8400,"station_id":"ce4bhgh2rcd13ifvqfb0","pricing_plan_id":"cebpf4jnsgd1na2vs0mg"},{"bike_id":"890764f1-97db-425f-b4d0-913894d12dcd","system_id":"levelo_inurba_marseille","lat":43.31171,"lon":5.38714,"is_reserved":false,"is_disabled":false,"rental_uris":{"android":"levelo://app?vid=890764f1-97db-425f-b4d0-913894d12dcd","ios":"levelo://app?vid=890764f1-97db-425f-b4d0-913894d12dcd"},"vehicle_type_id":"4","last_reported":1739992068,"current_range_meters":7200,"station_id":"ce4bgv12rcd13ifvqcp0","pricing_plan_id":"cebpf4jnsgd1na2vs0mg"},{"bike_id":"f0f61fdf-e262-479f-a259-1997ef9b3f40","system_id":"levelo_inurba_marseille","lat":43.28146,"lon":5.42645,"is_reserved":false,"is_disabled":false,"rental_uris":{"android":"levelo://app?vid=f0f61fdf-e262-479f-a259-1997ef9b3f40","ios":"levelo://app?vid=f0f61fdf-e262-479f-a259-1997ef9b3f40"},"vehicle_type_id":"4","last_reported":1739992068,"current_range_meters":8400,"station_id":"","pricing_plan_id":"cebpf4jnsgd1na2vs0mg"},{"bike_id":"ec2a2a80-692c-4e61-b758-ee418e5968e4","system_id":"levelo_inurba_marseille","lat":43.23957,"lon":5.36642,"is_reserved":false,"is_disabled":false,"rental_uris":{"android":"levelo://app?vid=ec2a2a80-692c-4e61-b758-ee418e5968e4","ios":"levelo://app?vid=ec2a2a80-692c-4e61-b758-ee418e5968e4"},"vehicle_type_id":"4","last_reported":1739992068,"current_range_meters":8400,"station_id":"ce4bhi12rcd13ifvqfp0","pricing_plan_id":"cebpf4jnsgd1na2vs0mg"},{"bike_id":"eb9ac037-fdc9-4f74-b3e1-ced812f7a552","system_id":"levelo_inurba_marseille","lat":43.29534,"lon":5.38541,"is_reserved":false,"is_disabled":false,"rental_uris":{"android":"levelo://app?vid=eb9ac037-fdc9-4f74-b3e1-ced812f7a552","ios":"levelo://app?vid=eb9ac037-fdc9-4f74-b3e1-ced812f7a552"},"vehicle_type_id":"4","last_reported":1739992068,"current_range_meters":8400,"station_id":"ce4bgih2rcd13ifvqba0","pricing_plan_id":"cebpf4jnsgd1na2vs0mg"},{"bike_id":"9e37be39-04aa-42c5-9a37-7196e3b3b833","system_id":"levelo_inurba_marseille","lat":43.24646,"lon":5.388969,"is_reserved":false,"is_disabled":false,"rental_uris":{"android":"levelo://app?vid=9e37be39-04aa-42c5-9a37-7196e3b3b833","ios":"levelo://app?vid=9e37be39-04aa-42c5-9a37-7196e3b3b833"},"vehicle_type_id":"4","last_reported":1739992068,"current_range_meters":9600,"station_id":"ce4bhg12rcd13ifvqf60","pricing_plan_id":"cebpf4jnsgd1na2vs0mg"},{"bike_id":"92b698f7-32bc-4834-b315-a8f6246911d7","system_id":"levelo_inurba_marseille","lat":43.27987,"lon":5.41669,"is_reserved":false,"is_disabled":false,"rental_uris":{"android":"levelo://app?vid=92b698f7-32bc-4834-b315-a8f6246911d7","ios":"levelo://app?vid=92b698f7-32bc-4834-b315-a8f6246911d7"},"vehicle_type_id":"4","last_reported":1739992068,"current_range_meters":8800,"station_id":"ce4bho12rcd13ifvqh1g","pricing_plan_id":"cebpf4jnsgd1na2vs0mg"},{"bike_id":"757ff110-0482-4ccf-8cde-826349ed4767","system_id":"levelo_inurba_marseille","lat":43.31998,"lon":5.38163,"is_reserved":false,"is_disabled":false,"rental_uris":{"android":"levelo://app?vid=757ff110-0482-4ccf-8cde-826349ed4767","ios":"levelo://app?vid=757ff110-0482-4ccf-8cde-826349ed4767"},"vehicle_type_id":"4","last_reported":1739992068,"current_range_meters":12000,"station_id":"ce4bhr12rcd13ifvqhpg","pricing_plan_id":"cebpf4jnsgd1na2vs0mg"},{"bike_id":"c2896a85-bd03-44af-9ec9-88cf4b2c2bef","system_id":"levelo_inurba_marseille","lat":43.27374,"lon":5.36262,"is_reserved":false,"is_disabled":false,"rental_uris":{"android":"levelo://app?vid=c2896a85-bd03-44af-9ec9-88cf4b2c2bef","ios":"levelo://app?vid=c2896a85-bd03-44af-9ec9-88cf4b2c2bef"},"vehicle_type_id":"4","last_reported":1739992068,"current_range_meters":8800,"station_id":"","pricing_plan_id":"cebpf4jnsgd1na2vs0mg"},{"bike_id":"1e21d1d7-0743-409f-8dba-b5aa273e0dae","system_id":"levelo_inurba_marseille","lat":43.27076,"lon":5.42274,"is_reserved":false,"is_disabled":false,"rental_uris":{"android":"levelo://app?vid=1e21d1d7-0743-409f-8dba-b5aa273e0dae","ios":"levelo://app?vid=1e21d1d7-0743-409f-8dba-b5aa273e0dae"},"vehicle_type_id":"4","last_reported":1739992068,"current_range_meters":8800,"station_id":"ce4bhk92rcd13ifvqgb0","pricing_plan_id":"cebpf4jnsgd1na2vs0mg"},{"bike_id":"b1acc7d5-3fa5-4b2e-aa9e-f9b8859de1c0","system_id":"levelo_inurba_marseille","lat":43.2942,"lon":5.38621,"is_reserved":false,"is_disabled":false,"rental_uris":{"android":"levelo://app?vid=b1acc7d5-3fa5-4b2e-aa9e-f9b8859de1c0","ios":"levelo://app?vid=b1acc7d5-3fa5-4b2e-aa9e-f9b8859de1c0"},"vehicle_type_id":"4","last_reported":1739992068,"current_range_meters":8800,"station_id":"ce4bh2h2rcd13ifvqdh0","pricing_plan_id":"cebpf4jnsgd1na2vs0mg"},{"bike_id":"ea1519e7-b5fe-42ac-aa41-a04f66c121d4","system_id":"levelo_inurba_marseille","lat":43.24114,"lon":5.37723,"is_reserved":false,"is_disabled":false,"rental_uris":{"android":"levelo://app?vid=ea1519e7-b5fe-42ac-aa41-a04f66c121d4","ios":"levelo://app?vid=ea1519e7-b5fe-42ac-aa41-a04f66c121d4"},"vehicle_type_id":"4","last_reported":1739992068,"current_range_meters":8800,"station_id":"ce4bhnp2rcd13ifvqgvg","pricing_plan_id":"cebpf4jnsgd1na2vs0mg"},{"bike_id":"7f2b235d-b54a-4ba7-9884-b541f6dd74e7","system_id":"levelo_inurba_marseille","lat":43.27185,"lon":5.40981,"is_reserved":false,"is_disabled":false,"rental_uris":{"android":"levelo://app?vid=7f2b235d-b54a-4ba7-9884-b541f6dd74e7","ios":"levelo://app?vid=7f2b235d-b54a-4ba7-9884-b541f6dd74e7"},"vehicle_type_id":"4","last_reported":1739992068,"current_range_meters":8800,"station_id":"","pricing_plan_id":"cebpf4jnsgd1na2vs0mg"},{"bike_id":"09aaa4e6-5c76-4bb6-bb55-e0f312f04d0a","system_id":"levelo_inurba_marseille","lat":43.27956,"lon":5.41099,"is_reserved":false,"is_disabled":false,"rental_uris":{"android":"levelo://app?vid=09aaa4e6-5c76-4bb6-bb55-e0f312f04d0a","ios":"levelo://app?vid=09aaa4e6-5c76-4bb6-bb55-e0f312f04d0a"},"vehicle_type_id":"4","last_reported":1739992068,"current_range_meters":8800,"station_id":"ce4bhnp2rcd13ifvqh0g","pricing_plan_id":"cebpf4jnsgd1na2vs0mg"},{"bike_id":"658f29d6-f620-4d2d-91e5-2319a105b92f","system_id":"levelo_inurba_marseille","lat":43.26961,"lon":5.38655,"is_reserved":false,"is_disabled":false,"rental_uris":{"android":"levelo://app?vid=658f29d6-f620-4d2d-91e5-2319a105b92f","ios":"levelo://app?vid=658f29d6-f620-4d2d-91e5-2319a105b92f"},"vehicle_type_id":"4","last_reported":1739992068,"current_range_meters":9200,"station_id":"ce4bhh92rcd13ifvqfh0","pricing_plan_id":"cebpf4jnsgd1na2vs0mg"},{"bike_id":"1913ef47-7de4-47b7-bc13-20a7e4a2ac98","system_id":"levelo_inurba_marseille","lat":43.27938,"lon":5.41039,"is_reserved":false,"is_disabled":false,"rental_uris":{"android":"levelo://app?vid=1913ef47-7de4-47b7-bc13-20a7e4a2ac98","ios":"levelo://app?vid=1913ef47-7de4-47b7-bc13-20a7e4a2ac98"},"vehicle_type_id":"4","last_reported":1739992068,"current_range_meters":9200,"station_id":"ce4bhnp2rcd13ifvqh0g","pricing_plan_id":"cebpf4jnsgd1na2vs0mg"},{"bike_id":"563ba10e-c788-442b-aa76-abbee3f1c0c3","system_id":"levelo_inurba_marseille","lat":43.31066,"lon":5.38352,"is_reserved":false,"is_disabled":false,"rental_uris":{"android":"levelo://app?vid=563ba10e-c788-442b-aa76-abbee3f1c0c3","ios":"levelo://app?vid=563ba10e-c788-442b-aa76-abbee3f1c0c3"},"vehicle_type_id":"4","last_reported":1739992068,"current_range_meters":9200,"station_id":"ce4bgv92rcd13ifvqcr0","pricing_plan_id":"cebpf4jnsgd1na2vs0mg"},{"bike_id":"90de8971-db22-4d27-8c08-4575a12860f9","system_id":"levelo_inurba_marseille","lat":43.27169,"lon":5.40992,"is_reserved":false,"is_disabled":false,"rental_uris":{"android":"levelo://app?vid=90de8971-db22-4d27-8c08-4575a12860f9","ios":"levelo://app?vid=90de8971-db22-4d27-8c08-4575a12860f9"},"vehicle_type_id":"4","last_reported":1739992068,"current_range_meters":9200,"station_id":"ce4bhl12rcd13ifvqgf0","pricing_plan_id":"cebpf4jnsgd1na2vs0mg"},{"bike_id":"458242d8-ee3e-4929-9992-f391ffbf4e08","system_id":"levelo_inurba_marseille","lat":43.31487,"lon":5.3731,"is_reserved":false,"is_disabled":false,"rental_uris":{"android":"levelo://app?vid=458242d8-ee3e-4929-9992-f391ffbf4e08","ios":"levelo://app?vid=458242d8-ee3e-4929-9992-f391ffbf4e08"},"vehicle_type_id":"4","last_reported":1739992068,"current_range_meters":9200,"station_id":"ce4bgt12rcd13ifvqcd0","pricing_plan_id":"cebpf4jnsgd1na2vs0mg"},{"bike_id":"e259f14b-f84b-4a37-9d1e-cd66478811ee","system_id":"levelo_inurba_marseille","lat":43.30437,"lon":5.38885,"is_reserved":false,"is_disabled":false,"rental_uris":{"android":"levelo://app?vid=e259f14b-f84b-4a37-9d1e-cd66478811ee","ios":"levelo://app?vid=e259f14b-f84b-4a37-9d1e-cd66478811ee"},"vehicle_type_id":"4","last_reported":1739992068,"current_range_meters":9200,"station_id":"","pricing_plan_id":"cebpf4jnsgd1na2vs0mg"},{"bike_id":"4e1eedec-ed9f-4393-b363-5aa82bc35d39","system_id":"levelo_inurba_marseille","lat":43.27985,"lon":5.41664,"is_reserved":false,"is_disabled":false,"rental_uris":{"android":"levelo://app?vid=4e1eedec-ed9f-4393-b363-5aa82bc35d39","ios":"levelo://app?vid=4e1eedec-ed9f-4393-b363-5aa82bc35d39"},"vehicle_type_id":"4","last_reported":1739992068,"current_range_meters":9200,"station_id":"ce4bho12rcd13ifvqh1g","pricing_plan_id":"cebpf4jnsgd1na2vs0mg"},{"bike_id":"1fc4eb74-d232-4c23-9827-95f8bc004b53","system_id":"levelo_inurba_marseille","lat":43.2669,"lon":5.38263,"is_reserved":false,"is_disabled":true,"rental_uris":{"android":"levelo://app?vid=1fc4eb74-d232-4c23-9827-95f8bc004b53","ios":"levelo://app?vid=1fc4eb74-d232-4c23-9827-95f8bc004b53"},"vehicle_type_id":"4","last_reported":1739992068,"current_range_meters":9600,"station_id":"ce4bhg92rcd13ifvqf90","pricing_plan_id":"cebpf4jnsgd1na2vs0mg"},{"bike_id":"aa01abaf-358b-487c-9891-68ffa1071e4c","system_id":"levelo_inurba_marseille","lat":43.28157,"lon":5.42641,"is_reserved":false,"is_disabled":false,"rental_uris":{"android":"levelo://app?vid=aa01abaf-358b-487c-9891-68ffa1071e4c","ios":"levelo://app?vid=aa01abaf-358b-487c-9891-68ffa1071e4c"},"vehicle_type_id":"4","last_reported":1739992068,"current_range_meters":9600,"station_id":"","pricing_plan_id":"cebpf4jnsgd1na2vs0mg"},{"bike_id":"4e196b90-ab7d-481d-9880-0bf62dd15dbf","system_id":"levelo_inurba_marseille","lat":43.28399,"lon":5.37511,"is_reserved":false,"is_disabled":false,"rental_uris":{"android":"levelo://app?vid=4e196b90-ab7d-481d-9880-0bf62dd15dbf","ios":"levelo://app?vid=4e196b90-ab7d-481d-9880-0bf62dd15dbf"},"vehicle_type_id":"4","last_reported":1739992068,"current_range_meters":9600,"station_id":"ce4bh412rcd13ifvqds0","pricing_plan_id":"cebpf4jnsgd1na2vs0mg"},{"bike_id":"db7f2d58-492d-4297-aa78-ce0ad99a0a74","system_id":"levelo_inurba_marseille","lat":43.31525,"lon":5.38031,"is_reserved":false,"is_disabled":false,"rental_uris":{"android":"levelo://app?vid=db7f2d58-492d-4297-aa78-ce0ad99a0a74","ios":"levelo://app?vid=db7f2d58-492d-4297-aa78-ce0ad99a0a74"},"vehicle_type_id":"4","last_reported":1739992068,"current_range_meters":8800,"station_id":"ce4bhb92rcd13ifvqen0","pricing_plan_id":"cebpf4jnsgd1na2vs0mg"},{"bike_id":"4aed695c-9507-48fa-a89d-51f348b77a8b","system_id":"levelo_inurba_marseille","lat":43.29518,"lon":5.39403,"is_reserved":false,"is_disabled":false,"rental_uris":{"android":"levelo://app?vid=4aed695c-9507-48fa-a89d-51f348b77a8b","ios":"levelo://app?vid=4aed695c-9507-48fa-a89d-51f348b77a8b"},"vehicle_type_id":"4","last_reported":1739992068,"current_range_meters":9600,"station_id":"ce4bh292rcd13ifvqdf0","pricing_plan_id":"cebpf4jnsgd1na2vs0mg"},{"bike_id":"fb2dcb56-a41a-4581-91e7-410d4fea982c","system_id":"levelo_inurba_marseille","lat":43.28468,"lon":5.3841,"is_reserved":false,"is_disabled":false,"rental_uris":{"android":"levelo://app?vid=fb2dcb56-a41a-4581-91e7-410d4fea982c","ios":"levelo://app?vid=fb2dcb56-a41a-4581-91e7-410d4fea982c"},"vehicle_type_id":"4","last_reported":1739992068,"current_range_meters":9600,"station_id":"ce4bh512rcd13ifvqe3g","pricing_plan_id":"cebpf4jnsgd1na2vs0mg"},{"bike_id":"f8a1eefe-5190-4327-95c3-8138f343fe57","system_id":"levelo_inurba_marseille","lat":43.31184,"lon":5.39341,"is_reserved":false,"is_disabled":false,"rental_uris":{"android":"levelo://app?vid=f8a1eefe-5190-4327-95c3-8138f343fe57","ios":"levelo://app?vid=f8a1eefe-5190-4327-95c3-8138f343fe57"},"vehicle_type_id":"4","last_reported":1739992068,"current_range_meters":9600,"station_id":"","pricing_plan_id":"cebpf4jnsgd1na2vs0mg"},{"bike_id":"b43167f2-2fa8-4366-a489-098460043924","system_id":"levelo_inurba_marseille","lat":43.28138,"lon":5.42636,"is_reserved":false,"is_disabled":false,"rental_uris":{"android":"levelo://app?vid=b43167f2-2fa8-4366-a489-098460043924","ios":"levelo://app?vid=b43167f2-2fa8-4366-a489-098460043924"},"vehicle_type_id":"4","last_reported":1739992068,"current_range_meters":10000,"station_id":"ce4bhnh2rcd13ifvqgug","pricing_plan_id":"cebpf4jnsgd1na2vs0mg"},{"bike_id":"10de76c7-b15d-44b9-8f00-bf191194054b","system_id":"levelo_inurba_marseille","lat":43.29633,"lon":5.40598,"is_reserved":false,"is_disabled":false,"rental_uris":{"android":"levelo://app?vid=10de76c7-b15d-44b9-8f00-bf191194054b","ios":"levelo://app?vid=10de76c7-b15d-44b9-8f00-bf191194054b"},"vehicle_type_id":"4","last_reported":1739992068,"current_range_meters":10000,"station_id":"ce4bh0h2rcd13ifvqd60","pricing_plan_id":"cebpf4jnsgd1na2vs0mg"},{"bike_id":"591880ff-a463-43b3-b3b7-4bedb53886a5","system_id":"levelo_inurba_marseille","lat":43.29533,"lon":5.38537,"is_reserved":false,"is_disabled":false,"rental_uris":{"android":"levelo://app?vid=591880ff-a463-43b3-b3b7-4bedb53886a5","ios":"levelo://app?vid=591880ff-a463-43b3-b3b7-4bedb53886a5"},"vehicle_type_id":"4","last_reported":1739992068,"current_range_meters":10000,"station_id":"ce4bgih2rcd13ifvqba0","pricing_plan_id":"cebpf4jnsgd1na2vs0mg"},{"bike_id":"f0b88713-2139-4e97-b426-2bd0f67d9c2a","system_id":"levelo_inurba_marseille","lat":43.24817,"lon":5.3746,"is_reserved":false,"is_disabled":false,"rental_uris":{"android":"levelo://app?vid=f0b88713-2139-4e97-b426-2bd0f67d9c2a","ios":"levelo://app?vid=f0b88713-2139-4e97-b426-2bd0f67d9c2a"},"vehicle_type_id":"4","last_reported":1739992068,"current_range_meters":10000,"station_id":"ce4bhgh2rcd13ifvqfb0","pricing_plan_id":"cebpf4jnsgd1na2vs0mg"},{"bike_id":"ba0a4dbe-d370-492e-a789-44c6ef69c02b","system_id":"levelo_inurba_marseille","lat":43.28606,"lon":5.35102,"is_reserved":false,"is_disabled":true,"rental_uris":{"android":"levelo://app?vid=ba0a4dbe-d370-492e-a789-44c6ef69c02b","ios":"levelo://app?vid=ba0a4dbe-d370-492e-a789-44c6ef69c02b"},"vehicle_type_id":"4","last_reported":1739992068,"current_range_meters":10000,"station_id":"ce4bhch2rcd13ifvqeug","pricing_plan_id":"cebpf4jnsgd1na2vs0mg"},{"bike_id":"f027fe38-3f5d-42fa-b16a-68ca60104c09","system_id":"levelo_inurba_marseille","lat":43.24173,"lon":5.36404,"is_reserved":false,"is_disabled":false,"rental_uris":{"android":"levelo://app?vid=f027fe38-3f5d-42fa-b16a-68ca60104c09","ios":"levelo://app?vid=f027fe38-3f5d-42fa-b16a-68ca60104c09"},"vehicle_type_id":"4","last_reported":1739992068,"current_range_meters":10000,"station_id":"","pricing_plan_id":"cebpf4jnsgd1na2vs0mg"},{"bike_id":"9bbfe5ed-d58a-4e48-8bf2-f2fcff514aed","system_id":"levelo_inurba_marseille","lat":43.31114,"lon":5.3778,"is_reserved":false,"is_disabled":false,"rental_uris":{"android":"levelo://app?vid=9bbfe5ed-d58a-4e48-8bf2-f2fcff514aed","ios":"levelo://app?vid=9bbfe5ed-d58a-4e48-8bf2-f2fcff514aed"},"vehicle_type_id":"4","last_reported":1739992068,"current_range_meters":10000,"station_id":"ce4bgt92rcd13ifvqcg0","pricing_plan_id":"cebpf4jnsgd1na2vs0mg"},{"bike_id":"0b1a3b32-459a-4ff9-a388-d16482304482","system_id":"levelo_inurba_marseille","lat":43.28005,"lon":5.39986,"is_reserved":false,"is_disabled":false,"rental_uris":{"android":"levelo://app?vid=0b1a3b32-459a-4ff9-a388-d16482304482","ios":"levelo://app?vid=0b1a3b32-459a-4ff9-a388-d16482304482"},"vehicle_type_id":"4","last_reported":1739992068,"current_range_meters":10800,"station_id":"","pricing_plan_id":"cebpf4jnsgd1na2vs0mg"},{"bike_id":"c8a53107-ae25-4a68-b38d-8c59dce22215","system_id":"levelo_inurba_marseille","lat":43.28804,"lon":5.43857,"is_reserved":false,"is_disabled":false,"rental_uris":{"android":"levelo://app?vid=c8a53107-ae25-4a68-b38d-8c59dce22215","ios":"levelo://app?vid=c8a53107-ae25-4a68-b38d-8c59dce22215"},"vehicle_type_id":"4","last_reported":1739992068,"current_range_meters":10800,"station_id":"","pricing_plan_id":"cebpf4jnsgd1na2vs0mg"},{"bike_id":"63c4cf47-dbff-4d5e-a88a-080b99df99de","system_id":"levelo_inurba_marseille","lat":43.2952,"lon":5.38893,"is_reserved":false,"is_disabled":true,"rental_uris":{"android":"levelo://app?vid=63c4cf47-dbff-4d5e-a88a-080b99df99de","ios":"levelo://app?vid=63c4cf47-dbff-4d5e-a88a-080b99df99de"},"vehicle_type_id":"4","last_reported":1739992068,"current_range_meters":10800,"station_id":"","pricing_plan_id":"cebpf4jnsgd1na2vs0mg"},{"bike_id":"1d63a175-89ef-49ff-9ead-dfe9ed6c22cf","system_id":"levelo_inurba_marseille","lat":43.24693,"lon":5.39437,"is_reserved":false,"is_disabled":false,"rental_uris":{"android":"levelo://app?vid=1d63a175-89ef-49ff-9ead-dfe9ed6c22cf","ios":"levelo://app?vid=1d63a175-89ef-49ff-9ead-dfe9ed6c22cf"},"vehicle_type_id":"4","last_reported":1739992068,"current_range_meters":10800,"station_id":"","pricing_plan_id":"cebpf4jnsgd1na2vs0mg"},{"bike_id":"17589526-d9ec-4717-9b34-e70828398e39","system_id":"levelo_inurba_marseille","lat":43.24811,"lon":5.37455,"is_reserved":false,"is_disabled":false,"rental_uris":{"android":"levelo://app?vid=17589526-d9ec-4717-9b34-e70828398e39","ios":"levelo://app?vid=17589526-d9ec-4717-9b34-e70828398e39"},"vehicle_type_id":"4","last_reported":1739992068,"current_range_meters":10800,"station_id":"ce4bhgh2rcd13ifvqfb0","pricing_plan_id":"cebpf4jnsgd1na2vs0mg"},{"bike_id":"cbd25e6f-bc39-447d-945c-2f5c08017e77","system_id":"levelo_inurba_marseille","lat":43.28847,"lon":5.39314,"is_reserved":false,"is_disabled":false,"rental_uris":{"android":"levelo://app?vid=cbd25e6f-bc39-447d-945c-2f5c08017e77","ios":"levelo://app?vid=cbd25e6f-bc39-447d-945c-2f5c08017e77"},"vehicle_type_id":"4","last_reported":1739992068,"current_range_meters":10800,"station_id":"ce4bh2p2rcd13ifvqdi0","pricing_plan_id":"cebpf4jnsgd1na2vs0mg"},{"bike_id":"dcf11c0c-452a-4a2c-a570-580474f0abb6","system_id":"levelo_inurba_marseille","lat":43.29424,"lon":5.38621,"is_reserved":false,"is_disabled":false,"rental_uris":{"android":"levelo://app?vid=dcf11c0c-452a-4a2c-a570-580474f0abb6","ios":"levelo://app?vid=dcf11c0c-452a-4a2c-a570-580474f0abb6"},"vehicle_type_id":"4","last_reported":1739992068,"current_range_meters":10800,"station_id":"ce4bh2h2rcd13ifvqdh0","pricing_plan_id":"cebpf4jnsgd1na2vs0mg"},{"bike_id":"6bdde966-f914-4c4c-bf01-87a81f078737","system_id":"levelo_inurba_marseille","lat":43.31073,"lon":5.38358,"is_reserved":false,"is_disabled":false,"rental_uris":{"android":"levelo://app?vid=6bdde966-f914-4c4c-bf01-87a81f078737","ios":"levelo://app?vid=6bdde966-f914-4c4c-bf01-87a81f078737"},"vehicle_type_id":"4","last_reported":1739992068,"current_range_meters":10800,"station_id":"ce4bgv92rcd13ifvqcr0","pricing_plan_id":"cebpf4jnsgd1na2vs0mg"},{"bike_id":"d946f793-0e78-48f8-a078-376b8f4868d7","system_id":"levelo_inurba_marseille","lat":43.27386,"lon":5.36262,"is_reserved":false,"is_disabled":false,"rental_uris":{"android":"levelo://app?vid=d946f793-0e78-48f8-a078-376b8f4868d7","ios":"levelo://app?vid=d946f793-0e78-48f8-a078-376b8f4868d7"},"vehicle_type_id":"4","last_reported":1739992068,"current_range_meters":10800,"station_id":"","pricing_plan_id":"cebpf4jnsgd1na2vs0mg"},{"bike_id":"fc2fedc1-5af4-44d0-b07a-8f63656f5850","system_id":"levelo_inurba_marseille","lat":43.29419,"lon":5.38626,"is_reserved":false,"is_disabled":false,"rental_uris":{"android":"levelo://app?vid=fc2fedc1-5af4-44d0-b07a-8f63656f5850","ios":"levelo://app?vid=fc2fedc1-5af4-44d0-b07a-8f63656f5850"},"vehicle_type_id":"4","last_reported":1739992068,"current_range_meters":10800,"station_id":"ce4bh2h2rcd13ifvqdh0","pricing_plan_id":"cebpf4jnsgd1na2vs0mg"},{"bike_id":"cdbb8072-9929-432a-a09b-b4bc465abf41","system_id":"levelo_inurba_marseille","lat":43.29417,"lon":5.38628,"is_reserved":false,"is_disabled":false,"rental_uris":{"android":"levelo://app?vid=cdbb8072-9929-432a-a09b-b4bc465abf41","ios":"levelo://app?vid=cdbb8072-9929-432a-a09b-b4bc465abf41"},"vehicle_type_id":"4","last_reported":1739992068,"current_range_meters":11200,"station_id":"ce4bh2h2rcd13ifvqdh0","pricing_plan_id":"cebpf4jnsgd1na2vs0mg"},{"bike_id":"4e2b468f-8f4a-4d73-8517-62fa28d3fb4c","system_id":"levelo_inurba_marseille","lat":43.24807,"lon":5.37457,"is_reserved":false,"is_disabled":false,"rental_uris":{"android":"levelo://app?vid=4e2b468f-8f4a-4d73-8517-62fa28d3fb4c","ios":"levelo://app?vid=4e2b468f-8f4a-4d73-8517-62fa28d3fb4c"},"vehicle_type_id":"4","last_reported":1739992068,"current_range_meters":11200,"station_id":"ce4bhgh2rcd13ifvqfb0","pricing_plan_id":"cebpf4jnsgd1na2vs0mg"},{"bike_id":"a00fb5cd-e0d2-4f96-befb-5275c0df0c87","system_id":"levelo_inurba_marseille","lat":43.27988,"lon":5.41649,"is_reserved":false,"is_disabled":false,"rental_uris":{"android":"levelo://app?vid=a00fb5cd-e0d2-4f96-befb-5275c0df0c87","ios":"levelo://app?vid=a00fb5cd-e0d2-4f96-befb-5275c0df0c87"},"vehicle_type_id":"4","last_reported":1739992068,"current_range_meters":11200,"station_id":"ce4bho12rcd13ifvqh1g","pricing_plan_id":"cebpf4jnsgd1na2vs0mg"},{"bike_id":"c67fb496-8441-458a-af2d-8f07c087bdd0","system_id":"levelo_inurba_marseille","lat":43.24173,"lon":5.36409,"is_reserved":false,"is_disabled":true,"rental_uris":{"android":"levelo://app?vid=c67fb496-8441-458a-af2d-8f07c087bdd0","ios":"levelo://app?vid=c67fb496-8441-458a-af2d-8f07c087bdd0"},"vehicle_type_id":"4","last_reported":1739992068,"current_range_meters":11200,"station_id":"","pricing_plan_id":"cebpf4jnsgd1na2vs0mg"},{"bike_id":"24dd12c1-4d8a-40c0-b521-a98d2d462c41","system_id":"levelo_inurba_marseille","lat":43.24172,"lon":5.36397,"is_reserved":false,"is_disabled":false,"rental_uris":{"android":"levelo://app?vid=24dd12c1-4d8a-40c0-b521-a98d2d462c41","ios":"levelo://app?vid=24dd12c1-4d8a-40c0-b521-a98d2d462c41"},"vehicle_type_id":"4","last_reported":1739992068,"current_range_meters":11200,"station_id":"","pricing_plan_id":"cebpf4jnsgd1na2vs0mg"},{"bike_id":"f721a9df-a139-49b7-985b-8a115a26984b","system_id":"levelo_inurba_marseille","lat":43.2794,"lon":5.41045,"is_reserved":false,"is_disabled":false,"rental_uris":{"android":"levelo://app?vid=f721a9df-a139-49b7-985b-8a115a26984b","ios":"levelo://app?vid=f721a9df-a139-49b7-985b-8a115a26984b"},"vehicle_type_id":"4","last_reported":1739992068,"current_range_meters":11200,"station_id":"","pricing_plan_id":"cebpf4jnsgd1na2vs0mg"},{"bike_id":"88cc320d-3ee5-48af-861d-0c8ed2b1342b","system_id":"levelo_inurba_marseille","lat":43.29263,"lon":5.38424,"is_reserved":false,"is_disabled":false,"rental_uris":{"android":"levelo://app?vid=88cc320d-3ee5-48af-861d-0c8ed2b1342b","ios":"levelo://app?vid=88cc320d-3ee5-48af-861d-0c8ed2b1342b"},"vehicle_type_id":"4","last_reported":1739992068,"current_range_meters":11200,"station_id":"","pricing_plan_id":"cebpf4jnsgd1na2vs0mg"},{"bike_id":"f6350735-6442-43a4-8b3b-2ce120baee8f","system_id":"levelo_inurba_marseille","lat":43.31079,"lon":5.38356,"is_reserved":false,"is_disabled":false,"rental_uris":{"android":"levelo://app?vid=f6350735-6442-43a4-8b3b-2ce120baee8f","ios":"levelo://app?vid=f6350735-6442-43a4-8b3b-2ce120baee8f"},"vehicle_type_id":"4","last_reported":1739992068,"current_range_meters":11600,"station_id":"ce4bgv92rcd13ifvqcr0","pricing_plan_id":"cebpf4jnsgd1na2vs0mg"},{"bike_id":"3b777e0c-67a9-4667-9a70-5a87d8b66039","system_id":"levelo_inurba_marseille","lat":43.29713,"lon":5.36609,"is_reserved":false,"is_disabled":false,"rental_uris":{"android":"levelo://app?vid=3b777e0c-67a9-4667-9a70-5a87d8b66039","ios":"levelo://app?vid=3b777e0c-67a9-4667-9a70-5a87d8b66039"},"vehicle_type_id":"4","last_reported":1739992068,"current_range_meters":11600,"station_id":"","pricing_plan_id":"cebpf4jnsgd1na2vs0mg"},{"bike_id":"3fa131c8-d3bf-4fb9-b400-1daf371dcaa7","system_id":"levelo_inurba_marseille","lat":43.27185,"lon":5.40997,"is_reserved":false,"is_disabled":false,"rental_uris":{"android":"levelo://app?vid=3fa131c8-d3bf-4fb9-b400-1daf371dcaa7","ios":"levelo://app?vid=3fa131c8-d3bf-4fb9-b400-1daf371dcaa7"},"vehicle_type_id":"4","last_reported":1739992068,"current_range_meters":11600,"station_id":"ce4bhl12rcd13ifvqgf0","pricing_plan_id":"cebpf4jnsgd1na2vs0mg"},{"bike_id":"ecf026df-2bc3-4b40-a624-0ee840e0bf6b","system_id":"levelo_inurba_marseille","lat":43.28671,"lon":5.38678,"is_reserved":false,"is_disabled":false,"rental_uris":{"android":"levelo://app?vid=ecf026df-2bc3-4b40-a624-0ee840e0bf6b","ios":"levelo://app?vid=ecf026df-2bc3-4b40-a624-0ee840e0bf6b"},"vehicle_type_id":"4","last_reported":1739992068,"current_range_meters":11600,"station_id":"","pricing_plan_id":"cebpf4jnsgd1na2vs0mg"},{"bike_id":"2b0f3027-2637-4017-b178-af9aa7226bad","system_id":"levelo_inurba_marseille","lat":43.30891,"lon":5.37181,"is_reserved":false,"is_disabled":false,"rental_uris":{"android":"levelo://app?vid=2b0f3027-2637-4017-b178-af9aa7226bad","ios":"levelo://app?vid=2b0f3027-2637-4017-b178-af9aa7226bad"},"vehicle_type_id":"4","last_reported":1739992068,"current_range_meters":8400,"station_id":"ce4bguh2rcd13ifvqckg","pricing_plan_id":"cebpf4jnsgd1na2vs0mg"},{"bike_id":"e28843be-a33b-41ca-b991-9b53cffb4db8","system_id":"levelo_inurba_marseille","lat":43.28154,"lon":5.42642,"is_reserved":false,"is_disabled":false,"rental_uris":{"android":"levelo://app?vid=e28843be-a33b-41ca-b991-9b53cffb4db8","ios":"levelo://app?vid=e28843be-a33b-41ca-b991-9b53cffb4db8"},"vehicle_type_id":"4","last_reported":1739992068,"current_range_meters":11600,"station_id":"ce4bhnh2rcd13ifvqgug","pricing_plan_id":"cebpf4jnsgd1na2vs0mg"},{"bike_id":"26779595-c177-40e8-a988-d5570ab1009d","system_id":"levelo_inurba_marseille","lat":43.29177,"lon":5.39759,"is_reserved":false,"is_disabled":false,"rental_uris":{"android":"levelo://app?vid=26779595-c177-40e8-a988-d5570ab1009d","ios":"levelo://app?vid=26779595-c177-40e8-a988-d5570ab1009d"},"vehicle_type_id":"4","last_reported":1739992068,"current_range_meters":11600,"station_id":"","pricing_plan_id":"cebpf4jnsgd1na2vs0mg"},{"bike_id":"c323e2ff-640f-47b0-bbfe-fac4271a621c","system_id":"levelo_inurba_marseille","lat":43.28433,"lon":5.34882,"is_reserved":false,"is_disabled":true,"rental_uris":{"android":"levelo://app?vid=c323e2ff-640f-47b0-bbfe-fac4271a621c","ios":"levelo://app?vid=c323e2ff-640f-47b0-bbfe-fac4271a621c"},"vehicle_type_id":"4","last_reported":1739992068,"current_range_meters":12000,"station_id":"ce4bhbh2rcd13ifvqepg","pricing_plan_id":"cebpf4jnsgd1na2vs0mg"},{"bike_id":"e2596add-e568-49b6-a063-b6868f5c61f8","system_id":"levelo_inurba_marseille","lat":43.24828,"lon":5.37468,"is_reserved":false,"is_disabled":false,"rental_uris":{"android":"levelo://app?vid=e2596add-e568-49b6-a063-b6868f5c61f8","ios":"levelo://app?vid=e2596add-e568-49b6-a063-b6868f5c61f8"},"vehicle_type_id":"4","last_reported":1739992068,"current_range_meters":12000,"station_id":"ce4bhgh2rcd13ifvqfb0","pricing_plan_id":"cebpf4jnsgd1na2vs0mg"},{"bike_id":"34d14ec0-9a1d-4d07-8158-52ff5d0c0371","system_id":"levelo_inurba_marseille","lat":43.29421,"lon":5.38043,"is_reserved":false,"is_disabled":false,"rental_uris":{"android":"levelo://app?vid=34d14ec0-9a1d-4d07-8158-52ff5d0c0371","ios":"levelo://app?vid=34d14ec0-9a1d-4d07-8158-52ff5d0c0371"},"vehicle_type_id":"4","last_reported":1739992068,"current_range_meters":12000,"station_id":"","pricing_plan_id":"cebpf4jnsgd1na2vs0mg"},{"bike_id":"25b882a8-978b-479f-b5d8-0b9187134f9b","system_id":"levelo_inurba_marseille","lat":43.29254,"lon":5.38436,"is_reserved":false,"is_disabled":false,"rental_uris":{"android":"levelo://app?vid=25b882a8-978b-479f-b5d8-0b9187134f9b","ios":"levelo://app?vid=25b882a8-978b-479f-b5d8-0b9187134f9b"},"vehicle_type_id":"4","last_reported":1739992068,"current_range_meters":12000,"station_id":"ce4bh692rcd13ifvqea0","pricing_plan_id":"cebpf4jnsgd1na2vs0mg"},{"bike_id":"0d99f38c-21cb-420c-a150-6dace11eb552","system_id":"levelo_inurba_marseille","lat":43.29162,"lon":5.37165,"is_reserved":false,"is_disabled":false,"rental_uris":{"android":"levelo://app?vid=0d99f38c-21cb-420c-a150-6dace11eb552","ios":"levelo://app?vid=0d99f38c-21cb-420c-a150-6dace11eb552"},"vehicle_type_id":"4","last_reported":1739992068,"current_range_meters":12000,"station_id":"ce4bha92rcd13ifvqeh0","pricing_plan_id":"cebpf4jnsgd1na2vs0mg"},{"bike_id":"2d501f2b-876d-4ebc-927d-8c42a258944b","system_id":"levelo_inurba_marseille","lat":43.271803,"lon":5.409957,"is_reserved":false,"is_disabled":false,"rental_uris":{"android":"levelo://app?vid=2d501f2b-876d-4ebc-927d-8c42a258944b","ios":"levelo://app?vid=2d501f2b-876d-4ebc-927d-8c42a258944b"},"vehicle_type_id":"4","last_reported":1739992068,"current_range_meters":12000,"station_id":"ce4bhl12rcd13ifvqgf0","pricing_plan_id":"cebpf4jnsgd1na2vs0mg"},{"bike_id":"0dd0cf86-b0b4-4e82-9ad8-1b09307b0b44","system_id":"levelo_inurba_marseille","lat":43.31244,"lon":5.40155,"is_reserved":false,"is_disabled":false,"rental_uris":{"android":"levelo://app?vid=0dd0cf86-b0b4-4e82-9ad8-1b09307b0b44","ios":"levelo://app?vid=0dd0cf86-b0b4-4e82-9ad8-1b09307b0b44"},"vehicle_type_id":"4","last_reported":1739992068,"current_range_meters":12000,"station_id":"ce4bh092rcd13ifvqd30","pricing_plan_id":"cebpf4jnsgd1na2vs0mg"},{"bike_id":"fc971b16-bef3-4b6d-813c-ffc8ffa48842","system_id":"levelo_inurba_marseille","lat":43.2841,"lon":5.34986,"is_reserved":false,"is_disabled":true,"rental_uris":{"android":"levelo://app?vid=fc971b16-bef3-4b6d-813c-ffc8ffa48842","ios":"levelo://app?vid=fc971b16-bef3-4b6d-813c-ffc8ffa48842"},"vehicle_type_id":"4","last_reported":1739992068,"current_range_meters":12000,"station_id":"","pricing_plan_id":"cebpf4jnsgd1na2vs0mg"},{"bike_id":"57c56b10-c4b9-4076-8b77-9581c85e8977","system_id":"levelo_inurba_marseille","lat":43.28672,"lon":5.38668,"is_reserved":false,"is_disabled":false,"rental_uris":{"android":"levelo://app?vid=57c56b10-c4b9-4076-8b77-9581c85e8977","ios":"levelo://app?vid=57c56b10-c4b9-4076-8b77-9581c85e8977"},"vehicle_type_id":"4","last_reported":1739992068,"current_range_meters":12000,"station_id":"ce4bh492rcd13ifvqdug","pricing_plan_id":"cebpf4jnsgd1na2vs0mg"},{"bike_id":"79b3df49-fc42-4374-8de7-1ea3841d735e","system_id":"levelo_inurba_marseille","lat":43.28621,"lon":5.35104,"is_reserved":false,"is_disabled":false,"rental_uris":{"android":"levelo://app?vid=79b3df49-fc42-4374-8de7-1ea3841d735e","ios":"levelo://app?vid=79b3df49-fc42-4374-8de7-1ea3841d735e"},"vehicle_type_id":"4","last_reported":1739992068,"current_range_meters":12000,"station_id":"ce4bhch2rcd13ifvqeug","pricing_plan_id":"cebpf4jnsgd1na2vs0mg"},{"bike_id":"5180f318-4948-4085-aaf1-5f3160b57dbe","system_id":"levelo_inurba_marseille","lat":43.2761,"lon":5.36112,"is_reserved":false,"is_disabled":true,"rental_uris":{"android":"levelo://app?vid=5180f318-4948-4085-aaf1-5f3160b57dbe","ios":"levelo://app?vid=5180f318-4948-4085-aaf1-5f3160b57dbe"},"vehicle_type_id":"4","last_reported":1739992068,"current_range_meters":12000,"station_id":"","pricing_plan_id":"cebpf4jnsgd1na2vs0mg"},{"bike_id":"5089bb88-a0cd-4434-a1a9-f3d5b67361c6","system_id":"levelo_inurba_marseille","lat":43.24371,"lon":5.38744,"is_reserved":false,"is_disabled":false,"rental_uris":{"android":"levelo://app?vid=5089bb88-a0cd-4434-a1a9-f3d5b67361c6","ios":"levelo://app?vid=5089bb88-a0cd-4434-a1a9-f3d5b67361c6"},"vehicle_type_id":"4","last_reported":1739992068,"current_range_meters":12400,"station_id":"","pricing_plan_id":"cebpf4jnsgd1na2vs0mg"},{"bike_id":"fac663ce-d517-49a1-bf02-0c2d21df1952","system_id":"levelo_inurba_marseille","lat":43.29259,"lon":5.38434,"is_reserved":false,"is_disabled":false,"rental_uris":{"android":"levelo://app?vid=fac663ce-d517-49a1-bf02-0c2d21df1952","ios":"levelo://app?vid=fac663ce-d517-49a1-bf02-0c2d21df1952"},"vehicle_type_id":"4","last_reported":1739992068,"current_range_meters":12400,"station_id":"ce4bh692rcd13ifvqea0","pricing_plan_id":"cebpf4jnsgd1na2vs0mg"},{"bike_id":"051eb580-3ffd-4379-af44-b05c19e0cb0b","system_id":"levelo_inurba_marseille","lat":43.29987,"lon":5.37184,"is_reserved":false,"is_disabled":false,"rental_uris":{"android":"levelo://app?vid=051eb580-3ffd-4379-af44-b05c19e0cb0b","ios":"levelo://app?vid=051eb580-3ffd-4379-af44-b05c19e0cb0b"},"vehicle_type_id":"4","last_reported":1739992068,"current_range_meters":12400,"station_id":"ce4bgr92rcd13ifvqc7g","pricing_plan_id":"cebpf4jnsgd1na2vs0mg"},{"bike_id":"cb049a0a-5891-4c34-89e5-668ea1aab33b","system_id":"levelo_inurba_marseille","lat":43.2293,"lon":5.35371,"is_reserved":false,"is_disabled":false,"rental_uris":{"android":"levelo://app?vid=cb049a0a-5891-4c34-89e5-668ea1aab33b","ios":"levelo://app?vid=cb049a0a-5891-4c34-89e5-668ea1aab33b"},"vehicle_type_id":"4","last_reported":1739992068,"current_range_meters":12000,"station_id":"cpo3532slgdg3j2ikp40","pricing_plan_id":"cebpf4jnsgd1na2vs0mg"},{"bike_id":"17330293-96bf-4193-a3d9-b45205b6bf08","system_id":"levelo_inurba_marseille","lat":43.30357,"lon":5.41879,"is_reserved":false,"is_disabled":false,"rental_uris":{"android":"levelo://app?vid=17330293-96bf-4193-a3d9-b45205b6bf08","ios":"levelo://app?vid=17330293-96bf-4193-a3d9-b45205b6bf08"},"vehicle_type_id":"4","last_reported":1739992068,"current_range_meters":12400,"station_id":"ce4bhop2rcd13ifvqh7g","pricing_plan_id":"cebpf4jnsgd1na2vs0mg"},{"bike_id":"1c3272fa-1809-488d-8709-707e4d5bf70c","system_id":"levelo_inurba_marseille","lat":43.31883,"lon":5.40735,"is_reserved":false,"is_disabled":false,"rental_uris":{"android":"levelo://app?vid=1c3272fa-1809-488d-8709-707e4d5bf70c","ios":"levelo://app?vid=1c3272fa-1809-488d-8709-707e4d5bf70c"},"vehicle_type_id":"4","last_reported":1739992068,"current_range_meters":11200,"station_id":"ce4bhq12rcd13ifvqhig","pricing_plan_id":"cebpf4jnsgd1na2vs0mg"},{"bike_id":"b64778c2-2434-4409-b125-e965a1fd469a","system_id":"levelo_inurba_marseille","lat":43.30295,"lon":5.36694,"is_reserved":false,"is_disabled":false,"rental_uris":{"android":"levelo://app?vid=b64778c2-2434-4409-b125-e965a1fd469a","ios":"levelo://app?vid=b64778c2-2434-4409-b125-e965a1fd469a"},"vehicle_type_id":"4","last_reported":1739992068,"current_range_meters":12400,"station_id":"ce4bgs12rcd13ifvqcag","pricing_plan_id":"cebpf4jnsgd1na2vs0mg"},{"bike_id":"dc668e08-69cb-4d0a-8681-0d722406f8e3","system_id":"levelo_inurba_marseille","lat":43.30101,"lon":5.3877,"is_reserved":false,"is_disabled":false,"rental_uris":{"android":"levelo://app?vid=dc668e08-69cb-4d0a-8681-0d722406f8e3","ios":"levelo://app?vid=dc668e08-69cb-4d0a-8681-0d722406f8e3"},"vehicle_type_id":"4","last_reported":1739992068,"current_range_meters":14400,"station_id":"ce4bgnh2rcd13ifvqc0g","pricing_plan_id":"cebpf4jnsgd1na2vs0mg"},{"bike_id":"c964018a-d34f-46d9-8f11-22ee6aea6078","system_id":"levelo_inurba_marseille","lat":43.29282,"lon":5.36836,"is_reserved":false,"is_disabled":false,"rental_uris":{"android":"levelo://app?vid=c964018a-d34f-46d9-8f11-22ee6aea6078","ios":"levelo://app?vid=c964018a-d34f-46d9-8f11-22ee6aea6078"},"vehicle_type_id":"4","last_reported":1739992068,"current_range_meters":12800,"station_id":"ce4bhbp2rcd13ifvqesg","pricing_plan_id":"cebpf4jnsgd1na2vs0mg"},{"bike_id":"8e168360-906c-46d1-a5e8-2f11e37e18f2","system_id":"levelo_inurba_marseille","lat":43.29221,"lon":5.36074,"is_reserved":false,"is_disabled":false,"rental_uris":{"android":"levelo://app?vid=8e168360-906c-46d1-a5e8-2f11e37e18f2","ios":"levelo://app?vid=8e168360-906c-46d1-a5e8-2f11e37e18f2"},"vehicle_type_id":"4","last_reported":1739992068,"current_range_meters":13600,"station_id":"ce4bhbh2rcd13ifvqeqg","pricing_plan_id":"cebpf4jnsgd1na2vs0mg"},{"bike_id":"37e9cf3c-f948-43e1-8b8e-ce5fb768305c","system_id":"levelo_inurba_marseille","lat":43.29423,"lon":5.38615,"is_reserved":false,"is_disabled":false,"rental_uris":{"android":"levelo://app?vid=37e9cf3c-f948-43e1-8b8e-ce5fb768305c","ios":"levelo://app?vid=37e9cf3c-f948-43e1-8b8e-ce5fb768305c"},"vehicle_type_id":"4","last_reported":1739992068,"current_range_meters":13600,"station_id":"","pricing_plan_id":"cebpf4jnsgd1na2vs0mg"},{"bike_id":"953f3f2c-cea1-4272-a8c8-0b503a5f2bed","system_id":"levelo_inurba_marseille","lat":43.28,"lon":5.41666,"is_reserved":false,"is_disabled":false,"rental_uris":{"android":"levelo://app?vid=953f3f2c-cea1-4272-a8c8-0b503a5f2bed","ios":"levelo://app?vid=953f3f2c-cea1-4272-a8c8-0b503a5f2bed"},"vehicle_type_id":"4","last_reported":1739992068,"current_range_meters":11600,"station_id":"ce4bho12rcd13ifvqh1g","pricing_plan_id":"cebpf4jnsgd1na2vs0mg"},{"bike_id":"516bafe0-5ae1-4584-8a28-800d99267cec","system_id":"levelo_inurba_marseille","lat":43.27956,"lon":5.41037,"is_reserved":false,"is_disabled":false,"rental_uris":{"android":"levelo://app?vid=516bafe0-5ae1-4584-8a28-800d99267cec","ios":"levelo://app?vid=516bafe0-5ae1-4584-8a28-800d99267cec"},"vehicle_type_id":"4","last_reported":1739992068,"current_range_meters":13600,"station_id":"ce4bhnp2rcd13ifvqh0g","pricing_plan_id":"cebpf4jnsgd1na2vs0mg"},{"bike_id":"f387f019-9e6e-4a42-8993-253c9ea7a6e4","system_id":"levelo_inurba_marseille","lat":43.29307,"lon":5.37472,"is_reserved":false,"is_disabled":false,"rental_uris":{"android":"levelo://app?vid=f387f019-9e6e-4a42-8993-253c9ea7a6e4","ios":"levelo://app?vid=f387f019-9e6e-4a42-8993-253c9ea7a6e4"},"vehicle_type_id":"4","last_reported":1739992068,"current_range_meters":11200,"station_id":"ce4bgi12rcd13ifvqb70","pricing_plan_id":"cebpf4jnsgd1na2vs0mg"},{"bike_id":"3860bb6a-6016-4bfe-b3c5-5b64398b66ef","system_id":"levelo_inurba_marseille","lat":43.29512,"lon":5.39402,"is_reserved":false,"is_disabled":false,"rental_uris":{"android":"levelo://app?vid=3860bb6a-6016-4bfe-b3c5-5b64398b66ef","ios":"levelo://app?vid=3860bb6a-6016-4bfe-b3c5-5b64398b66ef"},"vehicle_type_id":"4","last_reported":1739992068,"current_range_meters":13600,"station_id":"ce4bh292rcd13ifvqdf0","pricing_plan_id":"cebpf4jnsgd1na2vs0mg"},{"bike_id":"72a463e3-a938-4e69-85a6-2054ee4effe3","system_id":"levelo_inurba_marseille","lat":43.29067,"lon":5.37173,"is_reserved":false,"is_disabled":false,"rental_uris":{"android":"levelo://app?vid=72a463e3-a938-4e69-85a6-2054ee4effe3","ios":"levelo://app?vid=72a463e3-a938-4e69-85a6-2054ee4effe3"},"vehicle_type_id":"4","last_reported":1739992068,"current_range_meters":13600,"station_id":"ce4bh5p2rcd13ifvqe4g","pricing_plan_id":"cebpf4jnsgd1na2vs0mg"},{"bike_id":"1c2e9184-5c89-4c49-9219-ce5d5b4d43c6","system_id":"levelo_inurba_marseille","lat":43.295191,"lon":5.390377,"is_reserved":false,"is_disabled":false,"rental_uris":{"android":"levelo://app?vid=1c2e9184-5c89-4c49-9219-ce5d5b4d43c6","ios":"levelo://app?vid=1c2e9184-5c89-4c49-9219-ce5d5b4d43c6"},"vehicle_type_id":"4","last_reported":1739992068,"current_range_meters":13600,"station_id":"","pricing_plan_id":"cebpf4jnsgd1na2vs0mg"},{"bike_id":"cd8e5ed9-0cce-40f2-aab0-c8e8000197f0","system_id":"levelo_inurba_marseille","lat":43.29535,"lon":5.38541,"is_reserved":false,"is_disabled":false,"rental_uris":{"android":"levelo://app?vid=cd8e5ed9-0cce-40f2-aab0-c8e8000197f0","ios":"levelo://app?vid=cd8e5ed9-0cce-40f2-aab0-c8e8000197f0"},"vehicle_type_id":"4","last_reported":1739992068,"current_range_meters":14000,"station_id":"ce4bgih2rcd13ifvqba0","pricing_plan_id":"cebpf4jnsgd1na2vs0mg"},{"bike_id":"e4ccf081-6e87-4a50-b058-b22605c02b6a","system_id":"levelo_inurba_marseille","lat":43.30179,"lon":5.36626,"is_reserved":false,"is_disabled":false,"rental_uris":{"android":"levelo://app?vid=e4ccf081-6e87-4a50-b058-b22605c02b6a","ios":"levelo://app?vid=e4ccf081-6e87-4a50-b058-b22605c02b6a"},"vehicle_type_id":"4","last_reported":1739992068,"current_range_meters":14000,"station_id":"ce4bgrh2rcd13ifvqc8g","pricing_plan_id":"cebpf4jnsgd1na2vs0mg"},{"bike_id":"5f9ede52-c720-4107-a864-980fb2608395","system_id":"levelo_inurba_marseille","lat":43.241,"lon":5.3869,"is_reserved":false,"is_disabled":false,"rental_uris":{"android":"levelo://app?vid=5f9ede52-c720-4107-a864-980fb2608395","ios":"levelo://app?vid=5f9ede52-c720-4107-a864-980fb2608395"},"vehicle_type_id":"4","last_reported":1739992068,"current_range_meters":14000,"station_id":"ce4bhb92rcd13ifvqen0","pricing_plan_id":"cebpf4jnsgd1na2vs0mg"},{"bike_id":"a766fd32-982a-44ac-ae4b-55be879e229d","system_id":"levelo_inurba_marseille","lat":43.30418,"lon":5.38868,"is_reserved":false,"is_disabled":false,"rental_uris":{"android":"levelo://app?vid=a766fd32-982a-44ac-ae4b-55be879e229d","ios":"levelo://app?vid=a766fd32-982a-44ac-ae4b-55be879e229d"},"vehicle_type_id":"4","last_reported":1739992068,"current_range_meters":16000,"station_id":"ce4bgk12rcd13ifvqbi0","pricing_plan_id":"cebpf4jnsgd1na2vs0mg"},{"bike_id":"2eb8bc31-1e2a-497a-a176-d7c3ba501cfa","system_id":"levelo_inurba_marseille","lat":43.30294,"lon":5.39208,"is_reserved":false,"is_disabled":false,"rental_uris":{"android":"levelo://app?vid=2eb8bc31-1e2a-497a-a176-d7c3ba501cfa","ios":"levelo://app?vid=2eb8bc31-1e2a-497a-a176-d7c3ba501cfa"},"vehicle_type_id":"4","last_reported":1739992068,"current_range_meters":14000,"station_id":"ce4bgkh2rcd13ifvqbk0","pricing_plan_id":"cebpf4jnsgd1na2vs0mg"},{"bike_id":"d8c915d8-4783-4ebb-a64b-10db7e9bf0f1","system_id":"levelo_inurba_marseille","lat":43.2861,"lon":5.35107,"is_reserved":false,"is_disabled":false,"rental_uris":{"android":"levelo://app?vid=d8c915d8-4783-4ebb-a64b-10db7e9bf0f1","ios":"levelo://app?vid=d8c915d8-4783-4ebb-a64b-10db7e9bf0f1"},"vehicle_type_id":"4","last_reported":1739992068,"current_range_meters":14000,"station_id":"","pricing_plan_id":"cebpf4jnsgd1na2vs0mg"},{"bike_id":"2dc39123-751e-4c21-8f04-b71a63eba1a1","system_id":"levelo_inurba_marseille","lat":43.309535,"lon":5.379917,"is_reserved":false,"is_disabled":false,"rental_uris":{"android":"levelo://app?vid=2dc39123-751e-4c21-8f04-b71a63eba1a1","ios":"levelo://app?vid=2dc39123-751e-4c21-8f04-b71a63eba1a1"},"vehicle_type_id":"4","last_reported":1739992068,"current_range_meters":12000,"station_id":"ce4bhr92rcd13ifvqhrg","pricing_plan_id":"cebpf4jnsgd1na2vs0mg"},{"bike_id":"4da6cc22-4d46-4a7c-8914-7b17d72dd95a","system_id":"levelo_inurba_marseille","lat":43.271775,"lon":5.409926,"is_reserved":false,"is_disabled":false,"rental_uris":{"android":"levelo://app?vid=4da6cc22-4d46-4a7c-8914-7b17d72dd95a","ios":"levelo://app?vid=4da6cc22-4d46-4a7c-8914-7b17d72dd95a"},"vehicle_type_id":"4","last_reported":1739992068,"current_range_meters":14000,"station_id":"ce4bhl12rcd13ifvqgf0","pricing_plan_id":"cebpf4jnsgd1na2vs0mg"},{"bike_id":"058213af-b61b-486b-8e0a-0a8fd78595de","system_id":"levelo_inurba_marseille","lat":43.23184,"lon":5.39979,"is_reserved":false,"is_disabled":false,"rental_uris":{"android":"levelo://app?vid=058213af-b61b-486b-8e0a-0a8fd78595de","ios":"levelo://app?vid=058213af-b61b-486b-8e0a-0a8fd78595de"},"vehicle_type_id":"4","last_reported":1739992068,"current_range_meters":14000,"station_id":"ce4bhn12rcd13ifvqgqg","pricing_plan_id":"cebpf4jnsgd1na2vs0mg"},{"bike_id":"5428c4a6-2268-45c5-aff9-a5f8e308d92b","system_id":"levelo_inurba_marseille","lat":43.30909,"lon":5.37263,"is_reserved":false,"is_disabled":false,"rental_uris":{"android":"levelo://app?vid=5428c4a6-2268-45c5-aff9-a5f8e308d92b","ios":"levelo://app?vid=5428c4a6-2268-45c5-aff9-a5f8e308d92b"},"vehicle_type_id":"4","last_reported":1739992068,"current_range_meters":14400,"station_id":"ce4bguh2rcd13ifvqckg","pricing_plan_id":"cebpf4jnsgd1na2vs0mg"},{"bike_id":"d02d8347-8ea8-44a6-b409-6a52c987a891","system_id":"levelo_inurba_marseille","lat":43.28667,"lon":5.38666,"is_reserved":false,"is_disabled":false,"rental_uris":{"android":"levelo://app?vid=d02d8347-8ea8-44a6-b409-6a52c987a891","ios":"levelo://app?vid=d02d8347-8ea8-44a6-b409-6a52c987a891"},"vehicle_type_id":"4","last_reported":1739992068,"current_range_meters":14400,"station_id":"ce4bh492rcd13ifvqdug","pricing_plan_id":"cebpf4jnsgd1na2vs0mg"},{"bike_id":"a0af3547-0f5a-4ee7-a39d-23ed992db956","system_id":"levelo_inurba_marseille","lat":43.23418,"lon":5.40452,"is_reserved":false,"is_disabled":false,"rental_uris":{"android":"levelo://app?vid=a0af3547-0f5a-4ee7-a39d-23ed992db956","ios":"levelo://app?vid=a0af3547-0f5a-4ee7-a39d-23ed992db956"},"vehicle_type_id":"4","last_reported":1739992068,"current_range_meters":14400,"station_id":"","pricing_plan_id":"cebpf4jnsgd1na2vs0mg"},{"bike_id":"fd7d9c72-fb90-4f6a-8bd9-d0ce5d5234c2","system_id":"levelo_inurba_marseille","lat":43.29005,"lon":5.35611,"is_reserved":false,"is_disabled":false,"rental_uris":{"android":"levelo://app?vid=fd7d9c72-fb90-4f6a-8bd9-d0ce5d5234c2","ios":"levelo://app?vid=fd7d9c72-fb90-4f6a-8bd9-d0ce5d5234c2"},"vehicle_type_id":"4","last_reported":1739992068,"current_range_meters":14400,"station_id":"ce4bhb92rcd13ifvqen0","pricing_plan_id":"cebpf4jnsgd1na2vs0mg"},{"bike_id":"f5f7c6b1-ac7b-4c52-8fac-fd91ff08ab83","system_id":"levelo_inurba_marseille","lat":43.29256,"lon":5.38432,"is_reserved":false,"is_disabled":true,"rental_uris":{"android":"levelo://app?vid=f5f7c6b1-ac7b-4c52-8fac-fd91ff08ab83","ios":"levelo://app?vid=f5f7c6b1-ac7b-4c52-8fac-fd91ff08ab83"},"vehicle_type_id":"4","last_reported":1739992068,"current_range_meters":14400,"station_id":"ce4bh692rcd13ifvqea0","pricing_plan_id":"cebpf4jnsgd1na2vs0mg"},{"bike_id":"880db9c7-ba19-41c4-9bf5-cbac874771de","system_id":"levelo_inurba_marseille","lat":43.29974,"lon":5.38514,"is_reserved":false,"is_disabled":false,"rental_uris":{"android":"levelo://app?vid=880db9c7-ba19-41c4-9bf5-cbac874771de","ios":"levelo://app?vid=880db9c7-ba19-41c4-9bf5-cbac874771de"},"vehicle_type_id":"4","last_reported":1739992068,"current_range_meters":14400,"station_id":"ce4bgj92rcd13ifvqbd0","pricing_plan_id":"cebpf4jnsgd1na2vs0mg"},{"bike_id":"50f6c110-4b47-4f2c-ac1d-543fea92dd14","system_id":"levelo_inurba_marseille","lat":43.29026,"lon":5.38634,"is_reserved":false,"is_disabled":false,"rental_uris":{"android":"levelo://app?vid=50f6c110-4b47-4f2c-ac1d-543fea92dd14","ios":"levelo://app?vid=50f6c110-4b47-4f2c-ac1d-543fea92dd14"},"vehicle_type_id":"4","last_reported":1739992068,"current_range_meters":14400,"station_id":"ce4bh4p2rcd13ifvqe0g","pricing_plan_id":"cebpf4jnsgd1na2vs0mg"},{"bike_id":"6b88d0ee-296a-4b51-b40d-3a4edaa7d9ff","system_id":"levelo_inurba_marseille","lat":43.28849,"lon":5.39318,"is_reserved":false,"is_disabled":false,"rental_uris":{"android":"levelo://app?vid=6b88d0ee-296a-4b51-b40d-3a4edaa7d9ff","ios":"levelo://app?vid=6b88d0ee-296a-4b51-b40d-3a4edaa7d9ff"},"vehicle_type_id":"4","last_reported":1739992068,"current_range_meters":14000,"station_id":"ce4bh2p2rcd13ifvqdi0","pricing_plan_id":"cebpf4jnsgd1na2vs0mg"},{"bike_id":"5ed002ed-9232-4314-a06f-e3b12d3953c6","system_id":"levelo_inurba_marseille","lat":43.28939,"lon":5.36631,"is_reserved":false,"is_disabled":false,"rental_uris":{"android":"levelo://app?vid=5ed002ed-9232-4314-a06f-e3b12d3953c6","ios":"levelo://app?vid=5ed002ed-9232-4314-a06f-e3b12d3953c6"},"vehicle_type_id":"4","last_reported":1739992068,"current_range_meters":14400,"station_id":"ce4bhap2rcd13ifvqek0","pricing_plan_id":"cebpf4jnsgd1na2vs0mg"},{"bike_id":"76ec6056-0187-4dbd-a761-1fe2451ebdd5","system_id":"levelo_inurba_marseille","lat":43.28943,"lon":5.3664,"is_reserved":false,"is_disabled":false,"rental_uris":{"android":"levelo://app?vid=76ec6056-0187-4dbd-a761-1fe2451ebdd5","ios":"levelo://app?vid=76ec6056-0187-4dbd-a761-1fe2451ebdd5"},"vehicle_type_id":"4","last_reported":1739992068,"current_range_meters":14400,"station_id":"ce4bhap2rcd13ifvqek0","pricing_plan_id":"cebpf4jnsgd1na2vs0mg"},{"bike_id":"c445496b-1882-48af-8df4-1bf8a25b98fc","system_id":"levelo_inurba_marseille","lat":43.31332,"lon":5.39694,"is_reserved":false,"is_disabled":false,"rental_uris":{"android":"levelo://app?vid=c445496b-1882-48af-8df4-1bf8a25b98fc","ios":"levelo://app?vid=c445496b-1882-48af-8df4-1bf8a25b98fc"},"vehicle_type_id":"4","last_reported":1739992068,"current_range_meters":14400,"station_id":"ce4bgvp2rcd13ifvqcu0","pricing_plan_id":"cebpf4jnsgd1na2vs0mg"},{"bike_id":"cad50eb3-3d1a-45e1-aeeb-37cbfcb135ef","system_id":"levelo_inurba_marseille","lat":43.28967,"lon":5.37838,"is_reserved":false,"is_disabled":false,"rental_uris":{"android":"levelo://app?vid=cad50eb3-3d1a-45e1-aeeb-37cbfcb135ef","ios":"levelo://app?vid=cad50eb3-3d1a-45e1-aeeb-37cbfcb135ef"},"vehicle_type_id":"4","last_reported":1739992068,"current_range_meters":14800,"station_id":"ce4bh9p2rcd13ifvqed0","pricing_plan_id":"cebpf4jnsgd1na2vs0mg"},{"bike_id":"1e1436ab-1ad9-4c17-876e-02f9b180d421","system_id":"levelo_inurba_marseille","lat":43.29256,"lon":5.38443,"is_reserved":false,"is_disabled":false,"rental_uris":{"android":"levelo://app?vid=1e1436ab-1ad9-4c17-876e-02f9b180d421","ios":"levelo://app?vid=1e1436ab-1ad9-4c17-876e-02f9b180d421"},"vehicle_type_id":"4","last_reported":1739992068,"current_range_meters":14800,"station_id":"ce4bh692rcd13ifvqea0","pricing_plan_id":"cebpf4jnsgd1na2vs0mg"},{"bike_id":"03067e68-ae7e-41d1-b6a9-65d0f1c5f1c1","system_id":"levelo_inurba_marseille","lat":43.25114,"lon":5.40316,"is_reserved":false,"is_disabled":false,"rental_uris":{"android":"levelo://app?vid=03067e68-ae7e-41d1-b6a9-65d0f1c5f1c1","ios":"levelo://app?vid=03067e68-ae7e-41d1-b6a9-65d0f1c5f1c1"},"vehicle_type_id":"4","last_reported":1739992068,"current_range_meters":14800,"station_id":"ce4bhlh2rcd13ifvqgig","pricing_plan_id":"cebpf4jnsgd1na2vs0mg"},{"bike_id":"bd354dd3-6006-4e9f-90f1-63f0410f8583","system_id":"levelo_inurba_marseille","lat":43.27385,"lon":5.36274,"is_reserved":false,"is_disabled":false,"rental_uris":{"android":"levelo://app?vid=bd354dd3-6006-4e9f-90f1-63f0410f8583","ios":"levelo://app?vid=bd354dd3-6006-4e9f-90f1-63f0410f8583"},"vehicle_type_id":"4","last_reported":1739992068,"current_range_meters":14800,"station_id":"ce4bhbh2rcd13ifvqeo0","pricing_plan_id":"cebpf4jnsgd1na2vs0mg"},{"bike_id":"69d83863-ba3f-44d3-b444-b2034cf1c759","system_id":"levelo_inurba_marseille","lat":43.28711,"lon":5.37946,"is_reserved":false,"is_disabled":false,"rental_uris":{"android":"levelo://app?vid=69d83863-ba3f-44d3-b444-b2034cf1c759","ios":"levelo://app?vid=69d83863-ba3f-44d3-b444-b2034cf1c759"},"vehicle_type_id":"4","last_reported":1739992068,"current_range_meters":14800,"station_id":"","pricing_plan_id":"cebpf4jnsgd1na2vs0mg"},{"bike_id":"bb1a4c2a-340a-4f5b-b8fd-fd20852a249e","system_id":"levelo_inurba_marseille","lat":43.27622,"lon":5.36119,"is_reserved":false,"is_disabled":false,"rental_uris":{"android":"levelo://app?vid=bb1a4c2a-340a-4f5b-b8fd-fd20852a249e","ios":"levelo://app?vid=bb1a4c2a-340a-4f5b-b8fd-fd20852a249e"},"vehicle_type_id":"4","last_reported":1739992068,"current_range_meters":14800,"station_id":"ce4bgj92rcd13ifvqbe0","pricing_plan_id":"cebpf4jnsgd1na2vs0mg"},{"bike_id":"521c07ee-8f56-418c-9167-93791e255dc4","system_id":"levelo_inurba_marseille","lat":43.28713,"lon":5.3795,"is_reserved":false,"is_disabled":false,"rental_uris":{"android":"levelo://app?vid=521c07ee-8f56-418c-9167-93791e255dc4","ios":"levelo://app?vid=521c07ee-8f56-418c-9167-93791e255dc4"},"vehicle_type_id":"4","last_reported":1739992068,"current_range_meters":14800,"station_id":"ce4bh9p2rcd13ifvqec0","pricing_plan_id":"cebpf4jnsgd1na2vs0mg"},{"bike_id":"efb58bf1-4403-4b9f-b67d-a8970e8c3a7f","system_id":"levelo_inurba_marseille","lat":43.24997,"lon":5.38907,"is_reserved":false,"is_disabled":false,"rental_uris":{"android":"levelo://app?vid=efb58bf1-4403-4b9f-b67d-a8970e8c3a7f","ios":"levelo://app?vid=efb58bf1-4403-4b9f-b67d-a8970e8c3a7f"},"vehicle_type_id":"4","last_reported":1739992068,"current_range_meters":14800,"station_id":"ce4bhgp2rcd13ifvqfd0","pricing_plan_id":"cebpf4jnsgd1na2vs0mg"},{"bike_id":"e02395d3-84c6-43ba-8a54-9d8df343ef8c","system_id":"levelo_inurba_marseille","lat":43.29409,"lon":5.38633,"is_reserved":false,"is_disabled":true,"rental_uris":{"android":"levelo://app?vid=e02395d3-84c6-43ba-8a54-9d8df343ef8c","ios":"levelo://app?vid=e02395d3-84c6-43ba-8a54-9d8df343ef8c"},"vehicle_type_id":"4","last_reported":1739992068,"current_range_meters":14800,"station_id":"ce4bh2h2rcd13ifvqdh0","pricing_plan_id":"cebpf4jnsgd1na2vs0mg"},{"bike_id":"ba379239-9216-4e46-a96c-a73988d910ff","system_id":"levelo_inurba_marseille","lat":43.26489,"lon":5.37146,"is_reserved":false,"is_disabled":false,"rental_uris":{"android":"levelo://app?vid=ba379239-9216-4e46-a96c-a73988d910ff","ios":"levelo://app?vid=ba379239-9216-4e46-a96c-a73988d910ff"},"vehicle_type_id":"4","last_reported":1739992068,"current_range_meters":15200,"station_id":"","pricing_plan_id":"cebpf4jnsgd1na2vs0mg"},{"bike_id":"e629d651-9184-4549-b832-0400717f90db","system_id":"levelo_inurba_marseille","lat":43.30251,"lon":5.40078,"is_reserved":false,"is_disabled":false,"rental_uris":{"android":"levelo://app?vid=e629d651-9184-4549-b832-0400717f90db","ios":"levelo://app?vid=e629d651-9184-4549-b832-0400717f90db"},"vehicle_type_id":"4","last_reported":1739992068,"current_range_meters":15200,"station_id":"ce4bgvh2rcd13ifvqcs0","pricing_plan_id":"cebpf4jnsgd1na2vs0mg"},{"bike_id":"6c761909-73d1-4d03-868f-7336723f3339","system_id":"levelo_inurba_marseille","lat":43.29424,"lon":5.38619,"is_reserved":false,"is_disabled":false,"rental_uris":{"android":"levelo://app?vid=6c761909-73d1-4d03-868f-7336723f3339","ios":"levelo://app?vid=6c761909-73d1-4d03-868f-7336723f3339"},"vehicle_type_id":"4","last_reported":1739992068,"current_range_meters":15200,"station_id":"","pricing_plan_id":"cebpf4jnsgd1na2vs0mg"},{"bike_id":"537d6449-74b1-4c40-9587-37cf04b7346e","system_id":"levelo_inurba_marseille","lat":43.30894,"lon":5.37187,"is_reserved":false,"is_disabled":false,"rental_uris":{"android":"levelo://app?vid=537d6449-74b1-4c40-9587-37cf04b7346e","ios":"levelo://app?vid=537d6449-74b1-4c40-9587-37cf04b7346e"},"vehicle_type_id":"4","last_reported":1739992068,"current_range_meters":16400,"station_id":"ce4bguh2rcd13ifvqckg","pricing_plan_id":"cebpf4jnsgd1na2vs0mg"},{"bike_id":"87bfb215-c131-466c-86fa-09b8635eb6a6","system_id":"levelo_inurba_marseille","lat":43.25503,"lon":5.37659,"is_reserved":false,"is_disabled":false,"rental_uris":{"android":"levelo://app?vid=87bfb215-c131-466c-86fa-09b8635eb6a6","ios":"levelo://app?vid=87bfb215-c131-466c-86fa-09b8635eb6a6"},"vehicle_type_id":"4","last_reported":1739992068,"current_range_meters":16000,"station_id":"ce4bhh12rcd13ifvqff0","pricing_plan_id":"cebpf4jnsgd1na2vs0mg"},{"bike_id":"94ce4c1f-b676-43e1-9e28-ed9f6f6c8e2b","system_id":"levelo_inurba_marseille","lat":43.23618,"lon":5.39143,"is_reserved":false,"is_disabled":false,"rental_uris":{"android":"levelo://app?vid=94ce4c1f-b676-43e1-9e28-ed9f6f6c8e2b","ios":"levelo://app?vid=94ce4c1f-b676-43e1-9e28-ed9f6f6c8e2b"},"vehicle_type_id":"4","last_reported":1739992068,"current_range_meters":16000,"station_id":"","pricing_plan_id":"cebpf4jnsgd1na2vs0mg"},{"bike_id":"014ffc93-64a2-48d7-9e39-bbf14956782c","system_id":"levelo_inurba_marseille","lat":43.27362,"lon":5.36227,"is_reserved":false,"is_disabled":false,"rental_uris":{"android":"levelo://app?vid=014ffc93-64a2-48d7-9e39-bbf14956782c","ios":"levelo://app?vid=014ffc93-64a2-48d7-9e39-bbf14956782c"},"vehicle_type_id":"4","last_reported":1739992068,"current_range_meters":16000,"station_id":"ce4bhbh2rcd13ifvqeo0","pricing_plan_id":"cebpf4jnsgd1na2vs0mg"},{"bike_id":"dfd297d4-f1ac-4f97-835f-0dd0079811df","system_id":"levelo_inurba_marseille","lat":43.29165,"lon":5.3717,"is_reserved":false,"is_disabled":false,"rental_uris":{"android":"levelo://app?vid=dfd297d4-f1ac-4f97-835f-0dd0079811df","ios":"levelo://app?vid=dfd297d4-f1ac-4f97-835f-0dd0079811df"},"vehicle_type_id":"4","last_reported":1739992068,"current_range_meters":16000,"station_id":"ce4bha92rcd13ifvqeh0","pricing_plan_id":"cebpf4jnsgd1na2vs0mg"},{"bike_id":"b76bf30b-8b78-4be0-9668-2a20d616845e","system_id":"levelo_inurba_marseille","lat":43.26582,"lon":5.39024,"is_reserved":false,"is_disabled":false,"rental_uris":{"android":"levelo://app?vid=b76bf30b-8b78-4be0-9668-2a20d616845e","ios":"levelo://app?vid=b76bf30b-8b78-4be0-9668-2a20d616845e"},"vehicle_type_id":"4","last_reported":1739992068,"current_range_meters":16000,"station_id":"ce4bhe12rcd13ifvqf30","pricing_plan_id":"cebpf4jnsgd1na2vs0mg"},{"bike_id":"220aa7fc-9ea1-41f9-92ea-9b99a734b958","system_id":"levelo_inurba_marseille","lat":43.2952,"lon":5.39032,"is_reserved":false,"is_disabled":false,"rental_uris":{"android":"levelo://app?vid=220aa7fc-9ea1-41f9-92ea-9b99a734b958","ios":"levelo://app?vid=220aa7fc-9ea1-41f9-92ea-9b99a734b958"},"vehicle_type_id":"4","last_reported":1739992068,"current_range_meters":16000,"station_id":"ce4bh3p2rcd13ifvqdp0","pricing_plan_id":"cebpf4jnsgd1na2vs0mg"},{"bike_id":"477ac2db-8f8c-4cbc-8427-0ab644b57a7a","system_id":"levelo_inurba_marseille","lat":43.25027,"lon":5.38921,"is_reserved":false,"is_disabled":false,"rental_uris":{"android":"levelo://app?vid=477ac2db-8f8c-4cbc-8427-0ab644b57a7a","ios":"levelo://app?vid=477ac2db-8f8c-4cbc-8427-0ab644b57a7a"},"vehicle_type_id":"4","last_reported":1739992068,"current_range_meters":16000,"station_id":"ce4bhgp2rcd13ifvqfd0","pricing_plan_id":"cebpf4jnsgd1na2vs0mg"},{"bike_id":"22c6d44e-ac16-493e-8f72-edcd62de0ec9","system_id":"levelo_inurba_marseille","lat":43.24071,"lon":5.37761,"is_reserved":false,"is_disabled":false,"rental_uris":{"android":"levelo://app?vid=22c6d44e-ac16-493e-8f72-edcd62de0ec9","ios":"levelo://app?vid=22c6d44e-ac16-493e-8f72-edcd62de0ec9"},"vehicle_type_id":"4","last_reported":1739992068,"current_range_meters":13600,"station_id":"ce4bhnp2rcd13ifvqgvg","pricing_plan_id":"cebpf4jnsgd1na2vs0mg"},{"bike_id":"b460fd8a-2422-4dc6-801b-f9a7b19474e7","system_id":"levelo_inurba_marseille","lat":43.28105,"lon":5.37804,"is_reserved":false,"is_disabled":false,"rental_uris":{"android":"levelo://app?vid=b460fd8a-2422-4dc6-801b-f9a7b19474e7","ios":"levelo://app?vid=b460fd8a-2422-4dc6-801b-f9a7b19474e7"},"vehicle_type_id":"4","last_reported":1739992068,"current_range_meters":16000,"station_id":"ce4bha12rcd13ifvqee0","pricing_plan_id":"cebpf4jnsgd1na2vs0mg"},{"bike_id":"ac3307d6-1e0a-43f7-a52e-66abd7efa8e2","system_id":"levelo_inurba_marseille","lat":43.292524,"lon":5.384346,"is_reserved":false,"is_disabled":false,"rental_uris":{"android":"levelo://app?vid=ac3307d6-1e0a-43f7-a52e-66abd7efa8e2","ios":"levelo://app?vid=ac3307d6-1e0a-43f7-a52e-66abd7efa8e2"},"vehicle_type_id":"4","last_reported":1739992068,"current_range_meters":16000,"station_id":"","pricing_plan_id":"cebpf4jnsgd1na2vs0mg"},{"bike_id":"388d0c8e-1bb2-4d5d-a1c3-d23fdfe02906","system_id":"levelo_inurba_marseille","lat":43.24081,"lon":5.37754,"is_reserved":false,"is_disabled":false,"rental_uris":{"android":"levelo://app?vid=388d0c8e-1bb2-4d5d-a1c3-d23fdfe02906","ios":"levelo://app?vid=388d0c8e-1bb2-4d5d-a1c3-d23fdfe02906"},"vehicle_type_id":"4","last_reported":1739992068,"current_range_meters":16400,"station_id":"ce4bhnp2rcd13ifvqgvg","pricing_plan_id":"cebpf4jnsgd1na2vs0mg"},{"bike_id":"a65b85d3-0b07-4896-a995-3ee6b4501f7e","system_id":"levelo_inurba_marseille","lat":43.29557,"lon":5.42291,"is_reserved":false,"is_disabled":false,"rental_uris":{"android":"levelo://app?vid=a65b85d3-0b07-4896-a995-3ee6b4501f7e","ios":"levelo://app?vid=a65b85d3-0b07-4896-a995-3ee6b4501f7e"},"vehicle_type_id":"4","last_reported":1739992068,"current_range_meters":16000,"station_id":"ce4bhph2rcd13ifvqhdg","pricing_plan_id":"cebpf4jnsgd1na2vs0mg"},{"bike_id":"faa87c54-8cfb-4a9b-a6ce-1c6f61a0cf7e","system_id":"levelo_inurba_marseille","lat":43.30073,"lon":5.37541,"is_reserved":false,"is_disabled":false,"rental_uris":{"android":"levelo://app?vid=faa87c54-8cfb-4a9b-a6ce-1c6f61a0cf7e","ios":"levelo://app?vid=faa87c54-8cfb-4a9b-a6ce-1c6f61a0cf7e"},"vehicle_type_id":"4","last_reported":1739992068,"current_range_meters":16400,"station_id":"ce4bgv92rcd13ifvqcq0","pricing_plan_id":"cebpf4jnsgd1na2vs0mg"},{"bike_id":"4fa005a3-17fd-4eef-8b0c-0274d8bbe963","system_id":"levelo_inurba_marseille","lat":43.2942,"lon":5.38624,"is_reserved":false,"is_disabled":false,"rental_uris":{"android":"levelo://app?vid=4fa005a3-17fd-4eef-8b0c-0274d8bbe963","ios":"levelo://app?vid=4fa005a3-17fd-4eef-8b0c-0274d8bbe963"},"vehicle_type_id":"4","last_reported":1739992068,"current_range_meters":16400,"station_id":"ce4bh2h2rcd13ifvqdh0","pricing_plan_id":"cebpf4jnsgd1na2vs0mg"},{"bike_id":"0a9758bc-0503-4d7b-a3b9-340ff654981d","system_id":"levelo_inurba_marseille","lat":43.29881,"lon":5.38898,"is_reserved":false,"is_disabled":false,"rental_uris":{"android":"levelo://app?vid=0a9758bc-0503-4d7b-a3b9-340ff654981d","ios":"levelo://app?vid=0a9758bc-0503-4d7b-a3b9-340ff654981d"},"vehicle_type_id":"4","last_reported":1739992068,"current_range_meters":16400,"station_id":"ce4bh392rcd13ifvqdl0","pricing_plan_id":"cebpf4jnsgd1na2vs0mg"},{"bike_id":"58587579-c169-4de0-846d-054a01647ff8","system_id":"levelo_inurba_marseille","lat":43.30252,"lon":5.40063,"is_reserved":false,"is_disabled":false,"rental_uris":{"android":"levelo://app?vid=58587579-c169-4de0-846d-054a01647ff8","ios":"levelo://app?vid=58587579-c169-4de0-846d-054a01647ff8"},"vehicle_type_id":"4","last_reported":1739992068,"current_range_meters":16400,"station_id":"ce4bhbp2rcd13ifvqesg","pricing_plan_id":"cebpf4jnsgd1na2vs0mg"},{"bike_id":"c183dbc3-5ee8-4ca3-af4a-9d15a6ea6f0f","system_id":"levelo_inurba_marseille","lat":43.29273,"lon":5.38425,"is_reserved":false,"is_disabled":false,"rental_uris":{"android":"levelo://app?vid=c183dbc3-5ee8-4ca3-af4a-9d15a6ea6f0f","ios":"levelo://app?vid=c183dbc3-5ee8-4ca3-af4a-9d15a6ea6f0f"},"vehicle_type_id":"4","last_reported":1739992068,"current_range_meters":16400,"station_id":"ce4bh692rcd13ifvqea0","pricing_plan_id":"cebpf4jnsgd1na2vs0mg"},{"bike_id":"ad83c156-1bc9-4559-81c1-13cc14a8fb0b","system_id":"levelo_inurba_marseille","lat":43.27942,"lon":5.41054,"is_reserved":false,"is_disabled":false,"rental_uris":{"android":"levelo://app?vid=ad83c156-1bc9-4559-81c1-13cc14a8fb0b","ios":"levelo://app?vid=ad83c156-1bc9-4559-81c1-13cc14a8fb0b"},"vehicle_type_id":"4","last_reported":1739992068,"current_range_meters":16400,"station_id":"ce4bhnp2rcd13ifvqh0g","pricing_plan_id":"cebpf4jnsgd1na2vs0mg"},{"bike_id":"4be223db-6d37-41cb-a4f6-bc1db137e77a","system_id":"levelo_inurba_marseille","lat":43.29417,"lon":5.38603,"is_reserved":false,"is_disabled":true,"rental_uris":{"android":"levelo://app?vid=4be223db-6d37-41cb-a4f6-bc1db137e77a","ios":"levelo://app?vid=4be223db-6d37-41cb-a4f6-bc1db137e77a"},"vehicle_type_id":"4","last_reported":1739992068,"current_range_meters":16400,"station_id":"ce4bh2h2rcd13ifvqdh0","pricing_plan_id":"cebpf4jnsgd1na2vs0mg"},{"bike_id":"d9102e21-6294-472e-8da2-16dfb746ec2b","system_id":"levelo_inurba_marseille","lat":43.28138,"lon":5.4457,"is_reserved":false,"is_disabled":false,"rental_uris":{"android":"levelo://app?vid=d9102e21-6294-472e-8da2-16dfb746ec2b","ios":"levelo://app?vid=d9102e21-6294-472e-8da2-16dfb746ec2b"},"vehicle_type_id":"4","last_reported":1739992068,"current_range_meters":16400,"station_id":"ce4bhnh2rcd13ifvqgtg","pricing_plan_id":"cebpf4jnsgd1na2vs0mg"},{"bike_id":"a2d7966a-90c3-4b4e-998b-4e8e73a3e8cb","system_id":"levelo_inurba_marseille","lat":43.29168,"lon":5.37158,"is_reserved":false,"is_disabled":false,"rental_uris":{"android":"levelo://app?vid=a2d7966a-90c3-4b4e-998b-4e8e73a3e8cb","ios":"levelo://app?vid=a2d7966a-90c3-4b4e-998b-4e8e73a3e8cb"},"vehicle_type_id":"4","last_reported":1739992068,"current_range_meters":16800,"station_id":"ce4bha92rcd13ifvqeh0","pricing_plan_id":"cebpf4jnsgd1na2vs0mg"},{"bike_id":"8becd64c-893d-4a08-8876-b1598e031c70","system_id":"levelo_inurba_marseille","lat":43.27977,"lon":5.38737,"is_reserved":false,"is_disabled":true,"rental_uris":{"android":"levelo://app?vid=8becd64c-893d-4a08-8876-b1598e031c70","ios":"levelo://app?vid=8becd64c-893d-4a08-8876-b1598e031c70"},"vehicle_type_id":"4","last_reported":1739992068,"current_range_meters":16800,"station_id":"","pricing_plan_id":"cebpf4jnsgd1na2vs0mg"},{"bike_id":"b992f9c6-8cd4-4847-bf21-0b493529cfb3","system_id":"levelo_inurba_marseille","lat":43.27514,"lon":5.42456,"is_reserved":false,"is_disabled":false,"rental_uris":{"android":"levelo://app?vid=b992f9c6-8cd4-4847-bf21-0b493529cfb3","ios":"levelo://app?vid=b992f9c6-8cd4-4847-bf21-0b493529cfb3"},"vehicle_type_id":"4","last_reported":1739992068,"current_range_meters":16800,"station_id":"ce4bhn92rcd13ifvqgrg","pricing_plan_id":"cebpf4jnsgd1na2vs0mg"},{"bike_id":"5ed07cab-7d4a-4968-acf2-a9116d067958","system_id":"levelo_inurba_marseille","lat":43.29279,"lon":5.37105,"is_reserved":false,"is_disabled":false,"rental_uris":{"android":"levelo://app?vid=5ed07cab-7d4a-4968-acf2-a9116d067958","ios":"levelo://app?vid=5ed07cab-7d4a-4968-acf2-a9116d067958"},"vehicle_type_id":"4","last_reported":1739992068,"current_range_meters":16800,"station_id":"","pricing_plan_id":"cebpf4jnsgd1na2vs0mg"},{"bike_id":"943618dd-7514-4f47-83fd-27b10f2d6c29","system_id":"levelo_inurba_marseille","lat":43.28465,"lon":5.35881,"is_reserved":false,"is_disabled":false,"rental_uris":{"android":"levelo://app?vid=943618dd-7514-4f47-83fd-27b10f2d6c29","ios":"levelo://app?vid=943618dd-7514-4f47-83fd-27b10f2d6c29"},"vehicle_type_id":"4","last_reported":1739992068,"current_range_meters":16800,"station_id":"ce4bhah2rcd13ifvqei0","pricing_plan_id":"cebpf4jnsgd1na2vs0mg"},{"bike_id":"987de0c2-b9bd-4bef-ba52-5ce350e4cb1b","system_id":"levelo_inurba_marseille","lat":43.27996,"lon":5.41653,"is_reserved":false,"is_disabled":false,"rental_uris":{"android":"levelo://app?vid=987de0c2-b9bd-4bef-ba52-5ce350e4cb1b","ios":"levelo://app?vid=987de0c2-b9bd-4bef-ba52-5ce350e4cb1b"},"vehicle_type_id":"4","last_reported":1739992068,"current_range_meters":16800,"station_id":"ce4bho12rcd13ifvqh1g","pricing_plan_id":"cebpf4jnsgd1na2vs0mg"},{"bike_id":"a1a2b460-b478-43af-913b-5e3f11e44138","system_id":"levelo_inurba_marseille","lat":43.27208,"lon":5.38274,"is_reserved":false,"is_disabled":false,"rental_uris":{"android":"levelo://app?vid=a1a2b460-b478-43af-913b-5e3f11e44138","ios":"levelo://app?vid=a1a2b460-b478-43af-913b-5e3f11e44138"},"vehicle_type_id":"4","last_reported":1739992068,"current_range_meters":16800,"station_id":"","pricing_plan_id":"cebpf4jnsgd1na2vs0mg"},{"bike_id":"2bea66f5-9ac8-4f4c-ab71-f140c00abaff","system_id":"levelo_inurba_marseille","lat":43.29694,"lon":5.36625,"is_reserved":false,"is_disabled":false,"rental_uris":{"android":"levelo://app?vid=2bea66f5-9ac8-4f4c-ab71-f140c00abaff","ios":"levelo://app?vid=2bea66f5-9ac8-4f4c-ab71-f140c00abaff"},"vehicle_type_id":"4","last_reported":1739992068,"current_range_meters":17200,"station_id":"ce4bgn12rcd13ifvqbt0","pricing_plan_id":"cebpf4jnsgd1na2vs0mg"},{"bike_id":"370ba8b3-e74b-4f4c-9513-48a4dd93c48e","system_id":"levelo_inurba_marseille","lat":43.28948,"lon":5.36624,"is_reserved":false,"is_disabled":false,"rental_uris":{"android":"levelo://app?vid=370ba8b3-e74b-4f4c-9513-48a4dd93c48e","ios":"levelo://app?vid=370ba8b3-e74b-4f4c-9513-48a4dd93c48e"},"vehicle_type_id":"4","last_reported":1739992068,"current_range_meters":16800,"station_id":"ce4bhap2rcd13ifvqek0","pricing_plan_id":"cebpf4jnsgd1na2vs0mg"},{"bike_id":"ec15b0db-e366-4c3e-9642-3040684b7fe0","system_id":"levelo_inurba_marseille","lat":43.28848,"lon":5.39325,"is_reserved":false,"is_disabled":false,"rental_uris":{"android":"levelo://app?vid=ec15b0db-e366-4c3e-9642-3040684b7fe0","ios":"levelo://app?vid=ec15b0db-e366-4c3e-9642-3040684b7fe0"},"vehicle_type_id":"4","last_reported":1739992068,"current_range_meters":16800,"station_id":"ce4bh2p2rcd13ifvqdi0","pricing_plan_id":"cebpf4jnsgd1na2vs0mg"},{"bike_id":"635050f9-a2c9-4910-8267-ff5a32e2982d","system_id":"levelo_inurba_marseille","lat":43.24831,"lon":5.37376,"is_reserved":false,"is_disabled":false,"rental_uris":{"android":"levelo://app?vid=635050f9-a2c9-4910-8267-ff5a32e2982d","ios":"levelo://app?vid=635050f9-a2c9-4910-8267-ff5a32e2982d"},"vehicle_type_id":"4","last_reported":1739992068,"current_range_meters":16800,"station_id":"ce4bhgh2rcd13ifvqfb0","pricing_plan_id":"cebpf4jnsgd1na2vs0mg"},{"bike_id":"ece15ac0-50e5-4b55-8bca-ea3958374f5a","system_id":"levelo_inurba_marseille","lat":43.28945,"lon":5.36644,"is_reserved":false,"is_disabled":false,"rental_uris":{"android":"levelo://app?vid=ece15ac0-50e5-4b55-8bca-ea3958374f5a","ios":"levelo://app?vid=ece15ac0-50e5-4b55-8bca-ea3958374f5a"},"vehicle_type_id":"4","last_reported":1739992068,"current_range_meters":17200,"station_id":"","pricing_plan_id":"cebpf4jnsgd1na2vs0mg"},{"bike_id":"d4f46ad8-e02c-4b36-bb5f-105ac69cd20a","system_id":"levelo_inurba_marseille","lat":43.28567,"lon":5.39507,"is_reserved":false,"is_disabled":false,"rental_uris":{"android":"levelo://app?vid=d4f46ad8-e02c-4b36-bb5f-105ac69cd20a","ios":"levelo://app?vid=d4f46ad8-e02c-4b36-bb5f-105ac69cd20a"},"vehicle_type_id":"4","last_reported":1739992068,"current_range_meters":16400,"station_id":"ce4bh292rcd13ifvqdg0","pricing_plan_id":"cebpf4jnsgd1na2vs0mg"},{"bike_id":"066e1df6-5548-45e1-93e9-25095e327370","system_id":"levelo_inurba_marseille","lat":43.24664,"lon":5.38163,"is_reserved":false,"is_disabled":false,"rental_uris":{"android":"levelo://app?vid=066e1df6-5548-45e1-93e9-25095e327370","ios":"levelo://app?vid=066e1df6-5548-45e1-93e9-25095e327370"},"vehicle_type_id":"4","last_reported":1739992068,"current_range_meters":16800,"station_id":"ce4bhih2rcd13ifvqfr0","pricing_plan_id":"cebpf4jnsgd1na2vs0mg"},{"bike_id":"ec4e5bd1-70de-42db-827f-8f31b7831b78","system_id":"levelo_inurba_marseille","lat":43.25085,"lon":5.39515,"is_reserved":false,"is_disabled":false,"rental_uris":{"android":"levelo://app?vid=ec4e5bd1-70de-42db-827f-8f31b7831b78","ios":"levelo://app?vid=ec4e5bd1-70de-42db-827f-8f31b7831b78"},"vehicle_type_id":"4","last_reported":1739992068,"current_range_meters":17200,"station_id":"ce4bhm12rcd13ifvqgkg","pricing_plan_id":"cebpf4jnsgd1na2vs0mg"},{"bike_id":"02294ecb-63f1-466c-86e6-f94378485dff","system_id":"levelo_inurba_marseille","lat":43.28148,"lon":5.42641,"is_reserved":false,"is_disabled":false,"rental_uris":{"android":"levelo://app?vid=02294ecb-63f1-466c-86e6-f94378485dff","ios":"levelo://app?vid=02294ecb-63f1-466c-86e6-f94378485dff"},"vehicle_type_id":"4","last_reported":1739992068,"current_range_meters":17200,"station_id":"ce4bhnh2rcd13ifvqgug","pricing_plan_id":"cebpf4jnsgd1na2vs0mg"},{"bike_id":"66b5a43e-2798-4c72-8acc-33d23152963b","system_id":"levelo_inurba_marseille","lat":43.27193,"lon":5.40998,"is_reserved":false,"is_disabled":false,"rental_uris":{"android":"levelo://app?vid=66b5a43e-2798-4c72-8acc-33d23152963b","ios":"levelo://app?vid=66b5a43e-2798-4c72-8acc-33d23152963b"},"vehicle_type_id":"4","last_reported":1739992068,"current_range_meters":17200,"station_id":"ce4bhl12rcd13ifvqgf0","pricing_plan_id":"cebpf4jnsgd1na2vs0mg"},{"bike_id":"75673006-1fda-46a1-a573-0e1cfeae28aa","system_id":"levelo_inurba_marseille","lat":43.29486,"lon":5.38273,"is_reserved":false,"is_disabled":false,"rental_uris":{"android":"levelo://app?vid=75673006-1fda-46a1-a573-0e1cfeae28aa","ios":"levelo://app?vid=75673006-1fda-46a1-a573-0e1cfeae28aa"},"vehicle_type_id":"4","last_reported":1739992068,"current_range_meters":17200,"station_id":"","pricing_plan_id":"cebpf4jnsgd1na2vs0mg"},{"bike_id":"4802f81a-a005-4f83-86d4-c006113b9d49","system_id":"levelo_inurba_marseille","lat":43.29164,"lon":5.37162,"is_reserved":false,"is_disabled":false,"rental_uris":{"android":"levelo://app?vid=4802f81a-a005-4f83-86d4-c006113b9d49","ios":"levelo://app?vid=4802f81a-a005-4f83-86d4-c006113b9d49"},"vehicle_type_id":"4","last_reported":1739992068,"current_range_meters":16800,"station_id":"ce4bha92rcd13ifvqeh0","pricing_plan_id":"cebpf4jnsgd1na2vs0mg"},{"bike_id":"0f119bb9-42f5-484d-a273-90a601312646","system_id":"levelo_inurba_marseille","lat":43.27072,"lon":5.42302,"is_reserved":false,"is_disabled":false,"rental_uris":{"android":"levelo://app?vid=0f119bb9-42f5-484d-a273-90a601312646","ios":"levelo://app?vid=0f119bb9-42f5-484d-a273-90a601312646"},"vehicle_type_id":"4","last_reported":1739992068,"current_range_meters":17200,"station_id":"ce4bhk92rcd13ifvqgb0","pricing_plan_id":"cebpf4jnsgd1na2vs0mg"},{"bike_id":"3bad0b07-fa7a-4cc7-9650-b1214bfaef19","system_id":"levelo_inurba_marseille","lat":43.28153,"lon":5.42627,"is_reserved":false,"is_disabled":false,"rental_uris":{"android":"levelo://app?vid=3bad0b07-fa7a-4cc7-9650-b1214bfaef19","ios":"levelo://app?vid=3bad0b07-fa7a-4cc7-9650-b1214bfaef19"},"vehicle_type_id":"4","last_reported":1739992068,"current_range_meters":17600,"station_id":"ce4bhnh2rcd13ifvqgug","pricing_plan_id":"cebpf4jnsgd1na2vs0mg"},{"bike_id":"ac047bc7-2140-4032-bbac-1e2c57538549","system_id":"levelo_inurba_marseille","lat":43.29973,"lon":5.38495,"is_reserved":false,"is_disabled":false,"rental_uris":{"android":"levelo://app?vid=ac047bc7-2140-4032-bbac-1e2c57538549","ios":"levelo://app?vid=ac047bc7-2140-4032-bbac-1e2c57538549"},"vehicle_type_id":"4","last_reported":1739992068,"current_range_meters":17600,"station_id":"","pricing_plan_id":"cebpf4jnsgd1na2vs0mg"},{"bike_id":"378a21a7-b1ec-4051-850d-b470f3510d96","system_id":"levelo_inurba_marseille","lat":43.26823,"lon":5.40211,"is_reserved":false,"is_disabled":true,"rental_uris":{"android":"levelo://app?vid=378a21a7-b1ec-4051-850d-b470f3510d96","ios":"levelo://app?vid=378a21a7-b1ec-4051-850d-b470f3510d96"},"vehicle_type_id":"4","last_reported":1739992068,"current_range_meters":17600,"station_id":"ce501612rcd8frsf0b60","pricing_plan_id":"cebpf4jnsgd1na2vs0mg"},{"bike_id":"21932aff-667f-4f88-8a87-9fd62e22848b","system_id":"levelo_inurba_marseille","lat":43.29961,"lon":5.38458,"is_reserved":false,"is_disabled":false,"rental_uris":{"android":"levelo://app?vid=21932aff-667f-4f88-8a87-9fd62e22848b","ios":"levelo://app?vid=21932aff-667f-4f88-8a87-9fd62e22848b"},"vehicle_type_id":"4","last_reported":1739992068,"current_range_meters":17600,"station_id":"ce4bgj92rcd13ifvqbd0","pricing_plan_id":"cebpf4jnsgd1na2vs0mg"},{"bike_id":"89120731-9eaf-49d1-b6f6-cea5adc1682f","system_id":"levelo_inurba_marseille","lat":43.283452,"lon":5.38104,"is_reserved":false,"is_disabled":false,"rental_uris":{"android":"levelo://app?vid=89120731-9eaf-49d1-b6f6-cea5adc1682f","ios":"levelo://app?vid=89120731-9eaf-49d1-b6f6-cea5adc1682f"},"vehicle_type_id":"4","last_reported":1739992068,"current_range_meters":17600,"station_id":"","pricing_plan_id":"cebpf4jnsgd1na2vs0mg"},{"bike_id":"867e49ca-1fcf-4c4a-b641-c20eee771353","system_id":"levelo_inurba_marseille","lat":43.28166,"lon":5.42633,"is_reserved":false,"is_disabled":false,"rental_uris":{"android":"levelo://app?vid=867e49ca-1fcf-4c4a-b641-c20eee771353","ios":"levelo://app?vid=867e49ca-1fcf-4c4a-b641-c20eee771353"},"vehicle_type_id":"4","last_reported":1739992068,"current_range_meters":17600,"station_id":"","pricing_plan_id":"cebpf4jnsgd1na2vs0mg"},{"bike_id":"304b9cfa-70a7-4934-bcbe-21408de9d9aa","system_id":"levelo_inurba_marseille","lat":43.337444,"lon":5.374475,"is_reserved":false,"is_disabled":false,"rental_uris":{"android":"levelo://app?vid=304b9cfa-70a7-4934-bcbe-21408de9d9aa","ios":"levelo://app?vid=304b9cfa-70a7-4934-bcbe-21408de9d9aa"},"vehicle_type_id":"4","last_reported":1739992068,"current_range_meters":17600,"station_id":"","pricing_plan_id":"cebpf4jnsgd1na2vs0mg"},{"bike_id":"3addd8d2-327f-4e60-8639-267e28d7c956","system_id":"levelo_inurba_marseille","lat":43.2864,"lon":5.38692,"is_reserved":false,"is_disabled":true,"rental_uris":{"android":"levelo://app?vid=3addd8d2-327f-4e60-8639-267e28d7c956","ios":"levelo://app?vid=3addd8d2-327f-4e60-8639-267e28d7c956"},"vehicle_type_id":"4","last_reported":1739992068,"current_range_meters":17600,"station_id":"","pricing_plan_id":"cebpf4jnsgd1na2vs0mg"},{"bike_id":"a0b5cfd9-c36a-4060-af83-8992cc89583f","system_id":"levelo_inurba_marseille","lat":43.2903,"lon":5.37551,"is_reserved":false,"is_disabled":false,"rental_uris":{"android":"levelo://app?vid=a0b5cfd9-c36a-4060-af83-8992cc89583f","ios":"levelo://app?vid=a0b5cfd9-c36a-4060-af83-8992cc89583f"},"vehicle_type_id":"4","last_reported":1739992068,"current_range_meters":17600,"station_id":"ce4bh692rcd13ifvqe90","pricing_plan_id":"cebpf4jnsgd1na2vs0mg"},{"bike_id":"4cb74063-3289-4948-a15b-ab92d2a254a3","system_id":"levelo_inurba_marseille","lat":43.31331,"lon":5.39693,"is_reserved":false,"is_disabled":false,"rental_uris":{"android":"levelo://app?vid=4cb74063-3289-4948-a15b-ab92d2a254a3","ios":"levelo://app?vid=4cb74063-3289-4948-a15b-ab92d2a254a3"},"vehicle_type_id":"4","last_reported":1739992068,"current_range_meters":17600,"station_id":"ce4bgvp2rcd13ifvqcu0","pricing_plan_id":"cebpf4jnsgd1na2vs0mg"},{"bike_id":"82eb08d9-fe89-49c0-80f8-1d1cf3cdc405","system_id":"levelo_inurba_marseille","lat":43.30171,"lon":5.39871,"is_reserved":false,"is_disabled":false,"rental_uris":{"android":"levelo://app?vid=82eb08d9-fe89-49c0-80f8-1d1cf3cdc405","ios":"levelo://app?vid=82eb08d9-fe89-49c0-80f8-1d1cf3cdc405"},"vehicle_type_id":"4","last_reported":1739992068,"current_range_meters":17600,"station_id":"ce4bh0h2rcd13ifvqd40","pricing_plan_id":"cebpf4jnsgd1na2vs0mg"},{"bike_id":"24b034ae-81d8-4b0e-9d7b-9309f18a47ae","system_id":"levelo_inurba_marseille","lat":43.29141,"lon":5.37202,"is_reserved":false,"is_disabled":false,"rental_uris":{"android":"levelo://app?vid=24b034ae-81d8-4b0e-9d7b-9309f18a47ae","ios":"levelo://app?vid=24b034ae-81d8-4b0e-9d7b-9309f18a47ae"},"vehicle_type_id":"4","last_reported":1739992068,"current_range_meters":18000,"station_id":"","pricing_plan_id":"cebpf4jnsgd1na2vs0mg"},