{"last_updated":1741446390,"ttl":60,"version":"2.2","data":{"bikes":[{"bike_id":"19c5b805-f42d-4e84-97fb-0bafa4cfcd85","system_id":"levelo_inurba_marseille","lat":43.2862,"lon":5.35099,"is_reserved":false,"is_disabled":false,"rental_uris":{"android":"levelo://app?vid=19c5b805-f42d-4e84-97fb-0bafa4cfcd85","ios":"levelo://app?vid=19c5b805-f42d-4e84-97fb-0bafa4cfcd85"},"vehicle_type_id":"4","last_reported":1741446390,"current_range_meters":2800,"station_id":"ce4bhch2rcd13ifvqeug","pricing_plan_id":"cebpf4jnsgd1na2vs0mg"},{"bike_id":"d0ad55c7-d0bd-4a54-9343-98cae6527459","system_id":"levelo_inurba_marseille","lat":43.29729,"lon":5.37697,"is_reserved":false,"is_disabled":false,"rental_uris":{"android":"levelo://app?vid=d0ad55c7-d0bd-4a54-9343-98cae6527459","ios":"levelo://app?vid=d0ad55c7-d0bd-4a54-9343-98cae6527459"},"vehicle_type_id":"4","last_reported":1741446390,"current_range_meters":2800,"station_id":"ce4bgkh2rcd13ifvqbl0","pricing_plan_id":"cebpf4jnsgd1na2vs0mg"},{"bike_id":"ea6fcfcf-47d7-4c45-ac63-9e9f77a4a5ec","system_id":"levelo_inurba_marseille","lat":43.26203,"lon":5.37923,"is_reserved":false,"is_disabled":false,"rental_uris":{"android":"levelo://app?vid=ea6fcfcf-47d7-4c45-ac63-9e9f77a4a5ec","ios":"levelo://app?vid=ea6fcfcf-47d7-4c45-ac63-9e9f77a4a5ec"},"vehicle_type_id":"4","last_reported":1741446390,"current_range_meters":1600,"station_id":"ce4bhjp2rcd13ifvqg90","pricing_plan_id":"cebpf4jnsgd1na2vs0mg"},{"bike_id":"803f2ccb-292c-4540-96d8-23811a21d96e","system_id":"levelo_inurba_marseille","lat":43.28153,"lon":5.42664,"is_reserved":false,"is_disabled":false,"rental_uris":{"android":"levelo://app?vid=803f2ccb-292c-4540-96d8-23811a21d96e","ios":"levelo://app?vid=803f2ccb-292c-4540-96d8-23811a21d96e"},"vehicle_type_id":"4","last_reported":1741446390,"current_range_meters":2800,"station_id":"ce4bhnh2rcd13ifvqgug","pricing_plan_id":"cebpf4jnsgd1na2vs0mg"},{"bike_id":"b59c6a62-ae1a-462c-b412-3051f0aaaa0b","system_id":"levelo_inurba_marseille","lat":43.27966,"lon":5.39963,"is_reserved":false,"is_disabled":false,"rental_uris":{"android":"levelo://app?vid=b59c6a62-ae1a-462c-b412-3051f0aaaa0b","ios":"levelo://app?vid=b59c6a62-ae1a-462c-b412-3051f0aaaa0b"},"vehicle_type_id":"4","last_reported":1741446390,"current_range_meters":3200,"station_id":"","pricing_plan_id":"cebpf4jnsgd1na2vs0mg"},{"bike_id":"3dddda9a-37dc-4e1c-89da-1be82cd22fb3","system_id":"levelo_inurba_marseille","lat":43.28423,"lon":5.34973,"is_reserved":false,"is_disabled":false,"rental_uris":{"android":"levelo://app?vid=3dddda9a-37dc-4e1c-89da-1be82cd22fb3","ios":"levelo://app?vid=3dddda9a-37dc-4e1c-89da-1be82cd22fb3"},"vehicle_type_id":"4","last_reported":1741446390,"current_range_meters":3200,"station_id":"ce4bhbh2rcd13ifvqepg","pricing_plan_id":"cebpf4jnsgd1na2vs0mg"},{"bike_id":"43bc5e18-7bfb-4e30-b758-942e653f0d5a","system_id":"levelo_inurba_marseille","lat":43.24629,"lon":5.40277,"is_reserved":false,"is_disabled":false,"rental_uris":{"android":"levelo://app?vid=43bc5e18-7bfb-4e30-b758-942e653f0d5a","ios":"levelo://app?vid=43bc5e18-7bfb-4e30-b758-942e653f0d5a"},"vehicle_type_id":"4","last_reported":1741446390,"current_range_meters":3200,"station_id":"","pricing_plan_id":"cebpf4jnsgd1na2vs0mg"},{"bike_id":"4bac8943-0b98-47d8-9e10-c8a22a54a1d4","system_id":"levelo_inurba_marseille","lat":43.262117,"lon":5.374498,"is_reserved":false,"is_disabled":false,"rental_uris":{"android":"levelo://app?vid=4bac8943-0b98-47d8-9e10-c8a22a54a1d4","ios":"levelo://app?vid=4bac8943-0b98-47d8-9e10-c8a22a54a1d4"},"vehicle_type_id":"4","last_reported":1741446390,"current_range_meters":3200,"station_id":"ce4bhgp2rcd13ifvqfc0","pricing_plan_id":"cebpf4jnsgd1na2vs0mg"},{"bike_id":"d66eb525-7aec-4395-8dcf-aa6884da1338","system_id":"levelo_inurba_marseille","lat":43.2827,"lon":5.35074,"is_reserved":false,"is_disabled":false,"rental_uris":{"android":"levelo://app?vid=d66eb525-7aec-4395-8dcf-aa6884da1338","ios":"levelo://app?vid=d66eb525-7aec-4395-8dcf-aa6884da1338"},"vehicle_type_id":"4","last_reported":1741446390,"current_range_meters":3200,"station_id":"ce4bhbp2rcd13ifvqerg","pricing_plan_id":"cebpf4jnsgd1na2vs0mg"},{"bike_id":"7444ffcf-9f9b-4762-9f5c-f6b422cf0e3c","system_id":"levelo_inurba_marseille","lat":43.29304,"lon":5.37189,"is_reserved":false,"is_disabled":false,"rental_uris":{"android":"levelo://app?vid=7444ffcf-9f9b-4762-9f5c-f6b422cf0e3c","ios":"levelo://app?vid=7444ffcf-9f9b-4762-9f5c-f6b422cf0e3c"},"vehicle_type_id":"4","last_reported":1741446390,"current_range_meters":3200,"station_id":"ce4bgh92rcd13ifvqb40","pricing_plan_id":"cebpf4jnsgd1na2vs0mg"},{"bike_id":"0cc55497-5837-4489-ad96-65b000c09ab8","system_id":"levelo_inurba_marseille","lat":43.28458,"lon":5.35884,"is_reserved":false,"is_disabled":false,"rental_uris":{"android":"levelo://app?vid=0cc55497-5837-4489-ad96-65b000c09ab8","ios":"levelo://app?vid=0cc55497-5837-4489-ad96-65b000c09ab8"},"vehicle_type_id":"4","last_reported":1741446390,"current_range_meters":3200,"station_id":"ce4bhah2rcd13ifvqei0","pricing_plan_id":"cebpf4jnsgd1na2vs0mg"},{"bike_id":"53ba06d6-3b6c-4f49-bc80-8f7e1937ded3","system_id":"levelo_inurba_marseille","lat":43.27907,"lon":5.41218,"is_reserved":false,"is_disabled":false,"rental_uris":{"android":"levelo://app?vid=53ba06d6-3b6c-4f49-bc80-8f7e1937ded3","ios":"levelo://app?vid=53ba06d6-3b6c-4f49-bc80-8f7e1937ded3"},"vehicle_type_id":"4","last_reported":1741446390,"current_range_meters":3600,"station_id":"","pricing_plan_id":"cebpf4jnsgd1na2vs0mg"},{"bike_id":"b2eadcd5-c96d-4a2c-bc77-6a4dbc744a46","system_id":"levelo_inurba_marseille","lat":43.28938,"lon":5.36636,"is_reserved":false,"is_disabled":false,"rental_uris":{"android":"levelo://app?vid=b2eadcd5-c96d-4a2c-bc77-6a4dbc744a46","ios":"levelo://app?vid=b2eadcd5-c96d-4a2c-bc77-6a4dbc744a46"},"vehicle_type_id":"4","last_reported":1741446390,"current_range_meters":3600,"station_id":"ce4bhap2rcd13ifvqek0","pricing_plan_id":"cebpf4jnsgd1na2vs0mg"},{"bike_id":"318a81ef-51ac-4f2a-beb0-4438b6d65c8b","system_id":"levelo_inurba_marseille","lat":43.29231,"lon":5.36071,"is_reserved":false,"is_disabled":false,"rental_uris":{"android":"levelo://app?vid=318a81ef-51ac-4f2a-beb0-4438b6d65c8b","ios":"levelo://app?vid=318a81ef-51ac-4f2a-beb0-4438b6d65c8b"},"vehicle_type_id":"4","last_reported":1741446390,"current_range_meters":3600,"station_id":"ce4bhbh2rcd13ifvqeqg","pricing_plan_id":"cebpf4jnsgd1na2vs0mg"},{"bike_id":"7e6a97d3-42a0-4f6b-8947-d4ec4a8c3d8f","system_id":"levelo_inurba_marseille","lat":43.22931,"lon":5.35384,"is_reserved":false,"is_disabled":false,"rental_uris":{"android":"levelo://app?vid=7e6a97d3-42a0-4f6b-8947-d4ec4a8c3d8f","ios":"levelo://app?vid=7e6a97d3-42a0-4f6b-8947-d4ec4a8c3d8f"},"vehicle_type_id":"4","last_reported":1741446390,"current_range_meters":4000,"station_id":"cpo3532slgdg3j2ikp40","pricing_plan_id":"cebpf4jnsgd1na2vs0mg"},{"bike_id":"9b57ae7e-a819-4a58-bea6-b095a4e83846","system_id":"levelo_inurba_marseille","lat":43.28462,"lon":5.35893,"is_reserved":false,"is_disabled":false,"rental_uris":{"android":"levelo://app?vid=9b57ae7e-a819-4a58-bea6-b095a4e83846","ios":"levelo://app?vid=9b57ae7e-a819-4a58-bea6-b095a4e83846"},"vehicle_type_id":"4","last_reported":1741446390,"current_range_meters":3600,"station_id":"ce4bhah2rcd13ifvqei0","pricing_plan_id":"cebpf4jnsgd1na2vs0mg"},{"bike_id":"359e74d5-e44c-4a81-8eee-7746891f8a4c","system_id":"levelo_inurba_marseille","lat":43.29713,"lon":5.37705,"is_reserved":false,"is_disabled":false,"rental_uris":{"android":"levelo://app?vid=359e74d5-e44c-4a81-8eee-7746891f8a4c","ios":"levelo://app?vid=359e74d5-e44c-4a81-8eee-7746891f8a4c"},"vehicle_type_id":"4","last_reported":1741446390,"current_range_meters":4000,"station_id":"ce4bgkh2rcd13ifvqbl0","pricing_plan_id":"cebpf4jnsgd1na2vs0mg"},{"bike_id":"7fe94af6-6aa7-4770-bda4-942349bcc7fb","system_id":"levelo_inurba_marseille","lat":43.2942,"lon":5.38632,"is_reserved":false,"is_disabled":false,"rental_uris":{"android":"levelo://app?vid=7fe94af6-6aa7-4770-bda4-942349bcc7fb","ios":"levelo://app?vid=7fe94af6-6aa7-4770-bda4-942349bcc7fb"},"vehicle_type_id":"4","last_reported":1741446390,"current_range_meters":4000,"station_id":"ce4bh2h2rcd13ifvqdh0","pricing_plan_id":"cebpf4jnsgd1na2vs0mg"},{"bike_id":"44b3269d-c0ef-4758-8cbb-f59eef2c25bd","system_id":"levelo_inurba_marseille","lat":43.26213,"lon":5.37446,"is_reserved":false,"is_disabled":false,"rental_uris":{"android":"levelo://app?vid=44b3269d-c0ef-4758-8cbb-f59eef2c25bd","ios":"levelo://app?vid=44b3269d-c0ef-4758-8cbb-f59eef2c25bd"},"vehicle_type_id":"4","last_reported":1741446390,"current_range_meters":4000,"station_id":"ce4bhgp2rcd13ifvqfc0","pricing_plan_id":"cebpf4jnsgd1na2vs0mg"},{"bike_id":"08dd19b8-ea22-428c-ac55-a5675f06bb73","system_id":"levelo_inurba_marseille","lat":43.25584,"lon":5.38232,"is_reserved":false,"is_disabled":false,"rental_uris":{"android":"levelo://app?vid=08dd19b8-ea22-428c-ac55-a5675f06bb73","ios":"levelo://app?vid=08dd19b8-ea22-428c-ac55-a5675f06bb73"},"vehicle_type_id":"4","last_reported":1741446390,"current_range_meters":4400,"station_id":"ce4bhih2rcd13ifvqfs0","pricing_plan_id":"cebpf4jnsgd1na2vs0mg"},{"bike_id":"04c7b811-2985-4230-81f1-c3856441a427","system_id":"levelo_inurba_marseille","lat":43.29702,"lon":5.36613,"is_reserved":false,"is_disabled":false,"rental_uris":{"android":"levelo://app?vid=04c7b811-2985-4230-81f1-c3856441a427","ios":"levelo://app?vid=04c7b811-2985-4230-81f1-c3856441a427"},"vehicle_type_id":"4","last_reported":1741446390,"current_range_meters":4000,"station_id":"ce4bgn12rcd13ifvqbt0","pricing_plan_id":"cebpf4jnsgd1na2vs0mg"},{"bike_id":"b75ea9d2-5252-49ec-813e-9476c946450e","system_id":"levelo_inurba_marseille","lat":43.29844,"lon":5.36275,"is_reserved":false,"is_disabled":false,"rental_uris":{"android":"levelo://app?vid=b75ea9d2-5252-49ec-813e-9476c946450e","ios":"levelo://app?vid=b75ea9d2-5252-49ec-813e-9476c946450e"},"vehicle_type_id":"4","last_reported":1741446390,"current_range_meters":4400,"station_id":"ce4bgpp2rcd13ifvqc3g","pricing_plan_id":"cebpf4jnsgd1na2vs0mg"},{"bike_id":"ab003832-62db-4e2c-aab4-d98de84d0c5e","system_id":"levelo_inurba_marseille","lat":43.28939,"lon":5.36394,"is_reserved":false,"is_disabled":false,"rental_uris":{"android":"levelo://app?vid=ab003832-62db-4e2c-aab4-d98de84d0c5e","ios":"levelo://app?vid=ab003832-62db-4e2c-aab4-d98de84d0c5e"},"vehicle_type_id":"4","last_reported":1741446390,"current_range_meters":3600,"station_id":"ce4bhc92rcd13ifvqetg","pricing_plan_id":"cebpf4jnsgd1na2vs0mg"},{"bike_id":"55012969-37fe-4649-af74-d30dae93bbd3","system_id":"levelo_inurba_marseille","lat":43.26941,"lon":5.40256,"is_reserved":false,"is_disabled":false,"rental_uris":{"android":"levelo://app?vid=55012969-37fe-4649-af74-d30dae93bbd3","ios":"levelo://app?vid=55012969-37fe-4649-af74-d30dae93bbd3"},"vehicle_type_id":"4","last_reported":1741446390,"current_range_meters":4400,"station_id":"cjm6bp8fraef2m0cb0m0","pricing_plan_id":"cebpf4jnsgd1na2vs0mg"},{"bike_id":"a203628a-0f31-438d-a4f2-164e618c7d6c","system_id":"levelo_inurba_marseille","lat":43.28424,"lon":5.37514,"is_reserved":false,"is_disabled":false,"rental_uris":{"android":"levelo://app?vid=a203628a-0f31-438d-a4f2-164e618c7d6c","ios":"levelo://app?vid=a203628a-0f31-438d-a4f2-164e618c7d6c"},"vehicle_type_id":"4","last_reported":1741446390,"current_range_meters":4400,"station_id":"ce4bh412rcd13ifvqds0","pricing_plan_id":"cebpf4jnsgd1na2vs0mg"},{"bike_id":"c3196ee3-ee84-42d0-9716-8d62b60518b3","system_id":"levelo_inurba_marseille","lat":43.24662,"lon":5.38174,"is_reserved":false,"is_disabled":false,"rental_uris":{"android":"levelo://app?vid=c3196ee3-ee84-42d0-9716-8d62b60518b3","ios":"levelo://app?vid=c3196ee3-ee84-42d0-9716-8d62b60518b3"},"vehicle_type_id":"4","last_reported":1741446390,"current_range_meters":4000,"station_id":"ce4bhih2rcd13ifvqfr0","pricing_plan_id":"cebpf4jnsgd1na2vs0mg"},{"bike_id":"e9c67181-085e-4b5f-ad45-5d7103513d4e","system_id":"levelo_inurba_marseille","lat":43.24171,"lon":5.36399,"is_reserved":false,"is_disabled":false,"rental_uris":{"android":"levelo://app?vid=e9c67181-085e-4b5f-ad45-5d7103513d4e","ios":"levelo://app?vid=e9c67181-085e-4b5f-ad45-5d7103513d4e"},"vehicle_type_id":"4","last_reported":1741446390,"current_range_meters":4800,"station_id":"cpo36qri1sfpv3e86is0","pricing_plan_id":"cebpf4jnsgd1na2vs0mg"},{"bike_id":"f61bc4cc-c879-419c-880f-d4322876b84f","system_id":"levelo_inurba_marseille","lat":43.23185,"lon":5.3998,"is_reserved":false,"is_disabled":false,"rental_uris":{"android":"levelo://app?vid=f61bc4cc-c879-419c-880f-d4322876b84f","ios":"levelo://app?vid=f61bc4cc-c879-419c-880f-d4322876b84f"},"vehicle_type_id":"4","last_reported":1741446390,"current_range_meters":4800,"station_id":"ce4bhn12rcd13ifvqgqg","pricing_plan_id":"cebpf4jnsgd1na2vs0mg"},{"bike_id":"1fee6973-e38d-4ace-bdac-29acc87ed0ab","system_id":"levelo_inurba_marseille","lat":43.29897,"lon":5.43657,"is_reserved":false,"is_disabled":false,"rental_uris":{"android":"levelo://app?vid=1fee6973-e38d-4ace-bdac-29acc87ed0ab","ios":"levelo://app?vid=1fee6973-e38d-4ace-bdac-29acc87ed0ab"},"vehicle_type_id":"4","last_reported":1741446390,"current_range_meters":5600,"station_id":"ce4bhpp2rcd13ifvqhfg","pricing_plan_id":"cebpf4jnsgd1na2vs0mg"},{"bike_id":"e2b48529-be22-4d7b-a15c-69054c05af8c","system_id":"levelo_inurba_marseille","lat":43.28936,"lon":5.3664,"is_reserved":false,"is_disabled":false,"rental_uris":{"android":"levelo://app?vid=e2b48529-be22-4d7b-a15c-69054c05af8c","ios":"levelo://app?vid=e2b48529-be22-4d7b-a15c-69054c05af8c"},"vehicle_type_id":"4","last_reported":1741446390,"current_range_meters":2000,"station_id":"ce4bhap2rcd13ifvqek0","pricing_plan_id":"cebpf4jnsgd1na2vs0mg"},{"bike_id":"89b9b55a-1392-498d-b8a5-8520a39c9a74","system_id":"levelo_inurba_marseille","lat":43.29272,"lon":5.4011,"is_reserved":false,"is_disabled":true,"rental_uris":{"android":"levelo://app?vid=89b9b55a-1392-498d-b8a5-8520a39c9a74","ios":"levelo://app?vid=89b9b55a-1392-498d-b8a5-8520a39c9a74"},"vehicle_type_id":"4","last_reported":1741446390,"current_range_meters":5600,"station_id":"ce4bh312rcd13ifvqdk0","pricing_plan_id":"cebpf4jnsgd1na2vs0mg"},{"bike_id":"62a259e1-cadb-48ce-ac15-f187d5557272","system_id":"levelo_inurba_marseille","lat":43.29169,"lon":5.37177,"is_reserved":false,"is_disabled":false,"rental_uris":{"android":"levelo://app?vid=62a259e1-cadb-48ce-ac15-f187d5557272","ios":"levelo://app?vid=62a259e1-cadb-48ce-ac15-f187d5557272"},"vehicle_type_id":"4","last_reported":1741446390,"current_range_meters":5600,"station_id":"ce4bha92rcd13ifvqeh0","pricing_plan_id":"cebpf4jnsgd1na2vs0mg"},{"bike_id":"d4f2a1a3-59b0-468d-a110-4939ac517048","system_id":"levelo_inurba_marseille","lat":43.25581,"lon":5.38249,"is_reserved":false,"is_disabled":false,"rental_uris":{"android":"levelo://app?vid=d4f2a1a3-59b0-468d-a110-4939ac517048","ios":"levelo://app?vid=d4f2a1a3-59b0-468d-a110-4939ac517048"},"vehicle_type_id":"4","last_reported":1741446390,"current_range_meters":5600,"station_id":"ce4bhih2rcd13ifvqfs0","pricing_plan_id":"cebpf4jnsgd1na2vs0mg"},{"bike_id":"3021460f-67bb-4c42-968c-66850c9de0c2","system_id":"levelo_inurba_marseille","lat":43.286599,"lon":5.383301,"is_reserved":false,"is_disabled":false,"rental_uris":{"android":"levelo://app?vid=3021460f-67bb-4c42-968c-66850c9de0c2","ios":"levelo://app?vid=3021460f-67bb-4c42-968c-66850c9de0c2"},"vehicle_type_id":"4","last_reported":1741446390,"current_range_meters":5600,"station_id":"ce4bhh92rcd13ifvqfj0","pricing_plan_id":"cebpf4jnsgd1na2vs0mg"},{"bike_id":"30af4b38-17f9-4eae-85ca-9d0045cd4d6d","system_id":"levelo_inurba_marseille","lat":43.25715,"lon":5.41099,"is_reserved":false,"is_disabled":false,"rental_uris":{"android":"levelo://app?vid=30af4b38-17f9-4eae-85ca-9d0045cd4d6d","ios":"levelo://app?vid=30af4b38-17f9-4eae-85ca-9d0045cd4d6d"},"vehicle_type_id":"4","last_reported":1741446390,"current_range_meters":5600,"station_id":"ce4bhkp2rcd13ifvqgd0","pricing_plan_id":"cebpf4jnsgd1na2vs0mg"},{"bike_id":"f21002e3-f25a-4f81-8367-9eb43c572ae2","system_id":"levelo_inurba_marseille","lat":43.2841,"lon":5.34976,"is_reserved":false,"is_disabled":false,"rental_uris":{"android":"levelo://app?vid=f21002e3-f25a-4f81-8367-9eb43c572ae2","ios":"levelo://app?vid=f21002e3-f25a-4f81-8367-9eb43c572ae2"},"vehicle_type_id":"4","last_reported":1741446390,"current_range_meters":5600,"station_id":"ce4bhbh2rcd13ifvqepg","pricing_plan_id":"cebpf4jnsgd1na2vs0mg"},{"bike_id":"0af30f24-954a-46d7-b033-51d52f807b8c","system_id":"levelo_inurba_marseille","lat":43.24998,"lon":5.38911,"is_reserved":false,"is_disabled":false,"rental_uris":{"android":"levelo://app?vid=0af30f24-954a-46d7-b033-51d52f807b8c","ios":"levelo://app?vid=0af30f24-954a-46d7-b033-51d52f807b8c"},"vehicle_type_id":"4","last_reported":1741446390,"current_range_meters":6000,"station_id":"ce4bhgp2rcd13ifvqfd0","pricing_plan_id":"cebpf4jnsgd1na2vs0mg"},{"bike_id":"4afdbfd0-98cd-490e-8f08-f8fabefa21b1","system_id":"levelo_inurba_marseille","lat":43.23955,"lon":5.36651,"is_reserved":false,"is_disabled":false,"rental_uris":{"android":"levelo://app?vid=4afdbfd0-98cd-490e-8f08-f8fabefa21b1","ios":"levelo://app?vid=4afdbfd0-98cd-490e-8f08-f8fabefa21b1"},"vehicle_type_id":"4","last_reported":1741446390,"current_range_meters":6000,"station_id":"ce4bhi12rcd13ifvqfp0","pricing_plan_id":"cebpf4jnsgd1na2vs0mg"},{"bike_id":"d02759d0-cc6c-4953-b85d-59431fe970ee","system_id":"levelo_inurba_marseille","lat":43.29581,"lon":5.36745,"is_reserved":false,"is_disabled":false,"rental_uris":{"android":"levelo://app?vid=d02759d0-cc6c-4953-b85d-59431fe970ee","ios":"levelo://app?vid=d02759d0-cc6c-4953-b85d-59431fe970ee"},"vehicle_type_id":"4","last_reported":1741446390,"current_range_meters":6800,"station_id":"ce4bgph2rcd13ifvqc2g","pricing_plan_id":"cebpf4jnsgd1na2vs0mg"},{"bike_id":"2fe1a329-1952-40b7-8452-dd991a688639","system_id":"levelo_inurba_marseille","lat":43.26211,"lon":5.3744,"is_reserved":false,"is_disabled":false,"rental_uris":{"android":"levelo://app?vid=2fe1a329-1952-40b7-8452-dd991a688639","ios":"levelo://app?vid=2fe1a329-1952-40b7-8452-dd991a688639"},"vehicle_type_id":"4","last_reported":1741446390,"current_range_meters":6000,"station_id":"ce4bhgp2rcd13ifvqfc0","pricing_plan_id":"cebpf4jnsgd1na2vs0mg"},{"bike_id":"51510a95-54e3-4b84-9b22-bfa3391426f3","system_id":"levelo_inurba_marseille","lat":43.23203,"lon":5.3556,"is_reserved":false,"is_disabled":false,"rental_uris":{"android":"levelo://app?vid=51510a95-54e3-4b84-9b22-bfa3391426f3","ios":"levelo://app?vid=51510a95-54e3-4b84-9b22-bfa3391426f3"},"vehicle_type_id":"4","last_reported":1741446390,"current_range_meters":6400,"station_id":"ce4bhu92rcd13ifvqi70","pricing_plan_id":"cebpf4jnsgd1na2vs0mg"},{"bike_id":"936e46b8-ae8f-4e92-9048-2a5d2229a1b9","system_id":"levelo_inurba_marseille","lat":43.26553,"lon":5.37292,"is_reserved":false,"is_disabled":false,"rental_uris":{"android":"levelo://app?vid=936e46b8-ae8f-4e92-9048-2a5d2229a1b9","ios":"levelo://app?vid=936e46b8-ae8f-4e92-9048-2a5d2229a1b9"},"vehicle_type_id":"4","last_reported":1741446390,"current_range_meters":6400,"station_id":"ce4bhg12rcd13ifvqf70","pricing_plan_id":"cebpf4jnsgd1na2vs0mg"},{"bike_id":"6843bb07-cc36-4faf-b0ed-3e493f2fde1d","system_id":"levelo_inurba_marseille","lat":43.28085,"lon":5.39669,"is_reserved":false,"is_disabled":false,"rental_uris":{"android":"levelo://app?vid=6843bb07-cc36-4faf-b0ed-3e493f2fde1d","ios":"levelo://app?vid=6843bb07-cc36-4faf-b0ed-3e493f2fde1d"},"vehicle_type_id":"4","last_reported":1741446390,"current_range_meters":6400,"station_id":"ce4bho12rcd13ifvqh2g","pricing_plan_id":"cebpf4jnsgd1na2vs0mg"},{"bike_id":"f93efb6d-f45d-4822-baf2-b6000414e4f6","system_id":"levelo_inurba_marseille","lat":43.3128,"lon":5.40179,"is_reserved":false,"is_disabled":false,"rental_uris":{"android":"levelo://app?vid=f93efb6d-f45d-4822-baf2-b6000414e4f6","ios":"levelo://app?vid=f93efb6d-f45d-4822-baf2-b6000414e4f6"},"vehicle_type_id":"4","last_reported":1741446390,"current_range_meters":6000,"station_id":"ce4bh092rcd13ifvqd30","pricing_plan_id":"cebpf4jnsgd1na2vs0mg"},{"bike_id":"8fbf8087-974c-4dcd-90dc-14d38fc86abb","system_id":"levelo_inurba_marseille","lat":43.2926,"lon":5.3685,"is_reserved":false,"is_disabled":false,"rental_uris":{"android":"levelo://app?vid=8fbf8087-974c-4dcd-90dc-14d38fc86abb","ios":"levelo://app?vid=8fbf8087-974c-4dcd-90dc-14d38fc86abb"},"vehicle_type_id":"4","last_reported":1741446390,"current_range_meters":6400,"station_id":"ce4bhbp2rcd13ifvqesg","pricing_plan_id":"cebpf4jnsgd1na2vs0mg"},{"bike_id":"99cd258d-ea06-4b31-94f2-6d7a2e81100f","system_id":"levelo_inurba_marseille","lat":43.28419,"lon":5.34975,"is_reserved":false,"is_disabled":false,"rental_uris":{"android":"levelo://app?vid=99cd258d-ea06-4b31-94f2-6d7a2e81100f","ios":"levelo://app?vid=99cd258d-ea06-4b31-94f2-6d7a2e81100f"},"vehicle_type_id":"4","last_reported":1741446390,"current_range_meters":6800,"station_id":"ce4bhbh2rcd13ifvqepg","pricing_plan_id":"cebpf4jnsgd1na2vs0mg"},{"bike_id":"d1eb45d5-439a-4265-92e5-9ce94a2123fb","system_id":"levelo_inurba_marseille","lat":43.27176,"lon":5.40996,"is_reserved":false,"is_disabled":false,"rental_uris":{"android":"levelo://app?vid=d1eb45d5-439a-4265-92e5-9ce94a2123fb","ios":"levelo://app?vid=d1eb45d5-439a-4265-92e5-9ce94a2123fb"},"vehicle_type_id":"4","last_reported":1741446390,"current_range_meters":6800,"station_id":"ce4bhl12rcd13ifvqgf0","pricing_plan_id":"cebpf4jnsgd1na2vs0mg"},{"bike_id":"13175bfa-1fbd-4880-9e0f-8d79e14aa6af","system_id":"levelo_inurba_marseille","lat":43.29614,"lon":5.3772,"is_reserved":false,"is_disabled":false,"rental_uris":{"android":"levelo://app?vid=13175bfa-1fbd-4880-9e0f-8d79e14aa6af","ios":"levelo://app?vid=13175bfa-1fbd-4880-9e0f-8d79e14aa6af"},"vehicle_type_id":"4","last_reported":1741446390,"current_range_meters":6800,"station_id":"ce4bgi92rcd13ifvqb90","pricing_plan_id":"cebpf4jnsgd1na2vs0mg"},{"bike_id":"e8399b52-7061-447d-a264-17357cc64f3b","system_id":"levelo_inurba_marseille","lat":43.2862,"lon":5.35108,"is_reserved":false,"is_disabled":false,"rental_uris":{"android":"levelo://app?vid=e8399b52-7061-447d-a264-17357cc64f3b","ios":"levelo://app?vid=e8399b52-7061-447d-a264-17357cc64f3b"},"vehicle_type_id":"4","last_reported":1741446390,"current_range_meters":6800,"station_id":"ce4bhch2rcd13ifvqeug","pricing_plan_id":"cebpf4jnsgd1na2vs0mg"},{"bike_id":"61461a90-0ad5-41f6-be7a-2dbffb24babb","system_id":"levelo_inurba_marseille","lat":43.295197,"lon":5.393975,"is_reserved":false,"is_disabled":false,"rental_uris":{"android":"levelo://app?vid=61461a90-0ad5-41f6-be7a-2dbffb24babb","ios":"levelo://app?vid=61461a90-0ad5-41f6-be7a-2dbffb24babb"},"vehicle_type_id":"4","last_reported":1741446390,"current_range_meters":6800,"station_id":"ce4bh292rcd13ifvqdf0","pricing_plan_id":"cebpf4jnsgd1na2vs0mg"},{"bike_id":"8b6ba4b9-63de-4063-b51e-730a3f1231f4","system_id":"levelo_inurba_marseille","lat":43.290294,"lon":5.355914,"is_reserved":false,"is_disabled":false,"rental_uris":{"android":"levelo://app?vid=8b6ba4b9-63de-4063-b51e-730a3f1231f4","ios":"levelo://app?vid=8b6ba4b9-63de-4063-b51e-730a3f1231f4"},"vehicle_type_id":"4","last_reported":1741446390,"current_range_meters":7200,"station_id":"ce4bhb92rcd13ifvqen0","pricing_plan_id":"cebpf4jnsgd1na2vs0mg"},{"bike_id":"230f1423-cc70-4dec-9ab4-f561fd18c9df","system_id":"levelo_inurba_marseille","lat":43.27373,"lon":5.3626,"is_reserved":false,"is_disabled":false,"rental_uris":{"android":"levelo://app?vid=230f1423-cc70-4dec-9ab4-f561fd18c9df","ios":"levelo://app?vid=230f1423-cc70-4dec-9ab4-f561fd18c9df"},"vehicle_type_id":"4","last_reported":1741446390,"current_range_meters":5600,"station_id":"ce4bhbh2rcd13ifvqeo0","pricing_plan_id":"cebpf4jnsgd1na2vs0mg"},{"bike_id":"bd1ca430-15b2-40f5-ab85-6f767aed8061","system_id":"levelo_inurba_marseille","lat":43.23063,"lon":5.35494,"is_reserved":false,"is_disabled":false,"rental_uris":{"android":"levelo://app?vid=bd1ca430-15b2-40f5-ab85-6f767aed8061","ios":"levelo://app?vid=bd1ca430-15b2-40f5-ab85-6f767aed8061"},"vehicle_type_id":"4","last_reported":1741446390,"current_range_meters":6800,"station_id":"cpo3342slgdg3j2ifvpg","pricing_plan_id":"cebpf4jnsgd1na2vs0mg"},{"bike_id":"e5c2f9a0-d065-4e10-9bff-a9a02c7dbc80","system_id":"levelo_inurba_marseille","lat":43.29899,"lon":5.43677,"is_reserved":false,"is_disabled":false,"rental_uris":{"android":"levelo://app?vid=e5c2f9a0-d065-4e10-9bff-a9a02c7dbc80","ios":"levelo://app?vid=e5c2f9a0-d065-4e10-9bff-a9a02c7dbc80"},"vehicle_type_id":"4","last_reported":1741446390,"current_range_meters":7200,"station_id":"ce4bhpp2rcd13ifvqhfg","pricing_plan_id":"cebpf4jnsgd1na2vs0mg"},{"bike_id":"8c4c9df9-bb14-452b-b05c-86e57433db81","system_id":"levelo_inurba_marseille","lat":43.29042,"lon":5.39973,"is_reserved":false,"is_disabled":false,"rental_uris":{"android":"levelo://app?vid=8c4c9df9-bb14-452b-b05c-86e57433db81","ios":"levelo://app?vid=8c4c9df9-bb14-452b-b05c-86e57433db81"},"vehicle_type_id":"4","last_reported":1741446390,"current_range_meters":7200,"station_id":"ce4bh392rcd13ifvqdm0","pricing_plan_id":"cebpf4jnsgd1na2vs0mg"},{"bike_id":"4ed48b06-6230-4554-a6db-0ca8551207e7","system_id":"levelo_inurba_marseille","lat":43.28995,"lon":5.35594,"is_reserved":false,"is_disabled":false,"rental_uris":{"android":"levelo://app?vid=4ed48b06-6230-4554-a6db-0ca8551207e7","ios":"levelo://app?vid=4ed48b06-6230-4554-a6db-0ca8551207e7"},"vehicle_type_id":"4","last_reported":1741446390,"current_range_meters":7200,"station_id":"ce4bha92rcd13ifvqeh0","pricing_plan_id":"cebpf4jnsgd1na2vs0mg"},{"bike_id":"9ebba43e-539b-40cd-8824-ed72a13b6f36","system_id":"levelo_inurba_marseille","lat":43.29519,"lon":5.39049,"is_reserved":false,"is_disabled":false,"rental_uris":{"android":"levelo://app?vid=9ebba43e-539b-40cd-8824-ed72a13b6f36","ios":"levelo://app?vid=9ebba43e-539b-40cd-8824-ed72a13b6f36"},"vehicle_type_id":"4","last_reported":1741446390,"current_range_meters":4800,"station_id":"ce4bh3p2rcd13ifvqdp0","pricing_plan_id":"cebpf4jnsgd1na2vs0mg"},{"bike_id":"d5f765a2-2b80-4070-9b9f-abe82da1f8c2","system_id":"levelo_inurba_marseille","lat":43.27321,"lon":5.39092,"is_reserved":false,"is_disabled":false,"rental_uris":{"android":"levelo://app?vid=d5f765a2-2b80-4070-9b9f-abe82da1f8c2","ios":"levelo://app?vid=d5f765a2-2b80-4070-9b9f-abe82da1f8c2"},"vehicle_type_id":"4","last_reported":1741446390,"current_range_meters":7200,"station_id":"ce4bhgp2rcd13ifvqfe0","pricing_plan_id":"cebpf4jnsgd1na2vs0mg"},{"bike_id":"43f6dbff-7f05-4d98-9ed8-d6a09cc75d62","system_id":"levelo_inurba_marseille","lat":43.29586,"lon":5.36742,"is_reserved":false,"is_disabled":false,"rental_uris":{"android":"levelo://app?vid=43f6dbff-7f05-4d98-9ed8-d6a09cc75d62","ios":"levelo://app?vid=43f6dbff-7f05-4d98-9ed8-d6a09cc75d62"},"vehicle_type_id":"4","last_reported":1741446390,"current_range_meters":7200,"station_id":"ce4bgph2rcd13ifvqc2g","pricing_plan_id":"cebpf4jnsgd1na2vs0mg"},{"bike_id":"fd3d46ff-b0ef-4ce2-93ec-7c6bd8f8f27d","system_id":"levelo_inurba_marseille","lat":43.31228,"lon":5.36848,"is_reserved":false,"is_disabled":false,"rental_uris":{"android":"levelo://app?vid=fd3d46ff-b0ef-4ce2-93ec-7c6bd8f8f27d","ios":"levelo://app?vid=fd3d46ff-b0ef-4ce2-93ec-7c6bd8f8f27d"},"vehicle_type_id":"4","last_reported":1741446390,"current_range_meters":8000,"station_id":"ce4bgl92rcd13ifvqbq0","pricing_plan_id":"cebpf4jnsgd1na2vs0mg"},{"bike_id":"20a1f52c-0560-4274-a90f-a41b3a6c37b5","system_id":"levelo_inurba_marseille","lat":43.26784,"lon":5.39424,"is_reserved":false,"is_disabled":false,"rental_uris":{"android":"levelo://app?vid=20a1f52c-0560-4274-a90f-a41b3a6c37b5","ios":"levelo://app?vid=20a1f52c-0560-4274-a90f-a41b3a6c37b5"},"vehicle_type_id":"4","last_reported":1741446390,"current_range_meters":8000,"station_id":"ce4bhh12rcd13ifvqfg0","pricing_plan_id":"cebpf4jnsgd1na2vs0mg"},{"bike_id":"60fba7df-4520-4d63-9c5b-9a7a002cedfb","system_id":"levelo_inurba_marseille","lat":43.28044,"lon":5.39139,"is_reserved":false,"is_disabled":false,"rental_uris":{"android":"levelo://app?vid=60fba7df-4520-4d63-9c5b-9a7a002cedfb","ios":"levelo://app?vid=60fba7df-4520-4d63-9c5b-9a7a002cedfb"},"vehicle_type_id":"4","last_reported":1741446390,"current_range_meters":8000,"station_id":"","pricing_plan_id":"cebpf4jnsgd1na2vs0mg"},{"bike_id":"5e52ac18-9513-4bd2-90c8-bac9121c601d","system_id":"levelo_inurba_marseille","lat":43.29522,"lon":5.39055,"is_reserved":false,"is_disabled":false,"rental_uris":{"android":"levelo://app?vid=5e52ac18-9513-4bd2-90c8-bac9121c601d","ios":"levelo://app?vid=5e52ac18-9513-4bd2-90c8-bac9121c601d"},"vehicle_type_id":"4","last_reported":1741446390,"current_range_meters":12000,"station_id":"ce4bh3p2rcd13ifvqdp0","pricing_plan_id":"cebpf4jnsgd1na2vs0mg"},{"bike_id":"a9369571-956f-43e6-a5ed-a7157ad06e5e","system_id":"levelo_inurba_marseille","lat":43.23057,"lon":5.35486,"is_reserved":false,"is_disabled":false,"rental_uris":{"android":"levelo://app?vid=a9369571-956f-43e6-a5ed-a7157ad06e5e","ios":"levelo://app?vid=a9369571-956f-43e6-a5ed-a7157ad06e5e"},"vehicle_type_id":"4","last_reported":1741446390,"current_range_meters":8000,"station_id":"cpo3342slgdg3j2ifvpg","pricing_plan_id":"cebpf4jnsgd1na2vs0mg"},{"bike_id":"805e60eb-0027-4ccc-9fef-9309861e6ed7","system_id":"levelo_inurba_marseille","lat":43.25488,"lon":5.37643,"is_reserved":false,"is_disabled":false,"rental_uris":{"android":"levelo://app?vid=805e60eb-0027-4ccc-9fef-9309861e6ed7","ios":"levelo://app?vid=805e60eb-0027-4ccc-9fef-9309861e6ed7"},"vehicle_type_id":"4","last_reported":1741446390,"current_range_meters":8000,"station_id":"ce4bhh12rcd13ifvqff0","pricing_plan_id":"cebpf4jnsgd1na2vs0mg"},{"bike_id":"2ad15ec6-111b-4d9a-8913-bf88e05b2645","system_id":"levelo_inurba_marseille","lat":43.25584,"lon":5.38241,"is_reserved":false,"is_disabled":false,"rental_uris":{"android":"levelo://app?vid=2ad15ec6-111b-4d9a-8913-bf88e05b2645","ios":"levelo://app?vid=2ad15ec6-111b-4d9a-8913-bf88e05b2645"},"vehicle_type_id":"4","last_reported":1741446390,"current_range_meters":8000,"station_id":"ce4bhih2rcd13ifvqfs0","pricing_plan_id":"cebpf4jnsgd1na2vs0mg"},{"bike_id":"b9c7ad84-7bfa-4cc0-90ab-2011c1896e0e","system_id":"levelo_inurba_marseille","lat":43.22918,"lon":5.35365,"is_reserved":false,"is_disabled":false,"rental_uris":{"android":"levelo://app?vid=b9c7ad84-7bfa-4cc0-90ab-2011c1896e0e","ios":"levelo://app?vid=b9c7ad84-7bfa-4cc0-90ab-2011c1896e0e"},"vehicle_type_id":"4","last_reported":1741446390,"current_range_meters":8000,"station_id":"cpo3532slgdg3j2ikp40","pricing_plan_id":"cebpf4jnsgd1na2vs0mg"},{"bike_id":"493754c0-a0a4-4774-95e7-4389ac4faa13","system_id":"levelo_inurba_marseille","lat":43.2535,"lon":5.38494,"is_reserved":false,"is_disabled":false,"rental_uris":{"android":"levelo://app?vid=493754c0-a0a4-4774-95e7-4389ac4faa13","ios":"levelo://app?vid=493754c0-a0a4-4774-95e7-4389ac4faa13"},"vehicle_type_id":"4","last_reported":1741446390,"current_range_meters":8400,"station_id":"ce4bhgh2rcd13ifvqfb0","pricing_plan_id":"cebpf4jnsgd1na2vs0mg"},{"bike_id":"a3e70754-30f2-4cc9-8dfd-52ba02cbafed","system_id":"levelo_inurba_marseille","lat":43.27378,"lon":5.36258,"is_reserved":false,"is_disabled":false,"rental_uris":{"android":"levelo://app?vid=a3e70754-30f2-4cc9-8dfd-52ba02cbafed","ios":"levelo://app?vid=a3e70754-30f2-4cc9-8dfd-52ba02cbafed"},"vehicle_type_id":"4","last_reported":1741446390,"current_range_meters":8000,"station_id":"ce4bhbh2rcd13ifvqeo0","pricing_plan_id":"cebpf4jnsgd1na2vs0mg"},{"bike_id":"a822f199-a5d5-4363-87b4-dcfe9ba3814e","system_id":"levelo_inurba_marseille","lat":43.29613,"lon":5.37714,"is_reserved":false,"is_disabled":false,"rental_uris":{"android":"levelo://app?vid=a822f199-a5d5-4363-87b4-dcfe9ba3814e","ios":"levelo://app?vid=a822f199-a5d5-4363-87b4-dcfe9ba3814e"},"vehicle_type_id":"4","last_reported":1741446390,"current_range_meters":8400,"station_id":"ce4bgi92rcd13ifvqb90","pricing_plan_id":"cebpf4jnsgd1na2vs0mg"},{"bike_id":"b37a28ef-2c70-4a54-a093-e2d7f3e1c5df","system_id":"levelo_inurba_marseille","lat":43.27614,"lon":5.36105,"is_reserved":false,"is_disabled":false,"rental_uris":{"android":"levelo://app?vid=b37a28ef-2c70-4a54-a093-e2d7f3e1c5df","ios":"levelo://app?vid=b37a28ef-2c70-4a54-a093-e2d7f3e1c5df"},"vehicle_type_id":"4","last_reported":1741446390,"current_range_meters":8400,"station_id":"ce4bgj92rcd13ifvqbe0","pricing_plan_id":"cebpf4jnsgd1na2vs0mg"},{"bike_id":"a60a714b-c357-487a-ae07-7c9300915823","system_id":"levelo_inurba_marseille","lat":43.26917,"lon":5.40227,"is_reserved":false,"is_disabled":false,"rental_uris":{"android":"levelo://app?vid=a60a714b-c357-487a-ae07-7c9300915823","ios":"levelo://app?vid=a60a714b-c357-487a-ae07-7c9300915823"},"vehicle_type_id":"4","last_reported":1741446390,"current_range_meters":8400,"station_id":"cjm6bp8fraef2m0cb0m0","pricing_plan_id":"cebpf4jnsgd1na2vs0mg"},{"bike_id":"7b62c62b-d961-49e1-afe1-b0b21a291801","system_id":"levelo_inurba_marseille","lat":43.27881,"lon":5.41761,"is_reserved":false,"is_disabled":false,"rental_uris":{"android":"levelo://app?vid=7b62c62b-d961-49e1-afe1-b0b21a291801","ios":"levelo://app?vid=7b62c62b-d961-49e1-afe1-b0b21a291801"},"vehicle_type_id":"4","last_reported":1741446390,"current_range_meters":8400,"station_id":"","pricing_plan_id":"cebpf4jnsgd1na2vs0mg"},{"bike_id":"913cf932-b5c9-40ec-9bd5-a6567b9766f2","system_id":"levelo_inurba_marseille","lat":43.29301,"lon":5.37468,"is_reserved":false,"is_disabled":false,"rental_uris":{"android":"levelo://app?vid=913cf932-b5c9-40ec-9bd5-a6567b9766f2","ios":"levelo://app?vid=913cf932-b5c9-40ec-9bd5-a6567b9766f2"},"vehicle_type_id":"4","last_reported":1741446390,"current_range_meters":8400,"station_id":"ce4bgi12rcd13ifvqb70","pricing_plan_id":"cebpf4jnsgd1na2vs0mg"},{"bike_id":"608a905d-f1a6-45a0-a639-c0daabbb1559","system_id":"levelo_inurba_marseille","lat":43.29366,"lon":5.37857,"is_reserved":false,"is_disabled":false,"rental_uris":{"android":"levelo://app?vid=608a905d-f1a6-45a0-a639-c0daabbb1559","ios":"levelo://app?vid=608a905d-f1a6-45a0-a639-c0daabbb1559"},"vehicle_type_id":"4","last_reported":1741446390,"current_range_meters":8000,"station_id":"ce4bgjh2rcd13ifvqbf0","pricing_plan_id":"cebpf4jnsgd1na2vs0mg"},{"bike_id":"9effefb9-02e3-4c25-ab75-e3a5ac01515f","system_id":"levelo_inurba_marseille","lat":43.26551,"lon":5.37287,"is_reserved":false,"is_disabled":true,"rental_uris":{"android":"levelo://app?vid=9effefb9-02e3-4c25-ab75-e3a5ac01515f","ios":"levelo://app?vid=9effefb9-02e3-4c25-ab75-e3a5ac01515f"},"vehicle_type_id":"4","last_reported":1741446390,"current_range_meters":8400,"station_id":"ce4bhg12rcd13ifvqf70","pricing_plan_id":"cebpf4jnsgd1na2vs0mg"},{"bike_id":"3aa91c8d-a1d8-41d6-a615-5ee65bd9b93c","system_id":"levelo_inurba_marseille","lat":43.26204,"lon":5.37935,"is_reserved":false,"is_disabled":false,"rental_uris":{"android":"levelo://app?vid=3aa91c8d-a1d8-41d6-a615-5ee65bd9b93c","ios":"levelo://app?vid=3aa91c8d-a1d8-41d6-a615-5ee65bd9b93c"},"vehicle_type_id":"4","last_reported":1741446390,"current_range_meters":8400,"station_id":"ce4bhjp2rcd13ifvqg90","pricing_plan_id":"cebpf4jnsgd1na2vs0mg"},{"bike_id":"956a9005-e053-4d3b-a63a-6858f68fa07b","system_id":"levelo_inurba_marseille","lat":43.29701,"lon":5.36617,"is_reserved":false,"is_disabled":false,"rental_uris":{"android":"levelo://app?vid=956a9005-e053-4d3b-a63a-6858f68fa07b","ios":"levelo://app?vid=956a9005-e053-4d3b-a63a-6858f68fa07b"},"vehicle_type_id":"4","last_reported":1741446390,"current_range_meters":8400,"station_id":"ce4bgn12rcd13ifvqbt0","pricing_plan_id":"cebpf4jnsgd1na2vs0mg"},{"bike_id":"ac0a9c9b-b35f-461f-8202-da778786881c","system_id":"levelo_inurba_marseille","lat":43.23186,"lon":5.39982,"is_reserved":false,"is_disabled":false,"rental_uris":{"android":"levelo://app?vid=ac0a9c9b-b35f-461f-8202-da778786881c","ios":"levelo://app?vid=ac0a9c9b-b35f-461f-8202-da778786881c"},"vehicle_type_id":"4","last_reported":1741446390,"current_range_meters":8400,"station_id":"ce4bhn12rcd13ifvqgqg","pricing_plan_id":"cebpf4jnsgd1na2vs0mg"},{"bike_id":"dd86b10e-a594-47f2-911b-24db75462110","system_id":"levelo_inurba_marseille","lat":43.3054,"lon":5.36545,"is_reserved":false,"is_disabled":false,"rental_uris":{"android":"levelo://app?vid=dd86b10e-a594-47f2-911b-24db75462110","ios":"levelo://app?vid=dd86b10e-a594-47f2-911b-24db75462110"},"vehicle_type_id":"4","last_reported":1741446390,"current_range_meters":6800,"station_id":"ce4bgs12rcd13ifvqcag","pricing_plan_id":"cebpf4jnsgd1na2vs0mg"},{"bike_id":"8f5302e0-5e5c-4fdf-a4aa-32d3af7a1f25","system_id":"levelo_inurba_marseille","lat":43.2904,"lon":5.3997,"is_reserved":false,"is_disabled":false,"rental_uris":{"android":"levelo://app?vid=8f5302e0-5e5c-4fdf-a4aa-32d3af7a1f25","ios":"levelo://app?vid=8f5302e0-5e5c-4fdf-a4aa-32d3af7a1f25"},"vehicle_type_id":"4","last_reported":1741446390,"current_range_meters":9600,"station_id":"ce4bh392rcd13ifvqdm0","pricing_plan_id":"cebpf4jnsgd1na2vs0mg"},{"bike_id":"8258d152-022d-4c43-ac55-484a31c67e69","system_id":"levelo_inurba_marseille","lat":43.292731,"lon":5.36645,"is_reserved":false,"is_disabled":false,"rental_uris":{"android":"levelo://app?vid=8258d152-022d-4c43-ac55-484a31c67e69","ios":"levelo://app?vid=8258d152-022d-4c43-ac55-484a31c67e69"},"vehicle_type_id":"4","last_reported":1741446390,"current_range_meters":8000,"station_id":"ce4bhu92rcd13ifvqi70","pricing_plan_id":"cebpf4jnsgd1na2vs0mg"},{"bike_id":"5b5aedb3-4e32-42ec-a6c8-15d3886f1432","system_id":"levelo_inurba_marseille","lat":43.29522,"lon":5.39058,"is_reserved":false,"is_disabled":false,"rental_uris":{"android":"levelo://app?vid=5b5aedb3-4e32-42ec-a6c8-15d3886f1432","ios":"levelo://app?vid=5b5aedb3-4e32-42ec-a6c8-15d3886f1432"},"vehicle_type_id":"4","last_reported":1741446390,"current_range_meters":12400,"station_id":"ce4bh3p2rcd13ifvqdp0","pricing_plan_id":"cebpf4jnsgd1na2vs0mg"},{"bike_id":"e524bcef-a391-41b2-bad2-673eae53ea51","system_id":"levelo_inurba_marseille","lat":43.31724,"lon":5.43717,"is_reserved":false,"is_disabled":false,"rental_uris":{"android":"levelo://app?vid=e524bcef-a391-41b2-bad2-673eae53ea51","ios":"levelo://app?vid=e524bcef-a391-41b2-bad2-673eae53ea51"},"vehicle_type_id":"4","last_reported":1741446390,"current_range_meters":8800,"station_id":"ce4bhp92rcd13ifvqhcg","pricing_plan_id":"cebpf4jnsgd1na2vs0mg"},{"bike_id":"187a9fd9-f8d0-4a5f-8365-ad2372a61226","system_id":"levelo_inurba_marseille","lat":43.27565,"lon":5.38435,"is_reserved":false,"is_disabled":false,"rental_uris":{"android":"levelo://app?vid=187a9fd9-f8d0-4a5f-8365-ad2372a61226","ios":"levelo://app?vid=187a9fd9-f8d0-4a5f-8365-ad2372a61226"},"vehicle_type_id":"4","last_reported":1741446390,"current_range_meters":8800,"station_id":"ce4bhh92rcd13ifvqfi0","pricing_plan_id":"cebpf4jnsgd1na2vs0mg"},{"bike_id":"4c63458e-2db0-4cb3-bfc1-7ab137c5f028","system_id":"levelo_inurba_marseille","lat":43.26944,"lon":5.40256,"is_reserved":false,"is_disabled":false,"rental_uris":{"android":"levelo://app?vid=4c63458e-2db0-4cb3-bfc1-7ab137c5f028","ios":"levelo://app?vid=4c63458e-2db0-4cb3-bfc1-7ab137c5f028"},"vehicle_type_id":"4","last_reported":1741446390,"current_range_meters":8800,"station_id":"cjm6bp8fraef2m0cb0m0","pricing_plan_id":"cebpf4jnsgd1na2vs0mg"},{"bike_id":"058614a2-1416-479d-8ec4-0e29c7c62651","system_id":"levelo_inurba_marseille","lat":43.23149,"lon":5.4373,"is_reserved":false,"is_disabled":false,"rental_uris":{"android":"levelo://app?vid=058614a2-1416-479d-8ec4-0e29c7c62651","ios":"levelo://app?vid=058614a2-1416-479d-8ec4-0e29c7c62651"},"vehicle_type_id":"4","last_reported":1741446390,"current_range_meters":8800,"station_id":"ce4bhmp2rcd13ifvqgog","pricing_plan_id":"cebpf4jnsgd1na2vs0mg"},{"bike_id":"0e674cb4-f37d-4bd5-aaff-7ec953d386c6","system_id":"levelo_inurba_marseille","lat":43.24181,"lon":5.36395,"is_reserved":false,"is_disabled":false,"rental_uris":{"android":"levelo://app?vid=0e674cb4-f37d-4bd5-aaff-7ec953d386c6","ios":"levelo://app?vid=0e674cb4-f37d-4bd5-aaff-7ec953d386c6"},"vehicle_type_id":"4","last_reported":1741446390,"current_range_meters":8800,"station_id":"cpo36qri1sfpv3e86is0","pricing_plan_id":"cebpf4jnsgd1na2vs0mg"},{"bike_id":"bc3f7554-9382-4361-a0ad-6243345b55f0","system_id":"levelo_inurba_marseille","lat":43.29383,"lon":5.37856,"is_reserved":false,"is_disabled":false,"rental_uris":{"android":"levelo://app?vid=bc3f7554-9382-4361-a0ad-6243345b55f0","ios":"levelo://app?vid=bc3f7554-9382-4361-a0ad-6243345b55f0"},"vehicle_type_id":"4","last_reported":1741446390,"current_range_meters":8800,"station_id":"ce4bgjh2rcd13ifvqbf0","pricing_plan_id":"cebpf4jnsgd1na2vs0mg"},{"bike_id":"03b927b0-3667-416e-a51e-f32d04cd7c40","system_id":"levelo_inurba_marseille","lat":43.30306,"lon":5.36864,"is_reserved":false,"is_disabled":false,"rental_uris":{"android":"levelo://app?vid=03b927b0-3667-416e-a51e-f32d04cd7c40","ios":"levelo://app?vid=03b927b0-3667-416e-a51e-f32d04cd7c40"},"vehicle_type_id":"4","last_reported":1741446390,"current_range_meters":8800,"station_id":"ce4bgqh2rcd13ifvqc5g","pricing_plan_id":"cebpf4jnsgd1na2vs0mg"},{"bike_id":"95eb3c48-f5ed-426e-ba5a-64c3da70725e","system_id":"levelo_inurba_marseille","lat":43.29026,"lon":5.3814,"is_reserved":false,"is_disabled":false,"rental_uris":{"android":"levelo://app?vid=95eb3c48-f5ed-426e-ba5a-64c3da70725e","ios":"levelo://app?vid=95eb3c48-f5ed-426e-ba5a-64c3da70725e"},"vehicle_type_id":"4","last_reported":1741446390,"current_range_meters":9200,"station_id":"ce4bh4p2rcd13ifvqe1g","pricing_plan_id":"cebpf4jnsgd1na2vs0mg"},{"bike_id":"15e81f64-0ba6-4178-af7a-72b24202f57f","system_id":"levelo_inurba_marseille","lat":43.29511,"lon":5.37505,"is_reserved":false,"is_disabled":false,"rental_uris":{"android":"levelo://app?vid=15e81f64-0ba6-4178-af7a-72b24202f57f","ios":"levelo://app?vid=15e81f64-0ba6-4178-af7a-72b24202f57f"},"vehicle_type_id":"4","last_reported":1741446390,"current_range_meters":9200,"station_id":"ce4bgkp2rcd13ifvqbmg","pricing_plan_id":"cebpf4jnsgd1na2vs0mg"},{"bike_id":"e15a7c55-8809-4af9-8f5f-ea0fdbc19aa5","system_id":"levelo_inurba_marseille","lat":43.29582,"lon":5.37511,"is_reserved":false,"is_disabled":false,"rental_uris":{"android":"levelo://app?vid=e15a7c55-8809-4af9-8f5f-ea0fdbc19aa5","ios":"levelo://app?vid=e15a7c55-8809-4af9-8f5f-ea0fdbc19aa5"},"vehicle_type_id":"4","last_reported":1741446390,"current_range_meters":9200,"station_id":"ce4bgh92rcd13ifvqb50","pricing_plan_id":"cebpf4jnsgd1na2vs0mg"},{"bike_id":"1a2bd6ce-febc-4ff5-bafb-86a9b5cd0232","system_id":"levelo_inurba_marseille","lat":43.23153,"lon":5.43721,"is_reserved":false,"is_disabled":false,"rental_uris":{"android":"levelo://app?vid=1a2bd6ce-febc-4ff5-bafb-86a9b5cd0232","ios":"levelo://app?vid=1a2bd6ce-febc-4ff5-bafb-86a9b5cd0232"},"vehicle_type_id":"4","last_reported":1741446390,"current_range_meters":9200,"station_id":"ce4bhmp2rcd13ifvqgog","pricing_plan_id":"cebpf4jnsgd1na2vs0mg"},{"bike_id":"1eaf6578-1706-480b-89f9-d2304ea6ba8e","system_id":"levelo_inurba_marseille","lat":43.28419,"lon":5.34992,"is_reserved":false,"is_disabled":false,"rental_uris":{"android":"levelo://app?vid=1eaf6578-1706-480b-89f9-d2304ea6ba8e","ios":"levelo://app?vid=1eaf6578-1706-480b-89f9-d2304ea6ba8e"},"vehicle_type_id":"4","last_reported":1741446390,"current_range_meters":9200,"station_id":"ce4bhbh2rcd13ifvqepg","pricing_plan_id":"cebpf4jnsgd1na2vs0mg"},{"bike_id":"4d87e11e-71ad-4c81-adc0-a5ccb3affb88","system_id":"levelo_inurba_marseille","lat":43.295243,"lon":5.390412,"is_reserved":false,"is_disabled":false,"rental_uris":{"android":"levelo://app?vid=4d87e11e-71ad-4c81-adc0-a5ccb3affb88","ios":"levelo://app?vid=4d87e11e-71ad-4c81-adc0-a5ccb3affb88"},"vehicle_type_id":"4","last_reported":1741446390,"current_range_meters":8800,"station_id":"ce4bhn12rcd13ifvqgqg","pricing_plan_id":"cebpf4jnsgd1na2vs0mg"},{"bike_id":"1919ed49-cc80-48d5-9b2e-6aad42f079e7","system_id":"levelo_inurba_marseille","lat":43.296152,"lon":5.376962,"is_reserved":false,"is_disabled":false,"rental_uris":{"android":"levelo://app?vid=1919ed49-cc80-48d5-9b2e-6aad42f079e7","ios":"levelo://app?vid=1919ed49-cc80-48d5-9b2e-6aad42f079e7"},"vehicle_type_id":"4","last_reported":1741446390,"current_range_meters":9200,"station_id":"ce4bgi92rcd13ifvqb90","pricing_plan_id":"cebpf4jnsgd1na2vs0mg"},{"bike_id":"201e16e9-1f9c-45a3-8dec-2d516ef1efcb","system_id":"levelo_inurba_marseille","lat":43.23962,"lon":5.36632,"is_reserved":false,"is_disabled":false,"rental_uris":{"android":"levelo://app?vid=201e16e9-1f9c-45a3-8dec-2d516ef1efcb","ios":"levelo://app?vid=201e16e9-1f9c-45a3-8dec-2d516ef1efcb"},"vehicle_type_id":"4","last_reported":1741446390,"current_range_meters":9200,"station_id":"ce4bhi12rcd13ifvqfp0","pricing_plan_id":"cebpf4jnsgd1na2vs0mg"},{"bike_id":"cb0d4d15-0ce0-4061-8a04-93bcbe80bd0f","system_id":"levelo_inurba_marseille","lat":43.25941,"lon":5.40895,"is_reserved":false,"is_disabled":false,"rental_uris":{"android":"levelo://app?vid=cb0d4d15-0ce0-4061-8a04-93bcbe80bd0f","ios":"levelo://app?vid=cb0d4d15-0ce0-4061-8a04-93bcbe80bd0f"},"vehicle_type_id":"4","last_reported":1741446390,"current_range_meters":9200,"station_id":"ce4bhm92rcd13ifvqglg","pricing_plan_id":"cebpf4jnsgd1na2vs0mg"},{"bike_id":"6508a041-6e73-48e7-a653-f2baa016da74","system_id":"levelo_inurba_marseille","lat":43.29521,"lon":5.37508,"is_reserved":false,"is_disabled":false,"rental_uris":{"android":"levelo://app?vid=6508a041-6e73-48e7-a653-f2baa016da74","ios":"levelo://app?vid=6508a041-6e73-48e7-a653-f2baa016da74"},"vehicle_type_id":"4","last_reported":1741446390,"current_range_meters":9200,"station_id":"ce4bgkp2rcd13ifvqbmg","pricing_plan_id":"cebpf4jnsgd1na2vs0mg"},{"bike_id":"9bfe4e82-241b-4620-b471-d226beb88b23","system_id":"levelo_inurba_marseille","lat":43.22924,"lon":5.35393,"is_reserved":false,"is_disabled":false,"rental_uris":{"android":"levelo://app?vid=9bfe4e82-241b-4620-b471-d226beb88b23","ios":"levelo://app?vid=9bfe4e82-241b-4620-b471-d226beb88b23"},"vehicle_type_id":"4","last_reported":1741446390,"current_range_meters":9200,"station_id":"cpo3532slgdg3j2ikp40","pricing_plan_id":"cebpf4jnsgd1na2vs0mg"},{"bike_id":"fe26fd78-c21a-489a-935f-586d6749759b","system_id":"levelo_inurba_marseille","lat":43.292815,"lon":5.36832,"is_reserved":false,"is_disabled":false,"rental_uris":{"android":"levelo://app?vid=fe26fd78-c21a-489a-935f-586d6749759b","ios":"levelo://app?vid=fe26fd78-c21a-489a-935f-586d6749759b"},"vehicle_type_id":"4","last_reported":1741446390,"current_range_meters":9200,"station_id":"ce4bhbp2rcd13ifvqesg","pricing_plan_id":"cebpf4jnsgd1na2vs0mg"},{"bike_id":"664aa5da-03eb-4031-8a13-57947a835888","system_id":"levelo_inurba_marseille","lat":43.28419,"lon":5.34983,"is_reserved":false,"is_disabled":false,"rental_uris":{"android":"levelo://app?vid=664aa5da-03eb-4031-8a13-57947a835888","ios":"levelo://app?vid=664aa5da-03eb-4031-8a13-57947a835888"},"vehicle_type_id":"4","last_reported":1741446390,"current_range_meters":9200,"station_id":"ce4bhbh2rcd13ifvqepg","pricing_plan_id":"cebpf4jnsgd1na2vs0mg"},{"bike_id":"9eb927fc-4297-46e0-bfbc-f0263d1fc344","system_id":"levelo_inurba_marseille","lat":43.30318,"lon":5.36902,"is_reserved":false,"is_disabled":false,"rental_uris":{"android":"levelo://app?vid=9eb927fc-4297-46e0-bfbc-f0263d1fc344","ios":"levelo://app?vid=9eb927fc-4297-46e0-bfbc-f0263d1fc344"},"vehicle_type_id":"4","last_reported":1741446390,"current_range_meters":9200,"station_id":"ce4bgqh2rcd13ifvqc5g","pricing_plan_id":"cebpf4jnsgd1na2vs0mg"},{"bike_id":"3a664454-50d4-42f2-9222-7f2d6618aa17","system_id":"levelo_inurba_marseille","lat":43.26943,"lon":5.40249,"is_reserved":false,"is_disabled":false,"rental_uris":{"android":"levelo://app?vid=3a664454-50d4-42f2-9222-7f2d6618aa17","ios":"levelo://app?vid=3a664454-50d4-42f2-9222-7f2d6618aa17"},"vehicle_type_id":"4","last_reported":1741446390,"current_range_meters":8800,"station_id":"cjm6bp8fraef2m0cb0m0","pricing_plan_id":"cebpf4jnsgd1na2vs0mg"},{"bike_id":"93b65028-e8a4-4c8f-876a-ae246ea8ac90","system_id":"levelo_inurba_marseille","lat":43.31362,"lon":5.38497,"is_reserved":false,"is_disabled":true,"rental_uris":{"android":"levelo://app?vid=93b65028-e8a4-4c8f-876a-ae246ea8ac90","ios":"levelo://app?vid=93b65028-e8a4-4c8f-876a-ae246ea8ac90"},"vehicle_type_id":"4","last_reported":1741446390,"current_range_meters":9600,"station_id":"ce4bgt92rcd13ifvqcf0","pricing_plan_id":"cebpf4jnsgd1na2vs0mg"},{"bike_id":"049fb279-0f85-4d71-9946-2c1f9d5cd1a0","system_id":"levelo_inurba_marseille","lat":43.23186,"lon":5.39984,"is_reserved":false,"is_disabled":false,"rental_uris":{"android":"levelo://app?vid=049fb279-0f85-4d71-9946-2c1f9d5cd1a0","ios":"levelo://app?vid=049fb279-0f85-4d71-9946-2c1f9d5cd1a0"},"vehicle_type_id":"4","last_reported":1741446390,"current_range_meters":9600,"station_id":"ce4bhn12rcd13ifvqgqg","pricing_plan_id":"cebpf4jnsgd1na2vs0mg"},{"bike_id":"32fa75a4-0edf-401c-bad7-51dec08518a5","system_id":"levelo_inurba_marseille","lat":43.28303,"lon":5.3508,"is_reserved":false,"is_disabled":false,"rental_uris":{"android":"levelo://app?vid=32fa75a4-0edf-401c-bad7-51dec08518a5","ios":"levelo://app?vid=32fa75a4-0edf-401c-bad7-51dec08518a5"},"vehicle_type_id":"4","last_reported":1741446390,"current_range_meters":9600,"station_id":"ce4bhbp2rcd13ifvqerg","pricing_plan_id":"cebpf4jnsgd1na2vs0mg"},{"bike_id":"3324025d-29b9-4262-91bf-4084c17de635","system_id":"levelo_inurba_marseille","lat":43.27328,"lon":5.39072,"is_reserved":false,"is_disabled":false,"rental_uris":{"android":"levelo://app?vid=3324025d-29b9-4262-91bf-4084c17de635","ios":"levelo://app?vid=3324025d-29b9-4262-91bf-4084c17de635"},"vehicle_type_id":"4","last_reported":1741446390,"current_range_meters":9600,"station_id":"ce4bhgp2rcd13ifvqfe0","pricing_plan_id":"cebpf4jnsgd1na2vs0mg"},{"bike_id":"4f508b50-1e3d-40c5-be77-1e6495edbe07","system_id":"levelo_inurba_marseille","lat":43.25727,"lon":5.41105,"is_reserved":false,"is_disabled":false,"rental_uris":{"android":"levelo://app?vid=4f508b50-1e3d-40c5-be77-1e6495edbe07","ios":"levelo://app?vid=4f508b50-1e3d-40c5-be77-1e6495edbe07"},"vehicle_type_id":"4","last_reported":1741446390,"current_range_meters":9600,"station_id":"ce4bhkp2rcd13ifvqgd0","pricing_plan_id":"cebpf4jnsgd1na2vs0mg"},{"bike_id":"c787a0ef-03a5-4d36-b53c-60238e9036da","system_id":"levelo_inurba_marseille","lat":43.23186,"lon":5.40019,"is_reserved":false,"is_disabled":false,"rental_uris":{"android":"levelo://app?vid=c787a0ef-03a5-4d36-b53c-60238e9036da","ios":"levelo://app?vid=c787a0ef-03a5-4d36-b53c-60238e9036da"},"vehicle_type_id":"4","last_reported":1741446390,"current_range_meters":9600,"station_id":"ce4bhn12rcd13ifvqgqg","pricing_plan_id":"cebpf4jnsgd1na2vs0mg"},{"bike_id":"a6c74a05-39e7-4da6-8b71-1ba187fc5bae","system_id":"levelo_inurba_marseille","lat":43.30544,"lon":5.36531,"is_reserved":false,"is_disabled":true,"rental_uris":{"android":"levelo://app?vid=a6c74a05-39e7-4da6-8b71-1ba187fc5bae","ios":"levelo://app?vid=a6c74a05-39e7-4da6-8b71-1ba187fc5bae"},"vehicle_type_id":"4","last_reported":1741446390,"current_range_meters":9600,"station_id":"ce4bgs12rcd13ifvqcag","pricing_plan_id":"cebpf4jnsgd1na2vs0mg"},{"bike_id":"b54292f7-ba5a-4ca2-851d-b34190bdf4a8","system_id":"levelo_inurba_marseille","lat":43.33022,"lon":5.39044,"is_reserved":false,"is_disabled":false,"rental_uris":{"android":"levelo://app?vid=b54292f7-ba5a-4ca2-851d-b34190bdf4a8","ios":"levelo://app?vid=b54292f7-ba5a-4ca2-851d-b34190bdf4a8"},"vehicle_type_id":"4","last_reported":1741446390,"current_range_meters":9600,"station_id":"ce4bhr92rcd13ifvqhrg","pricing_plan_id":"cebpf4jnsgd1na2vs0mg"},{"bike_id":"e617155d-9b64-4a04-ad61-c2ca2f4fb408","system_id":"levelo_inurba_marseille","lat":43.230698,"lon":5.354939,"is_reserved":false,"is_disabled":false,"rental_uris":{"android":"levelo://app?vid=e617155d-9b64-4a04-ad61-c2ca2f4fb408","ios":"levelo://app?vid=e617155d-9b64-4a04-ad61-c2ca2f4fb408"},"vehicle_type_id":"4","last_reported":1741446390,"current_range_meters":9600,"station_id":"cpo3342slgdg3j2ifvpg","pricing_plan_id":"cebpf4jnsgd1na2vs0mg"},{"bike_id":"9d69f9c8-0b0b-4a78-8ab0-3079b5db611e","system_id":"levelo_inurba_marseille","lat":43.27496,"lon":5.42461,"is_reserved":false,"is_disabled":false,"rental_uris":{"android":"levelo://app?vid=9d69f9c8-0b0b-4a78-8ab0-3079b5db611e","ios":"levelo://app?vid=9d69f9c8-0b0b-4a78-8ab0-3079b5db611e"},"vehicle_type_id":"4","last_reported":1741446390,"current_range_meters":9600,"station_id":"ce4bhn92rcd13ifvqgrg","pricing_plan_id":"cebpf4jnsgd1na2vs0mg"},{"bike_id":"af817598-33d9-4f1e-a008-73c552059bba","system_id":"levelo_inurba_marseille","lat":43.29851,"lon":5.36285,"is_reserved":false,"is_disabled":false,"rental_uris":{"android":"levelo://app?vid=af817598-33d9-4f1e-a008-73c552059bba","ios":"levelo://app?vid=af817598-33d9-4f1e-a008-73c552059bba"},"vehicle_type_id":"4","last_reported":1741446390,"current_range_meters":9600,"station_id":"ce4bgpp2rcd13ifvqc3g","pricing_plan_id":"cebpf4jnsgd1na2vs0mg"},{"bike_id":"94a48d06-28fd-4bcd-a38f-d018414e39b7","system_id":"levelo_inurba_marseille","lat":43.309987,"lon":5.379165,"is_reserved":false,"is_disabled":false,"rental_uris":{"android":"levelo://app?vid=94a48d06-28fd-4bcd-a38f-d018414e39b7","ios":"levelo://app?vid=94a48d06-28fd-4bcd-a38f-d018414e39b7"},"vehicle_type_id":"4","last_reported":1741446390,"current_range_meters":8800,"station_id":"ce4bgk12rcd13ifvqbi0","pricing_plan_id":"cebpf4jnsgd1na2vs0mg"},{"bike_id":"8fd4a8f8-ce56-47bc-b4fd-44e4f2fe46bf","system_id":"levelo_inurba_marseille","lat":43.274335,"lon":5.39394,"is_reserved":false,"is_disabled":false,"rental_uris":{"android":"levelo://app?vid=8fd4a8f8-ce56-47bc-b4fd-44e4f2fe46bf","ios":"levelo://app?vid=8fd4a8f8-ce56-47bc-b4fd-44e4f2fe46bf"},"vehicle_type_id":"4","last_reported":1741446390,"current_range_meters":9600,"station_id":"ce4bhdp2rcd13ifvqf20","pricing_plan_id":"cebpf4jnsgd1na2vs0mg"},{"bike_id":"44c0f9a1-99ba-41cb-8f36-0e033c5e16cc","system_id":"levelo_inurba_marseille","lat":43.26195,"lon":5.37445,"is_reserved":false,"is_disabled":false,"rental_uris":{"android":"levelo://app?vid=44c0f9a1-99ba-41cb-8f36-0e033c5e16cc","ios":"levelo://app?vid=44c0f9a1-99ba-41cb-8f36-0e033c5e16cc"},"vehicle_type_id":"4","last_reported":1741446390,"current_range_meters":10000,"station_id":"ce4bhgp2rcd13ifvqfc0","pricing_plan_id":"cebpf4jnsgd1na2vs0mg"},{"bike_id":"665a3654-eec4-441e-95ae-9d2ff0ac8b1a","system_id":"levelo_inurba_marseille","lat":43.29724,"lon":5.377,"is_reserved":false,"is_disabled":false,"rental_uris":{"android":"levelo://app?vid=665a3654-eec4-441e-95ae-9d2ff0ac8b1a","ios":"levelo://app?vid=665a3654-eec4-441e-95ae-9d2ff0ac8b1a"},"vehicle_type_id":"4","last_reported":1741446390,"current_range_meters":10000,"station_id":"ce4bgkh2rcd13ifvqbl0","pricing_plan_id":"cebpf4jnsgd1na2vs0mg"},{"bike_id":"9e2a9734-63cc-4a01-8102-7cc50f45d2cf","system_id":"levelo_inurba_marseille","lat":43.28415,"lon":5.34991,"is_reserved":false,"is_disabled":false,"rental_uris":{"android":"levelo://app?vid=9e2a9734-63cc-4a01-8102-7cc50f45d2cf","ios":"levelo://app?vid=9e2a9734-63cc-4a01-8102-7cc50f45d2cf"},"vehicle_type_id":"4","last_reported":1741446390,"current_range_meters":10000,"station_id":"ce4bhbh2rcd13ifvqepg","pricing_plan_id":"cebpf4jnsgd1na2vs0mg"},{"bike_id":"9340525c-84be-47e4-aab1-5f914944fdcd","system_id":"levelo_inurba_marseille","lat":43.26559,"lon":5.37285,"is_reserved":false,"is_disabled":false,"rental_uris":{"android":"levelo://app?vid=9340525c-84be-47e4-aab1-5f914944fdcd","ios":"levelo://app?vid=9340525c-84be-47e4-aab1-5f914944fdcd"},"vehicle_type_id":"4","last_reported":1741446390,"current_range_meters":10000,"station_id":"","pricing_plan_id":"cebpf4jnsgd1na2vs0mg"},{"bike_id":"228693fe-b916-457c-ae08-49f803366e73","system_id":"levelo_inurba_marseille","lat":43.2843,"lon":5.34994,"is_reserved":false,"is_disabled":false,"rental_uris":{"android":"levelo://app?vid=228693fe-b916-457c-ae08-49f803366e73","ios":"levelo://app?vid=228693fe-b916-457c-ae08-49f803366e73"},"vehicle_type_id":"4","last_reported":1741446390,"current_range_meters":10000,"station_id":"ce4bhbh2rcd13ifvqepg","pricing_plan_id":"cebpf4jnsgd1na2vs0mg"},{"bike_id":"e7a5b3a4-12de-4a90-9d29-b10c9fb19ed7","system_id":"levelo_inurba_marseille","lat":43.26554,"lon":5.37282,"is_reserved":false,"is_disabled":false,"rental_uris":{"android":"levelo://app?vid=e7a5b3a4-12de-4a90-9d29-b10c9fb19ed7","ios":"levelo://app?vid=e7a5b3a4-12de-4a90-9d29-b10c9fb19ed7"},"vehicle_type_id":"4","last_reported":1741446390,"current_range_meters":10000,"station_id":"ce4bhg12rcd13ifvqf70","pricing_plan_id":"cebpf4jnsgd1na2vs0mg"},{"bike_id":"71cdc2a8-bb53-45af-abec-6f413d23f353","system_id":"levelo_inurba_marseille","lat":43.24808,"lon":5.37458,"is_reserved":false,"is_disabled":false,"rental_uris":{"android":"levelo://app?vid=71cdc2a8-bb53-45af-abec-6f413d23f353","ios":"levelo://app?vid=71cdc2a8-bb53-45af-abec-6f413d23f353"},"vehicle_type_id":"4","last_reported":1741446390,"current_range_meters":10800,"station_id":"ce4bhgh2rcd13ifvqfb0","pricing_plan_id":"cebpf4jnsgd1na2vs0mg"},{"bike_id":"b533f38f-df9a-4e01-86fb-08f4b9bfcdfb","system_id":"levelo_inurba_marseille","lat":43.26224,"lon":5.42124,"is_reserved":false,"is_disabled":false,"rental_uris":{"android":"levelo://app?vid=b533f38f-df9a-4e01-86fb-08f4b9bfcdfb","ios":"levelo://app?vid=b533f38f-df9a-4e01-86fb-08f4b9bfcdfb"},"vehicle_type_id":"4","last_reported":1741446390,"current_range_meters":10000,"station_id":"","pricing_plan_id":"cebpf4jnsgd1na2vs0mg"},{"bike_id":"40727ac6-4880-4abd-8b08-b3c4bd1e8d22","system_id":"levelo_inurba_marseille","lat":43.25581,"lon":5.38243,"is_reserved":false,"is_disabled":false,"rental_uris":{"android":"levelo://app?vid=40727ac6-4880-4abd-8b08-b3c4bd1e8d22","ios":"levelo://app?vid=40727ac6-4880-4abd-8b08-b3c4bd1e8d22"},"vehicle_type_id":"4","last_reported":1741446390,"current_range_meters":10000,"station_id":"ce4bhih2rcd13ifvqfs0","pricing_plan_id":"cebpf4jnsgd1na2vs0mg"},{"bike_id":"7b72f05a-33ae-45f0-b189-48d025972aa9","system_id":"levelo_inurba_marseille","lat":43.23203,"lon":5.35558,"is_reserved":false,"is_disabled":false,"rental_uris":{"android":"levelo://app?vid=7b72f05a-33ae-45f0-b189-48d025972aa9","ios":"levelo://app?vid=7b72f05a-33ae-45f0-b189-48d025972aa9"},"vehicle_type_id":"4","last_reported":1741446390,"current_range_meters":10000,"station_id":"ce4bhu92rcd13ifvqi70","pricing_plan_id":"cebpf4jnsgd1na2vs0mg"},{"bike_id":"16a2e177-c6d7-4c95-9513-2490218fc0eb","system_id":"levelo_inurba_marseille","lat":43.2808,"lon":5.39651,"is_reserved":false,"is_disabled":false,"rental_uris":{"android":"levelo://app?vid=16a2e177-c6d7-4c95-9513-2490218fc0eb","ios":"levelo://app?vid=16a2e177-c6d7-4c95-9513-2490218fc0eb"},"vehicle_type_id":"4","last_reported":1741446390,"current_range_meters":10800,"station_id":"ce4bho12rcd13ifvqh2g","pricing_plan_id":"cebpf4jnsgd1na2vs0mg"},{"bike_id":"1d642fdb-a1ff-4fcc-9ebb-c727a994a4df","system_id":"levelo_inurba_marseille","lat":43.25118,"lon":5.4033,"is_reserved":false,"is_disabled":false,"rental_uris":{"android":"levelo://app?vid=1d642fdb-a1ff-4fcc-9ebb-c727a994a4df","ios":"levelo://app?vid=1d642fdb-a1ff-4fcc-9ebb-c727a994a4df"},"vehicle_type_id":"4","last_reported":1741446390,"current_range_meters":10800,"station_id":"ce4bhlh2rcd13ifvqgig","pricing_plan_id":"cebpf4jnsgd1na2vs0mg"},{"bike_id":"cf9f9cb3-6441-4b5a-a1eb-23bd3e2df6fc","system_id":"levelo_inurba_marseille","lat":43.30891,"lon":5.39664,"is_reserved":false,"is_disabled":false,"rental_uris":{"android":"levelo://app?vid=cf9f9cb3-6441-4b5a-a1eb-23bd3e2df6fc","ios":"levelo://app?vid=cf9f9cb3-6441-4b5a-a1eb-23bd3e2df6fc"},"vehicle_type_id":"4","last_reported":1741446390,"current_range_meters":6800,"station_id":"ce4bh012rcd13ifvqcv0","pricing_plan_id":"cebpf4jnsgd1na2vs0mg"},{"bike_id":"557d3070-3a02-4dd2-80c0-98badb34eefc","system_id":"levelo_inurba_marseille","lat":43.29363,"lon":5.3785,"is_reserved":false,"is_disabled":false,"rental_uris":{"android":"levelo://app?vid=557d3070-3a02-4dd2-80c0-98badb34eefc","ios":"levelo://app?vid=557d3070-3a02-4dd2-80c0-98badb34eefc"},"vehicle_type_id":"4","last_reported":1741446390,"current_range_meters":10000,"station_id":"ce4bgjh2rcd13ifvqbf0","pricing_plan_id":"cebpf4jnsgd1na2vs0mg"},{"bike_id":"b2c2514d-58df-4080-9acc-0a3325c87525","system_id":"levelo_inurba_marseille","lat":43.32362,"lon":5.36738,"is_reserved":false,"is_disabled":false,"rental_uris":{"android":"levelo://app?vid=b2c2514d-58df-4080-9acc-0a3325c87525","ios":"levelo://app?vid=b2c2514d-58df-4080-9acc-0a3325c87525"},"vehicle_type_id":"4","last_reported":1741446390,"current_range_meters":10800,"station_id":"ce4bhsh2rcd13ifvqi2g","pricing_plan_id":"cebpf4jnsgd1na2vs0mg"},{"bike_id":"8e61e4ca-efef-4c71-8313-d36d2589dcce","system_id":"levelo_inurba_marseille","lat":43.23058,"lon":5.35495,"is_reserved":false,"is_disabled":false,"rental_uris":{"android":"levelo://app?vid=8e61e4ca-efef-4c71-8313-d36d2589dcce","ios":"levelo://app?vid=8e61e4ca-efef-4c71-8313-d36d2589dcce"},"vehicle_type_id":"4","last_reported":1741446390,"current_range_meters":10800,"station_id":"cpo3342slgdg3j2ifvpg","pricing_plan_id":"cebpf4jnsgd1na2vs0mg"},{"bike_id":"eb447cce-1980-4ccf-bf3c-080cb9fa31ba","system_id":"levelo_inurba_marseille","lat":43.29772,"lon":5.3711,"is_reserved":false,"is_disabled":false,"rental_uris":{"android":"levelo://app?vid=eb447cce-1980-4ccf-bf3c-080cb9fa31ba","ios":"levelo://app?vid=eb447cce-1980-4ccf-bf3c-080cb9fa31ba"},"vehicle_type_id":"4","last_reported":1741446390,"current_range_meters":10800,"station_id":"ce4bgop2rcd13ifvqc1g","pricing_plan_id":"cebpf4jnsgd1na2vs0mg"},{"bike_id":"4cc143b9-48de-48e5-8f0e-906ef28bf84e","system_id":"levelo_inurba_marseille","lat":43.2926,"lon":5.37635,"is_reserved":false,"is_disabled":false,"rental_uris":{"android":"levelo://app?vid=4cc143b9-48de-48e5-8f0e-906ef28bf84e","ios":"levelo://app?vid=4cc143b9-48de-48e5-8f0e-906ef28bf84e"},"vehicle_type_id":"4","last_reported":1741446390,"current_range_meters":10800,"station_id":"ce4bgi12rcd13ifvqb80","pricing_plan_id":"cebpf4jnsgd1na2vs0mg"},{"bike_id":"39d8192b-e479-46e5-a3bf-bdc7ff40c902","system_id":"levelo_inurba_marseille","lat":43.25833,"lon":5.39432,"is_reserved":false,"is_disabled":false,"rental_uris":{"android":"levelo://app?vid=39d8192b-e479-46e5-a3bf-bdc7ff40c902","ios":"levelo://app?vid=39d8192b-e479-46e5-a3bf-bdc7ff40c902"},"vehicle_type_id":"4","last_reported":1741446390,"current_range_meters":10800,"station_id":"ce4bhip2rcd13ifvqft0","pricing_plan_id":"cebpf4jnsgd1na2vs0mg"},{"bike_id":"3cef56dd-35b0-4115-b358-5e1631f56dca","system_id":"levelo_inurba_marseille","lat":43.29299,"lon":5.37453,"is_reserved":false,"is_disabled":false,"rental_uris":{"android":"levelo://app?vid=3cef56dd-35b0-4115-b358-5e1631f56dca","ios":"levelo://app?vid=3cef56dd-35b0-4115-b358-5e1631f56dca"},"vehicle_type_id":"4","last_reported":1741446390,"current_range_meters":9600,"station_id":"ce4bgi12rcd13ifvqb70","pricing_plan_id":"cebpf4jnsgd1na2vs0mg"},{"bike_id":"436bcdbb-61d6-407c-bb12-7dc81cb26c80","system_id":"levelo_inurba_marseille","lat":43.29259,"lon":5.37629,"is_reserved":false,"is_disabled":false,"rental_uris":{"android":"levelo://app?vid=436bcdbb-61d6-407c-bb12-7dc81cb26c80","ios":"levelo://app?vid=436bcdbb-61d6-407c-bb12-7dc81cb26c80"},"vehicle_type_id":"4","last_reported":1741446390,"current_range_meters":10800,"station_id":"ce4bgi12rcd13ifvqb80","pricing_plan_id":"cebpf4jnsgd1na2vs0mg"},{"bike_id":"321dea76-94c6-477e-8988-b9fc3e65b7f0","system_id":"levelo_inurba_marseille","lat":43.30216,"lon":5.39468,"is_reserved":false,"is_disabled":false,"rental_uris":{"android":"levelo://app?vid=321dea76-94c6-477e-8988-b9fc3e65b7f0","ios":"levelo://app?vid=321dea76-94c6-477e-8988-b9fc3e65b7f0"},"vehicle_type_id":"4","last_reported":1741446390,"current_range_meters":10800,"station_id":"ce4bh0p2rcd13ifvqd70","pricing_plan_id":"cebpf4jnsgd1na2vs0mg"},{"bike_id":"388ea826-f5fa-4632-a530-45d13cc0a769","system_id":"levelo_inurba_marseille","lat":43.23188,"lon":5.39986,"is_reserved":false,"is_disabled":false,"rental_uris":{"android":"levelo://app?vid=388ea826-f5fa-4632-a530-45d13cc0a769","ios":"levelo://app?vid=388ea826-f5fa-4632-a530-45d13cc0a769"},"vehicle_type_id":"4","last_reported":1741446390,"current_range_meters":11200,"station_id":"ce4bhn12rcd13ifvqgqg","pricing_plan_id":"cebpf4jnsgd1na2vs0mg"},{"bike_id":"1adb91ee-259a-4995-b932-7a049cdf3c96","system_id":"levelo_inurba_marseille","lat":43.29304,"lon":5.37466,"is_reserved":false,"is_disabled":false,"rental_uris":{"android":"levelo://app?vid=1adb91ee-259a-4995-b932-7a049cdf3c96","ios":"levelo://app?vid=1adb91ee-259a-4995-b932-7a049cdf3c96"},"vehicle_type_id":"4","last_reported":1741446390,"current_range_meters":11200,"station_id":"ce4bgi12rcd13ifvqb70","pricing_plan_id":"cebpf4jnsgd1na2vs0mg"},{"bike_id":"1b4ddce1-0766-46df-95d4-f32d97217fc0","system_id":"levelo_inurba_marseille","lat":43.30605,"lon":5.38178,"is_reserved":false,"is_disabled":false,"rental_uris":{"android":"levelo://app?vid=1b4ddce1-0766-46df-95d4-f32d97217fc0","ios":"levelo://app?vid=1b4ddce1-0766-46df-95d4-f32d97217fc0"},"vehicle_type_id":"4","last_reported":1741446390,"current_range_meters":11200,"station_id":"","pricing_plan_id":"cebpf4jnsgd1na2vs0mg"},{"bike_id":"65d2271a-97b5-4913-95aa-cf77a293f0eb","system_id":"levelo_inurba_marseille","lat":43.26027,"lon":5.37566,"is_reserved":false,"is_disabled":false,"rental_uris":{"android":"levelo://app?vid=65d2271a-97b5-4913-95aa-cf77a293f0eb","ios":"levelo://app?vid=65d2271a-97b5-4913-95aa-cf77a293f0eb"},"vehicle_type_id":"4","last_reported":1741446390,"current_range_meters":11200,"station_id":"ce4bhgh2rcd13ifvqfa0","pricing_plan_id":"cebpf4jnsgd1na2vs0mg"},{"bike_id":"3a888d23-297b-423b-acb2-e88350dfbd99","system_id":"levelo_inurba_marseille","lat":43.2842,"lon":5.34978,"is_reserved":false,"is_disabled":false,"rental_uris":{"android":"levelo://app?vid=3a888d23-297b-423b-acb2-e88350dfbd99","ios":"levelo://app?vid=3a888d23-297b-423b-acb2-e88350dfbd99"},"vehicle_type_id":"4","last_reported":1741446390,"current_range_meters":11200,"station_id":"ce4bhbh2rcd13ifvqepg","pricing_plan_id":"cebpf4jnsgd1na2vs0mg"},{"bike_id":"d2491254-d4db-47ff-89a3-a1571b69ed59","system_id":"levelo_inurba_marseille","lat":43.3042,"lon":5.39744,"is_reserved":false,"is_disabled":false,"rental_uris":{"android":"levelo://app?vid=d2491254-d4db-47ff-89a3-a1571b69ed59","ios":"levelo://app?vid=d2491254-d4db-47ff-89a3-a1571b69ed59"},"vehicle_type_id":"4","last_reported":1741446390,"current_range_meters":9600,"station_id":"ce4bh092rcd13ifvqd20","pricing_plan_id":"cebpf4jnsgd1na2vs0mg"},{"bike_id":"65f047ab-ec07-440a-8847-ca6c8e676e9e","system_id":"levelo_inurba_marseille","lat":43.296,"lon":5.37539,"is_reserved":false,"is_disabled":false,"rental_uris":{"android":"levelo://app?vid=65f047ab-ec07-440a-8847-ca6c8e676e9e","ios":"levelo://app?vid=65f047ab-ec07-440a-8847-ca6c8e676e9e"},"vehicle_type_id":"4","last_reported":1741446390,"current_range_meters":11600,"station_id":"ce4bgh92rcd13ifvqb50","pricing_plan_id":"cebpf4jnsgd1na2vs0mg"},{"bike_id":"10081979-9f57-4f90-9323-94aa2ed905f0","system_id":"levelo_inurba_marseille","lat":43.30358,"lon":5.41883,"is_reserved":false,"is_disabled":false,"rental_uris":{"android":"levelo://app?vid=10081979-9f57-4f90-9323-94aa2ed905f0","ios":"levelo://app?vid=10081979-9f57-4f90-9323-94aa2ed905f0"},"vehicle_type_id":"4","last_reported":1741446390,"current_range_meters":11600,"station_id":"ce4bhop2rcd13ifvqh7g","pricing_plan_id":"cebpf4jnsgd1na2vs0mg"},{"bike_id":"6334edac-b5b4-440d-b1cd-bbc5247ffb04","system_id":"levelo_inurba_marseille","lat":43.25504,"lon":5.37652,"is_reserved":false,"is_disabled":false,"rental_uris":{"android":"levelo://app?vid=6334edac-b5b4-440d-b1cd-bbc5247ffb04","ios":"levelo://app?vid=6334edac-b5b4-440d-b1cd-bbc5247ffb04"},"vehicle_type_id":"4","last_reported":1741446390,"current_range_meters":11600,"station_id":"ce4bhh12rcd13ifvqff0","pricing_plan_id":"cebpf4jnsgd1na2vs0mg"},{"bike_id":"b2683e90-13ba-4f85-84c3-d56f70a45dad","system_id":"levelo_inurba_marseille","lat":43.29268,"lon":5.36849,"is_reserved":false,"is_disabled":false,"rental_uris":{"android":"levelo://app?vid=b2683e90-13ba-4f85-84c3-d56f70a45dad","ios":"levelo://app?vid=b2683e90-13ba-4f85-84c3-d56f70a45dad"},"vehicle_type_id":"4","last_reported":1741446390,"current_range_meters":11600,"station_id":"ce4bhbp2rcd13ifvqesg","pricing_plan_id":"cebpf4jnsgd1na2vs0mg"},{"bike_id":"e4ff78bf-7dd0-4f68-92fe-8387ace5c53b","system_id":"levelo_inurba_marseille","lat":43.2952,"lon":5.3939,"is_reserved":false,"is_disabled":false,"rental_uris":{"android":"levelo://app?vid=e4ff78bf-7dd0-4f68-92fe-8387ace5c53b","ios":"levelo://app?vid=e4ff78bf-7dd0-4f68-92fe-8387ace5c53b"},"vehicle_type_id":"4","last_reported":1741446390,"current_range_meters":14800,"station_id":"ce4bh292rcd13ifvqdf0","pricing_plan_id":"cebpf4jnsgd1na2vs0mg"},{"bike_id":"febb804a-a640-436a-881b-16dbaf36f999","system_id":"levelo_inurba_marseille","lat":43.30594,"lon":5.39362,"is_reserved":false,"is_disabled":false,"rental_uris":{"android":"levelo://app?vid=febb804a-a640-436a-881b-16dbaf36f999","ios":"levelo://app?vid=febb804a-a640-436a-881b-16dbaf36f999"},"vehicle_type_id":"4","last_reported":1741446390,"current_range_meters":11600,"station_id":"ce4bh0p2rcd13ifvqd80","pricing_plan_id":"cebpf4jnsgd1na2vs0mg"},{"bike_id":"4a5aeca3-0734-4183-a75e-3bcf46d13346","system_id":"levelo_inurba_marseille","lat":43.2397,"lon":5.36639,"is_reserved":false,"is_disabled":false,"rental_uris":{"android":"levelo://app?vid=4a5aeca3-0734-4183-a75e-3bcf46d13346","ios":"levelo://app?vid=4a5aeca3-0734-4183-a75e-3bcf46d13346"},"vehicle_type_id":"4","last_reported":1741446390,"current_range_meters":11600,"station_id":"ce4bhi12rcd13ifvqfp0","pricing_plan_id":"cebpf4jnsgd1na2vs0mg"},{"bike_id":"6d9d77d6-e935-4474-970c-b58b7c69c89f","system_id":"levelo_inurba_marseille","lat":43.29355,"lon":5.37852,"is_reserved":false,"is_disabled":false,"rental_uris":{"android":"levelo://app?vid=6d9d77d6-e935-4474-970c-b58b7c69c89f","ios":"levelo://app?vid=6d9d77d6-e935-4474-970c-b58b7c69c89f"},"vehicle_type_id":"4","last_reported":1741446390,"current_range_meters":11200,"station_id":"ce4bgjh2rcd13ifvqbf0","pricing_plan_id":"cebpf4jnsgd1na2vs0mg"},{"bike_id":"080f2947-5ae2-4d50-8845-2d82a0251f6c","system_id":"levelo_inurba_marseille","lat":43.293019,"lon":5.374542,"is_reserved":false,"is_disabled":false,"rental_uris":{"android":"levelo://app?vid=080f2947-5ae2-4d50-8845-2d82a0251f6c","ios":"levelo://app?vid=080f2947-5ae2-4d50-8845-2d82a0251f6c"},"vehicle_type_id":"4","last_reported":1741446390,"current_range_meters":12000,"station_id":"ce4bgi12rcd13ifvqb70","pricing_plan_id":"cebpf4jnsgd1na2vs0mg"},{"bike_id":"e00608a8-53b0-4007-8877-bdf97afd9875","system_id":"levelo_inurba_marseille","lat":43.29614,"lon":5.37717,"is_reserved":false,"is_disabled":false,"rental_uris":{"android":"levelo://app?vid=e00608a8-53b0-4007-8877-bdf97afd9875","ios":"levelo://app?vid=e00608a8-53b0-4007-8877-bdf97afd9875"},"vehicle_type_id":"4","last_reported":1741446390,"current_range_meters":12000,"station_id":"ce4bgi92rcd13ifvqb90","pricing_plan_id":"cebpf4jnsgd1na2vs0mg"},{"bike_id":"cf6e3e2a-8582-401c-a204-b822486dce98","system_id":"levelo_inurba_marseille","lat":43.29299,"lon":5.37151,"is_reserved":false,"is_disabled":false,"rental_uris":{"android":"levelo://app?vid=cf6e3e2a-8582-401c-a204-b822486dce98","ios":"levelo://app?vid=cf6e3e2a-8582-401c-a204-b822486dce98"},"vehicle_type_id":"4","last_reported":1741446390,"current_range_meters":12000,"station_id":"ce4bgh92rcd13ifvqb40","pricing_plan_id":"cebpf4jnsgd1na2vs0mg"},{"bike_id":"c08a87e6-4fea-468d-82e9-9382ae88bed1","system_id":"levelo_inurba_marseille","lat":43.30174,"lon":5.38754,"is_reserved":false,"is_disabled":false,"rental_uris":{"android":"levelo://app?vid=c08a87e6-4fea-468d-82e9-9382ae88bed1","ios":"levelo://app?vid=c08a87e6-4fea-468d-82e9-9382ae88bed1"},"vehicle_type_id":"4","last_reported":1741446390,"current_range_meters":12000,"station_id":"ce4bh2h2rcd13ifvqdh0","pricing_plan_id":"cebpf4jnsgd1na2vs0mg"},{"bike_id":"29aaabfa-1446-4801-9c3d-cf40127cc997","system_id":"levelo_inurba_marseille","lat":43.29796,"lon":5.40412,"is_reserved":false,"is_disabled":false,"rental_uris":{"android":"levelo://app?vid=29aaabfa-1446-4801-9c3d-cf40127cc997","ios":"levelo://app?vid=29aaabfa-1446-4801-9c3d-cf40127cc997"},"vehicle_type_id":"4","last_reported":1741446390,"current_range_meters":12000,"station_id":"ce4bh112rcd13ifvqd90","pricing_plan_id":"cebpf4jnsgd1na2vs0mg"},{"bike_id":"cdc6fa71-b8c0-46e7-902c-4e18b52385d2","system_id":"levelo_inurba_marseille","lat":43.28854,"lon":5.39979,"is_reserved":false,"is_disabled":false,"rental_uris":{"android":"levelo://app?vid=cdc6fa71-b8c0-46e7-902c-4e18b52385d2","ios":"levelo://app?vid=cdc6fa71-b8c0-46e7-902c-4e18b52385d2"},"vehicle_type_id":"4","last_reported":1741446390,"current_range_meters":12000,"station_id":"","pricing_plan_id":"cebpf4jnsgd1na2vs0mg"},{"bike_id":"2455be66-ca7a-4e5b-9856-a37aa52851cf","system_id":"levelo_inurba_marseille","lat":43.29617,"lon":5.37726,"is_reserved":false,"is_disabled":false,"rental_uris":{"android":"levelo://app?vid=2455be66-ca7a-4e5b-9856-a37aa52851cf","ios":"levelo://app?vid=2455be66-ca7a-4e5b-9856-a37aa52851cf"},"vehicle_type_id":"4","last_reported":1741446390,"current_range_meters":12000,"station_id":"ce4bgi92rcd13ifvqb90","pricing_plan_id":"cebpf4jnsgd1na2vs0mg"},{"bike_id":"c1c412b3-ae23-45ab-894a-fe5b494cc9e6","system_id":"levelo_inurba_marseille","lat":43.23192,"lon":5.355697,"is_reserved":false,"is_disabled":false,"rental_uris":{"android":"levelo://app?vid=c1c412b3-ae23-45ab-894a-fe5b494cc9e6","ios":"levelo://app?vid=c1c412b3-ae23-45ab-894a-fe5b494cc9e6"},"vehicle_type_id":"4","last_reported":1741446390,"current_range_meters":12000,"station_id":"ce4bhu92rcd13ifvqi70","pricing_plan_id":"cebpf4jnsgd1na2vs0mg"},{"bike_id":"ae454a88-f24c-4e88-a7cf-9a915082084f","system_id":"levelo_inurba_marseille","lat":43.25856,"lon":5.39923,"is_reserved":false,"is_disabled":false,"rental_uris":{"android":"levelo://app?vid=ae454a88-f24c-4e88-a7cf-9a915082084f","ios":"levelo://app?vid=ae454a88-f24c-4e88-a7cf-9a915082084f"},"vehicle_type_id":"4","last_reported":1741446390,"current_range_meters":12400,"station_id":"ce4bhl92rcd13ifvqghg","pricing_plan_id":"cebpf4jnsgd1na2vs0mg"},{"bike_id":"ca19e0d5-0296-4d5b-99f2-19e854a3e53f","system_id":"levelo_inurba_marseille","lat":43.30148,"lon":5.37425,"is_reserved":false,"is_disabled":false,"rental_uris":{"android":"levelo://app?vid=ca19e0d5-0296-4d5b-99f2-19e854a3e53f","ios":"levelo://app?vid=ca19e0d5-0296-4d5b-99f2-19e854a3e53f"},"vehicle_type_id":"4","last_reported":1741446390,"current_range_meters":12000,"station_id":"ce4bgs92rcd13ifvqcc0","pricing_plan_id":"cebpf4jnsgd1na2vs0mg"},{"bike_id":"9dde6657-a422-4563-a5f3-0ac4f877833b","system_id":"levelo_inurba_marseille","lat":43.29272,"lon":5.36846,"is_reserved":false,"is_disabled":false,"rental_uris":{"android":"levelo://app?vid=9dde6657-a422-4563-a5f3-0ac4f877833b","ios":"levelo://app?vid=9dde6657-a422-4563-a5f3-0ac4f877833b"},"vehicle_type_id":"4","last_reported":1741446390,"current_range_meters":12800,"station_id":"ce4bhbp2rcd13ifvqesg","pricing_plan_id":"cebpf4jnsgd1na2vs0mg"},{"bike_id":"0b689fcd-0fb9-4d15-813c-60583b77d823","system_id":"levelo_inurba_marseille","lat":43.28618,"lon":5.35108,"is_reserved":false,"is_disabled":false,"rental_uris":{"android":"levelo://app?vid=0b689fcd-0fb9-4d15-813c-60583b77d823","ios":"levelo://app?vid=0b689fcd-0fb9-4d15-813c-60583b77d823"},"vehicle_type_id":"4","last_reported":1741446390,"current_range_meters":12800,"station_id":"ce4bhch2rcd13ifvqeug","pricing_plan_id":"cebpf4jnsgd1na2vs0mg"},{"bike_id":"19bbe8da-d7df-496e-a677-cbaab925cf5e","system_id":"levelo_inurba_marseille","lat":43.24882,"lon":5.42539,"is_reserved":false,"is_disabled":false,"rental_uris":{"android":"levelo://app?vid=19bbe8da-d7df-496e-a677-cbaab925cf5e","ios":"levelo://app?vid=19bbe8da-d7df-496e-a677-cbaab925cf5e"},"vehicle_type_id":"4","last_reported":1741446390,"current_range_meters":12800,"station_id":"","pricing_plan_id":"cebpf4jnsgd1na2vs0mg"},{"bike_id":"98e0e391-d285-4c6e-96dc-d16a198c7b8b","system_id":"levelo_inurba_marseille","lat":43.29964,"lon":5.37155,"is_reserved":false,"is_disabled":false,"rental_uris":{"android":"levelo://app?vid=98e0e391-d285-4c6e-96dc-d16a198c7b8b","ios":"levelo://app?vid=98e0e391-d285-4c6e-96dc-d16a198c7b8b"},"vehicle_type_id":"4","last_reported":1741446390,"current_range_meters":11600,"station_id":"ce4bgr92rcd13ifvqc7g","pricing_plan_id":"cebpf4jnsgd1na2vs0mg"},{"bike_id":"41cecb6d-a2fb-4de3-b830-afabc10a465f","system_id":"levelo_inurba_marseille","lat":43.28459,"lon":5.35896,"is_reserved":false,"is_disabled":false,"rental_uris":{"android":"levelo://app?vid=41cecb6d-a2fb-4de3-b830-afabc10a465f","ios":"levelo://app?vid=41cecb6d-a2fb-4de3-b830-afabc10a465f"},"vehicle_type_id":"4","last_reported":1741446390,"current_range_meters":12800,"station_id":"ce4bhah2rcd13ifvqei0","pricing_plan_id":"cebpf4jnsgd1na2vs0mg"},{"bike_id":"cf30b7cb-0750-4cd4-a08e-fd7459cf02ea","system_id":"levelo_inurba_marseille","lat":43.27901,"lon":5.38031,"is_reserved":false,"is_disabled":false,"rental_uris":{"android":"levelo://app?vid=cf30b7cb-0750-4cd4-a08e-fd7459cf02ea","ios":"levelo://app?vid=cf30b7cb-0750-4cd4-a08e-fd7459cf02ea"},"vehicle_type_id":"4","last_reported":1741446390,"current_range_meters":11600,"station_id":"ce4bhf92rcd13ifvqf50","pricing_plan_id":"cebpf4jnsgd1na2vs0mg"},{"bike_id":"49800092-1ed0-41db-8129-6396f54f2ece","system_id":"levelo_inurba_marseille","lat":43.2509,"lon":5.39528,"is_reserved":false,"is_disabled":false,"rental_uris":{"android":"levelo://app?vid=49800092-1ed0-41db-8129-6396f54f2ece","ios":"levelo://app?vid=49800092-1ed0-41db-8129-6396f54f2ece"},"vehicle_type_id":"4","last_reported":1741446390,"current_range_meters":13600,"station_id":"ce4bhm12rcd13ifvqgkg","pricing_plan_id":"cebpf4jnsgd1na2vs0mg"},{"bike_id":"716ad52e-6276-401a-9565-37b068cf8f1c","system_id":"levelo_inurba_marseille","lat":43.24811,"lon":5.37458,"is_reserved":false,"is_disabled":false,"rental_uris":{"android":"levelo://app?vid=716ad52e-6276-401a-9565-37b068cf8f1c","ios":"levelo://app?vid=716ad52e-6276-401a-9565-37b068cf8f1c"},"vehicle_type_id":"4","last_reported":1741446390,"current_range_meters":13600,"station_id":"ce4bhgh2rcd13ifvqfb0","pricing_plan_id":"cebpf4jnsgd1na2vs0mg"},{"bike_id":"aaf55698-4d78-45d6-a48f-f7d7aef1fe86","system_id":"levelo_inurba_marseille","lat":43.24389,"lon":5.37057,"is_reserved":false,"is_disabled":false,"rental_uris":{"android":"levelo://app?vid=aaf55698-4d78-45d6-a48f-f7d7aef1fe86","ios":"levelo://app?vid=aaf55698-4d78-45d6-a48f-f7d7aef1fe86"},"vehicle_type_id":"4","last_reported":1741446390,"current_range_meters":12800,"station_id":"ce4bhhh2rcd13ifvqfk0","pricing_plan_id":"cebpf4jnsgd1na2vs0mg"},{"bike_id":"24735a56-ae7a-4f1c-b08f-44b68b6d07ce","system_id":"levelo_inurba_marseille","lat":43.29519,"lon":5.37506,"is_reserved":false,"is_disabled":false,"rental_uris":{"android":"levelo://app?vid=24735a56-ae7a-4f1c-b08f-44b68b6d07ce","ios":"levelo://app?vid=24735a56-ae7a-4f1c-b08f-44b68b6d07ce"},"vehicle_type_id":"4","last_reported":1741446390,"current_range_meters":13600,"station_id":"ce4bgkp2rcd13ifvqbmg","pricing_plan_id":"cebpf4jnsgd1na2vs0mg"},{"bike_id":"d93c39e4-5dc3-464e-bd75-531f55c8dbf0","system_id":"levelo_inurba_marseille","lat":43.23965,"lon":5.3664,"is_reserved":false,"is_disabled":false,"rental_uris":{"android":"levelo://app?vid=d93c39e4-5dc3-464e-bd75-531f55c8dbf0","ios":"levelo://app?vid=d93c39e4-5dc3-464e-bd75-531f55c8dbf0"},"vehicle_type_id":"4","last_reported":1741446390,"current_range_meters":13600,"station_id":"ce4bhi12rcd13ifvqfp0","pricing_plan_id":"cebpf4jnsgd1na2vs0mg"},{"bike_id":"05ac6b58-0cc0-47b2-a77d-a5e53e092874","system_id":"levelo_inurba_marseille","lat":43.273219,"lon":5.390913,"is_reserved":false,"is_disabled":false,"rental_uris":{"android":"levelo://app?vid=05ac6b58-0cc0-47b2-a77d-a5e53e092874","ios":"levelo://app?vid=05ac6b58-0cc0-47b2-a77d-a5e53e092874"},"vehicle_type_id":"4","last_reported":1741446390,"current_range_meters":13600,"station_id":"ce4bhgp2rcd13ifvqfe0","pricing_plan_id":"cebpf4jnsgd1na2vs0mg"},{"bike_id":"c14d7feb-080e-43e2-95f2-40c85436f912","system_id":"levelo_inurba_marseille","lat":43.33762,"lon":5.37436,"is_reserved":false,"is_disabled":false,"rental_uris":{"android":"levelo://app?vid=c14d7feb-080e-43e2-95f2-40c85436f912","ios":"levelo://app?vid=c14d7feb-080e-43e2-95f2-40c85436f912"},"vehicle_type_id":"4","last_reported":1741446390,"current_range_meters":13600,"station_id":"","pricing_plan_id":"cebpf4jnsgd1na2vs0mg"},{"bike_id":"e0f4b796-01cc-4461-9b30-50cc9224230f","system_id":"levelo_inurba_marseille","lat":43.24386,"lon":5.37052,"is_reserved":false,"is_disabled":false,"rental_uris":{"android":"levelo://app?vid=e0f4b796-01cc-4461-9b30-50cc9224230f","ios":"levelo://app?vid=e0f4b796-01cc-4461-9b30-50cc9224230f"},"vehicle_type_id":"4","last_reported":1741446390,"current_range_meters":13600,"station_id":"ce4bhhh2rcd13ifvqfk0","pricing_plan_id":"cebpf4jnsgd1na2vs0mg"},{"bike_id":"60251c82-3fb8-4300-8506-72f9f8a836bb","system_id":"levelo_inurba_marseille","lat":43.297125,"lon":5.376977,"is_reserved":false,"is_disabled":false,"rental_uris":{"android":"levelo://app?vid=60251c82-3fb8-4300-8506-72f9f8a836bb","ios":"levelo://app?vid=60251c82-3fb8-4300-8506-72f9f8a836bb"},"vehicle_type_id":"4","last_reported":1741446390,"current_range_meters":13600,"station_id":"","pricing_plan_id":"cebpf4jnsgd1na2vs0mg"},{"bike_id":"e82817bd-63f2-4e18-b317-5d3a5242da22","system_id":"levelo_inurba_marseille","lat":43.29774,"lon":5.37103,"is_reserved":false,"is_disabled":false,"rental_uris":{"android":"levelo://app?vid=e82817bd-63f2-4e18-b317-5d3a5242da22","ios":"levelo://app?vid=e82817bd-63f2-4e18-b317-5d3a5242da22"},"vehicle_type_id":"4","last_reported":1741446390,"current_range_meters":13600,"station_id":"ce4bgop2rcd13ifvqc1g","pricing_plan_id":"cebpf4jnsgd1na2vs0mg"},{"bike_id":"07fdf849-0e7c-4ebd-848e-50f5b224cb18","system_id":"levelo_inurba_marseille","lat":43.26574,"lon":5.39008,"is_reserved":false,"is_disabled":false,"rental_uris":{"android":"levelo://app?vid=07fdf849-0e7c-4ebd-848e-50f5b224cb18","ios":"levelo://app?vid=07fdf849-0e7c-4ebd-848e-50f5b224cb18"},"vehicle_type_id":"4","last_reported":1741446390,"current_range_meters":13600,"station_id":"ce4bhe12rcd13ifvqf30","pricing_plan_id":"cebpf4jnsgd1na2vs0mg"},{"bike_id":"95fb3e5d-83b7-4491-b444-1897d9b76de9","system_id":"levelo_inurba_marseille","lat":43.29369,"lon":5.37833,"is_reserved":false,"is_disabled":false,"rental_uris":{"android":"levelo://app?vid=95fb3e5d-83b7-4491-b444-1897d9b76de9","ios":"levelo://app?vid=95fb3e5d-83b7-4491-b444-1897d9b76de9"},"vehicle_type_id":"4","last_reported":1741446390,"current_range_meters":12400,"station_id":"ce4bgjh2rcd13ifvqbf0","pricing_plan_id":"cebpf4jnsgd1na2vs0mg"},{"bike_id":"bcfd987e-4925-4bc0-a2c6-1cce4b073733","system_id":"levelo_inurba_marseille","lat":43.29074,"lon":5.37182,"is_reserved":false,"is_disabled":false,"rental_uris":{"android":"levelo://app?vid=bcfd987e-4925-4bc0-a2c6-1cce4b073733","ios":"levelo://app?vid=bcfd987e-4925-4bc0-a2c6-1cce4b073733"},"vehicle_type_id":"4","last_reported":1741446390,"current_range_meters":13600,"station_id":"ce4bh5p2rcd13ifvqe4g","pricing_plan_id":"cebpf4jnsgd1na2vs0mg"},{"bike_id":"127f71ed-0d0f-4c55-b9c4-b467cbfc6c99","system_id":"levelo_inurba_marseille","lat":43.2895,"lon":5.36404,"is_reserved":false,"is_disabled":false,"rental_uris":{"android":"levelo://app?vid=127f71ed-0d0f-4c55-b9c4-b467cbfc6c99","ios":"levelo://app?vid=127f71ed-0d0f-4c55-b9c4-b467cbfc6c99"},"vehicle_type_id":"4","last_reported":1741446390,"current_range_meters":13600,"station_id":"ce4bhc92rcd13ifvqetg","pricing_plan_id":"cebpf4jnsgd1na2vs0mg"},{"bike_id":"2e7581d5-a559-4cd5-bac4-273105318134","system_id":"levelo_inurba_marseille","lat":43.29263,"lon":5.3844,"is_reserved":false,"is_disabled":false,"rental_uris":{"android":"levelo://app?vid=2e7581d5-a559-4cd5-bac4-273105318134","ios":"levelo://app?vid=2e7581d5-a559-4cd5-bac4-273105318134"},"vehicle_type_id":"4","last_reported":1741446390,"current_range_meters":13600,"station_id":"ce4bh692rcd13ifvqea0","pricing_plan_id":"cebpf4jnsgd1na2vs0mg"},{"bike_id":"206ee395-5fd2-4beb-a2b6-22d937b9cb9d","system_id":"levelo_inurba_marseille","lat":43.2842,"lon":5.34997,"is_reserved":false,"is_disabled":false,"rental_uris":{"android":"levelo://app?vid=206ee395-5fd2-4beb-a2b6-22d937b9cb9d","ios":"levelo://app?vid=206ee395-5fd2-4beb-a2b6-22d937b9cb9d"},"vehicle_type_id":"4","last_reported":1741446390,"current_range_meters":14000,"station_id":"ce4bhbh2rcd13ifvqepg","pricing_plan_id":"cebpf4jnsgd1na2vs0mg"},{"bike_id":"c8db23cc-8c40-4f70-b1c9-2f45b79367f6","system_id":"levelo_inurba_marseille","lat":43.29529,"lon":5.37527,"is_reserved":false,"is_disabled":false,"rental_uris":{"android":"levelo://app?vid=c8db23cc-8c40-4f70-b1c9-2f45b79367f6","ios":"levelo://app?vid=c8db23cc-8c40-4f70-b1c9-2f45b79367f6"},"vehicle_type_id":"4","last_reported":1741446390,"current_range_meters":14000,"station_id":"ce4bgkp2rcd13ifvqbmg","pricing_plan_id":"cebpf4jnsgd1na2vs0mg"},{"bike_id":"b945cd70-9f9c-4331-8141-d1858f38c090","system_id":"levelo_inurba_marseille","lat":43.29276,"lon":5.38437,"is_reserved":false,"is_disabled":false,"rental_uris":{"android":"levelo://app?vid=b945cd70-9f9c-4331-8141-d1858f38c090","ios":"levelo://app?vid=b945cd70-9f9c-4331-8141-d1858f38c090"},"vehicle_type_id":"4","last_reported":1741446390,"current_range_meters":14000,"station_id":"ce4bh692rcd13ifvqea0","pricing_plan_id":"cebpf4jnsgd1na2vs0mg"},{"bike_id":"8c3587b0-f2ee-4ec0-bb1f-8001ede7321e","system_id":"levelo_inurba_marseille","lat":43.26561,"lon":5.39005,"is_reserved":false,"is_disabled":false,"rental_uris":{"android":"levelo://app?vid=8c3587b0-f2ee-4ec0-bb1f-8001ede7321e","ios":"levelo://app?vid=8c3587b0-f2ee-4ec0-bb1f-8001ede7321e"},"vehicle_type_id":"4","last_reported":1741446390,"current_range_meters":14400,"station_id":"ce4bhe12rcd13ifvqf30","pricing_plan_id":"cebpf4jnsgd1na2vs0mg"},{"bike_id":"5a3b1413-deb1-4c4d-afc1-9a04b533369c","system_id":"levelo_inurba_marseille","lat":43.29574,"lon":5.37497,"is_reserved":false,"is_disabled":false,"rental_uris":{"android":"levelo://app?vid=5a3b1413-deb1-4c4d-afc1-9a04b533369c","ios":"levelo://app?vid=5a3b1413-deb1-4c4d-afc1-9a04b533369c"},"vehicle_type_id":"4","last_reported":1741446390,"current_range_meters":14400,"station_id":"ce4bgh92rcd13ifvqb50","pricing_plan_id":"cebpf4jnsgd1na2vs0mg"},{"bike_id":"6b025610-578f-4002-8837-c91a7ae2baf8","system_id":"levelo_inurba_marseille","lat":43.23144,"lon":5.43716,"is_reserved":false,"is_disabled":false,"rental_uris":{"android":"levelo://app?vid=6b025610-578f-4002-8837-c91a7ae2baf8","ios":"levelo://app?vid=6b025610-578f-4002-8837-c91a7ae2baf8"},"vehicle_type_id":"4","last_reported":1741446390,"current_range_meters":14400,"station_id":"ce4bhmp2rcd13ifvqgog","pricing_plan_id":"cebpf4jnsgd1na2vs0mg"},{"bike_id":"30b8733a-ae27-42bf-883f-50cdead7fa82","system_id":"levelo_inurba_marseille","lat":43.29741,"lon":5.37683,"is_reserved":false,"is_disabled":false,"rental_uris":{"android":"levelo://app?vid=30b8733a-ae27-42bf-883f-50cdead7fa82","ios":"levelo://app?vid=30b8733a-ae27-42bf-883f-50cdead7fa82"},"vehicle_type_id":"4","last_reported":1741446390,"current_range_meters":14400,"station_id":"ce4bgkh2rcd13ifvqbl0","pricing_plan_id":"cebpf4jnsgd1na2vs0mg"},{"bike_id":"c0c0d0d5-fb21-4cce-812f-1bccea2850f1","system_id":"levelo_inurba_marseille","lat":43.31727,"lon":5.4241,"is_reserved":false,"is_disabled":false,"rental_uris":{"android":"levelo://app?vid=c0c0d0d5-fb21-4cce-812f-1bccea2850f1","ios":"levelo://app?vid=c0c0d0d5-fb21-4cce-812f-1bccea2850f1"},"vehicle_type_id":"4","last_reported":1741446390,"current_range_meters":12000,"station_id":"ce4bhp92rcd13ifvqhbg","pricing_plan_id":"cebpf4jnsgd1na2vs0mg"},{"bike_id":"b3951b8f-8388-46e0-9060-ee008a75aea1","system_id":"levelo_inurba_marseille","lat":43.2961,"lon":5.37731,"is_reserved":false,"is_disabled":false,"rental_uris":{"android":"levelo://app?vid=b3951b8f-8388-46e0-9060-ee008a75aea1","ios":"levelo://app?vid=b3951b8f-8388-46e0-9060-ee008a75aea1"},"vehicle_type_id":"4","last_reported":1741446390,"current_range_meters":14400,"station_id":"ce4bgi92rcd13ifvqb90","pricing_plan_id":"cebpf4jnsgd1na2vs0mg"},{"bike_id":"148269d5-9a46-4842-9d73-009228eaa705","system_id":"levelo_inurba_marseille","lat":43.31228,"lon":5.3686,"is_reserved":false,"is_disabled":false,"rental_uris":{"android":"levelo://app?vid=148269d5-9a46-4842-9d73-009228eaa705","ios":"levelo://app?vid=148269d5-9a46-4842-9d73-009228eaa705"},"vehicle_type_id":"4","last_reported":1741446390,"current_range_meters":15200,"station_id":"ce4bgl92rcd13ifvqbq0","pricing_plan_id":"cebpf4jnsgd1na2vs0mg"},{"bike_id":"edfc5926-6668-487b-8cc0-2ee0f94fb97c","system_id":"levelo_inurba_marseille","lat":43.28418,"lon":5.34975,"is_reserved":false,"is_disabled":false,"rental_uris":{"android":"levelo://app?vid=edfc5926-6668-487b-8cc0-2ee0f94fb97c","ios":"levelo://app?vid=edfc5926-6668-487b-8cc0-2ee0f94fb97c"},"vehicle_type_id":"4","last_reported":1741446390,"current_range_meters":14800,"station_id":"ce4bgs92rcd13ifvqcc0","pricing_plan_id":"cebpf4jnsgd1na2vs0mg"},{"bike_id":"f62a8e24-5a85-4de7-865e-64e826de1e86","system_id":"levelo_inurba_marseille","lat":43.26687,"lon":5.38268,"is_reserved":false,"is_disabled":false,"rental_uris":{"android":"levelo://app?vid=f62a8e24-5a85-4de7-865e-64e826de1e86","ios":"levelo://app?vid=f62a8e24-5a85-4de7-865e-64e826de1e86"},"vehicle_type_id":"4","last_reported":1741446390,"current_range_meters":14800,"station_id":"ce4bhg92rcd13ifvqf90","pricing_plan_id":"cebpf4jnsgd1na2vs0mg"},{"bike_id":"c4b881f9-cccb-4482-b6d6-845dc4f2d8e1","system_id":"levelo_inurba_marseille","lat":43.27055,"lon":5.40262,"is_reserved":false,"is_disabled":false,"rental_uris":{"android":"levelo://app?vid=c4b881f9-cccb-4482-b6d6-845dc4f2d8e1","ios":"levelo://app?vid=c4b881f9-cccb-4482-b6d6-845dc4f2d8e1"},"vehicle_type_id":"4","last_reported":1741446390,"current_range_meters":14800,"station_id":"ce4bhk92rcd13ifvqgc0","pricing_plan_id":"cebpf4jnsgd1na2vs0mg"},{"bike_id":"6e5c1ec0-55c7-428f-ab14-fe8ef478e880","system_id":"levelo_inurba_marseille","lat":43.33137,"lon":5.38917,"is_reserved":false,"is_disabled":false,"rental_uris":{"android":"levelo://app?vid=6e5c1ec0-55c7-428f-ab14-fe8ef478e880","ios":"levelo://app?vid=6e5c1ec0-55c7-428f-ab14-fe8ef478e880"},"vehicle_type_id":"4","last_reported":1741446390,"current_range_meters":14800,"station_id":"","pricing_plan_id":"cebpf4jnsgd1na2vs0mg"},{"bike_id":"a400c5aa-24d8-4860-b99b-cea294636ee4","system_id":"levelo_inurba_marseille","lat":43.28083,"lon":5.39656,"is_reserved":false,"is_disabled":false,"rental_uris":{"android":"levelo://app?vid=a400c5aa-24d8-4860-b99b-cea294636ee4","ios":"levelo://app?vid=a400c5aa-24d8-4860-b99b-cea294636ee4"},"vehicle_type_id":"4","last_reported":1741446390,"current_range_meters":14000,"station_id":"ce4bho12rcd13ifvqh2g","pricing_plan_id":"cebpf4jnsgd1na2vs0mg"},{"bike_id":"4bb1c9ee-2eb8-4a42-9f9d-52ddd87504b8","system_id":"levelo_inurba_marseille","lat":43.27923,"lon":5.39576,"is_reserved":false,"is_disabled":false,"rental_uris":{"android":"levelo://app?vid=4bb1c9ee-2eb8-4a42-9f9d-52ddd87504b8","ios":"levelo://app?vid=4bb1c9ee-2eb8-4a42-9f9d-52ddd87504b8"},"vehicle_type_id":"4","last_reported":1741446390,"current_range_meters":14800,"station_id":"ce4bhf92rcd13ifvqf40","pricing_plan_id":"cebpf4jnsgd1na2vs0mg"},{"bike_id":"7758ed75-5f25-4863-b21b-fc212239a75b","system_id":"levelo_inurba_marseille","lat":43.25728,"lon":5.41112,"is_reserved":false,"is_disabled":false,"rental_uris":{"android":"levelo://app?vid=7758ed75-5f25-4863-b21b-fc212239a75b","ios":"levelo://app?vid=7758ed75-5f25-4863-b21b-fc212239a75b"},"vehicle_type_id":"4","last_reported":1741446390,"current_range_meters":15200,"station_id":"ce4bhkp2rcd13ifvqgd0","pricing_plan_id":"cebpf4jnsgd1na2vs0mg"},{"bike_id":"076ec94f-72eb-40df-a3a5-e76856191eac","system_id":"levelo_inurba_marseille","lat":43.29607,"lon":5.37738,"is_reserved":false,"is_disabled":false,"rental_uris":{"android":"levelo://app?vid=076ec94f-72eb-40df-a3a5-e76856191eac","ios":"levelo://app?vid=076ec94f-72eb-40df-a3a5-e76856191eac"},"vehicle_type_id":"4","last_reported":1741446390,"current_range_meters":15200,"station_id":"ce4bgi92rcd13ifvqb90","pricing_plan_id":"cebpf4jnsgd1na2vs0mg"},{"bike_id":"42cc2e89-e275-4f6a-9390-91143c0e8b95","system_id":"levelo_inurba_marseille","lat":43.29616,"lon":5.37724,"is_reserved":false,"is_disabled":false,"rental_uris":{"android":"levelo://app?vid=42cc2e89-e275-4f6a-9390-91143c0e8b95","ios":"levelo://app?vid=42cc2e89-e275-4f6a-9390-91143c0e8b95"},"vehicle_type_id":"4","last_reported":1741446390,"current_range_meters":15200,"station_id":"ce4bgi92rcd13ifvqb90","pricing_plan_id":"cebpf4jnsgd1na2vs0mg"},{"bike_id":"418008e9-ba6e-4d74-9f4e-6d20b68a68ad","system_id":"levelo_inurba_marseille","lat":43.23751,"lon":5.42845,"is_reserved":false,"is_disabled":false,"rental_uris":{"android":"levelo://app?vid=418008e9-ba6e-4d74-9f4e-6d20b68a68ad","ios":"levelo://app?vid=418008e9-ba6e-4d74-9f4e-6d20b68a68ad"},"vehicle_type_id":"4","last_reported":1741446390,"current_range_meters":15200,"station_id":"","pricing_plan_id":"cebpf4jnsgd1na2vs0mg"},{"bike_id":"6d7f259f-c25c-4685-b3a7-2d4e1139eda6","system_id":"levelo_inurba_marseille","lat":43.28415,"lon":5.34995,"is_reserved":false,"is_disabled":false,"rental_uris":{"android":"levelo://app?vid=6d7f259f-c25c-4685-b3a7-2d4e1139eda6","ios":"levelo://app?vid=6d7f259f-c25c-4685-b3a7-2d4e1139eda6"},"vehicle_type_id":"4","last_reported":1741446390,"current_range_meters":15200,"station_id":"ce4bhbh2rcd13ifvqepg","pricing_plan_id":"cebpf4jnsgd1na2vs0mg"},{"bike_id":"bb09aed0-5712-4b75-9abf-57a7804b664c","system_id":"levelo_inurba_marseille","lat":43.29093,"lon":5.36733,"is_reserved":false,"is_disabled":false,"rental_uris":{"android":"levelo://app?vid=bb09aed0-5712-4b75-9abf-57a7804b664c","ios":"levelo://app?vid=bb09aed0-5712-4b75-9abf-57a7804b664c"},"vehicle_type_id":"4","last_reported":1741446390,"current_range_meters":16400,"station_id":"","pricing_plan_id":"cebpf4jnsgd1na2vs0mg"},{"bike_id":"951a2b3b-066b-42f2-ac4b-bc00e694d4e5","system_id":"levelo_inurba_marseille","lat":43.28609,"lon":5.35103,"is_reserved":false,"is_disabled":false,"rental_uris":{"android":"levelo://app?vid=951a2b3b-066b-42f2-ac4b-bc00e694d4e5","ios":"levelo://app?vid=951a2b3b-066b-42f2-ac4b-bc00e694d4e5"},"vehicle_type_id":"4","last_reported":1741446390,"current_range_meters":16000,"station_id":"ce4bhch2rcd13ifvqeug","pricing_plan_id":"cebpf4jnsgd1na2vs0mg"},{"bike_id":"3a1203da-b99d-4623-9c0f-d962bb601f56","system_id":"levelo_inurba_marseille","lat":43.29531,"lon":5.37508,"is_reserved":false,"is_disabled":false,"rental_uris":{"android":"levelo://app?vid=3a1203da-b99d-4623-9c0f-d962bb601f56","ios":"levelo://app?vid=3a1203da-b99d-4623-9c0f-d962bb601f56"},"vehicle_type_id":"4","last_reported":1741446390,"current_range_meters":16000,"station_id":"ce4bgkp2rcd13ifvqbmg","pricing_plan_id":"cebpf4jnsgd1na2vs0mg"},{"bike_id":"36cb3b1a-25f8-4c3e-9033-e0fba38ec149","system_id":"levelo_inurba_marseille","lat":43.29726,"lon":5.37693,"is_reserved":false,"is_disabled":false,"rental_uris":{"android":"levelo://app?vid=36cb3b1a-25f8-4c3e-9033-e0fba38ec149","ios":"levelo://app?vid=36cb3b1a-25f8-4c3e-9033-e0fba38ec149"},"vehicle_type_id":"4","last_reported":1741446390,"current_range_meters":16000,"station_id":"ce4bgkh2rcd13ifvqbl0","pricing_plan_id":"cebpf4jnsgd1na2vs0mg"},{"bike_id":"4c5d8bb4-3d1e-4689-9d72-361d8d376cce","system_id":"levelo_inurba_marseille","lat":43.24819,"lon":5.3745,"is_reserved":false,"is_disabled":false,"rental_uris":{"android":"levelo://app?vid=4c5d8bb4-3d1e-4689-9d72-361d8d376cce","ios":"levelo://app?vid=4c5d8bb4-3d1e-4689-9d72-361d8d376cce"},"vehicle_type_id":"4","last_reported":1741446390,"current_range_meters":16000,"station_id":"ce4bhgh2rcd13ifvqfb0","pricing_plan_id":"cebpf4jnsgd1na2vs0mg"},{"bike_id":"43c6fb0d-74ec-4a6a-8d22-820680ef890f","system_id":"levelo_inurba_marseille","lat":43.2975,"lon":5.37686,"is_reserved":false,"is_disabled":false,"rental_uris":{"android":"levelo://app?vid=43c6fb0d-74ec-4a6a-8d22-820680ef890f","ios":"levelo://app?vid=43c6fb0d-74ec-4a6a-8d22-820680ef890f"},"vehicle_type_id":"4","last_reported":1741446390,"current_range_meters":16400,"station_id":"ce4bgkh2rcd13ifvqbl0","pricing_plan_id":"cebpf4jnsgd1na2vs0mg"},{"bike_id":"c93b0bec-9ec6-47f1-9400-cdf5fac2ecb1","system_id":"levelo_inurba_marseille","lat":43.2439,"lon":5.37065,"is_reserved":false,"is_disabled":false,"rental_uris":{"android":"levelo://app?vid=c93b0bec-9ec6-47f1-9400-cdf5fac2ecb1","ios":"levelo://app?vid=c93b0bec-9ec6-47f1-9400-cdf5fac2ecb1"},"vehicle_type_id":"4","last_reported":1741446390,"current_range_meters":16400,"station_id":"ce4bhhh2rcd13ifvqfk0","pricing_plan_id":"cebpf4jnsgd1na2vs0mg"},{"bike_id":"e374a9ac-5fce-471f-b759-452dbfa0a9fb","system_id":"levelo_inurba_marseille","lat":43.30147,"lon":5.38074,"is_reserved":false,"is_disabled":false,"rental_uris":{"android":"levelo://app?vid=e374a9ac-5fce-471f-b759-452dbfa0a9fb","ios":"levelo://app?vid=e374a9ac-5fce-471f-b759-452dbfa0a9fb"},"vehicle_type_id":"4","last_reported":1741446390,"current_range_meters":14800,"station_id":"ce4bgjp2rcd13ifvqbh0","pricing_plan_id":"cebpf4jnsgd1na2vs0mg"},{"bike_id":"59dc945f-2e63-4fb3-b986-fba6c68bba48","system_id":"levelo_inurba_marseille","lat":43.29302,"lon":5.37456,"is_reserved":false,"is_disabled":false,"rental_uris":{"android":"levelo://app?vid=59dc945f-2e63-4fb3-b986-fba6c68bba48","ios":"levelo://app?vid=59dc945f-2e63-4fb3-b986-fba6c68bba48"},"vehicle_type_id":"4","last_reported":1741446390,"current_range_meters":15200,"station_id":"ce4bgi12rcd13ifvqb70","pricing_plan_id":"cebpf4jnsgd1na2vs0mg"},{"bike_id":"ee926f57-a308-4c18-a6fa-c5abc65e8c4e","system_id":"levelo_inurba_marseille","lat":43.23961,"lon":5.36649,"is_reserved":false,"is_disabled":false,"rental_uris":{"android":"levelo://app?vid=ee926f57-a308-4c18-a6fa-c5abc65e8c4e","ios":"levelo://app?vid=ee926f57-a308-4c18-a6fa-c5abc65e8c4e"},"vehicle_type_id":"4","last_reported":1741446390,"current_range_meters":16400,"station_id":"ce4bhi12rcd13ifvqfp0","pricing_plan_id":"cebpf4jnsgd1na2vs0mg"},{"bike_id":"0301b8c1-d6a3-4f02-8697-682ad9d2f225","system_id":"levelo_inurba_marseille","lat":43.28268,"lon":5.35061,"is_reserved":false,"is_disabled":false,"rental_uris":{"android":"levelo://app?vid=0301b8c1-d6a3-4f02-8697-682ad9d2f225","ios":"levelo://app?vid=0301b8c1-d6a3-4f02-8697-682ad9d2f225"},"vehicle_type_id":"4","last_reported":1741446390,"current_range_meters":16800,"station_id":"ce4bhbp2rcd13ifvqerg","pricing_plan_id":"cebpf4jnsgd1na2vs0mg"},{"bike_id":"0e0ebb0f-6830-47ec-80ea-2a462f56d642","system_id":"levelo_inurba_marseille","lat":43.29675,"lon":5.37289,"is_reserved":false,"is_disabled":false,"rental_uris":{"android":"levelo://app?vid=0e0ebb0f-6830-47ec-80ea-2a462f56d642","ios":"levelo://app?vid=0e0ebb0f-6830-47ec-80ea-2a462f56d642"},"vehicle_type_id":"4","last_reported":1741446390,"current_range_meters":12800,"station_id":"ce4bgk12rcd13ifvqbj0","pricing_plan_id":"cebpf4jnsgd1na2vs0mg"},{"bike_id":"f7a3a926-3153-4c39-849a-045c26a92f56","system_id":"levelo_inurba_marseille","lat":43.29539,"lon":5.37506,"is_reserved":false,"is_disabled":false,"rental_uris":{"android":"levelo://app?vid=f7a3a926-3153-4c39-849a-045c26a92f56","ios":"levelo://app?vid=f7a3a926-3153-4c39-849a-045c26a92f56"},"vehicle_type_id":"4","last_reported":1741446390,"current_range_meters":16400,"station_id":"ce4bgkp2rcd13ifvqbmg","pricing_plan_id":"cebpf4jnsgd1na2vs0mg"},