{"last_updated":1685916328,"ttl":30,"version":"2.2","data":{"bikes":[{"bike_id":"46934921-2f43-44c9-8d14-a609d1760487","system_id":"levelo_inurba_marseille","lat":43.309076,"lon":5.368465,"is_reserved":false,"is_disabled":false,"rental_uris":{"android":"levelo://app?vid=46934921-2f43-44c9-8d14-a609d1760487","ios":"levelo://app?vid=46934921-2f43-44c9-8d14-a609d1760487"},"vehicle_type_id":"4","last_reported":1685916328,"current_range_meters":24400,"station_id":"ce4bgn92rcd13ifvqbvg","pricing_plan_id":"free"},{"bike_id":"b0c75791-8a06-45a0-a8bd-d41e52333a70","system_id":"levelo_inurba_marseille","lat":43.314811,"lon":5.373103,"is_reserved":false,"is_disabled":false,"rental_uris":{"android":"levelo://app?vid=b0c75791-8a06-45a0-a8bd-d41e52333a70","ios":"levelo://app?vid=b0c75791-8a06-45a0-a8bd-d41e52333a70"},"vehicle_type_id":"4","last_reported":1685916328,"current_range_meters":18800,"station_id":"ce4bgt12rcd13ifvqcd0","pricing_plan_id":"free"},{"bike_id":"8d628352-f8c1-45c1-8481-f73757a8b0c4","system_id":"levelo_inurba_marseille","lat":43.314811,"lon":5.373103,"is_reserved":false,"is_disabled":false,"rental_uris":{"android":"levelo://app?vid=8d628352-f8c1-45c1-8481-f73757a8b0c4","ios":"levelo://app?vid=8d628352-f8c1-45c1-8481-f73757a8b0c4"},"vehicle_type_id":"4","last_reported":1685916328,"current_range_meters":4400,"station_id":"ce4bgt12rcd13ifvqcd0","pricing_plan_id":"free"},{"bike_id":"f51b3cb8-f96d-4658-a3b4-0d41559754f9","system_id":"levelo_inurba_marseille","lat":43.3082,"lon":5.36979,"is_reserved":false,"is_disabled":false,"rental_uris":{"android":"levelo://app?vid=f51b3cb8-f96d-4658-a3b4-0d41559754f9","ios":"levelo://app?vid=f51b3cb8-f96d-4658-a3b4-0d41559754f9"},"vehicle_type_id":"4","last_reported":1685916328,"current_range_meters":26800,"station_id":"","pricing_plan_id":"free"},{"bike_id":"04a2dc65-286f-4cf4-8f57-f820215be30c","system_id":"levelo_inurba_marseille","lat":43.314811,"lon":5.373104,"is_reserved":false,"is_disabled":false,"rental_uris":{"android":"levelo://app?vid=04a2dc65-286f-4cf4-8f57-f820215be30c","ios":"levelo://app?vid=04a2dc65-286f-4cf4-8f57-f820215be30c"},"vehicle_type_id":"4","last_reported":1685916328,"current_range_meters":28800,"station_id":"ce4bgt12rcd13ifvqcd0","pricing_plan_id":"free"},{"bike_id":"b3697a48-c8e9-4243-829e-3ce7399127ed","system_id":"levelo_inurba_marseille","lat":43.308614,"lon":5.372098,"is_reserved":false,"is_disabled":false,"rental_uris":{"android":"levelo://app?vid=b3697a48-c8e9-4243-829e-3ce7399127ed","ios":"levelo://app?vid=b3697a48-c8e9-4243-829e-3ce7399127ed"},"vehicle_type_id":"4","last_reported":1685916328,"current_range_meters":23600,"station_id":"ce4bguh2rcd13ifvqckg","pricing_plan_id":"free"},{"bike_id":"a0d6e70e-6cf5-46c2-b5d0-d169ded78afd","system_id":"levelo_inurba_marseille","lat":43.30891,"lon":5.37197,"is_reserved":false,"is_disabled":false,"rental_uris":{"android":"levelo://app?vid=a0d6e70e-6cf5-46c2-b5d0-d169ded78afd","ios":"levelo://app?vid=a0d6e70e-6cf5-46c2-b5d0-d169ded78afd"},"vehicle_type_id":"4","last_reported":1685916328,"current_range_meters":29600,"station_id":"","pricing_plan_id":"free"},{"bike_id":"4d43e892-ec90-4fce-8475-f727fed3851f","system_id":"levelo_inurba_marseille","lat":43.31797,"lon":5.36821,"is_reserved":false,"is_disabled":false,"rental_uris":{"android":"levelo://app?vid=4d43e892-ec90-4fce-8475-f727fed3851f","ios":"levelo://app?vid=4d43e892-ec90-4fce-8475-f727fed3851f"},"vehicle_type_id":"4","last_reported":1685916328,"current_range_meters":0,"station_id":"","pricing_plan_id":"free"},{"bike_id":"a2bcefb7-d80b-474e-a9b3-abecb50796eb","system_id":"levelo_inurba_marseille","lat":43.30839,"lon":5.37181,"is_reserved":false,"is_disabled":false,"rental_uris":{"android":"levelo://app?vid=a2bcefb7-d80b-474e-a9b3-abecb50796eb","ios":"levelo://app?vid=a2bcefb7-d80b-474e-a9b3-abecb50796eb"},"vehicle_type_id":"4","last_reported":1685916328,"current_range_meters":28400,"station_id":"","pricing_plan_id":"free"},{"bike_id":"048be98a-d3e1-4397-bf58-9e37d125046f","system_id":"levelo_inurba_marseille","lat":43.31815,"lon":5.36918,"is_reserved":false,"is_disabled":false,"rental_uris":{"android":"levelo://app?vid=048be98a-d3e1-4397-bf58-9e37d125046f","ios":"levelo://app?vid=048be98a-d3e1-4397-bf58-9e37d125046f"},"vehicle_type_id":"4","last_reported":1685916328,"current_range_meters":8800,"station_id":"","pricing_plan_id":"free"},{"bike_id":"76e74181-b0e0-4f99-be33-55bfb87110a6","system_id":"levelo_inurba_marseille","lat":43.298433,"lon":5.362774,"is_reserved":false,"is_disabled":false,"rental_uris":{"android":"levelo://app?vid=76e74181-b0e0-4f99-be33-55bfb87110a6","ios":"levelo://app?vid=76e74181-b0e0-4f99-be33-55bfb87110a6"},"vehicle_type_id":"4","last_reported":1685916328,"current_range_meters":28000,"station_id":"ce4bgpp2rcd13ifvqc3g","pricing_plan_id":"free"},{"bike_id":"47dde2ea-5345-431b-8754-ad0a6f169f59","system_id":"levelo_inurba_marseille","lat":43.305368,"lon":5.367343,"is_reserved":false,"is_disabled":false,"rental_uris":{"android":"levelo://app?vid=47dde2ea-5345-431b-8754-ad0a6f169f59","ios":"levelo://app?vid=47dde2ea-5345-431b-8754-ad0a6f169f59"},"vehicle_type_id":"4","last_reported":1685916328,"current_range_meters":17200,"station_id":"ce4bgrp2rcd13ifvqc9g","pricing_plan_id":"free"},{"bike_id":"787084f0-55cc-4831-a60a-c1d64af85c63","system_id":"levelo_inurba_marseille","lat":43.305368,"lon":5.367343,"is_reserved":false,"is_disabled":false,"rental_uris":{"android":"levelo://app?vid=787084f0-55cc-4831-a60a-c1d64af85c63","ios":"levelo://app?vid=787084f0-55cc-4831-a60a-c1d64af85c63"},"vehicle_type_id":"4","last_reported":1685916328,"current_range_meters":20000,"station_id":"ce4bgrp2rcd13ifvqc9g","pricing_plan_id":"free"},{"bike_id":"e91e9d3d-4be1-4088-9b07-7d3f10b598d6","system_id":"levelo_inurba_marseille","lat":43.31168,"lon":5.37763,"is_reserved":false,"is_disabled":false,"rental_uris":{"android":"levelo://app?vid=e91e9d3d-4be1-4088-9b07-7d3f10b598d6","ios":"levelo://app?vid=e91e9d3d-4be1-4088-9b07-7d3f10b598d6"},"vehicle_type_id":"4","last_reported":1685916328,"current_range_meters":6000,"station_id":"","pricing_plan_id":"free"},{"bike_id":"9b5d6a66-f06b-4c93-befb-1a2161dfb7a6","system_id":"levelo_inurba_marseille","lat":43.311175,"lon":5.377713,"is_reserved":false,"is_disabled":false,"rental_uris":{"android":"levelo://app?vid=9b5d6a66-f06b-4c93-befb-1a2161dfb7a6","ios":"levelo://app?vid=9b5d6a66-f06b-4c93-befb-1a2161dfb7a6"},"vehicle_type_id":"4","last_reported":1685916328,"current_range_meters":16000,"station_id":"","pricing_plan_id":"free"},{"bike_id":"f5863744-da44-4c8a-9eb6-d2d4ccbcfca9","system_id":"levelo_inurba_marseille","lat":43.311125,"lon":5.377624,"is_reserved":false,"is_disabled":false,"rental_uris":{"android":"levelo://app?vid=f5863744-da44-4c8a-9eb6-d2d4ccbcfca9","ios":"levelo://app?vid=f5863744-da44-4c8a-9eb6-d2d4ccbcfca9"},"vehicle_type_id":"4","last_reported":1685916328,"current_range_meters":25200,"station_id":"ce4bgt92rcd13ifvqcg0","pricing_plan_id":"free"},{"bike_id":"13895eb0-d699-4f5c-8cbd-415163c94e1f","system_id":"levelo_inurba_marseille","lat":43.311131,"lon":5.377651,"is_reserved":false,"is_disabled":false,"rental_uris":{"android":"levelo://app?vid=13895eb0-d699-4f5c-8cbd-415163c94e1f","ios":"levelo://app?vid=13895eb0-d699-4f5c-8cbd-415163c94e1f"},"vehicle_type_id":"4","last_reported":1685916328,"current_range_meters":18400,"station_id":"ce4bgt92rcd13ifvqcg0","pricing_plan_id":"free"},{"bike_id":"e7b51aa1-0eb8-4bd7-84cf-72c44bc60f04","system_id":"levelo_inurba_marseille","lat":43.317075,"lon":5.377367,"is_reserved":false,"is_disabled":false,"rental_uris":{"android":"levelo://app?vid=e7b51aa1-0eb8-4bd7-84cf-72c44bc60f04","ios":"levelo://app?vid=e7b51aa1-0eb8-4bd7-84cf-72c44bc60f04"},"vehicle_type_id":"4","last_reported":1685916328,"current_range_meters":27200,"station_id":"ce4bgth2rcd13ifvqch0","pricing_plan_id":"free"},{"bike_id":"a491e486-b30c-494f-b55b-fa99bed4227b","system_id":"levelo_inurba_marseille","lat":43.317075,"lon":5.377367,"is_reserved":false,"is_disabled":false,"rental_uris":{"android":"levelo://app?vid=a491e486-b30c-494f-b55b-fa99bed4227b","ios":"levelo://app?vid=a491e486-b30c-494f-b55b-fa99bed4227b"},"vehicle_type_id":"4","last_reported":1685916328,"current_range_meters":8800,"station_id":"ce4bgth2rcd13ifvqch0","pricing_plan_id":"free"},{"bike_id":"ed285243-cf16-482b-bbf1-88e476e330ab","system_id":"levelo_inurba_marseille","lat":43.315289,"lon":5.380349,"is_reserved":false,"is_disabled":false,"rental_uris":{"android":"levelo://app?vid=ed285243-cf16-482b-bbf1-88e476e330ab","ios":"levelo://app?vid=ed285243-cf16-482b-bbf1-88e476e330ab"},"vehicle_type_id":"4","last_reported":1685916328,"current_range_meters":13200,"station_id":"ce4bhsp2rcd13ifvqi50","pricing_plan_id":"free"},{"bike_id":"87f83aa8-51f7-4130-88bc-4e7d521dcc10","system_id":"levelo_inurba_marseille","lat":43.315289,"lon":5.380349,"is_reserved":false,"is_disabled":false,"rental_uris":{"android":"levelo://app?vid=87f83aa8-51f7-4130-88bc-4e7d521dcc10","ios":"levelo://app?vid=87f83aa8-51f7-4130-88bc-4e7d521dcc10"},"vehicle_type_id":"4","last_reported":1685916328,"current_range_meters":7600,"station_id":"ce4bhsp2rcd13ifvqi50","pricing_plan_id":"free"},{"bike_id":"222097d8-5fea-40e4-888f-25f9e6ce2577","system_id":"levelo_inurba_marseille","lat":43.315293,"lon":5.380349,"is_reserved":false,"is_disabled":false,"rental_uris":{"android":"levelo://app?vid=222097d8-5fea-40e4-888f-25f9e6ce2577","ios":"levelo://app?vid=222097d8-5fea-40e4-888f-25f9e6ce2577"},"vehicle_type_id":"4","last_reported":1685916328,"current_range_meters":26400,"station_id":"ce4bhsp2rcd13ifvqi50","pricing_plan_id":"free"},{"bike_id":"732f00a7-92a2-43d5-ac7a-78b0dea6415c","system_id":"levelo_inurba_marseille","lat":43.315289,"lon":5.380349,"is_reserved":false,"is_disabled":false,"rental_uris":{"android":"levelo://app?vid=732f00a7-92a2-43d5-ac7a-78b0dea6415c","ios":"levelo://app?vid=732f00a7-92a2-43d5-ac7a-78b0dea6415c"},"vehicle_type_id":"4","last_reported":1685916328,"current_range_meters":8800,"station_id":"ce4bhsp2rcd13ifvqi50","pricing_plan_id":"free"},{"bike_id":"ca4876ed-d627-4502-ae21-46356f391e2e","system_id":"levelo_inurba_marseille","lat":43.315289,"lon":5.380349,"is_reserved":false,"is_disabled":false,"rental_uris":{"android":"levelo://app?vid=ca4876ed-d627-4502-ae21-46356f391e2e","ios":"levelo://app?vid=ca4876ed-d627-4502-ae21-46356f391e2e"},"vehicle_type_id":"4","last_reported":1685916328,"current_range_meters":19600,"station_id":"ce4bhsp2rcd13ifvqi50","pricing_plan_id":"free"},{"bike_id":"28b797df-f535-4218-b6fb-d858420c7ce1","system_id":"levelo_inurba_marseille","lat":43.315293,"lon":5.380349,"is_reserved":false,"is_disabled":false,"rental_uris":{"android":"levelo://app?vid=28b797df-f535-4218-b6fb-d858420c7ce1","ios":"levelo://app?vid=28b797df-f535-4218-b6fb-d858420c7ce1"},"vehicle_type_id":"4","last_reported":1685916328,"current_range_meters":400,"station_id":"ce4bhsp2rcd13ifvqi50","pricing_plan_id":"free"},{"bike_id":"952c3b00-2caa-4ec4-9b87-1b23eb5c656e","system_id":"levelo_inurba_marseille","lat":43.301939,"lon":5.366286,"is_reserved":false,"is_disabled":false,"rental_uris":{"android":"levelo://app?vid=952c3b00-2caa-4ec4-9b87-1b23eb5c656e","ios":"levelo://app?vid=952c3b00-2caa-4ec4-9b87-1b23eb5c656e"},"vehicle_type_id":"4","last_reported":1685916328,"current_range_meters":31200,"station_id":"ce4bgrh2rcd13ifvqc8g","pricing_plan_id":"free"},{"bike_id":"2eae68b8-3d1c-4886-94d0-19b9e27bccb4","system_id":"levelo_inurba_marseille","lat":43.308012,"lon":5.381511,"is_reserved":false,"is_disabled":false,"rental_uris":{"android":"levelo://app?vid=2eae68b8-3d1c-4886-94d0-19b9e27bccb4","ios":"levelo://app?vid=2eae68b8-3d1c-4886-94d0-19b9e27bccb4"},"vehicle_type_id":"4","last_reported":1685916328,"current_range_meters":23200,"station_id":"ce4bgt12rcd13ifvqce0","pricing_plan_id":"free"},{"bike_id":"7650a9c1-9d62-46f7-9add-f117a2324578","system_id":"levelo_inurba_marseille","lat":43.30804,"lon":5.38145,"is_reserved":false,"is_disabled":false,"rental_uris":{"android":"levelo://app?vid=7650a9c1-9d62-46f7-9add-f117a2324578","ios":"levelo://app?vid=7650a9c1-9d62-46f7-9add-f117a2324578"},"vehicle_type_id":"4","last_reported":1685916328,"current_range_meters":19600,"station_id":"ce4bgt12rcd13ifvqce0","pricing_plan_id":"free"},{"bike_id":"7b3c4b53-8cd0-4827-852b-80b28dc7073e","system_id":"levelo_inurba_marseille","lat":43.304606,"lon":5.379026,"is_reserved":false,"is_disabled":false,"rental_uris":{"android":"levelo://app?vid=7b3c4b53-8cd0-4827-852b-80b28dc7073e","ios":"levelo://app?vid=7b3c4b53-8cd0-4827-852b-80b28dc7073e"},"vehicle_type_id":"4","last_reported":1685916328,"current_range_meters":0,"station_id":"ce4bgup2rcd13ifvqcn0","pricing_plan_id":"free"},{"bike_id":"7fd1943b-49b8-45fb-8b8a-a68a26f90391","system_id":"levelo_inurba_marseille","lat":43.304606,"lon":5.379026,"is_reserved":false,"is_disabled":false,"rental_uris":{"android":"levelo://app?vid=7fd1943b-49b8-45fb-8b8a-a68a26f90391","ios":"levelo://app?vid=7fd1943b-49b8-45fb-8b8a-a68a26f90391"},"vehicle_type_id":"4","last_reported":1685916328,"current_range_meters":800,"station_id":"ce4bgup2rcd13ifvqcn0","pricing_plan_id":"free"},{"bike_id":"994fd81e-6db6-4408-acc8-bec511d624f9","system_id":"levelo_inurba_marseille","lat":43.31994,"lon":5.38144,"is_reserved":false,"is_disabled":false,"rental_uris":{"android":"levelo://app?vid=994fd81e-6db6-4408-acc8-bec511d624f9","ios":"levelo://app?vid=994fd81e-6db6-4408-acc8-bec511d624f9"},"vehicle_type_id":"4","last_reported":1685916328,"current_range_meters":15200,"station_id":"ce4bhr12rcd13ifvqhpg","pricing_plan_id":"free"},{"bike_id":"1f1dc83b-8ccb-4689-a2db-9ce7e1fda49c","system_id":"levelo_inurba_marseille","lat":43.319935,"lon":5.381699,"is_reserved":false,"is_disabled":false,"rental_uris":{"android":"levelo://app?vid=1f1dc83b-8ccb-4689-a2db-9ce7e1fda49c","ios":"levelo://app?vid=1f1dc83b-8ccb-4689-a2db-9ce7e1fda49c"},"vehicle_type_id":"4","last_reported":1685916328,"current_range_meters":2000,"station_id":"ce4bhr12rcd13ifvqhpg","pricing_plan_id":"free"},{"bike_id":"35369de5-2325-46f5-91e2-654f2d5c1102","system_id":"levelo_inurba_marseille","lat":43.31996,"lon":5.3815,"is_reserved":false,"is_disabled":false,"rental_uris":{"android":"levelo://app?vid=35369de5-2325-46f5-91e2-654f2d5c1102","ios":"levelo://app?vid=35369de5-2325-46f5-91e2-654f2d5c1102"},"vehicle_type_id":"4","last_reported":1685916328,"current_range_meters":15600,"station_id":"ce4bhr12rcd13ifvqhpg","pricing_plan_id":"free"},{"bike_id":"7f296a06-238a-4357-bec7-1e7451d8c132","system_id":"levelo_inurba_marseille","lat":43.31998,"lon":5.38152,"is_reserved":false,"is_disabled":false,"rental_uris":{"android":"levelo://app?vid=7f296a06-238a-4357-bec7-1e7451d8c132","ios":"levelo://app?vid=7f296a06-238a-4357-bec7-1e7451d8c132"},"vehicle_type_id":"4","last_reported":1685916328,"current_range_meters":26400,"station_id":"ce4bhr12rcd13ifvqhpg","pricing_plan_id":"free"},{"bike_id":"36136d78-2be3-4b19-a90a-7711a04c3c3a","system_id":"levelo_inurba_marseille","lat":43.31373,"lon":5.38515,"is_reserved":false,"is_disabled":false,"rental_uris":{"android":"levelo://app?vid=36136d78-2be3-4b19-a90a-7711a04c3c3a","ios":"levelo://app?vid=36136d78-2be3-4b19-a90a-7711a04c3c3a"},"vehicle_type_id":"4","last_reported":1685916328,"current_range_meters":14000,"station_id":"","pricing_plan_id":"free"},{"bike_id":"df542826-ab53-47a6-8a48-37cbb53b5a98","system_id":"levelo_inurba_marseille","lat":43.299222,"lon":5.365554,"is_reserved":false,"is_disabled":false,"rental_uris":{"android":"levelo://app?vid=df542826-ab53-47a6-8a48-37cbb53b5a98","ios":"levelo://app?vid=df542826-ab53-47a6-8a48-37cbb53b5a98"},"vehicle_type_id":"4","last_reported":1685916328,"current_range_meters":4800,"station_id":"ce4bgm92rcd13ifvqbr0","pricing_plan_id":"free"},{"bike_id":"b93e170c-7f38-4001-b640-dd5cd38248d2","system_id":"levelo_inurba_marseille","lat":43.305364,"lon":5.384119,"is_reserved":false,"is_disabled":false,"rental_uris":{"android":"levelo://app?vid=b93e170c-7f38-4001-b640-dd5cd38248d2","ios":"levelo://app?vid=b93e170c-7f38-4001-b640-dd5cd38248d2"},"vehicle_type_id":"4","last_reported":1685916328,"current_range_meters":5200,"station_id":"ce4bgg92rcd13ifvqb30","pricing_plan_id":"free"},{"bike_id":"531d6e55-508f-411c-91b2-5fe710d32b13","system_id":"levelo_inurba_marseille","lat":43.311722,"lon":5.387247,"is_reserved":false,"is_disabled":false,"rental_uris":{"android":"levelo://app?vid=531d6e55-508f-411c-91b2-5fe710d32b13","ios":"levelo://app?vid=531d6e55-508f-411c-91b2-5fe710d32b13"},"vehicle_type_id":"4","last_reported":1685916328,"current_range_meters":22800,"station_id":"ce4bgv12rcd13ifvqcp0","pricing_plan_id":"free"},{"bike_id":"25097ff0-fca3-4a14-875f-0d0921ef19af","system_id":"levelo_inurba_marseille","lat":43.311722,"lon":5.387247,"is_reserved":false,"is_disabled":false,"rental_uris":{"android":"levelo://app?vid=25097ff0-fca3-4a14-875f-0d0921ef19af","ios":"levelo://app?vid=25097ff0-fca3-4a14-875f-0d0921ef19af"},"vehicle_type_id":"4","last_reported":1685916328,"current_range_meters":18400,"station_id":"ce4bgv12rcd13ifvqcp0","pricing_plan_id":"free"},{"bike_id":"0d7a3e3e-fbd3-488b-a8ff-4e04679f05b4","system_id":"levelo_inurba_marseille","lat":43.31167,"lon":5.38714,"is_reserved":false,"is_disabled":false,"rental_uris":{"android":"levelo://app?vid=0d7a3e3e-fbd3-488b-a8ff-4e04679f05b4","ios":"levelo://app?vid=0d7a3e3e-fbd3-488b-a8ff-4e04679f05b4"},"vehicle_type_id":"4","last_reported":1685916328,"current_range_meters":19600,"station_id":"ce4bgv12rcd13ifvqcp0","pricing_plan_id":"free"},{"bike_id":"b19faedd-46ad-492c-bb18-7586c5432f0b","system_id":"levelo_inurba_marseille","lat":43.311722,"lon":5.387247,"is_reserved":false,"is_disabled":false,"rental_uris":{"android":"levelo://app?vid=b19faedd-46ad-492c-bb18-7586c5432f0b","ios":"levelo://app?vid=b19faedd-46ad-492c-bb18-7586c5432f0b"},"vehicle_type_id":"4","last_reported":1685916328,"current_range_meters":5200,"station_id":"ce4bgv12rcd13ifvqcp0","pricing_plan_id":"free"},{"bike_id":"f71db1be-ee1b-438a-8633-85e1767e2a32","system_id":"levelo_inurba_marseille","lat":43.328371,"lon":5.366909,"is_reserved":false,"is_disabled":false,"rental_uris":{"android":"levelo://app?vid=f71db1be-ee1b-438a-8633-85e1767e2a32","ios":"levelo://app?vid=f71db1be-ee1b-438a-8633-85e1767e2a32"},"vehicle_type_id":"4","last_reported":1685916328,"current_range_meters":30400,"station_id":"ce4bhs92rcd13ifvqi0g","pricing_plan_id":"free"},{"bike_id":"93fe580d-71c0-4856-a27e-71bfe60b8232","system_id":"levelo_inurba_marseille","lat":43.328371,"lon":5.366909,"is_reserved":false,"is_disabled":false,"rental_uris":{"android":"levelo://app?vid=93fe580d-71c0-4856-a27e-71bfe60b8232","ios":"levelo://app?vid=93fe580d-71c0-4856-a27e-71bfe60b8232"},"vehicle_type_id":"4","last_reported":1685916328,"current_range_meters":19200,"station_id":"ce4bhs92rcd13ifvqi0g","pricing_plan_id":"free"},{"bike_id":"22444133-95f7-4f8c-8ae6-2707d46e0baa","system_id":"levelo_inurba_marseille","lat":43.328371,"lon":5.366909,"is_reserved":false,"is_disabled":false,"rental_uris":{"android":"levelo://app?vid=22444133-95f7-4f8c-8ae6-2707d46e0baa","ios":"levelo://app?vid=22444133-95f7-4f8c-8ae6-2707d46e0baa"},"vehicle_type_id":"4","last_reported":1685916328,"current_range_meters":11600,"station_id":"ce4bhs92rcd13ifvqi0g","pricing_plan_id":"free"},{"bike_id":"705474d3-9fd1-480b-9969-a49f48bc150d","system_id":"levelo_inurba_marseille","lat":43.328371,"lon":5.366909,"is_reserved":false,"is_disabled":false,"rental_uris":{"android":"levelo://app?vid=705474d3-9fd1-480b-9969-a49f48bc150d","ios":"levelo://app?vid=705474d3-9fd1-480b-9969-a49f48bc150d"},"vehicle_type_id":"4","last_reported":1685916328,"current_range_meters":22400,"station_id":"ce4bhs92rcd13ifvqi0g","pricing_plan_id":"free"},{"bike_id":"5a3f0615-0d94-4a62-9eb9-c286b2b38d0f","system_id":"levelo_inurba_marseille","lat":43.328371,"lon":5.366909,"is_reserved":false,"is_disabled":false,"rental_uris":{"android":"levelo://app?vid=5a3f0615-0d94-4a62-9eb9-c286b2b38d0f","ios":"levelo://app?vid=5a3f0615-0d94-4a62-9eb9-c286b2b38d0f"},"vehicle_type_id":"4","last_reported":1685916328,"current_range_meters":24400,"station_id":"ce4bhs92rcd13ifvqi0g","pricing_plan_id":"free"},{"bike_id":"0a8d8c78-668e-4bfd-b627-75e7821f9637","system_id":"levelo_inurba_marseille","lat":43.328371,"lon":5.366909,"is_reserved":false,"is_disabled":false,"rental_uris":{"android":"levelo://app?vid=0a8d8c78-668e-4bfd-b627-75e7821f9637","ios":"levelo://app?vid=0a8d8c78-668e-4bfd-b627-75e7821f9637"},"vehicle_type_id":"4","last_reported":1685916328,"current_range_meters":13600,"station_id":"ce4bhs92rcd13ifvqi0g","pricing_plan_id":"free"},{"bike_id":"0a2644ee-3284-46a4-b383-c1008b4493c6","system_id":"levelo_inurba_marseille","lat":43.32832,"lon":5.36683,"is_reserved":false,"is_disabled":false,"rental_uris":{"android":"levelo://app?vid=0a2644ee-3284-46a4-b383-c1008b4493c6","ios":"levelo://app?vid=0a2644ee-3284-46a4-b383-c1008b4493c6"},"vehicle_type_id":"4","last_reported":1685916328,"current_range_meters":31200,"station_id":"ce4bhs92rcd13ifvqi0g","pricing_plan_id":"free"},{"bike_id":"fcfa8df2-9e76-4249-b61d-9fc48b640c7e","system_id":"levelo_inurba_marseille","lat":43.328371,"lon":5.366909,"is_reserved":false,"is_disabled":false,"rental_uris":{"android":"levelo://app?vid=fcfa8df2-9e76-4249-b61d-9fc48b640c7e","ios":"levelo://app?vid=fcfa8df2-9e76-4249-b61d-9fc48b640c7e"},"vehicle_type_id":"4","last_reported":1685916328,"current_range_meters":15600,"station_id":"ce4bhs92rcd13ifvqi0g","pricing_plan_id":"free"},{"bike_id":"9cdfc76d-fefe-4e3f-886b-5d7fa5465a0e","system_id":"levelo_inurba_marseille","lat":43.32833,"lon":5.36685,"is_reserved":false,"is_disabled":false,"rental_uris":{"android":"levelo://app?vid=9cdfc76d-fefe-4e3f-886b-5d7fa5465a0e","ios":"levelo://app?vid=9cdfc76d-fefe-4e3f-886b-5d7fa5465a0e"},"vehicle_type_id":"4","last_reported":1685916328,"current_range_meters":800,"station_id":"ce4bhs92rcd13ifvqi0g","pricing_plan_id":"free"},{"bike_id":"b9cf6557-2db2-4828-97f1-13a369745ef6","system_id":"levelo_inurba_marseille","lat":43.32763,"lon":5.37476,"is_reserved":false,"is_disabled":false,"rental_uris":{"android":"levelo://app?vid=b9cf6557-2db2-4828-97f1-13a369745ef6","ios":"levelo://app?vid=b9cf6557-2db2-4828-97f1-13a369745ef6"},"vehicle_type_id":"4","last_reported":1685916328,"current_range_meters":3200,"station_id":"","pricing_plan_id":"free"},{"bike_id":"ad88f1e2-a632-4853-af6a-e7c93920078c","system_id":"levelo_inurba_marseille","lat":43.29573,"lon":5.367355,"is_reserved":false,"is_disabled":false,"rental_uris":{"android":"levelo://app?vid=ad88f1e2-a632-4853-af6a-e7c93920078c","ios":"levelo://app?vid=ad88f1e2-a632-4853-af6a-e7c93920078c"},"vehicle_type_id":"4","last_reported":1685916328,"current_range_meters":15600,"station_id":"ce4bgph2rcd13ifvqc2g","pricing_plan_id":"free"},{"bike_id":"6afdb7c5-1c76-4ff0-a475-8f75cef7eed9","system_id":"levelo_inurba_marseille","lat":43.296935,"lon":5.376544,"is_reserved":false,"is_disabled":false,"rental_uris":{"android":"levelo://app?vid=6afdb7c5-1c76-4ff0-a475-8f75cef7eed9","ios":"levelo://app?vid=6afdb7c5-1c76-4ff0-a475-8f75cef7eed9"},"vehicle_type_id":"4","last_reported":1685916328,"current_range_meters":19200,"station_id":"ce4bgkh2rcd13ifvqbl0","pricing_plan_id":"free"},{"bike_id":"8ade07da-1e9a-4ab6-8c45-005a8ccb3e36","system_id":"levelo_inurba_marseille","lat":43.309589,"lon":5.390258,"is_reserved":false,"is_disabled":false,"rental_uris":{"android":"levelo://app?vid=8ade07da-1e9a-4ab6-8c45-005a8ccb3e36","ios":"levelo://app?vid=8ade07da-1e9a-4ab6-8c45-005a8ccb3e36"},"vehicle_type_id":"4","last_reported":1685916328,"current_range_meters":25200,"station_id":"ce4bgup2rcd13ifvqco0","pricing_plan_id":"free"},{"bike_id":"9a6a909a-6a4b-4135-9a83-293d841f554c","system_id":"levelo_inurba_marseille","lat":43.31766,"lon":5.39002,"is_reserved":false,"is_disabled":false,"rental_uris":{"android":"levelo://app?vid=9a6a909a-6a4b-4135-9a83-293d841f554c","ios":"levelo://app?vid=9a6a909a-6a4b-4135-9a83-293d841f554c"},"vehicle_type_id":"4","last_reported":1685916328,"current_range_meters":13600,"station_id":"ce4bhqp2rcd13ifvqhng","pricing_plan_id":"free"},{"bike_id":"ee331462-9f8a-4ff4-975f-640e5831c4d6","system_id":"levelo_inurba_marseille","lat":43.317557,"lon":5.390173,"is_reserved":false,"is_disabled":false,"rental_uris":{"android":"levelo://app?vid=ee331462-9f8a-4ff4-975f-640e5831c4d6","ios":"levelo://app?vid=ee331462-9f8a-4ff4-975f-640e5831c4d6"},"vehicle_type_id":"4","last_reported":1685916328,"current_range_meters":10400,"station_id":"ce4bhqp2rcd13ifvqhng","pricing_plan_id":"free"},{"bike_id":"07f62f98-919e-4b71-a429-5882e11679b6","system_id":"levelo_inurba_marseille","lat":43.317557,"lon":5.390173,"is_reserved":false,"is_disabled":false,"rental_uris":{"android":"levelo://app?vid=07f62f98-919e-4b71-a429-5882e11679b6","ios":"levelo://app?vid=07f62f98-919e-4b71-a429-5882e11679b6"},"vehicle_type_id":"4","last_reported":1685916328,"current_range_meters":25200,"station_id":"ce4bhqp2rcd13ifvqhng","pricing_plan_id":"free"},{"bike_id":"f34e9783-c386-404a-8f59-28b8412b3905","system_id":"levelo_inurba_marseille","lat":43.295295,"lon":5.375031,"is_reserved":false,"is_disabled":false,"rental_uris":{"android":"levelo://app?vid=f34e9783-c386-404a-8f59-28b8412b3905","ios":"levelo://app?vid=f34e9783-c386-404a-8f59-28b8412b3905"},"vehicle_type_id":"4","last_reported":1685916328,"current_range_meters":1600,"station_id":"ce4bhg12rcd13ifvqf70","pricing_plan_id":"free"},{"bike_id":"aeb5ead0-c09c-49ca-84ce-d23b7cb0491f","system_id":"levelo_inurba_marseille","lat":43.32367,"lon":5.388836,"is_reserved":false,"is_disabled":false,"rental_uris":{"android":"levelo://app?vid=aeb5ead0-c09c-49ca-84ce-d23b7cb0491f","ios":"levelo://app?vid=aeb5ead0-c09c-49ca-84ce-d23b7cb0491f"},"vehicle_type_id":"4","last_reported":1685916328,"current_range_meters":10000,"station_id":"ce4bhqp2rcd13ifvqhog","pricing_plan_id":"free"},{"bike_id":"66f8c606-ccf7-4b48-a7cf-8cb90cfbfb49","system_id":"levelo_inurba_marseille","lat":43.32367,"lon":5.388836,"is_reserved":false,"is_disabled":false,"rental_uris":{"android":"levelo://app?vid=66f8c606-ccf7-4b48-a7cf-8cb90cfbfb49","ios":"levelo://app?vid=66f8c606-ccf7-4b48-a7cf-8cb90cfbfb49"},"vehicle_type_id":"4","last_reported":1685916328,"current_range_meters":3600,"station_id":"ce4bhqp2rcd13ifvqhog","pricing_plan_id":"free"},{"bike_id":"7fe7d289-ac92-4ba9-be7d-6c298b53fba3","system_id":"levelo_inurba_marseille","lat":43.32367,"lon":5.388836,"is_reserved":false,"is_disabled":false,"rental_uris":{"android":"levelo://app?vid=7fe7d289-ac92-4ba9-be7d-6c298b53fba3","ios":"levelo://app?vid=7fe7d289-ac92-4ba9-be7d-6c298b53fba3"},"vehicle_type_id":"4","last_reported":1685916328,"current_range_meters":0,"station_id":"ce4bhqp2rcd13ifvqhog","pricing_plan_id":"free"},{"bike_id":"df963858-e663-4e54-882e-3d2ccc037f8b","system_id":"levelo_inurba_marseille","lat":43.323664,"lon":5.388829,"is_reserved":false,"is_disabled":false,"rental_uris":{"android":"levelo://app?vid=df963858-e663-4e54-882e-3d2ccc037f8b","ios":"levelo://app?vid=df963858-e663-4e54-882e-3d2ccc037f8b"},"vehicle_type_id":"4","last_reported":1685916328,"current_range_meters":20000,"station_id":"ce4bhqp2rcd13ifvqhog","pricing_plan_id":"free"},{"bike_id":"0c8ee082-b1d8-491c-8484-cd2c8fa6c95d","system_id":"levelo_inurba_marseille","lat":43.29601,"lon":5.381084,"is_reserved":false,"is_disabled":false,"rental_uris":{"android":"levelo://app?vid=0c8ee082-b1d8-491c-8484-cd2c8fa6c95d","ios":"levelo://app?vid=0c8ee082-b1d8-491c-8484-cd2c8fa6c95d"},"vehicle_type_id":"4","last_reported":1685916328,"current_range_meters":0,"station_id":"ce4bgl12rcd13ifvqbo0","pricing_plan_id":"free"},{"bike_id":"d36b086e-9a6f-4884-b848-267d73ea5bc3","system_id":"levelo_inurba_marseille","lat":43.29276,"lon":5.36843,"is_reserved":false,"is_disabled":false,"rental_uris":{"android":"levelo://app?vid=d36b086e-9a6f-4884-b848-267d73ea5bc3","ios":"levelo://app?vid=d36b086e-9a6f-4884-b848-267d73ea5bc3"},"vehicle_type_id":"4","last_reported":1685916328,"current_range_meters":22000,"station_id":"ce4bhbp2rcd13ifvqesg","pricing_plan_id":"free"},{"bike_id":"9597da8a-e289-4892-9505-df0009c5fbba","system_id":"levelo_inurba_marseille","lat":43.29273,"lon":5.36853,"is_reserved":false,"is_disabled":false,"rental_uris":{"android":"levelo://app?vid=9597da8a-e289-4892-9505-df0009c5fbba","ios":"levelo://app?vid=9597da8a-e289-4892-9505-df0009c5fbba"},"vehicle_type_id":"4","last_reported":1685916328,"current_range_meters":23600,"station_id":"ce4bhbp2rcd13ifvqesg","pricing_plan_id":"free"},{"bike_id":"c6fe04f2-8c50-4560-ace0-688d4dcf91f9","system_id":"levelo_inurba_marseille","lat":43.29268,"lon":5.36842,"is_reserved":false,"is_disabled":false,"rental_uris":{"android":"levelo://app?vid=c6fe04f2-8c50-4560-ace0-688d4dcf91f9","ios":"levelo://app?vid=c6fe04f2-8c50-4560-ace0-688d4dcf91f9"},"vehicle_type_id":"4","last_reported":1685916328,"current_range_meters":28000,"station_id":"ce4bhbp2rcd13ifvqesg","pricing_plan_id":"free"},{"bike_id":"3a375d52-88c6-476d-b051-09defde030c1","system_id":"levelo_inurba_marseille","lat":43.29262,"lon":5.36846,"is_reserved":false,"is_disabled":false,"rental_uris":{"android":"levelo://app?vid=3a375d52-88c6-476d-b051-09defde030c1","ios":"levelo://app?vid=3a375d52-88c6-476d-b051-09defde030c1"},"vehicle_type_id":"4","last_reported":1685916328,"current_range_meters":28400,"station_id":"ce4bhbp2rcd13ifvqesg","pricing_plan_id":"free"},{"bike_id":"2394250c-6d94-4348-883f-3fd7521d1c1b","system_id":"levelo_inurba_marseille","lat":43.30305,"lon":5.39211,"is_reserved":false,"is_disabled":false,"rental_uris":{"android":"levelo://app?vid=2394250c-6d94-4348-883f-3fd7521d1c1b","ios":"levelo://app?vid=2394250c-6d94-4348-883f-3fd7521d1c1b"},"vehicle_type_id":"4","last_reported":1685916328,"current_range_meters":27200,"station_id":"ce4bgkh2rcd13ifvqbk0","pricing_plan_id":"free"},{"bike_id":"254d727d-b97b-4da6-8ec6-9fc5e40315db","system_id":"levelo_inurba_marseille","lat":43.29372,"lon":5.3786,"is_reserved":false,"is_disabled":false,"rental_uris":{"android":"levelo://app?vid=254d727d-b97b-4da6-8ec6-9fc5e40315db","ios":"levelo://app?vid=254d727d-b97b-4da6-8ec6-9fc5e40315db"},"vehicle_type_id":"4","last_reported":1685916328,"current_range_meters":16000,"station_id":"ce4bgjh2rcd13ifvqbf0","pricing_plan_id":"free"},{"bike_id":"4ccaab69-dd26-48b8-83bb-9a4c4a618c0d","system_id":"levelo_inurba_marseille","lat":43.2936,"lon":5.37835,"is_reserved":false,"is_disabled":false,"rental_uris":{"android":"levelo://app?vid=4ccaab69-dd26-48b8-83bb-9a4c4a618c0d","ios":"levelo://app?vid=4ccaab69-dd26-48b8-83bb-9a4c4a618c0d"},"vehicle_type_id":"4","last_reported":1685916328,"current_range_meters":21200,"station_id":"ce4bgjh2rcd13ifvqbf0","pricing_plan_id":"free"},{"bike_id":"30856948-a2f9-4020-ba06-c42fe7d41c33","system_id":"levelo_inurba_marseille","lat":43.298764,"lon":5.388973,"is_reserved":false,"is_disabled":false,"rental_uris":{"android":"levelo://app?vid=30856948-a2f9-4020-ba06-c42fe7d41c33","ios":"levelo://app?vid=30856948-a2f9-4020-ba06-c42fe7d41c33"},"vehicle_type_id":"4","last_reported":1685916328,"current_range_meters":18400,"station_id":"ce4bh392rcd13ifvqdl0","pricing_plan_id":"free"},{"bike_id":"feab0615-3974-4110-97b3-bdaab67bb66c","system_id":"levelo_inurba_marseille","lat":43.291675,"lon":5.371583,"is_reserved":false,"is_disabled":false,"rental_uris":{"android":"levelo://app?vid=feab0615-3974-4110-97b3-bdaab67bb66c","ios":"levelo://app?vid=feab0615-3974-4110-97b3-bdaab67bb66c"},"vehicle_type_id":"4","last_reported":1685916328,"current_range_meters":4800,"station_id":"ce4bha92rcd13ifvqeh0","pricing_plan_id":"free"},{"bike_id":"ce7292f3-1e49-467e-ba78-0c99d05f3b10","system_id":"levelo_inurba_marseille","lat":43.305994,"lon":5.393687,"is_reserved":false,"is_disabled":false,"rental_uris":{"android":"levelo://app?vid=ce7292f3-1e49-467e-ba78-0c99d05f3b10","ios":"levelo://app?vid=ce7292f3-1e49-467e-ba78-0c99d05f3b10"},"vehicle_type_id":"4","last_reported":1685916328,"current_range_meters":7600,"station_id":"ce4bh0p2rcd13ifvqd80","pricing_plan_id":"free"},{"bike_id":"734bceac-e183-4ccb-803e-b871c73edc91","system_id":"levelo_inurba_marseille","lat":43.309038,"lon":5.396546,"is_reserved":false,"is_disabled":false,"rental_uris":{"android":"levelo://app?vid=734bceac-e183-4ccb-803e-b871c73edc91","ios":"levelo://app?vid=734bceac-e183-4ccb-803e-b871c73edc91"},"vehicle_type_id":"4","last_reported":1685916328,"current_range_meters":21200,"station_id":"ce4bh012rcd13ifvqcv0","pricing_plan_id":"free"},{"bike_id":"1f4117e4-cad3-4776-8083-2f7adabc0464","system_id":"levelo_inurba_marseille","lat":43.309038,"lon":5.396546,"is_reserved":false,"is_disabled":false,"rental_uris":{"android":"levelo://app?vid=1f4117e4-cad3-4776-8083-2f7adabc0464","ios":"levelo://app?vid=1f4117e4-cad3-4776-8083-2f7adabc0464"},"vehicle_type_id":"4","last_reported":1685916328,"current_range_meters":4800,"station_id":"ce4bh012rcd13ifvqcv0","pricing_plan_id":"free"},{"bike_id":"197e224e-4972-4fb4-b896-2c6878f0effe","system_id":"levelo_inurba_marseille","lat":43.291994,"lon":5.357886,"is_reserved":false,"is_disabled":false,"rental_uris":{"android":"levelo://app?vid=197e224e-4972-4fb4-b896-2c6878f0effe","ios":"levelo://app?vid=197e224e-4972-4fb4-b896-2c6878f0effe"},"vehicle_type_id":"4","last_reported":1685916328,"current_range_meters":30800,"station_id":"ce4bhb12rcd13ifvqel0","pricing_plan_id":"free"},{"bike_id":"ad5c8421-479c-4225-82bc-8230892560db","system_id":"levelo_inurba_marseille","lat":43.309038,"lon":5.396546,"is_reserved":false,"is_disabled":false,"rental_uris":{"android":"levelo://app?vid=ad5c8421-479c-4225-82bc-8230892560db","ios":"levelo://app?vid=ad5c8421-479c-4225-82bc-8230892560db"},"vehicle_type_id":"4","last_reported":1685916328,"current_range_meters":9600,"station_id":"ce4bh012rcd13ifvqcv0","pricing_plan_id":"free"},{"bike_id":"d12e854c-8704-497a-a8b2-0ecb4221137f","system_id":"levelo_inurba_marseille","lat":43.291994,"lon":5.357886,"is_reserved":false,"is_disabled":false,"rental_uris":{"android":"levelo://app?vid=d12e854c-8704-497a-a8b2-0ecb4221137f","ios":"levelo://app?vid=d12e854c-8704-497a-a8b2-0ecb4221137f"},"vehicle_type_id":"4","last_reported":1685916328,"current_range_meters":31600,"station_id":"ce4bhb12rcd13ifvqel0","pricing_plan_id":"free"},{"bike_id":"c02caeff-7191-409e-95ed-3d4023465681","system_id":"levelo_inurba_marseille","lat":43.291995,"lon":5.35798,"is_reserved":false,"is_disabled":false,"rental_uris":{"android":"levelo://app?vid=c02caeff-7191-409e-95ed-3d4023465681","ios":"levelo://app?vid=c02caeff-7191-409e-95ed-3d4023465681"},"vehicle_type_id":"4","last_reported":1685916328,"current_range_meters":31200,"station_id":"ce4bhb92rcd13ifvqen0","pricing_plan_id":"free"},{"bike_id":"e590b2fb-237f-4659-9ceb-a32ea7e48e92","system_id":"levelo_inurba_marseille","lat":43.291994,"lon":5.357886,"is_reserved":false,"is_disabled":false,"rental_uris":{"android":"levelo://app?vid=e590b2fb-237f-4659-9ceb-a32ea7e48e92","ios":"levelo://app?vid=e590b2fb-237f-4659-9ceb-a32ea7e48e92"},"vehicle_type_id":"4","last_reported":1685916328,"current_range_meters":31200,"station_id":"ce4bhb12rcd13ifvqel0","pricing_plan_id":"free"},{"bike_id":"37d37c69-16e5-4951-a022-159767f326a2","system_id":"levelo_inurba_marseille","lat":43.29199,"lon":5.35798,"is_reserved":false,"is_disabled":false,"rental_uris":{"android":"levelo://app?vid=37d37c69-16e5-4951-a022-159767f326a2","ios":"levelo://app?vid=37d37c69-16e5-4951-a022-159767f326a2"},"vehicle_type_id":"4","last_reported":1685916328,"current_range_meters":31200,"station_id":"ce4bhb12rcd13ifvqel0","pricing_plan_id":"free"},{"bike_id":"100d750c-fdc2-44ee-a29e-7ee417505009","system_id":"levelo_inurba_marseille","lat":43.309038,"lon":5.396546,"is_reserved":false,"is_disabled":false,"rental_uris":{"android":"levelo://app?vid=100d750c-fdc2-44ee-a29e-7ee417505009","ios":"levelo://app?vid=100d750c-fdc2-44ee-a29e-7ee417505009"},"vehicle_type_id":"4","last_reported":1685916328,"current_range_meters":8800,"station_id":"ce4bh012rcd13ifvqcv0","pricing_plan_id":"free"},{"bike_id":"c9d93c7c-f2f7-41b4-b572-677c38333eb1","system_id":"levelo_inurba_marseille","lat":43.29195,"lon":5.35807,"is_reserved":false,"is_disabled":false,"rental_uris":{"android":"levelo://app?vid=c9d93c7c-f2f7-41b4-b572-677c38333eb1","ios":"levelo://app?vid=c9d93c7c-f2f7-41b4-b572-677c38333eb1"},"vehicle_type_id":"4","last_reported":1685916328,"current_range_meters":23600,"station_id":"ce4bhb12rcd13ifvqel0","pricing_plan_id":"free"},{"bike_id":"76b276a5-04a3-4bb2-9c3f-7be99b05b297","system_id":"levelo_inurba_marseille","lat":43.29193,"lon":5.35814,"is_reserved":false,"is_disabled":false,"rental_uris":{"android":"levelo://app?vid=76b276a5-04a3-4bb2-9c3f-7be99b05b297","ios":"levelo://app?vid=76b276a5-04a3-4bb2-9c3f-7be99b05b297"},"vehicle_type_id":"4","last_reported":1685916328,"current_range_meters":30000,"station_id":"ce4bhb12rcd13ifvqel0","pricing_plan_id":"free"},{"bike_id":"07e0829f-bc90-4fe8-910e-bb5f0a4e80fa","system_id":"levelo_inurba_marseille","lat":43.29194,"lon":5.35807,"is_reserved":false,"is_disabled":false,"rental_uris":{"android":"levelo://app?vid=07e0829f-bc90-4fe8-910e-bb5f0a4e80fa","ios":"levelo://app?vid=07e0829f-bc90-4fe8-910e-bb5f0a4e80fa"},"vehicle_type_id":"4","last_reported":1685916328,"current_range_meters":31200,"station_id":"ce4bhb12rcd13ifvqel0","pricing_plan_id":"free"},{"bike_id":"fb72a879-b9f5-4ddb-8255-53ca8a61f12f","system_id":"levelo_inurba_marseille","lat":43.291936,"lon":5.357996,"is_reserved":false,"is_disabled":false,"rental_uris":{"android":"levelo://app?vid=fb72a879-b9f5-4ddb-8255-53ca8a61f12f","ios":"levelo://app?vid=fb72a879-b9f5-4ddb-8255-53ca8a61f12f"},"vehicle_type_id":"4","last_reported":1685916328,"current_range_meters":31200,"station_id":"ce4bhb12rcd13ifvqel0","pricing_plan_id":"free"},{"bike_id":"71936133-daaa-4ad8-a396-34cb3650eac8","system_id":"levelo_inurba_marseille","lat":43.291994,"lon":5.357886,"is_reserved":false,"is_disabled":false,"rental_uris":{"android":"levelo://app?vid=71936133-daaa-4ad8-a396-34cb3650eac8","ios":"levelo://app?vid=71936133-daaa-4ad8-a396-34cb3650eac8"},"vehicle_type_id":"4","last_reported":1685916328,"current_range_meters":30800,"station_id":"ce4bhb12rcd13ifvqel0","pricing_plan_id":"free"},{"bike_id":"667d1e5e-afff-459c-92da-a52f07619062","system_id":"levelo_inurba_marseille","lat":43.3132,"lon":5.39692,"is_reserved":false,"is_disabled":false,"rental_uris":{"android":"levelo://app?vid=667d1e5e-afff-459c-92da-a52f07619062","ios":"levelo://app?vid=667d1e5e-afff-459c-92da-a52f07619062"},"vehicle_type_id":"4","last_reported":1685916328,"current_range_meters":26400,"station_id":"ce4bgvp2rcd13ifvqcu0","pricing_plan_id":"free"},{"bike_id":"67c2fa74-2f90-48f2-a5f0-7fc971a8347a","system_id":"levelo_inurba_marseille","lat":43.31329,"lon":5.39694,"is_reserved":false,"is_disabled":false,"rental_uris":{"android":"levelo://app?vid=67c2fa74-2f90-48f2-a5f0-7fc971a8347a","ios":"levelo://app?vid=67c2fa74-2f90-48f2-a5f0-7fc971a8347a"},"vehicle_type_id":"4","last_reported":1685916328,"current_range_meters":27600,"station_id":"ce4bgvp2rcd13ifvqcu0","pricing_plan_id":"free"},{"bike_id":"a9030999-13a8-464b-9ddf-b5f1e204cb2d","system_id":"levelo_inurba_marseille","lat":43.309038,"lon":5.396546,"is_reserved":false,"is_disabled":false,"rental_uris":{"android":"levelo://app?vid=a9030999-13a8-464b-9ddf-b5f1e204cb2d","ios":"levelo://app?vid=a9030999-13a8-464b-9ddf-b5f1e204cb2d"},"vehicle_type_id":"4","last_reported":1685916328,"current_range_meters":0,"station_id":"ce4bh012rcd13ifvqcv0","pricing_plan_id":"free"},{"bike_id":"00106386-9a46-42dc-9fe6-403507bbaffd","system_id":"levelo_inurba_marseille","lat":43.29183,"lon":5.35804,"is_reserved":false,"is_disabled":false,"rental_uris":{"android":"levelo://app?vid=00106386-9a46-42dc-9fe6-403507bbaffd","ios":"levelo://app?vid=00106386-9a46-42dc-9fe6-403507bbaffd"},"vehicle_type_id":"4","last_reported":1685916328,"current_range_meters":26000,"station_id":"ce4bhb12rcd13ifvqel0","pricing_plan_id":"free"},{"bike_id":"54803f3b-8615-4b1f-9bbf-082ab507bb1f","system_id":"levelo_inurba_marseille","lat":43.29184,"lon":5.35795,"is_reserved":false,"is_disabled":false,"rental_uris":{"android":"levelo://app?vid=54803f3b-8615-4b1f-9bbf-082ab507bb1f","ios":"levelo://app?vid=54803f3b-8615-4b1f-9bbf-082ab507bb1f"},"vehicle_type_id":"4","last_reported":1685916328,"current_range_meters":31200,"station_id":"ce4bhb12rcd13ifvqel0","pricing_plan_id":"free"},{"bike_id":"ce0cd8a2-876d-4c76-bdd4-200c027d86d6","system_id":"levelo_inurba_marseille","lat":43.29529,"lon":5.385581,"is_reserved":false,"is_disabled":false,"rental_uris":{"android":"levelo://app?vid=ce0cd8a2-876d-4c76-bdd4-200c027d86d6","ios":"levelo://app?vid=ce0cd8a2-876d-4c76-bdd4-200c027d86d6"},"vehicle_type_id":"4","last_reported":1685916328,"current_range_meters":7600,"station_id":"ce4bgih2rcd13ifvqba0","pricing_plan_id":"free"},{"bike_id":"c0105823-a3d6-4a56-adbc-606ba43eac3f","system_id":"levelo_inurba_marseille","lat":43.29529,"lon":5.385581,"is_reserved":false,"is_disabled":false,"rental_uris":{"android":"levelo://app?vid=c0105823-a3d6-4a56-adbc-606ba43eac3f","ios":"levelo://app?vid=c0105823-a3d6-4a56-adbc-606ba43eac3f"},"vehicle_type_id":"4","last_reported":1685916328,"current_range_meters":30000,"station_id":"ce4bgih2rcd13ifvqba0","pricing_plan_id":"free"},{"bike_id":"b8b666c4-009b-433e-976c-a2ece3611157","system_id":"levelo_inurba_marseille","lat":43.290779,"lon":5.371482,"is_reserved":false,"is_disabled":false,"rental_uris":{"android":"levelo://app?vid=b8b666c4-009b-433e-976c-a2ece3611157","ios":"levelo://app?vid=b8b666c4-009b-433e-976c-a2ece3611157"},"vehicle_type_id":"4","last_reported":1685916328,"current_range_meters":4000,"station_id":"ce4bh5p2rcd13ifvqe4g","pricing_plan_id":"free"},{"bike_id":"6c289afc-80f0-4814-8982-8f4a98c5441f","system_id":"levelo_inurba_marseille","lat":43.290779,"lon":5.371482,"is_reserved":false,"is_disabled":false,"rental_uris":{"android":"levelo://app?vid=6c289afc-80f0-4814-8982-8f4a98c5441f","ios":"levelo://app?vid=6c289afc-80f0-4814-8982-8f4a98c5441f"},"vehicle_type_id":"4","last_reported":1685916328,"current_range_meters":3200,"station_id":"ce4bh5p2rcd13ifvqe4g","pricing_plan_id":"free"},{"bike_id":"e6bb1b57-22f9-4871-bdb3-367dec322247","system_id":"levelo_inurba_marseille","lat":43.290779,"lon":5.371482,"is_reserved":false,"is_disabled":false,"rental_uris":{"android":"levelo://app?vid=e6bb1b57-22f9-4871-bdb3-367dec322247","ios":"levelo://app?vid=e6bb1b57-22f9-4871-bdb3-367dec322247"},"vehicle_type_id":"4","last_reported":1685916328,"current_range_meters":26000,"station_id":"ce4bh5p2rcd13ifvqe4g","pricing_plan_id":"free"},{"bike_id":"ff2910fc-95b9-4b19-899a-664bf8650533","system_id":"levelo_inurba_marseille","lat":43.302008,"lon":5.394694,"is_reserved":false,"is_disabled":false,"rental_uris":{"android":"levelo://app?vid=ff2910fc-95b9-4b19-899a-664bf8650533","ios":"levelo://app?vid=ff2910fc-95b9-4b19-899a-664bf8650533"},"vehicle_type_id":"4","last_reported":1685916328,"current_range_meters":4400,"station_id":"ce4bh0p2rcd13ifvqd70","pricing_plan_id":"free"},{"bike_id":"5723e460-8a40-4bd2-94f2-b3e74cbc4f56","system_id":"levelo_inurba_marseille","lat":43.290631,"lon":5.359244,"is_reserved":false,"is_disabled":false,"rental_uris":{"android":"levelo://app?vid=5723e460-8a40-4bd2-94f2-b3e74cbc4f56","ios":"levelo://app?vid=5723e460-8a40-4bd2-94f2-b3e74cbc4f56"},"vehicle_type_id":"4","last_reported":1685916328,"current_range_meters":27200,"station_id":"ce4bha92rcd13ifvqeg0","pricing_plan_id":"free"},{"bike_id":"da339d7d-742e-44ce-8a6b-d3279c7788df","system_id":"levelo_inurba_marseille","lat":43.290631,"lon":5.359244,"is_reserved":false,"is_disabled":false,"rental_uris":{"android":"levelo://app?vid=da339d7d-742e-44ce-8a6b-d3279c7788df","ios":"levelo://app?vid=da339d7d-742e-44ce-8a6b-d3279c7788df"},"vehicle_type_id":"4","last_reported":1685916328,"current_range_meters":23200,"station_id":"ce4bha92rcd13ifvqeg0","pricing_plan_id":"free"},{"bike_id":"33e8bbba-a777-4385-81cc-2a02239db1d2","system_id":"levelo_inurba_marseille","lat":43.29044,"lon":5.3757,"is_reserved":false,"is_disabled":false,"rental_uris":{"android":"levelo://app?vid=33e8bbba-a777-4385-81cc-2a02239db1d2","ios":"levelo://app?vid=33e8bbba-a777-4385-81cc-2a02239db1d2"},"vehicle_type_id":"4","last_reported":1685916328,"current_range_meters":23200,"station_id":"ce4bh692rcd13ifvqe90","pricing_plan_id":"free"},{"bike_id":"b31d57e5-142a-43cb-9378-25b977241e9d","system_id":"levelo_inurba_marseille","lat":43.28944,"lon":5.36635,"is_reserved":false,"is_disabled":false,"rental_uris":{"android":"levelo://app?vid=b31d57e5-142a-43cb-9378-25b977241e9d","ios":"levelo://app?vid=b31d57e5-142a-43cb-9378-25b977241e9d"},"vehicle_type_id":"4","last_reported":1685916328,"current_range_meters":15200,"station_id":"","pricing_plan_id":"free"},{"bike_id":"cf679b9d-0767-4013-becc-109a7bbca3e7","system_id":"levelo_inurba_marseille","lat":43.289184,"lon":5.366408,"is_reserved":false,"is_disabled":false,"rental_uris":{"android":"levelo://app?vid=cf679b9d-0767-4013-becc-109a7bbca3e7","ios":"levelo://app?vid=cf679b9d-0767-4013-becc-109a7bbca3e7"},"vehicle_type_id":"4","last_reported":1685916328,"current_range_meters":18400,"station_id":"ce4bhap2rcd13ifvqek0","pricing_plan_id":"free"},{"bike_id":"0a8aba60-b51b-427d-be66-8709066b23d1","system_id":"levelo_inurba_marseille","lat":43.33289,"lon":5.38426,"is_reserved":false,"is_disabled":false,"rental_uris":{"android":"levelo://app?vid=0a8aba60-b51b-427d-be66-8709066b23d1","ios":"levelo://app?vid=0a8aba60-b51b-427d-be66-8709066b23d1"},"vehicle_type_id":"4","last_reported":1685916328,"current_range_meters":24400,"station_id":"","pricing_plan_id":"free"},{"bike_id":"13fdadd1-1fdd-4c93-a157-b819803a3a1e","system_id":"levelo_inurba_marseille","lat":43.2926,"lon":5.3845,"is_reserved":false,"is_disabled":false,"rental_uris":{"android":"levelo://app?vid=13fdadd1-1fdd-4c93-a157-b819803a3a1e","ios":"levelo://app?vid=13fdadd1-1fdd-4c93-a157-b819803a3a1e"},"vehicle_type_id":"4","last_reported":1685916328,"current_range_meters":10400,"station_id":"ce4bh692rcd13ifvqea0","pricing_plan_id":"free"},{"bike_id":"dcb00244-aef9-4eec-91cd-42ea75ebd82c","system_id":"levelo_inurba_marseille","lat":43.33047,"lon":5.38907,"is_reserved":false,"is_disabled":false,"rental_uris":{"android":"levelo://app?vid=dcb00244-aef9-4eec-91cd-42ea75ebd82c","ios":"levelo://app?vid=dcb00244-aef9-4eec-91cd-42ea75ebd82c"},"vehicle_type_id":"4","last_reported":1685916328,"current_range_meters":2400,"station_id":"ce4bhr92rcd13ifvqhrg","pricing_plan_id":"free"},{"bike_id":"c5d77b8d-f4a1-46d6-aa51-1940b7bf97ab","system_id":"levelo_inurba_marseille","lat":43.290079,"lon":5.356214,"is_reserved":false,"is_disabled":false,"rental_uris":{"android":"levelo://app?vid=c5d77b8d-f4a1-46d6-aa51-1940b7bf97ab","ios":"levelo://app?vid=c5d77b8d-f4a1-46d6-aa51-1940b7bf97ab"},"vehicle_type_id":"4","last_reported":1685916328,"current_range_meters":400,"station_id":"ce4bhb92rcd13ifvqen0","pricing_plan_id":"free"},{"bike_id":"466e3c05-adb0-4591-93c2-15ecc7e006aa","system_id":"levelo_inurba_marseille","lat":43.290074,"lon":5.3562,"is_reserved":false,"is_disabled":false,"rental_uris":{"android":"levelo://app?vid=466e3c05-adb0-4591-93c2-15ecc7e006aa","ios":"levelo://app?vid=466e3c05-adb0-4591-93c2-15ecc7e006aa"},"vehicle_type_id":"4","last_reported":1685916328,"current_range_meters":31200,"station_id":"ce4bhb92rcd13ifvqen0","pricing_plan_id":"free"},{"bike_id":"e7078a02-13dd-470e-9f10-7c2b11c1736f","system_id":"levelo_inurba_marseille","lat":43.290104,"lon":5.356111,"is_reserved":false,"is_disabled":false,"rental_uris":{"android":"levelo://app?vid=e7078a02-13dd-470e-9f10-7c2b11c1736f","ios":"levelo://app?vid=e7078a02-13dd-470e-9f10-7c2b11c1736f"},"vehicle_type_id":"4","last_reported":1685916328,"current_range_meters":31200,"station_id":"ce4bhb92rcd13ifvqen0","pricing_plan_id":"free"},{"bike_id":"110982ac-f281-4b29-99ae-251432d9ce34","system_id":"levelo_inurba_marseille","lat":43.33047,"lon":5.38913,"is_reserved":false,"is_disabled":false,"rental_uris":{"android":"levelo://app?vid=110982ac-f281-4b29-99ae-251432d9ce34","ios":"levelo://app?vid=110982ac-f281-4b29-99ae-251432d9ce34"},"vehicle_type_id":"4","last_reported":1685916328,"current_range_meters":20400,"station_id":"ce4bhr92rcd13ifvqhrg","pricing_plan_id":"free"},{"bike_id":"47f29a62-6b0f-45a2-b2bf-56e4b6153d85","system_id":"levelo_inurba_marseille","lat":43.29008,"lon":5.35609,"is_reserved":false,"is_disabled":false,"rental_uris":{"android":"levelo://app?vid=47f29a62-6b0f-45a2-b2bf-56e4b6153d85","ios":"levelo://app?vid=47f29a62-6b0f-45a2-b2bf-56e4b6153d85"},"vehicle_type_id":"4","last_reported":1685916328,"current_range_meters":31200,"station_id":"ce4bhb92rcd13ifvqen0","pricing_plan_id":"free"},{"bike_id":"1c476ba5-4bb6-4676-bda4-44d42fe31c4d","system_id":"levelo_inurba_marseille","lat":43.290103,"lon":5.356114,"is_reserved":false,"is_disabled":false,"rental_uris":{"android":"levelo://app?vid=1c476ba5-4bb6-4676-bda4-44d42fe31c4d","ios":"levelo://app?vid=1c476ba5-4bb6-4676-bda4-44d42fe31c4d"},"vehicle_type_id":"4","last_reported":1685916328,"current_range_meters":31200,"station_id":"ce4bhb92rcd13ifvqen0","pricing_plan_id":"free"},{"bike_id":"ce97ec95-e7f3-44ca-b71e-bb73ebf27737","system_id":"levelo_inurba_marseille","lat":43.29004,"lon":5.35615,"is_reserved":false,"is_disabled":false,"rental_uris":{"android":"levelo://app?vid=ce97ec95-e7f3-44ca-b71e-bb73ebf27737","ios":"levelo://app?vid=ce97ec95-e7f3-44ca-b71e-bb73ebf27737"},"vehicle_type_id":"4","last_reported":1685916328,"current_range_meters":26400,"station_id":"ce4bhb92rcd13ifvqen0","pricing_plan_id":"free"},{"bike_id":"84dccfc4-420d-485a-9024-827790272f51","system_id":"levelo_inurba_marseille","lat":43.290104,"lon":5.356111,"is_reserved":false,"is_disabled":false,"rental_uris":{"android":"levelo://app?vid=84dccfc4-420d-485a-9024-827790272f51","ios":"levelo://app?vid=84dccfc4-420d-485a-9024-827790272f51"},"vehicle_type_id":"4","last_reported":1685916328,"current_range_meters":28800,"station_id":"ce4bhb92rcd13ifvqen0","pricing_plan_id":"free"},{"bike_id":"5bcef5b7-bdcc-432c-96a0-a4e67978cdbb","system_id":"levelo_inurba_marseille","lat":43.28995,"lon":5.35608,"is_reserved":false,"is_disabled":false,"rental_uris":{"android":"levelo://app?vid=5bcef5b7-bdcc-432c-96a0-a4e67978cdbb","ios":"levelo://app?vid=5bcef5b7-bdcc-432c-96a0-a4e67978cdbb"},"vehicle_type_id":"4","last_reported":1685916328,"current_range_meters":28400,"station_id":"ce4bhb92rcd13ifvqen0","pricing_plan_id":"free"},{"bike_id":"efeb3577-f912-4581-9d54-e0cb10882c6f","system_id":"levelo_inurba_marseille","lat":43.295169,"lon":5.390426,"is_reserved":false,"is_disabled":false,"rental_uris":{"android":"levelo://app?vid=efeb3577-f912-4581-9d54-e0cb10882c6f","ios":"levelo://app?vid=efeb3577-f912-4581-9d54-e0cb10882c6f"},"vehicle_type_id":"4","last_reported":1685916328,"current_range_meters":21600,"station_id":"ce4bh3p2rcd13ifvqdp0","pricing_plan_id":"free"},{"bike_id":"ed156d1f-b9b9-41fb-9d27-1eb8a7f39597","system_id":"levelo_inurba_marseille","lat":43.2901,"lon":5.381269,"is_reserved":false,"is_disabled":false,"rental_uris":{"android":"levelo://app?vid=ed156d1f-b9b9-41fb-9d27-1eb8a7f39597","ios":"levelo://app?vid=ed156d1f-b9b9-41fb-9d27-1eb8a7f39597"},"vehicle_type_id":"4","last_reported":1685916328,"current_range_meters":26800,"station_id":"ce4bh4p2rcd13ifvqe1g","pricing_plan_id":"free"},{"bike_id":"0fb6fcc2-8bb8-4173-9e91-b700139d3ab5","system_id":"levelo_inurba_marseille","lat":43.2901,"lon":5.381269,"is_reserved":false,"is_disabled":false,"rental_uris":{"android":"levelo://app?vid=0fb6fcc2-8bb8-4173-9e91-b700139d3ab5","ios":"levelo://app?vid=0fb6fcc2-8bb8-4173-9e91-b700139d3ab5"},"vehicle_type_id":"4","last_reported":1685916328,"current_range_meters":22800,"station_id":"ce4bh4p2rcd13ifvqe1g","pricing_plan_id":"free"},{"bike_id":"75771713-e068-4e2c-91b3-714bcdb353c2","system_id":"levelo_inurba_marseille","lat":43.29027,"lon":5.38136,"is_reserved":false,"is_disabled":false,"rental_uris":{"android":"levelo://app?vid=75771713-e068-4e2c-91b3-714bcdb353c2","ios":"levelo://app?vid=75771713-e068-4e2c-91b3-714bcdb353c2"},"vehicle_type_id":"4","last_reported":1685916328,"current_range_meters":16800,"station_id":"ce4bh4p2rcd13ifvqe1g","pricing_plan_id":"free"},{"bike_id":"e9501837-ecfa-43ce-9fc4-9444492d4595","system_id":"levelo_inurba_marseille","lat":43.29026,"lon":5.38134,"is_reserved":false,"is_disabled":false,"rental_uris":{"android":"levelo://app?vid=e9501837-ecfa-43ce-9fc4-9444492d4595","ios":"levelo://app?vid=e9501837-ecfa-43ce-9fc4-9444492d4595"},"vehicle_type_id":"4","last_reported":1685916328,"current_range_meters":26800,"station_id":"ce4bh4p2rcd13ifvqe1g","pricing_plan_id":"free"},{"bike_id":"44bfba33-856e-479a-8930-13a7bc459a1f","system_id":"levelo_inurba_marseille","lat":43.29034,"lon":5.38159,"is_reserved":false,"is_disabled":false,"rental_uris":{"android":"levelo://app?vid=44bfba33-856e-479a-8930-13a7bc459a1f","ios":"levelo://app?vid=44bfba33-856e-479a-8930-13a7bc459a1f"},"vehicle_type_id":"4","last_reported":1685916328,"current_range_meters":31200,"station_id":"","pricing_plan_id":"free"},{"bike_id":"ff57177a-b049-4530-a703-ae7c8f3e1e4e","system_id":"levelo_inurba_marseille","lat":43.2901,"lon":5.381269,"is_reserved":false,"is_disabled":false,"rental_uris":{"android":"levelo://app?vid=ff57177a-b049-4530-a703-ae7c8f3e1e4e","ios":"levelo://app?vid=ff57177a-b049-4530-a703-ae7c8f3e1e4e"},"vehicle_type_id":"4","last_reported":1685916328,"current_range_meters":31200,"station_id":"ce4bh4p2rcd13ifvqe1g","pricing_plan_id":"free"},{"bike_id":"0aeeb6cf-2eef-4330-ba98-39f7af04d09a","system_id":"levelo_inurba_marseille","lat":43.29024,"lon":5.38138,"is_reserved":false,"is_disabled":false,"rental_uris":{"android":"levelo://app?vid=0aeeb6cf-2eef-4330-ba98-39f7af04d09a","ios":"levelo://app?vid=0aeeb6cf-2eef-4330-ba98-39f7af04d09a"},"vehicle_type_id":"4","last_reported":1685916328,"current_range_meters":30800,"station_id":"ce4bh4p2rcd13ifvqe1g","pricing_plan_id":"free"},{"bike_id":"dd79a405-5984-41ff-ab6a-7533f027c142","system_id":"levelo_inurba_marseille","lat":43.2902,"lon":5.38128,"is_reserved":false,"is_disabled":false,"rental_uris":{"android":"levelo://app?vid=dd79a405-5984-41ff-ab6a-7533f027c142","ios":"levelo://app?vid=dd79a405-5984-41ff-ab6a-7533f027c142"},"vehicle_type_id":"4","last_reported":1685916328,"current_range_meters":31200,"station_id":"ce4bh4p2rcd13ifvqe1g","pricing_plan_id":"free"},{"bike_id":"0d3aef25-de9e-482d-8e6a-ee4172fd07fe","system_id":"levelo_inurba_marseille","lat":43.2901,"lon":5.381269,"is_reserved":false,"is_disabled":false,"rental_uris":{"android":"levelo://app?vid=0d3aef25-de9e-482d-8e6a-ee4172fd07fe","ios":"levelo://app?vid=0d3aef25-de9e-482d-8e6a-ee4172fd07fe"},"vehicle_type_id":"4","last_reported":1685916328,"current_range_meters":31200,"station_id":"ce4bh4p2rcd13ifvqe1g","pricing_plan_id":"free"},{"bike_id":"abc89d21-b9ce-477b-8c01-0d28217fa774","system_id":"levelo_inurba_marseille","lat":43.29023,"lon":5.3814,"is_reserved":false,"is_disabled":false,"rental_uris":{"android":"levelo://app?vid=abc89d21-b9ce-477b-8c01-0d28217fa774","ios":"levelo://app?vid=abc89d21-b9ce-477b-8c01-0d28217fa774"},"vehicle_type_id":"4","last_reported":1685916328,"current_range_meters":31200,"station_id":"ce4bh4p2rcd13ifvqe1g","pricing_plan_id":"free"},{"bike_id":"0e300093-be8b-4fea-9f00-dd42b9c65e1f","system_id":"levelo_inurba_marseille","lat":43.29018,"lon":5.3813,"is_reserved":false,"is_disabled":false,"rental_uris":{"android":"levelo://app?vid=0e300093-be8b-4fea-9f00-dd42b9c65e1f","ios":"levelo://app?vid=0e300093-be8b-4fea-9f00-dd42b9c65e1f"},"vehicle_type_id":"4","last_reported":1685916328,"current_range_meters":31200,"station_id":"ce4bh4p2rcd13ifvqe1g","pricing_plan_id":"free"},{"bike_id":"ba1be876-681b-4efe-a77f-53e9965cd1cc","system_id":"levelo_inurba_marseille","lat":43.28856,"lon":5.358371,"is_reserved":false,"is_disabled":false,"rental_uris":{"android":"levelo://app?vid=ba1be876-681b-4efe-a77f-53e9965cd1cc","ios":"levelo://app?vid=ba1be876-681b-4efe-a77f-53e9965cd1cc"},"vehicle_type_id":"4","last_reported":1685916328,"current_range_meters":29600,"station_id":"ce4bhb12rcd13ifvqem0","pricing_plan_id":"free"},{"bike_id":"f1fc7efb-5ca7-4ead-bcd8-92abc8a7f28a","system_id":"levelo_inurba_marseille","lat":43.29013,"lon":5.38125,"is_reserved":false,"is_disabled":false,"rental_uris":{"android":"levelo://app?vid=f1fc7efb-5ca7-4ead-bcd8-92abc8a7f28a","ios":"levelo://app?vid=f1fc7efb-5ca7-4ead-bcd8-92abc8a7f28a"},"vehicle_type_id":"4","last_reported":1685916328,"current_range_meters":31200,"station_id":"ce4bh4p2rcd13ifvqe1g","pricing_plan_id":"free"},{"bike_id":"ffcd9422-0443-43e2-94eb-20f7419ebfab","system_id":"levelo_inurba_marseille","lat":43.29017,"lon":5.38139,"is_reserved":false,"is_disabled":false,"rental_uris":{"android":"levelo://app?vid=ffcd9422-0443-43e2-94eb-20f7419ebfab","ios":"levelo://app?vid=ffcd9422-0443-43e2-94eb-20f7419ebfab"},"vehicle_type_id":"4","last_reported":1685916328,"current_range_meters":26800,"station_id":"ce4bh4p2rcd13ifvqe1g","pricing_plan_id":"free"},{"bike_id":"dc299726-9f5e-4d63-b959-467c92607f66","system_id":"levelo_inurba_marseille","lat":43.28856,"lon":5.358371,"is_reserved":false,"is_disabled":false,"rental_uris":{"android":"levelo://app?vid=dc299726-9f5e-4d63-b959-467c92607f66","ios":"levelo://app?vid=dc299726-9f5e-4d63-b959-467c92607f66"},"vehicle_type_id":"4","last_reported":1685916328,"current_range_meters":27600,"station_id":"ce4bhb12rcd13ifvqem0","pricing_plan_id":"free"},{"bike_id":"654a327c-8f2a-4787-b896-d8aa8b0735a2","system_id":"levelo_inurba_marseille","lat":43.28856,"lon":5.358371,"is_reserved":false,"is_disabled":false,"rental_uris":{"android":"levelo://app?vid=654a327c-8f2a-4787-b896-d8aa8b0735a2","ios":"levelo://app?vid=654a327c-8f2a-4787-b896-d8aa8b0735a2"},"vehicle_type_id":"4","last_reported":1685916328,"current_range_meters":16800,"station_id":"ce4bhb12rcd13ifvqem0","pricing_plan_id":"free"},{"bike_id":"86dc6fc0-2698-4d45-a7ce-6c63946dac2c","system_id":"levelo_inurba_marseille","lat":43.29022,"lon":5.3816,"is_reserved":false,"is_disabled":false,"rental_uris":{"android":"levelo://app?vid=86dc6fc0-2698-4d45-a7ce-6c63946dac2c","ios":"levelo://app?vid=86dc6fc0-2698-4d45-a7ce-6c63946dac2c"},"vehicle_type_id":"4","last_reported":1685916328,"current_range_meters":30800,"station_id":"ce4bh4p2rcd13ifvqe1g","pricing_plan_id":"free"},{"bike_id":"fd58e9c7-02ff-4040-b71d-c3ab8558ea28","system_id":"levelo_inurba_marseille","lat":43.28856,"lon":5.358371,"is_reserved":false,"is_disabled":false,"rental_uris":{"android":"levelo://app?vid=fd58e9c7-02ff-4040-b71d-c3ab8558ea28","ios":"levelo://app?vid=fd58e9c7-02ff-4040-b71d-c3ab8558ea28"},"vehicle_type_id":"4","last_reported":1685916328,"current_range_meters":17600,"station_id":"ce4bhb12rcd13ifvqem0","pricing_plan_id":"free"},{"bike_id":"675927e0-ab95-41a0-80be-7ee111a218f5","system_id":"levelo_inurba_marseille","lat":43.3375,"lon":5.37472,"is_reserved":false,"is_disabled":false,"rental_uris":{"android":"levelo://app?vid=675927e0-ab95-41a0-80be-7ee111a218f5","ios":"levelo://app?vid=675927e0-ab95-41a0-80be-7ee111a218f5"},"vehicle_type_id":"4","last_reported":1685916328,"current_range_meters":26400,"station_id":"","pricing_plan_id":"free"},{"bike_id":"57da526b-0952-4249-a379-e6f5262607a7","system_id":"levelo_inurba_marseille","lat":43.33756,"lon":5.37438,"is_reserved":false,"is_disabled":false,"rental_uris":{"android":"levelo://app?vid=57da526b-0952-4249-a379-e6f5262607a7","ios":"levelo://app?vid=57da526b-0952-4249-a379-e6f5262607a7"},"vehicle_type_id":"4","last_reported":1685916328,"current_range_meters":30400,"station_id":"","pricing_plan_id":"free"},{"bike_id":"0b533d73-4a0b-43b8-93db-aacde7647f99","system_id":"levelo_inurba_marseille","lat":43.30642,"lon":5.401031,"is_reserved":false,"is_disabled":false,"rental_uris":{"android":"levelo://app?vid=0b533d73-4a0b-43b8-93db-aacde7647f99","ios":"levelo://app?vid=0b533d73-4a0b-43b8-93db-aacde7647f99"},"vehicle_type_id":"4","last_reported":1685916328,"current_range_meters":13200,"station_id":"ce4bh112rcd13ifvqda0","pricing_plan_id":"free"},{"bike_id":"9d1b89fe-1b1b-4046-99ba-2ce3e0307bb0","system_id":"levelo_inurba_marseille","lat":43.30642,"lon":5.401031,"is_reserved":false,"is_disabled":false,"rental_uris":{"android":"levelo://app?vid=9d1b89fe-1b1b-4046-99ba-2ce3e0307bb0","ios":"levelo://app?vid=9d1b89fe-1b1b-4046-99ba-2ce3e0307bb0"},"vehicle_type_id":"4","last_reported":1685916328,"current_range_meters":22000,"station_id":"ce4bh112rcd13ifvqda0","pricing_plan_id":"free"},{"bike_id":"fa2f6405-eb29-41e0-b72e-d1ee11074830","system_id":"levelo_inurba_marseille","lat":43.306412,"lon":5.401035,"is_reserved":false,"is_disabled":false,"rental_uris":{"android":"levelo://app?vid=fa2f6405-eb29-41e0-b72e-d1ee11074830","ios":"levelo://app?vid=fa2f6405-eb29-41e0-b72e-d1ee11074830"},"vehicle_type_id":"4","last_reported":1685916328,"current_range_meters":16800,"station_id":"ce4bh112rcd13ifvqda0","pricing_plan_id":"free"},{"bike_id":"cf0caa37-cec8-408b-98f7-37211a80813c","system_id":"levelo_inurba_marseille","lat":43.33773,"lon":5.37428,"is_reserved":false,"is_disabled":false,"rental_uris":{"android":"levelo://app?vid=cf0caa37-cec8-408b-98f7-37211a80813c","ios":"levelo://app?vid=cf0caa37-cec8-408b-98f7-37211a80813c"},"vehicle_type_id":"4","last_reported":1685916328,"current_range_meters":30000,"station_id":"","pricing_plan_id":"free"},{"bike_id":"6299117b-6444-4be2-81e5-db81b8a9792f","system_id":"levelo_inurba_marseille","lat":43.306412,"lon":5.401035,"is_reserved":false,"is_disabled":false,"rental_uris":{"android":"levelo://app?vid=6299117b-6444-4be2-81e5-db81b8a9792f","ios":"levelo://app?vid=6299117b-6444-4be2-81e5-db81b8a9792f"},"vehicle_type_id":"4","last_reported":1685916328,"current_range_meters":31200,"station_id":"ce4bh112rcd13ifvqda0","pricing_plan_id":"free"},{"bike_id":"9f734f8d-6742-49e3-b719-e370201dd880","system_id":"levelo_inurba_marseille","lat":43.306412,"lon":5.401035,"is_reserved":false,"is_disabled":false,"rental_uris":{"android":"levelo://app?vid=9f734f8d-6742-49e3-b719-e370201dd880","ios":"levelo://app?vid=9f734f8d-6742-49e3-b719-e370201dd880"},"vehicle_type_id":"4","last_reported":1685916328,"current_range_meters":0,"station_id":"ce4bh112rcd13ifvqda0","pricing_plan_id":"free"},{"bike_id":"5ccd64c7-67b4-45f6-a39f-241fb38aab56","system_id":"levelo_inurba_marseille","lat":43.31241,"lon":5.40221,"is_reserved":false,"is_disabled":false,"rental_uris":{"android":"levelo://app?vid=5ccd64c7-67b4-45f6-a39f-241fb38aab56","ios":"levelo://app?vid=5ccd64c7-67b4-45f6-a39f-241fb38aab56"},"vehicle_type_id":"4","last_reported":1685916328,"current_range_meters":19200,"station_id":"","pricing_plan_id":"free"},{"bike_id":"643ef3da-27a7-4972-a535-36d2855d41fa","system_id":"levelo_inurba_marseille","lat":43.298681,"lon":5.397225,"is_reserved":false,"is_disabled":false,"rental_uris":{"android":"levelo://app?vid=643ef3da-27a7-4972-a535-36d2855d41fa","ios":"levelo://app?vid=643ef3da-27a7-4972-a535-36d2855d41fa"},"vehicle_type_id":"4","last_reported":1685916328,"current_range_meters":12400,"station_id":"ce4bh0h2rcd13ifvqd50","pricing_plan_id":"free"},{"bike_id":"fbb041b0-2cb2-4463-95a3-2e261d455f20","system_id":"levelo_inurba_marseille","lat":43.286695,"lon":5.363704,"is_reserved":false,"is_disabled":false,"rental_uris":{"android":"levelo://app?vid=fbb041b0-2cb2-4463-95a3-2e261d455f20","ios":"levelo://app?vid=fbb041b0-2cb2-4463-95a3-2e261d455f20"},"vehicle_type_id":"4","last_reported":1685916328,"current_range_meters":12000,"station_id":"","pricing_plan_id":"free"},{"bike_id":"3f034842-de26-45f2-8daf-1f9e67468c5a","system_id":"levelo_inurba_marseille","lat":43.298681,"lon":5.397225,"is_reserved":false,"is_disabled":false,"rental_uris":{"android":"levelo://app?vid=3f034842-de26-45f2-8daf-1f9e67468c5a","ios":"levelo://app?vid=3f034842-de26-45f2-8daf-1f9e67468c5a"},"vehicle_type_id":"4","last_reported":1685916328,"current_range_meters":28800,"station_id":"ce4bh0h2rcd13ifvqd50","pricing_plan_id":"free"},{"bike_id":"25088032-83ce-4bc7-af7e-f682ead6132f","system_id":"levelo_inurba_marseille","lat":43.286591,"lon":5.363346,"is_reserved":false,"is_disabled":false,"rental_uris":{"android":"levelo://app?vid=25088032-83ce-4bc7-af7e-f682ead6132f","ios":"levelo://app?vid=25088032-83ce-4bc7-af7e-f682ead6132f"},"vehicle_type_id":"4","last_reported":1685916328,"current_range_meters":28800,"station_id":"ce4bhah2rcd13ifvqej0","pricing_plan_id":"free"},{"bike_id":"7e163671-be52-4c9f-b65e-bc7d156f52c1","system_id":"levelo_inurba_marseille","lat":43.29541,"lon":5.39392,"is_reserved":false,"is_disabled":false,"rental_uris":{"android":"levelo://app?vid=7e163671-be52-4c9f-b65e-bc7d156f52c1","ios":"levelo://app?vid=7e163671-be52-4c9f-b65e-bc7d156f52c1"},"vehicle_type_id":"4","last_reported":1685916328,"current_range_meters":2400,"station_id":"ce4bh292rcd13ifvqdf0","pricing_plan_id":"free"},{"bike_id":"07ed0adc-8a80-4a63-b606-08d0ed8655ca","system_id":"levelo_inurba_marseille","lat":43.286593,"lon":5.363346,"is_reserved":false,"is_disabled":false,"rental_uris":{"android":"levelo://app?vid=07ed0adc-8a80-4a63-b606-08d0ed8655ca","ios":"levelo://app?vid=07ed0adc-8a80-4a63-b606-08d0ed8655ca"},"vehicle_type_id":"4","last_reported":1685916328,"current_range_meters":26400,"station_id":"ce4bhah2rcd13ifvqej0","pricing_plan_id":"free"},{"bike_id":"3ff66e8b-cb03-4d40-bff7-b32cc21a46de","system_id":"levelo_inurba_marseille","lat":43.286039,"lon":5.370679,"is_reserved":false,"is_disabled":false,"rental_uris":{"android":"levelo://app?vid=3ff66e8b-cb03-4d40-bff7-b32cc21a46de","ios":"levelo://app?vid=3ff66e8b-cb03-4d40-bff7-b32cc21a46de"},"vehicle_type_id":"4","last_reported":1685916328,"current_range_meters":30400,"station_id":"ce4bht12rcd13ifvqi60","pricing_plan_id":"free"},{"bike_id":"f26a1a40-a47b-40e2-b3a6-f619755c0912","system_id":"levelo_inurba_marseille","lat":43.28615,"lon":5.37058,"is_reserved":false,"is_disabled":false,"rental_uris":{"android":"levelo://app?vid=f26a1a40-a47b-40e2-b3a6-f619755c0912","ios":"levelo://app?vid=f26a1a40-a47b-40e2-b3a6-f619755c0912"},"vehicle_type_id":"4","last_reported":1685916328,"current_range_meters":25200,"station_id":"ce4bht12rcd13ifvqi60","pricing_plan_id":"free"},{"bike_id":"16a76f0b-fbf8-4f4c-af49-345db3e373b0","system_id":"levelo_inurba_marseille","lat":43.286039,"lon":5.370679,"is_reserved":false,"is_disabled":false,"rental_uris":{"android":"levelo://app?vid=16a76f0b-fbf8-4f4c-af49-345db3e373b0","ios":"levelo://app?vid=16a76f0b-fbf8-4f4c-af49-345db3e373b0"},"vehicle_type_id":"4","last_reported":1685916328,"current_range_meters":6000,"station_id":"ce4bht12rcd13ifvqi60","pricing_plan_id":"free"},{"bike_id":"d27f5c71-8d47-4209-8695-6df619c55c6f","system_id":"levelo_inurba_marseille","lat":43.28614,"lon":5.37058,"is_reserved":false,"is_disabled":false,"rental_uris":{"android":"levelo://app?vid=d27f5c71-8d47-4209-8695-6df619c55c6f","ios":"levelo://app?vid=d27f5c71-8d47-4209-8695-6df619c55c6f"},"vehicle_type_id":"4","last_reported":1685916328,"current_range_meters":27200,"station_id":"ce4bht12rcd13ifvqi60","pricing_plan_id":"free"},{"bike_id":"7ad072f6-d7da-458b-b43d-406616bb4ebd","system_id":"levelo_inurba_marseille","lat":43.286039,"lon":5.370679,"is_reserved":false,"is_disabled":false,"rental_uris":{"android":"levelo://app?vid=7ad072f6-d7da-458b-b43d-406616bb4ebd","ios":"levelo://app?vid=7ad072f6-d7da-458b-b43d-406616bb4ebd"},"vehicle_type_id":"4","last_reported":1685916328,"current_range_meters":31200,"station_id":"ce4bht12rcd13ifvqi60","pricing_plan_id":"free"},{"bike_id":"faf272a9-b98e-4665-8355-ee8e8f55c360","system_id":"levelo_inurba_marseille","lat":43.28611,"lon":5.3706,"is_reserved":false,"is_disabled":false,"rental_uris":{"android":"levelo://app?vid=faf272a9-b98e-4665-8355-ee8e8f55c360","ios":"levelo://app?vid=faf272a9-b98e-4665-8355-ee8e8f55c360"},"vehicle_type_id":"4","last_reported":1685916328,"current_range_meters":16400,"station_id":"ce4bht12rcd13ifvqi60","pricing_plan_id":"free"},{"bike_id":"c16c3e2d-258d-44fb-9594-35b9b1f1917d","system_id":"levelo_inurba_marseille","lat":43.286039,"lon":5.370681,"is_reserved":false,"is_disabled":false,"rental_uris":{"android":"levelo://app?vid=c16c3e2d-258d-44fb-9594-35b9b1f1917d","ios":"levelo://app?vid=c16c3e2d-258d-44fb-9594-35b9b1f1917d"},"vehicle_type_id":"4","last_reported":1685916328,"current_range_meters":2800,"station_id":"ce4bht12rcd13ifvqi60","pricing_plan_id":"free"},{"bike_id":"e6425da3-645a-4507-bb43-675dd274a495","system_id":"levelo_inurba_marseille","lat":43.287185,"lon":5.379373,"is_reserved":false,"is_disabled":false,"rental_uris":{"android":"levelo://app?vid=e6425da3-645a-4507-bb43-675dd274a495","ios":"levelo://app?vid=e6425da3-645a-4507-bb43-675dd274a495"},"vehicle_type_id":"4","last_reported":1685916328,"current_range_meters":31200,"station_id":"ce4bh9p2rcd13ifvqec0","pricing_plan_id":"free"},{"bike_id":"76279df4-e73d-4191-a78a-207ae0f5759d","system_id":"levelo_inurba_marseille","lat":43.287185,"lon":5.379373,"is_reserved":false,"is_disabled":false,"rental_uris":{"android":"levelo://app?vid=76279df4-e73d-4191-a78a-207ae0f5759d","ios":"levelo://app?vid=76279df4-e73d-4191-a78a-207ae0f5759d"},"vehicle_type_id":"4","last_reported":1685916328,"current_range_meters":24400,"station_id":"ce4bh9p2rcd13ifvqec0","pricing_plan_id":"free"},{"bike_id":"fcc489ed-a965-41b5-9518-f197926b09ed","system_id":"levelo_inurba_marseille","lat":43.287184,"lon":5.37937,"is_reserved":false,"is_disabled":false,"rental_uris":{"android":"levelo://app?vid=fcc489ed-a965-41b5-9518-f197926b09ed","ios":"levelo://app?vid=fcc489ed-a965-41b5-9518-f197926b09ed"},"vehicle_type_id":"4","last_reported":1685916328,"current_range_meters":13200,"station_id":"ce4bh9p2rcd13ifvqec0","pricing_plan_id":"free"},{"bike_id":"176b37e2-bf07-46e9-8352-3c4ddbb04158","system_id":"levelo_inurba_marseille","lat":43.316517,"lon":5.404375,"is_reserved":false,"is_disabled":false,"rental_uris":{"android":"levelo://app?vid=176b37e2-bf07-46e9-8352-3c4ddbb04158","ios":"levelo://app?vid=176b37e2-bf07-46e9-8352-3c4ddbb04158"},"vehicle_type_id":"4","last_reported":1685916328,"current_range_meters":27200,"station_id":"ce4bh012rcd13ifvqd00","pricing_plan_id":"free"},{"bike_id":"1b6a7e66-a1fe-4b69-b9df-d048dd6e26d4","system_id":"levelo_inurba_marseille","lat":43.284534,"lon":5.358662,"is_reserved":false,"is_disabled":false,"rental_uris":{"android":"levelo://app?vid=1b6a7e66-a1fe-4b69-b9df-d048dd6e26d4","ios":"levelo://app?vid=1b6a7e66-a1fe-4b69-b9df-d048dd6e26d4"},"vehicle_type_id":"4","last_reported":1685916328,"current_range_meters":26800,"station_id":"ce4bhah2rcd13ifvqei0","pricing_plan_id":"free"},{"bike_id":"c38e9371-08d1-4bce-81bc-cf90e6d08ee0","system_id":"levelo_inurba_marseille","lat":43.284534,"lon":5.358662,"is_reserved":false,"is_disabled":false,"rental_uris":{"android":"levelo://app?vid=c38e9371-08d1-4bce-81bc-cf90e6d08ee0","ios":"levelo://app?vid=c38e9371-08d1-4bce-81bc-cf90e6d08ee0"},"vehicle_type_id":"4","last_reported":1685916328,"current_range_meters":26000,"station_id":"ce4bhah2rcd13ifvqei0","pricing_plan_id":"free"},{"bike_id":"dc089201-5807-49ab-a843-9644681dc35d","system_id":"levelo_inurba_marseille","lat":43.284534,"lon":5.358662,"is_reserved":false,"is_disabled":false,"rental_uris":{"android":"levelo://app?vid=dc089201-5807-49ab-a843-9644681dc35d","ios":"levelo://app?vid=dc089201-5807-49ab-a843-9644681dc35d"},"vehicle_type_id":"4","last_reported":1685916328,"current_range_meters":24400,"station_id":"ce4bhah2rcd13ifvqei0","pricing_plan_id":"free"},{"bike_id":"fa0828c6-7a80-4c27-ba08-608321d7ec6a","system_id":"levelo_inurba_marseille","lat":43.295713,"lon":5.399639,"is_reserved":false,"is_disabled":false,"rental_uris":{"android":"levelo://app?vid=fa0828c6-7a80-4c27-ba08-608321d7ec6a","ios":"levelo://app?vid=fa0828c6-7a80-4c27-ba08-608321d7ec6a"},"vehicle_type_id":"4","last_reported":1685916328,"current_range_meters":26800,"station_id":"ce4bh312rcd13ifvqdj0","pricing_plan_id":"free"},{"bike_id":"5c1d2d2d-fb89-460b-8f69-6b1005cb437d","system_id":"levelo_inurba_marseille","lat":43.286595,"lon":5.386795,"is_reserved":false,"is_disabled":false,"rental_uris":{"android":"levelo://app?vid=5c1d2d2d-fb89-460b-8f69-6b1005cb437d","ios":"levelo://app?vid=5c1d2d2d-fb89-460b-8f69-6b1005cb437d"},"vehicle_type_id":"4","last_reported":1685916328,"current_range_meters":5200,"station_id":"ce4bh492rcd13ifvqdug","pricing_plan_id":"free"},{"bike_id":"d3fcddc3-da99-4749-babe-9c44e0da430f","system_id":"levelo_inurba_marseille","lat":43.2906,"lon":5.39446,"is_reserved":false,"is_disabled":false,"rental_uris":{"android":"levelo://app?vid=d3fcddc3-da99-4749-babe-9c44e0da430f","ios":"levelo://app?vid=d3fcddc3-da99-4749-babe-9c44e0da430f"},"vehicle_type_id":"4","last_reported":1685916328,"current_range_meters":20400,"station_id":"","pricing_plan_id":"free"},{"bike_id":"b205e703-9cc6-479d-b47b-dcec15459f4d","system_id":"levelo_inurba_marseille","lat":43.32662,"lon":5.40368,"is_reserved":false,"is_disabled":false,"rental_uris":{"android":"levelo://app?vid=b205e703-9cc6-479d-b47b-dcec15459f4d","ios":"levelo://app?vid=b205e703-9cc6-479d-b47b-dcec15459f4d"},"vehicle_type_id":"4","last_reported":1685916328,"current_range_meters":12000,"station_id":"","pricing_plan_id":"free"},{"bike_id":"ca308f8d-733f-499e-85e9-b84978d8a7ba","system_id":"levelo_inurba_marseille","lat":43.323464,"lon":5.406297,"is_reserved":false,"is_disabled":false,"rental_uris":{"android":"levelo://app?vid=ca308f8d-733f-499e-85e9-b84978d8a7ba","ios":"levelo://app?vid=ca308f8d-733f-499e-85e9-b84978d8a7ba"},"vehicle_type_id":"4","last_reported":1685916328,"current_range_meters":22400,"station_id":"ce4bhq92rcd13ifvqhjg","pricing_plan_id":"free"},{"bike_id":"bb330107-55f8-4854-817a-4f7a89810033","system_id":"levelo_inurba_marseille","lat":43.323464,"lon":5.406297,"is_reserved":false,"is_disabled":false,"rental_uris":{"android":"levelo://app?vid=bb330107-55f8-4854-817a-4f7a89810033","ios":"levelo://app?vid=bb330107-55f8-4854-817a-4f7a89810033"},"vehicle_type_id":"4","last_reported":1685916328,"current_range_meters":25600,"station_id":"ce4bhq92rcd13ifvqhjg","pricing_plan_id":"free"},{"bike_id":"52cb4169-9f28-44f5-868b-c472ed5840ad","system_id":"levelo_inurba_marseille","lat":43.323464,"lon":5.406297,"is_reserved":false,"is_disabled":false,"rental_uris":{"android":"levelo://app?vid=52cb4169-9f28-44f5-868b-c472ed5840ad","ios":"levelo://app?vid=52cb4169-9f28-44f5-868b-c472ed5840ad"},"vehicle_type_id":"4","last_reported":1685916328,"current_range_meters":13200,"station_id":"ce4bhq92rcd13ifvqhjg","pricing_plan_id":"free"},{"bike_id":"b9cbf614-c52d-4e29-9a3e-b9b97801e8b1","system_id":"levelo_inurba_marseille","lat":43.284793,"lon":5.384119,"is_reserved":false,"is_disabled":false,"rental_uris":{"android":"levelo://app?vid=b9cbf614-c52d-4e29-9a3e-b9b97801e8b1","ios":"levelo://app?vid=b9cbf614-c52d-4e29-9a3e-b9b97801e8b1"},"vehicle_type_id":"4","last_reported":1685916328,"current_range_meters":31200,"station_id":"ce4bh512rcd13ifvqe3g","pricing_plan_id":"free"},{"bike_id":"80b5c258-a19e-4261-93ed-7e8843f898e6","system_id":"levelo_inurba_marseille","lat":43.284787,"lon":5.384116,"is_reserved":false,"is_disabled":false,"rental_uris":{"android":"levelo://app?vid=80b5c258-a19e-4261-93ed-7e8843f898e6","ios":"levelo://app?vid=80b5c258-a19e-4261-93ed-7e8843f898e6"},"vehicle_type_id":"4","last_reported":1685916328,"current_range_meters":31200,"station_id":"ce4bh512rcd13ifvqe3g","pricing_plan_id":"free"},{"bike_id":"40a85854-0be0-455f-b55c-1d3aff9a0476","system_id":"levelo_inurba_marseille","lat":43.283494,"lon":5.380945,"is_reserved":false,"is_disabled":false,"rental_uris":{"android":"levelo://app?vid=40a85854-0be0-455f-b55c-1d3aff9a0476","ios":"levelo://app?vid=40a85854-0be0-455f-b55c-1d3aff9a0476"},"vehicle_type_id":"4","last_reported":1685916328,"current_range_meters":6800,"station_id":"ce4bh412rcd13ifvqdr0","pricing_plan_id":"free"},{"bike_id":"12534ff0-901f-4ad5-ae27-56b51d745162","system_id":"levelo_inurba_marseille","lat":43.284219,"lon":5.3497,"is_reserved":false,"is_disabled":false,"rental_uris":{"android":"levelo://app?vid=12534ff0-901f-4ad5-ae27-56b51d745162","ios":"levelo://app?vid=12534ff0-901f-4ad5-ae27-56b51d745162"},"vehicle_type_id":"4","last_reported":1685916328,"current_range_meters":24800,"station_id":"ce4bhbh2rcd13ifvqepg","pricing_plan_id":"free"},{"bike_id":"dc166da9-458d-4e7c-9511-df9e7fc2d498","system_id":"levelo_inurba_marseille","lat":43.292724,"lon":5.401131,"is_reserved":false,"is_disabled":false,"rental_uris":{"android":"levelo://app?vid=dc166da9-458d-4e7c-9511-df9e7fc2d498","ios":"levelo://app?vid=dc166da9-458d-4e7c-9511-df9e7fc2d498"},"vehicle_type_id":"4","last_reported":1685916328,"current_range_meters":10000,"station_id":"ce4bh312rcd13ifvqdk0","pricing_plan_id":"free"},{"bike_id":"f22b645e-9664-4751-b4aa-a7986d323397","system_id":"levelo_inurba_marseille","lat":43.29285,"lon":5.4011,"is_reserved":false,"is_disabled":false,"rental_uris":{"android":"levelo://app?vid=f22b645e-9664-4751-b4aa-a7986d323397","ios":"levelo://app?vid=f22b645e-9664-4751-b4aa-a7986d323397"},"vehicle_type_id":"4","last_reported":1685916328,"current_range_meters":17600,"station_id":"ce4bh312rcd13ifvqdk0","pricing_plan_id":"free"},{"bike_id":"83db2b36-8a76-4e9d-913a-277405ff09f8","system_id":"levelo_inurba_marseille","lat":43.292724,"lon":5.401131,"is_reserved":false,"is_disabled":false,"rental_uris":{"android":"levelo://app?vid=83db2b36-8a76-4e9d-913a-277405ff09f8","ios":"levelo://app?vid=83db2b36-8a76-4e9d-913a-277405ff09f8"},"vehicle_type_id":"4","last_reported":1685916328,"current_range_meters":20000,"station_id":"ce4bh312rcd13ifvqdk0","pricing_plan_id":"free"},{"bike_id":"eb2dfede-b23b-46cd-a424-cb92a7a35a18","system_id":"levelo_inurba_marseille","lat":43.292724,"lon":5.401131,"is_reserved":false,"is_disabled":false,"rental_uris":{"android":"levelo://app?vid=eb2dfede-b23b-46cd-a424-cb92a7a35a18","ios":"levelo://app?vid=eb2dfede-b23b-46cd-a424-cb92a7a35a18"},"vehicle_type_id":"4","last_reported":1685916328,"current_range_meters":3600,"station_id":"ce4bh312rcd13ifvqdk0","pricing_plan_id":"free"},{"bike_id":"4c32b64f-0fc4-4cc5-9665-9100a8bb5f46","system_id":"levelo_inurba_marseille","lat":43.292724,"lon":5.401131,"is_reserved":false,"is_disabled":false,"rental_uris":{"android":"levelo://app?vid=4c32b64f-0fc4-4cc5-9665-9100a8bb5f46","ios":"levelo://app?vid=4c32b64f-0fc4-4cc5-9665-9100a8bb5f46"},"vehicle_type_id":"4","last_reported":1685916328,"current_range_meters":26400,"station_id":"ce4bh312rcd13ifvqdk0","pricing_plan_id":"free"},{"bike_id":"1596088b-1f57-4545-85fc-336459ea1ac8","system_id":"levelo_inurba_marseille","lat":43.292724,"lon":5.401131,"is_reserved":false,"is_disabled":false,"rental_uris":{"android":"levelo://app?vid=1596088b-1f57-4545-85fc-336459ea1ac8","ios":"levelo://app?vid=1596088b-1f57-4545-85fc-336459ea1ac8"},"vehicle_type_id":"4","last_reported":1685916328,"current_range_meters":28400,"station_id":"ce4bh312rcd13ifvqdk0","pricing_plan_id":"free"},{"bike_id":"9c488ecc-a2c1-48fb-97ce-64d7a57540e8","system_id":"levelo_inurba_marseille","lat":43.282754,"lon":5.350519,"is_reserved":false,"is_disabled":false,"rental_uris":{"android":"levelo://app?vid=9c488ecc-a2c1-48fb-97ce-64d7a57540e8","ios":"levelo://app?vid=9c488ecc-a2c1-48fb-97ce-64d7a57540e8"},"vehicle_type_id":"4","last_reported":1685916328,"current_range_meters":17600,"station_id":"ce4bhbp2rcd13ifvqerg","pricing_plan_id":"free"},{"bike_id":"8ec633f5-b48c-4ad4-8234-b6a9e33abd44","system_id":"levelo_inurba_marseille","lat":43.28037,"lon":5.36951,"is_reserved":false,"is_disabled":false,"rental_uris":{"android":"levelo://app?vid=8ec633f5-b48c-4ad4-8234-b6a9e33abd44","ios":"levelo://app?vid=8ec633f5-b48c-4ad4-8234-b6a9e33abd44"},"vehicle_type_id":"4","last_reported":1685916328,"current_range_meters":12800,"station_id":"ce4bha12rcd13ifvqef0","pricing_plan_id":"free"},{"bike_id":"79a0f57b-eb40-42e3-8d4f-98c5c0c93839","system_id":"levelo_inurba_marseille","lat":43.29039,"lon":5.39965,"is_reserved":false,"is_disabled":false,"rental_uris":{"android":"levelo://app?vid=79a0f57b-eb40-42e3-8d4f-98c5c0c93839","ios":"levelo://app?vid=79a0f57b-eb40-42e3-8d4f-98c5c0c93839"},"vehicle_type_id":"4","last_reported":1685916328,"current_range_meters":22000,"station_id":"ce4bh392rcd13ifvqdm0","pricing_plan_id":"free"},{"bike_id":"599f3de2-de94-484f-877d-14427809c64d","system_id":"levelo_inurba_marseille","lat":43.281044,"lon":5.378308,"is_reserved":false,"is_disabled":false,"rental_uris":{"android":"levelo://app?vid=599f3de2-de94-484f-877d-14427809c64d","ios":"levelo://app?vid=599f3de2-de94-484f-877d-14427809c64d"},"vehicle_type_id":"4","last_reported":1685916328,"current_range_meters":6400,"station_id":"ce4bha12rcd13ifvqee0","pricing_plan_id":"free"},{"bike_id":"b1db7ae9-6e30-4b12-817b-35b19498039e","system_id":"levelo_inurba_marseille","lat":43.281044,"lon":5.378308,"is_reserved":false,"is_disabled":false,"rental_uris":{"android":"levelo://app?vid=b1db7ae9-6e30-4b12-817b-35b19498039e","ios":"levelo://app?vid=b1db7ae9-6e30-4b12-817b-35b19498039e"},"vehicle_type_id":"4","last_reported":1685916328,"current_range_meters":20000,"station_id":"ce4bha12rcd13ifvqee0","pricing_plan_id":"free"},{"bike_id":"6708d17a-dd26-4df5-b7db-31551fb5bcbe","system_id":"levelo_inurba_marseille","lat":43.296263,"lon":5.40601,"is_reserved":false,"is_disabled":false,"rental_uris":{"android":"levelo://app?vid=6708d17a-dd26-4df5-b7db-31551fb5bcbe","ios":"levelo://app?vid=6708d17a-dd26-4df5-b7db-31551fb5bcbe"},"vehicle_type_id":"4","last_reported":1685916328,"current_range_meters":26400,"station_id":"ce4bh0h2rcd13ifvqd60","pricing_plan_id":"free"},{"bike_id":"d80ee4bd-a478-4a8f-96eb-4089f9fe641c","system_id":"levelo_inurba_marseille","lat":43.296263,"lon":5.40601,"is_reserved":false,"is_disabled":false,"rental_uris":{"android":"levelo://app?vid=d80ee4bd-a478-4a8f-96eb-4089f9fe641c","ios":"levelo://app?vid=d80ee4bd-a478-4a8f-96eb-4089f9fe641c"},"vehicle_type_id":"4","last_reported":1685916328,"current_range_meters":27600,"station_id":"ce4bh0h2rcd13ifvqd60","pricing_plan_id":"free"},{"bike_id":"db770889-841e-4da3-a06a-b49d371e26e1","system_id":"levelo_inurba_marseille","lat":43.284462,"lon":5.392121,"is_reserved":false,"is_disabled":false,"rental_uris":{"android":"levelo://app?vid=db770889-841e-4da3-a06a-b49d371e26e1","ios":"levelo://app?vid=db770889-841e-4da3-a06a-b49d371e26e1"},"vehicle_type_id":"4","last_reported":1685916328,"current_range_meters":29600,"station_id":"ce4bhoh2rcd13ifvqh5g","pricing_plan_id":"free"},{"bike_id":"659a5b53-1945-4fa2-bdaf-bf20093a6fae","system_id":"levelo_inurba_marseille","lat":43.284462,"lon":5.392121,"is_reserved":false,"is_disabled":false,"rental_uris":{"android":"levelo://app?vid=659a5b53-1945-4fa2-bdaf-bf20093a6fae","ios":"levelo://app?vid=659a5b53-1945-4fa2-bdaf-bf20093a6fae"},"vehicle_type_id":"4","last_reported":1685916328,"current_range_meters":12800,"station_id":"ce4bhoh2rcd13ifvqh5g","pricing_plan_id":"free"},{"bike_id":"aac237f6-39da-4ee5-944a-fdd18691f12c","system_id":"levelo_inurba_marseille","lat":43.284462,"lon":5.392121,"is_reserved":false,"is_disabled":false,"rental_uris":{"android":"levelo://app?vid=aac237f6-39da-4ee5-944a-fdd18691f12c","ios":"levelo://app?vid=aac237f6-39da-4ee5-944a-fdd18691f12c"},"vehicle_type_id":"4","last_reported":1685916328,"current_range_meters":31200,"station_id":"ce4bhoh2rcd13ifvqh5g","pricing_plan_id":"free"},{"bike_id":"9fcb47be-8cc3-476e-ac3d-a7680864dc81","system_id":"levelo_inurba_marseille","lat":43.285742,"lon":5.395004,"is_reserved":false,"is_disabled":false,"rental_uris":{"android":"levelo://app?vid=9fcb47be-8cc3-476e-ac3d-a7680864dc81","ios":"levelo://app?vid=9fcb47be-8cc3-476e-ac3d-a7680864dc81"},"vehicle_type_id":"4","last_reported":1685916328,"current_range_meters":30000,"station_id":"ce4bh292rcd13ifvqdg0","pricing_plan_id":"free"},{"bike_id":"6cdf87b3-17df-43d4-86d3-5b74c667bb06","system_id":"levelo_inurba_marseille","lat":43.285742,"lon":5.395004,"is_reserved":false,"is_disabled":false,"rental_uris":{"android":"levelo://app?vid=6cdf87b3-17df-43d4-86d3-5b74c667bb06","ios":"levelo://app?vid=6cdf87b3-17df-43d4-86d3-5b74c667bb06"},"vehicle_type_id":"4","last_reported":1685916328,"current_range_meters":16000,"station_id":"ce4bh292rcd13ifvqdg0","pricing_plan_id":"free"},{"bike_id":"aa655c6d-1429-48fd-8ede-7a4e7910975d","system_id":"levelo_inurba_marseille","lat":43.28573,"lon":5.394992,"is_reserved":false,"is_disabled":false,"rental_uris":{"android":"levelo://app?vid=aa655c6d-1429-48fd-8ede-7a4e7910975d","ios":"levelo://app?vid=aa655c6d-1429-48fd-8ede-7a4e7910975d"},"vehicle_type_id":"4","last_reported":1685916328,"current_range_meters":29600,"station_id":"ce4bh292rcd13ifvqdg0","pricing_plan_id":"free"},{"bike_id":"331ad98e-11fa-4b63-8bb7-3cf54f98d5a1","system_id":"levelo_inurba_marseille","lat":43.28573,"lon":5.394992,"is_reserved":false,"is_disabled":false,"rental_uris":{"android":"levelo://app?vid=331ad98e-11fa-4b63-8bb7-3cf54f98d5a1","ios":"levelo://app?vid=331ad98e-11fa-4b63-8bb7-3cf54f98d5a1"},"vehicle_type_id":"4","last_reported":1685916328,"current_range_meters":21200,"station_id":"ce4bh292rcd13ifvqdg0","pricing_plan_id":"free"},{"bike_id":"f0b0f2a6-3c08-4051-aeaa-de03bf98adbe","system_id":"levelo_inurba_marseille","lat":43.287154,"lon":5.399979,"is_reserved":false,"is_disabled":false,"rental_uris":{"android":"levelo://app?vid=f0b0f2a6-3c08-4051-aeaa-de03bf98adbe","ios":"levelo://app?vid=f0b0f2a6-3c08-4051-aeaa-de03bf98adbe"},"vehicle_type_id":"4","last_reported":1685916328,"current_range_meters":14800,"station_id":"ce4bho92rcd13ifvqh3g","pricing_plan_id":"free"},{"bike_id":"a1087086-74df-49f8-ba06-0ad48a59311c","system_id":"levelo_inurba_marseille","lat":43.287154,"lon":5.399979,"is_reserved":false,"is_disabled":false,"rental_uris":{"android":"levelo://app?vid=a1087086-74df-49f8-ba06-0ad48a59311c","ios":"levelo://app?vid=a1087086-74df-49f8-ba06-0ad48a59311c"},"vehicle_type_id":"4","last_reported":1685916328,"current_range_meters":27200,"station_id":"ce4bho92rcd13ifvqh3g","pricing_plan_id":"free"},{"bike_id":"cd64c398-67c1-49b7-a2fe-5e7627b2a379","system_id":"levelo_inurba_marseille","lat":43.27899,"lon":5.38,"is_reserved":false,"is_disabled":false,"rental_uris":{"android":"levelo://app?vid=cd64c398-67c1-49b7-a2fe-5e7627b2a379","ios":"levelo://app?vid=cd64c398-67c1-49b7-a2fe-5e7627b2a379"},"vehicle_type_id":"4","last_reported":1685916328,"current_range_meters":3600,"station_id":"","pricing_plan_id":"free"},{"bike_id":"3d011fc9-1e99-4140-8f62-4b3ae9cc1c93","system_id":"levelo_inurba_marseille","lat":43.287154,"lon":5.399979,"is_reserved":false,"is_disabled":false,"rental_uris":{"android":"levelo://app?vid=3d011fc9-1e99-4140-8f62-4b3ae9cc1c93","ios":"levelo://app?vid=3d011fc9-1e99-4140-8f62-4b3ae9cc1c93"},"vehicle_type_id":"4","last_reported":1685916328,"current_range_meters":29200,"station_id":"ce4bho92rcd13ifvqh3g","pricing_plan_id":"free"},{"bike_id":"ce357838-6fa9-49c3-8634-4aa7c5c6f021","system_id":"levelo_inurba_marseille","lat":43.287154,"lon":5.399979,"is_reserved":false,"is_disabled":false,"rental_uris":{"android":"levelo://app?vid=ce357838-6fa9-49c3-8634-4aa7c5c6f021","ios":"levelo://app?vid=ce357838-6fa9-49c3-8634-4aa7c5c6f021"},"vehicle_type_id":"4","last_reported":1685916328,"current_range_meters":20800,"station_id":"ce4bho92rcd13ifvqh3g","pricing_plan_id":"free"},{"bike_id":"aec595c3-8fd3-479e-bd79-6c6b84d81e48","system_id":"levelo_inurba_marseille","lat":43.286983,"lon":5.399839,"is_reserved":false,"is_disabled":false,"rental_uris":{"android":"levelo://app?vid=aec595c3-8fd3-479e-bd79-6c6b84d81e48","ios":"levelo://app?vid=aec595c3-8fd3-479e-bd79-6c6b84d81e48"},"vehicle_type_id":"4","last_reported":1685916328,"current_range_meters":26400,"station_id":"ce4bho92rcd13ifvqh3g","pricing_plan_id":"free"},{"bike_id":"26f96591-54b0-49ac-bb10-bfe7fd3b3189","system_id":"levelo_inurba_marseille","lat":43.286977,"lon":5.399844,"is_reserved":false,"is_disabled":false,"rental_uris":{"android":"levelo://app?vid=26f96591-54b0-49ac-bb10-bfe7fd3b3189","ios":"levelo://app?vid=26f96591-54b0-49ac-bb10-bfe7fd3b3189"},"vehicle_type_id":"4","last_reported":1685916328,"current_range_meters":12800,"station_id":"ce4bho92rcd13ifvqh3g","pricing_plan_id":"free"},{"bike_id":"f9641fbd-8e3e-4de1-af90-12b5d1293d70","system_id":"levelo_inurba_marseille","lat":43.286971,"lon":5.399848,"is_reserved":false,"is_disabled":false,"rental_uris":{"android":"levelo://app?vid=f9641fbd-8e3e-4de1-af90-12b5d1293d70","ios":"levelo://app?vid=f9641fbd-8e3e-4de1-af90-12b5d1293d70"},"vehicle_type_id":"4","last_reported":1685916328,"current_range_meters":11600,"station_id":"ce4bho92rcd13ifvqh3g","pricing_plan_id":"free"},{"bike_id":"6802c24e-90cb-46e6-a2fe-8a6fc78c6a6a","system_id":"levelo_inurba_marseille","lat":43.287154,"lon":5.399979,"is_reserved":false,"is_disabled":false,"rental_uris":{"android":"levelo://app?vid=6802c24e-90cb-46e6-a2fe-8a6fc78c6a6a","ios":"levelo://app?vid=6802c24e-90cb-46e6-a2fe-8a6fc78c6a6a"},"vehicle_type_id":"4","last_reported":1685916328,"current_range_meters":25200,"station_id":"ce4bho92rcd13ifvqh3g","pricing_plan_id":"free"},{"bike_id":"c7179f7e-6f13-4ee7-b9d8-5dfbf442f959","system_id":"levelo_inurba_marseille","lat":43.287154,"lon":5.399979,"is_reserved":false,"is_disabled":false,"rental_uris":{"android":"levelo://app?vid=c7179f7e-6f13-4ee7-b9d8-5dfbf442f959","ios":"levelo://app?vid=c7179f7e-6f13-4ee7-b9d8-5dfbf442f959"},"vehicle_type_id":"4","last_reported":1685916328,"current_range_meters":14400,"station_id":"ce4bho92rcd13ifvqh3g","pricing_plan_id":"free"},{"bike_id":"ddaf8132-bb6d-4239-8ce3-ceee64b7c727","system_id":"levelo_inurba_marseille","lat":43.2869,"lon":5.39978,"is_reserved":false,"is_disabled":false,"rental_uris":{"android":"levelo://app?vid=ddaf8132-bb6d-4239-8ce3-ceee64b7c727","ios":"levelo://app?vid=ddaf8132-bb6d-4239-8ce3-ceee64b7c727"},"vehicle_type_id":"4","last_reported":1685916328,"current_range_meters":23600,"station_id":"","pricing_plan_id":"free"},{"bike_id":"e1b0610a-6be3-4acd-b1ad-2314b732c4f2","system_id":"levelo_inurba_marseille","lat":43.287004,"lon":5.399936,"is_reserved":false,"is_disabled":false,"rental_uris":{"android":"levelo://app?vid=e1b0610a-6be3-4acd-b1ad-2314b732c4f2","ios":"levelo://app?vid=e1b0610a-6be3-4acd-b1ad-2314b732c4f2"},"vehicle_type_id":"4","last_reported":1685916328,"current_range_meters":23200,"station_id":"ce4bho92rcd13ifvqh3g","pricing_plan_id":"free"},{"bike_id":"8fc23bb0-7114-4b7b-b049-c165f8d26ef0","system_id":"levelo_inurba_marseille","lat":43.299579,"lon":5.413255,"is_reserved":false,"is_disabled":false,"rental_uris":{"android":"levelo://app?vid=8fc23bb0-7114-4b7b-b049-c165f8d26ef0","ios":"levelo://app?vid=8fc23bb0-7114-4b7b-b049-c165f8d26ef0"},"vehicle_type_id":"4","last_reported":1685916328,"current_range_meters":11600,"station_id":"ce4bhp12rcd13ifvqh9g","pricing_plan_id":"free"},{"bike_id":"0c739346-4d08-4d79-a607-c879a11b59ec","system_id":"levelo_inurba_marseille","lat":43.32048,"lon":5.41565,"is_reserved":false,"is_disabled":false,"rental_uris":{"android":"levelo://app?vid=0c739346-4d08-4d79-a607-c879a11b59ec","ios":"levelo://app?vid=0c739346-4d08-4d79-a607-c879a11b59ec"},"vehicle_type_id":"4","last_reported":1685916328,"current_range_meters":28800,"station_id":"","pricing_plan_id":"free"},{"bike_id":"781b2f7b-81ba-4c34-9163-b045dafe359c","system_id":"levelo_inurba_marseille","lat":43.3205,"lon":5.4157,"is_reserved":false,"is_disabled":false,"rental_uris":{"android":"levelo://app?vid=781b2f7b-81ba-4c34-9163-b045dafe359c","ios":"levelo://app?vid=781b2f7b-81ba-4c34-9163-b045dafe359c"},"vehicle_type_id":"4","last_reported":1685916328,"current_range_meters":30400,"station_id":"","pricing_plan_id":"free"},{"bike_id":"15292a35-debd-4d55-ab66-e14fe147b2b9","system_id":"levelo_inurba_marseille","lat":43.32047,"lon":5.41573,"is_reserved":false,"is_disabled":false,"rental_uris":{"android":"levelo://app?vid=15292a35-debd-4d55-ab66-e14fe147b2b9","ios":"levelo://app?vid=15292a35-debd-4d55-ab66-e14fe147b2b9"},"vehicle_type_id":"4","last_reported":1685916328,"current_range_meters":31200,"station_id":"","pricing_plan_id":"free"},{"bike_id":"bc4dc0e7-b26e-44c4-b47d-2893123703b2","system_id":"levelo_inurba_marseille","lat":43.32046,"lon":5.41575,"is_reserved":false,"is_disabled":false,"rental_uris":{"android":"levelo://app?vid=bc4dc0e7-b26e-44c4-b47d-2893123703b2","ios":"levelo://app?vid=bc4dc0e7-b26e-44c4-b47d-2893123703b2"},"vehicle_type_id":"4","last_reported":1685916328,"current_range_meters":31200,"station_id":"","pricing_plan_id":"free"},{"bike_id":"33268951-5030-4918-b56d-5afb76ac6b1c","system_id":"levelo_inurba_marseille","lat":43.292571,"lon":5.409107,"is_reserved":false,"is_disabled":false,"rental_uris":{"android":"levelo://app?vid=33268951-5030-4918-b56d-5afb76ac6b1c","ios":"levelo://app?vid=33268951-5030-4918-b56d-5afb76ac6b1c"},"vehicle_type_id":"4","last_reported":1685916328,"current_range_meters":29200,"station_id":"ce4bh192rcd13ifvqdc0","pricing_plan_id":"free"},{"bike_id":"94c0e41e-a8e0-4bbd-b463-2696763a8cb2","system_id":"levelo_inurba_marseille","lat":43.292571,"lon":5.409107,"is_reserved":false,"is_disabled":false,"rental_uris":{"android":"levelo://app?vid=94c0e41e-a8e0-4bbd-b463-2696763a8cb2","ios":"levelo://app?vid=94c0e41e-a8e0-4bbd-b463-2696763a8cb2"},"vehicle_type_id":"4","last_reported":1685916328,"current_range_meters":18400,"station_id":"ce4bh192rcd13ifvqdc0","pricing_plan_id":"free"},{"bike_id":"377cd10b-673e-4421-bb84-87c2ac1df16a","system_id":"levelo_inurba_marseille","lat":43.292571,"lon":5.409107,"is_reserved":false,"is_disabled":false,"rental_uris":{"android":"levelo://app?vid=377cd10b-673e-4421-bb84-87c2ac1df16a","ios":"levelo://app?vid=377cd10b-673e-4421-bb84-87c2ac1df16a"},"vehicle_type_id":"4","last_reported":1685916328,"current_range_meters":31200,"station_id":"ce4bh192rcd13ifvqdc0","pricing_plan_id":"free"},{"bike_id":"b81bb189-f832-4d89-b6fc-c090d5608f89","system_id":"levelo_inurba_marseille","lat":43.27618,"lon":5.361009,"is_reserved":false,"is_disabled":false,"rental_uris":{"android":"levelo://app?vid=b81bb189-f832-4d89-b6fc-c090d5608f89","ios":"levelo://app?vid=b81bb189-f832-4d89-b6fc-c090d5608f89"},"vehicle_type_id":"4","last_reported":1685916328,"current_range_meters":8000,"station_id":"ce4bgj92rcd13ifvqbe0","pricing_plan_id":"free"},{"bike_id":"a6712b89-d487-4a8e-8db7-a8c40dcbf8b0","system_id":"levelo_inurba_marseille","lat":43.276179,"lon":5.361009,"is_reserved":false,"is_disabled":false,"rental_uris":{"android":"levelo://app?vid=a6712b89-d487-4a8e-8db7-a8c40dcbf8b0","ios":"levelo://app?vid=a6712b89-d487-4a8e-8db7-a8c40dcbf8b0"},"vehicle_type_id":"4","last_reported":1685916328,"current_range_meters":6400,"station_id":"ce4bgj92rcd13ifvqbe0","pricing_plan_id":"free"},{"bike_id":"3d50f876-29dc-4806-a2a3-f9022c193e37","system_id":"levelo_inurba_marseille","lat":43.280784,"lon":5.396622,"is_reserved":false,"is_disabled":false,"rental_uris":{"android":"levelo://app?vid=3d50f876-29dc-4806-a2a3-f9022c193e37","ios":"levelo://app?vid=3d50f876-29dc-4806-a2a3-f9022c193e37"},"vehicle_type_id":"4","last_reported":1685916328,"current_range_meters":25600,"station_id":"ce4bho12rcd13ifvqh2g","pricing_plan_id":"free"},{"bike_id":"89138b0b-a9ce-4d59-97e2-79484df9c266","system_id":"levelo_inurba_marseille","lat":43.280784,"lon":5.396622,"is_reserved":false,"is_disabled":false,"rental_uris":{"android":"levelo://app?vid=89138b0b-a9ce-4d59-97e2-79484df9c266","ios":"levelo://app?vid=89138b0b-a9ce-4d59-97e2-79484df9c266"},"vehicle_type_id":"4","last_reported":1685916328,"current_range_meters":18000,"station_id":"ce4bho12rcd13ifvqh2g","pricing_plan_id":"free"},{"bike_id":"4530ed75-080f-4210-a66b-f3cba387678d","system_id":"levelo_inurba_marseille","lat":43.280784,"lon":5.396622,"is_reserved":false,"is_disabled":false,"rental_uris":{"android":"levelo://app?vid=4530ed75-080f-4210-a66b-f3cba387678d","ios":"levelo://app?vid=4530ed75-080f-4210-a66b-f3cba387678d"},"vehicle_type_id":"4","last_reported":1685916328,"current_range_meters":0,"station_id":"ce4bho12rcd13ifvqh2g","pricing_plan_id":"free"},{"bike_id":"487f7800-7051-4a56-89c8-e5e16e3785a7","system_id":"levelo_inurba_marseille","lat":43.30355,"lon":5.41882,"is_reserved":false,"is_disabled":false,"rental_uris":{"android":"levelo://app?vid=487f7800-7051-4a56-89c8-e5e16e3785a7","ios":"levelo://app?vid=487f7800-7051-4a56-89c8-e5e16e3785a7"},"vehicle_type_id":"4","last_reported":1685916328,"current_range_meters":23600,"station_id":"","pricing_plan_id":"free"},{"bike_id":"0acfd609-1e6f-405b-b9fe-83fe0dda4774","system_id":"levelo_inurba_marseille","lat":43.278401,"lon":5.392152,"is_reserved":false,"is_disabled":false,"rental_uris":{"android":"levelo://app?vid=0acfd609-1e6f-405b-b9fe-83fe0dda4774","ios":"levelo://app?vid=0acfd609-1e6f-405b-b9fe-83fe0dda4774"},"vehicle_type_id":"4","last_reported":1685916328,"current_range_meters":12000,"station_id":"ce4bhjp2rcd13ifvqga0","pricing_plan_id":"free"},{"bike_id":"ca37dd23-a978-484d-906d-31db028c6619","system_id":"levelo_inurba_marseille","lat":43.33612,"lon":5.410321,"is_reserved":false,"is_disabled":false,"rental_uris":{"android":"levelo://app?vid=ca37dd23-a978-484d-906d-31db028c6619","ios":"levelo://app?vid=ca37dd23-a978-484d-906d-31db028c6619"},"vehicle_type_id":"4","last_reported":1685916328,"current_range_meters":29600,"station_id":"ce4bhqh2rcd13ifvqhmg","pricing_plan_id":"free"},{"bike_id":"a0ce69b6-2a99-41d3-9b06-0c60601ba64d","system_id":"levelo_inurba_marseille","lat":43.33612,"lon":5.410321,"is_reserved":false,"is_disabled":false,"rental_uris":{"android":"levelo://app?vid=a0ce69b6-2a99-41d3-9b06-0c60601ba64d","ios":"levelo://app?vid=a0ce69b6-2a99-41d3-9b06-0c60601ba64d"},"vehicle_type_id":"4","last_reported":1685916328,"current_range_meters":27600,"station_id":"ce4bhqh2rcd13ifvqhmg","pricing_plan_id":"free"},{"bike_id":"1e31b915-8e8a-4e54-b8ca-ebb05e21c605","system_id":"levelo_inurba_marseille","lat":43.33612,"lon":5.410321,"is_reserved":false,"is_disabled":false,"rental_uris":{"android":"levelo://app?vid=1e31b915-8e8a-4e54-b8ca-ebb05e21c605","ios":"levelo://app?vid=1e31b915-8e8a-4e54-b8ca-ebb05e21c605"},"vehicle_type_id":"4","last_reported":1685916328,"current_range_meters":31200,"station_id":"ce4bhqh2rcd13ifvqhmg","pricing_plan_id":"free"},{"bike_id":"40cf1e56-6019-4564-96eb-6e9ed445ba7c","system_id":"levelo_inurba_marseille","lat":43.33607,"lon":5.41031,"is_reserved":false,"is_disabled":false,"rental_uris":{"android":"levelo://app?vid=40cf1e56-6019-4564-96eb-6e9ed445ba7c","ios":"levelo://app?vid=40cf1e56-6019-4564-96eb-6e9ed445ba7c"},"vehicle_type_id":"4","last_reported":1685916328,"current_range_meters":24800,"station_id":"ce4bhqh2rcd13ifvqhmg","pricing_plan_id":"free"},{"bike_id":"4c1181ed-ab27-4a52-bc6a-0abba062fb72","system_id":"levelo_inurba_marseille","lat":43.33609,"lon":5.4103,"is_reserved":false,"is_disabled":false,"rental_uris":{"android":"levelo://app?vid=4c1181ed-ab27-4a52-bc6a-0abba062fb72","ios":"levelo://app?vid=4c1181ed-ab27-4a52-bc6a-0abba062fb72"},"vehicle_type_id":"4","last_reported":1685916328,"current_range_meters":30000,"station_id":"ce4bhqh2rcd13ifvqhmg","pricing_plan_id":"free"},{"bike_id":"9bb7a911-7a11-4ad2-80d5-074e3e17dc67","system_id":"levelo_inurba_marseille","lat":43.336134,"lon":5.410341,"is_reserved":false,"is_disabled":false,"rental_uris":{"android":"levelo://app?vid=9bb7a911-7a11-4ad2-80d5-074e3e17dc67","ios":"levelo://app?vid=9bb7a911-7a11-4ad2-80d5-074e3e17dc67"},"vehicle_type_id":"4","last_reported":1685916328,"current_range_meters":26400,"station_id":"ce4bhqh2rcd13ifvqhmg","pricing_plan_id":"free"},