{"last_updated":1734793653,"ttl":60,"version":"2.2","data":{"bikes":[{"bike_id":"9df2e55a-b74d-46b1-a906-af4457f22fef","system_id":"levelo_inurba_marseille","lat":43.28269,"lon":5.3508,"is_reserved":false,"is_disabled":true,"rental_uris":{"android":"levelo://app?vid=9df2e55a-b74d-46b1-a906-af4457f22fef","ios":"levelo://app?vid=9df2e55a-b74d-46b1-a906-af4457f22fef"},"vehicle_type_id":"4","last_reported":1734793653,"current_range_meters":0,"station_id":"ce4bhbp2rcd13ifvqerg","pricing_plan_id":"cebpf4jnsgd1na2vs0mg"},{"bike_id":"e677c306-0cac-419e-98ad-bbaa3eb77e3f","system_id":"levelo_inurba_marseille","lat":43.28609,"lon":5.37061,"is_reserved":false,"is_disabled":false,"rental_uris":{"android":"levelo://app?vid=e677c306-0cac-419e-98ad-bbaa3eb77e3f","ios":"levelo://app?vid=e677c306-0cac-419e-98ad-bbaa3eb77e3f"},"vehicle_type_id":"4","last_reported":1734793653,"current_range_meters":22400,"station_id":"ce4bht12rcd13ifvqi60","pricing_plan_id":"cebpf4jnsgd1na2vs0mg"},{"bike_id":"7084170e-170f-49a7-a4e0-83f3eaf9c7d2","system_id":"levelo_inurba_marseille","lat":43.28613,"lon":5.37067,"is_reserved":false,"is_disabled":false,"rental_uris":{"android":"levelo://app?vid=7084170e-170f-49a7-a4e0-83f3eaf9c7d2","ios":"levelo://app?vid=7084170e-170f-49a7-a4e0-83f3eaf9c7d2"},"vehicle_type_id":"4","last_reported":1734793653,"current_range_meters":30400,"station_id":"ce4bht12rcd13ifvqi60","pricing_plan_id":"cebpf4jnsgd1na2vs0mg"},{"bike_id":"23704ec6-0080-456c-8a85-dbb2807fbff2","system_id":"levelo_inurba_marseille","lat":43.29416,"lon":5.38618,"is_reserved":false,"is_disabled":false,"rental_uris":{"android":"levelo://app?vid=23704ec6-0080-456c-8a85-dbb2807fbff2","ios":"levelo://app?vid=23704ec6-0080-456c-8a85-dbb2807fbff2"},"vehicle_type_id":"4","last_reported":1734793653,"current_range_meters":3600,"station_id":"ce4bh2h2rcd13ifvqdh0","pricing_plan_id":"cebpf4jnsgd1na2vs0mg"},{"bike_id":"b2958c76-edc1-4fc3-96ff-f98506764680","system_id":"levelo_inurba_marseille","lat":43.27178,"lon":5.40995,"is_reserved":false,"is_disabled":false,"rental_uris":{"android":"levelo://app?vid=b2958c76-edc1-4fc3-96ff-f98506764680","ios":"levelo://app?vid=b2958c76-edc1-4fc3-96ff-f98506764680"},"vehicle_type_id":"4","last_reported":1734793653,"current_range_meters":28000,"station_id":"ce4bhl12rcd13ifvqgf0","pricing_plan_id":"cebpf4jnsgd1na2vs0mg"},{"bike_id":"57090c76-a588-4c1f-b8c0-2b5726d7044e","system_id":"levelo_inurba_marseille","lat":43.2846,"lon":5.38445,"is_reserved":false,"is_disabled":false,"rental_uris":{"android":"levelo://app?vid=57090c76-a588-4c1f-b8c0-2b5726d7044e","ios":"levelo://app?vid=57090c76-a588-4c1f-b8c0-2b5726d7044e"},"vehicle_type_id":"4","last_reported":1734793653,"current_range_meters":38000,"station_id":"ce4bh512rcd13ifvqe3g","pricing_plan_id":"cebpf4jnsgd1na2vs0mg"},{"bike_id":"aa496fe5-ff01-4c76-b230-91db42ff1c79","system_id":"levelo_inurba_marseille","lat":43.26938,"lon":5.40251,"is_reserved":false,"is_disabled":false,"rental_uris":{"android":"levelo://app?vid=aa496fe5-ff01-4c76-b230-91db42ff1c79","ios":"levelo://app?vid=aa496fe5-ff01-4c76-b230-91db42ff1c79"},"vehicle_type_id":"4","last_reported":1734793653,"current_range_meters":36400,"station_id":"cjm6bp8fraef2m0cb0m0","pricing_plan_id":"cebpf4jnsgd1na2vs0mg"},{"bike_id":"11e103e4-de29-4cfd-82ee-3fc18a4e5fd1","system_id":"levelo_inurba_marseille","lat":43.33732,"lon":5.39187,"is_reserved":false,"is_disabled":false,"rental_uris":{"android":"levelo://app?vid=11e103e4-de29-4cfd-82ee-3fc18a4e5fd1","ios":"levelo://app?vid=11e103e4-de29-4cfd-82ee-3fc18a4e5fd1"},"vehicle_type_id":"4","last_reported":1734793653,"current_range_meters":38000,"station_id":"ce4bhr92rcd13ifvqhsg","pricing_plan_id":"cebpf4jnsgd1na2vs0mg"},{"bike_id":"60c2770b-5058-46c1-8a5a-bebef3f8d4d5","system_id":"levelo_inurba_marseille","lat":43.29565,"lon":5.37517,"is_reserved":false,"is_disabled":false,"rental_uris":{"android":"levelo://app?vid=60c2770b-5058-46c1-8a5a-bebef3f8d4d5","ios":"levelo://app?vid=60c2770b-5058-46c1-8a5a-bebef3f8d4d5"},"vehicle_type_id":"4","last_reported":1734793653,"current_range_meters":18800,"station_id":"ce4bgh92rcd13ifvqb50","pricing_plan_id":"cebpf4jnsgd1na2vs0mg"},{"bike_id":"738bae46-acd8-4295-8414-646af7bd5823","system_id":"levelo_inurba_marseille","lat":43.27947,"lon":5.41053,"is_reserved":false,"is_disabled":false,"rental_uris":{"android":"levelo://app?vid=738bae46-acd8-4295-8414-646af7bd5823","ios":"levelo://app?vid=738bae46-acd8-4295-8414-646af7bd5823"},"vehicle_type_id":"4","last_reported":1734793653,"current_range_meters":32400,"station_id":"ce4bhnp2rcd13ifvqh0g","pricing_plan_id":"cebpf4jnsgd1na2vs0mg"},{"bike_id":"8498a8ba-4c47-4184-967b-757e28bc7f83","system_id":"levelo_inurba_marseille","lat":43.30435,"lon":5.38884,"is_reserved":false,"is_disabled":false,"rental_uris":{"android":"levelo://app?vid=8498a8ba-4c47-4184-967b-757e28bc7f83","ios":"levelo://app?vid=8498a8ba-4c47-4184-967b-757e28bc7f83"},"vehicle_type_id":"4","last_reported":1734793653,"current_range_meters":26000,"station_id":"ce4bgk12rcd13ifvqbi0","pricing_plan_id":"cebpf4jnsgd1na2vs0mg"},{"bike_id":"96f67906-c94f-4a78-ae6e-fdff28a17019","system_id":"levelo_inurba_marseille","lat":43.337444,"lon":5.374475,"is_reserved":false,"is_disabled":false,"rental_uris":{"android":"levelo://app?vid=96f67906-c94f-4a78-ae6e-fdff28a17019","ios":"levelo://app?vid=96f67906-c94f-4a78-ae6e-fdff28a17019"},"vehicle_type_id":"4","last_reported":1734793653,"current_range_meters":38400,"station_id":"","pricing_plan_id":"cebpf4jnsgd1na2vs0mg"},{"bike_id":"6d401513-66ba-4f40-af76-25e509695a78","system_id":"levelo_inurba_marseille","lat":43.29219,"lon":5.36086,"is_reserved":false,"is_disabled":false,"rental_uris":{"android":"levelo://app?vid=6d401513-66ba-4f40-af76-25e509695a78","ios":"levelo://app?vid=6d401513-66ba-4f40-af76-25e509695a78"},"vehicle_type_id":"4","last_reported":1734793653,"current_range_meters":24000,"station_id":"ce4bhbh2rcd13ifvqeqg","pricing_plan_id":"cebpf4jnsgd1na2vs0mg"},{"bike_id":"f42f783e-769a-4b80-ae8e-683f87caab35","system_id":"levelo_inurba_marseille","lat":43.29758,"lon":5.37692,"is_reserved":false,"is_disabled":false,"rental_uris":{"android":"levelo://app?vid=f42f783e-769a-4b80-ae8e-683f87caab35","ios":"levelo://app?vid=f42f783e-769a-4b80-ae8e-683f87caab35"},"vehicle_type_id":"4","last_reported":1734793653,"current_range_meters":35600,"station_id":"","pricing_plan_id":"cebpf4jnsgd1na2vs0mg"},{"bike_id":"40431b7a-e281-4e2d-91bc-d3d85515f6cd","system_id":"levelo_inurba_marseille","lat":43.29545,"lon":5.37504,"is_reserved":false,"is_disabled":false,"rental_uris":{"android":"levelo://app?vid=40431b7a-e281-4e2d-91bc-d3d85515f6cd","ios":"levelo://app?vid=40431b7a-e281-4e2d-91bc-d3d85515f6cd"},"vehicle_type_id":"4","last_reported":1734793653,"current_range_meters":27200,"station_id":"ce4bgkp2rcd13ifvqbmg","pricing_plan_id":"cebpf4jnsgd1na2vs0mg"},{"bike_id":"acb6a8a5-2e3d-49a1-9066-91da8e1d7d82","system_id":"levelo_inurba_marseille","lat":43.25496,"lon":5.37652,"is_reserved":false,"is_disabled":true,"rental_uris":{"android":"levelo://app?vid=acb6a8a5-2e3d-49a1-9066-91da8e1d7d82","ios":"levelo://app?vid=acb6a8a5-2e3d-49a1-9066-91da8e1d7d82"},"vehicle_type_id":"4","last_reported":1734793653,"current_range_meters":0,"station_id":"ce4bhh12rcd13ifvqff0","pricing_plan_id":"cebpf4jnsgd1na2vs0mg"},{"bike_id":"5481ebd9-b3a3-4db6-ba37-c92c821046b1","system_id":"levelo_inurba_marseille","lat":43.27616,"lon":5.36112,"is_reserved":false,"is_disabled":false,"rental_uris":{"android":"levelo://app?vid=5481ebd9-b3a3-4db6-ba37-c92c821046b1","ios":"levelo://app?vid=5481ebd9-b3a3-4db6-ba37-c92c821046b1"},"vehicle_type_id":"4","last_reported":1734793653,"current_range_meters":38800,"station_id":"ce4bgj92rcd13ifvqbe0","pricing_plan_id":"cebpf4jnsgd1na2vs0mg"},{"bike_id":"ac9ae62b-7f39-42e7-b9ec-75e7356640a3","system_id":"levelo_inurba_marseille","lat":43.32101,"lon":5.36766,"is_reserved":false,"is_disabled":false,"rental_uris":{"android":"levelo://app?vid=ac9ae62b-7f39-42e7-b9ec-75e7356640a3","ios":"levelo://app?vid=ac9ae62b-7f39-42e7-b9ec-75e7356640a3"},"vehicle_type_id":"4","last_reported":1734793653,"current_range_meters":27600,"station_id":"ce4bhrh2rcd13ifvqhug","pricing_plan_id":"cebpf4jnsgd1na2vs0mg"},{"bike_id":"f416262b-d820-44df-9f25-a3b7f05971a8","system_id":"levelo_inurba_marseille","lat":43.29833,"lon":5.36282,"is_reserved":false,"is_disabled":false,"rental_uris":{"android":"levelo://app?vid=f416262b-d820-44df-9f25-a3b7f05971a8","ios":"levelo://app?vid=f416262b-d820-44df-9f25-a3b7f05971a8"},"vehicle_type_id":"4","last_reported":1734793653,"current_range_meters":33600,"station_id":"ce4bgpp2rcd13ifvqc3g","pricing_plan_id":"cebpf4jnsgd1na2vs0mg"},{"bike_id":"cd70aa9f-066f-4b78-a3b0-214e7aa652b1","system_id":"levelo_inurba_marseille","lat":43.30306,"lon":5.39223,"is_reserved":false,"is_disabled":false,"rental_uris":{"android":"levelo://app?vid=cd70aa9f-066f-4b78-a3b0-214e7aa652b1","ios":"levelo://app?vid=cd70aa9f-066f-4b78-a3b0-214e7aa652b1"},"vehicle_type_id":"4","last_reported":1734793653,"current_range_meters":9200,"station_id":"ce4bgkh2rcd13ifvqbk0","pricing_plan_id":"cebpf4jnsgd1na2vs0mg"},{"bike_id":"a9d063a3-2c33-40ba-9069-89e1c37cf16f","system_id":"levelo_inurba_marseille","lat":43.32658,"lon":5.4099,"is_reserved":false,"is_disabled":false,"rental_uris":{"android":"levelo://app?vid=a9d063a3-2c33-40ba-9069-89e1c37cf16f","ios":"levelo://app?vid=a9d063a3-2c33-40ba-9069-89e1c37cf16f"},"vehicle_type_id":"4","last_reported":1734793653,"current_range_meters":36400,"station_id":"ce4bhpp2rcd13ifvqhgg","pricing_plan_id":"cebpf4jnsgd1na2vs0mg"},{"bike_id":"8c22fe11-db83-45bd-9ff8-6ec5e2657dc8","system_id":"levelo_inurba_marseille","lat":43.29804,"lon":5.40395,"is_reserved":false,"is_disabled":false,"rental_uris":{"android":"levelo://app?vid=8c22fe11-db83-45bd-9ff8-6ec5e2657dc8","ios":"levelo://app?vid=8c22fe11-db83-45bd-9ff8-6ec5e2657dc8"},"vehicle_type_id":"4","last_reported":1734793653,"current_range_meters":34000,"station_id":"ce4bh112rcd13ifvqd90","pricing_plan_id":"cebpf4jnsgd1na2vs0mg"},{"bike_id":"9264b624-9de5-495f-afae-7a84bb3e1f28","system_id":"levelo_inurba_marseille","lat":43.31217,"lon":5.36898,"is_reserved":false,"is_disabled":false,"rental_uris":{"android":"levelo://app?vid=9264b624-9de5-495f-afae-7a84bb3e1f28","ios":"levelo://app?vid=9264b624-9de5-495f-afae-7a84bb3e1f28"},"vehicle_type_id":"4","last_reported":1734793653,"current_range_meters":29600,"station_id":"ce4bgl92rcd13ifvqbq0","pricing_plan_id":"cebpf4jnsgd1na2vs0mg"},{"bike_id":"65399007-f7cb-4507-974b-daa0fb6e1a2e","system_id":"levelo_inurba_marseille","lat":43.27208,"lon":5.3916,"is_reserved":false,"is_disabled":false,"rental_uris":{"android":"levelo://app?vid=65399007-f7cb-4507-974b-daa0fb6e1a2e","ios":"levelo://app?vid=65399007-f7cb-4507-974b-daa0fb6e1a2e"},"vehicle_type_id":"4","last_reported":1734793653,"current_range_meters":39200,"station_id":"ce4bhhp2rcd13ifvqfm0","pricing_plan_id":"cebpf4jnsgd1na2vs0mg"},{"bike_id":"710cbb4b-92a3-4fcb-a674-51cdb538a062","system_id":"levelo_inurba_marseille","lat":43.26058,"lon":5.39406,"is_reserved":false,"is_disabled":true,"rental_uris":{"android":"levelo://app?vid=710cbb4b-92a3-4fcb-a674-51cdb538a062","ios":"levelo://app?vid=710cbb4b-92a3-4fcb-a674-51cdb538a062"},"vehicle_type_id":"4","last_reported":1734793653,"current_range_meters":38000,"station_id":"ce4bhh92rcd13ifvqfj0","pricing_plan_id":"cebpf4jnsgd1na2vs0mg"},{"bike_id":"23f16abf-578e-4675-bdf8-d9e4d0b0f6ae","system_id":"levelo_inurba_marseille","lat":43.31217,"lon":5.36858,"is_reserved":false,"is_disabled":false,"rental_uris":{"android":"levelo://app?vid=23f16abf-578e-4675-bdf8-d9e4d0b0f6ae","ios":"levelo://app?vid=23f16abf-578e-4675-bdf8-d9e4d0b0f6ae"},"vehicle_type_id":"4","last_reported":1734793653,"current_range_meters":12000,"station_id":"ce4bgl92rcd13ifvqbq0","pricing_plan_id":"cebpf4jnsgd1na2vs0mg"},{"bike_id":"25f582da-80bb-46cd-988d-abd13b13594a","system_id":"levelo_inurba_marseille","lat":43.26061,"lon":5.39401,"is_reserved":false,"is_disabled":false,"rental_uris":{"android":"levelo://app?vid=25f582da-80bb-46cd-988d-abd13b13594a","ios":"levelo://app?vid=25f582da-80bb-46cd-988d-abd13b13594a"},"vehicle_type_id":"4","last_reported":1734793653,"current_range_meters":22400,"station_id":"ce4bhh92rcd13ifvqfj0","pricing_plan_id":"cebpf4jnsgd1na2vs0mg"},{"bike_id":"f810d843-5102-4b08-bab4-9f6abb0ec6c0","system_id":"levelo_inurba_marseille","lat":43.25498,"lon":5.37649,"is_reserved":false,"is_disabled":false,"rental_uris":{"android":"levelo://app?vid=f810d843-5102-4b08-bab4-9f6abb0ec6c0","ios":"levelo://app?vid=f810d843-5102-4b08-bab4-9f6abb0ec6c0"},"vehicle_type_id":"4","last_reported":1734793653,"current_range_meters":20000,"station_id":"ce4bhh12rcd13ifvqff0","pricing_plan_id":"cebpf4jnsgd1na2vs0mg"},{"bike_id":"dd52cea9-6fe3-460c-a4fc-255f18d6f38c","system_id":"levelo_inurba_marseille","lat":43.25,"lon":5.38917,"is_reserved":false,"is_disabled":false,"rental_uris":{"android":"levelo://app?vid=dd52cea9-6fe3-460c-a4fc-255f18d6f38c","ios":"levelo://app?vid=dd52cea9-6fe3-460c-a4fc-255f18d6f38c"},"vehicle_type_id":"4","last_reported":1734793653,"current_range_meters":25600,"station_id":"ce4bhgp2rcd13ifvqfd0","pricing_plan_id":"cebpf4jnsgd1na2vs0mg"},{"bike_id":"923203be-81e9-4bac-baed-4fd99bc3f450","system_id":"levelo_inurba_marseille","lat":43.29581,"lon":5.37506,"is_reserved":false,"is_disabled":false,"rental_uris":{"android":"levelo://app?vid=923203be-81e9-4bac-baed-4fd99bc3f450","ios":"levelo://app?vid=923203be-81e9-4bac-baed-4fd99bc3f450"},"vehicle_type_id":"4","last_reported":1734793653,"current_range_meters":26800,"station_id":"ce4bgh92rcd13ifvqb50","pricing_plan_id":"cebpf4jnsgd1na2vs0mg"},{"bike_id":"7896e178-d523-4462-a9aa-a351a1112e49","system_id":"levelo_inurba_marseille","lat":43.27076,"lon":5.42281,"is_reserved":false,"is_disabled":false,"rental_uris":{"android":"levelo://app?vid=7896e178-d523-4462-a9aa-a351a1112e49","ios":"levelo://app?vid=7896e178-d523-4462-a9aa-a351a1112e49"},"vehicle_type_id":"4","last_reported":1734793653,"current_range_meters":28400,"station_id":"ce4bhk92rcd13ifvqgb0","pricing_plan_id":"cebpf4jnsgd1na2vs0mg"},{"bike_id":"fbf3da40-6db3-4b0a-ba01-e3b05174c03a","system_id":"levelo_inurba_marseille","lat":43.28265,"lon":5.35062,"is_reserved":false,"is_disabled":false,"rental_uris":{"android":"levelo://app?vid=fbf3da40-6db3-4b0a-ba01-e3b05174c03a","ios":"levelo://app?vid=fbf3da40-6db3-4b0a-ba01-e3b05174c03a"},"vehicle_type_id":"4","last_reported":1734793653,"current_range_meters":38800,"station_id":"ce4bhbp2rcd13ifvqerg","pricing_plan_id":"cebpf4jnsgd1na2vs0mg"},{"bike_id":"c9daacae-79a8-4a54-9f99-f1056ebfdaf4","system_id":"levelo_inurba_marseille","lat":43.25499,"lon":5.37648,"is_reserved":false,"is_disabled":true,"rental_uris":{"android":"levelo://app?vid=c9daacae-79a8-4a54-9f99-f1056ebfdaf4","ios":"levelo://app?vid=c9daacae-79a8-4a54-9f99-f1056ebfdaf4"},"vehicle_type_id":"4","last_reported":1734793653,"current_range_meters":0,"station_id":"ce4bhh12rcd13ifvqff0","pricing_plan_id":"cebpf4jnsgd1na2vs0mg"},{"bike_id":"1f265f2c-c3ce-4530-9858-4eca3d9e00e1","system_id":"levelo_inurba_marseille","lat":43.23195,"lon":5.39983,"is_reserved":false,"is_disabled":false,"rental_uris":{"android":"levelo://app?vid=1f265f2c-c3ce-4530-9858-4eca3d9e00e1","ios":"levelo://app?vid=1f265f2c-c3ce-4530-9858-4eca3d9e00e1"},"vehicle_type_id":"4","last_reported":1734793653,"current_range_meters":10000,"station_id":"ce4bhn12rcd13ifvqgqg","pricing_plan_id":"cebpf4jnsgd1na2vs0mg"},{"bike_id":"76a77576-acfb-4c00-8f3c-a27520471628","system_id":"levelo_inurba_marseille","lat":43.30881,"lon":5.39642,"is_reserved":false,"is_disabled":false,"rental_uris":{"android":"levelo://app?vid=76a77576-acfb-4c00-8f3c-a27520471628","ios":"levelo://app?vid=76a77576-acfb-4c00-8f3c-a27520471628"},"vehicle_type_id":"4","last_reported":1734793653,"current_range_meters":17200,"station_id":"ce4bh012rcd13ifvqcv0","pricing_plan_id":"cebpf4jnsgd1na2vs0mg"},{"bike_id":"2d2b8442-2c3a-4d1f-9454-1ca9acb5ac55","system_id":"levelo_inurba_marseille","lat":43.29537,"lon":5.37504,"is_reserved":false,"is_disabled":false,"rental_uris":{"android":"levelo://app?vid=2d2b8442-2c3a-4d1f-9454-1ca9acb5ac55","ios":"levelo://app?vid=2d2b8442-2c3a-4d1f-9454-1ca9acb5ac55"},"vehicle_type_id":"4","last_reported":1734793653,"current_range_meters":11600,"station_id":"ce4bgkp2rcd13ifvqbmg","pricing_plan_id":"cebpf4jnsgd1na2vs0mg"},{"bike_id":"523697cd-8684-4343-bd9c-3aae0aed004a","system_id":"levelo_inurba_marseille","lat":43.30544,"lon":5.36535,"is_reserved":false,"is_disabled":false,"rental_uris":{"android":"levelo://app?vid=523697cd-8684-4343-bd9c-3aae0aed004a","ios":"levelo://app?vid=523697cd-8684-4343-bd9c-3aae0aed004a"},"vehicle_type_id":"4","last_reported":1734793653,"current_range_meters":26800,"station_id":"ce4bgs12rcd13ifvqcag","pricing_plan_id":"cebpf4jnsgd1na2vs0mg"},{"bike_id":"b6c864b4-2d74-4843-a929-10118d9d48af","system_id":"levelo_inurba_marseille","lat":43.25497,"lon":5.37653,"is_reserved":false,"is_disabled":false,"rental_uris":{"android":"levelo://app?vid=b6c864b4-2d74-4843-a929-10118d9d48af","ios":"levelo://app?vid=b6c864b4-2d74-4843-a929-10118d9d48af"},"vehicle_type_id":"4","last_reported":1734793653,"current_range_meters":30000,"station_id":"ce4bhh12rcd13ifvqff0","pricing_plan_id":"cebpf4jnsgd1na2vs0mg"},{"bike_id":"e724f4e5-0922-4e36-91f4-8a4c9d514ff5","system_id":"levelo_inurba_marseille","lat":43.29847,"lon":5.36261,"is_reserved":false,"is_disabled":false,"rental_uris":{"android":"levelo://app?vid=e724f4e5-0922-4e36-91f4-8a4c9d514ff5","ios":"levelo://app?vid=e724f4e5-0922-4e36-91f4-8a4c9d514ff5"},"vehicle_type_id":"4","last_reported":1734793653,"current_range_meters":38800,"station_id":"ce4bgpp2rcd13ifvqc3g","pricing_plan_id":"cebpf4jnsgd1na2vs0mg"},{"bike_id":"abf860be-3d3d-4a76-b353-f7286e2856a9","system_id":"levelo_inurba_marseille","lat":43.27617,"lon":5.36125,"is_reserved":false,"is_disabled":false,"rental_uris":{"android":"levelo://app?vid=abf860be-3d3d-4a76-b353-f7286e2856a9","ios":"levelo://app?vid=abf860be-3d3d-4a76-b353-f7286e2856a9"},"vehicle_type_id":"4","last_reported":1734793653,"current_range_meters":22800,"station_id":"ce4bgj92rcd13ifvqbe0","pricing_plan_id":"cebpf4jnsgd1na2vs0mg"},{"bike_id":"7e577efa-ad7b-4159-aa14-2376d4395d6f","system_id":"levelo_inurba_marseille","lat":43.29615,"lon":5.37725,"is_reserved":false,"is_disabled":false,"rental_uris":{"android":"levelo://app?vid=7e577efa-ad7b-4159-aa14-2376d4395d6f","ios":"levelo://app?vid=7e577efa-ad7b-4159-aa14-2376d4395d6f"},"vehicle_type_id":"4","last_reported":1734793653,"current_range_meters":20800,"station_id":"ce4bgi92rcd13ifvqb90","pricing_plan_id":"cebpf4jnsgd1na2vs0mg"},{"bike_id":"d98f0b8a-1ef4-43b4-85a1-12b00b5f4de1","system_id":"levelo_inurba_marseille","lat":43.28429,"lon":5.35002,"is_reserved":false,"is_disabled":false,"rental_uris":{"android":"levelo://app?vid=d98f0b8a-1ef4-43b4-85a1-12b00b5f4de1","ios":"levelo://app?vid=d98f0b8a-1ef4-43b4-85a1-12b00b5f4de1"},"vehicle_type_id":"4","last_reported":1734793653,"current_range_meters":38800,"station_id":"ce4bhbh2rcd13ifvqepg","pricing_plan_id":"cebpf4jnsgd1na2vs0mg"},{"bike_id":"dfb361fe-f637-4041-b1c6-d571444472cc","system_id":"levelo_inurba_marseille","lat":43.33033,"lon":5.39044,"is_reserved":false,"is_disabled":false,"rental_uris":{"android":"levelo://app?vid=dfb361fe-f637-4041-b1c6-d571444472cc","ios":"levelo://app?vid=dfb361fe-f637-4041-b1c6-d571444472cc"},"vehicle_type_id":"4","last_reported":1734793653,"current_range_meters":37600,"station_id":"ce4bhr92rcd13ifvqhrg","pricing_plan_id":"cebpf4jnsgd1na2vs0mg"},{"bike_id":"fbd179ce-8bca-4ab9-8cde-4cb175f13b2a","system_id":"levelo_inurba_marseille","lat":43.29034,"lon":5.37577,"is_reserved":false,"is_disabled":false,"rental_uris":{"android":"levelo://app?vid=fbd179ce-8bca-4ab9-8cde-4cb175f13b2a","ios":"levelo://app?vid=fbd179ce-8bca-4ab9-8cde-4cb175f13b2a"},"vehicle_type_id":"4","last_reported":1734793653,"current_range_meters":30400,"station_id":"ce4bh692rcd13ifvqe90","pricing_plan_id":"cebpf4jnsgd1na2vs0mg"},{"bike_id":"9cc6fd29-b873-4d34-aa08-bc39e26aeba5","system_id":"levelo_inurba_marseille","lat":43.286,"lon":5.37052,"is_reserved":false,"is_disabled":false,"rental_uris":{"android":"levelo://app?vid=9cc6fd29-b873-4d34-aa08-bc39e26aeba5","ios":"levelo://app?vid=9cc6fd29-b873-4d34-aa08-bc39e26aeba5"},"vehicle_type_id":"4","last_reported":1734793653,"current_range_meters":16800,"station_id":"ce4bht12rcd13ifvqi60","pricing_plan_id":"cebpf4jnsgd1na2vs0mg"},{"bike_id":"59ca2ebc-7c6f-439a-a11b-02933f88209e","system_id":"levelo_inurba_marseille","lat":43.27073,"lon":5.42287,"is_reserved":false,"is_disabled":false,"rental_uris":{"android":"levelo://app?vid=59ca2ebc-7c6f-439a-a11b-02933f88209e","ios":"levelo://app?vid=59ca2ebc-7c6f-439a-a11b-02933f88209e"},"vehicle_type_id":"4","last_reported":1734793653,"current_range_meters":36800,"station_id":"ce4bhk92rcd13ifvqgb0","pricing_plan_id":"cebpf4jnsgd1na2vs0mg"},{"bike_id":"7ec2e082-9a40-4719-bfaf-9cc7e2f0ff4c","system_id":"levelo_inurba_marseille","lat":43.27934,"lon":5.41045,"is_reserved":false,"is_disabled":false,"rental_uris":{"android":"levelo://app?vid=7ec2e082-9a40-4719-bfaf-9cc7e2f0ff4c","ios":"levelo://app?vid=7ec2e082-9a40-4719-bfaf-9cc7e2f0ff4c"},"vehicle_type_id":"4","last_reported":1734793653,"current_range_meters":6800,"station_id":"ce4bhnp2rcd13ifvqh0g","pricing_plan_id":"cebpf4jnsgd1na2vs0mg"},{"bike_id":"6a03fd08-5018-4fbb-b6ab-d794b1fc20c8","system_id":"levelo_inurba_marseille","lat":43.29535,"lon":5.37501,"is_reserved":false,"is_disabled":false,"rental_uris":{"android":"levelo://app?vid=6a03fd08-5018-4fbb-b6ab-d794b1fc20c8","ios":"levelo://app?vid=6a03fd08-5018-4fbb-b6ab-d794b1fc20c8"},"vehicle_type_id":"4","last_reported":1734793653,"current_range_meters":12800,"station_id":"ce4bgkp2rcd13ifvqbmg","pricing_plan_id":"cebpf4jnsgd1na2vs0mg"},{"bike_id":"18b3f870-bfe7-4396-81e5-34ed6ada0d75","system_id":"levelo_inurba_marseille","lat":43.30153,"lon":5.38083,"is_reserved":false,"is_disabled":false,"rental_uris":{"android":"levelo://app?vid=18b3f870-bfe7-4396-81e5-34ed6ada0d75","ios":"levelo://app?vid=18b3f870-bfe7-4396-81e5-34ed6ada0d75"},"vehicle_type_id":"4","last_reported":1734793653,"current_range_meters":38800,"station_id":"ce4bgjp2rcd13ifvqbh0","pricing_plan_id":"cebpf4jnsgd1na2vs0mg"},{"bike_id":"ebf4f747-e93e-4b10-8f31-75332a0ff205","system_id":"levelo_inurba_marseille","lat":43.28934,"lon":5.39631,"is_reserved":false,"is_disabled":false,"rental_uris":{"android":"levelo://app?vid=ebf4f747-e93e-4b10-8f31-75332a0ff205","ios":"levelo://app?vid=ebf4f747-e93e-4b10-8f31-75332a0ff205"},"vehicle_type_id":"4","last_reported":1734793653,"current_range_meters":38800,"station_id":"ce4bh3h2rcd13ifvqdn0","pricing_plan_id":"cebpf4jnsgd1na2vs0mg"},{"bike_id":"02cfe2ea-01ed-413e-a99a-aa6a17d2d39a","system_id":"levelo_inurba_marseille","lat":43.30104,"lon":5.39068,"is_reserved":false,"is_disabled":false,"rental_uris":{"android":"levelo://app?vid=02cfe2ea-01ed-413e-a99a-aa6a17d2d39a","ios":"levelo://app?vid=02cfe2ea-01ed-413e-a99a-aa6a17d2d39a"},"vehicle_type_id":"4","last_reported":1734793653,"current_range_meters":19600,"station_id":"ce4bh192rcd13ifvqdb0","pricing_plan_id":"cebpf4jnsgd1na2vs0mg"},{"bike_id":"807183f4-577e-496a-b65c-73c07176fcd4","system_id":"levelo_inurba_marseille","lat":43.29624,"lon":5.37168,"is_reserved":false,"is_disabled":false,"rental_uris":{"android":"levelo://app?vid=807183f4-577e-496a-b65c-73c07176fcd4","ios":"levelo://app?vid=807183f4-577e-496a-b65c-73c07176fcd4"},"vehicle_type_id":"4","last_reported":1734793653,"current_range_meters":38400,"station_id":"ce4bgnh2rcd13ifvqc0g","pricing_plan_id":"cebpf4jnsgd1na2vs0mg"},{"bike_id":"5de55ec3-b446-45b5-9e6a-b67b9996a2b3","system_id":"levelo_inurba_marseille","lat":43.27306,"lon":5.3911,"is_reserved":false,"is_disabled":true,"rental_uris":{"android":"levelo://app?vid=5de55ec3-b446-45b5-9e6a-b67b9996a2b3","ios":"levelo://app?vid=5de55ec3-b446-45b5-9e6a-b67b9996a2b3"},"vehicle_type_id":"4","last_reported":1734793653,"current_range_meters":36800,"station_id":"ce4bhgp2rcd13ifvqfe0","pricing_plan_id":"cebpf4jnsgd1na2vs0mg"},{"bike_id":"ceca975b-b342-4918-8353-e4cd51aebfcc","system_id":"levelo_inurba_marseille","lat":43.28622,"lon":5.35106,"is_reserved":false,"is_disabled":false,"rental_uris":{"android":"levelo://app?vid=ceca975b-b342-4918-8353-e4cd51aebfcc","ios":"levelo://app?vid=ceca975b-b342-4918-8353-e4cd51aebfcc"},"vehicle_type_id":"4","last_reported":1734793653,"current_range_meters":38800,"station_id":"ce4bhch2rcd13ifvqeug","pricing_plan_id":"cebpf4jnsgd1na2vs0mg"},{"bike_id":"2cf370b3-a85e-46b0-abf1-dc57eca3e99b","system_id":"levelo_inurba_marseille","lat":43.26791,"lon":5.3941,"is_reserved":false,"is_disabled":false,"rental_uris":{"android":"levelo://app?vid=2cf370b3-a85e-46b0-abf1-dc57eca3e99b","ios":"levelo://app?vid=2cf370b3-a85e-46b0-abf1-dc57eca3e99b"},"vehicle_type_id":"4","last_reported":1734793653,"current_range_meters":20000,"station_id":"ce4bhh12rcd13ifvqfg0","pricing_plan_id":"cebpf4jnsgd1na2vs0mg"},{"bike_id":"85225762-d7ec-4912-87cf-30f56fc88559","system_id":"levelo_inurba_marseille","lat":43.2922,"lon":5.36062,"is_reserved":false,"is_disabled":false,"rental_uris":{"android":"levelo://app?vid=85225762-d7ec-4912-87cf-30f56fc88559","ios":"levelo://app?vid=85225762-d7ec-4912-87cf-30f56fc88559"},"vehicle_type_id":"4","last_reported":1734793653,"current_range_meters":16000,"station_id":"ce4bhbh2rcd13ifvqeqg","pricing_plan_id":"cebpf4jnsgd1na2vs0mg"},{"bike_id":"6c9a68f2-5504-4013-852e-e7f861a1f8c6","system_id":"levelo_inurba_marseille","lat":43.26499,"lon":5.39548,"is_reserved":false,"is_disabled":false,"rental_uris":{"android":"levelo://app?vid=6c9a68f2-5504-4013-852e-e7f861a1f8c6","ios":"levelo://app?vid=6c9a68f2-5504-4013-852e-e7f861a1f8c6"},"vehicle_type_id":"4","last_reported":1734793653,"current_range_meters":37600,"station_id":"ce4bhi12rcd13ifvqfq0","pricing_plan_id":"cebpf4jnsgd1na2vs0mg"},{"bike_id":"9ee4e120-058f-4bb2-b650-b911e816b650","system_id":"levelo_inurba_marseille","lat":43.27996,"lon":5.40009,"is_reserved":false,"is_disabled":false,"rental_uris":{"android":"levelo://app?vid=9ee4e120-058f-4bb2-b650-b911e816b650","ios":"levelo://app?vid=9ee4e120-058f-4bb2-b650-b911e816b650"},"vehicle_type_id":"4","last_reported":1734793653,"current_range_meters":28800,"station_id":"ce4bho92rcd13ifvqh4g","pricing_plan_id":"cebpf4jnsgd1na2vs0mg"},{"bike_id":"e4d003f4-a0b6-439d-8250-80e900bd2cc7","system_id":"levelo_inurba_marseille","lat":43.31883,"lon":5.40734,"is_reserved":false,"is_disabled":false,"rental_uris":{"android":"levelo://app?vid=e4d003f4-a0b6-439d-8250-80e900bd2cc7","ios":"levelo://app?vid=e4d003f4-a0b6-439d-8250-80e900bd2cc7"},"vehicle_type_id":"4","last_reported":1734793653,"current_range_meters":37600,"station_id":"ce4bhq12rcd13ifvqhig","pricing_plan_id":"cebpf4jnsgd1na2vs0mg"},{"bike_id":"d1985a28-de3f-4de8-8223-adb22deb4411","system_id":"levelo_inurba_marseille","lat":43.30162,"lon":5.38089,"is_reserved":false,"is_disabled":false,"rental_uris":{"android":"levelo://app?vid=d1985a28-de3f-4de8-8223-adb22deb4411","ios":"levelo://app?vid=d1985a28-de3f-4de8-8223-adb22deb4411"},"vehicle_type_id":"4","last_reported":1734793653,"current_range_meters":32400,"station_id":"ce4bgjp2rcd13ifvqbh0","pricing_plan_id":"cebpf4jnsgd1na2vs0mg"},{"bike_id":"6dc6694c-e80f-4778-9813-70fc7e438103","system_id":"levelo_inurba_marseille","lat":43.27431,"lon":5.39408,"is_reserved":false,"is_disabled":false,"rental_uris":{"android":"levelo://app?vid=6dc6694c-e80f-4778-9813-70fc7e438103","ios":"levelo://app?vid=6dc6694c-e80f-4778-9813-70fc7e438103"},"vehicle_type_id":"4","last_reported":1734793653,"current_range_meters":25200,"station_id":"ce4bhdp2rcd13ifvqf20","pricing_plan_id":"cebpf4jnsgd1na2vs0mg"},{"bike_id":"6f3c8a5c-ada2-4481-883e-ec9ac01d5493","system_id":"levelo_inurba_marseille","lat":43.2826,"lon":5.35085,"is_reserved":false,"is_disabled":false,"rental_uris":{"android":"levelo://app?vid=6f3c8a5c-ada2-4481-883e-ec9ac01d5493","ios":"levelo://app?vid=6f3c8a5c-ada2-4481-883e-ec9ac01d5493"},"vehicle_type_id":"4","last_reported":1734793653,"current_range_meters":6400,"station_id":"ce4bhbp2rcd13ifvqerg","pricing_plan_id":"cebpf4jnsgd1na2vs0mg"},{"bike_id":"e923bd7f-ed5b-418c-97f7-54c3e0c9abef","system_id":"levelo_inurba_marseille","lat":43.29709,"lon":5.37695,"is_reserved":false,"is_disabled":false,"rental_uris":{"android":"levelo://app?vid=e923bd7f-ed5b-418c-97f7-54c3e0c9abef","ios":"levelo://app?vid=e923bd7f-ed5b-418c-97f7-54c3e0c9abef"},"vehicle_type_id":"4","last_reported":1734793653,"current_range_meters":28000,"station_id":"ce4bgkh2rcd13ifvqbl0","pricing_plan_id":"cebpf4jnsgd1na2vs0mg"},{"bike_id":"52a88488-4dd2-4f03-9384-f060d17bb6f5","system_id":"levelo_inurba_marseille","lat":43.25868,"lon":5.399,"is_reserved":false,"is_disabled":true,"rental_uris":{"android":"levelo://app?vid=52a88488-4dd2-4f03-9384-f060d17bb6f5","ios":"levelo://app?vid=52a88488-4dd2-4f03-9384-f060d17bb6f5"},"vehicle_type_id":"4","last_reported":1734793653,"current_range_meters":0,"station_id":"ce4bhl92rcd13ifvqghg","pricing_plan_id":"cebpf4jnsgd1na2vs0mg"},{"bike_id":"720d4dfc-db62-4d98-83af-51ccf736ad84","system_id":"levelo_inurba_marseille","lat":43.2961,"lon":5.37709,"is_reserved":false,"is_disabled":false,"rental_uris":{"android":"levelo://app?vid=720d4dfc-db62-4d98-83af-51ccf736ad84","ios":"levelo://app?vid=720d4dfc-db62-4d98-83af-51ccf736ad84"},"vehicle_type_id":"4","last_reported":1734793653,"current_range_meters":31200,"station_id":"ce4bgi92rcd13ifvqb90","pricing_plan_id":"cebpf4jnsgd1na2vs0mg"},{"bike_id":"0a6e2767-ecd8-4159-9104-04d34208e4d6","system_id":"levelo_inurba_marseille","lat":43.29727,"lon":5.37684,"is_reserved":false,"is_disabled":false,"rental_uris":{"android":"levelo://app?vid=0a6e2767-ecd8-4159-9104-04d34208e4d6","ios":"levelo://app?vid=0a6e2767-ecd8-4159-9104-04d34208e4d6"},"vehicle_type_id":"4","last_reported":1734793653,"current_range_meters":38800,"station_id":"ce4bgkh2rcd13ifvqbl0","pricing_plan_id":"cebpf4jnsgd1na2vs0mg"},{"bike_id":"2ecd7a5c-6b03-4906-a193-c1bc16b7668c","system_id":"levelo_inurba_marseille","lat":43.30227,"lon":5.40055,"is_reserved":false,"is_disabled":true,"rental_uris":{"android":"levelo://app?vid=2ecd7a5c-6b03-4906-a193-c1bc16b7668c","ios":"levelo://app?vid=2ecd7a5c-6b03-4906-a193-c1bc16b7668c"},"vehicle_type_id":"4","last_reported":1734793653,"current_range_meters":38800,"station_id":"","pricing_plan_id":"cebpf4jnsgd1na2vs0mg"},{"bike_id":"782bcbf2-b7de-4b04-bebc-aaa0329dd90c","system_id":"levelo_inurba_marseille","lat":43.2319,"lon":5.35558,"is_reserved":false,"is_disabled":false,"rental_uris":{"android":"levelo://app?vid=782bcbf2-b7de-4b04-bebc-aaa0329dd90c","ios":"levelo://app?vid=782bcbf2-b7de-4b04-bebc-aaa0329dd90c"},"vehicle_type_id":"4","last_reported":1734793653,"current_range_meters":30800,"station_id":"ce4bhu92rcd13ifvqi70","pricing_plan_id":"cebpf4jnsgd1na2vs0mg"},{"bike_id":"0b8d43aa-0c62-480d-a4f3-2ae8c0c6f8f0","system_id":"levelo_inurba_marseille","lat":43.29538,"lon":5.37502,"is_reserved":false,"is_disabled":false,"rental_uris":{"android":"levelo://app?vid=0b8d43aa-0c62-480d-a4f3-2ae8c0c6f8f0","ios":"levelo://app?vid=0b8d43aa-0c62-480d-a4f3-2ae8c0c6f8f0"},"vehicle_type_id":"4","last_reported":1734793653,"current_range_meters":30800,"station_id":"ce4bgkp2rcd13ifvqbmg","pricing_plan_id":"cebpf4jnsgd1na2vs0mg"},{"bike_id":"3bc9d7e3-29bb-4adc-9c94-43ca8a069539","system_id":"levelo_inurba_marseille","lat":43.27374,"lon":5.36262,"is_reserved":false,"is_disabled":false,"rental_uris":{"android":"levelo://app?vid=3bc9d7e3-29bb-4adc-9c94-43ca8a069539","ios":"levelo://app?vid=3bc9d7e3-29bb-4adc-9c94-43ca8a069539"},"vehicle_type_id":"4","last_reported":1734793653,"current_range_meters":26800,"station_id":"ce4bhbh2rcd13ifvqeo0","pricing_plan_id":"cebpf4jnsgd1na2vs0mg"},{"bike_id":"f2fddecf-aacc-43b9-984c-e21269354d44","system_id":"levelo_inurba_marseille","lat":43.25498,"lon":5.37649,"is_reserved":false,"is_disabled":false,"rental_uris":{"android":"levelo://app?vid=f2fddecf-aacc-43b9-984c-e21269354d44","ios":"levelo://app?vid=f2fddecf-aacc-43b9-984c-e21269354d44"},"vehicle_type_id":"4","last_reported":1734793653,"current_range_meters":38800,"station_id":"ce4bhh12rcd13ifvqff0","pricing_plan_id":"cebpf4jnsgd1na2vs0mg"},{"bike_id":"e00ea5f7-b1ab-4b3d-9e1a-7e6646ecddde","system_id":"levelo_inurba_marseille","lat":43.28495,"lon":5.38453,"is_reserved":false,"is_disabled":false,"rental_uris":{"android":"levelo://app?vid=e00ea5f7-b1ab-4b3d-9e1a-7e6646ecddde","ios":"levelo://app?vid=e00ea5f7-b1ab-4b3d-9e1a-7e6646ecddde"},"vehicle_type_id":"4","last_reported":1734793653,"current_range_meters":6400,"station_id":"ce4bh512rcd13ifvqe3g","pricing_plan_id":"cebpf4jnsgd1na2vs0mg"},{"bike_id":"12115ac6-cbd6-4544-869d-22ca2914073f","system_id":"levelo_inurba_marseille","lat":43.28439,"lon":5.39201,"is_reserved":false,"is_disabled":false,"rental_uris":{"android":"levelo://app?vid=12115ac6-cbd6-4544-869d-22ca2914073f","ios":"levelo://app?vid=12115ac6-cbd6-4544-869d-22ca2914073f"},"vehicle_type_id":"4","last_reported":1734793653,"current_range_meters":38000,"station_id":"ce4bhoh2rcd13ifvqh5g","pricing_plan_id":"cebpf4jnsgd1na2vs0mg"},{"bike_id":"35325136-ba50-4a03-a961-ec049678dc79","system_id":"levelo_inurba_marseille","lat":43.24809,"lon":5.37457,"is_reserved":false,"is_disabled":false,"rental_uris":{"android":"levelo://app?vid=35325136-ba50-4a03-a961-ec049678dc79","ios":"levelo://app?vid=35325136-ba50-4a03-a961-ec049678dc79"},"vehicle_type_id":"4","last_reported":1734793653,"current_range_meters":30000,"station_id":"ce4bhgh2rcd13ifvqfb0","pricing_plan_id":"cebpf4jnsgd1na2vs0mg"},{"bike_id":"2cc52980-941f-41ef-85e8-3dad0f5327dc","system_id":"levelo_inurba_marseille","lat":43.27075,"lon":5.4228,"is_reserved":false,"is_disabled":false,"rental_uris":{"android":"levelo://app?vid=2cc52980-941f-41ef-85e8-3dad0f5327dc","ios":"levelo://app?vid=2cc52980-941f-41ef-85e8-3dad0f5327dc"},"vehicle_type_id":"4","last_reported":1734793653,"current_range_meters":28000,"station_id":"ce4bhk92rcd13ifvqgb0","pricing_plan_id":"cebpf4jnsgd1na2vs0mg"},{"bike_id":"e1e55b34-0cc8-42c6-b9d9-a442d6ab0cd4","system_id":"levelo_inurba_marseille","lat":43.23181,"lon":5.39995,"is_reserved":false,"is_disabled":false,"rental_uris":{"android":"levelo://app?vid=e1e55b34-0cc8-42c6-b9d9-a442d6ab0cd4","ios":"levelo://app?vid=e1e55b34-0cc8-42c6-b9d9-a442d6ab0cd4"},"vehicle_type_id":"4","last_reported":1734793653,"current_range_meters":25600,"station_id":"ce4bhn12rcd13ifvqgqg","pricing_plan_id":"cebpf4jnsgd1na2vs0mg"},{"bike_id":"b67e6347-c993-4186-b85c-1f54c9e75564","system_id":"levelo_inurba_marseille","lat":43.27549,"lon":5.38448,"is_reserved":false,"is_disabled":false,"rental_uris":{"android":"levelo://app?vid=b67e6347-c993-4186-b85c-1f54c9e75564","ios":"levelo://app?vid=b67e6347-c993-4186-b85c-1f54c9e75564"},"vehicle_type_id":"4","last_reported":1734793653,"current_range_meters":38800,"station_id":"ce4bhh92rcd13ifvqfi0","pricing_plan_id":"cebpf4jnsgd1na2vs0mg"},{"bike_id":"a5404b43-1f8d-4cf3-a071-fce93c8325c1","system_id":"levelo_inurba_marseille","lat":43.27057,"lon":5.40257,"is_reserved":false,"is_disabled":false,"rental_uris":{"android":"levelo://app?vid=a5404b43-1f8d-4cf3-a071-fce93c8325c1","ios":"levelo://app?vid=a5404b43-1f8d-4cf3-a071-fce93c8325c1"},"vehicle_type_id":"4","last_reported":1734793653,"current_range_meters":27200,"station_id":"ce4bhk92rcd13ifvqgc0","pricing_plan_id":"cebpf4jnsgd1na2vs0mg"},{"bike_id":"0312043b-97f9-41f5-9ad1-d115dbdf7fd1","system_id":"levelo_inurba_marseille","lat":43.30332,"lon":5.40446,"is_reserved":false,"is_disabled":false,"rental_uris":{"android":"levelo://app?vid=0312043b-97f9-41f5-9ad1-d115dbdf7fd1","ios":"levelo://app?vid=0312043b-97f9-41f5-9ad1-d115dbdf7fd1"},"vehicle_type_id":"4","last_reported":1734793653,"current_range_meters":38800,"station_id":"ce4bh012rcd13ifvqd10","pricing_plan_id":"cebpf4jnsgd1na2vs0mg"},{"bike_id":"44127e4e-8e84-4a38-89f7-8f4efb63f7a5","system_id":"levelo_inurba_marseille","lat":43.31191,"lon":5.36743,"is_reserved":false,"is_disabled":true,"rental_uris":{"android":"levelo://app?vid=44127e4e-8e84-4a38-89f7-8f4efb63f7a5","ios":"levelo://app?vid=44127e4e-8e84-4a38-89f7-8f4efb63f7a5"},"vehicle_type_id":"4","last_reported":1734793653,"current_range_meters":0,"station_id":"","pricing_plan_id":"cebpf4jnsgd1na2vs0mg"},{"bike_id":"592df7ea-e0d5-4468-9dfc-a545f6dc0e22","system_id":"levelo_inurba_marseille","lat":43.31362,"lon":5.36725,"is_reserved":false,"is_disabled":false,"rental_uris":{"android":"levelo://app?vid=592df7ea-e0d5-4468-9dfc-a545f6dc0e22","ios":"levelo://app?vid=592df7ea-e0d5-4468-9dfc-a545f6dc0e22"},"vehicle_type_id":"4","last_reported":1734793653,"current_range_meters":38800,"station_id":"ce4bgr92rcd13ifvqc6g","pricing_plan_id":"cebpf4jnsgd1na2vs0mg"},{"bike_id":"a8c7f166-7f46-4573-9714-5b789664e91a","system_id":"levelo_inurba_marseille","lat":43.31689,"lon":5.40475,"is_reserved":false,"is_disabled":false,"rental_uris":{"android":"levelo://app?vid=a8c7f166-7f46-4573-9714-5b789664e91a","ios":"levelo://app?vid=a8c7f166-7f46-4573-9714-5b789664e91a"},"vehicle_type_id":"4","last_reported":1734793653,"current_range_meters":28400,"station_id":"ce4bh012rcd13ifvqd00","pricing_plan_id":"cebpf4jnsgd1na2vs0mg"},{"bike_id":"375cf45d-3c50-494d-97a1-6aa823a391ba","system_id":"levelo_inurba_marseille","lat":43.27557,"lon":5.38412,"is_reserved":false,"is_disabled":false,"rental_uris":{"android":"levelo://app?vid=375cf45d-3c50-494d-97a1-6aa823a391ba","ios":"levelo://app?vid=375cf45d-3c50-494d-97a1-6aa823a391ba"},"vehicle_type_id":"4","last_reported":1734793653,"current_range_meters":38000,"station_id":"ce4bhh92rcd13ifvqfi0","pricing_plan_id":"cebpf4jnsgd1na2vs0mg"},{"bike_id":"d3eb2e99-5ffc-470a-8d2d-75155bb73252","system_id":"levelo_inurba_marseille","lat":43.29713,"lon":5.3768,"is_reserved":false,"is_disabled":true,"rental_uris":{"android":"levelo://app?vid=d3eb2e99-5ffc-470a-8d2d-75155bb73252","ios":"levelo://app?vid=d3eb2e99-5ffc-470a-8d2d-75155bb73252"},"vehicle_type_id":"4","last_reported":1734793653,"current_range_meters":1600,"station_id":"ce4bgkh2rcd13ifvqbl0","pricing_plan_id":"cebpf4jnsgd1na2vs0mg"},{"bike_id":"aa4d7a96-d063-458f-bb0d-30f2dc5ec63b","system_id":"levelo_inurba_marseille","lat":43.28607,"lon":5.37062,"is_reserved":false,"is_disabled":false,"rental_uris":{"android":"levelo://app?vid=aa4d7a96-d063-458f-bb0d-30f2dc5ec63b","ios":"levelo://app?vid=aa4d7a96-d063-458f-bb0d-30f2dc5ec63b"},"vehicle_type_id":"4","last_reported":1734793653,"current_range_meters":32400,"station_id":"ce4bht12rcd13ifvqi60","pricing_plan_id":"cebpf4jnsgd1na2vs0mg"},{"bike_id":"a198e248-41c4-4a27-af7b-34f7a7595000","system_id":"levelo_inurba_marseille","lat":43.29911,"lon":5.37469,"is_reserved":false,"is_disabled":false,"rental_uris":{"android":"levelo://app?vid=a198e248-41c4-4a27-af7b-34f7a7595000","ios":"levelo://app?vid=a198e248-41c4-4a27-af7b-34f7a7595000"},"vehicle_type_id":"4","last_reported":1734793653,"current_range_meters":38800,"station_id":"ce4bgjh2rcd13ifvqbg0","pricing_plan_id":"cebpf4jnsgd1na2vs0mg"},{"bike_id":"67bd58ad-bcc0-45ec-acbc-020a30ce0c10","system_id":"levelo_inurba_marseille","lat":43.30531,"lon":5.36545,"is_reserved":false,"is_disabled":false,"rental_uris":{"android":"levelo://app?vid=67bd58ad-bcc0-45ec-acbc-020a30ce0c10","ios":"levelo://app?vid=67bd58ad-bcc0-45ec-acbc-020a30ce0c10"},"vehicle_type_id":"4","last_reported":1734793653,"current_range_meters":34000,"station_id":"ce4bgs12rcd13ifvqcag","pricing_plan_id":"cebpf4jnsgd1na2vs0mg"},{"bike_id":"6d3e152a-52b7-4e48-8ce9-495072b8eb15","system_id":"levelo_inurba_marseille","lat":43.33022,"lon":5.39043,"is_reserved":false,"is_disabled":false,"rental_uris":{"android":"levelo://app?vid=6d3e152a-52b7-4e48-8ce9-495072b8eb15","ios":"levelo://app?vid=6d3e152a-52b7-4e48-8ce9-495072b8eb15"},"vehicle_type_id":"4","last_reported":1734793653,"current_range_meters":38800,"station_id":"ce4bhr92rcd13ifvqhrg","pricing_plan_id":"cebpf4jnsgd1na2vs0mg"},{"bike_id":"dfcbaf7f-5177-41a2-aa19-4f14caa37646","system_id":"levelo_inurba_marseille","lat":43.28609,"lon":5.3707,"is_reserved":false,"is_disabled":false,"rental_uris":{"android":"levelo://app?vid=dfcbaf7f-5177-41a2-aa19-4f14caa37646","ios":"levelo://app?vid=dfcbaf7f-5177-41a2-aa19-4f14caa37646"},"vehicle_type_id":"4","last_reported":1734793653,"current_range_meters":3600,"station_id":"ce4bht12rcd13ifvqi60","pricing_plan_id":"cebpf4jnsgd1na2vs0mg"},{"bike_id":"7ddbcde7-0411-490e-afea-0c0d7796e65f","system_id":"levelo_inurba_marseille","lat":43.29894,"lon":5.43666,"is_reserved":false,"is_disabled":false,"rental_uris":{"android":"levelo://app?vid=7ddbcde7-0411-490e-afea-0c0d7796e65f","ios":"levelo://app?vid=7ddbcde7-0411-490e-afea-0c0d7796e65f"},"vehicle_type_id":"4","last_reported":1734793653,"current_range_meters":38800,"station_id":"ce4bhpp2rcd13ifvqhfg","pricing_plan_id":"cebpf4jnsgd1na2vs0mg"},{"bike_id":"20907fe1-7093-4868-8bd6-d680712c57df","system_id":"levelo_inurba_marseille","lat":43.29602,"lon":5.37722,"is_reserved":false,"is_disabled":false,"rental_uris":{"android":"levelo://app?vid=20907fe1-7093-4868-8bd6-d680712c57df","ios":"levelo://app?vid=20907fe1-7093-4868-8bd6-d680712c57df"},"vehicle_type_id":"4","last_reported":1734793653,"current_range_meters":28000,"station_id":"ce4bgi92rcd13ifvqb90","pricing_plan_id":"cebpf4jnsgd1na2vs0mg"},{"bike_id":"74d3969e-f257-49d3-8707-f91cf2240bdf","system_id":"levelo_inurba_marseille","lat":43.30464,"lon":5.37909,"is_reserved":false,"is_disabled":false,"rental_uris":{"android":"levelo://app?vid=74d3969e-f257-49d3-8707-f91cf2240bdf","ios":"levelo://app?vid=74d3969e-f257-49d3-8707-f91cf2240bdf"},"vehicle_type_id":"4","last_reported":1734793653,"current_range_meters":29600,"station_id":"ce4bgup2rcd13ifvqcn0","pricing_plan_id":"cebpf4jnsgd1na2vs0mg"},{"bike_id":"d77abc9d-2ff7-46b1-95d2-5a87a7d7b6fc","system_id":"levelo_inurba_marseille","lat":43.29612,"lon":5.37712,"is_reserved":false,"is_disabled":false,"rental_uris":{"android":"levelo://app?vid=d77abc9d-2ff7-46b1-95d2-5a87a7d7b6fc","ios":"levelo://app?vid=d77abc9d-2ff7-46b1-95d2-5a87a7d7b6fc"},"vehicle_type_id":"4","last_reported":1734793653,"current_range_meters":38000,"station_id":"ce4bgi92rcd13ifvqb90","pricing_plan_id":"cebpf4jnsgd1na2vs0mg"},{"bike_id":"323ff176-e546-4c21-981e-0aa356db170d","system_id":"levelo_inurba_marseille","lat":43.29797,"lon":5.38109,"is_reserved":false,"is_disabled":false,"rental_uris":{"android":"levelo://app?vid=323ff176-e546-4c21-981e-0aa356db170d","ios":"levelo://app?vid=323ff176-e546-4c21-981e-0aa356db170d"},"vehicle_type_id":"4","last_reported":1734793653,"current_range_meters":21600,"station_id":"ce4bgip2rcd13ifvqbb0","pricing_plan_id":"cebpf4jnsgd1na2vs0mg"},{"bike_id":"d419c6ed-cd56-4aab-b19a-02d0c45c96a1","system_id":"levelo_inurba_marseille","lat":43.28267,"lon":5.35061,"is_reserved":false,"is_disabled":false,"rental_uris":{"android":"levelo://app?vid=d419c6ed-cd56-4aab-b19a-02d0c45c96a1","ios":"levelo://app?vid=d419c6ed-cd56-4aab-b19a-02d0c45c96a1"},"vehicle_type_id":"4","last_reported":1734793653,"current_range_meters":10800,"station_id":"ce4bhbp2rcd13ifvqerg","pricing_plan_id":"cebpf4jnsgd1na2vs0mg"},{"bike_id":"aa382136-94a1-46c2-853c-0c7097defb34","system_id":"levelo_inurba_marseille","lat":43.28441,"lon":5.392,"is_reserved":false,"is_disabled":false,"rental_uris":{"android":"levelo://app?vid=aa382136-94a1-46c2-853c-0c7097defb34","ios":"levelo://app?vid=aa382136-94a1-46c2-853c-0c7097defb34"},"vehicle_type_id":"4","last_reported":1734793653,"current_range_meters":16000,"station_id":"ce4bhoh2rcd13ifvqh5g","pricing_plan_id":"cebpf4jnsgd1na2vs0mg"},{"bike_id":"72f81aa4-c01d-43a7-afaf-746ff1021935","system_id":"levelo_inurba_marseille","lat":43.30796,"lon":5.38145,"is_reserved":false,"is_disabled":false,"rental_uris":{"android":"levelo://app?vid=72f81aa4-c01d-43a7-afaf-746ff1021935","ios":"levelo://app?vid=72f81aa4-c01d-43a7-afaf-746ff1021935"},"vehicle_type_id":"4","last_reported":1734793653,"current_range_meters":9200,"station_id":"ce4bgt12rcd13ifvqce0","pricing_plan_id":"cebpf4jnsgd1na2vs0mg"},{"bike_id":"3b7fb263-9954-423c-9568-5ca112efd551","system_id":"levelo_inurba_marseille","lat":43.30535,"lon":5.36558,"is_reserved":false,"is_disabled":false,"rental_uris":{"android":"levelo://app?vid=3b7fb263-9954-423c-9568-5ca112efd551","ios":"levelo://app?vid=3b7fb263-9954-423c-9568-5ca112efd551"},"vehicle_type_id":"4","last_reported":1734793653,"current_range_meters":16400,"station_id":"ce4bgs12rcd13ifvqcag","pricing_plan_id":"cebpf4jnsgd1na2vs0mg"},{"bike_id":"5c61ca5d-1173-469b-81d3-98bd4b2a1441","system_id":"levelo_inurba_marseille","lat":43.23049,"lon":5.35507,"is_reserved":false,"is_disabled":true,"rental_uris":{"android":"levelo://app?vid=5c61ca5d-1173-469b-81d3-98bd4b2a1441","ios":"levelo://app?vid=5c61ca5d-1173-469b-81d3-98bd4b2a1441"},"vehicle_type_id":"4","last_reported":1734793653,"current_range_meters":0,"station_id":"cpo3342slgdg3j2ifvpg","pricing_plan_id":"cebpf4jnsgd1na2vs0mg"},{"bike_id":"eeb165cd-0850-4135-b307-a7a2de607d7b","system_id":"levelo_inurba_marseille","lat":43.28609,"lon":5.37066,"is_reserved":false,"is_disabled":false,"rental_uris":{"android":"levelo://app?vid=eeb165cd-0850-4135-b307-a7a2de607d7b","ios":"levelo://app?vid=eeb165cd-0850-4135-b307-a7a2de607d7b"},"vehicle_type_id":"4","last_reported":1734793653,"current_range_meters":38800,"station_id":"ce4bht12rcd13ifvqi60","pricing_plan_id":"cebpf4jnsgd1na2vs0mg"},{"bike_id":"2e401c1b-8b88-4095-96fa-e0b294572623","system_id":"levelo_inurba_marseille","lat":43.32473,"lon":5.3655,"is_reserved":false,"is_disabled":false,"rental_uris":{"android":"levelo://app?vid=2e401c1b-8b88-4095-96fa-e0b294572623","ios":"levelo://app?vid=2e401c1b-8b88-4095-96fa-e0b294572623"},"vehicle_type_id":"4","last_reported":1734793653,"current_range_meters":36400,"station_id":"ce4bhs12rcd13ifvqhvg","pricing_plan_id":"cebpf4jnsgd1na2vs0mg"},{"bike_id":"aee9adb9-c0ca-4e0c-b927-b16e072008dd","system_id":"levelo_inurba_marseille","lat":43.29558,"lon":5.37525,"is_reserved":false,"is_disabled":false,"rental_uris":{"android":"levelo://app?vid=aee9adb9-c0ca-4e0c-b927-b16e072008dd","ios":"levelo://app?vid=aee9adb9-c0ca-4e0c-b927-b16e072008dd"},"vehicle_type_id":"4","last_reported":1734793653,"current_range_meters":36400,"station_id":"ce4bgh92rcd13ifvqb50","pricing_plan_id":"cebpf4jnsgd1na2vs0mg"},{"bike_id":"f30c160f-930d-4fca-bf2c-ca229bf6dff9","system_id":"levelo_inurba_marseille","lat":43.26031,"lon":5.37548,"is_reserved":false,"is_disabled":false,"rental_uris":{"android":"levelo://app?vid=f30c160f-930d-4fca-bf2c-ca229bf6dff9","ios":"levelo://app?vid=f30c160f-930d-4fca-bf2c-ca229bf6dff9"},"vehicle_type_id":"4","last_reported":1734793653,"current_range_meters":29600,"station_id":"ce4bhgh2rcd13ifvqfa0","pricing_plan_id":"cebpf4jnsgd1na2vs0mg"},{"bike_id":"7b2c67d1-64e9-4ee4-958b-aca13d1903fe","system_id":"levelo_inurba_marseille","lat":43.29003,"lon":5.3561,"is_reserved":false,"is_disabled":false,"rental_uris":{"android":"levelo://app?vid=7b2c67d1-64e9-4ee4-958b-aca13d1903fe","ios":"levelo://app?vid=7b2c67d1-64e9-4ee4-958b-aca13d1903fe"},"vehicle_type_id":"4","last_reported":1734793653,"current_range_meters":30000,"station_id":"ce4bhb92rcd13ifvqen0","pricing_plan_id":"cebpf4jnsgd1na2vs0mg"},{"bike_id":"15a99ce9-65a6-4f95-b7ea-21d341c6ff66","system_id":"levelo_inurba_marseille","lat":43.24083,"lon":5.37768,"is_reserved":false,"is_disabled":false,"rental_uris":{"android":"levelo://app?vid=15a99ce9-65a6-4f95-b7ea-21d341c6ff66","ios":"levelo://app?vid=15a99ce9-65a6-4f95-b7ea-21d341c6ff66"},"vehicle_type_id":"4","last_reported":1734793653,"current_range_meters":28400,"station_id":"ce4bhnp2rcd13ifvqgvg","pricing_plan_id":"cebpf4jnsgd1na2vs0mg"},{"bike_id":"8dfc53b9-96fd-47c3-8930-08432e9aa87c","system_id":"levelo_inurba_marseille","lat":43.30153,"lon":5.3808,"is_reserved":false,"is_disabled":false,"rental_uris":{"android":"levelo://app?vid=8dfc53b9-96fd-47c3-8930-08432e9aa87c","ios":"levelo://app?vid=8dfc53b9-96fd-47c3-8930-08432e9aa87c"},"vehicle_type_id":"4","last_reported":1734793653,"current_range_meters":35200,"station_id":"ce4bgjp2rcd13ifvqbh0","pricing_plan_id":"cebpf4jnsgd1na2vs0mg"},{"bike_id":"74795d10-87c4-44cd-86e0-877d02070ccc","system_id":"levelo_inurba_marseille","lat":43.30603,"lon":5.37231,"is_reserved":false,"is_disabled":false,"rental_uris":{"android":"levelo://app?vid=74795d10-87c4-44cd-86e0-877d02070ccc","ios":"levelo://app?vid=74795d10-87c4-44cd-86e0-877d02070ccc"},"vehicle_type_id":"4","last_reported":1734793653,"current_range_meters":35200,"station_id":"ce4bgqh2rcd13ifvqc4g","pricing_plan_id":"cebpf4jnsgd1na2vs0mg"},{"bike_id":"9f50244a-d38a-491a-9f70-c23a46404b46","system_id":"levelo_inurba_marseille","lat":43.28608,"lon":5.37068,"is_reserved":false,"is_disabled":false,"rental_uris":{"android":"levelo://app?vid=9f50244a-d38a-491a-9f70-c23a46404b46","ios":"levelo://app?vid=9f50244a-d38a-491a-9f70-c23a46404b46"},"vehicle_type_id":"4","last_reported":1734793653,"current_range_meters":38800,"station_id":"ce4bht12rcd13ifvqi60","pricing_plan_id":"cebpf4jnsgd1na2vs0mg"},{"bike_id":"ceb47411-851c-4629-80be-093b3dea2d57","system_id":"levelo_inurba_marseille","lat":43.29554,"lon":5.37526,"is_reserved":false,"is_disabled":false,"rental_uris":{"android":"levelo://app?vid=ceb47411-851c-4629-80be-093b3dea2d57","ios":"levelo://app?vid=ceb47411-851c-4629-80be-093b3dea2d57"},"vehicle_type_id":"4","last_reported":1734793653,"current_range_meters":39200,"station_id":"ce4bgh92rcd13ifvqb50","pricing_plan_id":"cebpf4jnsgd1na2vs0mg"},{"bike_id":"c88c4b0d-8e58-498c-8a16-c07f5bd1c386","system_id":"levelo_inurba_marseille","lat":43.30155,"lon":5.38097,"is_reserved":false,"is_disabled":false,"rental_uris":{"android":"levelo://app?vid=c88c4b0d-8e58-498c-8a16-c07f5bd1c386","ios":"levelo://app?vid=c88c4b0d-8e58-498c-8a16-c07f5bd1c386"},"vehicle_type_id":"4","last_reported":1734793653,"current_range_meters":38400,"station_id":"ce4bgjp2rcd13ifvqbh0","pricing_plan_id":"cebpf4jnsgd1na2vs0mg"},{"bike_id":"377c819a-583e-46f2-86ea-104acb84cd3a","system_id":"levelo_inurba_marseille","lat":43.29774,"lon":5.37118,"is_reserved":false,"is_disabled":false,"rental_uris":{"android":"levelo://app?vid=377c819a-583e-46f2-86ea-104acb84cd3a","ios":"levelo://app?vid=377c819a-583e-46f2-86ea-104acb84cd3a"},"vehicle_type_id":"4","last_reported":1734793653,"current_range_meters":17200,"station_id":"ce4bgop2rcd13ifvqc1g","pricing_plan_id":"cebpf4jnsgd1na2vs0mg"},{"bike_id":"90fbf7b3-3e59-4761-9ba2-48103aa75f60","system_id":"levelo_inurba_marseille","lat":43.29897,"lon":5.43668,"is_reserved":false,"is_disabled":false,"rental_uris":{"android":"levelo://app?vid=90fbf7b3-3e59-4761-9ba2-48103aa75f60","ios":"levelo://app?vid=90fbf7b3-3e59-4761-9ba2-48103aa75f60"},"vehicle_type_id":"4","last_reported":1734793653,"current_range_meters":26800,"station_id":"ce4bhpp2rcd13ifvqhfg","pricing_plan_id":"cebpf4jnsgd1na2vs0mg"},{"bike_id":"d623d71b-cdb1-4f37-9afb-994b775f406a","system_id":"levelo_inurba_marseille","lat":43.29623,"lon":5.37727,"is_reserved":false,"is_disabled":false,"rental_uris":{"android":"levelo://app?vid=d623d71b-cdb1-4f37-9afb-994b775f406a","ios":"levelo://app?vid=d623d71b-cdb1-4f37-9afb-994b775f406a"},"vehicle_type_id":"4","last_reported":1734793653,"current_range_meters":18800,"station_id":"ce4bgi92rcd13ifvqb90","pricing_plan_id":"cebpf4jnsgd1na2vs0mg"},{"bike_id":"3e76721f-98e4-431f-969b-21f0e57609ec","system_id":"levelo_inurba_marseille","lat":43.24672,"lon":5.38147,"is_reserved":false,"is_disabled":false,"rental_uris":{"android":"levelo://app?vid=3e76721f-98e4-431f-969b-21f0e57609ec","ios":"levelo://app?vid=3e76721f-98e4-431f-969b-21f0e57609ec"},"vehicle_type_id":"4","last_reported":1734793653,"current_range_meters":38400,"station_id":"ce4bhih2rcd13ifvqfr0","pricing_plan_id":"cebpf4jnsgd1na2vs0mg"},{"bike_id":"227b8709-a253-45c2-b4c3-fa7ef48a7c09","system_id":"levelo_inurba_marseille","lat":43.26938,"lon":5.38629,"is_reserved":false,"is_disabled":false,"rental_uris":{"android":"levelo://app?vid=227b8709-a253-45c2-b4c3-fa7ef48a7c09","ios":"levelo://app?vid=227b8709-a253-45c2-b4c3-fa7ef48a7c09"},"vehicle_type_id":"4","last_reported":1734793653,"current_range_meters":32800,"station_id":"ce4bhh92rcd13ifvqfh0","pricing_plan_id":"cebpf4jnsgd1na2vs0mg"},{"bike_id":"e17b25fe-e3c6-4e59-9b0b-a4b966b90796","system_id":"levelo_inurba_marseille","lat":43.28488,"lon":5.38566,"is_reserved":false,"is_disabled":false,"rental_uris":{"android":"levelo://app?vid=e17b25fe-e3c6-4e59-9b0b-a4b966b90796","ios":"levelo://app?vid=e17b25fe-e3c6-4e59-9b0b-a4b966b90796"},"vehicle_type_id":"4","last_reported":1734793653,"current_range_meters":24400,"station_id":"ce4bh8p2rcd13ifvqeb0","pricing_plan_id":"cebpf4jnsgd1na2vs0mg"},{"bike_id":"eb7f14b0-544a-46b7-9456-becb500e6ffa","system_id":"levelo_inurba_marseille","lat":43.28838,"lon":5.39333,"is_reserved":false,"is_disabled":false,"rental_uris":{"android":"levelo://app?vid=eb7f14b0-544a-46b7-9456-becb500e6ffa","ios":"levelo://app?vid=eb7f14b0-544a-46b7-9456-becb500e6ffa"},"vehicle_type_id":"4","last_reported":1734793653,"current_range_meters":32000,"station_id":"ce4bh2p2rcd13ifvqdi0","pricing_plan_id":"cebpf4jnsgd1na2vs0mg"},{"bike_id":"b045a6d5-6d7a-4421-a913-428bd57ad884","system_id":"levelo_inurba_marseille","lat":43.28942,"lon":5.39635,"is_reserved":false,"is_disabled":false,"rental_uris":{"android":"levelo://app?vid=b045a6d5-6d7a-4421-a913-428bd57ad884","ios":"levelo://app?vid=b045a6d5-6d7a-4421-a913-428bd57ad884"},"vehicle_type_id":"4","last_reported":1734793653,"current_range_meters":33200,"station_id":"ce4bh3h2rcd13ifvqdn0","pricing_plan_id":"cebpf4jnsgd1na2vs0mg"},{"bike_id":"5a5cc90c-705b-4990-848b-3e65b0b44c1d","system_id":"levelo_inurba_marseille","lat":43.29797,"lon":5.40407,"is_reserved":false,"is_disabled":false,"rental_uris":{"android":"levelo://app?vid=5a5cc90c-705b-4990-848b-3e65b0b44c1d","ios":"levelo://app?vid=5a5cc90c-705b-4990-848b-3e65b0b44c1d"},"vehicle_type_id":"4","last_reported":1734793653,"current_range_meters":23200,"station_id":"ce4bh112rcd13ifvqd90","pricing_plan_id":"cebpf4jnsgd1na2vs0mg"},{"bike_id":"fd785b07-2362-4223-ac19-c71a1481c377","system_id":"levelo_inurba_marseille","lat":43.25482,"lon":5.37642,"is_reserved":false,"is_disabled":false,"rental_uris":{"android":"levelo://app?vid=fd785b07-2362-4223-ac19-c71a1481c377","ios":"levelo://app?vid=fd785b07-2362-4223-ac19-c71a1481c377"},"vehicle_type_id":"4","last_reported":1734793653,"current_range_meters":36000,"station_id":"ce4bhh12rcd13ifvqff0","pricing_plan_id":"cebpf4jnsgd1na2vs0mg"},{"bike_id":"2678b9e7-b887-4244-9b45-06365972f676","system_id":"levelo_inurba_marseille","lat":43.29554,"lon":5.37508,"is_reserved":false,"is_disabled":false,"rental_uris":{"android":"levelo://app?vid=2678b9e7-b887-4244-9b45-06365972f676","ios":"levelo://app?vid=2678b9e7-b887-4244-9b45-06365972f676"},"vehicle_type_id":"4","last_reported":1734793653,"current_range_meters":37600,"station_id":"ce4bgh92rcd13ifvqb50","pricing_plan_id":"cebpf4jnsgd1na2vs0mg"},{"bike_id":"dabdb816-8280-4165-8f88-ae205fe0accb","system_id":"levelo_inurba_marseille","lat":43.23967,"lon":5.36628,"is_reserved":false,"is_disabled":false,"rental_uris":{"android":"levelo://app?vid=dabdb816-8280-4165-8f88-ae205fe0accb","ios":"levelo://app?vid=dabdb816-8280-4165-8f88-ae205fe0accb"},"vehicle_type_id":"4","last_reported":1734793653,"current_range_meters":36400,"station_id":"ce4bhi12rcd13ifvqfp0","pricing_plan_id":"cebpf4jnsgd1na2vs0mg"},{"bike_id":"62c4bf08-2663-4d5f-b5a0-40453d217c52","system_id":"levelo_inurba_marseille","lat":43.26201,"lon":5.37924,"is_reserved":false,"is_disabled":false,"rental_uris":{"android":"levelo://app?vid=62c4bf08-2663-4d5f-b5a0-40453d217c52","ios":"levelo://app?vid=62c4bf08-2663-4d5f-b5a0-40453d217c52"},"vehicle_type_id":"4","last_reported":1734793653,"current_range_meters":36400,"station_id":"ce4bhjp2rcd13ifvqg90","pricing_plan_id":"cebpf4jnsgd1na2vs0mg"},{"bike_id":"91e7ad43-f916-4de7-908c-886dc8f256ff","system_id":"levelo_inurba_marseille","lat":43.26563,"lon":5.37289,"is_reserved":false,"is_disabled":true,"rental_uris":{"android":"levelo://app?vid=91e7ad43-f916-4de7-908c-886dc8f256ff","ios":"levelo://app?vid=91e7ad43-f916-4de7-908c-886dc8f256ff"},"vehicle_type_id":"4","last_reported":1734793653,"current_range_meters":0,"station_id":"ce4bhg12rcd13ifvqf70","pricing_plan_id":"cebpf4jnsgd1na2vs0mg"},{"bike_id":"6840abde-456a-415b-aeda-955471cfab0e","system_id":"levelo_inurba_marseille","lat":43.26948,"lon":5.40253,"is_reserved":false,"is_disabled":false,"rental_uris":{"android":"levelo://app?vid=6840abde-456a-415b-aeda-955471cfab0e","ios":"levelo://app?vid=6840abde-456a-415b-aeda-955471cfab0e"},"vehicle_type_id":"4","last_reported":1734793653,"current_range_meters":38400,"station_id":"cjm6bp8fraef2m0cb0m0","pricing_plan_id":"cebpf4jnsgd1na2vs0mg"},{"bike_id":"fc4ff347-ef4d-4a4d-ae09-babf618fedb6","system_id":"levelo_inurba_marseille","lat":43.24168,"lon":5.36404,"is_reserved":false,"is_disabled":false,"rental_uris":{"android":"levelo://app?vid=fc4ff347-ef4d-4a4d-ae09-babf618fedb6","ios":"levelo://app?vid=fc4ff347-ef4d-4a4d-ae09-babf618fedb6"},"vehicle_type_id":"4","last_reported":1734793653,"current_range_meters":35200,"station_id":"cpo36qri1sfpv3e86is0","pricing_plan_id":"cebpf4jnsgd1na2vs0mg"},{"bike_id":"fd8cc476-2f41-404d-95a8-518c5023adb5","system_id":"levelo_inurba_marseille","lat":43.30926,"lon":5.40142,"is_reserved":false,"is_disabled":false,"rental_uris":{"android":"levelo://app?vid=fd8cc476-2f41-404d-95a8-518c5023adb5","ios":"levelo://app?vid=fd8cc476-2f41-404d-95a8-518c5023adb5"},"vehicle_type_id":"4","last_reported":1734793653,"current_range_meters":38400,"station_id":"ce4bgvp2rcd13ifvqct0","pricing_plan_id":"cebpf4jnsgd1na2vs0mg"},{"bike_id":"9d4d4031-1d14-4091-a986-fdf236b2b559","system_id":"levelo_inurba_marseille","lat":43.30794,"lon":5.38175,"is_reserved":false,"is_disabled":false,"rental_uris":{"android":"levelo://app?vid=9d4d4031-1d14-4091-a986-fdf236b2b559","ios":"levelo://app?vid=9d4d4031-1d14-4091-a986-fdf236b2b559"},"vehicle_type_id":"4","last_reported":1734793653,"current_range_meters":28400,"station_id":"ce4bgt12rcd13ifvqce0","pricing_plan_id":"cebpf4jnsgd1na2vs0mg"},{"bike_id":"11f9ede0-b346-400f-a4d9-e09e763a2b21","system_id":"levelo_inurba_marseille","lat":43.2782,"lon":5.40719,"is_reserved":false,"is_disabled":false,"rental_uris":{"android":"levelo://app?vid=11f9ede0-b346-400f-a4d9-e09e763a2b21","ios":"levelo://app?vid=11f9ede0-b346-400f-a4d9-e09e763a2b21"},"vehicle_type_id":"4","last_reported":1734793653,"current_range_meters":39200,"station_id":"ce4bhnh2rcd13ifvqgtg","pricing_plan_id":"cebpf4jnsgd1na2vs0mg"},{"bike_id":"356a12a5-8356-414f-8714-5e0af1d15897","system_id":"levelo_inurba_marseille","lat":43.26788,"lon":5.3941,"is_reserved":false,"is_disabled":false,"rental_uris":{"android":"levelo://app?vid=356a12a5-8356-414f-8714-5e0af1d15897","ios":"levelo://app?vid=356a12a5-8356-414f-8714-5e0af1d15897"},"vehicle_type_id":"4","last_reported":1734793653,"current_range_meters":38000,"station_id":"ce4bhh12rcd13ifvqfg0","pricing_plan_id":"cebpf4jnsgd1na2vs0mg"},{"bike_id":"355eab8b-83b1-49a8-8476-7214e721717e","system_id":"levelo_inurba_marseille","lat":43.29299,"lon":5.37462,"is_reserved":false,"is_disabled":false,"rental_uris":{"android":"levelo://app?vid=355eab8b-83b1-49a8-8476-7214e721717e","ios":"levelo://app?vid=355eab8b-83b1-49a8-8476-7214e721717e"},"vehicle_type_id":"4","last_reported":1734793653,"current_range_meters":20800,"station_id":"ce4bgi12rcd13ifvqb70","pricing_plan_id":"cebpf4jnsgd1na2vs0mg"},{"bike_id":"1b0e9d34-71b5-4d2a-8c59-b2701c6566e6","system_id":"levelo_inurba_marseille","lat":43.25508,"lon":5.37658,"is_reserved":false,"is_disabled":false,"rental_uris":{"android":"levelo://app?vid=1b0e9d34-71b5-4d2a-8c59-b2701c6566e6","ios":"levelo://app?vid=1b0e9d34-71b5-4d2a-8c59-b2701c6566e6"},"vehicle_type_id":"4","last_reported":1734793653,"current_range_meters":38800,"station_id":"ce4bhh12rcd13ifvqff0","pricing_plan_id":"cebpf4jnsgd1na2vs0mg"},{"bike_id":"925a18fc-4a82-4f01-8078-fc82223c6dd3","system_id":"levelo_inurba_marseille","lat":43.27431,"lon":5.39408,"is_reserved":false,"is_disabled":false,"rental_uris":{"android":"levelo://app?vid=925a18fc-4a82-4f01-8078-fc82223c6dd3","ios":"levelo://app?vid=925a18fc-4a82-4f01-8078-fc82223c6dd3"},"vehicle_type_id":"4","last_reported":1734793653,"current_range_meters":38800,"station_id":"ce4bhdp2rcd13ifvqf20","pricing_plan_id":"cebpf4jnsgd1na2vs0mg"},{"bike_id":"1fcb3933-9939-4e22-8941-9704edb4c50a","system_id":"levelo_inurba_marseille","lat":43.24073,"lon":5.37764,"is_reserved":false,"is_disabled":false,"rental_uris":{"android":"levelo://app?vid=1fcb3933-9939-4e22-8941-9704edb4c50a","ios":"levelo://app?vid=1fcb3933-9939-4e22-8941-9704edb4c50a"},"vehicle_type_id":"4","last_reported":1734793653,"current_range_meters":35600,"station_id":"ce4bhnp2rcd13ifvqgvg","pricing_plan_id":"cebpf4jnsgd1na2vs0mg"},{"bike_id":"877fe626-a76a-4adb-b522-e8da1970693a","system_id":"levelo_inurba_marseille","lat":43.2961,"lon":5.38094,"is_reserved":false,"is_disabled":false,"rental_uris":{"android":"levelo://app?vid=877fe626-a76a-4adb-b522-e8da1970693a","ios":"levelo://app?vid=877fe626-a76a-4adb-b522-e8da1970693a"},"vehicle_type_id":"4","last_reported":1734793653,"current_range_meters":23200,"station_id":"ce4bgl12rcd13ifvqbo0","pricing_plan_id":"cebpf4jnsgd1na2vs0mg"},{"bike_id":"9c7bb0a5-a6e2-455f-9f13-18ace2a719d9","system_id":"levelo_inurba_marseille","lat":43.28271,"lon":5.35059,"is_reserved":false,"is_disabled":false,"rental_uris":{"android":"levelo://app?vid=9c7bb0a5-a6e2-455f-9f13-18ace2a719d9","ios":"levelo://app?vid=9c7bb0a5-a6e2-455f-9f13-18ace2a719d9"},"vehicle_type_id":"4","last_reported":1734793653,"current_range_meters":12800,"station_id":"ce4bhbp2rcd13ifvqerg","pricing_plan_id":"cebpf4jnsgd1na2vs0mg"},{"bike_id":"ee537403-1ca0-4957-b512-e7ceb5877ae5","system_id":"levelo_inurba_marseille","lat":43.30558,"lon":5.36526,"is_reserved":false,"is_disabled":false,"rental_uris":{"android":"levelo://app?vid=ee537403-1ca0-4957-b512-e7ceb5877ae5","ios":"levelo://app?vid=ee537403-1ca0-4957-b512-e7ceb5877ae5"},"vehicle_type_id":"4","last_reported":1734793653,"current_range_meters":22800,"station_id":"ce4bgs12rcd13ifvqcag","pricing_plan_id":"cebpf4jnsgd1na2vs0mg"},{"bike_id":"5cce117c-21f6-4b47-9e6c-5cafdbb81f68","system_id":"levelo_inurba_marseille","lat":43.27378,"lon":5.36262,"is_reserved":false,"is_disabled":false,"rental_uris":{"android":"levelo://app?vid=5cce117c-21f6-4b47-9e6c-5cafdbb81f68","ios":"levelo://app?vid=5cce117c-21f6-4b47-9e6c-5cafdbb81f68"},"vehicle_type_id":"4","last_reported":1734793653,"current_range_meters":26800,"station_id":"ce4bhbh2rcd13ifvqeo0","pricing_plan_id":"cebpf4jnsgd1na2vs0mg"},{"bike_id":"d57342bb-ad62-4ffa-b3a0-6cf5333809e3","system_id":"levelo_inurba_marseille","lat":43.30896,"lon":5.37194,"is_reserved":false,"is_disabled":false,"rental_uris":{"android":"levelo://app?vid=d57342bb-ad62-4ffa-b3a0-6cf5333809e3","ios":"levelo://app?vid=d57342bb-ad62-4ffa-b3a0-6cf5333809e3"},"vehicle_type_id":"4","last_reported":1734793653,"current_range_meters":6400,"station_id":"ce4bguh2rcd13ifvqckg","pricing_plan_id":"cebpf4jnsgd1na2vs0mg"},{"bike_id":"93431190-8bab-4ebd-a1fb-798f70e0f9fb","system_id":"levelo_inurba_marseille","lat":43.24084,"lon":5.37754,"is_reserved":false,"is_disabled":false,"rental_uris":{"android":"levelo://app?vid=93431190-8bab-4ebd-a1fb-798f70e0f9fb","ios":"levelo://app?vid=93431190-8bab-4ebd-a1fb-798f70e0f9fb"},"vehicle_type_id":"4","last_reported":1734793653,"current_range_meters":20400,"station_id":"ce4bhnp2rcd13ifvqgvg","pricing_plan_id":"cebpf4jnsgd1na2vs0mg"},{"bike_id":"f44f011a-92ed-49ba-9e62-531ae711b065","system_id":"levelo_inurba_marseille","lat":43.28364,"lon":5.38637,"is_reserved":false,"is_disabled":false,"rental_uris":{"android":"levelo://app?vid=f44f011a-92ed-49ba-9e62-531ae711b065","ios":"levelo://app?vid=f44f011a-92ed-49ba-9e62-531ae711b065"},"vehicle_type_id":"4","last_reported":1734793653,"current_range_meters":26800,"station_id":"ce4bh492rcd13ifvqdvg","pricing_plan_id":"cebpf4jnsgd1na2vs0mg"},{"bike_id":"c4f01ca7-28f1-454d-ba01-b7f6f6e2db1f","system_id":"levelo_inurba_marseille","lat":43.27425,"lon":5.39415,"is_reserved":false,"is_disabled":false,"rental_uris":{"android":"levelo://app?vid=c4f01ca7-28f1-454d-ba01-b7f6f6e2db1f","ios":"levelo://app?vid=c4f01ca7-28f1-454d-ba01-b7f6f6e2db1f"},"vehicle_type_id":"4","last_reported":1734793653,"current_range_meters":38800,"station_id":"ce4bhdp2rcd13ifvqf20","pricing_plan_id":"cebpf4jnsgd1na2vs0mg"},{"bike_id":"f40e7c61-8a43-4da7-a842-fa391ba2fc6e","system_id":"levelo_inurba_marseille","lat":43.26029,"lon":5.37551,"is_reserved":false,"is_disabled":false,"rental_uris":{"android":"levelo://app?vid=f40e7c61-8a43-4da7-a842-fa391ba2fc6e","ios":"levelo://app?vid=f40e7c61-8a43-4da7-a842-fa391ba2fc6e"},"vehicle_type_id":"4","last_reported":1734793653,"current_range_meters":38400,"station_id":"ce4bhgh2rcd13ifvqfa0","pricing_plan_id":"cebpf4jnsgd1na2vs0mg"},{"bike_id":"3b618eb7-4810-40b1-beb9-301efd0471f1","system_id":"levelo_inurba_marseille","lat":43.31331,"lon":5.39692,"is_reserved":false,"is_disabled":false,"rental_uris":{"android":"levelo://app?vid=3b618eb7-4810-40b1-beb9-301efd0471f1","ios":"levelo://app?vid=3b618eb7-4810-40b1-beb9-301efd0471f1"},"vehicle_type_id":"4","last_reported":1734793653,"current_range_meters":30000,"station_id":"ce4bgvp2rcd13ifvqcu0","pricing_plan_id":"cebpf4jnsgd1na2vs0mg"},{"bike_id":"f0bcbb45-555d-4c5b-8534-084b0fafc4e9","system_id":"levelo_inurba_marseille","lat":43.2918,"lon":5.37143,"is_reserved":false,"is_disabled":true,"rental_uris":{"android":"levelo://app?vid=f0bcbb45-555d-4c5b-8534-084b0fafc4e9","ios":"levelo://app?vid=f0bcbb45-555d-4c5b-8534-084b0fafc4e9"},"vehicle_type_id":"4","last_reported":1734793653,"current_range_meters":38800,"station_id":"ce4bha92rcd13ifvqeh0","pricing_plan_id":"cebpf4jnsgd1na2vs0mg"},{"bike_id":"506f8a80-ef25-4edb-abd4-88f88ac6a35b","system_id":"levelo_inurba_marseille","lat":43.2849,"lon":5.38419,"is_reserved":false,"is_disabled":false,"rental_uris":{"android":"levelo://app?vid=506f8a80-ef25-4edb-abd4-88f88ac6a35b","ios":"levelo://app?vid=506f8a80-ef25-4edb-abd4-88f88ac6a35b"},"vehicle_type_id":"4","last_reported":1734793653,"current_range_meters":28400,"station_id":"ce4bh512rcd13ifvqe3g","pricing_plan_id":"cebpf4jnsgd1na2vs0mg"},{"bike_id":"962e42c9-7fcd-4fa6-bde0-e17288f0f84e","system_id":"levelo_inurba_marseille","lat":43.30549,"lon":5.3655,"is_reserved":false,"is_disabled":false,"rental_uris":{"android":"levelo://app?vid=962e42c9-7fcd-4fa6-bde0-e17288f0f84e","ios":"levelo://app?vid=962e42c9-7fcd-4fa6-bde0-e17288f0f84e"},"vehicle_type_id":"4","last_reported":1734793653,"current_range_meters":10800,"station_id":"ce4bgs12rcd13ifvqcag","pricing_plan_id":"cebpf4jnsgd1na2vs0mg"},{"bike_id":"b002d028-e42c-46e2-93ce-a18a7a90546e","system_id":"levelo_inurba_marseille","lat":43.32288,"lon":5.38279,"is_reserved":false,"is_disabled":false,"rental_uris":{"android":"levelo://app?vid=b002d028-e42c-46e2-93ce-a18a7a90546e","ios":"levelo://app?vid=b002d028-e42c-46e2-93ce-a18a7a90546e"},"vehicle_type_id":"4","last_reported":1734793653,"current_range_meters":23200,"station_id":"ce4bhr12rcd13ifvqhqg","pricing_plan_id":"cebpf4jnsgd1na2vs0mg"},{"bike_id":"b464554e-70d2-4b1e-aef1-2d40f13e28ba","system_id":"levelo_inurba_marseille","lat":43.31223,"lon":5.36861,"is_reserved":false,"is_disabled":false,"rental_uris":{"android":"levelo://app?vid=b464554e-70d2-4b1e-aef1-2d40f13e28ba","ios":"levelo://app?vid=b464554e-70d2-4b1e-aef1-2d40f13e28ba"},"vehicle_type_id":"4","last_reported":1734793653,"current_range_meters":30400,"station_id":"ce4bgl92rcd13ifvqbq0","pricing_plan_id":"cebpf4jnsgd1na2vs0mg"},{"bike_id":"b1155ce0-9aad-4e5b-9865-a895b0d254f8","system_id":"levelo_inurba_marseille","lat":43.29227,"lon":5.36067,"is_reserved":false,"is_disabled":false,"rental_uris":{"android":"levelo://app?vid=b1155ce0-9aad-4e5b-9865-a895b0d254f8","ios":"levelo://app?vid=b1155ce0-9aad-4e5b-9865-a895b0d254f8"},"vehicle_type_id":"4","last_reported":1734793653,"current_range_meters":38800,"station_id":"ce4bhbh2rcd13ifvqeqg","pricing_plan_id":"cebpf4jnsgd1na2vs0mg"},{"bike_id":"47383cce-0250-4c77-bd30-435193ad9962","system_id":"levelo_inurba_marseille","lat":43.28414,"lon":5.34982,"is_reserved":false,"is_disabled":false,"rental_uris":{"android":"levelo://app?vid=47383cce-0250-4c77-bd30-435193ad9962","ios":"levelo://app?vid=47383cce-0250-4c77-bd30-435193ad9962"},"vehicle_type_id":"4","last_reported":1734793653,"current_range_meters":28800,"station_id":"ce4bhbh2rcd13ifvqepg","pricing_plan_id":"cebpf4jnsgd1na2vs0mg"},{"bike_id":"5c592034-129f-414d-85e6-d92c74cda9ed","system_id":"levelo_inurba_marseille","lat":43.29576,"lon":5.3751,"is_reserved":false,"is_disabled":false,"rental_uris":{"android":"levelo://app?vid=5c592034-129f-414d-85e6-d92c74cda9ed","ios":"levelo://app?vid=5c592034-129f-414d-85e6-d92c74cda9ed"},"vehicle_type_id":"4","last_reported":1734793653,"current_range_meters":36400,"station_id":"ce4bgh92rcd13ifvqb50","pricing_plan_id":"cebpf4jnsgd1na2vs0mg"},{"bike_id":"8c2b40a2-fc42-470b-99ef-03669efe90dc","system_id":"levelo_inurba_marseille","lat":43.29422,"lon":5.38618,"is_reserved":false,"is_disabled":false,"rental_uris":{"android":"levelo://app?vid=8c2b40a2-fc42-470b-99ef-03669efe90dc","ios":"levelo://app?vid=8c2b40a2-fc42-470b-99ef-03669efe90dc"},"vehicle_type_id":"4","last_reported":1734793653,"current_range_meters":18800,"station_id":"ce4bh2h2rcd13ifvqdh0","pricing_plan_id":"cebpf4jnsgd1na2vs0mg"},{"bike_id":"4094ac40-fe97-4483-91f4-bc4b6a97b4f3","system_id":"levelo_inurba_marseille","lat":43.25837,"lon":5.39439,"is_reserved":false,"is_disabled":false,"rental_uris":{"android":"levelo://app?vid=4094ac40-fe97-4483-91f4-bc4b6a97b4f3","ios":"levelo://app?vid=4094ac40-fe97-4483-91f4-bc4b6a97b4f3"},"vehicle_type_id":"4","last_reported":1734793653,"current_range_meters":6000,"station_id":"ce4bhip2rcd13ifvqft0","pricing_plan_id":"cebpf4jnsgd1na2vs0mg"},{"bike_id":"74e4fa40-6e17-41b3-8fb0-0bd3f8572f0f","system_id":"levelo_inurba_marseille","lat":43.24076,"lon":5.37759,"is_reserved":false,"is_disabled":false,"rental_uris":{"android":"levelo://app?vid=74e4fa40-6e17-41b3-8fb0-0bd3f8572f0f","ios":"levelo://app?vid=74e4fa40-6e17-41b3-8fb0-0bd3f8572f0f"},"vehicle_type_id":"4","last_reported":1734793653,"current_range_meters":36400,"station_id":"ce4bhnp2rcd13ifvqgvg","pricing_plan_id":"cebpf4jnsgd1na2vs0mg"},{"bike_id":"390e16d7-5b06-464c-925d-b30feaacf01b","system_id":"levelo_inurba_marseille","lat":43.31766,"lon":5.37554,"is_reserved":false,"is_disabled":false,"rental_uris":{"android":"levelo://app?vid=390e16d7-5b06-464c-925d-b30feaacf01b","ios":"levelo://app?vid=390e16d7-5b06-464c-925d-b30feaacf01b"},"vehicle_type_id":"4","last_reported":1734793653,"current_range_meters":33200,"station_id":"","pricing_plan_id":"cebpf4jnsgd1na2vs0mg"},{"bike_id":"c6d6f2e3-a19b-4f12-9273-24fbed440b93","system_id":"levelo_inurba_marseille","lat":43.3027,"lon":5.37725,"is_reserved":false,"is_disabled":false,"rental_uris":{"android":"levelo://app?vid=c6d6f2e3-a19b-4f12-9273-24fbed440b93","ios":"levelo://app?vid=c6d6f2e3-a19b-4f12-9273-24fbed440b93"},"vehicle_type_id":"4","last_reported":1734793653,"current_range_meters":34000,"station_id":"ce4bguh2rcd13ifvqcj0","pricing_plan_id":"cebpf4jnsgd1na2vs0mg"},{"bike_id":"9becddea-ecbc-4149-89d1-f1de80737443","system_id":"levelo_inurba_marseille","lat":43.26678,"lon":5.38262,"is_reserved":false,"is_disabled":false,"rental_uris":{"android":"levelo://app?vid=9becddea-ecbc-4149-89d1-f1de80737443","ios":"levelo://app?vid=9becddea-ecbc-4149-89d1-f1de80737443"},"vehicle_type_id":"4","last_reported":1734793653,"current_range_meters":35200,"station_id":"ce4bhg92rcd13ifvqf90","pricing_plan_id":"cebpf4jnsgd1na2vs0mg"},{"bike_id":"b73b3cc8-26fa-4032-8e99-f74b6ff40c2a","system_id":"levelo_inurba_marseille","lat":43.27004,"lon":5.40223,"is_reserved":false,"is_disabled":false,"rental_uris":{"android":"levelo://app?vid=b73b3cc8-26fa-4032-8e99-f74b6ff40c2a","ios":"levelo://app?vid=b73b3cc8-26fa-4032-8e99-f74b6ff40c2a"},"vehicle_type_id":"4","last_reported":1734793653,"current_range_meters":20000,"station_id":"","pricing_plan_id":"cebpf4jnsgd1na2vs0mg"},{"bike_id":"db122134-c31b-4a82-9b05-bda39f6fec31","system_id":"levelo_inurba_marseille","lat":43.24663,"lon":5.38159,"is_reserved":false,"is_disabled":false,"rental_uris":{"android":"levelo://app?vid=db122134-c31b-4a82-9b05-bda39f6fec31","ios":"levelo://app?vid=db122134-c31b-4a82-9b05-bda39f6fec31"},"vehicle_type_id":"4","last_reported":1734793653,"current_range_meters":36400,"station_id":"ce4bhih2rcd13ifvqfr0","pricing_plan_id":"cebpf4jnsgd1na2vs0mg"},{"bike_id":"32ebf098-e002-4aa6-88f7-5b365ee05e11","system_id":"levelo_inurba_marseille","lat":43.2408,"lon":5.37747,"is_reserved":false,"is_disabled":true,"rental_uris":{"android":"levelo://app?vid=32ebf098-e002-4aa6-88f7-5b365ee05e11","ios":"levelo://app?vid=32ebf098-e002-4aa6-88f7-5b365ee05e11"},"vehicle_type_id":"4","last_reported":1734793653,"current_range_meters":1600,"station_id":"ce4bhnp2rcd13ifvqgvg","pricing_plan_id":"cebpf4jnsgd1na2vs0mg"},{"bike_id":"4b7afde9-10fb-4c99-9992-7cd53645a008","system_id":"levelo_inurba_marseille","lat":43.29615,"lon":5.37722,"is_reserved":false,"is_disabled":false,"rental_uris":{"android":"levelo://app?vid=4b7afde9-10fb-4c99-9992-7cd53645a008","ios":"levelo://app?vid=4b7afde9-10fb-4c99-9992-7cd53645a008"},"vehicle_type_id":"4","last_reported":1734793653,"current_range_meters":38400,"station_id":"ce4bgi92rcd13ifvqb90","pricing_plan_id":"cebpf4jnsgd1na2vs0mg"},{"bike_id":"d0459723-7015-4b1a-97a7-9f2e8ea678f3","system_id":"levelo_inurba_marseille","lat":43.28482,"lon":5.38553,"is_reserved":false,"is_disabled":false,"rental_uris":{"android":"levelo://app?vid=d0459723-7015-4b1a-97a7-9f2e8ea678f3","ios":"levelo://app?vid=d0459723-7015-4b1a-97a7-9f2e8ea678f3"},"vehicle_type_id":"4","last_reported":1734793653,"current_range_meters":25200,"station_id":"ce4bh8p2rcd13ifvqeb0","pricing_plan_id":"cebpf4jnsgd1na2vs0mg"},{"bike_id":"a4cdc68d-9a41-489e-9b1d-3577a4e39cb2","system_id":"levelo_inurba_marseille","lat":43.31727,"lon":5.42404,"is_reserved":false,"is_disabled":false,"rental_uris":{"android":"levelo://app?vid=a4cdc68d-9a41-489e-9b1d-3577a4e39cb2","ios":"levelo://app?vid=a4cdc68d-9a41-489e-9b1d-3577a4e39cb2"},"vehicle_type_id":"4","last_reported":1734793653,"current_range_meters":38800,"station_id":"ce4bhp92rcd13ifvqhbg","pricing_plan_id":"cebpf4jnsgd1na2vs0mg"},{"bike_id":"f699f5c3-f77f-4892-b328-ccf456afa874","system_id":"levelo_inurba_marseille","lat":43.22934,"lon":5.35382,"is_reserved":false,"is_disabled":false,"rental_uris":{"android":"levelo://app?vid=f699f5c3-f77f-4892-b328-ccf456afa874","ios":"levelo://app?vid=f699f5c3-f77f-4892-b328-ccf456afa874"},"vehicle_type_id":"4","last_reported":1734793653,"current_range_meters":22000,"station_id":"cpo3532slgdg3j2ikp40","pricing_plan_id":"cebpf4jnsgd1na2vs0mg"},{"bike_id":"ba623d7f-de4d-43e6-9a39-be19938e75fb","system_id":"levelo_inurba_marseille","lat":43.29357,"lon":5.3786,"is_reserved":false,"is_disabled":true,"rental_uris":{"android":"levelo://app?vid=ba623d7f-de4d-43e6-9a39-be19938e75fb","ios":"levelo://app?vid=ba623d7f-de4d-43e6-9a39-be19938e75fb"},"vehicle_type_id":"4","last_reported":1734793653,"current_range_meters":38000,"station_id":"","pricing_plan_id":"cebpf4jnsgd1na2vs0mg"},{"bike_id":"a1e78d24-4774-40fb-ae35-c4b5aa530a41","system_id":"levelo_inurba_marseille","lat":43.29259,"lon":5.40905,"is_reserved":false,"is_disabled":false,"rental_uris":{"android":"levelo://app?vid=a1e78d24-4774-40fb-ae35-c4b5aa530a41","ios":"levelo://app?vid=a1e78d24-4774-40fb-ae35-c4b5aa530a41"},"vehicle_type_id":"4","last_reported":1734793653,"current_range_meters":38000,"station_id":"ce4bh192rcd13ifvqdc0","pricing_plan_id":"cebpf4jnsgd1na2vs0mg"},{"bike_id":"c073fa6a-f94e-4fab-8a56-0f73febd329a","system_id":"levelo_inurba_marseille","lat":43.27947,"lon":5.41043,"is_reserved":false,"is_disabled":false,"rental_uris":{"android":"levelo://app?vid=c073fa6a-f94e-4fab-8a56-0f73febd329a","ios":"levelo://app?vid=c073fa6a-f94e-4fab-8a56-0f73febd329a"},"vehicle_type_id":"4","last_reported":1734793653,"current_range_meters":12000,"station_id":"ce4bhnp2rcd13ifvqh0g","pricing_plan_id":"cebpf4jnsgd1na2vs0mg"},{"bike_id":"c7c68ddd-8d6e-4df6-afdb-b8c9c0ecd2ac","system_id":"levelo_inurba_marseille","lat":43.29292,"lon":5.37455,"is_reserved":false,"is_disabled":false,"rental_uris":{"android":"levelo://app?vid=c7c68ddd-8d6e-4df6-afdb-b8c9c0ecd2ac","ios":"levelo://app?vid=c7c68ddd-8d6e-4df6-afdb-b8c9c0ecd2ac"},"vehicle_type_id":"4","last_reported":1734793653,"current_range_meters":38800,"station_id":"ce4bgi12rcd13ifvqb70","pricing_plan_id":"cebpf4jnsgd1na2vs0mg"},{"bike_id":"caa28317-677f-4684-8cc6-46932db162b9","system_id":"levelo_inurba_marseille","lat":43.27813,"lon":5.40718,"is_reserved":false,"is_disabled":false,"rental_uris":{"android":"levelo://app?vid=caa28317-677f-4684-8cc6-46932db162b9","ios":"levelo://app?vid=caa28317-677f-4684-8cc6-46932db162b9"},"vehicle_type_id":"4","last_reported":1734793653,"current_range_meters":16800,"station_id":"ce4bhnh2rcd13ifvqgtg","pricing_plan_id":"cebpf4jnsgd1na2vs0mg"},{"bike_id":"d7a9a039-2919-4498-94bc-85df69bbf9b4","system_id":"levelo_inurba_marseille","lat":43.251,"lon":5.39515,"is_reserved":false,"is_disabled":true,"rental_uris":{"android":"levelo://app?vid=d7a9a039-2919-4498-94bc-85df69bbf9b4","ios":"levelo://app?vid=d7a9a039-2919-4498-94bc-85df69bbf9b4"},"vehicle_type_id":"4","last_reported":1734793653,"current_range_meters":0,"station_id":"ce4bhm12rcd13ifvqgkg","pricing_plan_id":"cebpf4jnsgd1na2vs0mg"},{"bike_id":"f6e00a83-cc1f-4aaf-83bb-77e9d3b9e809","system_id":"levelo_inurba_marseille","lat":43.337444,"lon":5.374475,"is_reserved":false,"is_disabled":false,"rental_uris":{"android":"levelo://app?vid=f6e00a83-cc1f-4aaf-83bb-77e9d3b9e809","ios":"levelo://app?vid=f6e00a83-cc1f-4aaf-83bb-77e9d3b9e809"},"vehicle_type_id":"4","last_reported":1734793653,"current_range_meters":28000,"station_id":"","pricing_plan_id":"cebpf4jnsgd1na2vs0mg"},{"bike_id":"4557c5fc-60ed-4c34-9596-70c70138f451","system_id":"levelo_inurba_marseille","lat":43.29621,"lon":5.37152,"is_reserved":false,"is_disabled":true,"rental_uris":{"android":"levelo://app?vid=4557c5fc-60ed-4c34-9596-70c70138f451","ios":"levelo://app?vid=4557c5fc-60ed-4c34-9596-70c70138f451"},"vehicle_type_id":"4","last_reported":1734793653,"current_range_meters":0,"station_id":"","pricing_plan_id":"cebpf4jnsgd1na2vs0mg"},{"bike_id":"ab03df0b-543d-4c8b-95ec-4ff2feeef006","system_id":"levelo_inurba_marseille","lat":43.29604,"lon":5.37727,"is_reserved":false,"is_disabled":false,"rental_uris":{"android":"levelo://app?vid=ab03df0b-543d-4c8b-95ec-4ff2feeef006","ios":"levelo://app?vid=ab03df0b-543d-4c8b-95ec-4ff2feeef006"},"vehicle_type_id":"4","last_reported":1734793653,"current_range_meters":38800,"station_id":"ce4bgi92rcd13ifvqb90","pricing_plan_id":"cebpf4jnsgd1na2vs0mg"},{"bike_id":"5cb32567-f788-4d0d-b4de-698f7cf52ac2","system_id":"levelo_inurba_marseille","lat":43.24077,"lon":5.37746,"is_reserved":false,"is_disabled":false,"rental_uris":{"android":"levelo://app?vid=5cb32567-f788-4d0d-b4de-698f7cf52ac2","ios":"levelo://app?vid=5cb32567-f788-4d0d-b4de-698f7cf52ac2"},"vehicle_type_id":"4","last_reported":1734793653,"current_range_meters":25600,"station_id":"ce4bhnp2rcd13ifvqgvg","pricing_plan_id":"cebpf4jnsgd1na2vs0mg"},{"bike_id":"17d30a96-138c-46ae-a54f-40f6ca75312f","system_id":"levelo_inurba_marseille","lat":43.30543,"lon":5.36728,"is_reserved":false,"is_disabled":false,"rental_uris":{"android":"levelo://app?vid=17d30a96-138c-46ae-a54f-40f6ca75312f","ios":"levelo://app?vid=17d30a96-138c-46ae-a54f-40f6ca75312f"},"vehicle_type_id":"4","last_reported":1734793653,"current_range_meters":6800,"station_id":"ce4bgrp2rcd13ifvqc9g","pricing_plan_id":"cebpf4jnsgd1na2vs0mg"},{"bike_id":"1910512a-9845-4b3f-8371-c811065d1a82","system_id":"levelo_inurba_marseille","lat":43.28276,"lon":5.35058,"is_reserved":false,"is_disabled":false,"rental_uris":{"android":"levelo://app?vid=1910512a-9845-4b3f-8371-c811065d1a82","ios":"levelo://app?vid=1910512a-9845-4b3f-8371-c811065d1a82"},"vehicle_type_id":"4","last_reported":1734793653,"current_range_meters":12800,"station_id":"ce4bhbp2rcd13ifvqerg","pricing_plan_id":"cebpf4jnsgd1na2vs0mg"},{"bike_id":"a10c3e4f-e4d5-44ed-8f32-eb7fc4c1879c","system_id":"levelo_inurba_marseille","lat":43.284801,"lon":5.384229,"is_reserved":false,"is_disabled":false,"rental_uris":{"android":"levelo://app?vid=a10c3e4f-e4d5-44ed-8f32-eb7fc4c1879c","ios":"levelo://app?vid=a10c3e4f-e4d5-44ed-8f32-eb7fc4c1879c"},"vehicle_type_id":"4","last_reported":1734793653,"current_range_meters":31200,"station_id":"ce4bh512rcd13ifvqe3g","pricing_plan_id":"cebpf4jnsgd1na2vs0mg"},{"bike_id":"ea6a53be-9a75-473b-b166-afd23e8ce576","system_id":"levelo_inurba_marseille","lat":43.29922,"lon":5.37461,"is_reserved":false,"is_disabled":false,"rental_uris":{"android":"levelo://app?vid=ea6a53be-9a75-473b-b166-afd23e8ce576","ios":"levelo://app?vid=ea6a53be-9a75-473b-b166-afd23e8ce576"},"vehicle_type_id":"4","last_reported":1734793653,"current_range_meters":38000,"station_id":"ce4bgjh2rcd13ifvqbg0","pricing_plan_id":"cebpf4jnsgd1na2vs0mg"},{"bike_id":"e9b9d51c-3835-4f0a-860c-dca30cbf1462","system_id":"levelo_inurba_marseille","lat":43.29843,"lon":5.36276,"is_reserved":false,"is_disabled":false,"rental_uris":{"android":"levelo://app?vid=e9b9d51c-3835-4f0a-860c-dca30cbf1462","ios":"levelo://app?vid=e9b9d51c-3835-4f0a-860c-dca30cbf1462"},"vehicle_type_id":"4","last_reported":1734793653,"current_range_meters":38800,"station_id":"ce4bgpp2rcd13ifvqc3g","pricing_plan_id":"cebpf4jnsgd1na2vs0mg"},{"bike_id":"9e4fd3af-a38c-4cc0-a669-b23d39435e38","system_id":"levelo_inurba_marseille","lat":43.27067,"lon":5.42272,"is_reserved":false,"is_disabled":false,"rental_uris":{"android":"levelo://app?vid=9e4fd3af-a38c-4cc0-a669-b23d39435e38","ios":"levelo://app?vid=9e4fd3af-a38c-4cc0-a669-b23d39435e38"},"vehicle_type_id":"4","last_reported":1734793653,"current_range_meters":25200,"station_id":"ce4bhk92rcd13ifvqgb0","pricing_plan_id":"cebpf4jnsgd1na2vs0mg"},{"bike_id":"8d23ef1c-4d80-41f5-8856-02b6ab55c880","system_id":"levelo_inurba_marseille","lat":43.33727,"lon":5.39183,"is_reserved":false,"is_disabled":false,"rental_uris":{"android":"levelo://app?vid=8d23ef1c-4d80-41f5-8856-02b6ab55c880","ios":"levelo://app?vid=8d23ef1c-4d80-41f5-8856-02b6ab55c880"},"vehicle_type_id":"4","last_reported":1734793653,"current_range_meters":35600,"station_id":"ce4bhr92rcd13ifvqhsg","pricing_plan_id":"cebpf4jnsgd1na2vs0mg"},{"bike_id":"273828d0-ad53-4df1-ab71-8bd58cada311","system_id":"levelo_inurba_marseille","lat":43.23196,"lon":5.39979,"is_reserved":false,"is_disabled":false,"rental_uris":{"android":"levelo://app?vid=273828d0-ad53-4df1-ab71-8bd58cada311","ios":"levelo://app?vid=273828d0-ad53-4df1-ab71-8bd58cada311"},"vehicle_type_id":"4","last_reported":1734793653,"current_range_meters":12400,"station_id":"ce4bhn12rcd13ifvqgqg","pricing_plan_id":"cebpf4jnsgd1na2vs0mg"},{"bike_id":"bc3230d4-c5dd-4006-a1a1-75a048a6a931","system_id":"levelo_inurba_marseille","lat":43.29294,"lon":5.37446,"is_reserved":false,"is_disabled":false,"rental_uris":{"android":"levelo://app?vid=bc3230d4-c5dd-4006-a1a1-75a048a6a931","ios":"levelo://app?vid=bc3230d4-c5dd-4006-a1a1-75a048a6a931"},"vehicle_type_id":"4","last_reported":1734793653,"current_range_meters":32800,"station_id":"ce4bgi12rcd13ifvqb70","pricing_plan_id":"cebpf4jnsgd1na2vs0mg"},{"bike_id":"29666aa4-269c-46ca-8ed0-7ecc022f915c","system_id":"levelo_inurba_marseille","lat":43.29536,"lon":5.37484,"is_reserved":false,"is_disabled":false,"rental_uris":{"android":"levelo://app?vid=29666aa4-269c-46ca-8ed0-7ecc022f915c","ios":"levelo://app?vid=29666aa4-269c-46ca-8ed0-7ecc022f915c"},"vehicle_type_id":"4","last_reported":1734793653,"current_range_meters":14000,"station_id":"ce4bgkp2rcd13ifvqbmg","pricing_plan_id":"cebpf4jnsgd1na2vs0mg"},{"bike_id":"d60d8232-4a96-492d-9348-9c3d8bdfda03","system_id":"levelo_inurba_marseille","lat":43.29848,"lon":5.36272,"is_reserved":false,"is_disabled":false,"rental_uris":{"android":"levelo://app?vid=d60d8232-4a96-492d-9348-9c3d8bdfda03","ios":"levelo://app?vid=d60d8232-4a96-492d-9348-9c3d8bdfda03"},"vehicle_type_id":"4","last_reported":1734793653,"current_range_meters":38800,"station_id":"ce4bgpp2rcd13ifvqc3g","pricing_plan_id":"cebpf4jnsgd1na2vs0mg"},{"bike_id":"539203bc-51c2-4813-a6b7-236ed58f7ab4","system_id":"levelo_inurba_marseille","lat":43.26686,"lon":5.38269,"is_reserved":false,"is_disabled":false,"rental_uris":{"android":"levelo://app?vid=539203bc-51c2-4813-a6b7-236ed58f7ab4","ios":"levelo://app?vid=539203bc-51c2-4813-a6b7-236ed58f7ab4"},"vehicle_type_id":"4","last_reported":1734793653,"current_range_meters":30800,"station_id":"ce4bhg92rcd13ifvqf90","pricing_plan_id":"cebpf4jnsgd1na2vs0mg"},{"bike_id":"17492939-1045-4c70-9488-077cf10a86e0","system_id":"levelo_inurba_marseille","lat":43.28267,"lon":5.35063,"is_reserved":false,"is_disabled":false,"rental_uris":{"android":"levelo://app?vid=17492939-1045-4c70-9488-077cf10a86e0","ios":"levelo://app?vid=17492939-1045-4c70-9488-077cf10a86e0"},"vehicle_type_id":"4","last_reported":1734793653,"current_range_meters":16800,"station_id":"ce4bhbp2rcd13ifvqerg","pricing_plan_id":"cebpf4jnsgd1na2vs0mg"},{"bike_id":"677eab5b-ffd2-4968-9453-5e5949722b12","system_id":"levelo_inurba_marseille","lat":43.2962,"lon":5.37722,"is_reserved":false,"is_disabled":false,"rental_uris":{"android":"levelo://app?vid=677eab5b-ffd2-4968-9453-5e5949722b12","ios":"levelo://app?vid=677eab5b-ffd2-4968-9453-5e5949722b12"},"vehicle_type_id":"4","last_reported":1734793653,"current_range_meters":18800,"station_id":"ce4bgi92rcd13ifvqb90","pricing_plan_id":"cebpf4jnsgd1na2vs0mg"},{"bike_id":"5616f765-98f8-4b47-a06f-0f90961641ed","system_id":"levelo_inurba_marseille","lat":43.29739,"lon":5.37679,"is_reserved":false,"is_disabled":false,"rental_uris":{"android":"levelo://app?vid=5616f765-98f8-4b47-a06f-0f90961641ed","ios":"levelo://app?vid=5616f765-98f8-4b47-a06f-0f90961641ed"},"vehicle_type_id":"4","last_reported":1734793653,"current_range_meters":38800,"station_id":"ce4bgkh2rcd13ifvqbl0","pricing_plan_id":"cebpf4jnsgd1na2vs0mg"},{"bike_id":"9232b658-6799-44ea-b591-35b9656c3c1e","system_id":"levelo_inurba_marseille","lat":43.29033,"lon":5.38652,"is_reserved":false,"is_disabled":true,"rental_uris":{"android":"levelo://app?vid=9232b658-6799-44ea-b591-35b9656c3c1e","ios":"levelo://app?vid=9232b658-6799-44ea-b591-35b9656c3c1e"},"vehicle_type_id":"4","last_reported":1734793653,"current_range_meters":1200,"station_id":"ce4bh4p2rcd13ifvqe0g","pricing_plan_id":"cebpf4jnsgd1na2vs0mg"},{"bike_id":"646232ca-85af-4543-9491-77ec5822ec23","system_id":"levelo_inurba_marseille","lat":43.29833,"lon":5.36266,"is_reserved":false,"is_disabled":false,"rental_uris":{"android":"levelo://app?vid=646232ca-85af-4543-9491-77ec5822ec23","ios":"levelo://app?vid=646232ca-85af-4543-9491-77ec5822ec23"},"vehicle_type_id":"4","last_reported":1734793653,"current_range_meters":37600,"station_id":"ce4bgpp2rcd13ifvqc3g","pricing_plan_id":"cebpf4jnsgd1na2vs0mg"},{"bike_id":"965ecbf4-1a7c-4595-a060-2444f18ec2db","system_id":"levelo_inurba_marseille","lat":43.31484,"lon":5.37304,"is_reserved":false,"is_disabled":true,"rental_uris":{"android":"levelo://app?vid=965ecbf4-1a7c-4595-a060-2444f18ec2db","ios":"levelo://app?vid=965ecbf4-1a7c-4595-a060-2444f18ec2db"},"vehicle_type_id":"4","last_reported":1734793653,"current_range_meters":0,"station_id":"ce4bgt12rcd13ifvqcd0","pricing_plan_id":"cebpf4jnsgd1na2vs0mg"},{"bike_id":"eff4c99f-26a0-4e6e-a296-4e85cdb315fb","system_id":"levelo_inurba_marseille","lat":43.30546,"lon":5.3656,"is_reserved":false,"is_disabled":false,"rental_uris":{"android":"levelo://app?vid=eff4c99f-26a0-4e6e-a296-4e85cdb315fb","ios":"levelo://app?vid=eff4c99f-26a0-4e6e-a296-4e85cdb315fb"},"vehicle_type_id":"4","last_reported":1734793653,"current_range_meters":14800,"station_id":"ce4bgs12rcd13ifvqcag","pricing_plan_id":"cebpf4jnsgd1na2vs0mg"},{"bike_id":"737943dc-1fd6-4277-a186-f0f75c057e75","system_id":"levelo_inurba_marseille","lat":43.28259,"lon":5.35067,"is_reserved":false,"is_disabled":true,"rental_uris":{"android":"levelo://app?vid=737943dc-1fd6-4277-a186-f0f75c057e75","ios":"levelo://app?vid=737943dc-1fd6-4277-a186-f0f75c057e75"},"vehicle_type_id":"4","last_reported":1734793653,"current_range_meters":0,"station_id":"ce4bhbp2rcd13ifvqerg","pricing_plan_id":"cebpf4jnsgd1na2vs0mg"},{"bike_id":"d98f8e50-1bb7-4b5d-8e73-97daccd1f86a","system_id":"levelo_inurba_marseille","lat":43.27947,"lon":5.41054,"is_reserved":false,"is_disabled":false,"rental_uris":{"android":"levelo://app?vid=d98f8e50-1bb7-4b5d-8e73-97daccd1f86a","ios":"levelo://app?vid=d98f8e50-1bb7-4b5d-8e73-97daccd1f86a"},"vehicle_type_id":"4","last_reported":1734793653,"current_range_meters":16400,"station_id":"ce4bhnp2rcd13ifvqh0g","pricing_plan_id":"cebpf4jnsgd1na2vs0mg"},{"bike_id":"64a81806-f05e-4e8f-bcc9-ef77c3bb11b8","system_id":"levelo_inurba_marseille","lat":43.28479,"lon":5.3841,"is_reserved":false,"is_disabled":false,"rental_uris":{"android":"levelo://app?vid=64a81806-f05e-4e8f-bcc9-ef77c3bb11b8","ios":"levelo://app?vid=64a81806-f05e-4e8f-bcc9-ef77c3bb11b8"},"vehicle_type_id":"4","last_reported":1734793653,"current_range_meters":37600,"station_id":"ce4bh512rcd13ifvqe3g","pricing_plan_id":"cebpf4jnsgd1na2vs0mg"},{"bike_id":"b8d260cf-50ef-4503-9984-4adad737a4fe","system_id":"levelo_inurba_marseille","lat":43.28714,"lon":5.3738,"is_reserved":false,"is_disabled":false,"rental_uris":{"android":"levelo://app?vid=b8d260cf-50ef-4503-9984-4adad737a4fe","ios":"levelo://app?vid=b8d260cf-50ef-4503-9984-4adad737a4fe"},"vehicle_type_id":"4","last_reported":1734793653,"current_range_meters":34800,"station_id":"ce4bh3p2rcd13ifvqdq0","pricing_plan_id":"cebpf4jnsgd1na2vs0mg"},{"bike_id":"e353d62c-c5ff-4f13-94a9-2d54b9fdbe08","system_id":"levelo_inurba_marseille","lat":43.288463,"lon":5.358413,"is_reserved":false,"is_disabled":true,"rental_uris":{"android":"levelo://app?vid=e353d62c-c5ff-4f13-94a9-2d54b9fdbe08","ios":"levelo://app?vid=e353d62c-c5ff-4f13-94a9-2d54b9fdbe08"},"vehicle_type_id":"4","last_reported":1734793653,"current_range_meters":0,"station_id":"ce4bhb12rcd13ifvqem0","pricing_plan_id":"cebpf4jnsgd1na2vs0mg"},{"bike_id":"6f8a0222-30d9-4acd-9679-9f18eea26dbe","system_id":"levelo_inurba_marseille","lat":43.24675,"lon":5.38158,"is_reserved":false,"is_disabled":false,"rental_uris":{"android":"levelo://app?vid=6f8a0222-30d9-4acd-9679-9f18eea26dbe","ios":"levelo://app?vid=6f8a0222-30d9-4acd-9679-9f18eea26dbe"},"vehicle_type_id":"4","last_reported":1734793653,"current_range_meters":16000,"station_id":"ce4bhih2rcd13ifvqfr0","pricing_plan_id":"cebpf4jnsgd1na2vs0mg"},{"bike_id":"aab87abb-af94-4a0e-9283-46e3ceb06fc8","system_id":"levelo_inurba_marseille","lat":43.27377,"lon":5.36255,"is_reserved":false,"is_disabled":false,"rental_uris":{"android":"levelo://app?vid=aab87abb-af94-4a0e-9283-46e3ceb06fc8","ios":"levelo://app?vid=aab87abb-af94-4a0e-9283-46e3ceb06fc8"},"vehicle_type_id":"4","last_reported":1734793653,"current_range_meters":36400,"station_id":"ce4bhbh2rcd13ifvqeo0","pricing_plan_id":"cebpf4jnsgd1na2vs0mg"},{"bike_id":"c784c8f1-d3cd-4f0d-b162-b9a312206c9c","system_id":"levelo_inurba_marseille","lat":43.2721,"lon":5.3918,"is_reserved":false,"is_disabled":false,"rental_uris":{"android":"levelo://app?vid=c784c8f1-d3cd-4f0d-b162-b9a312206c9c","ios":"levelo://app?vid=c784c8f1-d3cd-4f0d-b162-b9a312206c9c"},"vehicle_type_id":"4","last_reported":1734793653,"current_range_meters":38800,"station_id":"ce4bhhp2rcd13ifvqfm0","pricing_plan_id":"cebpf4jnsgd1na2vs0mg"},{"bike_id":"870ac398-0980-41bc-b29b-852a736f71c6","system_id":"levelo_inurba_marseille","lat":43.29938,"lon":5.36526,"is_reserved":false,"is_disabled":false,"rental_uris":{"android":"levelo://app?vid=870ac398-0980-41bc-b29b-852a736f71c6","ios":"levelo://app?vid=870ac398-0980-41bc-b29b-852a736f71c6"},"vehicle_type_id":"4","last_reported":1734793653,"current_range_meters":18800,"station_id":"ce4bgm92rcd13ifvqbr0","pricing_plan_id":"cebpf4jnsgd1na2vs0mg"},{"bike_id":"46697d06-0ef4-47cb-a02a-1fcc9b97bedb","system_id":"levelo_inurba_marseille","lat":43.2962,"lon":5.3773,"is_reserved":false,"is_disabled":false,"rental_uris":{"android":"levelo://app?vid=46697d06-0ef4-47cb-a02a-1fcc9b97bedb","ios":"levelo://app?vid=46697d06-0ef4-47cb-a02a-1fcc9b97bedb"},"vehicle_type_id":"4","last_reported":1734793653,"current_range_meters":22400,"station_id":"ce4bgi92rcd13ifvqb90","pricing_plan_id":"cebpf4jnsgd1na2vs0mg"},{"bike_id":"a37c10b7-1da8-4cc6-b0f3-2a310cde69cc","system_id":"levelo_inurba_marseille","lat":43.29513,"lon":5.39032,"is_reserved":false,"is_disabled":true,"rental_uris":{"android":"levelo://app?vid=a37c10b7-1da8-4cc6-b0f3-2a310cde69cc","ios":"levelo://app?vid=a37c10b7-1da8-4cc6-b0f3-2a310cde69cc"},"vehicle_type_id":"4","last_reported":1734793653,"current_range_meters":30800,"station_id":"ce4bh3p2rcd13ifvqdp0","pricing_plan_id":"cebpf4jnsgd1na2vs0mg"},{"bike_id":"d1853d76-78cf-466d-9558-f0792250c702","system_id":"levelo_inurba_marseille","lat":43.33742,"lon":5.37449,"is_reserved":false,"is_disabled":false,"rental_uris":{"android":"levelo://app?vid=d1853d76-78cf-466d-9558-f0792250c702","ios":"levelo://app?vid=d1853d76-78cf-466d-9558-f0792250c702"},"vehicle_type_id":"4","last_reported":1734793653,"current_range_meters":28800,"station_id":"","pricing_plan_id":"cebpf4jnsgd1na2vs0mg"},{"bike_id":"392ce546-2273-4afb-8c3e-86414d573312","system_id":"levelo_inurba_marseille","lat":43.29601,"lon":5.38107,"is_reserved":false,"is_disabled":false,"rental_uris":{"android":"levelo://app?vid=392ce546-2273-4afb-8c3e-86414d573312","ios":"levelo://app?vid=392ce546-2273-4afb-8c3e-86414d573312"},"vehicle_type_id":"4","last_reported":1734793653,"current_range_meters":22800,"station_id":"ce4bgl12rcd13ifvqbo0","pricing_plan_id":"cebpf4jnsgd1na2vs0mg"},{"bike_id":"8748b527-011a-44e2-b7fd-54ba8b4e0814","system_id":"levelo_inurba_marseille","lat":43.22932,"lon":5.35376,"is_reserved":false,"is_disabled":false,"rental_uris":{"android":"levelo://app?vid=8748b527-011a-44e2-b7fd-54ba8b4e0814","ios":"levelo://app?vid=8748b527-011a-44e2-b7fd-54ba8b4e0814"},"vehicle_type_id":"4","last_reported":1734793653,"current_range_meters":16000,"station_id":"cpo3532slgdg3j2ikp40","pricing_plan_id":"cebpf4jnsgd1na2vs0mg"},{"bike_id":"fc4d3979-46c7-43c7-8727-9d5ef59b2f96","system_id":"levelo_inurba_marseille","lat":43.29366,"lon":5.37848,"is_reserved":false,"is_disabled":false,"rental_uris":{"android":"levelo://app?vid=fc4d3979-46c7-43c7-8727-9d5ef59b2f96","ios":"levelo://app?vid=fc4d3979-46c7-43c7-8727-9d5ef59b2f96"},"vehicle_type_id":"4","last_reported":1734793653,"current_range_meters":9600,"station_id":"ce4bgjh2rcd13ifvqbf0","pricing_plan_id":"cebpf4jnsgd1na2vs0mg"},{"bike_id":"e26bfda6-8e04-4c36-a45c-e35853dbc7f8","system_id":"levelo_inurba_marseille","lat":43.29521,"lon":5.39038,"is_reserved":false,"is_disabled":false,"rental_uris":{"android":"levelo://app?vid=e26bfda6-8e04-4c36-a45c-e35853dbc7f8","ios":"levelo://app?vid=e26bfda6-8e04-4c36-a45c-e35853dbc7f8"},"vehicle_type_id":"4","last_reported":1734793653,"current_range_meters":37600,"station_id":"ce4bh3p2rcd13ifvqdp0","pricing_plan_id":"cebpf4jnsgd1na2vs0mg"},{"bike_id":"47cc93a7-70b5-45bf-991b-f441a77935aa","system_id":"levelo_inurba_marseille","lat":43.27319,"lon":5.39099,"is_reserved":false,"is_disabled":false,"rental_uris":{"android":"levelo://app?vid=47cc93a7-70b5-45bf-991b-f441a77935aa","ios":"levelo://app?vid=47cc93a7-70b5-45bf-991b-f441a77935aa"},"vehicle_type_id":"4","last_reported":1734793653,"current_range_meters":38400,"station_id":"ce4bhgp2rcd13ifvqfe0","pricing_plan_id":"cebpf4jnsgd1na2vs0mg"},{"bike_id":"76f7298d-23db-43ba-97cb-ee0a1bca30fa","system_id":"levelo_inurba_marseille","lat":43.2693,"lon":5.40251,"is_reserved":false,"is_disabled":false,"rental_uris":{"android":"levelo://app?vid=76f7298d-23db-43ba-97cb-ee0a1bca30fa","ios":"levelo://app?vid=76f7298d-23db-43ba-97cb-ee0a1bca30fa"},"vehicle_type_id":"4","last_reported":1734793653,"current_range_meters":38800,"station_id":"cjm6bp8fraef2m0cb0m0","pricing_plan_id":"cebpf4jnsgd1na2vs0mg"},{"bike_id":"39cb86bd-d333-444c-a321-d07277f74a29","system_id":"levelo_inurba_marseille","lat":43.265516,"lon":5.3729,"is_reserved":false,"is_disabled":false,"rental_uris":{"android":"levelo://app?vid=39cb86bd-d333-444c-a321-d07277f74a29","ios":"levelo://app?vid=39cb86bd-d333-444c-a321-d07277f74a29"},"vehicle_type_id":"4","last_reported":1734793653,"current_range_meters":32800,"station_id":"ce4bhg12rcd13ifvqf70","pricing_plan_id":"cebpf4jnsgd1na2vs0mg"},{"bike_id":"5de77257-80f5-4126-8140-fd63253300d0","system_id":"levelo_inurba_marseille","lat":43.27074,"lon":5.42275,"is_reserved":false,"is_disabled":false,"rental_uris":{"android":"levelo://app?vid=5de77257-80f5-4126-8140-fd63253300d0","ios":"levelo://app?vid=5de77257-80f5-4126-8140-fd63253300d0"},"vehicle_type_id":"4","last_reported":1734793653,"current_range_meters":8400,"station_id":"ce4bhk92rcd13ifvqgb0","pricing_plan_id":"cebpf4jnsgd1na2vs0mg"},{"bike_id":"a2eba22b-b0ee-4005-9bf3-576bb458d391","system_id":"levelo_inurba_marseille","lat":43.279651,"lon":5.387544,"is_reserved":false,"is_disabled":true,"rental_uris":{"android":"levelo://app?vid=a2eba22b-b0ee-4005-9bf3-576bb458d391","ios":"levelo://app?vid=a2eba22b-b0ee-4005-9bf3-576bb458d391"},"vehicle_type_id":"4","last_reported":1734793653,"current_range_meters":0,"station_id":"","pricing_plan_id":"cebpf4jnsgd1na2vs0mg"},{"bike_id":"8aa4b71b-d877-4fb0-8b5e-2c201f8eedc2","system_id":"levelo_inurba_marseille","lat":43.29181,"lon":5.37153,"is_reserved":false,"is_disabled":false,"rental_uris":{"android":"levelo://app?vid=8aa4b71b-d877-4fb0-8b5e-2c201f8eedc2","ios":"levelo://app?vid=8aa4b71b-d877-4fb0-8b5e-2c201f8eedc2"},"vehicle_type_id":"4","last_reported":1734793653,"current_range_meters":38800,"station_id":"ce4bha92rcd13ifvqeh0","pricing_plan_id":"cebpf4jnsgd1na2vs0mg"},{"bike_id":"11e31868-fd43-43b0-95aa-4d96e7cf84ea","system_id":"levelo_inurba_marseille","lat":43.22934,"lon":5.3538,"is_reserved":false,"is_disabled":false,"rental_uris":{"android":"levelo://app?vid=11e31868-fd43-43b0-95aa-4d96e7cf84ea","ios":"levelo://app?vid=11e31868-fd43-43b0-95aa-4d96e7cf84ea"},"vehicle_type_id":"4","last_reported":1734793653,"current_range_meters":10800,"station_id":"cpo3532slgdg3j2ikp40","pricing_plan_id":"cebpf4jnsgd1na2vs0mg"},{"bike_id":"5c947138-4462-4c28-a25a-8fcdf6b4a3a2","system_id":"levelo_inurba_marseille","lat":43.33023,"lon":5.39037,"is_reserved":false,"is_disabled":false,"rental_uris":{"android":"levelo://app?vid=5c947138-4462-4c28-a25a-8fcdf6b4a3a2","ios":"levelo://app?vid=5c947138-4462-4c28-a25a-8fcdf6b4a3a2"},"vehicle_type_id":"4","last_reported":1734793653,"current_range_meters":38800,"station_id":"ce4bhr92rcd13ifvqhrg","pricing_plan_id":"cebpf4jnsgd1na2vs0mg"},{"bike_id":"e8b9266a-288a-46d4-af3d-7f133e6bf0fb","system_id":"levelo_inurba_marseille","lat":43.29912,"lon":5.37478,"is_reserved":false,"is_disabled":false,"rental_uris":{"android":"levelo://app?vid=e8b9266a-288a-46d4-af3d-7f133e6bf0fb","ios":"levelo://app?vid=e8b9266a-288a-46d4-af3d-7f133e6bf0fb"},"vehicle_type_id":"4","last_reported":1734793653,"current_range_meters":35600,"station_id":"ce4bgjh2rcd13ifvqbg0","pricing_plan_id":"cebpf4jnsgd1na2vs0mg"},