{"last_updated":1747275969,"ttl":60,"version":"2.2","data":{"bikes":[{"bike_id":"96d0275a-ccec-4de6-ad25-67ea77d4c332","system_id":"levelo_inurba_marseille","lat":43.297718,"lon":5.40035,"is_reserved":false,"is_disabled":false,"rental_uris":{"android":"levelo://app?vid=96d0275a-ccec-4de6-ad25-67ea77d4c332","ios":"levelo://app?vid=96d0275a-ccec-4de6-ad25-67ea77d4c332"},"vehicle_type_id":"4","last_reported":1747275969,"current_range_meters":2800,"station_id":"ce4bh492rcd13ifvqdvg","pricing_plan_id":"cebpf4jnsgd1na2vs0mg"},{"bike_id":"fcc4ef96-c15e-4bef-9606-819e508051db","system_id":"levelo_inurba_marseille","lat":43.2624,"lon":5.42121,"is_reserved":false,"is_disabled":false,"rental_uris":{"android":"levelo://app?vid=fcc4ef96-c15e-4bef-9606-819e508051db","ios":"levelo://app?vid=fcc4ef96-c15e-4bef-9606-819e508051db"},"vehicle_type_id":"4","last_reported":1747275969,"current_range_meters":3200,"station_id":"","pricing_plan_id":"cebpf4jnsgd1na2vs0mg"},{"bike_id":"912bf903-0f2a-432c-bd15-a66ca82953f2","system_id":"levelo_inurba_marseille","lat":43.295474,"lon":5.422936,"is_reserved":false,"is_disabled":true,"rental_uris":{"android":"levelo://app?vid=912bf903-0f2a-432c-bd15-a66ca82953f2","ios":"levelo://app?vid=912bf903-0f2a-432c-bd15-a66ca82953f2"},"vehicle_type_id":"4","last_reported":1747275969,"current_range_meters":3200,"station_id":"ce4bhph2rcd13ifvqhdg","pricing_plan_id":"cebpf4jnsgd1na2vs0mg"},{"bike_id":"bd712a64-b07a-487b-b522-7c79ec3b3302","system_id":"levelo_inurba_marseille","lat":43.30112,"lon":5.39906,"is_reserved":false,"is_disabled":true,"rental_uris":{"android":"levelo://app?vid=bd712a64-b07a-487b-b522-7c79ec3b3302","ios":"levelo://app?vid=bd712a64-b07a-487b-b522-7c79ec3b3302"},"vehicle_type_id":"4","last_reported":1747275969,"current_range_meters":4000,"station_id":"ce4bh0h2rcd13ifvqd40","pricing_plan_id":"cebpf4jnsgd1na2vs0mg"},{"bike_id":"ce4325af-2448-4172-bdec-81d552ee0b62","system_id":"levelo_inurba_marseille","lat":43.26167,"lon":5.42036,"is_reserved":false,"is_disabled":false,"rental_uris":{"android":"levelo://app?vid=ce4325af-2448-4172-bdec-81d552ee0b62","ios":"levelo://app?vid=ce4325af-2448-4172-bdec-81d552ee0b62"},"vehicle_type_id":"4","last_reported":1747275969,"current_range_meters":4000,"station_id":"","pricing_plan_id":"cebpf4jnsgd1na2vs0mg"},{"bike_id":"cbe5d074-3657-4a38-a945-adda68e4e374","system_id":"levelo_inurba_marseille","lat":43.3248,"lon":5.3659,"is_reserved":false,"is_disabled":false,"rental_uris":{"android":"levelo://app?vid=cbe5d074-3657-4a38-a945-adda68e4e374","ios":"levelo://app?vid=cbe5d074-3657-4a38-a945-adda68e4e374"},"vehicle_type_id":"4","last_reported":1747275969,"current_range_meters":4000,"station_id":"ce4bhs12rcd13ifvqhvg","pricing_plan_id":"cebpf4jnsgd1na2vs0mg"},{"bike_id":"6953ca09-b1d0-473e-8b94-d568eb1a7f43","system_id":"levelo_inurba_marseille","lat":43.28854,"lon":5.37138,"is_reserved":false,"is_disabled":false,"rental_uris":{"android":"levelo://app?vid=6953ca09-b1d0-473e-8b94-d568eb1a7f43","ios":"levelo://app?vid=6953ca09-b1d0-473e-8b94-d568eb1a7f43"},"vehicle_type_id":"4","last_reported":1747275969,"current_range_meters":4000,"station_id":"","pricing_plan_id":"cebpf4jnsgd1na2vs0mg"},{"bike_id":"893cee9f-22ed-4823-82b3-4da288b81784","system_id":"levelo_inurba_marseille","lat":43.30581,"lon":5.393576,"is_reserved":false,"is_disabled":false,"rental_uris":{"android":"levelo://app?vid=893cee9f-22ed-4823-82b3-4da288b81784","ios":"levelo://app?vid=893cee9f-22ed-4823-82b3-4da288b81784"},"vehicle_type_id":"4","last_reported":1747275969,"current_range_meters":4400,"station_id":"","pricing_plan_id":"cebpf4jnsgd1na2vs0mg"},{"bike_id":"75bc4e83-c3de-45ba-95d5-175cdf321809","system_id":"levelo_inurba_marseille","lat":43.27944,"lon":5.41028,"is_reserved":false,"is_disabled":false,"rental_uris":{"android":"levelo://app?vid=75bc4e83-c3de-45ba-95d5-175cdf321809","ios":"levelo://app?vid=75bc4e83-c3de-45ba-95d5-175cdf321809"},"vehicle_type_id":"4","last_reported":1747275969,"current_range_meters":4400,"station_id":"ce4bhnp2rcd13ifvqh0g","pricing_plan_id":"cebpf4jnsgd1na2vs0mg"},{"bike_id":"f37b7848-b34f-4203-8cd6-ee4ac88ff930","system_id":"levelo_inurba_marseille","lat":43.239583,"lon":5.366283,"is_reserved":false,"is_disabled":false,"rental_uris":{"android":"levelo://app?vid=f37b7848-b34f-4203-8cd6-ee4ac88ff930","ios":"levelo://app?vid=f37b7848-b34f-4203-8cd6-ee4ac88ff930"},"vehicle_type_id":"4","last_reported":1747275969,"current_range_meters":4400,"station_id":"ce4bhi12rcd13ifvqfp0","pricing_plan_id":"cebpf4jnsgd1na2vs0mg"},{"bike_id":"5439b638-afb1-4011-a479-a041ff362f9b","system_id":"levelo_inurba_marseille","lat":43.292535,"lon":5.409004,"is_reserved":false,"is_disabled":false,"rental_uris":{"android":"levelo://app?vid=5439b638-afb1-4011-a479-a041ff362f9b","ios":"levelo://app?vid=5439b638-afb1-4011-a479-a041ff362f9b"},"vehicle_type_id":"4","last_reported":1747275969,"current_range_meters":4400,"station_id":"ce4bh192rcd13ifvqdc0","pricing_plan_id":"cebpf4jnsgd1na2vs0mg"},{"bike_id":"8ac635af-ea30-437d-b68f-a3dce7c0fc86","system_id":"levelo_inurba_marseille","lat":43.29273,"lon":5.40135,"is_reserved":false,"is_disabled":false,"rental_uris":{"android":"levelo://app?vid=8ac635af-ea30-437d-b68f-a3dce7c0fc86","ios":"levelo://app?vid=8ac635af-ea30-437d-b68f-a3dce7c0fc86"},"vehicle_type_id":"4","last_reported":1747275969,"current_range_meters":4800,"station_id":"ce4bh312rcd13ifvqdk0","pricing_plan_id":"cebpf4jnsgd1na2vs0mg"},{"bike_id":"fbf909cb-c8fa-4bb5-adf7-8281eb136f84","system_id":"levelo_inurba_marseille","lat":43.2506,"lon":5.40332,"is_reserved":false,"is_disabled":false,"rental_uris":{"android":"levelo://app?vid=fbf909cb-c8fa-4bb5-adf7-8281eb136f84","ios":"levelo://app?vid=fbf909cb-c8fa-4bb5-adf7-8281eb136f84"},"vehicle_type_id":"4","last_reported":1747275969,"current_range_meters":4800,"station_id":"ce4bhlh2rcd13ifvqgig","pricing_plan_id":"cebpf4jnsgd1na2vs0mg"},{"bike_id":"d54a21ed-826a-41fc-83ea-234f1473602f","system_id":"levelo_inurba_marseille","lat":43.26209,"lon":5.40494,"is_reserved":false,"is_disabled":false,"rental_uris":{"android":"levelo://app?vid=d54a21ed-826a-41fc-83ea-234f1473602f","ios":"levelo://app?vid=d54a21ed-826a-41fc-83ea-234f1473602f"},"vehicle_type_id":"4","last_reported":1747275969,"current_range_meters":4800,"station_id":"ce4bhmh2rcd13ifvqgmg","pricing_plan_id":"cebpf4jnsgd1na2vs0mg"},{"bike_id":"31e2813c-f647-438c-bb08-7c1907a0ba03","system_id":"levelo_inurba_marseille","lat":43.30777,"lon":5.37653,"is_reserved":false,"is_disabled":false,"rental_uris":{"android":"levelo://app?vid=31e2813c-f647-438c-bb08-7c1907a0ba03","ios":"levelo://app?vid=31e2813c-f647-438c-bb08-7c1907a0ba03"},"vehicle_type_id":"4","last_reported":1747275969,"current_range_meters":5600,"station_id":"ce4bgv92rcd13ifvqcq0","pricing_plan_id":"cebpf4jnsgd1na2vs0mg"},{"bike_id":"ec076c35-f86e-402a-841e-225ad69c6fd5","system_id":"levelo_inurba_marseille","lat":43.284115,"lon":5.375196,"is_reserved":false,"is_disabled":false,"rental_uris":{"android":"levelo://app?vid=ec076c35-f86e-402a-841e-225ad69c6fd5","ios":"levelo://app?vid=ec076c35-f86e-402a-841e-225ad69c6fd5"},"vehicle_type_id":"4","last_reported":1747275969,"current_range_meters":5600,"station_id":"ce4bh412rcd13ifvqds0","pricing_plan_id":"cebpf4jnsgd1na2vs0mg"},{"bike_id":"5de1e8df-cec1-47cf-b554-41f6e726d337","system_id":"levelo_inurba_marseille","lat":43.27425,"lon":5.40618,"is_reserved":false,"is_disabled":false,"rental_uris":{"android":"levelo://app?vid=5de1e8df-cec1-47cf-b554-41f6e726d337","ios":"levelo://app?vid=5de1e8df-cec1-47cf-b554-41f6e726d337"},"vehicle_type_id":"4","last_reported":1747275969,"current_range_meters":5600,"station_id":"","pricing_plan_id":"cebpf4jnsgd1na2vs0mg"},{"bike_id":"8e6d6451-a415-4b2f-bc73-95ffb29ead42","system_id":"levelo_inurba_marseille","lat":43.23201,"lon":5.35593,"is_reserved":false,"is_disabled":true,"rental_uris":{"android":"levelo://app?vid=8e6d6451-a415-4b2f-bc73-95ffb29ead42","ios":"levelo://app?vid=8e6d6451-a415-4b2f-bc73-95ffb29ead42"},"vehicle_type_id":"4","last_reported":1747275969,"current_range_meters":6400,"station_id":"ce4bhu92rcd13ifvqi70","pricing_plan_id":"cebpf4jnsgd1na2vs0mg"},{"bike_id":"8cfecad5-6316-48d7-a472-e958d6e9e80d","system_id":"levelo_inurba_marseille","lat":43.24173,"lon":5.39723,"is_reserved":false,"is_disabled":false,"rental_uris":{"android":"levelo://app?vid=8cfecad5-6316-48d7-a472-e958d6e9e80d","ios":"levelo://app?vid=8cfecad5-6316-48d7-a472-e958d6e9e80d"},"vehicle_type_id":"4","last_reported":1747275969,"current_range_meters":6400,"station_id":"ce4bhn12rcd13ifvqgpg","pricing_plan_id":"cebpf4jnsgd1na2vs0mg"},{"bike_id":"6c5e2750-bf55-4812-bb81-a9df60873a61","system_id":"levelo_inurba_marseille","lat":43.29639,"lon":5.36185,"is_reserved":false,"is_disabled":false,"rental_uris":{"android":"levelo://app?vid=6c5e2750-bf55-4812-bb81-a9df60873a61","ios":"levelo://app?vid=6c5e2750-bf55-4812-bb81-a9df60873a61"},"vehicle_type_id":"4","last_reported":1747275969,"current_range_meters":6800,"station_id":"","pricing_plan_id":"cebpf4jnsgd1na2vs0mg"},{"bike_id":"820781c2-91b3-4296-a92e-b37c784e5d12","system_id":"levelo_inurba_marseille","lat":43.280831,"lon":5.396569,"is_reserved":false,"is_disabled":false,"rental_uris":{"android":"levelo://app?vid=820781c2-91b3-4296-a92e-b37c784e5d12","ios":"levelo://app?vid=820781c2-91b3-4296-a92e-b37c784e5d12"},"vehicle_type_id":"4","last_reported":1747275969,"current_range_meters":6800,"station_id":"ce4bho12rcd13ifvqh2g","pricing_plan_id":"cebpf4jnsgd1na2vs0mg"},{"bike_id":"9eb308d7-4cc6-4bf3-94f5-69e21789ecf2","system_id":"levelo_inurba_marseille","lat":43.24648,"lon":5.38889,"is_reserved":false,"is_disabled":false,"rental_uris":{"android":"levelo://app?vid=9eb308d7-4cc6-4bf3-94f5-69e21789ecf2","ios":"levelo://app?vid=9eb308d7-4cc6-4bf3-94f5-69e21789ecf2"},"vehicle_type_id":"4","last_reported":1747275969,"current_range_meters":7200,"station_id":"ce4bhg12rcd13ifvqf60","pricing_plan_id":"cebpf4jnsgd1na2vs0mg"},{"bike_id":"f872a4c2-1be7-49b4-bb7d-e1f71d921d7b","system_id":"levelo_inurba_marseille","lat":43.231878,"lon":5.399821,"is_reserved":false,"is_disabled":false,"rental_uris":{"android":"levelo://app?vid=f872a4c2-1be7-49b4-bb7d-e1f71d921d7b","ios":"levelo://app?vid=f872a4c2-1be7-49b4-bb7d-e1f71d921d7b"},"vehicle_type_id":"4","last_reported":1747275969,"current_range_meters":7200,"station_id":"ce4bhn12rcd13ifvqgqg","pricing_plan_id":"cebpf4jnsgd1na2vs0mg"},{"bike_id":"7ddd34a0-d984-4dc0-a019-37962a1ca7c6","system_id":"levelo_inurba_marseille","lat":43.25106,"lon":5.40373,"is_reserved":false,"is_disabled":false,"rental_uris":{"android":"levelo://app?vid=7ddd34a0-d984-4dc0-a019-37962a1ca7c6","ios":"levelo://app?vid=7ddd34a0-d984-4dc0-a019-37962a1ca7c6"},"vehicle_type_id":"4","last_reported":1747275969,"current_range_meters":7200,"station_id":"ce4bhlh2rcd13ifvqgig","pricing_plan_id":"cebpf4jnsgd1na2vs0mg"},{"bike_id":"474e4e8e-0ee5-44d4-853b-b0a332a09b1b","system_id":"levelo_inurba_marseille","lat":43.2794,"lon":5.41041,"is_reserved":false,"is_disabled":false,"rental_uris":{"android":"levelo://app?vid=474e4e8e-0ee5-44d4-853b-b0a332a09b1b","ios":"levelo://app?vid=474e4e8e-0ee5-44d4-853b-b0a332a09b1b"},"vehicle_type_id":"4","last_reported":1747275969,"current_range_meters":7200,"station_id":"ce4bhnp2rcd13ifvqh0g","pricing_plan_id":"cebpf4jnsgd1na2vs0mg"},{"bike_id":"3d88a63a-f83d-4aa2-aebe-883b2bbd49f5","system_id":"levelo_inurba_marseille","lat":43.26223,"lon":5.40488,"is_reserved":false,"is_disabled":false,"rental_uris":{"android":"levelo://app?vid=3d88a63a-f83d-4aa2-aebe-883b2bbd49f5","ios":"levelo://app?vid=3d88a63a-f83d-4aa2-aebe-883b2bbd49f5"},"vehicle_type_id":"4","last_reported":1747275969,"current_range_meters":7200,"station_id":"ce4bhmh2rcd13ifvqgmg","pricing_plan_id":"cebpf4jnsgd1na2vs0mg"},{"bike_id":"3255c134-1f0a-4de5-b001-987aef916fba","system_id":"levelo_inurba_marseille","lat":43.240694,"lon":5.377605,"is_reserved":false,"is_disabled":false,"rental_uris":{"android":"levelo://app?vid=3255c134-1f0a-4de5-b001-987aef916fba","ios":"levelo://app?vid=3255c134-1f0a-4de5-b001-987aef916fba"},"vehicle_type_id":"4","last_reported":1747275969,"current_range_meters":7200,"station_id":"ce4bhnp2rcd13ifvqgvg","pricing_plan_id":"cebpf4jnsgd1na2vs0mg"},{"bike_id":"d2c1d47c-b855-441f-803c-abd860de7f62","system_id":"levelo_inurba_marseille","lat":43.28072,"lon":5.39645,"is_reserved":false,"is_disabled":false,"rental_uris":{"android":"levelo://app?vid=d2c1d47c-b855-441f-803c-abd860de7f62","ios":"levelo://app?vid=d2c1d47c-b855-441f-803c-abd860de7f62"},"vehicle_type_id":"4","last_reported":1747275969,"current_range_meters":7200,"station_id":"ce4bho12rcd13ifvqh2g","pricing_plan_id":"cebpf4jnsgd1na2vs0mg"},{"bike_id":"f516bdec-657c-46f1-abec-ebfac75025ea","system_id":"levelo_inurba_marseille","lat":43.229388,"lon":5.353799,"is_reserved":false,"is_disabled":false,"rental_uris":{"android":"levelo://app?vid=f516bdec-657c-46f1-abec-ebfac75025ea","ios":"levelo://app?vid=f516bdec-657c-46f1-abec-ebfac75025ea"},"vehicle_type_id":"4","last_reported":1747275969,"current_range_meters":8000,"station_id":"cpo3532slgdg3j2ikp40","pricing_plan_id":"cebpf4jnsgd1na2vs0mg"},{"bike_id":"aa8db4ff-ac35-4bf2-a9fa-545ce449f88b","system_id":"levelo_inurba_marseille","lat":43.25102,"lon":5.40344,"is_reserved":false,"is_disabled":false,"rental_uris":{"android":"levelo://app?vid=aa8db4ff-ac35-4bf2-a9fa-545ce449f88b","ios":"levelo://app?vid=aa8db4ff-ac35-4bf2-a9fa-545ce449f88b"},"vehicle_type_id":"4","last_reported":1747275969,"current_range_meters":8000,"station_id":"ce4bhlh2rcd13ifvqgig","pricing_plan_id":"cebpf4jnsgd1na2vs0mg"},{"bike_id":"2e28f7dd-ce2b-49a8-b811-91079d78b0c6","system_id":"levelo_inurba_marseille","lat":43.31326,"lon":5.39686,"is_reserved":false,"is_disabled":false,"rental_uris":{"android":"levelo://app?vid=2e28f7dd-ce2b-49a8-b811-91079d78b0c6","ios":"levelo://app?vid=2e28f7dd-ce2b-49a8-b811-91079d78b0c6"},"vehicle_type_id":"4","last_reported":1747275969,"current_range_meters":8000,"station_id":"ce4bgvp2rcd13ifvqcu0","pricing_plan_id":"cebpf4jnsgd1na2vs0mg"},{"bike_id":"cff07eda-0d35-48d7-ae3d-eafcd93e64af","system_id":"levelo_inurba_marseille","lat":43.31899,"lon":5.3946,"is_reserved":false,"is_disabled":false,"rental_uris":{"android":"levelo://app?vid=cff07eda-0d35-48d7-ae3d-eafcd93e64af","ios":"levelo://app?vid=cff07eda-0d35-48d7-ae3d-eafcd93e64af"},"vehicle_type_id":"4","last_reported":1747275969,"current_range_meters":8400,"station_id":"","pricing_plan_id":"cebpf4jnsgd1na2vs0mg"},{"bike_id":"101529f1-b2b2-48f3-adf4-24d4cf7a709c","system_id":"levelo_inurba_marseille","lat":43.30883,"lon":5.39622,"is_reserved":false,"is_disabled":false,"rental_uris":{"android":"levelo://app?vid=101529f1-b2b2-48f3-adf4-24d4cf7a709c","ios":"levelo://app?vid=101529f1-b2b2-48f3-adf4-24d4cf7a709c"},"vehicle_type_id":"4","last_reported":1747275969,"current_range_meters":8400,"station_id":"ce4bh012rcd13ifvqcv0","pricing_plan_id":"cebpf4jnsgd1na2vs0mg"},{"bike_id":"07977d75-0262-4929-a698-22f44c2f9eaf","system_id":"levelo_inurba_marseille","lat":43.28558,"lon":5.3954,"is_reserved":false,"is_disabled":false,"rental_uris":{"android":"levelo://app?vid=07977d75-0262-4929-a698-22f44c2f9eaf","ios":"levelo://app?vid=07977d75-0262-4929-a698-22f44c2f9eaf"},"vehicle_type_id":"4","last_reported":1747275969,"current_range_meters":8400,"station_id":"ce4bh292rcd13ifvqdg0","pricing_plan_id":"cebpf4jnsgd1na2vs0mg"},{"bike_id":"759f78fe-a239-48b1-8db2-ee97c9309ec7","system_id":"levelo_inurba_marseille","lat":43.303039,"lon":5.404469,"is_reserved":false,"is_disabled":false,"rental_uris":{"android":"levelo://app?vid=759f78fe-a239-48b1-8db2-ee97c9309ec7","ios":"levelo://app?vid=759f78fe-a239-48b1-8db2-ee97c9309ec7"},"vehicle_type_id":"4","last_reported":1747275969,"current_range_meters":8400,"station_id":"ce4bh012rcd13ifvqd10","pricing_plan_id":"cebpf4jnsgd1na2vs0mg"},{"bike_id":"a1bb8e67-fad9-4c62-8ab8-6a7cd6c22b08","system_id":"levelo_inurba_marseille","lat":43.24178,"lon":5.39736,"is_reserved":false,"is_disabled":false,"rental_uris":{"android":"levelo://app?vid=a1bb8e67-fad9-4c62-8ab8-6a7cd6c22b08","ios":"levelo://app?vid=a1bb8e67-fad9-4c62-8ab8-6a7cd6c22b08"},"vehicle_type_id":"4","last_reported":1747275969,"current_range_meters":8400,"station_id":"ce4bhn12rcd13ifvqgpg","pricing_plan_id":"cebpf4jnsgd1na2vs0mg"},{"bike_id":"0dc8d66b-f0cb-4c51-970f-b855be3b36ca","system_id":"levelo_inurba_marseille","lat":43.262039,"lon":5.379227,"is_reserved":false,"is_disabled":true,"rental_uris":{"android":"levelo://app?vid=0dc8d66b-f0cb-4c51-970f-b855be3b36ca","ios":"levelo://app?vid=0dc8d66b-f0cb-4c51-970f-b855be3b36ca"},"vehicle_type_id":"4","last_reported":1747275969,"current_range_meters":8400,"station_id":"ce4bhjp2rcd13ifvqg90","pricing_plan_id":"cebpf4jnsgd1na2vs0mg"},{"bike_id":"3faf053c-e846-4d83-83ee-8fd51efc38bb","system_id":"levelo_inurba_marseille","lat":43.32111,"lon":5.36809,"is_reserved":false,"is_disabled":false,"rental_uris":{"android":"levelo://app?vid=3faf053c-e846-4d83-83ee-8fd51efc38bb","ios":"levelo://app?vid=3faf053c-e846-4d83-83ee-8fd51efc38bb"},"vehicle_type_id":"4","last_reported":1747275969,"current_range_meters":8400,"station_id":"ce4bhrh2rcd13ifvqhug","pricing_plan_id":"cebpf4jnsgd1na2vs0mg"},{"bike_id":"53d3e99a-fe32-470b-82e8-98cea0217d4d","system_id":"levelo_inurba_marseille","lat":43.306105,"lon":5.372208,"is_reserved":false,"is_disabled":false,"rental_uris":{"android":"levelo://app?vid=53d3e99a-fe32-470b-82e8-98cea0217d4d","ios":"levelo://app?vid=53d3e99a-fe32-470b-82e8-98cea0217d4d"},"vehicle_type_id":"4","last_reported":1747275969,"current_range_meters":8800,"station_id":"ce4bgqh2rcd13ifvqc4g","pricing_plan_id":"cebpf4jnsgd1na2vs0mg"},{"bike_id":"7334a686-a803-4359-8857-10dc09939f33","system_id":"levelo_inurba_marseille","lat":43.262263,"lon":5.40473,"is_reserved":false,"is_disabled":false,"rental_uris":{"android":"levelo://app?vid=7334a686-a803-4359-8857-10dc09939f33","ios":"levelo://app?vid=7334a686-a803-4359-8857-10dc09939f33"},"vehicle_type_id":"4","last_reported":1747275969,"current_range_meters":8800,"station_id":"ce4bhmh2rcd13ifvqgmg","pricing_plan_id":"cebpf4jnsgd1na2vs0mg"},{"bike_id":"db25f960-537b-43c1-9151-0568d299a1d7","system_id":"levelo_inurba_marseille","lat":43.28566,"lon":5.39495,"is_reserved":false,"is_disabled":false,"rental_uris":{"android":"levelo://app?vid=db25f960-537b-43c1-9151-0568d299a1d7","ios":"levelo://app?vid=db25f960-537b-43c1-9151-0568d299a1d7"},"vehicle_type_id":"4","last_reported":1747275969,"current_range_meters":8800,"station_id":"ce4bh292rcd13ifvqdg0","pricing_plan_id":"cebpf4jnsgd1na2vs0mg"},{"bike_id":"6a94c510-06e9-4819-80f4-2a1f66907200","system_id":"levelo_inurba_marseille","lat":43.24349,"lon":5.37984,"is_reserved":false,"is_disabled":false,"rental_uris":{"android":"levelo://app?vid=6a94c510-06e9-4819-80f4-2a1f66907200","ios":"levelo://app?vid=6a94c510-06e9-4819-80f4-2a1f66907200"},"vehicle_type_id":"4","last_reported":1747275969,"current_range_meters":9200,"station_id":"","pricing_plan_id":"cebpf4jnsgd1na2vs0mg"},{"bike_id":"606f499d-76b6-4b5b-9eac-7f88996d5bed","system_id":"levelo_inurba_marseille","lat":43.30597,"lon":5.37253,"is_reserved":false,"is_disabled":false,"rental_uris":{"android":"levelo://app?vid=606f499d-76b6-4b5b-9eac-7f88996d5bed","ios":"levelo://app?vid=606f499d-76b6-4b5b-9eac-7f88996d5bed"},"vehicle_type_id":"4","last_reported":1747275969,"current_range_meters":9200,"station_id":"ce4bgqh2rcd13ifvqc4g","pricing_plan_id":"cebpf4jnsgd1na2vs0mg"},{"bike_id":"56a54840-8453-4673-8cc1-64d415eb4281","system_id":"levelo_inurba_marseille","lat":43.32375,"lon":5.38877,"is_reserved":false,"is_disabled":false,"rental_uris":{"android":"levelo://app?vid=56a54840-8453-4673-8cc1-64d415eb4281","ios":"levelo://app?vid=56a54840-8453-4673-8cc1-64d415eb4281"},"vehicle_type_id":"4","last_reported":1747275969,"current_range_meters":9200,"station_id":"ce4bhqp2rcd13ifvqhog","pricing_plan_id":"cebpf4jnsgd1na2vs0mg"},{"bike_id":"a92deb3c-961f-4a61-890d-82fd5cc2157e","system_id":"levelo_inurba_marseille","lat":43.31405,"lon":5.38486,"is_reserved":false,"is_disabled":false,"rental_uris":{"android":"levelo://app?vid=a92deb3c-961f-4a61-890d-82fd5cc2157e","ios":"levelo://app?vid=a92deb3c-961f-4a61-890d-82fd5cc2157e"},"vehicle_type_id":"4","last_reported":1747275969,"current_range_meters":9200,"station_id":"","pricing_plan_id":"cebpf4jnsgd1na2vs0mg"},{"bike_id":"84d40c68-bec1-44d9-a2d4-ef79ef82e05c","system_id":"levelo_inurba_marseille","lat":43.304302,"lon":5.388893,"is_reserved":false,"is_disabled":false,"rental_uris":{"android":"levelo://app?vid=84d40c68-bec1-44d9-a2d4-ef79ef82e05c","ios":"levelo://app?vid=84d40c68-bec1-44d9-a2d4-ef79ef82e05c"},"vehicle_type_id":"4","last_reported":1747275969,"current_range_meters":9200,"station_id":"ce4bgk12rcd13ifvqbi0","pricing_plan_id":"cebpf4jnsgd1na2vs0mg"},{"bike_id":"e3faef6f-635a-4b6b-b2b3-c0b918604df6","system_id":"levelo_inurba_marseille","lat":43.29893,"lon":5.43684,"is_reserved":false,"is_disabled":false,"rental_uris":{"android":"levelo://app?vid=e3faef6f-635a-4b6b-b2b3-c0b918604df6","ios":"levelo://app?vid=e3faef6f-635a-4b6b-b2b3-c0b918604df6"},"vehicle_type_id":"4","last_reported":1747275969,"current_range_meters":9200,"station_id":"ce4bhpp2rcd13ifvqhfg","pricing_plan_id":"cebpf4jnsgd1na2vs0mg"},{"bike_id":"bb0bee68-567b-487f-9192-c2330ac5ef1d","system_id":"levelo_inurba_marseille","lat":43.322854,"lon":5.382795,"is_reserved":false,"is_disabled":false,"rental_uris":{"android":"levelo://app?vid=bb0bee68-567b-487f-9192-c2330ac5ef1d","ios":"levelo://app?vid=bb0bee68-567b-487f-9192-c2330ac5ef1d"},"vehicle_type_id":"4","last_reported":1747275969,"current_range_meters":9600,"station_id":"ce4bhr12rcd13ifvqhqg","pricing_plan_id":"cebpf4jnsgd1na2vs0mg"},{"bike_id":"3ec3792d-1198-4b1d-8ce9-5ce6b8a7ac84","system_id":"levelo_inurba_marseille","lat":43.306413,"lon":5.400805,"is_reserved":false,"is_disabled":false,"rental_uris":{"android":"levelo://app?vid=3ec3792d-1198-4b1d-8ce9-5ce6b8a7ac84","ios":"levelo://app?vid=3ec3792d-1198-4b1d-8ce9-5ce6b8a7ac84"},"vehicle_type_id":"4","last_reported":1747275969,"current_range_meters":9600,"station_id":"ce4bh112rcd13ifvqda0","pricing_plan_id":"cebpf4jnsgd1na2vs0mg"},{"bike_id":"0cdbca49-b276-449f-a941-1fbcbec55b0b","system_id":"levelo_inurba_marseille","lat":43.29198,"lon":5.36426,"is_reserved":false,"is_disabled":false,"rental_uris":{"android":"levelo://app?vid=0cdbca49-b276-449f-a941-1fbcbec55b0b","ios":"levelo://app?vid=0cdbca49-b276-449f-a941-1fbcbec55b0b"},"vehicle_type_id":"4","last_reported":1747275969,"current_range_meters":9600,"station_id":"","pricing_plan_id":"cebpf4jnsgd1na2vs0mg"},{"bike_id":"af214813-c582-47ac-80a4-5216259c9745","system_id":"levelo_inurba_marseille","lat":43.29263,"lon":5.376156,"is_reserved":false,"is_disabled":false,"rental_uris":{"android":"levelo://app?vid=af214813-c582-47ac-80a4-5216259c9745","ios":"levelo://app?vid=af214813-c582-47ac-80a4-5216259c9745"},"vehicle_type_id":"4","last_reported":1747275969,"current_range_meters":9600,"station_id":"ce4bgi12rcd13ifvqb80","pricing_plan_id":"cebpf4jnsgd1na2vs0mg"},{"bike_id":"2560ced1-3aa0-4b19-b9ca-c868822cb11c","system_id":"levelo_inurba_marseille","lat":43.313289,"lon":5.397044,"is_reserved":false,"is_disabled":false,"rental_uris":{"android":"levelo://app?vid=2560ced1-3aa0-4b19-b9ca-c868822cb11c","ios":"levelo://app?vid=2560ced1-3aa0-4b19-b9ca-c868822cb11c"},"vehicle_type_id":"4","last_reported":1747275969,"current_range_meters":9600,"station_id":"ce4bgvp2rcd13ifvqcu0","pricing_plan_id":"cebpf4jnsgd1na2vs0mg"},{"bike_id":"0879c7af-989f-4e68-9fd6-d134be2b3e7f","system_id":"levelo_inurba_marseille","lat":43.25922,"lon":5.40859,"is_reserved":false,"is_disabled":false,"rental_uris":{"android":"levelo://app?vid=0879c7af-989f-4e68-9fd6-d134be2b3e7f","ios":"levelo://app?vid=0879c7af-989f-4e68-9fd6-d134be2b3e7f"},"vehicle_type_id":"4","last_reported":1747275969,"current_range_meters":9600,"station_id":"ce4bhm92rcd13ifvqglg","pricing_plan_id":"cebpf4jnsgd1na2vs0mg"},{"bike_id":"01cc56f2-e0a1-494c-a32a-c75065ce15de","system_id":"levelo_inurba_marseille","lat":43.32357,"lon":5.38905,"is_reserved":false,"is_disabled":false,"rental_uris":{"android":"levelo://app?vid=01cc56f2-e0a1-494c-a32a-c75065ce15de","ios":"levelo://app?vid=01cc56f2-e0a1-494c-a32a-c75065ce15de"},"vehicle_type_id":"4","last_reported":1747275969,"current_range_meters":10000,"station_id":"ce4bhqp2rcd13ifvqhog","pricing_plan_id":"cebpf4jnsgd1na2vs0mg"},{"bike_id":"28f9b996-9115-426f-bb85-f3605fc1a8ff","system_id":"levelo_inurba_marseille","lat":43.31187,"lon":5.38712,"is_reserved":false,"is_disabled":false,"rental_uris":{"android":"levelo://app?vid=28f9b996-9115-426f-bb85-f3605fc1a8ff","ios":"levelo://app?vid=28f9b996-9115-426f-bb85-f3605fc1a8ff"},"vehicle_type_id":"4","last_reported":1747275969,"current_range_meters":10000,"station_id":"ce4bgv12rcd13ifvqcp0","pricing_plan_id":"cebpf4jnsgd1na2vs0mg"},{"bike_id":"ee2a27af-695b-45e2-911d-1feb4d3d8904","system_id":"levelo_inurba_marseille","lat":43.309325,"lon":5.401513,"is_reserved":false,"is_disabled":false,"rental_uris":{"android":"levelo://app?vid=ee2a27af-695b-45e2-911d-1feb4d3d8904","ios":"levelo://app?vid=ee2a27af-695b-45e2-911d-1feb4d3d8904"},"vehicle_type_id":"4","last_reported":1747275969,"current_range_meters":10000,"station_id":"ce4bgvp2rcd13ifvqct0","pricing_plan_id":"cebpf4jnsgd1na2vs0mg"},{"bike_id":"b4ab39c3-0d60-4245-b87b-09baaec1b976","system_id":"levelo_inurba_marseille","lat":43.29911,"lon":5.38143,"is_reserved":false,"is_disabled":false,"rental_uris":{"android":"levelo://app?vid=b4ab39c3-0d60-4245-b87b-09baaec1b976","ios":"levelo://app?vid=b4ab39c3-0d60-4245-b87b-09baaec1b976"},"vehicle_type_id":"4","last_reported":1747275969,"current_range_meters":10000,"station_id":"ce4bgj12rcd13ifvqbc0","pricing_plan_id":"cebpf4jnsgd1na2vs0mg"},{"bike_id":"f7ddb09d-bcf1-4a0a-af0e-ecb09c782c49","system_id":"levelo_inurba_marseille","lat":43.28848,"lon":5.35843,"is_reserved":false,"is_disabled":false,"rental_uris":{"android":"levelo://app?vid=f7ddb09d-bcf1-4a0a-af0e-ecb09c782c49","ios":"levelo://app?vid=f7ddb09d-bcf1-4a0a-af0e-ecb09c782c49"},"vehicle_type_id":"4","last_reported":1747275969,"current_range_meters":10000,"station_id":"ce4bhb12rcd13ifvqem0","pricing_plan_id":"cebpf4jnsgd1na2vs0mg"},{"bike_id":"959dbfe0-1440-490f-a3ea-5fd21c47cf31","system_id":"levelo_inurba_marseille","lat":43.33605,"lon":5.4104,"is_reserved":false,"is_disabled":false,"rental_uris":{"android":"levelo://app?vid=959dbfe0-1440-490f-a3ea-5fd21c47cf31","ios":"levelo://app?vid=959dbfe0-1440-490f-a3ea-5fd21c47cf31"},"vehicle_type_id":"4","last_reported":1747275969,"current_range_meters":10000,"station_id":"ce4bhqh2rcd13ifvqhmg","pricing_plan_id":"cebpf4jnsgd1na2vs0mg"},{"bike_id":"4d83a49d-a4f7-4140-bff3-bb3633e6dccc","system_id":"levelo_inurba_marseille","lat":43.32361,"lon":5.38904,"is_reserved":false,"is_disabled":false,"rental_uris":{"android":"levelo://app?vid=4d83a49d-a4f7-4140-bff3-bb3633e6dccc","ios":"levelo://app?vid=4d83a49d-a4f7-4140-bff3-bb3633e6dccc"},"vehicle_type_id":"4","last_reported":1747275969,"current_range_meters":10000,"station_id":"ce4bhqp2rcd13ifvqhog","pricing_plan_id":"cebpf4jnsgd1na2vs0mg"},{"bike_id":"9f22b8aa-a9ca-4a2c-ab0b-0a0b10dbe182","system_id":"levelo_inurba_marseille","lat":43.32488,"lon":5.3657,"is_reserved":false,"is_disabled":false,"rental_uris":{"android":"levelo://app?vid=9f22b8aa-a9ca-4a2c-ab0b-0a0b10dbe182","ios":"levelo://app?vid=9f22b8aa-a9ca-4a2c-ab0b-0a0b10dbe182"},"vehicle_type_id":"4","last_reported":1747275969,"current_range_meters":10800,"station_id":"ce4bhs12rcd13ifvqhvg","pricing_plan_id":"cebpf4jnsgd1na2vs0mg"},{"bike_id":"4a1605c8-9596-4ecb-94b7-2b583c66ecdd","system_id":"levelo_inurba_marseille","lat":43.24623,"lon":5.3817,"is_reserved":false,"is_disabled":false,"rental_uris":{"android":"levelo://app?vid=4a1605c8-9596-4ecb-94b7-2b583c66ecdd","ios":"levelo://app?vid=4a1605c8-9596-4ecb-94b7-2b583c66ecdd"},"vehicle_type_id":"4","last_reported":1747275969,"current_range_meters":10800,"station_id":"ce4bhih2rcd13ifvqfr0","pricing_plan_id":"cebpf4jnsgd1na2vs0mg"},{"bike_id":"d3a1c825-461c-4875-9f67-a6d33491348f","system_id":"levelo_inurba_marseille","lat":43.32339,"lon":5.40629,"is_reserved":false,"is_disabled":false,"rental_uris":{"android":"levelo://app?vid=d3a1c825-461c-4875-9f67-a6d33491348f","ios":"levelo://app?vid=d3a1c825-461c-4875-9f67-a6d33491348f"},"vehicle_type_id":"4","last_reported":1747275969,"current_range_meters":10800,"station_id":"ce4bhq92rcd13ifvqhjg","pricing_plan_id":"cebpf4jnsgd1na2vs0mg"},{"bike_id":"5abc2be0-fe06-42cb-b7be-f3234fd7c9b6","system_id":"levelo_inurba_marseille","lat":43.284139,"lon":5.375204,"is_reserved":false,"is_disabled":false,"rental_uris":{"android":"levelo://app?vid=5abc2be0-fe06-42cb-b7be-f3234fd7c9b6","ios":"levelo://app?vid=5abc2be0-fe06-42cb-b7be-f3234fd7c9b6"},"vehicle_type_id":"4","last_reported":1747275969,"current_range_meters":10800,"station_id":"ce4bh412rcd13ifvqds0","pricing_plan_id":"cebpf4jnsgd1na2vs0mg"},{"bike_id":"f8464d34-9724-44a9-83a6-c3e71bee035c","system_id":"levelo_inurba_marseille","lat":43.28088,"lon":5.39641,"is_reserved":false,"is_disabled":false,"rental_uris":{"android":"levelo://app?vid=f8464d34-9724-44a9-83a6-c3e71bee035c","ios":"levelo://app?vid=f8464d34-9724-44a9-83a6-c3e71bee035c"},"vehicle_type_id":"4","last_reported":1747275969,"current_range_meters":10800,"station_id":"ce4bho12rcd13ifvqh2g","pricing_plan_id":"cebpf4jnsgd1na2vs0mg"},{"bike_id":"43c40f49-0c3b-4d73-b721-5febd2ec1837","system_id":"levelo_inurba_marseille","lat":43.27946,"lon":5.41045,"is_reserved":false,"is_disabled":false,"rental_uris":{"android":"levelo://app?vid=43c40f49-0c3b-4d73-b721-5febd2ec1837","ios":"levelo://app?vid=43c40f49-0c3b-4d73-b721-5febd2ec1837"},"vehicle_type_id":"4","last_reported":1747275969,"current_range_meters":10800,"station_id":"ce4bhnp2rcd13ifvqh0g","pricing_plan_id":"cebpf4jnsgd1na2vs0mg"},{"bike_id":"74e087de-c735-4d96-8544-ac3e5274d091","system_id":"levelo_inurba_marseille","lat":43.317144,"lon":5.437059,"is_reserved":false,"is_disabled":false,"rental_uris":{"android":"levelo://app?vid=74e087de-c735-4d96-8544-ac3e5274d091","ios":"levelo://app?vid=74e087de-c735-4d96-8544-ac3e5274d091"},"vehicle_type_id":"4","last_reported":1747275969,"current_range_meters":10800,"station_id":"ce4bhp92rcd13ifvqhcg","pricing_plan_id":"cebpf4jnsgd1na2vs0mg"},{"bike_id":"a8785a39-b690-422c-b70b-3c9d95bcf8d2","system_id":"levelo_inurba_marseille","lat":43.29257,"lon":5.36875,"is_reserved":false,"is_disabled":false,"rental_uris":{"android":"levelo://app?vid=a8785a39-b690-422c-b70b-3c9d95bcf8d2","ios":"levelo://app?vid=a8785a39-b690-422c-b70b-3c9d95bcf8d2"},"vehicle_type_id":"4","last_reported":1747275969,"current_range_meters":10800,"station_id":"ce4bhbp2rcd13ifvqesg","pricing_plan_id":"cebpf4jnsgd1na2vs0mg"},{"bike_id":"a927d1bc-b619-414d-8814-850ab7668aca","system_id":"levelo_inurba_marseille","lat":43.28858,"lon":5.39318,"is_reserved":false,"is_disabled":true,"rental_uris":{"android":"levelo://app?vid=a927d1bc-b619-414d-8814-850ab7668aca","ios":"levelo://app?vid=a927d1bc-b619-414d-8814-850ab7668aca"},"vehicle_type_id":"4","last_reported":1747275969,"current_range_meters":11200,"station_id":"ce4bh2p2rcd13ifvqdi0","pricing_plan_id":"cebpf4jnsgd1na2vs0mg"},{"bike_id":"08f19e49-3591-4c7d-af71-e220280c0a02","system_id":"levelo_inurba_marseille","lat":43.317096,"lon":5.437077,"is_reserved":false,"is_disabled":false,"rental_uris":{"android":"levelo://app?vid=08f19e49-3591-4c7d-af71-e220280c0a02","ios":"levelo://app?vid=08f19e49-3591-4c7d-af71-e220280c0a02"},"vehicle_type_id":"4","last_reported":1747275969,"current_range_meters":11200,"station_id":"ce4bhp92rcd13ifvqhcg","pricing_plan_id":"cebpf4jnsgd1na2vs0mg"},{"bike_id":"b6d31a98-3b69-4971-8c12-cf955836ed52","system_id":"levelo_inurba_marseille","lat":43.281076,"lon":5.378391,"is_reserved":false,"is_disabled":false,"rental_uris":{"android":"levelo://app?vid=b6d31a98-3b69-4971-8c12-cf955836ed52","ios":"levelo://app?vid=b6d31a98-3b69-4971-8c12-cf955836ed52"},"vehicle_type_id":"4","last_reported":1747275969,"current_range_meters":11200,"station_id":"ce4bha12rcd13ifvqee0","pricing_plan_id":"cebpf4jnsgd1na2vs0mg"},{"bike_id":"17d57f58-ffb0-4d77-bbe5-7f462887ac74","system_id":"levelo_inurba_marseille","lat":43.24177,"lon":5.3973,"is_reserved":false,"is_disabled":false,"rental_uris":{"android":"levelo://app?vid=17d57f58-ffb0-4d77-bbe5-7f462887ac74","ios":"levelo://app?vid=17d57f58-ffb0-4d77-bbe5-7f462887ac74"},"vehicle_type_id":"4","last_reported":1747275969,"current_range_meters":11200,"station_id":"ce4bhn12rcd13ifvqgpg","pricing_plan_id":"cebpf4jnsgd1na2vs0mg"},{"bike_id":"0ee57cd3-b290-46af-a35a-6f306772e452","system_id":"levelo_inurba_marseille","lat":43.30662,"lon":5.40273,"is_reserved":false,"is_disabled":false,"rental_uris":{"android":"levelo://app?vid=0ee57cd3-b290-46af-a35a-6f306772e452","ios":"levelo://app?vid=0ee57cd3-b290-46af-a35a-6f306772e452"},"vehicle_type_id":"4","last_reported":1747275969,"current_range_meters":11200,"station_id":"","pricing_plan_id":"cebpf4jnsgd1na2vs0mg"},{"bike_id":"87da38e8-d9c9-4634-8f2e-27dc212ace69","system_id":"levelo_inurba_marseille","lat":43.30878,"lon":5.39634,"is_reserved":false,"is_disabled":false,"rental_uris":{"android":"levelo://app?vid=87da38e8-d9c9-4634-8f2e-27dc212ace69","ios":"levelo://app?vid=87da38e8-d9c9-4634-8f2e-27dc212ace69"},"vehicle_type_id":"4","last_reported":1747275969,"current_range_meters":11200,"station_id":"ce4bh012rcd13ifvqcv0","pricing_plan_id":"cebpf4jnsgd1na2vs0mg"},{"bike_id":"ff5e1a78-49cb-4065-ad75-694b6e882ec0","system_id":"levelo_inurba_marseille","lat":43.28084,"lon":5.37837,"is_reserved":false,"is_disabled":false,"rental_uris":{"android":"levelo://app?vid=ff5e1a78-49cb-4065-ad75-694b6e882ec0","ios":"levelo://app?vid=ff5e1a78-49cb-4065-ad75-694b6e882ec0"},"vehicle_type_id":"4","last_reported":1747275969,"current_range_meters":11600,"station_id":"ce4bha12rcd13ifvqee0","pricing_plan_id":"cebpf4jnsgd1na2vs0mg"},{"bike_id":"88acd83c-7ef2-45ff-b88e-d5ac2cd8b948","system_id":"levelo_inurba_marseille","lat":43.29504,"lon":5.394217,"is_reserved":false,"is_disabled":false,"rental_uris":{"android":"levelo://app?vid=88acd83c-7ef2-45ff-b88e-d5ac2cd8b948","ios":"levelo://app?vid=88acd83c-7ef2-45ff-b88e-d5ac2cd8b948"},"vehicle_type_id":"4","last_reported":1747275969,"current_range_meters":11600,"station_id":"ce4bh292rcd13ifvqdf0","pricing_plan_id":"cebpf4jnsgd1na2vs0mg"},{"bike_id":"3d122ac4-6991-456e-a784-206cae1bb3d4","system_id":"levelo_inurba_marseille","lat":43.2583,"lon":5.39436,"is_reserved":false,"is_disabled":false,"rental_uris":{"android":"levelo://app?vid=3d122ac4-6991-456e-a784-206cae1bb3d4","ios":"levelo://app?vid=3d122ac4-6991-456e-a784-206cae1bb3d4"},"vehicle_type_id":"4","last_reported":1747275969,"current_range_meters":11600,"station_id":"ce4bhip2rcd13ifvqft0","pricing_plan_id":"cebpf4jnsgd1na2vs0mg"},{"bike_id":"080c5bc8-2a50-4d60-9a30-88ce86670d7a","system_id":"levelo_inurba_marseille","lat":43.27059,"lon":5.402594,"is_reserved":false,"is_disabled":false,"rental_uris":{"android":"levelo://app?vid=080c5bc8-2a50-4d60-9a30-88ce86670d7a","ios":"levelo://app?vid=080c5bc8-2a50-4d60-9a30-88ce86670d7a"},"vehicle_type_id":"4","last_reported":1747275969,"current_range_meters":11600,"station_id":"ce4bhk92rcd13ifvqgc0","pricing_plan_id":"cebpf4jnsgd1na2vs0mg"},{"bike_id":"f78e9075-1e2d-4880-8f61-47d08e9eff1c","system_id":"levelo_inurba_marseille","lat":43.24063,"lon":5.3779,"is_reserved":false,"is_disabled":false,"rental_uris":{"android":"levelo://app?vid=f78e9075-1e2d-4880-8f61-47d08e9eff1c","ios":"levelo://app?vid=f78e9075-1e2d-4880-8f61-47d08e9eff1c"},"vehicle_type_id":"4","last_reported":1747275969,"current_range_meters":11600,"station_id":"ce4bhnp2rcd13ifvqgvg","pricing_plan_id":"cebpf4jnsgd1na2vs0mg"},{"bike_id":"ade5afed-bf4a-4def-a780-75cc151f95e7","system_id":"levelo_inurba_marseille","lat":43.29793,"lon":5.39349,"is_reserved":false,"is_disabled":false,"rental_uris":{"android":"levelo://app?vid=ade5afed-bf4a-4def-a780-75cc151f95e7","ios":"levelo://app?vid=ade5afed-bf4a-4def-a780-75cc151f95e7"},"vehicle_type_id":"4","last_reported":1747275969,"current_range_meters":12000,"station_id":"chh1huq6cuj3fo74tm60","pricing_plan_id":"cebpf4jnsgd1na2vs0mg"},{"bike_id":"6c0c1c26-4d1d-42d5-9806-592a7df4a860","system_id":"levelo_inurba_marseille","lat":43.287039,"lon":5.373969,"is_reserved":false,"is_disabled":false,"rental_uris":{"android":"levelo://app?vid=6c0c1c26-4d1d-42d5-9806-592a7df4a860","ios":"levelo://app?vid=6c0c1c26-4d1d-42d5-9806-592a7df4a860"},"vehicle_type_id":"4","last_reported":1747275969,"current_range_meters":12000,"station_id":"ce4bh3p2rcd13ifvqdq0","pricing_plan_id":"cebpf4jnsgd1na2vs0mg"},{"bike_id":"0e5c8afa-fabc-4d5b-9f5f-b90827cc1275","system_id":"levelo_inurba_marseille","lat":43.28461,"lon":5.358796,"is_reserved":false,"is_disabled":false,"rental_uris":{"android":"levelo://app?vid=0e5c8afa-fabc-4d5b-9f5f-b90827cc1275","ios":"levelo://app?vid=0e5c8afa-fabc-4d5b-9f5f-b90827cc1275"},"vehicle_type_id":"4","last_reported":1747275969,"current_range_meters":12000,"station_id":"ce4bhah2rcd13ifvqei0","pricing_plan_id":"cebpf4jnsgd1na2vs0mg"},{"bike_id":"f2fa3917-52e2-462b-8250-01097feb44e5","system_id":"levelo_inurba_marseille","lat":43.24169,"lon":5.39742,"is_reserved":false,"is_disabled":false,"rental_uris":{"android":"levelo://app?vid=f2fa3917-52e2-462b-8250-01097feb44e5","ios":"levelo://app?vid=f2fa3917-52e2-462b-8250-01097feb44e5"},"vehicle_type_id":"4","last_reported":1747275969,"current_range_meters":12400,"station_id":"ce4bhn12rcd13ifvqgpg","pricing_plan_id":"cebpf4jnsgd1na2vs0mg"},{"bike_id":"2fbf9af1-2df2-4aeb-8b20-a4c95e106089","system_id":"levelo_inurba_marseille","lat":43.24057,"lon":5.37759,"is_reserved":false,"is_disabled":false,"rental_uris":{"android":"levelo://app?vid=2fbf9af1-2df2-4aeb-8b20-a4c95e106089","ios":"levelo://app?vid=2fbf9af1-2df2-4aeb-8b20-a4c95e106089"},"vehicle_type_id":"4","last_reported":1747275969,"current_range_meters":12400,"station_id":"ce4bhnp2rcd13ifvqgvg","pricing_plan_id":"cebpf4jnsgd1na2vs0mg"},{"bike_id":"1b8fcf53-a929-4878-a714-5e795b4cbebb","system_id":"levelo_inurba_marseille","lat":43.287084,"lon":5.399976,"is_reserved":false,"is_disabled":false,"rental_uris":{"android":"levelo://app?vid=1b8fcf53-a929-4878-a714-5e795b4cbebb","ios":"levelo://app?vid=1b8fcf53-a929-4878-a714-5e795b4cbebb"},"vehicle_type_id":"4","last_reported":1747275969,"current_range_meters":12400,"station_id":"ce4bho92rcd13ifvqh3g","pricing_plan_id":"cebpf4jnsgd1na2vs0mg"},{"bike_id":"f4a29ccd-2645-41bd-91b7-57baafbe4e16","system_id":"levelo_inurba_marseille","lat":43.29008,"lon":5.35621,"is_reserved":false,"is_disabled":true,"rental_uris":{"android":"levelo://app?vid=f4a29ccd-2645-41bd-91b7-57baafbe4e16","ios":"levelo://app?vid=f4a29ccd-2645-41bd-91b7-57baafbe4e16"},"vehicle_type_id":"4","last_reported":1747275969,"current_range_meters":12400,"station_id":"ce4bhb92rcd13ifvqen0","pricing_plan_id":"cebpf4jnsgd1na2vs0mg"},{"bike_id":"15b78ca4-8eda-4012-b392-8e1c04a2c79c","system_id":"levelo_inurba_marseille","lat":43.279902,"lon":5.416597,"is_reserved":false,"is_disabled":true,"rental_uris":{"android":"levelo://app?vid=15b78ca4-8eda-4012-b392-8e1c04a2c79c","ios":"levelo://app?vid=15b78ca4-8eda-4012-b392-8e1c04a2c79c"},"vehicle_type_id":"4","last_reported":1747275969,"current_range_meters":12400,"station_id":"ce4bho12rcd13ifvqh1g","pricing_plan_id":"cebpf4jnsgd1na2vs0mg"},{"bike_id":"cf04a449-8245-40e5-866f-abb00b28cc6f","system_id":"levelo_inurba_marseille","lat":43.22917,"lon":5.35373,"is_reserved":false,"is_disabled":false,"rental_uris":{"android":"levelo://app?vid=cf04a449-8245-40e5-866f-abb00b28cc6f","ios":"levelo://app?vid=cf04a449-8245-40e5-866f-abb00b28cc6f"},"vehicle_type_id":"4","last_reported":1747275969,"current_range_meters":12400,"station_id":"cpo3532slgdg3j2ikp40","pricing_plan_id":"cebpf4jnsgd1na2vs0mg"},{"bike_id":"8c7308bf-84fd-4edb-9b86-07fbeaf5e51b","system_id":"levelo_inurba_marseille","lat":43.31714,"lon":5.42414,"is_reserved":false,"is_disabled":false,"rental_uris":{"android":"levelo://app?vid=8c7308bf-84fd-4edb-9b86-07fbeaf5e51b","ios":"levelo://app?vid=8c7308bf-84fd-4edb-9b86-07fbeaf5e51b"},"vehicle_type_id":"4","last_reported":1747275969,"current_range_meters":12400,"station_id":"ce4bhp92rcd13ifvqhbg","pricing_plan_id":"cebpf4jnsgd1na2vs0mg"},{"bike_id":"f3e7022b-4ef1-4fe9-b368-f11e5afc12e9","system_id":"levelo_inurba_marseille","lat":43.29451,"lon":5.3976,"is_reserved":false,"is_disabled":false,"rental_uris":{"android":"levelo://app?vid=f3e7022b-4ef1-4fe9-b368-f11e5afc12e9","ios":"levelo://app?vid=f3e7022b-4ef1-4fe9-b368-f11e5afc12e9"},"vehicle_type_id":"4","last_reported":1747275969,"current_range_meters":12800,"station_id":"ce4bh3h2rcd13ifvqdo0","pricing_plan_id":"cebpf4jnsgd1na2vs0mg"},{"bike_id":"8619acca-ecd0-4357-bf7c-0d59e9a78ed8","system_id":"levelo_inurba_marseille","lat":43.29265,"lon":5.3759,"is_reserved":false,"is_disabled":false,"rental_uris":{"android":"levelo://app?vid=8619acca-ecd0-4357-bf7c-0d59e9a78ed8","ios":"levelo://app?vid=8619acca-ecd0-4357-bf7c-0d59e9a78ed8"},"vehicle_type_id":"4","last_reported":1747275969,"current_range_meters":12800,"station_id":"ce4bgi12rcd13ifvqb80","pricing_plan_id":"cebpf4jnsgd1na2vs0mg"},{"bike_id":"a138c49f-1b39-4b18-b08e-26428375a631","system_id":"levelo_inurba_marseille","lat":43.284639,"lon":5.358801,"is_reserved":false,"is_disabled":false,"rental_uris":{"android":"levelo://app?vid=a138c49f-1b39-4b18-b08e-26428375a631","ios":"levelo://app?vid=a138c49f-1b39-4b18-b08e-26428375a631"},"vehicle_type_id":"4","last_reported":1747275969,"current_range_meters":12800,"station_id":"ce4bhah2rcd13ifvqei0","pricing_plan_id":"cebpf4jnsgd1na2vs0mg"},{"bike_id":"acde896d-16ae-4170-9945-9a86aa4c7cf7","system_id":"levelo_inurba_marseille","lat":43.305995,"lon":5.372224,"is_reserved":false,"is_disabled":false,"rental_uris":{"android":"levelo://app?vid=acde896d-16ae-4170-9945-9a86aa4c7cf7","ios":"levelo://app?vid=acde896d-16ae-4170-9945-9a86aa4c7cf7"},"vehicle_type_id":"4","last_reported":1747275969,"current_range_meters":13600,"station_id":"ce4bgqh2rcd13ifvqc4g","pricing_plan_id":"cebpf4jnsgd1na2vs0mg"},{"bike_id":"62028a54-d14f-4ec6-8fbd-4590f62dc401","system_id":"levelo_inurba_marseille","lat":43.25109,"lon":5.40331,"is_reserved":false,"is_disabled":false,"rental_uris":{"android":"levelo://app?vid=62028a54-d14f-4ec6-8fbd-4590f62dc401","ios":"levelo://app?vid=62028a54-d14f-4ec6-8fbd-4590f62dc401"},"vehicle_type_id":"4","last_reported":1747275969,"current_range_meters":13600,"station_id":"ce4bhlh2rcd13ifvqgig","pricing_plan_id":"cebpf4jnsgd1na2vs0mg"},{"bike_id":"9b54713a-5a53-4d56-b33e-215313f72bbc","system_id":"levelo_inurba_marseille","lat":43.313268,"lon":5.396934,"is_reserved":false,"is_disabled":false,"rental_uris":{"android":"levelo://app?vid=9b54713a-5a53-4d56-b33e-215313f72bbc","ios":"levelo://app?vid=9b54713a-5a53-4d56-b33e-215313f72bbc"},"vehicle_type_id":"4","last_reported":1747275969,"current_range_meters":13600,"station_id":"ce4bgvp2rcd13ifvqcu0","pricing_plan_id":"cebpf4jnsgd1na2vs0mg"},{"bike_id":"adcb8f21-4943-4797-bfb3-821077b30227","system_id":"levelo_inurba_marseille","lat":43.3044,"lon":5.3889,"is_reserved":false,"is_disabled":false,"rental_uris":{"android":"levelo://app?vid=adcb8f21-4943-4797-bfb3-821077b30227","ios":"levelo://app?vid=adcb8f21-4943-4797-bfb3-821077b30227"},"vehicle_type_id":"4","last_reported":1747275969,"current_range_meters":14000,"station_id":"ce4bgk12rcd13ifvqbi0","pricing_plan_id":"cebpf4jnsgd1na2vs0mg"},{"bike_id":"cc377332-c824-4cf8-bc9d-97d1852f3692","system_id":"levelo_inurba_marseille","lat":43.316925,"lon":5.404784,"is_reserved":false,"is_disabled":false,"rental_uris":{"android":"levelo://app?vid=cc377332-c824-4cf8-bc9d-97d1852f3692","ios":"levelo://app?vid=cc377332-c824-4cf8-bc9d-97d1852f3692"},"vehicle_type_id":"4","last_reported":1747275969,"current_range_meters":14000,"station_id":"ce4bh012rcd13ifvqd00","pricing_plan_id":"cebpf4jnsgd1na2vs0mg"},{"bike_id":"2af0df00-84df-494b-94f3-3f5b86286540","system_id":"levelo_inurba_marseille","lat":43.30887,"lon":5.37092,"is_reserved":false,"is_disabled":false,"rental_uris":{"android":"levelo://app?vid=2af0df00-84df-494b-94f3-3f5b86286540","ios":"levelo://app?vid=2af0df00-84df-494b-94f3-3f5b86286540"},"vehicle_type_id":"4","last_reported":1747275969,"current_range_meters":14000,"station_id":"","pricing_plan_id":"cebpf4jnsgd1na2vs0mg"},{"bike_id":"173815be-97dc-4bd5-92df-b9c49c0c2091","system_id":"levelo_inurba_marseille","lat":43.30307,"lon":5.40441,"is_reserved":false,"is_disabled":false,"rental_uris":{"android":"levelo://app?vid=173815be-97dc-4bd5-92df-b9c49c0c2091","ios":"levelo://app?vid=173815be-97dc-4bd5-92df-b9c49c0c2091"},"vehicle_type_id":"4","last_reported":1747275969,"current_range_meters":14400,"station_id":"ce4bh012rcd13ifvqd10","pricing_plan_id":"cebpf4jnsgd1na2vs0mg"},{"bike_id":"77a29338-5556-4205-9db9-a624ab9d00e5","system_id":"levelo_inurba_marseille","lat":43.245451,"lon":5.395256,"is_reserved":false,"is_disabled":false,"rental_uris":{"android":"levelo://app?vid=77a29338-5556-4205-9db9-a624ab9d00e5","ios":"levelo://app?vid=77a29338-5556-4205-9db9-a624ab9d00e5"},"vehicle_type_id":"4","last_reported":1747275969,"current_range_meters":14400,"station_id":"ce4bhlp2rcd13ifvqgjg","pricing_plan_id":"cebpf4jnsgd1na2vs0mg"},{"bike_id":"94425245-09df-4108-9a30-610dbcaf2585","system_id":"levelo_inurba_marseille","lat":43.31711,"lon":5.42434,"is_reserved":false,"is_disabled":false,"rental_uris":{"android":"levelo://app?vid=94425245-09df-4108-9a30-610dbcaf2585","ios":"levelo://app?vid=94425245-09df-4108-9a30-610dbcaf2585"},"vehicle_type_id":"4","last_reported":1747275969,"current_range_meters":14400,"station_id":"ce4bhp92rcd13ifvqhbg","pricing_plan_id":"cebpf4jnsgd1na2vs0mg"},{"bike_id":"2a6fe013-4b51-4c6c-999f-41df50b733ae","system_id":"levelo_inurba_marseille","lat":43.30588,"lon":5.37218,"is_reserved":false,"is_disabled":false,"rental_uris":{"android":"levelo://app?vid=2a6fe013-4b51-4c6c-999f-41df50b733ae","ios":"levelo://app?vid=2a6fe013-4b51-4c6c-999f-41df50b733ae"},"vehicle_type_id":"4","last_reported":1747275969,"current_range_meters":14400,"station_id":"ce4bgqh2rcd13ifvqc4g","pricing_plan_id":"cebpf4jnsgd1na2vs0mg"},{"bike_id":"21b06e68-a2e0-441f-9af6-90b8ed2d2a0e","system_id":"levelo_inurba_marseille","lat":43.30326,"lon":5.40434,"is_reserved":false,"is_disabled":false,"rental_uris":{"android":"levelo://app?vid=21b06e68-a2e0-441f-9af6-90b8ed2d2a0e","ios":"levelo://app?vid=21b06e68-a2e0-441f-9af6-90b8ed2d2a0e"},"vehicle_type_id":"4","last_reported":1747275969,"current_range_meters":14400,"station_id":"ce4bh012rcd13ifvqd10","pricing_plan_id":"cebpf4jnsgd1na2vs0mg"},{"bike_id":"20ae89a2-542c-444a-bba7-d88d163745c3","system_id":"levelo_inurba_marseille","lat":43.29263,"lon":5.40908,"is_reserved":false,"is_disabled":true,"rental_uris":{"android":"levelo://app?vid=20ae89a2-542c-444a-bba7-d88d163745c3","ios":"levelo://app?vid=20ae89a2-542c-444a-bba7-d88d163745c3"},"vehicle_type_id":"4","last_reported":1747275969,"current_range_meters":14400,"station_id":"ce4bh192rcd13ifvqdc0","pricing_plan_id":"cebpf4jnsgd1na2vs0mg"},{"bike_id":"feb4f947-8c6b-40c7-9498-be1ceb9335f1","system_id":"levelo_inurba_marseille","lat":43.32169,"lon":5.38207,"is_reserved":false,"is_disabled":false,"rental_uris":{"android":"levelo://app?vid=feb4f947-8c6b-40c7-9498-be1ceb9335f1","ios":"levelo://app?vid=feb4f947-8c6b-40c7-9498-be1ceb9335f1"},"vehicle_type_id":"4","last_reported":1747275969,"current_range_meters":14800,"station_id":"ce4bgvp2rcd13ifvqcu0","pricing_plan_id":"cebpf4jnsgd1na2vs0mg"},{"bike_id":"a7a3d8d2-d4c3-469c-b962-d9c90b2eca97","system_id":"levelo_inurba_marseille","lat":43.284096,"lon":5.3753,"is_reserved":false,"is_disabled":true,"rental_uris":{"android":"levelo://app?vid=a7a3d8d2-d4c3-469c-b962-d9c90b2eca97","ios":"levelo://app?vid=a7a3d8d2-d4c3-469c-b962-d9c90b2eca97"},"vehicle_type_id":"4","last_reported":1747275969,"current_range_meters":14800,"station_id":"ce4bh412rcd13ifvqds0","pricing_plan_id":"cebpf4jnsgd1na2vs0mg"},{"bike_id":"21f5a1a4-43c5-4049-8a8d-3146c5c35157","system_id":"levelo_inurba_marseille","lat":43.22931,"lon":5.35391,"is_reserved":false,"is_disabled":false,"rental_uris":{"android":"levelo://app?vid=21f5a1a4-43c5-4049-8a8d-3146c5c35157","ios":"levelo://app?vid=21f5a1a4-43c5-4049-8a8d-3146c5c35157"},"vehicle_type_id":"4","last_reported":1747275969,"current_range_meters":14800,"station_id":"cpo3532slgdg3j2ikp40","pricing_plan_id":"cebpf4jnsgd1na2vs0mg"},{"bike_id":"cfae641a-54c0-4b9b-b874-774267c67373","system_id":"levelo_inurba_marseille","lat":43.289642,"lon":5.432116,"is_reserved":false,"is_disabled":false,"rental_uris":{"android":"levelo://app?vid=cfae641a-54c0-4b9b-b874-774267c67373","ios":"levelo://app?vid=cfae641a-54c0-4b9b-b874-774267c67373"},"vehicle_type_id":"4","last_reported":1747275969,"current_range_meters":14800,"station_id":"","pricing_plan_id":"cebpf4jnsgd1na2vs0mg"},{"bike_id":"77f2f3f3-8f83-436c-bb53-b1fe53123a37","system_id":"levelo_inurba_marseille","lat":43.31326,"lon":5.39717,"is_reserved":false,"is_disabled":false,"rental_uris":{"android":"levelo://app?vid=77f2f3f3-8f83-436c-bb53-b1fe53123a37","ios":"levelo://app?vid=77f2f3f3-8f83-436c-bb53-b1fe53123a37"},"vehicle_type_id":"4","last_reported":1747275969,"current_range_meters":15200,"station_id":"ce4bgvp2rcd13ifvqcu0","pricing_plan_id":"cebpf4jnsgd1na2vs0mg"},{"bike_id":"e79fd8c1-5944-4bcd-9d00-e939e610771d","system_id":"levelo_inurba_marseille","lat":43.31488,"lon":5.37288,"is_reserved":false,"is_disabled":false,"rental_uris":{"android":"levelo://app?vid=e79fd8c1-5944-4bcd-9d00-e939e610771d","ios":"levelo://app?vid=e79fd8c1-5944-4bcd-9d00-e939e610771d"},"vehicle_type_id":"4","last_reported":1747275969,"current_range_meters":15200,"station_id":"ce4bgt12rcd13ifvqcd0","pricing_plan_id":"cebpf4jnsgd1na2vs0mg"},{"bike_id":"503b1e6e-2a73-4f04-bb9f-80c3831538b1","system_id":"levelo_inurba_marseille","lat":43.30907,"lon":5.36882,"is_reserved":false,"is_disabled":true,"rental_uris":{"android":"levelo://app?vid=503b1e6e-2a73-4f04-bb9f-80c3831538b1","ios":"levelo://app?vid=503b1e6e-2a73-4f04-bb9f-80c3831538b1"},"vehicle_type_id":"4","last_reported":1747275969,"current_range_meters":15200,"station_id":"ce4bgn92rcd13ifvqbvg","pricing_plan_id":"cebpf4jnsgd1na2vs0mg"},{"bike_id":"3c1b7f30-5d26-4067-beb9-4c40ea2a08b9","system_id":"levelo_inurba_marseille","lat":43.26063,"lon":5.3939,"is_reserved":false,"is_disabled":false,"rental_uris":{"android":"levelo://app?vid=3c1b7f30-5d26-4067-beb9-4c40ea2a08b9","ios":"levelo://app?vid=3c1b7f30-5d26-4067-beb9-4c40ea2a08b9"},"vehicle_type_id":"4","last_reported":1747275969,"current_range_meters":16000,"station_id":"ce4bhh92rcd13ifvqfj0","pricing_plan_id":"cebpf4jnsgd1na2vs0mg"},{"bike_id":"c260378e-f038-46ef-acd7-d955ba324b73","system_id":"levelo_inurba_marseille","lat":43.2499,"lon":5.37918,"is_reserved":false,"is_disabled":false,"rental_uris":{"android":"levelo://app?vid=c260378e-f038-46ef-acd7-d955ba324b73","ios":"levelo://app?vid=c260378e-f038-46ef-acd7-d955ba324b73"},"vehicle_type_id":"4","last_reported":1747275969,"current_range_meters":16000,"station_id":"","pricing_plan_id":"cebpf4jnsgd1na2vs0mg"},{"bike_id":"dce53c62-7fc5-4c6c-988a-1116d70b6e43","system_id":"levelo_inurba_marseille","lat":43.309312,"lon":5.401401,"is_reserved":false,"is_disabled":false,"rental_uris":{"android":"levelo://app?vid=dce53c62-7fc5-4c6c-988a-1116d70b6e43","ios":"levelo://app?vid=dce53c62-7fc5-4c6c-988a-1116d70b6e43"},"vehicle_type_id":"4","last_reported":1747275969,"current_range_meters":16000,"station_id":"ce4bgvp2rcd13ifvqct0","pricing_plan_id":"cebpf4jnsgd1na2vs0mg"},{"bike_id":"d7369284-bfc2-4af7-9a95-c50b2030cf6e","system_id":"levelo_inurba_marseille","lat":43.3059,"lon":5.37248,"is_reserved":false,"is_disabled":false,"rental_uris":{"android":"levelo://app?vid=d7369284-bfc2-4af7-9a95-c50b2030cf6e","ios":"levelo://app?vid=d7369284-bfc2-4af7-9a95-c50b2030cf6e"},"vehicle_type_id":"4","last_reported":1747275969,"current_range_meters":16000,"station_id":"ce4bgqh2rcd13ifvqc4g","pricing_plan_id":"cebpf4jnsgd1na2vs0mg"},{"bike_id":"65064f86-3c66-4826-93c2-65566820a8eb","system_id":"levelo_inurba_marseille","lat":43.265591,"lon":5.390119,"is_reserved":false,"is_disabled":false,"rental_uris":{"android":"levelo://app?vid=65064f86-3c66-4826-93c2-65566820a8eb","ios":"levelo://app?vid=65064f86-3c66-4826-93c2-65566820a8eb"},"vehicle_type_id":"4","last_reported":1747275969,"current_range_meters":16000,"station_id":"ce4bhe12rcd13ifvqf30","pricing_plan_id":"cebpf4jnsgd1na2vs0mg"},{"bike_id":"c09536ca-e24d-4293-8dc2-89603f39745d","system_id":"levelo_inurba_marseille","lat":43.30593,"lon":5.39358,"is_reserved":false,"is_disabled":false,"rental_uris":{"android":"levelo://app?vid=c09536ca-e24d-4293-8dc2-89603f39745d","ios":"levelo://app?vid=c09536ca-e24d-4293-8dc2-89603f39745d"},"vehicle_type_id":"4","last_reported":1747275969,"current_range_meters":16000,"station_id":"ce4bh0p2rcd13ifvqd80","pricing_plan_id":"cebpf4jnsgd1na2vs0mg"},{"bike_id":"4ca5c04b-83fc-47f0-ba12-ec385416b528","system_id":"levelo_inurba_marseille","lat":43.31428,"lon":5.36947,"is_reserved":false,"is_disabled":false,"rental_uris":{"android":"levelo://app?vid=4ca5c04b-83fc-47f0-ba12-ec385416b528","ios":"levelo://app?vid=4ca5c04b-83fc-47f0-ba12-ec385416b528"},"vehicle_type_id":"4","last_reported":1747275969,"current_range_meters":16000,"station_id":"","pricing_plan_id":"cebpf4jnsgd1na2vs0mg"},{"bike_id":"85229f75-99f9-447a-a3ed-86236028f5a5","system_id":"levelo_inurba_marseille","lat":43.25109,"lon":5.40333,"is_reserved":false,"is_disabled":false,"rental_uris":{"android":"levelo://app?vid=85229f75-99f9-447a-a3ed-86236028f5a5","ios":"levelo://app?vid=85229f75-99f9-447a-a3ed-86236028f5a5"},"vehicle_type_id":"4","last_reported":1747275969,"current_range_meters":16000,"station_id":"ce4bhlh2rcd13ifvqgig","pricing_plan_id":"cebpf4jnsgd1na2vs0mg"},{"bike_id":"88bbba9e-7184-4058-8824-c96a1cc5be7e","system_id":"levelo_inurba_marseille","lat":43.26222,"lon":5.40483,"is_reserved":false,"is_disabled":false,"rental_uris":{"android":"levelo://app?vid=88bbba9e-7184-4058-8824-c96a1cc5be7e","ios":"levelo://app?vid=88bbba9e-7184-4058-8824-c96a1cc5be7e"},"vehicle_type_id":"4","last_reported":1747275969,"current_range_meters":16000,"station_id":"ce4bhmh2rcd13ifvqgmg","pricing_plan_id":"cebpf4jnsgd1na2vs0mg"},{"bike_id":"f5d635aa-40a8-4516-9089-f4be7c5861ab","system_id":"levelo_inurba_marseille","lat":43.32336,"lon":5.40623,"is_reserved":false,"is_disabled":false,"rental_uris":{"android":"levelo://app?vid=f5d635aa-40a8-4516-9089-f4be7c5861ab","ios":"levelo://app?vid=f5d635aa-40a8-4516-9089-f4be7c5861ab"},"vehicle_type_id":"4","last_reported":1747275969,"current_range_meters":16400,"station_id":"ce4bhq92rcd13ifvqhjg","pricing_plan_id":"cebpf4jnsgd1na2vs0mg"},{"bike_id":"0a5e6cc4-0328-4fd7-9db5-c5029f1cf2d9","system_id":"levelo_inurba_marseille","lat":43.32367,"lon":5.38877,"is_reserved":false,"is_disabled":false,"rental_uris":{"android":"levelo://app?vid=0a5e6cc4-0328-4fd7-9db5-c5029f1cf2d9","ios":"levelo://app?vid=0a5e6cc4-0328-4fd7-9db5-c5029f1cf2d9"},"vehicle_type_id":"4","last_reported":1747275969,"current_range_meters":16400,"station_id":"ce4bhqp2rcd13ifvqhog","pricing_plan_id":"cebpf4jnsgd1na2vs0mg"},{"bike_id":"b33bce84-ade5-44da-bf0b-0b6ebddf4632","system_id":"levelo_inurba_marseille","lat":43.30441,"lon":5.38887,"is_reserved":false,"is_disabled":false,"rental_uris":{"android":"levelo://app?vid=b33bce84-ade5-44da-bf0b-0b6ebddf4632","ios":"levelo://app?vid=b33bce84-ade5-44da-bf0b-0b6ebddf4632"},"vehicle_type_id":"4","last_reported":1747275969,"current_range_meters":16400,"station_id":"ce4bgk12rcd13ifvqbi0","pricing_plan_id":"cebpf4jnsgd1na2vs0mg"},{"bike_id":"d74dda0c-2ae8-4a20-aee3-80ba3b692d64","system_id":"levelo_inurba_marseille","lat":43.304741,"lon":5.371761,"is_reserved":false,"is_disabled":false,"rental_uris":{"android":"levelo://app?vid=d74dda0c-2ae8-4a20-aee3-80ba3b692d64","ios":"levelo://app?vid=d74dda0c-2ae8-4a20-aee3-80ba3b692d64"},"vehicle_type_id":"4","last_reported":1747275969,"current_range_meters":16400,"station_id":"","pricing_plan_id":"cebpf4jnsgd1na2vs0mg"},{"bike_id":"38547907-f6cb-4f86-9a36-9ebfe243cd12","system_id":"levelo_inurba_marseille","lat":43.31058,"lon":5.3835,"is_reserved":false,"is_disabled":false,"rental_uris":{"android":"levelo://app?vid=38547907-f6cb-4f86-9a36-9ebfe243cd12","ios":"levelo://app?vid=38547907-f6cb-4f86-9a36-9ebfe243cd12"},"vehicle_type_id":"4","last_reported":1747275969,"current_range_meters":16400,"station_id":"ce4bgv92rcd13ifvqcr0","pricing_plan_id":"cebpf4jnsgd1na2vs0mg"},{"bike_id":"cb4f2db1-d99f-48f4-bfbb-5bd040971ec9","system_id":"levelo_inurba_marseille","lat":43.27569,"lon":5.38412,"is_reserved":false,"is_disabled":false,"rental_uris":{"android":"levelo://app?vid=cb4f2db1-d99f-48f4-bfbb-5bd040971ec9","ios":"levelo://app?vid=cb4f2db1-d99f-48f4-bfbb-5bd040971ec9"},"vehicle_type_id":"4","last_reported":1747275969,"current_range_meters":16400,"station_id":"ce4bhh92rcd13ifvqfi0","pricing_plan_id":"cebpf4jnsgd1na2vs0mg"},{"bike_id":"1b2ca96b-a115-4009-b707-71f4c5b975d8","system_id":"levelo_inurba_marseille","lat":43.32486,"lon":5.36575,"is_reserved":false,"is_disabled":false,"rental_uris":{"android":"levelo://app?vid=1b2ca96b-a115-4009-b707-71f4c5b975d8","ios":"levelo://app?vid=1b2ca96b-a115-4009-b707-71f4c5b975d8"},"vehicle_type_id":"4","last_reported":1747275969,"current_range_meters":16800,"station_id":"ce4bhs12rcd13ifvqhvg","pricing_plan_id":"cebpf4jnsgd1na2vs0mg"},{"bike_id":"c3acc1e9-c036-4520-87a3-7e8466cee4e3","system_id":"levelo_inurba_marseille","lat":43.324835,"lon":5.365684,"is_reserved":false,"is_disabled":false,"rental_uris":{"android":"levelo://app?vid=c3acc1e9-c036-4520-87a3-7e8466cee4e3","ios":"levelo://app?vid=c3acc1e9-c036-4520-87a3-7e8466cee4e3"},"vehicle_type_id":"4","last_reported":1747275969,"current_range_meters":16800,"station_id":"ce4bhs12rcd13ifvqhvg","pricing_plan_id":"cebpf4jnsgd1na2vs0mg"},{"bike_id":"1b80681f-9677-44c0-90c9-48d87fc24c7e","system_id":"levelo_inurba_marseille","lat":43.30887,"lon":5.39635,"is_reserved":false,"is_disabled":false,"rental_uris":{"android":"levelo://app?vid=1b80681f-9677-44c0-90c9-48d87fc24c7e","ios":"levelo://app?vid=1b80681f-9677-44c0-90c9-48d87fc24c7e"},"vehicle_type_id":"4","last_reported":1747275969,"current_range_meters":16800,"station_id":"ce4bh012rcd13ifvqcv0","pricing_plan_id":"cebpf4jnsgd1na2vs0mg"},{"bike_id":"b7401c58-3eb7-430b-9309-d8633c910966","system_id":"levelo_inurba_marseille","lat":43.23181,"lon":5.39989,"is_reserved":false,"is_disabled":false,"rental_uris":{"android":"levelo://app?vid=b7401c58-3eb7-430b-9309-d8633c910966","ios":"levelo://app?vid=b7401c58-3eb7-430b-9309-d8633c910966"},"vehicle_type_id":"4","last_reported":1747275969,"current_range_meters":16800,"station_id":"ce4bhn12rcd13ifvqgqg","pricing_plan_id":"cebpf4jnsgd1na2vs0mg"},{"bike_id":"c682a571-1b8e-42c7-82ff-72c8d128bd01","system_id":"levelo_inurba_marseille","lat":43.298925,"lon":5.383147,"is_reserved":false,"is_disabled":false,"rental_uris":{"android":"levelo://app?vid=c682a571-1b8e-42c7-82ff-72c8d128bd01","ios":"levelo://app?vid=c682a571-1b8e-42c7-82ff-72c8d128bd01"},"vehicle_type_id":"4","last_reported":1747275969,"current_range_meters":16800,"station_id":"","pricing_plan_id":"cebpf4jnsgd1na2vs0mg"},{"bike_id":"8032aa39-1bfc-43b6-80ee-bfbcf0a27802","system_id":"levelo_inurba_marseille","lat":43.28703,"lon":5.40005,"is_reserved":false,"is_disabled":false,"rental_uris":{"android":"levelo://app?vid=8032aa39-1bfc-43b6-80ee-bfbcf0a27802","ios":"levelo://app?vid=8032aa39-1bfc-43b6-80ee-bfbcf0a27802"},"vehicle_type_id":"4","last_reported":1747275969,"current_range_meters":16800,"station_id":"ce4bho92rcd13ifvqh3g","pricing_plan_id":"cebpf4jnsgd1na2vs0mg"},{"bike_id":"0cc46be0-cda7-4d84-a24a-b567a36e5f7e","system_id":"levelo_inurba_marseille","lat":43.30273,"lon":5.36859,"is_reserved":false,"is_disabled":false,"rental_uris":{"android":"levelo://app?vid=0cc46be0-cda7-4d84-a24a-b567a36e5f7e","ios":"levelo://app?vid=0cc46be0-cda7-4d84-a24a-b567a36e5f7e"},"vehicle_type_id":"4","last_reported":1747275969,"current_range_meters":16800,"station_id":"","pricing_plan_id":"cebpf4jnsgd1na2vs0mg"},{"bike_id":"c0b9fd4f-e181-46ce-b0bf-f5119973334f","system_id":"levelo_inurba_marseille","lat":43.33771,"lon":5.37424,"is_reserved":false,"is_disabled":false,"rental_uris":{"android":"levelo://app?vid=c0b9fd4f-e181-46ce-b0bf-f5119973334f","ios":"levelo://app?vid=c0b9fd4f-e181-46ce-b0bf-f5119973334f"},"vehicle_type_id":"4","last_reported":1747275969,"current_range_meters":16800,"station_id":"","pricing_plan_id":"cebpf4jnsgd1na2vs0mg"},{"bike_id":"81b30f51-5b15-4ddb-82e7-f3670cd9a34f","system_id":"levelo_inurba_marseille","lat":43.28713,"lon":5.39996,"is_reserved":false,"is_disabled":false,"rental_uris":{"android":"levelo://app?vid=81b30f51-5b15-4ddb-82e7-f3670cd9a34f","ios":"levelo://app?vid=81b30f51-5b15-4ddb-82e7-f3670cd9a34f"},"vehicle_type_id":"4","last_reported":1747275969,"current_range_meters":17200,"station_id":"ce4bho92rcd13ifvqh3g","pricing_plan_id":"cebpf4jnsgd1na2vs0mg"},{"bike_id":"15e66101-cd15-46aa-a2a2-4fd649d49fa6","system_id":"levelo_inurba_marseille","lat":43.28077,"lon":5.39649,"is_reserved":false,"is_disabled":false,"rental_uris":{"android":"levelo://app?vid=15e66101-cd15-46aa-a2a2-4fd649d49fa6","ios":"levelo://app?vid=15e66101-cd15-46aa-a2a2-4fd649d49fa6"},"vehicle_type_id":"4","last_reported":1747275969,"current_range_meters":17200,"station_id":"ce4bho12rcd13ifvqh2g","pricing_plan_id":"cebpf4jnsgd1na2vs0mg"},{"bike_id":"d7050558-65ac-4a68-a76c-6a37942a4b17","system_id":"levelo_inurba_marseille","lat":43.30419,"lon":5.38885,"is_reserved":false,"is_disabled":false,"rental_uris":{"android":"levelo://app?vid=d7050558-65ac-4a68-a76c-6a37942a4b17","ios":"levelo://app?vid=d7050558-65ac-4a68-a76c-6a37942a4b17"},"vehicle_type_id":"4","last_reported":1747275969,"current_range_meters":17200,"station_id":"ce4bgk12rcd13ifvqbi0","pricing_plan_id":"cebpf4jnsgd1na2vs0mg"},{"bike_id":"1def4d9e-ba54-4554-8279-72b57c0de750","system_id":"levelo_inurba_marseille","lat":43.337444,"lon":5.374475,"is_reserved":false,"is_disabled":false,"rental_uris":{"android":"levelo://app?vid=1def4d9e-ba54-4554-8279-72b57c0de750","ios":"levelo://app?vid=1def4d9e-ba54-4554-8279-72b57c0de750"},"vehicle_type_id":"4","last_reported":1747275969,"current_range_meters":17200,"station_id":"","pricing_plan_id":"cebpf4jnsgd1na2vs0mg"},{"bike_id":"00042ebf-8980-4af7-ab95-d229a0ede249","system_id":"levelo_inurba_marseille","lat":43.29887,"lon":5.39748,"is_reserved":false,"is_disabled":false,"rental_uris":{"android":"levelo://app?vid=00042ebf-8980-4af7-ab95-d229a0ede249","ios":"levelo://app?vid=00042ebf-8980-4af7-ab95-d229a0ede249"},"vehicle_type_id":"4","last_reported":1747275969,"current_range_meters":17200,"station_id":"ce4bh0h2rcd13ifvqd50","pricing_plan_id":"cebpf4jnsgd1na2vs0mg"},{"bike_id":"886cacb8-a8f2-4a9f-b4ff-ad4500dd1a16","system_id":"levelo_inurba_marseille","lat":43.30218,"lon":5.394733,"is_reserved":false,"is_disabled":false,"rental_uris":{"android":"levelo://app?vid=886cacb8-a8f2-4a9f-b4ff-ad4500dd1a16","ios":"levelo://app?vid=886cacb8-a8f2-4a9f-b4ff-ad4500dd1a16"},"vehicle_type_id":"4","last_reported":1747275969,"current_range_meters":17600,"station_id":"ce4bh0p2rcd13ifvqd70","pricing_plan_id":"cebpf4jnsgd1na2vs0mg"},{"bike_id":"5b4d94d5-d1fb-4594-8ced-01262346e7e4","system_id":"levelo_inurba_marseille","lat":43.286193,"lon":5.370588,"is_reserved":false,"is_disabled":false,"rental_uris":{"android":"levelo://app?vid=5b4d94d5-d1fb-4594-8ced-01262346e7e4","ios":"levelo://app?vid=5b4d94d5-d1fb-4594-8ced-01262346e7e4"},"vehicle_type_id":"4","last_reported":1747275969,"current_range_meters":17600,"station_id":"ce4bht12rcd13ifvqi60","pricing_plan_id":"cebpf4jnsgd1na2vs0mg"},{"bike_id":"0d7de790-99a3-400d-a659-afa7479af034","system_id":"levelo_inurba_marseille","lat":43.30211,"lon":5.3947,"is_reserved":false,"is_disabled":false,"rental_uris":{"android":"levelo://app?vid=0d7de790-99a3-400d-a659-afa7479af034","ios":"levelo://app?vid=0d7de790-99a3-400d-a659-afa7479af034"},"vehicle_type_id":"4","last_reported":1747275969,"current_range_meters":17600,"station_id":"ce4bh0p2rcd13ifvqd70","pricing_plan_id":"cebpf4jnsgd1na2vs0mg"},{"bike_id":"a97e7f2f-a4bd-43dc-a4a3-f47c4b150cbd","system_id":"levelo_inurba_marseille","lat":43.24173,"lon":5.39737,"is_reserved":false,"is_disabled":false,"rental_uris":{"android":"levelo://app?vid=a97e7f2f-a4bd-43dc-a4a3-f47c4b150cbd","ios":"levelo://app?vid=a97e7f2f-a4bd-43dc-a4a3-f47c4b150cbd"},"vehicle_type_id":"4","last_reported":1747275969,"current_range_meters":17600,"station_id":"ce4bhn12rcd13ifvqgpg","pricing_plan_id":"cebpf4jnsgd1na2vs0mg"},{"bike_id":"99854a5c-4c94-41df-a0e9-cc01af76f2f0","system_id":"levelo_inurba_marseille","lat":43.28134,"lon":5.40498,"is_reserved":false,"is_disabled":false,"rental_uris":{"android":"levelo://app?vid=99854a5c-4c94-41df-a0e9-cc01af76f2f0","ios":"levelo://app?vid=99854a5c-4c94-41df-a0e9-cc01af76f2f0"},"vehicle_type_id":"4","last_reported":1747275969,"current_range_meters":17600,"station_id":"","pricing_plan_id":"cebpf4jnsgd1na2vs0mg"},{"bike_id":"b9d4a133-c6ad-42b4-a6f8-2b529d40398a","system_id":"levelo_inurba_marseille","lat":43.289827,"lon":5.366538,"is_reserved":false,"is_disabled":false,"rental_uris":{"android":"levelo://app?vid=b9d4a133-c6ad-42b4-a6f8-2b529d40398a","ios":"levelo://app?vid=b9d4a133-c6ad-42b4-a6f8-2b529d40398a"},"vehicle_type_id":"4","last_reported":1747275969,"current_range_meters":18000,"station_id":"","pricing_plan_id":"cebpf4jnsgd1na2vs0mg"},{"bike_id":"9a402898-f116-408b-8709-c62dd77d2b5d","system_id":"levelo_inurba_marseille","lat":43.2936,"lon":5.42833,"is_reserved":false,"is_disabled":false,"rental_uris":{"android":"levelo://app?vid=9a402898-f116-408b-8709-c62dd77d2b5d","ios":"levelo://app?vid=9a402898-f116-408b-8709-c62dd77d2b5d"},"vehicle_type_id":"4","last_reported":1747275969,"current_range_meters":18000,"station_id":"","pricing_plan_id":"cebpf4jnsgd1na2vs0mg"},{"bike_id":"385c5680-aa17-4953-8596-7f0cb64e8bcd","system_id":"levelo_inurba_marseille","lat":43.32473,"lon":5.36566,"is_reserved":false,"is_disabled":false,"rental_uris":{"android":"levelo://app?vid=385c5680-aa17-4953-8596-7f0cb64e8bcd","ios":"levelo://app?vid=385c5680-aa17-4953-8596-7f0cb64e8bcd"},"vehicle_type_id":"4","last_reported":1747275969,"current_range_meters":18000,"station_id":"ce4bhs12rcd13ifvqhvg","pricing_plan_id":"cebpf4jnsgd1na2vs0mg"},{"bike_id":"bfd7292f-0dc3-4d16-8393-ce7be3db558b","system_id":"levelo_inurba_marseille","lat":43.3094,"lon":5.40172,"is_reserved":false,"is_disabled":false,"rental_uris":{"android":"levelo://app?vid=bfd7292f-0dc3-4d16-8393-ce7be3db558b","ios":"levelo://app?vid=bfd7292f-0dc3-4d16-8393-ce7be3db558b"},"vehicle_type_id":"4","last_reported":1747275969,"current_range_meters":18000,"station_id":"ce4bgvp2rcd13ifvqct0","pricing_plan_id":"cebpf4jnsgd1na2vs0mg"},{"bike_id":"8b44f886-59c7-4896-a2ca-0dea931a883f","system_id":"levelo_inurba_marseille","lat":43.21189,"lon":5.35055,"is_reserved":false,"is_disabled":false,"rental_uris":{"android":"levelo://app?vid=8b44f886-59c7-4896-a2ca-0dea931a883f","ios":"levelo://app?vid=8b44f886-59c7-4896-a2ca-0dea931a883f"},"vehicle_type_id":"4","last_reported":1747275969,"current_range_meters":18000,"station_id":"st_cvj6sg6p6f1abm77japg","pricing_plan_id":"cebpf4jnsgd1na2vs0mg"},{"bike_id":"ea1b505c-8fbe-4074-89d4-fe62ae762864","system_id":"levelo_inurba_marseille","lat":43.30871,"lon":5.39669,"is_reserved":false,"is_disabled":false,"rental_uris":{"android":"levelo://app?vid=ea1b505c-8fbe-4074-89d4-fe62ae762864","ios":"levelo://app?vid=ea1b505c-8fbe-4074-89d4-fe62ae762864"},"vehicle_type_id":"4","last_reported":1747275969,"current_range_meters":18000,"station_id":"ce4bh012rcd13ifvqcv0","pricing_plan_id":"cebpf4jnsgd1na2vs0mg"},{"bike_id":"70c1c9f7-710d-44b2-9eb2-40dcacaab646","system_id":"levelo_inurba_marseille","lat":43.31072,"lon":5.42458,"is_reserved":false,"is_disabled":false,"rental_uris":{"android":"levelo://app?vid=70c1c9f7-710d-44b2-9eb2-40dcacaab646","ios":"levelo://app?vid=70c1c9f7-710d-44b2-9eb2-40dcacaab646"},"vehicle_type_id":"4","last_reported":1747275969,"current_range_meters":18000,"station_id":"ce4bhp92rcd13ifvqhag","pricing_plan_id":"cebpf4jnsgd1na2vs0mg"},{"bike_id":"58cae59b-09e5-4ed6-9322-d7200cf39fde","system_id":"levelo_inurba_marseille","lat":43.322841,"lon":5.382826,"is_reserved":false,"is_disabled":false,"rental_uris":{"android":"levelo://app?vid=58cae59b-09e5-4ed6-9322-d7200cf39fde","ios":"levelo://app?vid=58cae59b-09e5-4ed6-9322-d7200cf39fde"},"vehicle_type_id":"4","last_reported":1747275969,"current_range_meters":18000,"station_id":"ce4bhr12rcd13ifvqhqg","pricing_plan_id":"cebpf4jnsgd1na2vs0mg"},{"bike_id":"bf148fad-e35c-429e-bfcc-e69d3314491e","system_id":"levelo_inurba_marseille","lat":43.31252,"lon":5.4023,"is_reserved":false,"is_disabled":false,"rental_uris":{"android":"levelo://app?vid=bf148fad-e35c-429e-bfcc-e69d3314491e","ios":"levelo://app?vid=bf148fad-e35c-429e-bfcc-e69d3314491e"},"vehicle_type_id":"4","last_reported":1747275969,"current_range_meters":18000,"station_id":"","pricing_plan_id":"cebpf4jnsgd1na2vs0mg"},{"bike_id":"4ea7ecab-11ec-4121-99f9-cb568a185364","system_id":"levelo_inurba_marseille","lat":43.29175,"lon":5.35808,"is_reserved":false,"is_disabled":false,"rental_uris":{"android":"levelo://app?vid=4ea7ecab-11ec-4121-99f9-cb568a185364","ios":"levelo://app?vid=4ea7ecab-11ec-4121-99f9-cb568a185364"},"vehicle_type_id":"4","last_reported":1747275969,"current_range_meters":17600,"station_id":"ce4bhb12rcd13ifvqel0","pricing_plan_id":"cebpf4jnsgd1na2vs0mg"},{"bike_id":"57e8d5eb-b081-4b84-b31e-e88847d14847","system_id":"levelo_inurba_marseille","lat":43.287049,"lon":5.373882,"is_reserved":false,"is_disabled":false,"rental_uris":{"android":"levelo://app?vid=57e8d5eb-b081-4b84-b31e-e88847d14847","ios":"levelo://app?vid=57e8d5eb-b081-4b84-b31e-e88847d14847"},"vehicle_type_id":"4","last_reported":1747275969,"current_range_meters":18800,"station_id":"ce4bh3p2rcd13ifvqdq0","pricing_plan_id":"cebpf4jnsgd1na2vs0mg"},{"bike_id":"8d0b7851-f297-4cd1-97b7-4b3cd40114ec","system_id":"levelo_inurba_marseille","lat":43.30643,"lon":5.400748,"is_reserved":false,"is_disabled":false,"rental_uris":{"android":"levelo://app?vid=8d0b7851-f297-4cd1-97b7-4b3cd40114ec","ios":"levelo://app?vid=8d0b7851-f297-4cd1-97b7-4b3cd40114ec"},"vehicle_type_id":"4","last_reported":1747275969,"current_range_meters":18800,"station_id":"ce4bh112rcd13ifvqda0","pricing_plan_id":"cebpf4jnsgd1na2vs0mg"},{"bike_id":"08c3bbb6-0b0b-4686-a311-8a89b6fbd5c9","system_id":"levelo_inurba_marseille","lat":43.32341,"lon":5.40616,"is_reserved":false,"is_disabled":false,"rental_uris":{"android":"levelo://app?vid=08c3bbb6-0b0b-4686-a311-8a89b6fbd5c9","ios":"levelo://app?vid=08c3bbb6-0b0b-4686-a311-8a89b6fbd5c9"},"vehicle_type_id":"4","last_reported":1747275969,"current_range_meters":18800,"station_id":"ce4bhq92rcd13ifvqhjg","pricing_plan_id":"cebpf4jnsgd1na2vs0mg"},{"bike_id":"cbcbc814-fae5-4814-a0c1-163ff96814a5","system_id":"levelo_inurba_marseille","lat":43.31185,"lon":5.38723,"is_reserved":false,"is_disabled":false,"rental_uris":{"android":"levelo://app?vid=cbcbc814-fae5-4814-a0c1-163ff96814a5","ios":"levelo://app?vid=cbcbc814-fae5-4814-a0c1-163ff96814a5"},"vehicle_type_id":"4","last_reported":1747275969,"current_range_meters":18800,"station_id":"ce4bgv12rcd13ifvqcp0","pricing_plan_id":"cebpf4jnsgd1na2vs0mg"},{"bike_id":"2383d846-594e-4e76-ac87-f8dc04e578c6","system_id":"levelo_inurba_marseille","lat":43.34965,"lon":5.3487,"is_reserved":false,"is_disabled":false,"rental_uris":{"android":"levelo://app?vid=2383d846-594e-4e76-ac87-f8dc04e578c6","ios":"levelo://app?vid=2383d846-594e-4e76-ac87-f8dc04e578c6"},"vehicle_type_id":"4","last_reported":1747275969,"current_range_meters":18800,"station_id":"ce4bhah2rcd13ifvqei0","pricing_plan_id":"cebpf4jnsgd1na2vs0mg"},{"bike_id":"f31e0c7d-730a-4cc4-9836-3184dcf3f521","system_id":"levelo_inurba_marseille","lat":43.30322,"lon":5.40442,"is_reserved":false,"is_disabled":false,"rental_uris":{"android":"levelo://app?vid=f31e0c7d-730a-4cc4-9836-3184dcf3f521","ios":"levelo://app?vid=f31e0c7d-730a-4cc4-9836-3184dcf3f521"},"vehicle_type_id":"4","last_reported":1747275969,"current_range_meters":18800,"station_id":"ce4bh012rcd13ifvqd10","pricing_plan_id":"cebpf4jnsgd1na2vs0mg"},{"bike_id":"923c8157-76eb-4de1-8e7b-3c3522b64237","system_id":"levelo_inurba_marseille","lat":43.30571,"lon":5.37254,"is_reserved":false,"is_disabled":false,"rental_uris":{"android":"levelo://app?vid=923c8157-76eb-4de1-8e7b-3c3522b64237","ios":"levelo://app?vid=923c8157-76eb-4de1-8e7b-3c3522b64237"},"vehicle_type_id":"4","last_reported":1747275969,"current_range_meters":18800,"station_id":"ce4bgqh2rcd13ifvqc4g","pricing_plan_id":"cebpf4jnsgd1na2vs0mg"},{"bike_id":"b8505fd1-8131-40e9-a33d-145916457441","system_id":"levelo_inurba_marseille","lat":43.30366,"lon":5.4251,"is_reserved":false,"is_disabled":false,"rental_uris":{"android":"levelo://app?vid=b8505fd1-8131-40e9-a33d-145916457441","ios":"levelo://app?vid=b8505fd1-8131-40e9-a33d-145916457441"},"vehicle_type_id":"4","last_reported":1747275969,"current_range_meters":18800,"station_id":"ce4bhoh2rcd13ifvqh6g","pricing_plan_id":"cebpf4jnsgd1na2vs0mg"},{"bike_id":"cdc85d67-a809-46c7-9857-3ce4195beb00","system_id":"levelo_inurba_marseille","lat":43.27053,"lon":5.40285,"is_reserved":false,"is_disabled":false,"rental_uris":{"android":"levelo://app?vid=cdc85d67-a809-46c7-9857-3ce4195beb00","ios":"levelo://app?vid=cdc85d67-a809-46c7-9857-3ce4195beb00"},"vehicle_type_id":"4","last_reported":1747275969,"current_range_meters":18800,"station_id":"ce4bhk92rcd13ifvqgc0","pricing_plan_id":"cebpf4jnsgd1na2vs0mg"},{"bike_id":"a6002c7f-3b00-4265-bf42-2020668e804b","system_id":"levelo_inurba_marseille","lat":43.30941,"lon":5.40157,"is_reserved":false,"is_disabled":false,"rental_uris":{"android":"levelo://app?vid=a6002c7f-3b00-4265-bf42-2020668e804b","ios":"levelo://app?vid=a6002c7f-3b00-4265-bf42-2020668e804b"},"vehicle_type_id":"4","last_reported":1747275969,"current_range_meters":18800,"station_id":"ce4bgvp2rcd13ifvqct0","pricing_plan_id":"cebpf4jnsgd1na2vs0mg"},{"bike_id":"56d3515b-c3a0-4e93-b1f9-c90ea7a3ac3f","system_id":"levelo_inurba_marseille","lat":43.284075,"lon":5.375179,"is_reserved":false,"is_disabled":false,"rental_uris":{"android":"levelo://app?vid=56d3515b-c3a0-4e93-b1f9-c90ea7a3ac3f","ios":"levelo://app?vid=56d3515b-c3a0-4e93-b1f9-c90ea7a3ac3f"},"vehicle_type_id":"4","last_reported":1747275969,"current_range_meters":19200,"station_id":"ce4bh412rcd13ifvqds0","pricing_plan_id":"cebpf4jnsgd1na2vs0mg"},{"bike_id":"abeccd07-a0d2-4a88-b6ab-32039991e588","system_id":"levelo_inurba_marseille","lat":43.28568,"lon":5.39518,"is_reserved":false,"is_disabled":false,"rental_uris":{"android":"levelo://app?vid=abeccd07-a0d2-4a88-b6ab-32039991e588","ios":"levelo://app?vid=abeccd07-a0d2-4a88-b6ab-32039991e588"},"vehicle_type_id":"4","last_reported":1747275969,"current_range_meters":19200,"station_id":"ce4bh292rcd13ifvqdg0","pricing_plan_id":"cebpf4jnsgd1na2vs0mg"},{"bike_id":"201dfaf8-62cf-4442-b654-1073912dc762","system_id":"levelo_inurba_marseille","lat":43.30635,"lon":5.40097,"is_reserved":false,"is_disabled":false,"rental_uris":{"android":"levelo://app?vid=201dfaf8-62cf-4442-b654-1073912dc762","ios":"levelo://app?vid=201dfaf8-62cf-4442-b654-1073912dc762"},"vehicle_type_id":"4","last_reported":1747275969,"current_range_meters":19200,"station_id":"ce4bh112rcd13ifvqda0","pricing_plan_id":"cebpf4jnsgd1na2vs0mg"},{"bike_id":"3038f049-0195-4182-884a-dc9bf7e1b7b8","system_id":"levelo_inurba_marseille","lat":43.25111,"lon":5.40306,"is_reserved":false,"is_disabled":false,"rental_uris":{"android":"levelo://app?vid=3038f049-0195-4182-884a-dc9bf7e1b7b8","ios":"levelo://app?vid=3038f049-0195-4182-884a-dc9bf7e1b7b8"},"vehicle_type_id":"4","last_reported":1747275969,"current_range_meters":19200,"station_id":"ce4bhlh2rcd13ifvqgig","pricing_plan_id":"cebpf4jnsgd1na2vs0mg"},{"bike_id":"6eb4684c-cbf7-4f09-8cfc-89b73a8821e2","system_id":"levelo_inurba_marseille","lat":43.23361,"lon":5.3607,"is_reserved":false,"is_disabled":false,"rental_uris":{"android":"levelo://app?vid=6eb4684c-cbf7-4f09-8cfc-89b73a8821e2","ios":"levelo://app?vid=6eb4684c-cbf7-4f09-8cfc-89b73a8821e2"},"vehicle_type_id":"4","last_reported":1747275969,"current_range_meters":19600,"station_id":"","pricing_plan_id":"cebpf4jnsgd1na2vs0mg"},{"bike_id":"840dcd41-1169-4d2f-a926-23eb8f7dd13f","system_id":"levelo_inurba_marseille","lat":43.28409,"lon":5.39232,"is_reserved":false,"is_disabled":false,"rental_uris":{"android":"levelo://app?vid=840dcd41-1169-4d2f-a926-23eb8f7dd13f","ios":"levelo://app?vid=840dcd41-1169-4d2f-a926-23eb8f7dd13f"},"vehicle_type_id":"4","last_reported":1747275969,"current_range_meters":19600,"station_id":"ce4bhoh2rcd13ifvqh5g","pricing_plan_id":"cebpf4jnsgd1na2vs0mg"},{"bike_id":"0ce6466f-872c-4f1a-a0f8-e41aa916edbb","system_id":"levelo_inurba_marseille","lat":43.317206,"lon":5.423975,"is_reserved":false,"is_disabled":false,"rental_uris":{"android":"levelo://app?vid=0ce6466f-872c-4f1a-a0f8-e41aa916edbb","ios":"levelo://app?vid=0ce6466f-872c-4f1a-a0f8-e41aa916edbb"},"vehicle_type_id":"4","last_reported":1747275969,"current_range_meters":19600,"station_id":"ce4bhp92rcd13ifvqhbg","pricing_plan_id":"cebpf4jnsgd1na2vs0mg"},{"bike_id":"332d6fa8-b983-496d-b5b1-4e677d959d73","system_id":"levelo_inurba_marseille","lat":43.24679,"lon":5.38163,"is_reserved":false,"is_disabled":false,"rental_uris":{"android":"levelo://app?vid=332d6fa8-b983-496d-b5b1-4e677d959d73","ios":"levelo://app?vid=332d6fa8-b983-496d-b5b1-4e677d959d73"},"vehicle_type_id":"4","last_reported":1747275969,"current_range_meters":19600,"station_id":"ce4bhih2rcd13ifvqfr0","pricing_plan_id":"cebpf4jnsgd1na2vs0mg"},{"bike_id":"1ca5e61f-d948-4f2a-9be9-774b95d0b013","system_id":"levelo_inurba_marseille","lat":43.309231,"lon":5.401493,"is_reserved":false,"is_disabled":false,"rental_uris":{"android":"levelo://app?vid=1ca5e61f-d948-4f2a-9be9-774b95d0b013","ios":"levelo://app?vid=1ca5e61f-d948-4f2a-9be9-774b95d0b013"},"vehicle_type_id":"4","last_reported":1747275969,"current_range_meters":19600,"station_id":"ce4bgvp2rcd13ifvqct0","pricing_plan_id":"cebpf4jnsgd1na2vs0mg"},{"bike_id":"05647ffd-ffa9-4a9c-92e9-9a49dc821811","system_id":"levelo_inurba_marseille","lat":43.323566,"lon":5.36753,"is_reserved":false,"is_disabled":false,"rental_uris":{"android":"levelo://app?vid=05647ffd-ffa9-4a9c-92e9-9a49dc821811","ios":"levelo://app?vid=05647ffd-ffa9-4a9c-92e9-9a49dc821811"},"vehicle_type_id":"4","last_reported":1747275969,"current_range_meters":19600,"station_id":"ce4bhsh2rcd13ifvqi2g","pricing_plan_id":"cebpf4jnsgd1na2vs0mg"},{"bike_id":"43fbd11b-0562-46b0-bc29-cf8af9467a62","system_id":"levelo_inurba_marseille","lat":43.28368,"lon":5.386392,"is_reserved":false,"is_disabled":false,"rental_uris":{"android":"levelo://app?vid=43fbd11b-0562-46b0-bc29-cf8af9467a62","ios":"levelo://app?vid=43fbd11b-0562-46b0-bc29-cf8af9467a62"},"vehicle_type_id":"4","last_reported":1747275969,"current_range_meters":20000,"station_id":"ce4bh492rcd13ifvqdvg","pricing_plan_id":"cebpf4jnsgd1na2vs0mg"},{"bike_id":"d68e2195-4a46-4330-8fb5-099a7e5fcbec","system_id":"levelo_inurba_marseille","lat":43.307989,"lon":5.381489,"is_reserved":false,"is_disabled":false,"rental_uris":{"android":"levelo://app?vid=d68e2195-4a46-4330-8fb5-099a7e5fcbec","ios":"levelo://app?vid=d68e2195-4a46-4330-8fb5-099a7e5fcbec"},"vehicle_type_id":"4","last_reported":1747275969,"current_range_meters":20000,"station_id":"ce4bgt12rcd13ifvqce0","pricing_plan_id":"cebpf4jnsgd1na2vs0mg"},{"bike_id":"27f90a77-0e39-4d7d-865b-8b5d4f32f811","system_id":"levelo_inurba_marseille","lat":43.31164,"lon":5.38709,"is_reserved":false,"is_disabled":false,"rental_uris":{"android":"levelo://app?vid=27f90a77-0e39-4d7d-865b-8b5d4f32f811","ios":"levelo://app?vid=27f90a77-0e39-4d7d-865b-8b5d4f32f811"},"vehicle_type_id":"4","last_reported":1747275969,"current_range_meters":20000,"station_id":"ce4bgv12rcd13ifvqcp0","pricing_plan_id":"cebpf4jnsgd1na2vs0mg"},{"bike_id":"f10edb68-f306-488a-9974-518a6c783f11","system_id":"levelo_inurba_marseille","lat":43.297809,"lon":5.381241,"is_reserved":false,"is_disabled":true,"rental_uris":{"android":"levelo://app?vid=f10edb68-f306-488a-9974-518a6c783f11","ios":"levelo://app?vid=f10edb68-f306-488a-9974-518a6c783f11"},"vehicle_type_id":"4","last_reported":1747275969,"current_range_meters":20000,"station_id":"ce4bgip2rcd13ifvqbb0","pricing_plan_id":"cebpf4jnsgd1na2vs0mg"},{"bike_id":"c9006908-b48d-4dec-8629-cb504d23e290","system_id":"levelo_inurba_marseille","lat":43.309289,"lon":5.401553,"is_reserved":false,"is_disabled":false,"rental_uris":{"android":"levelo://app?vid=c9006908-b48d-4dec-8629-cb504d23e290","ios":"levelo://app?vid=c9006908-b48d-4dec-8629-cb504d23e290"},"vehicle_type_id":"4","last_reported":1747275969,"current_range_meters":20000,"station_id":"ce4bgvp2rcd13ifvqct0","pricing_plan_id":"cebpf4jnsgd1na2vs0mg"},{"bike_id":"302cfdf1-81be-4755-b604-d1bc07b86986","system_id":"levelo_inurba_marseille","lat":43.32067,"lon":5.4154,"is_reserved":false,"is_disabled":false,"rental_uris":{"android":"levelo://app?vid=302cfdf1-81be-4755-b604-d1bc07b86986","ios":"levelo://app?vid=302cfdf1-81be-4755-b604-d1bc07b86986"},"vehicle_type_id":"4","last_reported":1747275969,"current_range_meters":20400,"station_id":"ce4bhq92rcd13ifvqhkg","pricing_plan_id":"cebpf4jnsgd1na2vs0mg"},{"bike_id":"9f3cfbde-2cc5-4ef3-9763-064bd87f7699","system_id":"levelo_inurba_marseille","lat":43.31325,"lon":5.39711,"is_reserved":false,"is_disabled":false,"rental_uris":{"android":"levelo://app?vid=9f3cfbde-2cc5-4ef3-9763-064bd87f7699","ios":"levelo://app?vid=9f3cfbde-2cc5-4ef3-9763-064bd87f7699"},"vehicle_type_id":"4","last_reported":1747275969,"current_range_meters":20400,"station_id":"ce4bgvp2rcd13ifvqcu0","pricing_plan_id":"cebpf4jnsgd1na2vs0mg"},{"bike_id":"2139b0ca-dddd-44ee-b6f6-fc1e6ef5d808","system_id":"levelo_inurba_marseille","lat":43.309326,"lon":5.401494,"is_reserved":false,"is_disabled":false,"rental_uris":{"android":"levelo://app?vid=2139b0ca-dddd-44ee-b6f6-fc1e6ef5d808","ios":"levelo://app?vid=2139b0ca-dddd-44ee-b6f6-fc1e6ef5d808"},"vehicle_type_id":"4","last_reported":1747275969,"current_range_meters":20400,"station_id":"ce4bgvp2rcd13ifvqct0","pricing_plan_id":"cebpf4jnsgd1na2vs0mg"},{"bike_id":"1fe0cc6f-a090-491c-9a7f-e067c04f1188","system_id":"levelo_inurba_marseille","lat":43.30781,"lon":5.37657,"is_reserved":false,"is_disabled":false,"rental_uris":{"android":"levelo://app?vid=1fe0cc6f-a090-491c-9a7f-e067c04f1188","ios":"levelo://app?vid=1fe0cc6f-a090-491c-9a7f-e067c04f1188"},"vehicle_type_id":"4","last_reported":1747275969,"current_range_meters":20800,"station_id":"ce4bgv92rcd13ifvqcq0","pricing_plan_id":"cebpf4jnsgd1na2vs0mg"},{"bike_id":"54a1a73b-9f7a-414c-a48f-eeace73bd9b0","system_id":"levelo_inurba_marseille","lat":43.22492,"lon":5.34841,"is_reserved":false,"is_disabled":false,"rental_uris":{"android":"levelo://app?vid=54a1a73b-9f7a-414c-a48f-eeace73bd9b0","ios":"levelo://app?vid=54a1a73b-9f7a-414c-a48f-eeace73bd9b0"},"vehicle_type_id":"4","last_reported":1747275969,"current_range_meters":20800,"station_id":"st_cvj5dfep6f1abm77gieg","pricing_plan_id":"cebpf4jnsgd1na2vs0mg"},{"bike_id":"80913d93-6ac0-4e66-802d-27824f4c45d3","system_id":"levelo_inurba_marseille","lat":43.27071,"lon":5.42279,"is_reserved":false,"is_disabled":false,"rental_uris":{"android":"levelo://app?vid=80913d93-6ac0-4e66-802d-27824f4c45d3","ios":"levelo://app?vid=80913d93-6ac0-4e66-802d-27824f4c45d3"},"vehicle_type_id":"4","last_reported":1747275969,"current_range_meters":20800,"station_id":"ce4bhk92rcd13ifvqgb0","pricing_plan_id":"cebpf4jnsgd1na2vs0mg"},{"bike_id":"0292d084-36bf-4c0b-bb2b-fc6438be4a7c","system_id":"levelo_inurba_marseille","lat":43.280794,"lon":5.396616,"is_reserved":false,"is_disabled":false,"rental_uris":{"android":"levelo://app?vid=0292d084-36bf-4c0b-bb2b-fc6438be4a7c","ios":"levelo://app?vid=0292d084-36bf-4c0b-bb2b-fc6438be4a7c"},"vehicle_type_id":"4","last_reported":1747275969,"current_range_meters":21600,"station_id":"ce4bho12rcd13ifvqh2g","pricing_plan_id":"cebpf4jnsgd1na2vs0mg"},{"bike_id":"034781b8-a7d9-4e75-b1b2-56ebc4f6985c","system_id":"levelo_inurba_marseille","lat":43.30945,"lon":5.39045,"is_reserved":false,"is_disabled":false,"rental_uris":{"android":"levelo://app?vid=034781b8-a7d9-4e75-b1b2-56ebc4f6985c","ios":"levelo://app?vid=034781b8-a7d9-4e75-b1b2-56ebc4f6985c"},"vehicle_type_id":"4","last_reported":1747275969,"current_range_meters":21600,"station_id":"ce4bgup2rcd13ifvqco0","pricing_plan_id":"cebpf4jnsgd1na2vs0mg"},{"bike_id":"b2c7ee2a-0625-40be-a37e-2e3a273120ed","system_id":"levelo_inurba_marseille","lat":43.313266,"lon":5.396981,"is_reserved":false,"is_disabled":false,"rental_uris":{"android":"levelo://app?vid=b2c7ee2a-0625-40be-a37e-2e3a273120ed","ios":"levelo://app?vid=b2c7ee2a-0625-40be-a37e-2e3a273120ed"},"vehicle_type_id":"4","last_reported":1747275969,"current_range_meters":21600,"station_id":"ce4bgvp2rcd13ifvqcu0","pricing_plan_id":"cebpf4jnsgd1na2vs0mg"},{"bike_id":"42f5d001-8a5e-48ec-8b07-f1f8b786af41","system_id":"levelo_inurba_marseille","lat":43.29907,"lon":5.37489,"is_reserved":false,"is_disabled":false,"rental_uris":{"android":"levelo://app?vid=42f5d001-8a5e-48ec-8b07-f1f8b786af41","ios":"levelo://app?vid=42f5d001-8a5e-48ec-8b07-f1f8b786af41"},"vehicle_type_id":"4","last_reported":1747275969,"current_range_meters":21600,"station_id":"ce4bgjh2rcd13ifvqbg0","pricing_plan_id":"cebpf4jnsgd1na2vs0mg"},{"bike_id":"5d6b8819-bc28-4c7c-a4c9-3c239162f9d4","system_id":"levelo_inurba_marseille","lat":43.31716,"lon":5.43718,"is_reserved":false,"is_disabled":false,"rental_uris":{"android":"levelo://app?vid=5d6b8819-bc28-4c7c-a4c9-3c239162f9d4","ios":"levelo://app?vid=5d6b8819-bc28-4c7c-a4c9-3c239162f9d4"},"vehicle_type_id":"4","last_reported":1747275969,"current_range_meters":21600,"station_id":"ce4bhp92rcd13ifvqhcg","pricing_plan_id":"cebpf4jnsgd1na2vs0mg"},{"bike_id":"51c0565a-9538-4bfc-93e0-a867b481dbd0","system_id":"levelo_inurba_marseille","lat":43.268019,"lon":5.402591,"is_reserved":false,"is_disabled":false,"rental_uris":{"android":"levelo://app?vid=51c0565a-9538-4bfc-93e0-a867b481dbd0","ios":"levelo://app?vid=51c0565a-9538-4bfc-93e0-a867b481dbd0"},"vehicle_type_id":"4","last_reported":1747275969,"current_range_meters":22000,"station_id":"ce501612rcd8frsf0b60","pricing_plan_id":"cebpf4jnsgd1na2vs0mg"},{"bike_id":"53255f06-7299-45fa-bc69-8e61557bf5d6","system_id":"levelo_inurba_marseille","lat":43.240689,"lon":5.377611,"is_reserved":false,"is_disabled":false,"rental_uris":{"android":"levelo://app?vid=53255f06-7299-45fa-bc69-8e61557bf5d6","ios":"levelo://app?vid=53255f06-7299-45fa-bc69-8e61557bf5d6"},"vehicle_type_id":"4","last_reported":1747275969,"current_range_meters":22000,"station_id":"ce4bhnp2rcd13ifvqgvg","pricing_plan_id":"cebpf4jnsgd1na2vs0mg"},{"bike_id":"32b55b17-458e-4a4c-972f-1babf1091298","system_id":"levelo_inurba_marseille","lat":43.315309,"lon":5.380292,"is_reserved":false,"is_disabled":false,"rental_uris":{"android":"levelo://app?vid=32b55b17-458e-4a4c-972f-1babf1091298","ios":"levelo://app?vid=32b55b17-458e-4a4c-972f-1babf1091298"},"vehicle_type_id":"4","last_reported":1747275969,"current_range_meters":22000,"station_id":"ce4bhsp2rcd13ifvqi50","pricing_plan_id":"cebpf4jnsgd1na2vs0mg"},{"bike_id":"d8293a94-070f-4ae3-891e-86ad27a59a4e","system_id":"levelo_inurba_marseille","lat":43.23954,"lon":5.3663,"is_reserved":false,"is_disabled":true,"rental_uris":{"android":"levelo://app?vid=d8293a94-070f-4ae3-891e-86ad27a59a4e","ios":"levelo://app?vid=d8293a94-070f-4ae3-891e-86ad27a59a4e"},"vehicle_type_id":"4","last_reported":1747275969,"current_range_meters":22400,"station_id":"ce4bhi12rcd13ifvqfp0","pricing_plan_id":"cebpf4jnsgd1na2vs0mg"},{"bike_id":"f92bcbc1-4487-46a6-96c1-7fedf03d9ccb","system_id":"levelo_inurba_marseille","lat":43.313284,"lon":5.396997,"is_reserved":false,"is_disabled":false,"rental_uris":{"android":"levelo://app?vid=f92bcbc1-4487-46a6-96c1-7fedf03d9ccb","ios":"levelo://app?vid=f92bcbc1-4487-46a6-96c1-7fedf03d9ccb"},"vehicle_type_id":"4","last_reported":1747275969,"current_range_meters":22400,"station_id":"ce4bgvp2rcd13ifvqcu0","pricing_plan_id":"cebpf4jnsgd1na2vs0mg"},{"bike_id":"54c80718-1468-47f9-9877-bc44f5940722","system_id":"levelo_inurba_marseille","lat":43.21194,"lon":5.35093,"is_reserved":false,"is_disabled":false,"rental_uris":{"android":"levelo://app?vid=54c80718-1468-47f9-9877-bc44f5940722","ios":"levelo://app?vid=54c80718-1468-47f9-9877-bc44f5940722"},"vehicle_type_id":"4","last_reported":1747275969,"current_range_meters":22400,"station_id":"st_cvj6sg6p6f1abm77japg","pricing_plan_id":"cebpf4jnsgd1na2vs0mg"},{"bike_id":"92b6ebfe-0ad8-4871-82c1-9f0959bfb894","system_id":"levelo_inurba_marseille","lat":43.28462,"lon":5.35872,"is_reserved":false,"is_disabled":false,"rental_uris":{"android":"levelo://app?vid=92b6ebfe-0ad8-4871-82c1-9f0959bfb894","ios":"levelo://app?vid=92b6ebfe-0ad8-4871-82c1-9f0959bfb894"},"vehicle_type_id":"4","last_reported":1747275969,"current_range_meters":22400,"station_id":"ce4bhah2rcd13ifvqei0","pricing_plan_id":"cebpf4jnsgd1na2vs0mg"},{"bike_id":"afb902a2-7138-4770-94e4-66d65e131da1","system_id":"levelo_inurba_marseille","lat":43.28695,"lon":5.40006,"is_reserved":false,"is_disabled":false,"rental_uris":{"android":"levelo://app?vid=afb902a2-7138-4770-94e4-66d65e131da1","ios":"levelo://app?vid=afb902a2-7138-4770-94e4-66d65e131da1"},"vehicle_type_id":"4","last_reported":1747275969,"current_range_meters":22800,"station_id":"ce4bho92rcd13ifvqh3g","pricing_plan_id":"cebpf4jnsgd1na2vs0mg"},{"bike_id":"2160c7e2-e6e0-4338-8e00-bbad6c541484","system_id":"levelo_inurba_marseille","lat":43.308828,"lon":5.396363,"is_reserved":false,"is_disabled":false,"rental_uris":{"android":"levelo://app?vid=2160c7e2-e6e0-4338-8e00-bbad6c541484","ios":"levelo://app?vid=2160c7e2-e6e0-4338-8e00-bbad6c541484"},"vehicle_type_id":"4","last_reported":1747275969,"current_range_meters":22800,"station_id":"ce4bh012rcd13ifvqcv0","pricing_plan_id":"cebpf4jnsgd1na2vs0mg"},{"bike_id":"3b53926b-4930-445a-95f8-a08ab6f7a6df","system_id":"levelo_inurba_marseille","lat":43.30423,"lon":5.38919,"is_reserved":false,"is_disabled":false,"rental_uris":{"android":"levelo://app?vid=3b53926b-4930-445a-95f8-a08ab6f7a6df","ios":"levelo://app?vid=3b53926b-4930-445a-95f8-a08ab6f7a6df"},"vehicle_type_id":"4","last_reported":1747275969,"current_range_meters":22800,"station_id":"ce4bgk12rcd13ifvqbi0","pricing_plan_id":"cebpf4jnsgd1na2vs0mg"},{"bike_id":"5dd81d8b-2d5c-46a8-ae61-aaef33b7e2ac","system_id":"levelo_inurba_marseille","lat":43.323609,"lon":5.388877,"is_reserved":false,"is_disabled":false,"rental_uris":{"android":"levelo://app?vid=5dd81d8b-2d5c-46a8-ae61-aaef33b7e2ac","ios":"levelo://app?vid=5dd81d8b-2d5c-46a8-ae61-aaef33b7e2ac"},"vehicle_type_id":"4","last_reported":1747275969,"current_range_meters":22800,"station_id":"ce4bhqp2rcd13ifvqhog","pricing_plan_id":"cebpf4jnsgd1na2vs0mg"},{"bike_id":"59e29e8a-a0e6-4f97-a7dd-6f3bb9740c59","system_id":"levelo_inurba_marseille","lat":43.31072,"lon":5.42461,"is_reserved":false,"is_disabled":false,"rental_uris":{"android":"levelo://app?vid=59e29e8a-a0e6-4f97-a7dd-6f3bb9740c59","ios":"levelo://app?vid=59e29e8a-a0e6-4f97-a7dd-6f3bb9740c59"},"vehicle_type_id":"4","last_reported":1747275969,"current_range_meters":22800,"station_id":"ce4bhp92rcd13ifvqhag","pricing_plan_id":"cebpf4jnsgd1na2vs0mg"},{"bike_id":"e8e1922b-4efa-4cf9-b298-6d48d9a51821","system_id":"levelo_inurba_marseille","lat":43.29283,"lon":5.40122,"is_reserved":false,"is_disabled":false,"rental_uris":{"android":"levelo://app?vid=e8e1922b-4efa-4cf9-b298-6d48d9a51821","ios":"levelo://app?vid=e8e1922b-4efa-4cf9-b298-6d48d9a51821"},"vehicle_type_id":"4","last_reported":1747275969,"current_range_meters":22800,"station_id":"ce4bh312rcd13ifvqdk0","pricing_plan_id":"cebpf4jnsgd1na2vs0mg"},{"bike_id":"621aa8e6-46f8-4850-9de9-5690b4d6cce3","system_id":"levelo_inurba_marseille","lat":43.307817,"lon":5.376528,"is_reserved":false,"is_disabled":false,"rental_uris":{"android":"levelo://app?vid=621aa8e6-46f8-4850-9de9-5690b4d6cce3","ios":"levelo://app?vid=621aa8e6-46f8-4850-9de9-5690b4d6cce3"},"vehicle_type_id":"4","last_reported":1747275969,"current_range_meters":22800,"station_id":"ce4bgv92rcd13ifvqcq0","pricing_plan_id":"cebpf4jnsgd1na2vs0mg"},{"bike_id":"dd2e9f0d-5529-4991-a879-c2b3f7b79d2d","system_id":"levelo_inurba_marseille","lat":43.3059,"lon":5.37267,"is_reserved":false,"is_disabled":false,"rental_uris":{"android":"levelo://app?vid=dd2e9f0d-5529-4991-a879-c2b3f7b79d2d","ios":"levelo://app?vid=dd2e9f0d-5529-4991-a879-c2b3f7b79d2d"},"vehicle_type_id":"4","last_reported":1747275969,"current_range_meters":23200,"station_id":"ce4bgqh2rcd13ifvqc4g","pricing_plan_id":"cebpf4jnsgd1na2vs0mg"},{"bike_id":"0bf58bb3-744f-4a70-b959-b36cf767c7d5","system_id":"levelo_inurba_marseille","lat":43.3361,"lon":5.41001,"is_reserved":false,"is_disabled":true,"rental_uris":{"android":"levelo://app?vid=0bf58bb3-744f-4a70-b959-b36cf767c7d5","ios":"levelo://app?vid=0bf58bb3-744f-4a70-b959-b36cf767c7d5"},"vehicle_type_id":"4","last_reported":1747275969,"current_range_meters":23200,"station_id":"ce4bhqh2rcd13ifvqhmg","pricing_plan_id":"cebpf4jnsgd1na2vs0mg"},{"bike_id":"0902ad8d-7763-45cb-b68b-36518dfa3e27","system_id":"levelo_inurba_marseille","lat":43.26802,"lon":5.40277,"is_reserved":false,"is_disabled":false,"rental_uris":{"android":"levelo://app?vid=0902ad8d-7763-45cb-b68b-36518dfa3e27","ios":"levelo://app?vid=0902ad8d-7763-45cb-b68b-36518dfa3e27"},"vehicle_type_id":"4","last_reported":1747275969,"current_range_meters":23200,"station_id":"ce501612rcd8frsf0b60","pricing_plan_id":"cebpf4jnsgd1na2vs0mg"},{"bike_id":"a95dece2-a1d6-4966-8b18-d18b8279e99d","system_id":"levelo_inurba_marseille","lat":43.28078,"lon":5.396583,"is_reserved":false,"is_disabled":false,"rental_uris":{"android":"levelo://app?vid=a95dece2-a1d6-4966-8b18-d18b8279e99d","ios":"levelo://app?vid=a95dece2-a1d6-4966-8b18-d18b8279e99d"},"vehicle_type_id":"4","last_reported":1747275969,"current_range_meters":23200,"station_id":"ce4bho12rcd13ifvqh2g","pricing_plan_id":"cebpf4jnsgd1na2vs0mg"},{"bike_id":"57e6f947-b8b9-427e-82a9-0d92f39f92d7","system_id":"levelo_inurba_marseille","lat":43.28699,"lon":5.40037,"is_reserved":false,"is_disabled":false,"rental_uris":{"android":"levelo://app?vid=57e6f947-b8b9-427e-82a9-0d92f39f92d7","ios":"levelo://app?vid=57e6f947-b8b9-427e-82a9-0d92f39f92d7"},"vehicle_type_id":"4","last_reported":1747275969,"current_range_meters":23200,"station_id":"ce4bho92rcd13ifvqh3g","pricing_plan_id":"cebpf4jnsgd1na2vs0mg"},{"bike_id":"c761e619-f4d6-47f8-9a9d-65efa2724cfd","system_id":"levelo_inurba_marseille","lat":43.3359,"lon":5.40972,"is_reserved":false,"is_disabled":false,"rental_uris":{"android":"levelo://app?vid=c761e619-f4d6-47f8-9a9d-65efa2724cfd","ios":"levelo://app?vid=c761e619-f4d6-47f8-9a9d-65efa2724cfd"},"vehicle_type_id":"4","last_reported":1747275969,"current_range_meters":23200,"station_id":"","pricing_plan_id":"cebpf4jnsgd1na2vs0mg"},{"bike_id":"53b24757-f212-4626-a601-68068df78586","system_id":"levelo_inurba_marseille","lat":43.307798,"lon":5.376504,"is_reserved":false,"is_disabled":false,"rental_uris":{"android":"levelo://app?vid=53b24757-f212-4626-a601-68068df78586","ios":"levelo://app?vid=53b24757-f212-4626-a601-68068df78586"},"vehicle_type_id":"4","last_reported":1747275969,"current_range_meters":23200,"station_id":"ce4bgv92rcd13ifvqcq0","pricing_plan_id":"cebpf4jnsgd1na2vs0mg"},{"bike_id":"8ab202a6-5612-4e1e-8223-666028376953","system_id":"levelo_inurba_marseille","lat":43.290236,"lon":5.386431,"is_reserved":false,"is_disabled":true,"rental_uris":{"android":"levelo://app?vid=8ab202a6-5612-4e1e-8223-666028376953","ios":"levelo://app?vid=8ab202a6-5612-4e1e-8223-666028376953"},"vehicle_type_id":"4","last_reported":1747275969,"current_range_meters":24000,"station_id":"ce4bh4p2rcd13ifvqe0g","pricing_plan_id":"cebpf4jnsgd1na2vs0mg"},{"bike_id":"b68c6ff7-1f1c-4f7d-9041-9d51ea43e3d5","system_id":"levelo_inurba_marseille","lat":43.324695,"lon":5.365733,"is_reserved":false,"is_disabled":false,"rental_uris":{"android":"levelo://app?vid=b68c6ff7-1f1c-4f7d-9041-9d51ea43e3d5","ios":"levelo://app?vid=b68c6ff7-1f1c-4f7d-9041-9d51ea43e3d5"},"vehicle_type_id":"4","last_reported":1747275969,"current_range_meters":24000,"station_id":"ce4bhs12rcd13ifvqhvg","pricing_plan_id":"cebpf4jnsgd1na2vs0mg"},{"bike_id":"9d65bd0c-bbb6-45a4-8882-b486a9724126","system_id":"levelo_inurba_marseille","lat":43.312734,"lon":5.401721,"is_reserved":false,"is_disabled":false,"rental_uris":{"android":"levelo://app?vid=9d65bd0c-bbb6-45a4-8882-b486a9724126","ios":"levelo://app?vid=9d65bd0c-bbb6-45a4-8882-b486a9724126"},"vehicle_type_id":"4","last_reported":1747275969,"current_range_meters":24000,"station_id":"ce4bh092rcd13ifvqd30","pricing_plan_id":"cebpf4jnsgd1na2vs0mg"},{"bike_id":"f6430995-f01e-49ed-8c40-2e7e119e7f11","system_id":"levelo_inurba_marseille","lat":43.281024,"lon":5.378293,"is_reserved":false,"is_disabled":false,"rental_uris":{"android":"levelo://app?vid=f6430995-f01e-49ed-8c40-2e7e119e7f11","ios":"levelo://app?vid=f6430995-f01e-49ed-8c40-2e7e119e7f11"},"vehicle_type_id":"4","last_reported":1747275969,"current_range_meters":24000,"station_id":"ce4bha12rcd13ifvqee0","pricing_plan_id":"cebpf4jnsgd1na2vs0mg"},{"bike_id":"519ffd34-18e4-4771-b4f8-1f38e8630a95","system_id":"levelo_inurba_marseille","lat":43.31183,"lon":5.38726,"is_reserved":false,"is_disabled":false,"rental_uris":{"android":"levelo://app?vid=519ffd34-18e4-4771-b4f8-1f38e8630a95","ios":"levelo://app?vid=519ffd34-18e4-4771-b4f8-1f38e8630a95"},"vehicle_type_id":"4","last_reported":1747275969,"current_range_meters":24000,"station_id":"ce4bgv12rcd13ifvqcp0","pricing_plan_id":"cebpf4jnsgd1na2vs0mg"},{"bike_id":"2a2bc0d2-cbfe-473d-893f-41f4e99bfab8","system_id":"levelo_inurba_marseille","lat":43.32661,"lon":5.40989,"is_reserved":false,"is_disabled":false,"rental_uris":{"android":"levelo://app?vid=2a2bc0d2-cbfe-473d-893f-41f4e99bfab8","ios":"levelo://app?vid=2a2bc0d2-cbfe-473d-893f-41f4e99bfab8"},"vehicle_type_id":"4","last_reported":1747275969,"current_range_meters":24000,"station_id":"ce4bhpp2rcd13ifvqhgg","pricing_plan_id":"cebpf4jnsgd1na2vs0mg"},{"bike_id":"057f888d-4166-4821-8cda-9840503a806e","system_id":"levelo_inurba_marseille","lat":43.31327,"lon":5.39724,"is_reserved":false,"is_disabled":false,"rental_uris":{"android":"levelo://app?vid=057f888d-4166-4821-8cda-9840503a806e","ios":"levelo://app?vid=057f888d-4166-4821-8cda-9840503a806e"},"vehicle_type_id":"4","last_reported":1747275969,"current_range_meters":24000,"station_id":"ce4bgvp2rcd13ifvqcu0","pricing_plan_id":"cebpf4jnsgd1na2vs0mg"},{"bike_id":"222e640d-4309-4e36-a781-2dad2f594c15","system_id":"levelo_inurba_marseille","lat":43.22485,"lon":5.34787,"is_reserved":false,"is_disabled":false,"rental_uris":{"android":"levelo://app?vid=222e640d-4309-4e36-a781-2dad2f594c15","ios":"levelo://app?vid=222e640d-4309-4e36-a781-2dad2f594c15"},"vehicle_type_id":"4","last_reported":1747275969,"current_range_meters":24400,"station_id":"st_cvj5dfep6f1abm77gieg","pricing_plan_id":"cebpf4jnsgd1na2vs0mg"},{"bike_id":"7a8bd836-fd57-4e14-9505-cf2cd8177088","system_id":"levelo_inurba_marseille","lat":43.3016,"lon":5.36882,"is_reserved":false,"is_disabled":false,"rental_uris":{"android":"levelo://app?vid=7a8bd836-fd57-4e14-9505-cf2cd8177088","ios":"levelo://app?vid=7a8bd836-fd57-4e14-9505-cf2cd8177088"},