{"last_updated":1756473590,"ttl":60,"version":"2.2","data":{"bikes":[{"bike_id":"3786bc3f-a1ef-4971-82b5-53ee21f255a9","system_id":"levelo_inurba_marseille","lat":43.337444,"lon":5.374475,"is_reserved":false,"is_disabled":true,"rental_uris":{"android":"levelo://app?vid=3786bc3f-a1ef-4971-82b5-53ee21f255a9","ios":"levelo://app?vid=3786bc3f-a1ef-4971-82b5-53ee21f255a9"},"vehicle_type_id":"4","last_reported":1756473590,"current_range_meters":0,"station_id":"","pricing_plan_id":"cebpf4jnsgd1na2vs0mg"},{"bike_id":"eaf33fba-ed97-48de-8903-7533cbd22295","system_id":"levelo_inurba_marseille","lat":43.337444,"lon":5.374475,"is_reserved":false,"is_disabled":true,"rental_uris":{"android":"levelo://app?vid=eaf33fba-ed97-48de-8903-7533cbd22295","ios":"levelo://app?vid=eaf33fba-ed97-48de-8903-7533cbd22295"},"vehicle_type_id":"4","last_reported":1756473590,"current_range_meters":0,"station_id":"","pricing_plan_id":"cebpf4jnsgd1na2vs0mg"},{"bike_id":"d165ff19-8e79-4669-a0ec-2766941625b3","system_id":"levelo_inurba_marseille","lat":43.337444,"lon":5.374475,"is_reserved":false,"is_disabled":true,"rental_uris":{"android":"levelo://app?vid=d165ff19-8e79-4669-a0ec-2766941625b3","ios":"levelo://app?vid=d165ff19-8e79-4669-a0ec-2766941625b3"},"vehicle_type_id":"4","last_reported":1756473590,"current_range_meters":0,"station_id":"","pricing_plan_id":"cebpf4jnsgd1na2vs0mg"},{"bike_id":"fee6e365-1410-47ff-aac6-460fe19870cf","system_id":"levelo_inurba_marseille","lat":43.33771,"lon":5.37424,"is_reserved":false,"is_disabled":true,"rental_uris":{"android":"levelo://app?vid=fee6e365-1410-47ff-aac6-460fe19870cf","ios":"levelo://app?vid=fee6e365-1410-47ff-aac6-460fe19870cf"},"vehicle_type_id":"4","last_reported":1756473590,"current_range_meters":0,"station_id":"","pricing_plan_id":"cebpf4jnsgd1na2vs0mg"},{"bike_id":"e7907bf2-9f85-4fec-b00b-f77b1a4a873c","system_id":"levelo_inurba_marseille","lat":43.33751,"lon":5.37456,"is_reserved":false,"is_disabled":true,"rental_uris":{"android":"levelo://app?vid=e7907bf2-9f85-4fec-b00b-f77b1a4a873c","ios":"levelo://app?vid=e7907bf2-9f85-4fec-b00b-f77b1a4a873c"},"vehicle_type_id":"4","last_reported":1756473590,"current_range_meters":0,"station_id":"","pricing_plan_id":"cebpf4jnsgd1na2vs0mg"},{"bike_id":"c060c1ec-0d33-42db-9a3d-6fb7fae5ea5e","system_id":"levelo_inurba_marseille","lat":43.33747,"lon":5.37463,"is_reserved":false,"is_disabled":true,"rental_uris":{"android":"levelo://app?vid=c060c1ec-0d33-42db-9a3d-6fb7fae5ea5e","ios":"levelo://app?vid=c060c1ec-0d33-42db-9a3d-6fb7fae5ea5e"},"vehicle_type_id":"1","last_reported":1756473590,"current_range_meters":0,"station_id":"","pricing_plan_id":"cebpf4jnsgd1na2vs0mg"},{"bike_id":"e6546109-cd3c-4cd0-ac12-e78c09da4ae6","system_id":"levelo_inurba_marseille","lat":43.33737,"lon":5.37465,"is_reserved":false,"is_disabled":true,"rental_uris":{"android":"levelo://app?vid=e6546109-cd3c-4cd0-ac12-e78c09da4ae6","ios":"levelo://app?vid=e6546109-cd3c-4cd0-ac12-e78c09da4ae6"},"vehicle_type_id":"4","last_reported":1756473590,"current_range_meters":0,"station_id":"","pricing_plan_id":"cebpf4jnsgd1na2vs0mg"},{"bike_id":"8facfda0-e588-46c6-8323-70578ba699b1","system_id":"levelo_inurba_marseille","lat":43.30501,"lon":5.37043,"is_reserved":false,"is_disabled":true,"rental_uris":{"android":"levelo://app?vid=8facfda0-e588-46c6-8323-70578ba699b1","ios":"levelo://app?vid=8facfda0-e588-46c6-8323-70578ba699b1"},"vehicle_type_id":"4","last_reported":1756473590,"current_range_meters":0,"station_id":"","pricing_plan_id":"cebpf4jnsgd1na2vs0mg"},{"bike_id":"b3fa04f4-753f-44ec-9319-e8b6b49d76a7","system_id":"levelo_inurba_marseille","lat":43.28837,"lon":5.38521,"is_reserved":false,"is_disabled":true,"rental_uris":{"android":"levelo://app?vid=b3fa04f4-753f-44ec-9319-e8b6b49d76a7","ios":"levelo://app?vid=b3fa04f4-753f-44ec-9319-e8b6b49d76a7"},"vehicle_type_id":"4","last_reported":1756473590,"current_range_meters":0,"station_id":"","pricing_plan_id":"cebpf4jnsgd1na2vs0mg"},{"bike_id":"0d006835-dfc4-460a-8c56-acc02ce01133","system_id":"levelo_inurba_marseille","lat":43.281085,"lon":5.398238,"is_reserved":false,"is_disabled":true,"rental_uris":{"android":"levelo://app?vid=0d006835-dfc4-460a-8c56-acc02ce01133","ios":"levelo://app?vid=0d006835-dfc4-460a-8c56-acc02ce01133"},"vehicle_type_id":"4","last_reported":1756473590,"current_range_meters":0,"station_id":"","pricing_plan_id":"cebpf4jnsgd1na2vs0mg"},{"bike_id":"5d315e57-bb67-481f-b455-26ecfe9889ad","system_id":"levelo_inurba_marseille","lat":43.28069,"lon":5.34773,"is_reserved":false,"is_disabled":true,"rental_uris":{"android":"levelo://app?vid=5d315e57-bb67-481f-b455-26ecfe9889ad","ios":"levelo://app?vid=5d315e57-bb67-481f-b455-26ecfe9889ad"},"vehicle_type_id":"4","last_reported":1756473590,"current_range_meters":0,"station_id":"","pricing_plan_id":"cebpf4jnsgd1na2vs0mg"},{"bike_id":"b937509b-3a5c-4ea0-838b-1bffb8d95da4","system_id":"levelo_inurba_marseille","lat":43.34656,"lon":5.34583,"is_reserved":false,"is_disabled":true,"rental_uris":{"android":"levelo://app?vid=b937509b-3a5c-4ea0-838b-1bffb8d95da4","ios":"levelo://app?vid=b937509b-3a5c-4ea0-838b-1bffb8d95da4"},"vehicle_type_id":"4","last_reported":1756473590,"current_range_meters":0,"station_id":"","pricing_plan_id":"cebpf4jnsgd1na2vs0mg"},{"bike_id":"ad342a57-16de-4802-917b-2c54902b8e93","system_id":"levelo_inurba_marseille","lat":43.33768,"lon":5.374498,"is_reserved":false,"is_disabled":true,"rental_uris":{"android":"levelo://app?vid=ad342a57-16de-4802-917b-2c54902b8e93","ios":"levelo://app?vid=ad342a57-16de-4802-917b-2c54902b8e93"},"vehicle_type_id":"4","last_reported":1756473590,"current_range_meters":0,"station_id":"","pricing_plan_id":"cebpf4jnsgd1na2vs0mg"},{"bike_id":"3091e42a-5528-4881-bef2-02a10038c1e8","system_id":"levelo_inurba_marseille","lat":43.30136,"lon":5.36729,"is_reserved":false,"is_disabled":true,"rental_uris":{"android":"levelo://app?vid=3091e42a-5528-4881-bef2-02a10038c1e8","ios":"levelo://app?vid=3091e42a-5528-4881-bef2-02a10038c1e8"},"vehicle_type_id":"4","last_reported":1756473590,"current_range_meters":0,"station_id":"","pricing_plan_id":"cebpf4jnsgd1na2vs0mg"},{"bike_id":"16fc6144-dc8d-45c2-a753-48559cdc6072","system_id":"levelo_inurba_marseille","lat":43.29263,"lon":5.37628,"is_reserved":false,"is_disabled":true,"rental_uris":{"android":"levelo://app?vid=16fc6144-dc8d-45c2-a753-48559cdc6072","ios":"levelo://app?vid=16fc6144-dc8d-45c2-a753-48559cdc6072"},"vehicle_type_id":"4","last_reported":1756473590,"current_range_meters":0,"station_id":"ce4bgi12rcd13ifvqb80","pricing_plan_id":"cebpf4jnsgd1na2vs0mg"},{"bike_id":"ce4d1951-77de-4223-bddc-08947fafc799","system_id":"levelo_inurba_marseille","lat":43.29814,"lon":5.38106,"is_reserved":false,"is_disabled":true,"rental_uris":{"android":"levelo://app?vid=ce4d1951-77de-4223-bddc-08947fafc799","ios":"levelo://app?vid=ce4d1951-77de-4223-bddc-08947fafc799"},"vehicle_type_id":"4","last_reported":1756473590,"current_range_meters":0,"station_id":"ce4bgip2rcd13ifvqbb0","pricing_plan_id":"cebpf4jnsgd1na2vs0mg"},{"bike_id":"3462982a-0658-423c-aaae-0b0d66051d0e","system_id":"levelo_inurba_marseille","lat":43.305542,"lon":5.365513,"is_reserved":false,"is_disabled":true,"rental_uris":{"android":"levelo://app?vid=3462982a-0658-423c-aaae-0b0d66051d0e","ios":"levelo://app?vid=3462982a-0658-423c-aaae-0b0d66051d0e"},"vehicle_type_id":"4","last_reported":1756473590,"current_range_meters":0,"station_id":"ce4bgs12rcd13ifvqcag","pricing_plan_id":"cebpf4jnsgd1na2vs0mg"},{"bike_id":"5051fd60-4b59-4101-a181-be364a0b2e49","system_id":"levelo_inurba_marseille","lat":43.30537,"lon":5.36532,"is_reserved":false,"is_disabled":true,"rental_uris":{"android":"levelo://app?vid=5051fd60-4b59-4101-a181-be364a0b2e49","ios":"levelo://app?vid=5051fd60-4b59-4101-a181-be364a0b2e49"},"vehicle_type_id":"4","last_reported":1756473590,"current_range_meters":0,"station_id":"ce4bgs12rcd13ifvqcag","pricing_plan_id":"cebpf4jnsgd1na2vs0mg"},{"bike_id":"320b2940-4b73-4042-98db-d6728462cd1b","system_id":"levelo_inurba_marseille","lat":43.30247,"lon":5.40047,"is_reserved":false,"is_disabled":true,"rental_uris":{"android":"levelo://app?vid=320b2940-4b73-4042-98db-d6728462cd1b","ios":"levelo://app?vid=320b2940-4b73-4042-98db-d6728462cd1b"},"vehicle_type_id":"4","last_reported":1756473590,"current_range_meters":0,"station_id":"ce4bgvh2rcd13ifvqcs0","pricing_plan_id":"cebpf4jnsgd1na2vs0mg"},{"bike_id":"6f200043-072c-44a4-b83d-0234a96db385","system_id":"levelo_inurba_marseille","lat":43.30135,"lon":5.39859,"is_reserved":false,"is_disabled":true,"rental_uris":{"android":"levelo://app?vid=6f200043-072c-44a4-b83d-0234a96db385","ios":"levelo://app?vid=6f200043-072c-44a4-b83d-0234a96db385"},"vehicle_type_id":"4","last_reported":1756473590,"current_range_meters":0,"station_id":"ce4bh0h2rcd13ifvqd40","pricing_plan_id":"cebpf4jnsgd1na2vs0mg"},{"bike_id":"bc233ee9-d592-4c63-8f38-0bbd4a04de3a","system_id":"levelo_inurba_marseille","lat":43.29869,"lon":5.39728,"is_reserved":false,"is_disabled":true,"rental_uris":{"android":"levelo://app?vid=bc233ee9-d592-4c63-8f38-0bbd4a04de3a","ios":"levelo://app?vid=bc233ee9-d592-4c63-8f38-0bbd4a04de3a"},"vehicle_type_id":"4","last_reported":1756473590,"current_range_meters":0,"station_id":"ce4bh0h2rcd13ifvqd50","pricing_plan_id":"cebpf4jnsgd1na2vs0mg"},{"bike_id":"33d8c5e0-2176-4c61-bafe-e5a1abc5814b","system_id":"levelo_inurba_marseille","lat":43.28937,"lon":5.38383,"is_reserved":false,"is_disabled":true,"rental_uris":{"android":"levelo://app?vid=33d8c5e0-2176-4c61-bafe-e5a1abc5814b","ios":"levelo://app?vid=33d8c5e0-2176-4c61-bafe-e5a1abc5814b"},"vehicle_type_id":"4","last_reported":1756473590,"current_range_meters":0,"station_id":"ce4bh612rcd13ifvqe6g","pricing_plan_id":"cebpf4jnsgd1na2vs0mg"},{"bike_id":"d6fe646c-5582-49fb-94c4-525efdc0afd8","system_id":"levelo_inurba_marseille","lat":43.26568,"lon":5.39004,"is_reserved":false,"is_disabled":true,"rental_uris":{"android":"levelo://app?vid=d6fe646c-5582-49fb-94c4-525efdc0afd8","ios":"levelo://app?vid=d6fe646c-5582-49fb-94c4-525efdc0afd8"},"vehicle_type_id":"4","last_reported":1756473590,"current_range_meters":0,"station_id":"ce4bhe12rcd13ifvqf30","pricing_plan_id":"cebpf4jnsgd1na2vs0mg"},{"bike_id":"2eaf865e-4826-4818-a4a9-1aaf10a6e8ae","system_id":"levelo_inurba_marseille","lat":43.262,"lon":5.3745,"is_reserved":false,"is_disabled":true,"rental_uris":{"android":"levelo://app?vid=2eaf865e-4826-4818-a4a9-1aaf10a6e8ae","ios":"levelo://app?vid=2eaf865e-4826-4818-a4a9-1aaf10a6e8ae"},"vehicle_type_id":"4","last_reported":1756473590,"current_range_meters":0,"station_id":"ce4bhgp2rcd13ifvqfc0","pricing_plan_id":"cebpf4jnsgd1na2vs0mg"},{"bike_id":"ca96c28e-39cb-4ec5-8f2c-d5b40180904c","system_id":"levelo_inurba_marseille","lat":43.26195,"lon":5.37434,"is_reserved":false,"is_disabled":true,"rental_uris":{"android":"levelo://app?vid=ca96c28e-39cb-4ec5-8f2c-d5b40180904c","ios":"levelo://app?vid=ca96c28e-39cb-4ec5-8f2c-d5b40180904c"},"vehicle_type_id":"4","last_reported":1756473590,"current_range_meters":0,"station_id":"ce4bhgp2rcd13ifvqfc0","pricing_plan_id":"cebpf4jnsgd1na2vs0mg"},{"bike_id":"e802edf9-2b33-4dc8-afb5-86185e579ac4","system_id":"levelo_inurba_marseille","lat":43.24391,"lon":5.37062,"is_reserved":false,"is_disabled":true,"rental_uris":{"android":"levelo://app?vid=e802edf9-2b33-4dc8-afb5-86185e579ac4","ios":"levelo://app?vid=e802edf9-2b33-4dc8-afb5-86185e579ac4"},"vehicle_type_id":"4","last_reported":1756473590,"current_range_meters":0,"station_id":"ce4bhhh2rcd13ifvqfk0","pricing_plan_id":"cebpf4jnsgd1na2vs0mg"},{"bike_id":"366f4cd6-4519-4993-ba83-8465c416debd","system_id":"levelo_inurba_marseille","lat":43.2722,"lon":5.39188,"is_reserved":false,"is_disabled":true,"rental_uris":{"android":"levelo://app?vid=366f4cd6-4519-4993-ba83-8465c416debd","ios":"levelo://app?vid=366f4cd6-4519-4993-ba83-8465c416debd"},"vehicle_type_id":"4","last_reported":1756473590,"current_range_meters":0,"station_id":"ce4bhhp2rcd13ifvqfm0","pricing_plan_id":"cebpf4jnsgd1na2vs0mg"},{"bike_id":"3693a2b5-474e-4296-a339-9a78970d3fdf","system_id":"levelo_inurba_marseille","lat":43.32104,"lon":5.36767,"is_reserved":false,"is_disabled":true,"rental_uris":{"android":"levelo://app?vid=3693a2b5-474e-4296-a339-9a78970d3fdf","ios":"levelo://app?vid=3693a2b5-474e-4296-a339-9a78970d3fdf"},"vehicle_type_id":"4","last_reported":1756473590,"current_range_meters":0,"station_id":"ce4bhrh2rcd13ifvqhug","pricing_plan_id":"cebpf4jnsgd1na2vs0mg"},{"bike_id":"1b4152e4-08ce-47ca-a058-25cba902569b","system_id":"levelo_inurba_marseille","lat":43.32367,"lon":5.36754,"is_reserved":false,"is_disabled":true,"rental_uris":{"android":"levelo://app?vid=1b4152e4-08ce-47ca-a058-25cba902569b","ios":"levelo://app?vid=1b4152e4-08ce-47ca-a058-25cba902569b"},"vehicle_type_id":"4","last_reported":1756473590,"current_range_meters":0,"station_id":"ce4bhsh2rcd13ifvqi2g","pricing_plan_id":"cebpf4jnsgd1na2vs0mg"},{"bike_id":"acd981fb-0aec-47b4-b880-9d6c2d7543e8","system_id":"levelo_inurba_marseille","lat":43.23191,"lon":5.35562,"is_reserved":false,"is_disabled":true,"rental_uris":{"android":"levelo://app?vid=acd981fb-0aec-47b4-b880-9d6c2d7543e8","ios":"levelo://app?vid=acd981fb-0aec-47b4-b880-9d6c2d7543e8"},"vehicle_type_id":"4","last_reported":1756473590,"current_range_meters":0,"station_id":"ce4bhu92rcd13ifvqi70","pricing_plan_id":"cebpf4jnsgd1na2vs0mg"},{"bike_id":"d5f078bc-da5d-4df0-9c60-e6057d520a5f","system_id":"levelo_inurba_marseille","lat":43.24163,"lon":5.36397,"is_reserved":false,"is_disabled":true,"rental_uris":{"android":"levelo://app?vid=d5f078bc-da5d-4df0-9c60-e6057d520a5f","ios":"levelo://app?vid=d5f078bc-da5d-4df0-9c60-e6057d520a5f"},"vehicle_type_id":"4","last_reported":1756473590,"current_range_meters":0,"station_id":"cpo36qri1sfpv3e86is0","pricing_plan_id":"cebpf4jnsgd1na2vs0mg"},{"bike_id":"5e1757b7-4e40-4455-871c-eb73cb122557","system_id":"levelo_inurba_marseille","lat":43.21743,"lon":5.34604,"is_reserved":false,"is_disabled":true,"rental_uris":{"android":"levelo://app?vid=5e1757b7-4e40-4455-871c-eb73cb122557","ios":"levelo://app?vid=5e1757b7-4e40-4455-871c-eb73cb122557"},"vehicle_type_id":"4","last_reported":1756473590,"current_range_meters":0,"station_id":"st_cvj6r9ubvosntc0bgbag","pricing_plan_id":"cebpf4jnsgd1na2vs0mg"},{"bike_id":"a365a855-24e7-4150-98ec-91e51585779b","system_id":"levelo_inurba_marseille","lat":43.2119,"lon":5.35054,"is_reserved":false,"is_disabled":true,"rental_uris":{"android":"levelo://app?vid=a365a855-24e7-4150-98ec-91e51585779b","ios":"levelo://app?vid=a365a855-24e7-4150-98ec-91e51585779b"},"vehicle_type_id":"4","last_reported":1756473590,"current_range_meters":0,"station_id":"st_cvj6sg6p6f1abm77japg","pricing_plan_id":"cebpf4jnsgd1na2vs0mg"},{"bike_id":"73d7d1ea-678e-41ab-8f25-55f5f05edf4a","system_id":"levelo_inurba_marseille","lat":43.24166,"lon":5.3639,"is_reserved":false,"is_disabled":true,"rental_uris":{"android":"levelo://app?vid=73d7d1ea-678e-41ab-8f25-55f5f05edf4a","ios":"levelo://app?vid=73d7d1ea-678e-41ab-8f25-55f5f05edf4a"},"vehicle_type_id":"4","last_reported":1756473590,"current_range_meters":400,"station_id":"cpo36qri1sfpv3e86is0","pricing_plan_id":"cebpf4jnsgd1na2vs0mg"},{"bike_id":"43b73012-a51e-49e0-ae60-12fe39bc61a7","system_id":"levelo_inurba_marseille","lat":43.217574,"lon":5.346027,"is_reserved":false,"is_disabled":true,"rental_uris":{"android":"levelo://app?vid=43b73012-a51e-49e0-ae60-12fe39bc61a7","ios":"levelo://app?vid=43b73012-a51e-49e0-ae60-12fe39bc61a7"},"vehicle_type_id":"4","last_reported":1756473590,"current_range_meters":800,"station_id":"","pricing_plan_id":"cebpf4jnsgd1na2vs0mg"},{"bike_id":"a9c6e252-7772-41de-84d2-97c5f3430c52","system_id":"levelo_inurba_marseille","lat":43.2956,"lon":5.37517,"is_reserved":false,"is_disabled":true,"rental_uris":{"android":"levelo://app?vid=a9c6e252-7772-41de-84d2-97c5f3430c52","ios":"levelo://app?vid=a9c6e252-7772-41de-84d2-97c5f3430c52"},"vehicle_type_id":"4","last_reported":1756473590,"current_range_meters":800,"station_id":"ce4bgh92rcd13ifvqb50","pricing_plan_id":"cebpf4jnsgd1na2vs0mg"},{"bike_id":"8f47ef1a-0b98-455c-a110-a4a18fa43ea0","system_id":"levelo_inurba_marseille","lat":43.29911,"lon":5.37467,"is_reserved":false,"is_disabled":true,"rental_uris":{"android":"levelo://app?vid=8f47ef1a-0b98-455c-a110-a4a18fa43ea0","ios":"levelo://app?vid=8f47ef1a-0b98-455c-a110-a4a18fa43ea0"},"vehicle_type_id":"4","last_reported":1756473590,"current_range_meters":800,"station_id":"ce4bgjh2rcd13ifvqbg0","pricing_plan_id":"cebpf4jnsgd1na2vs0mg"},{"bike_id":"7afb962b-ccf7-4fa9-bd63-13c6dd7b44f7","system_id":"levelo_inurba_marseille","lat":43.298081,"lon":5.381038,"is_reserved":false,"is_disabled":true,"rental_uris":{"android":"levelo://app?vid=7afb962b-ccf7-4fa9-bd63-13c6dd7b44f7","ios":"levelo://app?vid=7afb962b-ccf7-4fa9-bd63-13c6dd7b44f7"},"vehicle_type_id":"4","last_reported":1756473590,"current_range_meters":1200,"station_id":"ce4bgip2rcd13ifvqbb0","pricing_plan_id":"cebpf4jnsgd1na2vs0mg"},{"bike_id":"3126cd7e-0d59-44c1-92de-8b313c90005c","system_id":"levelo_inurba_marseille","lat":43.30956,"lon":5.3905,"is_reserved":false,"is_disabled":true,"rental_uris":{"android":"levelo://app?vid=3126cd7e-0d59-44c1-92de-8b313c90005c","ios":"levelo://app?vid=3126cd7e-0d59-44c1-92de-8b313c90005c"},"vehicle_type_id":"4","last_reported":1756473590,"current_range_meters":1200,"station_id":"ce4bgup2rcd13ifvqco0","pricing_plan_id":"cebpf4jnsgd1na2vs0mg"},{"bike_id":"48e014ad-1ffd-40b1-9b13-8fb597369302","system_id":"levelo_inurba_marseille","lat":43.24668,"lon":5.38154,"is_reserved":false,"is_disabled":true,"rental_uris":{"android":"levelo://app?vid=48e014ad-1ffd-40b1-9b13-8fb597369302","ios":"levelo://app?vid=48e014ad-1ffd-40b1-9b13-8fb597369302"},"vehicle_type_id":"4","last_reported":1756473590,"current_range_meters":1200,"station_id":"ce4bhih2rcd13ifvqfr0","pricing_plan_id":"cebpf4jnsgd1na2vs0mg"},{"bike_id":"a0694e39-95ef-4780-a7d3-06a17d4b8162","system_id":"levelo_inurba_marseille","lat":43.21699,"lon":5.34633,"is_reserved":false,"is_disabled":true,"rental_uris":{"android":"levelo://app?vid=a0694e39-95ef-4780-a7d3-06a17d4b8162","ios":"levelo://app?vid=a0694e39-95ef-4780-a7d3-06a17d4b8162"},"vehicle_type_id":"4","last_reported":1756473590,"current_range_meters":1200,"station_id":"st_cvj6r9ubvosntc0bgbag","pricing_plan_id":"cebpf4jnsgd1na2vs0mg"},{"bike_id":"1891d096-b43c-4559-86ee-72137cbd8ef6","system_id":"levelo_inurba_marseille","lat":43.31328,"lon":5.39695,"is_reserved":false,"is_disabled":true,"rental_uris":{"android":"levelo://app?vid=1891d096-b43c-4559-86ee-72137cbd8ef6","ios":"levelo://app?vid=1891d096-b43c-4559-86ee-72137cbd8ef6"},"vehicle_type_id":"4","last_reported":1756473590,"current_range_meters":1600,"station_id":"ce4bgvp2rcd13ifvqcu0","pricing_plan_id":"cebpf4jnsgd1na2vs0mg"},{"bike_id":"3222b977-3c97-4531-bc87-c914b62b755e","system_id":"levelo_inurba_marseille","lat":43.22535,"lon":5.348315,"is_reserved":false,"is_disabled":true,"rental_uris":{"android":"levelo://app?vid=3222b977-3c97-4531-bc87-c914b62b755e","ios":"levelo://app?vid=3222b977-3c97-4531-bc87-c914b62b755e"},"vehicle_type_id":"4","last_reported":1756473590,"current_range_meters":2000,"station_id":"","pricing_plan_id":"cebpf4jnsgd1na2vs0mg"},{"bike_id":"c76ac42f-b0e2-41c3-b248-06a8ff114f52","system_id":"levelo_inurba_marseille","lat":43.27068,"lon":5.40261,"is_reserved":false,"is_disabled":true,"rental_uris":{"android":"levelo://app?vid=c76ac42f-b0e2-41c3-b248-06a8ff114f52","ios":"levelo://app?vid=c76ac42f-b0e2-41c3-b248-06a8ff114f52"},"vehicle_type_id":"4","last_reported":1756473590,"current_range_meters":2000,"station_id":"ce4bhk92rcd13ifvqgc0","pricing_plan_id":"cebpf4jnsgd1na2vs0mg"},{"bike_id":"5bce688b-fc81-4596-8277-b66f54be87c1","system_id":"levelo_inurba_marseille","lat":43.337652,"lon":5.37439,"is_reserved":false,"is_disabled":false,"rental_uris":{"android":"levelo://app?vid=5bce688b-fc81-4596-8277-b66f54be87c1","ios":"levelo://app?vid=5bce688b-fc81-4596-8277-b66f54be87c1"},"vehicle_type_id":"4","last_reported":1756473590,"current_range_meters":2800,"station_id":"","pricing_plan_id":"cebpf4jnsgd1na2vs0mg"},{"bike_id":"3f5d79e5-bc7f-449a-ad4c-112868fd1fd4","system_id":"levelo_inurba_marseille","lat":43.29968,"lon":5.37159,"is_reserved":false,"is_disabled":false,"rental_uris":{"android":"levelo://app?vid=3f5d79e5-bc7f-449a-ad4c-112868fd1fd4","ios":"levelo://app?vid=3f5d79e5-bc7f-449a-ad4c-112868fd1fd4"},"vehicle_type_id":"4","last_reported":1756473590,"current_range_meters":2800,"station_id":"ce4bgr92rcd13ifvqc7g","pricing_plan_id":"cebpf4jnsgd1na2vs0mg"},{"bike_id":"62f600ca-6ad4-4b5b-b3f9-44484dc0c529","system_id":"levelo_inurba_marseille","lat":43.24808,"lon":5.37457,"is_reserved":false,"is_disabled":false,"rental_uris":{"android":"levelo://app?vid=62f600ca-6ad4-4b5b-b3f9-44484dc0c529","ios":"levelo://app?vid=62f600ca-6ad4-4b5b-b3f9-44484dc0c529"},"vehicle_type_id":"4","last_reported":1756473590,"current_range_meters":2800,"station_id":"ce4bhgh2rcd13ifvqfb0","pricing_plan_id":"cebpf4jnsgd1na2vs0mg"},{"bike_id":"b699698d-ade6-436e-9fb8-e04d0cce7ab4","system_id":"levelo_inurba_marseille","lat":43.27675,"lon":5.38868,"is_reserved":false,"is_disabled":false,"rental_uris":{"android":"levelo://app?vid=b699698d-ade6-436e-9fb8-e04d0cce7ab4","ios":"levelo://app?vid=b699698d-ade6-436e-9fb8-e04d0cce7ab4"},"vehicle_type_id":"4","last_reported":1756473590,"current_range_meters":2800,"station_id":"ce4bhi12rcd13ifvqfo0","pricing_plan_id":"cebpf4jnsgd1na2vs0mg"},{"bike_id":"d84fbb73-29b3-4e8d-b65a-027064ccb595","system_id":"levelo_inurba_marseille","lat":43.22566,"lon":5.4164,"is_reserved":false,"is_disabled":false,"rental_uris":{"android":"levelo://app?vid=d84fbb73-29b3-4e8d-b65a-027064ccb595","ios":"levelo://app?vid=d84fbb73-29b3-4e8d-b65a-027064ccb595"},"vehicle_type_id":"4","last_reported":1756473590,"current_range_meters":2800,"station_id":"st_d2o4gvlbi1j2169b742g","pricing_plan_id":"cebpf4jnsgd1na2vs0mg"},{"bike_id":"2b94fd23-4ca0-416e-a3c1-da3478a55159","system_id":"levelo_inurba_marseille","lat":43.26212,"lon":5.37445,"is_reserved":false,"is_disabled":false,"rental_uris":{"android":"levelo://app?vid=2b94fd23-4ca0-416e-a3c1-da3478a55159","ios":"levelo://app?vid=2b94fd23-4ca0-416e-a3c1-da3478a55159"},"vehicle_type_id":"4","last_reported":1756473590,"current_range_meters":3200,"station_id":"ce4bhgp2rcd13ifvqfc0","pricing_plan_id":"cebpf4jnsgd1na2vs0mg"},{"bike_id":"589304c3-05df-4f44-9d04-6f61c98a7874","system_id":"levelo_inurba_marseille","lat":43.32352,"lon":5.36762,"is_reserved":false,"is_disabled":false,"rental_uris":{"android":"levelo://app?vid=589304c3-05df-4f44-9d04-6f61c98a7874","ios":"levelo://app?vid=589304c3-05df-4f44-9d04-6f61c98a7874"},"vehicle_type_id":"4","last_reported":1756473590,"current_range_meters":3200,"station_id":"ce4bhsh2rcd13ifvqi2g","pricing_plan_id":"cebpf4jnsgd1na2vs0mg"},{"bike_id":"a6ef8657-5b8a-423b-993f-c3df43dec0a0","system_id":"levelo_inurba_marseille","lat":43.337595,"lon":5.374806,"is_reserved":false,"is_disabled":false,"rental_uris":{"android":"levelo://app?vid=a6ef8657-5b8a-423b-993f-c3df43dec0a0","ios":"levelo://app?vid=a6ef8657-5b8a-423b-993f-c3df43dec0a0"},"vehicle_type_id":"4","last_reported":1756473590,"current_range_meters":3600,"station_id":"","pricing_plan_id":"cebpf4jnsgd1na2vs0mg"},{"bike_id":"9781e730-47a4-4431-849c-62c002efad0f","system_id":"levelo_inurba_marseille","lat":43.31707,"lon":5.37745,"is_reserved":false,"is_disabled":false,"rental_uris":{"android":"levelo://app?vid=9781e730-47a4-4431-849c-62c002efad0f","ios":"levelo://app?vid=9781e730-47a4-4431-849c-62c002efad0f"},"vehicle_type_id":"4","last_reported":1756473590,"current_range_meters":3600,"station_id":"ce4bgth2rcd13ifvqch0","pricing_plan_id":"cebpf4jnsgd1na2vs0mg"},{"bike_id":"948a16c1-ec4d-4153-a479-db56263bfba3","system_id":"levelo_inurba_marseille","lat":43.31683,"lon":5.40472,"is_reserved":false,"is_disabled":false,"rental_uris":{"android":"levelo://app?vid=948a16c1-ec4d-4153-a479-db56263bfba3","ios":"levelo://app?vid=948a16c1-ec4d-4153-a479-db56263bfba3"},"vehicle_type_id":"4","last_reported":1756473590,"current_range_meters":3600,"station_id":"ce4bh012rcd13ifvqd00","pricing_plan_id":"cebpf4jnsgd1na2vs0mg"},{"bike_id":"96e8c7fa-bc45-4dd0-b54b-5266f43cacf7","system_id":"levelo_inurba_marseille","lat":43.32337,"lon":5.40621,"is_reserved":false,"is_disabled":false,"rental_uris":{"android":"levelo://app?vid=96e8c7fa-bc45-4dd0-b54b-5266f43cacf7","ios":"levelo://app?vid=96e8c7fa-bc45-4dd0-b54b-5266f43cacf7"},"vehicle_type_id":"4","last_reported":1756473590,"current_range_meters":3600,"station_id":"ce4bhq92rcd13ifvqhjg","pricing_plan_id":"cebpf4jnsgd1na2vs0mg"},{"bike_id":"4b94a5b5-7a70-45a5-8d68-4bacb8ed2db4","system_id":"levelo_inurba_marseille","lat":43.295197,"lon":5.385117,"is_reserved":false,"is_disabled":false,"rental_uris":{"android":"levelo://app?vid=4b94a5b5-7a70-45a5-8d68-4bacb8ed2db4","ios":"levelo://app?vid=4b94a5b5-7a70-45a5-8d68-4bacb8ed2db4"},"vehicle_type_id":"4","last_reported":1756473590,"current_range_meters":4000,"station_id":"ce4bgs12rcd13ifvqcag","pricing_plan_id":"cebpf4jnsgd1na2vs0mg"},{"bike_id":"33ec743a-61e6-41ce-bc1c-9a184ec93800","system_id":"levelo_inurba_marseille","lat":43.28495,"lon":5.38579,"is_reserved":false,"is_disabled":false,"rental_uris":{"android":"levelo://app?vid=33ec743a-61e6-41ce-bc1c-9a184ec93800","ios":"levelo://app?vid=33ec743a-61e6-41ce-bc1c-9a184ec93800"},"vehicle_type_id":"4","last_reported":1756473590,"current_range_meters":4400,"station_id":"ce4bh8p2rcd13ifvqeb0","pricing_plan_id":"cebpf4jnsgd1na2vs0mg"},{"bike_id":"528cc8f4-e2a5-4d30-8aab-b360f663a2c6","system_id":"levelo_inurba_marseille","lat":43.28459,"lon":5.35888,"is_reserved":false,"is_disabled":false,"rental_uris":{"android":"levelo://app?vid=528cc8f4-e2a5-4d30-8aab-b360f663a2c6","ios":"levelo://app?vid=528cc8f4-e2a5-4d30-8aab-b360f663a2c6"},"vehicle_type_id":"4","last_reported":1756473590,"current_range_meters":4800,"station_id":"ce4bhah2rcd13ifvqei0","pricing_plan_id":"cebpf4jnsgd1na2vs0mg"},{"bike_id":"6d56e196-afc3-4060-afb1-01d651b7d7ed","system_id":"levelo_inurba_marseille","lat":43.22559,"lon":5.41633,"is_reserved":false,"is_disabled":false,"rental_uris":{"android":"levelo://app?vid=6d56e196-afc3-4060-afb1-01d651b7d7ed","ios":"levelo://app?vid=6d56e196-afc3-4060-afb1-01d651b7d7ed"},"vehicle_type_id":"4","last_reported":1756473590,"current_range_meters":4800,"station_id":"st_d2o4gvlbi1j2169b742g","pricing_plan_id":"cebpf4jnsgd1na2vs0mg"},{"bike_id":"8d63e721-0f51-48a6-b8e5-becf561e6c27","system_id":"levelo_inurba_marseille","lat":43.29623,"lon":5.37147,"is_reserved":false,"is_disabled":false,"rental_uris":{"android":"levelo://app?vid=8d63e721-0f51-48a6-b8e5-becf561e6c27","ios":"levelo://app?vid=8d63e721-0f51-48a6-b8e5-becf561e6c27"},"vehicle_type_id":"4","last_reported":1756473590,"current_range_meters":5600,"station_id":"ce4bgnh2rcd13ifvqc0g","pricing_plan_id":"cebpf4jnsgd1na2vs0mg"},{"bike_id":"97a738e4-4d48-4e21-8f37-4a3ce099f7bf","system_id":"levelo_inurba_marseille","lat":43.29194,"lon":5.35806,"is_reserved":false,"is_disabled":false,"rental_uris":{"android":"levelo://app?vid=97a738e4-4d48-4e21-8f37-4a3ce099f7bf","ios":"levelo://app?vid=97a738e4-4d48-4e21-8f37-4a3ce099f7bf"},"vehicle_type_id":"4","last_reported":1756473590,"current_range_meters":5600,"station_id":"ce4bhb12rcd13ifvqel0","pricing_plan_id":"cebpf4jnsgd1na2vs0mg"},{"bike_id":"3265d755-480e-4f9d-a558-e563258150b6","system_id":"levelo_inurba_marseille","lat":43.24169,"lon":5.36393,"is_reserved":false,"is_disabled":false,"rental_uris":{"android":"levelo://app?vid=3265d755-480e-4f9d-a558-e563258150b6","ios":"levelo://app?vid=3265d755-480e-4f9d-a558-e563258150b6"},"vehicle_type_id":"4","last_reported":1756473590,"current_range_meters":5600,"station_id":"cpo36qri1sfpv3e86is0","pricing_plan_id":"cebpf4jnsgd1na2vs0mg"},{"bike_id":"fe0d808d-068f-4492-8f88-1fb9ee65a46e","system_id":"levelo_inurba_marseille","lat":43.22577,"lon":5.41624,"is_reserved":false,"is_disabled":false,"rental_uris":{"android":"levelo://app?vid=fe0d808d-068f-4492-8f88-1fb9ee65a46e","ios":"levelo://app?vid=fe0d808d-068f-4492-8f88-1fb9ee65a46e"},"vehicle_type_id":"4","last_reported":1756473590,"current_range_meters":5600,"station_id":"st_d2o4gvlbi1j2169b742g","pricing_plan_id":"cebpf4jnsgd1na2vs0mg"},{"bike_id":"5c723a17-945a-4ba0-a30f-566af902de46","system_id":"levelo_inurba_marseille","lat":43.31731,"lon":5.43786,"is_reserved":false,"is_disabled":false,"rental_uris":{"android":"levelo://app?vid=5c723a17-945a-4ba0-a30f-566af902de46","ios":"levelo://app?vid=5c723a17-945a-4ba0-a30f-566af902de46"},"vehicle_type_id":"4","last_reported":1756473590,"current_range_meters":6000,"station_id":"","pricing_plan_id":"cebpf4jnsgd1na2vs0mg"},{"bike_id":"3c87c742-05d2-4912-8a1d-491fcaa11d93","system_id":"levelo_inurba_marseille","lat":43.2857,"lon":5.39504,"is_reserved":false,"is_disabled":false,"rental_uris":{"android":"levelo://app?vid=3c87c742-05d2-4912-8a1d-491fcaa11d93","ios":"levelo://app?vid=3c87c742-05d2-4912-8a1d-491fcaa11d93"},"vehicle_type_id":"4","last_reported":1756473590,"current_range_meters":6000,"station_id":"ce4bh292rcd13ifvqdg0","pricing_plan_id":"cebpf4jnsgd1na2vs0mg"},{"bike_id":"b619f020-8865-4eb4-8ff8-839d4c1c0f2e","system_id":"levelo_inurba_marseille","lat":43.2621,"lon":5.37445,"is_reserved":false,"is_disabled":false,"rental_uris":{"android":"levelo://app?vid=b619f020-8865-4eb4-8ff8-839d4c1c0f2e","ios":"levelo://app?vid=b619f020-8865-4eb4-8ff8-839d4c1c0f2e"},"vehicle_type_id":"4","last_reported":1756473590,"current_range_meters":6000,"station_id":"ce4bhgp2rcd13ifvqfc0","pricing_plan_id":"cebpf4jnsgd1na2vs0mg"},{"bike_id":"f8b866a2-f35d-4969-9743-48cea298f9cf","system_id":"levelo_inurba_marseille","lat":43.22564,"lon":5.416269,"is_reserved":false,"is_disabled":false,"rental_uris":{"android":"levelo://app?vid=f8b866a2-f35d-4969-9743-48cea298f9cf","ios":"levelo://app?vid=f8b866a2-f35d-4969-9743-48cea298f9cf"},"vehicle_type_id":"4","last_reported":1756473590,"current_range_meters":6000,"station_id":"ce4bhh92rcd13ifvqfh0","pricing_plan_id":"cebpf4jnsgd1na2vs0mg"},{"bike_id":"f91352fb-534d-49b6-869f-d2b79839ffc7","system_id":"levelo_inurba_marseille","lat":43.24165,"lon":5.36398,"is_reserved":false,"is_disabled":false,"rental_uris":{"android":"levelo://app?vid=f91352fb-534d-49b6-869f-d2b79839ffc7","ios":"levelo://app?vid=f91352fb-534d-49b6-869f-d2b79839ffc7"},"vehicle_type_id":"4","last_reported":1756473590,"current_range_meters":6000,"station_id":"cpo36qri1sfpv3e86is0","pricing_plan_id":"cebpf4jnsgd1na2vs0mg"},{"bike_id":"0f79edf1-deea-4c4c-b512-c2cdfd8646d3","system_id":"levelo_inurba_marseille","lat":43.28851,"lon":5.35854,"is_reserved":false,"is_disabled":false,"rental_uris":{"android":"levelo://app?vid=0f79edf1-deea-4c4c-b512-c2cdfd8646d3","ios":"levelo://app?vid=0f79edf1-deea-4c4c-b512-c2cdfd8646d3"},"vehicle_type_id":"4","last_reported":1756473590,"current_range_meters":6400,"station_id":"ce4bhb12rcd13ifvqem0","pricing_plan_id":"cebpf4jnsgd1na2vs0mg"},{"bike_id":"65079535-28ec-47ce-8c83-0f6561508f11","system_id":"levelo_inurba_marseille","lat":43.28268,"lon":5.35062,"is_reserved":false,"is_disabled":false,"rental_uris":{"android":"levelo://app?vid=65079535-28ec-47ce-8c83-0f6561508f11","ios":"levelo://app?vid=65079535-28ec-47ce-8c83-0f6561508f11"},"vehicle_type_id":"4","last_reported":1756473590,"current_range_meters":6400,"station_id":"ce4bhbp2rcd13ifvqerg","pricing_plan_id":"cebpf4jnsgd1na2vs0mg"},{"bike_id":"b0a48d31-7c0f-4b62-ab98-f623d2fdad8e","system_id":"levelo_inurba_marseille","lat":43.26554,"lon":5.37284,"is_reserved":false,"is_disabled":false,"rental_uris":{"android":"levelo://app?vid=b0a48d31-7c0f-4b62-ab98-f623d2fdad8e","ios":"levelo://app?vid=b0a48d31-7c0f-4b62-ab98-f623d2fdad8e"},"vehicle_type_id":"4","last_reported":1756473590,"current_range_meters":6400,"station_id":"ce4bhg12rcd13ifvqf70","pricing_plan_id":"cebpf4jnsgd1na2vs0mg"},{"bike_id":"ad3b65c6-e50e-4cff-b0fd-9f6f06b1cf26","system_id":"levelo_inurba_marseille","lat":43.26215,"lon":5.3744,"is_reserved":false,"is_disabled":false,"rental_uris":{"android":"levelo://app?vid=ad3b65c6-e50e-4cff-b0fd-9f6f06b1cf26","ios":"levelo://app?vid=ad3b65c6-e50e-4cff-b0fd-9f6f06b1cf26"},"vehicle_type_id":"4","last_reported":1756473590,"current_range_meters":6400,"station_id":"ce4bhgp2rcd13ifvqfc0","pricing_plan_id":"cebpf4jnsgd1na2vs0mg"},{"bike_id":"21d8b327-b63a-4559-a8bc-7697b6894e1a","system_id":"levelo_inurba_marseille","lat":43.28805,"lon":5.35239,"is_reserved":false,"is_disabled":false,"rental_uris":{"android":"levelo://app?vid=21d8b327-b63a-4559-a8bc-7697b6894e1a","ios":"levelo://app?vid=21d8b327-b63a-4559-a8bc-7697b6894e1a"},"vehicle_type_id":"4","last_reported":1756473590,"current_range_meters":6800,"station_id":"","pricing_plan_id":"cebpf4jnsgd1na2vs0mg"},{"bike_id":"9c5527f0-91ec-400c-a9c1-b157edc75689","system_id":"levelo_inurba_marseille","lat":43.31336,"lon":5.39673,"is_reserved":false,"is_disabled":false,"rental_uris":{"android":"levelo://app?vid=9c5527f0-91ec-400c-a9c1-b157edc75689","ios":"levelo://app?vid=9c5527f0-91ec-400c-a9c1-b157edc75689"},"vehicle_type_id":"4","last_reported":1756473590,"current_range_meters":6800,"station_id":"ce4bgvp2rcd13ifvqcu0","pricing_plan_id":"cebpf4jnsgd1na2vs0mg"},{"bike_id":"49a3ba14-896e-4948-b92c-e00f095c99a5","system_id":"levelo_inurba_marseille","lat":43.261728,"lon":5.374299,"is_reserved":false,"is_disabled":false,"rental_uris":{"android":"levelo://app?vid=49a3ba14-896e-4948-b92c-e00f095c99a5","ios":"levelo://app?vid=49a3ba14-896e-4948-b92c-e00f095c99a5"},"vehicle_type_id":"4","last_reported":1756473590,"current_range_meters":6800,"station_id":"ce4bhgp2rcd13ifvqfc0","pricing_plan_id":"cebpf4jnsgd1na2vs0mg"},{"bike_id":"5437dd34-23c5-4a60-ad21-0b94ebc7d5a9","system_id":"levelo_inurba_marseille","lat":43.286133,"lon":5.351082,"is_reserved":false,"is_disabled":false,"rental_uris":{"android":"levelo://app?vid=5437dd34-23c5-4a60-ad21-0b94ebc7d5a9","ios":"levelo://app?vid=5437dd34-23c5-4a60-ad21-0b94ebc7d5a9"},"vehicle_type_id":"4","last_reported":1756473590,"current_range_meters":7200,"station_id":"","pricing_plan_id":"cebpf4jnsgd1na2vs0mg"},{"bike_id":"1f701b6f-5de3-45b9-a093-38186c2a69e1","system_id":"levelo_inurba_marseille","lat":43.27917,"lon":5.39576,"is_reserved":false,"is_disabled":false,"rental_uris":{"android":"levelo://app?vid=1f701b6f-5de3-45b9-a093-38186c2a69e1","ios":"levelo://app?vid=1f701b6f-5de3-45b9-a093-38186c2a69e1"},"vehicle_type_id":"4","last_reported":1756473590,"current_range_meters":7200,"station_id":"ce4bhf92rcd13ifvqf40","pricing_plan_id":"cebpf4jnsgd1na2vs0mg"},{"bike_id":"7b404892-7f51-4e43-9b2b-64a64aeed664","system_id":"levelo_inurba_marseille","lat":43.24801,"lon":5.37453,"is_reserved":false,"is_disabled":false,"rental_uris":{"android":"levelo://app?vid=7b404892-7f51-4e43-9b2b-64a64aeed664","ios":"levelo://app?vid=7b404892-7f51-4e43-9b2b-64a64aeed664"},"vehicle_type_id":"4","last_reported":1756473590,"current_range_meters":7200,"station_id":"ce4bhgh2rcd13ifvqfb0","pricing_plan_id":"cebpf4jnsgd1na2vs0mg"},{"bike_id":"931786a0-5b8c-41b7-b78d-5814813a26b8","system_id":"levelo_inurba_marseille","lat":43.26215,"lon":5.37446,"is_reserved":false,"is_disabled":false,"rental_uris":{"android":"levelo://app?vid=931786a0-5b8c-41b7-b78d-5814813a26b8","ios":"levelo://app?vid=931786a0-5b8c-41b7-b78d-5814813a26b8"},"vehicle_type_id":"4","last_reported":1756473590,"current_range_meters":7200,"station_id":"ce4bhgp2rcd13ifvqfc0","pricing_plan_id":"cebpf4jnsgd1na2vs0mg"},{"bike_id":"261a4a30-86bc-46bb-9e89-35b650e60989","system_id":"levelo_inurba_marseille","lat":43.24143,"lon":5.39753,"is_reserved":false,"is_disabled":false,"rental_uris":{"android":"levelo://app?vid=261a4a30-86bc-46bb-9e89-35b650e60989","ios":"levelo://app?vid=261a4a30-86bc-46bb-9e89-35b650e60989"},"vehicle_type_id":"4","last_reported":1756473590,"current_range_meters":7200,"station_id":"ce4bhn12rcd13ifvqgpg","pricing_plan_id":"cebpf4jnsgd1na2vs0mg"},{"bike_id":"f6f4ebf0-4594-4089-9c2a-2273ba10a074","system_id":"levelo_inurba_marseille","lat":43.21206,"lon":5.35066,"is_reserved":false,"is_disabled":false,"rental_uris":{"android":"levelo://app?vid=f6f4ebf0-4594-4089-9c2a-2273ba10a074","ios":"levelo://app?vid=f6f4ebf0-4594-4089-9c2a-2273ba10a074"},"vehicle_type_id":"4","last_reported":1756473590,"current_range_meters":7200,"station_id":"st_cvj6sg6p6f1abm77japg","pricing_plan_id":"cebpf4jnsgd1na2vs0mg"},{"bike_id":"d810acf0-5bd2-4bf1-848d-31cd30d105e6","system_id":"levelo_inurba_marseille","lat":43.269831,"lon":5.392782,"is_reserved":false,"is_disabled":false,"rental_uris":{"android":"levelo://app?vid=d810acf0-5bd2-4bf1-848d-31cd30d105e6","ios":"levelo://app?vid=d810acf0-5bd2-4bf1-848d-31cd30d105e6"},"vehicle_type_id":"4","last_reported":1756473590,"current_range_meters":8000,"station_id":"","pricing_plan_id":"cebpf4jnsgd1na2vs0mg"},{"bike_id":"0625670e-ec0a-48cf-92ff-d82ee37cd156","system_id":"levelo_inurba_marseille","lat":43.297069,"lon":5.37694,"is_reserved":false,"is_disabled":false,"rental_uris":{"android":"levelo://app?vid=0625670e-ec0a-48cf-92ff-d82ee37cd156","ios":"levelo://app?vid=0625670e-ec0a-48cf-92ff-d82ee37cd156"},"vehicle_type_id":"4","last_reported":1756473590,"current_range_meters":8000,"station_id":"ce4bgkh2rcd13ifvqbl0","pricing_plan_id":"cebpf4jnsgd1na2vs0mg"},{"bike_id":"18a173b2-1339-4c03-8e69-ef069aae4630","system_id":"levelo_inurba_marseille","lat":43.3093,"lon":5.40152,"is_reserved":false,"is_disabled":false,"rental_uris":{"android":"levelo://app?vid=18a173b2-1339-4c03-8e69-ef069aae4630","ios":"levelo://app?vid=18a173b2-1339-4c03-8e69-ef069aae4630"},"vehicle_type_id":"4","last_reported":1756473590,"current_range_meters":8000,"station_id":"ce4bgvp2rcd13ifvqct0","pricing_plan_id":"cebpf4jnsgd1na2vs0mg"},{"bike_id":"518f985d-ba45-4134-8268-2b2b01b3e68d","system_id":"levelo_inurba_marseille","lat":43.21745,"lon":5.34602,"is_reserved":false,"is_disabled":false,"rental_uris":{"android":"levelo://app?vid=518f985d-ba45-4134-8268-2b2b01b3e68d","ios":"levelo://app?vid=518f985d-ba45-4134-8268-2b2b01b3e68d"},"vehicle_type_id":"4","last_reported":1756473590,"current_range_meters":8000,"station_id":"st_cvj6r9ubvosntc0bgbag","pricing_plan_id":"cebpf4jnsgd1na2vs0mg"},{"bike_id":"cf1c11d4-38c7-4a75-918d-afe993b2cf04","system_id":"levelo_inurba_marseille","lat":43.29103,"lon":5.3814,"is_reserved":false,"is_disabled":false,"rental_uris":{"android":"levelo://app?vid=cf1c11d4-38c7-4a75-918d-afe993b2cf04","ios":"levelo://app?vid=cf1c11d4-38c7-4a75-918d-afe993b2cf04"},"vehicle_type_id":"4","last_reported":1756473590,"current_range_meters":8400,"station_id":"ce4bh512rcd13ifvqe2g","pricing_plan_id":"cebpf4jnsgd1na2vs0mg"},{"bike_id":"e8f6ad4c-e705-4819-8091-c8a906dca4c9","system_id":"levelo_inurba_marseille","lat":43.26556,"lon":5.37281,"is_reserved":false,"is_disabled":false,"rental_uris":{"android":"levelo://app?vid=e8f6ad4c-e705-4819-8091-c8a906dca4c9","ios":"levelo://app?vid=e8f6ad4c-e705-4819-8091-c8a906dca4c9"},"vehicle_type_id":"4","last_reported":1756473590,"current_range_meters":8400,"station_id":"ce4bhg12rcd13ifvqf70","pricing_plan_id":"cebpf4jnsgd1na2vs0mg"},{"bike_id":"1dc3ff8f-4712-458f-a38c-a5e016892e5d","system_id":"levelo_inurba_marseille","lat":43.27201,"lon":5.39174,"is_reserved":false,"is_disabled":false,"rental_uris":{"android":"levelo://app?vid=1dc3ff8f-4712-458f-a38c-a5e016892e5d","ios":"levelo://app?vid=1dc3ff8f-4712-458f-a38c-a5e016892e5d"},"vehicle_type_id":"4","last_reported":1756473590,"current_range_meters":8400,"station_id":"ce4bhhp2rcd13ifvqfm0","pricing_plan_id":"cebpf4jnsgd1na2vs0mg"},{"bike_id":"6e6f7ba1-cc2f-4fbe-964e-4e7536e40310","system_id":"levelo_inurba_marseille","lat":43.32491,"lon":5.36561,"is_reserved":false,"is_disabled":false,"rental_uris":{"android":"levelo://app?vid=6e6f7ba1-cc2f-4fbe-964e-4e7536e40310","ios":"levelo://app?vid=6e6f7ba1-cc2f-4fbe-964e-4e7536e40310"},"vehicle_type_id":"4","last_reported":1756473590,"current_range_meters":8400,"station_id":"ce4bhs12rcd13ifvqhvg","pricing_plan_id":"cebpf4jnsgd1na2vs0mg"},{"bike_id":"c605ade8-d382-4ce6-8e0f-a3beed4e3a49","system_id":"levelo_inurba_marseille","lat":43.21186,"lon":5.35071,"is_reserved":false,"is_disabled":false,"rental_uris":{"android":"levelo://app?vid=c605ade8-d382-4ce6-8e0f-a3beed4e3a49","ios":"levelo://app?vid=c605ade8-d382-4ce6-8e0f-a3beed4e3a49"},"vehicle_type_id":"4","last_reported":1756473590,"current_range_meters":8400,"station_id":"st_cvj6sg6p6f1abm77japg","pricing_plan_id":"cebpf4jnsgd1na2vs0mg"},{"bike_id":"de14a6aa-1fec-4655-8163-5c153c19b2b2","system_id":"levelo_inurba_marseille","lat":43.22571,"lon":5.41627,"is_reserved":false,"is_disabled":false,"rental_uris":{"android":"levelo://app?vid=de14a6aa-1fec-4655-8163-5c153c19b2b2","ios":"levelo://app?vid=de14a6aa-1fec-4655-8163-5c153c19b2b2"},"vehicle_type_id":"4","last_reported":1756473590,"current_range_meters":8400,"station_id":"st_d2o4gvlbi1j2169b742g","pricing_plan_id":"cebpf4jnsgd1na2vs0mg"},{"bike_id":"a054a4ff-c9be-4e8d-a484-08bc6f90d3cf","system_id":"levelo_inurba_marseille","lat":43.225349,"lon":5.348311,"is_reserved":false,"is_disabled":false,"rental_uris":{"android":"levelo://app?vid=a054a4ff-c9be-4e8d-a484-08bc6f90d3cf","ios":"levelo://app?vid=a054a4ff-c9be-4e8d-a484-08bc6f90d3cf"},"vehicle_type_id":"4","last_reported":1756473590,"current_range_meters":8800,"station_id":"","pricing_plan_id":"cebpf4jnsgd1na2vs0mg"},{"bike_id":"609dee3d-af62-4f32-8a74-83af1562abc9","system_id":"levelo_inurba_marseille","lat":43.28567,"lon":5.39496,"is_reserved":false,"is_disabled":false,"rental_uris":{"android":"levelo://app?vid=609dee3d-af62-4f32-8a74-83af1562abc9","ios":"levelo://app?vid=609dee3d-af62-4f32-8a74-83af1562abc9"},"vehicle_type_id":"4","last_reported":1756473590,"current_range_meters":9200,"station_id":"ce4bh292rcd13ifvqdg0","pricing_plan_id":"cebpf4jnsgd1na2vs0mg"},{"bike_id":"4927fc70-3b59-413b-811e-542297ad2684","system_id":"levelo_inurba_marseille","lat":43.23152,"lon":5.4372,"is_reserved":false,"is_disabled":false,"rental_uris":{"android":"levelo://app?vid=4927fc70-3b59-413b-811e-542297ad2684","ios":"levelo://app?vid=4927fc70-3b59-413b-811e-542297ad2684"},"vehicle_type_id":"4","last_reported":1756473590,"current_range_meters":9200,"station_id":"ce4bhmp2rcd13ifvqgog","pricing_plan_id":"cebpf4jnsgd1na2vs0mg"},{"bike_id":"9ff865e8-1a19-4c18-88c8-042a0bfcb67e","system_id":"levelo_inurba_marseille","lat":43.2119,"lon":5.35074,"is_reserved":false,"is_disabled":false,"rental_uris":{"android":"levelo://app?vid=9ff865e8-1a19-4c18-88c8-042a0bfcb67e","ios":"levelo://app?vid=9ff865e8-1a19-4c18-88c8-042a0bfcb67e"},"vehicle_type_id":"4","last_reported":1756473590,"current_range_meters":9200,"station_id":"st_cvj6sg6p6f1abm77japg","pricing_plan_id":"cebpf4jnsgd1na2vs0mg"},{"bike_id":"e997efbb-78a2-4932-a09a-202a602e1981","system_id":"levelo_inurba_marseille","lat":43.2992,"lon":5.37487,"is_reserved":false,"is_disabled":false,"rental_uris":{"android":"levelo://app?vid=e997efbb-78a2-4932-a09a-202a602e1981","ios":"levelo://app?vid=e997efbb-78a2-4932-a09a-202a602e1981"},"vehicle_type_id":"4","last_reported":1756473590,"current_range_meters":9600,"station_id":"ce4bgjh2rcd13ifvqbg0","pricing_plan_id":"cebpf4jnsgd1na2vs0mg"},{"bike_id":"6421de97-3b7a-413f-bc9a-a08454c0d2e2","system_id":"levelo_inurba_marseille","lat":43.30951,"lon":5.39027,"is_reserved":false,"is_disabled":false,"rental_uris":{"android":"levelo://app?vid=6421de97-3b7a-413f-bc9a-a08454c0d2e2","ios":"levelo://app?vid=6421de97-3b7a-413f-bc9a-a08454c0d2e2"},"vehicle_type_id":"4","last_reported":1756473590,"current_range_meters":9600,"station_id":"ce4bgup2rcd13ifvqco0","pricing_plan_id":"cebpf4jnsgd1na2vs0mg"},{"bike_id":"70be4f49-b387-452f-9990-b684cf9fd21e","system_id":"levelo_inurba_marseille","lat":43.30309,"lon":5.40449,"is_reserved":false,"is_disabled":false,"rental_uris":{"android":"levelo://app?vid=70be4f49-b387-452f-9990-b684cf9fd21e","ios":"levelo://app?vid=70be4f49-b387-452f-9990-b684cf9fd21e"},"vehicle_type_id":"4","last_reported":1756473590,"current_range_meters":9600,"station_id":"ce4bh012rcd13ifvqd10","pricing_plan_id":"cebpf4jnsgd1na2vs0mg"},{"bike_id":"f84d922c-0443-4fda-83e2-049df92826e2","system_id":"levelo_inurba_marseille","lat":43.21752,"lon":5.34593,"is_reserved":false,"is_disabled":false,"rental_uris":{"android":"levelo://app?vid=f84d922c-0443-4fda-83e2-049df92826e2","ios":"levelo://app?vid=f84d922c-0443-4fda-83e2-049df92826e2"},"vehicle_type_id":"4","last_reported":1756473590,"current_range_meters":9600,"station_id":"st_cvj6r9ubvosntc0bgbag","pricing_plan_id":"cebpf4jnsgd1na2vs0mg"},{"bike_id":"4062423e-3381-49c0-9510-0e0e09b2d426","system_id":"levelo_inurba_marseille","lat":43.211886,"lon":5.350731,"is_reserved":false,"is_disabled":false,"rental_uris":{"android":"levelo://app?vid=4062423e-3381-49c0-9510-0e0e09b2d426","ios":"levelo://app?vid=4062423e-3381-49c0-9510-0e0e09b2d426"},"vehicle_type_id":"4","last_reported":1756473590,"current_range_meters":9600,"station_id":"st_cvj6sg6p6f1abm77japg","pricing_plan_id":"cebpf4jnsgd1na2vs0mg"},{"bike_id":"b9a2bbbb-69ac-40be-bf46-27119ee9c404","system_id":"levelo_inurba_marseille","lat":43.25358,"lon":5.42172,"is_reserved":false,"is_disabled":false,"rental_uris":{"android":"levelo://app?vid=b9a2bbbb-69ac-40be-bf46-27119ee9c404","ios":"levelo://app?vid=b9a2bbbb-69ac-40be-bf46-27119ee9c404"},"vehicle_type_id":"4","last_reported":1756473590,"current_range_meters":9600,"station_id":"st_d2m65c5bi1j21697t3ng","pricing_plan_id":"cebpf4jnsgd1na2vs0mg"},{"bike_id":"bd5394f6-8683-4e04-b17c-cd68313eb0bc","system_id":"levelo_inurba_marseille","lat":43.21633,"lon":5.34631,"is_reserved":false,"is_disabled":false,"rental_uris":{"android":"levelo://app?vid=bd5394f6-8683-4e04-b17c-cd68313eb0bc","ios":"levelo://app?vid=bd5394f6-8683-4e04-b17c-cd68313eb0bc"},"vehicle_type_id":"4","last_reported":1756473590,"current_range_meters":10000,"station_id":"","pricing_plan_id":"cebpf4jnsgd1na2vs0mg"},{"bike_id":"5bdfa0e5-c5fc-4cfd-bc08-50665156356d","system_id":"levelo_inurba_marseille","lat":43.295294,"lon":5.375061,"is_reserved":false,"is_disabled":false,"rental_uris":{"android":"levelo://app?vid=5bdfa0e5-c5fc-4cfd-bc08-50665156356d","ios":"levelo://app?vid=5bdfa0e5-c5fc-4cfd-bc08-50665156356d"},"vehicle_type_id":"4","last_reported":1756473590,"current_range_meters":10000,"station_id":"","pricing_plan_id":"cebpf4jnsgd1na2vs0mg"},{"bike_id":"1eb7ca1e-3417-423f-af99-5f76664af68f","system_id":"levelo_inurba_marseille","lat":43.30154,"lon":5.38094,"is_reserved":false,"is_disabled":false,"rental_uris":{"android":"levelo://app?vid=1eb7ca1e-3417-423f-af99-5f76664af68f","ios":"levelo://app?vid=1eb7ca1e-3417-423f-af99-5f76664af68f"},"vehicle_type_id":"4","last_reported":1756473590,"current_range_meters":10000,"station_id":"ce4bgjp2rcd13ifvqbh0","pricing_plan_id":"cebpf4jnsgd1na2vs0mg"},{"bike_id":"ceec6b64-dcd0-423a-84ed-a6e850c3169c","system_id":"levelo_inurba_marseille","lat":43.31485,"lon":5.373,"is_reserved":false,"is_disabled":false,"rental_uris":{"android":"levelo://app?vid=ceec6b64-dcd0-423a-84ed-a6e850c3169c","ios":"levelo://app?vid=ceec6b64-dcd0-423a-84ed-a6e850c3169c"},"vehicle_type_id":"4","last_reported":1756473590,"current_range_meters":10000,"station_id":"ce4bgt12rcd13ifvqcd0","pricing_plan_id":"cebpf4jnsgd1na2vs0mg"},{"bike_id":"097e0193-9a52-4859-93ac-8e3b059b1fc5","system_id":"levelo_inurba_marseille","lat":43.31686,"lon":5.40473,"is_reserved":false,"is_disabled":false,"rental_uris":{"android":"levelo://app?vid=097e0193-9a52-4859-93ac-8e3b059b1fc5","ios":"levelo://app?vid=097e0193-9a52-4859-93ac-8e3b059b1fc5"},"vehicle_type_id":"4","last_reported":1756473590,"current_range_meters":10000,"station_id":"ce4bh012rcd13ifvqd00","pricing_plan_id":"cebpf4jnsgd1na2vs0mg"},{"bike_id":"93db0e16-ab3a-4504-a85c-b4ae2775b69e","system_id":"levelo_inurba_marseille","lat":43.26211,"lon":5.3744,"is_reserved":false,"is_disabled":false,"rental_uris":{"android":"levelo://app?vid=93db0e16-ab3a-4504-a85c-b4ae2775b69e","ios":"levelo://app?vid=93db0e16-ab3a-4504-a85c-b4ae2775b69e"},"vehicle_type_id":"4","last_reported":1756473590,"current_range_meters":10000,"station_id":"ce4bhgp2rcd13ifvqfc0","pricing_plan_id":"cebpf4jnsgd1na2vs0mg"},{"bike_id":"ecdb44b9-adc1-43f9-8f95-c8f2d9e81ebf","system_id":"levelo_inurba_marseille","lat":43.23195,"lon":5.35553,"is_reserved":false,"is_disabled":false,"rental_uris":{"android":"levelo://app?vid=ecdb44b9-adc1-43f9-8f95-c8f2d9e81ebf","ios":"levelo://app?vid=ecdb44b9-adc1-43f9-8f95-c8f2d9e81ebf"},"vehicle_type_id":"4","last_reported":1756473590,"current_range_meters":10000,"station_id":"ce4bhu92rcd13ifvqi70","pricing_plan_id":"cebpf4jnsgd1na2vs0mg"},{"bike_id":"6703c576-1f05-4c53-899d-3cfcdef3fa28","system_id":"levelo_inurba_marseille","lat":43.229347,"lon":5.353781,"is_reserved":false,"is_disabled":false,"rental_uris":{"android":"levelo://app?vid=6703c576-1f05-4c53-899d-3cfcdef3fa28","ios":"levelo://app?vid=6703c576-1f05-4c53-899d-3cfcdef3fa28"},"vehicle_type_id":"4","last_reported":1756473590,"current_range_meters":10000,"station_id":"cpo3532slgdg3j2ikp40","pricing_plan_id":"cebpf4jnsgd1na2vs0mg"},{"bike_id":"737b06b6-06ee-4763-ae67-96b1331ca994","system_id":"levelo_inurba_marseille","lat":43.21188,"lon":5.35073,"is_reserved":false,"is_disabled":false,"rental_uris":{"android":"levelo://app?vid=737b06b6-06ee-4763-ae67-96b1331ca994","ios":"levelo://app?vid=737b06b6-06ee-4763-ae67-96b1331ca994"},"vehicle_type_id":"4","last_reported":1756473590,"current_range_meters":10000,"station_id":"st_cvj6sg6p6f1abm77japg","pricing_plan_id":"cebpf4jnsgd1na2vs0mg"},{"bike_id":"11e3b63a-7498-4037-a1da-178dcd0fbd98","system_id":"levelo_inurba_marseille","lat":43.337444,"lon":5.374475,"is_reserved":false,"is_disabled":false,"rental_uris":{"android":"levelo://app?vid=11e3b63a-7498-4037-a1da-178dcd0fbd98","ios":"levelo://app?vid=11e3b63a-7498-4037-a1da-178dcd0fbd98"},"vehicle_type_id":"4","last_reported":1756473590,"current_range_meters":10800,"station_id":"","pricing_plan_id":"cebpf4jnsgd1na2vs0mg"},{"bike_id":"43e1fa09-fdff-48da-84c7-6d730f2a64f7","system_id":"levelo_inurba_marseille","lat":43.26787,"lon":5.39408,"is_reserved":false,"is_disabled":false,"rental_uris":{"android":"levelo://app?vid=43e1fa09-fdff-48da-84c7-6d730f2a64f7","ios":"levelo://app?vid=43e1fa09-fdff-48da-84c7-6d730f2a64f7"},"vehicle_type_id":"4","last_reported":1756473590,"current_range_meters":10800,"station_id":"ce4bhh12rcd13ifvqfg0","pricing_plan_id":"cebpf4jnsgd1na2vs0mg"},{"bike_id":"fcc503c6-d3a7-4cf2-8bb7-07eb8c5cebbc","system_id":"levelo_inurba_marseille","lat":43.24675,"lon":5.38136,"is_reserved":false,"is_disabled":false,"rental_uris":{"android":"levelo://app?vid=fcc503c6-d3a7-4cf2-8bb7-07eb8c5cebbc","ios":"levelo://app?vid=fcc503c6-d3a7-4cf2-8bb7-07eb8c5cebbc"},"vehicle_type_id":"4","last_reported":1756473590,"current_range_meters":10800,"station_id":"ce4bhih2rcd13ifvqfr0","pricing_plan_id":"cebpf4jnsgd1na2vs0mg"},{"bike_id":"8a3d08a4-6e22-43fc-a3af-efea32020201","system_id":"levelo_inurba_marseille","lat":43.323596,"lon":5.367653,"is_reserved":false,"is_disabled":false,"rental_uris":{"android":"levelo://app?vid=8a3d08a4-6e22-43fc-a3af-efea32020201","ios":"levelo://app?vid=8a3d08a4-6e22-43fc-a3af-efea32020201"},"vehicle_type_id":"4","last_reported":1756473590,"current_range_meters":10800,"station_id":"ce4bhsh2rcd13ifvqi2g","pricing_plan_id":"cebpf4jnsgd1na2vs0mg"},{"bike_id":"2b60922c-1f9d-4f98-af70-27c0430b8e12","system_id":"levelo_inurba_marseille","lat":43.28616,"lon":5.35104,"is_reserved":false,"is_disabled":false,"rental_uris":{"android":"levelo://app?vid=2b60922c-1f9d-4f98-af70-27c0430b8e12","ios":"levelo://app?vid=2b60922c-1f9d-4f98-af70-27c0430b8e12"},"vehicle_type_id":"4","last_reported":1756473590,"current_range_meters":11200,"station_id":"ce4bhch2rcd13ifvqeug","pricing_plan_id":"cebpf4jnsgd1na2vs0mg"},{"bike_id":"cc906a88-1331-44a0-b1c5-ebccb651e4f2","system_id":"levelo_inurba_marseille","lat":43.23959,"lon":5.3664,"is_reserved":false,"is_disabled":false,"rental_uris":{"android":"levelo://app?vid=cc906a88-1331-44a0-b1c5-ebccb651e4f2","ios":"levelo://app?vid=cc906a88-1331-44a0-b1c5-ebccb651e4f2"},"vehicle_type_id":"4","last_reported":1756473590,"current_range_meters":11200,"station_id":"ce4bhi12rcd13ifvqfp0","pricing_plan_id":"cebpf4jnsgd1na2vs0mg"},{"bike_id":"d3d8db0a-1de1-4ab2-94f3-1bd8e4974296","system_id":"levelo_inurba_marseille","lat":43.31884,"lon":5.40742,"is_reserved":false,"is_disabled":false,"rental_uris":{"android":"levelo://app?vid=d3d8db0a-1de1-4ab2-94f3-1bd8e4974296","ios":"levelo://app?vid=d3d8db0a-1de1-4ab2-94f3-1bd8e4974296"},"vehicle_type_id":"4","last_reported":1756473590,"current_range_meters":11200,"station_id":"ce4bhq12rcd13ifvqhig","pricing_plan_id":"cebpf4jnsgd1na2vs0mg"},{"bike_id":"36f65c57-7e27-4bfb-adde-628604feb386","system_id":"levelo_inurba_marseille","lat":43.27132,"lon":5.39243,"is_reserved":false,"is_disabled":false,"rental_uris":{"android":"levelo://app?vid=36f65c57-7e27-4bfb-adde-628604feb386","ios":"levelo://app?vid=36f65c57-7e27-4bfb-adde-628604feb386"},"vehicle_type_id":"4","last_reported":1756473590,"current_range_meters":11600,"station_id":"","pricing_plan_id":"cebpf4jnsgd1na2vs0mg"},{"bike_id":"fc00d8fa-2d1e-47da-b073-20eceb565faa","system_id":"levelo_inurba_marseille","lat":43.28415,"lon":5.35002,"is_reserved":false,"is_disabled":false,"rental_uris":{"android":"levelo://app?vid=fc00d8fa-2d1e-47da-b073-20eceb565faa","ios":"levelo://app?vid=fc00d8fa-2d1e-47da-b073-20eceb565faa"},"vehicle_type_id":"4","last_reported":1756473590,"current_range_meters":11600,"station_id":"ce4bhbh2rcd13ifvqepg","pricing_plan_id":"cebpf4jnsgd1na2vs0mg"},{"bike_id":"2b20ff1d-a09b-47cc-b17c-50a2e811085c","system_id":"levelo_inurba_marseille","lat":43.28272,"lon":5.35069,"is_reserved":false,"is_disabled":false,"rental_uris":{"android":"levelo://app?vid=2b20ff1d-a09b-47cc-b17c-50a2e811085c","ios":"levelo://app?vid=2b20ff1d-a09b-47cc-b17c-50a2e811085c"},"vehicle_type_id":"4","last_reported":1756473590,"current_range_meters":11600,"station_id":"ce4bhbp2rcd13ifvqerg","pricing_plan_id":"cebpf4jnsgd1na2vs0mg"},{"bike_id":"b64e5b0f-a008-439d-9732-acf6ef6baa7f","system_id":"levelo_inurba_marseille","lat":43.24991,"lon":5.38947,"is_reserved":false,"is_disabled":false,"rental_uris":{"android":"levelo://app?vid=b64e5b0f-a008-439d-9732-acf6ef6baa7f","ios":"levelo://app?vid=b64e5b0f-a008-439d-9732-acf6ef6baa7f"},"vehicle_type_id":"4","last_reported":1756473590,"current_range_meters":11600,"station_id":"ce4bhgp2rcd13ifvqfd0","pricing_plan_id":"cebpf4jnsgd1na2vs0mg"},{"bike_id":"72c04493-7828-44c3-ac93-12434f236158","system_id":"levelo_inurba_marseille","lat":43.23067,"lon":5.35497,"is_reserved":false,"is_disabled":false,"rental_uris":{"android":"levelo://app?vid=72c04493-7828-44c3-ac93-12434f236158","ios":"levelo://app?vid=72c04493-7828-44c3-ac93-12434f236158"},"vehicle_type_id":"4","last_reported":1756473590,"current_range_meters":11600,"station_id":"cpo3342slgdg3j2ifvpg","pricing_plan_id":"cebpf4jnsgd1na2vs0mg"},{"bike_id":"b9e83033-3531-4ca6-970d-8283e42f0ac9","system_id":"levelo_inurba_marseille","lat":43.22565,"lon":5.41624,"is_reserved":false,"is_disabled":false,"rental_uris":{"android":"levelo://app?vid=b9e83033-3531-4ca6-970d-8283e42f0ac9","ios":"levelo://app?vid=b9e83033-3531-4ca6-970d-8283e42f0ac9"},"vehicle_type_id":"4","last_reported":1756473590,"current_range_meters":11600,"station_id":"st_d2o4gvlbi1j2169b742g","pricing_plan_id":"cebpf4jnsgd1na2vs0mg"},{"bike_id":"907319d3-7c84-4282-9808-60c1fd47d3be","system_id":"levelo_inurba_marseille","lat":43.29574,"lon":5.37515,"is_reserved":false,"is_disabled":false,"rental_uris":{"android":"levelo://app?vid=907319d3-7c84-4282-9808-60c1fd47d3be","ios":"levelo://app?vid=907319d3-7c84-4282-9808-60c1fd47d3be"},"vehicle_type_id":"4","last_reported":1756473590,"current_range_meters":12000,"station_id":"ce4bgh92rcd13ifvqb50","pricing_plan_id":"cebpf4jnsgd1na2vs0mg"},{"bike_id":"a98b2c45-cf97-4e33-b8cc-24601b9cfeb6","system_id":"levelo_inurba_marseille","lat":43.29088,"lon":5.37162,"is_reserved":false,"is_disabled":false,"rental_uris":{"android":"levelo://app?vid=a98b2c45-cf97-4e33-b8cc-24601b9cfeb6","ios":"levelo://app?vid=a98b2c45-cf97-4e33-b8cc-24601b9cfeb6"},"vehicle_type_id":"4","last_reported":1756473590,"current_range_meters":12000,"station_id":"ce4bh5p2rcd13ifvqe4g","pricing_plan_id":"cebpf4jnsgd1na2vs0mg"},{"bike_id":"785fc99d-acbd-4daf-aa02-2fd3a4014763","system_id":"levelo_inurba_marseille","lat":43.273806,"lon":5.362579,"is_reserved":false,"is_disabled":false,"rental_uris":{"android":"levelo://app?vid=785fc99d-acbd-4daf-aa02-2fd3a4014763","ios":"levelo://app?vid=785fc99d-acbd-4daf-aa02-2fd3a4014763"},"vehicle_type_id":"4","last_reported":1756473590,"current_range_meters":12000,"station_id":"ce4bhbh2rcd13ifvqeo0","pricing_plan_id":"cebpf4jnsgd1na2vs0mg"},{"bike_id":"5fb6cf22-8056-4998-81f9-bcce3be6fc7c","system_id":"levelo_inurba_marseille","lat":43.282786,"lon":5.350628,"is_reserved":false,"is_disabled":false,"rental_uris":{"android":"levelo://app?vid=5fb6cf22-8056-4998-81f9-bcce3be6fc7c","ios":"levelo://app?vid=5fb6cf22-8056-4998-81f9-bcce3be6fc7c"},"vehicle_type_id":"4","last_reported":1756473590,"current_range_meters":12000,"station_id":"ce4bhbp2rcd13ifvqerg","pricing_plan_id":"cebpf4jnsgd1na2vs0mg"},{"bike_id":"0047908d-81d4-4857-ae03-4679749aaf71","system_id":"levelo_inurba_marseille","lat":43.26554,"lon":5.37285,"is_reserved":false,"is_disabled":false,"rental_uris":{"android":"levelo://app?vid=0047908d-81d4-4857-ae03-4679749aaf71","ios":"levelo://app?vid=0047908d-81d4-4857-ae03-4679749aaf71"},"vehicle_type_id":"4","last_reported":1756473590,"current_range_meters":12000,"station_id":"ce4bhg12rcd13ifvqf70","pricing_plan_id":"cebpf4jnsgd1na2vs0mg"},{"bike_id":"c8ed8afa-4750-4d5e-b29e-7da3cd8f4dc7","system_id":"levelo_inurba_marseille","lat":43.32347,"lon":5.36716,"is_reserved":false,"is_disabled":false,"rental_uris":{"android":"levelo://app?vid=c8ed8afa-4750-4d5e-b29e-7da3cd8f4dc7","ios":"levelo://app?vid=c8ed8afa-4750-4d5e-b29e-7da3cd8f4dc7"},"vehicle_type_id":"4","last_reported":1756473590,"current_range_meters":12000,"station_id":"ce4bhsh2rcd13ifvqi2g","pricing_plan_id":"cebpf4jnsgd1na2vs0mg"},{"bike_id":"ca808d34-9391-4691-b4c5-e9180d9c16d9","system_id":"levelo_inurba_marseille","lat":43.25336,"lon":5.4217,"is_reserved":false,"is_disabled":false,"rental_uris":{"android":"levelo://app?vid=ca808d34-9391-4691-b4c5-e9180d9c16d9","ios":"levelo://app?vid=ca808d34-9391-4691-b4c5-e9180d9c16d9"},"vehicle_type_id":"4","last_reported":1756473590,"current_range_meters":12000,"station_id":"st_d2m65c5bi1j21697t3ng","pricing_plan_id":"cebpf4jnsgd1na2vs0mg"},{"bike_id":"42515969-df58-4bc3-81b4-d2c5b3092781","system_id":"levelo_inurba_marseille","lat":43.277209,"lon":5.420243,"is_reserved":false,"is_disabled":false,"rental_uris":{"android":"levelo://app?vid=42515969-df58-4bc3-81b4-d2c5b3092781","ios":"levelo://app?vid=42515969-df58-4bc3-81b4-d2c5b3092781"},"vehicle_type_id":"4","last_reported":1756473590,"current_range_meters":12400,"station_id":"","pricing_plan_id":"cebpf4jnsgd1na2vs0mg"},{"bike_id":"35f404d6-629e-4f9d-88a2-ea05d6a850e1","system_id":"levelo_inurba_marseille","lat":43.30494,"lon":5.37912,"is_reserved":false,"is_disabled":false,"rental_uris":{"android":"levelo://app?vid=35f404d6-629e-4f9d-88a2-ea05d6a850e1","ios":"levelo://app?vid=35f404d6-629e-4f9d-88a2-ea05d6a850e1"},"vehicle_type_id":"4","last_reported":1756473590,"current_range_meters":12400,"station_id":"ce4bgup2rcd13ifvqcn0","pricing_plan_id":"cebpf4jnsgd1na2vs0mg"},{"bike_id":"955868ea-c2be-45fe-a544-de6fa256c611","system_id":"levelo_inurba_marseille","lat":43.28857,"lon":5.35846,"is_reserved":false,"is_disabled":false,"rental_uris":{"android":"levelo://app?vid=955868ea-c2be-45fe-a544-de6fa256c611","ios":"levelo://app?vid=955868ea-c2be-45fe-a544-de6fa256c611"},"vehicle_type_id":"4","last_reported":1756473590,"current_range_meters":12400,"station_id":"ce4bhb12rcd13ifvqem0","pricing_plan_id":"cebpf4jnsgd1na2vs0mg"},{"bike_id":"334e1d7c-f2e6-4543-b473-959658949a73","system_id":"levelo_inurba_marseille","lat":43.23962,"lon":5.3664,"is_reserved":false,"is_disabled":false,"rental_uris":{"android":"levelo://app?vid=334e1d7c-f2e6-4543-b473-959658949a73","ios":"levelo://app?vid=334e1d7c-f2e6-4543-b473-959658949a73"},"vehicle_type_id":"4","last_reported":1756473590,"current_range_meters":12400,"station_id":"ce4bhi12rcd13ifvqfp0","pricing_plan_id":"cebpf4jnsgd1na2vs0mg"},{"bike_id":"0092b934-8c92-4639-8937-536dddc77c5e","system_id":"levelo_inurba_marseille","lat":43.281559,"lon":5.426434,"is_reserved":false,"is_disabled":false,"rental_uris":{"android":"levelo://app?vid=0092b934-8c92-4639-8937-536dddc77c5e","ios":"levelo://app?vid=0092b934-8c92-4639-8937-536dddc77c5e"},"vehicle_type_id":"4","last_reported":1756473590,"current_range_meters":12400,"station_id":"ce4bhnh2rcd13ifvqgug","pricing_plan_id":"cebpf4jnsgd1na2vs0mg"},{"bike_id":"a583a2d5-64ba-4a63-99f9-a273677678f2","system_id":"levelo_inurba_marseille","lat":43.281517,"lon":5.426616,"is_reserved":false,"is_disabled":false,"rental_uris":{"android":"levelo://app?vid=a583a2d5-64ba-4a63-99f9-a273677678f2","ios":"levelo://app?vid=a583a2d5-64ba-4a63-99f9-a273677678f2"},"vehicle_type_id":"4","last_reported":1756473590,"current_range_meters":12400,"station_id":"ce4bhnh2rcd13ifvqgug","pricing_plan_id":"cebpf4jnsgd1na2vs0mg"},{"bike_id":"8a19325a-71ca-48f5-b018-6eb83b7a5b94","system_id":"levelo_inurba_marseille","lat":43.23197,"lon":5.35552,"is_reserved":false,"is_disabled":false,"rental_uris":{"android":"levelo://app?vid=8a19325a-71ca-48f5-b018-6eb83b7a5b94","ios":"levelo://app?vid=8a19325a-71ca-48f5-b018-6eb83b7a5b94"},"vehicle_type_id":"4","last_reported":1756473590,"current_range_meters":12400,"station_id":"ce4bhu92rcd13ifvqi70","pricing_plan_id":"cebpf4jnsgd1na2vs0mg"},{"bike_id":"a3e4ee41-5175-47da-ad6e-4c5ae3eb42d9","system_id":"levelo_inurba_marseille","lat":43.211896,"lon":5.350802,"is_reserved":false,"is_disabled":false,"rental_uris":{"android":"levelo://app?vid=a3e4ee41-5175-47da-ad6e-4c5ae3eb42d9","ios":"levelo://app?vid=a3e4ee41-5175-47da-ad6e-4c5ae3eb42d9"},"vehicle_type_id":"4","last_reported":1756473590,"current_range_meters":12400,"station_id":"st_cvj6sg6p6f1abm77japg","pricing_plan_id":"cebpf4jnsgd1na2vs0mg"},{"bike_id":"9b8613f2-a259-4f9e-9222-a77fab323375","system_id":"levelo_inurba_marseille","lat":43.21196,"lon":5.35069,"is_reserved":false,"is_disabled":false,"rental_uris":{"android":"levelo://app?vid=9b8613f2-a259-4f9e-9222-a77fab323375","ios":"levelo://app?vid=9b8613f2-a259-4f9e-9222-a77fab323375"},"vehicle_type_id":"4","last_reported":1756473590,"current_range_meters":12400,"station_id":"st_cvj6sg6p6f1abm77japg","pricing_plan_id":"cebpf4jnsgd1na2vs0mg"},{"bike_id":"e88813c3-e63a-4665-b0f4-72e6c6c89a00","system_id":"levelo_inurba_marseille","lat":43.21196,"lon":5.35107,"is_reserved":false,"is_disabled":false,"rental_uris":{"android":"levelo://app?vid=e88813c3-e63a-4665-b0f4-72e6c6c89a00","ios":"levelo://app?vid=e88813c3-e63a-4665-b0f4-72e6c6c89a00"},"vehicle_type_id":"4","last_reported":1756473590,"current_range_meters":12400,"station_id":"st_cvj6sg6p6f1abm77japg","pricing_plan_id":"cebpf4jnsgd1na2vs0mg"},{"bike_id":"20cdb3f8-aebe-48a9-ae79-aa2df35a742a","system_id":"levelo_inurba_marseille","lat":43.24653,"lon":5.43131,"is_reserved":false,"is_disabled":false,"rental_uris":{"android":"levelo://app?vid=20cdb3f8-aebe-48a9-ae79-aa2df35a742a","ios":"levelo://app?vid=20cdb3f8-aebe-48a9-ae79-aa2df35a742a"},"vehicle_type_id":"4","last_reported":1756473590,"current_range_meters":12400,"station_id":"st_d2m6c4gdas8pm72e190g","pricing_plan_id":"cebpf4jnsgd1na2vs0mg"},{"bike_id":"3dd23926-ae78-488e-8f33-e0fe0712154d","system_id":"levelo_inurba_marseille","lat":43.31204,"lon":5.37786,"is_reserved":false,"is_disabled":false,"rental_uris":{"android":"levelo://app?vid=3dd23926-ae78-488e-8f33-e0fe0712154d","ios":"levelo://app?vid=3dd23926-ae78-488e-8f33-e0fe0712154d"},"vehicle_type_id":"4","last_reported":1756473590,"current_range_meters":12800,"station_id":"","pricing_plan_id":"cebpf4jnsgd1na2vs0mg"},{"bike_id":"733ff004-f460-4666-a97d-2b480915af5e","system_id":"levelo_inurba_marseille","lat":43.29914,"lon":5.38152,"is_reserved":false,"is_disabled":false,"rental_uris":{"android":"levelo://app?vid=733ff004-f460-4666-a97d-2b480915af5e","ios":"levelo://app?vid=733ff004-f460-4666-a97d-2b480915af5e"},"vehicle_type_id":"4","last_reported":1756473590,"current_range_meters":12800,"station_id":"ce4bgj12rcd13ifvqbc0","pricing_plan_id":"cebpf4jnsgd1na2vs0mg"},{"bike_id":"7c21c8b1-62a6-4977-aa6a-099f28a72f1d","system_id":"levelo_inurba_marseille","lat":43.26789,"lon":5.3941,"is_reserved":false,"is_disabled":false,"rental_uris":{"android":"levelo://app?vid=7c21c8b1-62a6-4977-aa6a-099f28a72f1d","ios":"levelo://app?vid=7c21c8b1-62a6-4977-aa6a-099f28a72f1d"},"vehicle_type_id":"4","last_reported":1756473590,"current_range_meters":12800,"station_id":"ce4bhh12rcd13ifvqfg0","pricing_plan_id":"cebpf4jnsgd1na2vs0mg"},{"bike_id":"d2037d0a-1a03-43ff-992a-62cb59c74480","system_id":"levelo_inurba_marseille","lat":43.24624,"lon":5.43164,"is_reserved":false,"is_disabled":false,"rental_uris":{"android":"levelo://app?vid=d2037d0a-1a03-43ff-992a-62cb59c74480","ios":"levelo://app?vid=d2037d0a-1a03-43ff-992a-62cb59c74480"},"vehicle_type_id":"4","last_reported":1756473590,"current_range_meters":12800,"station_id":"st_d2m6c4gdas8pm72e190g","pricing_plan_id":"cebpf4jnsgd1na2vs0mg"},{"bike_id":"8a9edc67-b67b-4702-be6c-c471856f45a6","system_id":"levelo_inurba_marseille","lat":43.27618,"lon":5.36108,"is_reserved":false,"is_disabled":false,"rental_uris":{"android":"levelo://app?vid=8a9edc67-b67b-4702-be6c-c471856f45a6","ios":"levelo://app?vid=8a9edc67-b67b-4702-be6c-c471856f45a6"},"vehicle_type_id":"4","last_reported":1756473590,"current_range_meters":13600,"station_id":"ce4bgj92rcd13ifvqbe0","pricing_plan_id":"cebpf4jnsgd1na2vs0mg"},{"bike_id":"e1366a5a-fda4-4245-9239-3b035f5a9f07","system_id":"levelo_inurba_marseille","lat":43.29622,"lon":5.37172,"is_reserved":false,"is_disabled":false,"rental_uris":{"android":"levelo://app?vid=e1366a5a-fda4-4245-9239-3b035f5a9f07","ios":"levelo://app?vid=e1366a5a-fda4-4245-9239-3b035f5a9f07"},"vehicle_type_id":"4","last_reported":1756473590,"current_range_meters":13600,"station_id":"ce4bgnh2rcd13ifvqc0g","pricing_plan_id":"cebpf4jnsgd1na2vs0mg"},{"bike_id":"bf0e16ca-929e-4848-9499-b761e8276527","system_id":"levelo_inurba_marseille","lat":43.246508,"lon":5.388984,"is_reserved":false,"is_disabled":false,"rental_uris":{"android":"levelo://app?vid=bf0e16ca-929e-4848-9499-b761e8276527","ios":"levelo://app?vid=bf0e16ca-929e-4848-9499-b761e8276527"},"vehicle_type_id":"4","last_reported":1756473590,"current_range_meters":13600,"station_id":"ce4bhg12rcd13ifvqf60","pricing_plan_id":"cebpf4jnsgd1na2vs0mg"},{"bike_id":"6dde6a9e-e50e-4ebe-94cb-097e4d8e67b8","system_id":"levelo_inurba_marseille","lat":43.25657,"lon":5.38313,"is_reserved":false,"is_disabled":false,"rental_uris":{"android":"levelo://app?vid=6dde6a9e-e50e-4ebe-94cb-097e4d8e67b8","ios":"levelo://app?vid=6dde6a9e-e50e-4ebe-94cb-097e4d8e67b8"},"vehicle_type_id":"4","last_reported":1756473590,"current_range_meters":14000,"station_id":"","pricing_plan_id":"cebpf4jnsgd1na2vs0mg"},{"bike_id":"083dca62-c227-468f-ad9d-5d65b88e5579","system_id":"levelo_inurba_marseille","lat":43.26016,"lon":5.37539,"is_reserved":false,"is_disabled":false,"rental_uris":{"android":"levelo://app?vid=083dca62-c227-468f-ad9d-5d65b88e5579","ios":"levelo://app?vid=083dca62-c227-468f-ad9d-5d65b88e5579"},"vehicle_type_id":"4","last_reported":1756473590,"current_range_meters":14000,"station_id":"","pricing_plan_id":"cebpf4jnsgd1na2vs0mg"},{"bike_id":"c4151c63-4628-4474-99f2-c45cdba62403","system_id":"levelo_inurba_marseille","lat":43.26289,"lon":5.3991,"is_reserved":false,"is_disabled":false,"rental_uris":{"android":"levelo://app?vid=c4151c63-4628-4474-99f2-c45cdba62403","ios":"levelo://app?vid=c4151c63-4628-4474-99f2-c45cdba62403"},"vehicle_type_id":"4","last_reported":1756473590,"current_range_meters":14400,"station_id":"","pricing_plan_id":"cebpf4jnsgd1na2vs0mg"},{"bike_id":"0a52260b-d5c5-4928-a8ea-e2ec7c6c93ab","system_id":"levelo_inurba_marseille","lat":43.28418,"lon":5.34992,"is_reserved":false,"is_disabled":false,"rental_uris":{"android":"levelo://app?vid=0a52260b-d5c5-4928-a8ea-e2ec7c6c93ab","ios":"levelo://app?vid=0a52260b-d5c5-4928-a8ea-e2ec7c6c93ab"},"vehicle_type_id":"4","last_reported":1756473590,"current_range_meters":14400,"station_id":"ce4bhbh2rcd13ifvqepg","pricing_plan_id":"cebpf4jnsgd1na2vs0mg"},{"bike_id":"7d2b90d6-afc9-4672-a616-25dc9a254ebd","system_id":"levelo_inurba_marseille","lat":43.28948,"lon":5.363869,"is_reserved":false,"is_disabled":false,"rental_uris":{"android":"levelo://app?vid=7d2b90d6-afc9-4672-a616-25dc9a254ebd","ios":"levelo://app?vid=7d2b90d6-afc9-4672-a616-25dc9a254ebd"},"vehicle_type_id":"4","last_reported":1756473590,"current_range_meters":14400,"station_id":"ce4bhc92rcd13ifvqetg","pricing_plan_id":"cebpf4jnsgd1na2vs0mg"},{"bike_id":"67a292f3-c30c-4fcc-a709-15bc199314bd","system_id":"levelo_inurba_marseille","lat":43.23189,"lon":5.39984,"is_reserved":false,"is_disabled":false,"rental_uris":{"android":"levelo://app?vid=67a292f3-c30c-4fcc-a709-15bc199314bd","ios":"levelo://app?vid=67a292f3-c30c-4fcc-a709-15bc199314bd"},"vehicle_type_id":"4","last_reported":1756473590,"current_range_meters":14400,"station_id":"ce4bhn12rcd13ifvqgqg","pricing_plan_id":"cebpf4jnsgd1na2vs0mg"},{"bike_id":"f4cbaf85-3577-48c7-9a47-c50862cc8158","system_id":"levelo_inurba_marseille","lat":43.24164,"lon":5.36395,"is_reserved":false,"is_disabled":false,"rental_uris":{"android":"levelo://app?vid=f4cbaf85-3577-48c7-9a47-c50862cc8158","ios":"levelo://app?vid=f4cbaf85-3577-48c7-9a47-c50862cc8158"},"vehicle_type_id":"4","last_reported":1756473590,"current_range_meters":14400,"station_id":"cpo36qri1sfpv3e86is0","pricing_plan_id":"cebpf4jnsgd1na2vs0mg"},{"bike_id":"ad4c4a01-d30a-43d7-80ed-b34d62d5e9ef","system_id":"levelo_inurba_marseille","lat":43.24174,"lon":5.36399,"is_reserved":false,"is_disabled":false,"rental_uris":{"android":"levelo://app?vid=ad4c4a01-d30a-43d7-80ed-b34d62d5e9ef","ios":"levelo://app?vid=ad4c4a01-d30a-43d7-80ed-b34d62d5e9ef"},"vehicle_type_id":"4","last_reported":1756473590,"current_range_meters":14400,"station_id":"cpo36qri1sfpv3e86is0","pricing_plan_id":"cebpf4jnsgd1na2vs0mg"},{"bike_id":"7d64dfc5-e963-4e6c-8432-9077cd11e35f","system_id":"levelo_inurba_marseille","lat":43.24393,"lon":5.37054,"is_reserved":false,"is_disabled":false,"rental_uris":{"android":"levelo://app?vid=7d64dfc5-e963-4e6c-8432-9077cd11e35f","ios":"levelo://app?vid=7d64dfc5-e963-4e6c-8432-9077cd11e35f"},"vehicle_type_id":"4","last_reported":1756473590,"current_range_meters":14800,"station_id":"ce4bhhh2rcd13ifvqfk0","pricing_plan_id":"cebpf4jnsgd1na2vs0mg"},{"bike_id":"dee5fc92-9d8d-42ec-97e1-996d8f5266a8","system_id":"levelo_inurba_marseille","lat":43.22935,"lon":5.35365,"is_reserved":false,"is_disabled":false,"rental_uris":{"android":"levelo://app?vid=dee5fc92-9d8d-42ec-97e1-996d8f5266a8","ios":"levelo://app?vid=dee5fc92-9d8d-42ec-97e1-996d8f5266a8"},"vehicle_type_id":"4","last_reported":1756473590,"current_range_meters":14800,"station_id":"cpo3532slgdg3j2ikp40","pricing_plan_id":"cebpf4jnsgd1na2vs0mg"},{"bike_id":"445f4a5d-695f-4c1d-b170-62064433a299","system_id":"levelo_inurba_marseille","lat":43.21189,"lon":5.35061,"is_reserved":false,"is_disabled":false,"rental_uris":{"android":"levelo://app?vid=445f4a5d-695f-4c1d-b170-62064433a299","ios":"levelo://app?vid=445f4a5d-695f-4c1d-b170-62064433a299"},"vehicle_type_id":"4","last_reported":1756473590,"current_range_meters":14800,"station_id":"st_cvj6sg6p6f1abm77japg","pricing_plan_id":"cebpf4jnsgd1na2vs0mg"},{"bike_id":"e66b3941-edc1-47d2-a508-6af05bed5109","system_id":"levelo_inurba_marseille","lat":43.22533,"lon":5.34831,"is_reserved":false,"is_disabled":false,"rental_uris":{"android":"levelo://app?vid=e66b3941-edc1-47d2-a508-6af05bed5109","ios":"levelo://app?vid=e66b3941-edc1-47d2-a508-6af05bed5109"},"vehicle_type_id":"4","last_reported":1756473590,"current_range_meters":15200,"station_id":"","pricing_plan_id":"cebpf4jnsgd1na2vs0mg"},{"bike_id":"5b064a53-e079-4430-8825-152cf4e0210b","system_id":"levelo_inurba_marseille","lat":43.28606,"lon":5.35106,"is_reserved":false,"is_disabled":false,"rental_uris":{"android":"levelo://app?vid=5b064a53-e079-4430-8825-152cf4e0210b","ios":"levelo://app?vid=5b064a53-e079-4430-8825-152cf4e0210b"},"vehicle_type_id":"4","last_reported":1756473590,"current_range_meters":15200,"station_id":"ce4bhch2rcd13ifvqeug","pricing_plan_id":"cebpf4jnsgd1na2vs0mg"},{"bike_id":"18da9888-fdd7-4484-bc00-1068acefa027","system_id":"levelo_inurba_marseille","lat":43.2594,"lon":5.40874,"is_reserved":false,"is_disabled":false,"rental_uris":{"android":"levelo://app?vid=18da9888-fdd7-4484-bc00-1068acefa027","ios":"levelo://app?vid=18da9888-fdd7-4484-bc00-1068acefa027"},"vehicle_type_id":"4","last_reported":1756473590,"current_range_meters":15200,"station_id":"ce4bhm92rcd13ifvqglg","pricing_plan_id":"cebpf4jnsgd1na2vs0mg"},{"bike_id":"1bc9ca23-09f9-4249-bbe1-ab533303a197","system_id":"levelo_inurba_marseille","lat":43.27999,"lon":5.41659,"is_reserved":false,"is_disabled":false,"rental_uris":{"android":"levelo://app?vid=1bc9ca23-09f9-4249-bbe1-ab533303a197","ios":"levelo://app?vid=1bc9ca23-09f9-4249-bbe1-ab533303a197"},"vehicle_type_id":"4","last_reported":1756473590,"current_range_meters":15200,"station_id":"ce4bho12rcd13ifvqh1g","pricing_plan_id":"cebpf4jnsgd1na2vs0mg"},{"bike_id":"b2035021-dd62-42b2-961b-a845a808f396","system_id":"levelo_inurba_marseille","lat":43.29892,"lon":5.4367,"is_reserved":false,"is_disabled":false,"rental_uris":{"android":"levelo://app?vid=b2035021-dd62-42b2-961b-a845a808f396","ios":"levelo://app?vid=b2035021-dd62-42b2-961b-a845a808f396"},"vehicle_type_id":"4","last_reported":1756473590,"current_range_meters":15200,"station_id":"ce4bhpp2rcd13ifvqhfg","pricing_plan_id":"cebpf4jnsgd1na2vs0mg"},{"bike_id":"420c553f-5c97-4aba-932a-7b39a7ffcd9c","system_id":"levelo_inurba_marseille","lat":43.21197,"lon":5.35073,"is_reserved":false,"is_disabled":false,"rental_uris":{"android":"levelo://app?vid=420c553f-5c97-4aba-932a-7b39a7ffcd9c","ios":"levelo://app?vid=420c553f-5c97-4aba-932a-7b39a7ffcd9c"},"vehicle_type_id":"4","last_reported":1756473590,"current_range_meters":15200,"station_id":"st_cvj6sg6p6f1abm77japg","pricing_plan_id":"cebpf4jnsgd1na2vs0mg"},{"bike_id":"94469496-96ae-450e-adaf-a7663bfd0e82","system_id":"levelo_inurba_marseille","lat":43.33758,"lon":5.37495,"is_reserved":false,"is_disabled":false,"rental_uris":{"android":"levelo://app?vid=94469496-96ae-450e-adaf-a7663bfd0e82","ios":"levelo://app?vid=94469496-96ae-450e-adaf-a7663bfd0e82"},"vehicle_type_id":"4","last_reported":1756473590,"current_range_meters":16000,"station_id":"","pricing_plan_id":"cebpf4jnsgd1na2vs0mg"},{"bike_id":"7462d663-36c2-4cb8-9995-06037a114314","system_id":"levelo_inurba_marseille","lat":43.33142,"lon":5.3818,"is_reserved":false,"is_disabled":false,"rental_uris":{"android":"levelo://app?vid=7462d663-36c2-4cb8-9995-06037a114314","ios":"levelo://app?vid=7462d663-36c2-4cb8-9995-06037a114314"},"vehicle_type_id":"4","last_reported":1756473590,"current_range_meters":16000,"station_id":"","pricing_plan_id":"cebpf4jnsgd1na2vs0mg"},{"bike_id":"78778518-8cc1-405e-b363-7f91ac292b57","system_id":"levelo_inurba_marseille","lat":43.28422,"lon":5.34991,"is_reserved":false,"is_disabled":false,"rental_uris":{"android":"levelo://app?vid=78778518-8cc1-405e-b363-7f91ac292b57","ios":"levelo://app?vid=78778518-8cc1-405e-b363-7f91ac292b57"},"vehicle_type_id":"4","last_reported":1756473590,"current_range_meters":16000,"station_id":"ce4bhbh2rcd13ifvqepg","pricing_plan_id":"cebpf4jnsgd1na2vs0mg"},{"bike_id":"b2b2a3a9-c2cf-4009-8fb9-95c64f2472fa","system_id":"levelo_inurba_marseille","lat":43.26682,"lon":5.38263,"is_reserved":false,"is_disabled":false,"rental_uris":{"android":"levelo://app?vid=b2b2a3a9-c2cf-4009-8fb9-95c64f2472fa","ios":"levelo://app?vid=b2b2a3a9-c2cf-4009-8fb9-95c64f2472fa"},"vehicle_type_id":"4","last_reported":1756473590,"current_range_meters":16000,"station_id":"ce4bhg92rcd13ifvqf90","pricing_plan_id":"cebpf4jnsgd1na2vs0mg"},{"bike_id":"edc44cda-5b73-45a6-83d6-10f761170ce3","system_id":"levelo_inurba_marseille","lat":43.22554,"lon":5.41635,"is_reserved":false,"is_disabled":false,"rental_uris":{"android":"levelo://app?vid=edc44cda-5b73-45a6-83d6-10f761170ce3","ios":"levelo://app?vid=edc44cda-5b73-45a6-83d6-10f761170ce3"},"vehicle_type_id":"4","last_reported":1756473590,"current_range_meters":16000,"station_id":"st_d2o4gvlbi1j2169b742g","pricing_plan_id":"cebpf4jnsgd1na2vs0mg"},{"bike_id":"da50ac0f-a585-482d-bd36-78b481e037ee","system_id":"levelo_inurba_marseille","lat":43.30143,"lon":5.3742,"is_reserved":false,"is_disabled":false,"rental_uris":{"android":"levelo://app?vid=da50ac0f-a585-482d-bd36-78b481e037ee","ios":"levelo://app?vid=da50ac0f-a585-482d-bd36-78b481e037ee"},"vehicle_type_id":"4","last_reported":1756473590,"current_range_meters":16400,"station_id":"ce4bgs92rcd13ifvqcc0","pricing_plan_id":"cebpf4jnsgd1na2vs0mg"},{"bike_id":"be56a579-3870-4545-85bd-dad43950a1f0","system_id":"levelo_inurba_marseille","lat":43.28142,"lon":5.4266,"is_reserved":false,"is_disabled":false,"rental_uris":{"android":"levelo://app?vid=be56a579-3870-4545-85bd-dad43950a1f0","ios":"levelo://app?vid=be56a579-3870-4545-85bd-dad43950a1f0"},"vehicle_type_id":"4","last_reported":1756473590,"current_range_meters":16400,"station_id":"ce4bhnh2rcd13ifvqgug","pricing_plan_id":"cebpf4jnsgd1na2vs0mg"},{"bike_id":"b70b2ed4-928d-40b8-82d5-5125a54a6b6e","system_id":"levelo_inurba_marseille","lat":43.30802,"lon":5.43517,"is_reserved":false,"is_disabled":false,"rental_uris":{"android":"levelo://app?vid=b70b2ed4-928d-40b8-82d5-5125a54a6b6e","ios":"levelo://app?vid=b70b2ed4-928d-40b8-82d5-5125a54a6b6e"},"vehicle_type_id":"4","last_reported":1756473590,"current_range_meters":16400,"station_id":"ce4bhph2rcd13ifvqheg","pricing_plan_id":"cebpf4jnsgd1na2vs0mg"},{"bike_id":"258158f0-e507-44cf-9ba0-0bacc9740d7a","system_id":"levelo_inurba_marseille","lat":43.25338,"lon":5.42169,"is_reserved":false,"is_disabled":false,"rental_uris":{"android":"levelo://app?vid=258158f0-e507-44cf-9ba0-0bacc9740d7a","ios":"levelo://app?vid=258158f0-e507-44cf-9ba0-0bacc9740d7a"},"vehicle_type_id":"4","last_reported":1756473590,"current_range_meters":16400,"station_id":"st_d2m65c5bi1j21697t3ng","pricing_plan_id":"cebpf4jnsgd1na2vs0mg"},{"bike_id":"296da4e5-f2d5-4c1f-9136-7bb8160a8ae1","system_id":"levelo_inurba_marseille","lat":43.289969,"lon":5.356113,"is_reserved":false,"is_disabled":false,"rental_uris":{"android":"levelo://app?vid=296da4e5-f2d5-4c1f-9136-7bb8160a8ae1","ios":"levelo://app?vid=296da4e5-f2d5-4c1f-9136-7bb8160a8ae1"},"vehicle_type_id":"4","last_reported":1756473590,"current_range_meters":16800,"station_id":"ce4bhb92rcd13ifvqen0","pricing_plan_id":"cebpf4jnsgd1na2vs0mg"},{"bike_id":"0de6c912-cba2-4595-b5f6-cf26f0ebe6a9","system_id":"levelo_inurba_marseille","lat":43.2843,"lon":5.34994,"is_reserved":false,"is_disabled":false,"rental_uris":{"android":"levelo://app?vid=0de6c912-cba2-4595-b5f6-cf26f0ebe6a9","ios":"levelo://app?vid=0de6c912-cba2-4595-b5f6-cf26f0ebe6a9"},"vehicle_type_id":"4","last_reported":1756473590,"current_range_meters":16800,"station_id":"ce4bhbh2rcd13ifvqepg","pricing_plan_id":"cebpf4jnsgd1na2vs0mg"},{"bike_id":"0623d3cc-cdb5-48cf-8aae-ec636a7ab18a","system_id":"levelo_inurba_marseille","lat":43.28264,"lon":5.35066,"is_reserved":false,"is_disabled":false,"rental_uris":{"android":"levelo://app?vid=0623d3cc-cdb5-48cf-8aae-ec636a7ab18a","ios":"levelo://app?vid=0623d3cc-cdb5-48cf-8aae-ec636a7ab18a"},"vehicle_type_id":"4","last_reported":1756473590,"current_range_meters":16800,"station_id":"ce4bhbp2rcd13ifvqerg","pricing_plan_id":"cebpf4jnsgd1na2vs0mg"},{"bike_id":"c23b83c0-40a3-40d2-9d5a-ffeb9b013795","system_id":"levelo_inurba_marseille","lat":43.24659,"lon":5.38165,"is_reserved":false,"is_disabled":false,"rental_uris":{"android":"levelo://app?vid=c23b83c0-40a3-40d2-9d5a-ffeb9b013795","ios":"levelo://app?vid=c23b83c0-40a3-40d2-9d5a-ffeb9b013795"},"vehicle_type_id":"4","last_reported":1756473590,"current_range_meters":16800,"station_id":"ce4bhih2rcd13ifvqfr0","pricing_plan_id":"cebpf4jnsgd1na2vs0mg"},{"bike_id":"66fede0c-7dce-451e-9da2-40306588627d","system_id":"levelo_inurba_marseille","lat":43.25924,"lon":5.40872,"is_reserved":false,"is_disabled":false,"rental_uris":{"android":"levelo://app?vid=66fede0c-7dce-451e-9da2-40306588627d","ios":"levelo://app?vid=66fede0c-7dce-451e-9da2-40306588627d"},"vehicle_type_id":"4","last_reported":1756473590,"current_range_meters":16800,"station_id":"ce4bhm92rcd13ifvqglg","pricing_plan_id":"cebpf4jnsgd1na2vs0mg"},{"bike_id":"233ce54d-453b-4be7-81f9-eb852f571988","system_id":"levelo_inurba_marseille","lat":43.2593,"lon":5.4086,"is_reserved":false,"is_disabled":false,"rental_uris":{"android":"levelo://app?vid=233ce54d-453b-4be7-81f9-eb852f571988","ios":"levelo://app?vid=233ce54d-453b-4be7-81f9-eb852f571988"},"vehicle_type_id":"4","last_reported":1756473590,"current_range_meters":16800,"station_id":"ce4bhm92rcd13ifvqglg","pricing_plan_id":"cebpf4jnsgd1na2vs0mg"},{"bike_id":"c197c098-6a94-4bfc-a495-aa0b4e936124","system_id":"levelo_inurba_marseille","lat":43.287939,"lon":5.400238,"is_reserved":false,"is_disabled":false,"rental_uris":{"android":"levelo://app?vid=c197c098-6a94-4bfc-a495-aa0b4e936124","ios":"levelo://app?vid=c197c098-6a94-4bfc-a495-aa0b4e936124"},"vehicle_type_id":"4","last_reported":1756473590,"current_range_meters":16800,"station_id":"ce4bho92rcd13ifvqh3g","pricing_plan_id":"cebpf4jnsgd1na2vs0mg"},{"bike_id":"0e16483d-7c29-42d6-90d2-d9cb7ef31592","system_id":"levelo_inurba_marseille","lat":43.32359,"lon":5.36761,"is_reserved":false,"is_disabled":false,"rental_uris":{"android":"levelo://app?vid=0e16483d-7c29-42d6-90d2-d9cb7ef31592","ios":"levelo://app?vid=0e16483d-7c29-42d6-90d2-d9cb7ef31592"},"vehicle_type_id":"4","last_reported":1756473590,"current_range_meters":16800,"station_id":"ce4bhsh2rcd13ifvqi2g","pricing_plan_id":"cebpf4jnsgd1na2vs0mg"},{"bike_id":"59521d5b-78d8-4d56-91a3-95a35d06475c","system_id":"levelo_inurba_marseille","lat":43.22539,"lon":5.34835,"is_reserved":false,"is_disabled":false,"rental_uris":{"android":"levelo://app?vid=59521d5b-78d8-4d56-91a3-95a35d06475c","ios":"levelo://app?vid=59521d5b-78d8-4d56-91a3-95a35d06475c"},"vehicle_type_id":"4","last_reported":1756473590,"current_range_meters":16800,"station_id":"st_cvj5dfep6f1abm77gieg","pricing_plan_id":"cebpf4jnsgd1na2vs0mg"},{"bike_id":"2859ae8c-18b6-4d6c-aa83-eb9336e7b92f","system_id":"levelo_inurba_marseille","lat":43.24636,"lon":5.43147,"is_reserved":false,"is_disabled":false,"rental_uris":{"android":"levelo://app?vid=2859ae8c-18b6-4d6c-aa83-eb9336e7b92f","ios":"levelo://app?vid=2859ae8c-18b6-4d6c-aa83-eb9336e7b92f"},"vehicle_type_id":"4","last_reported":1756473590,"current_range_meters":16800,"station_id":"st_d2m6c4gdas8pm72e190g","pricing_plan_id":"cebpf4jnsgd1na2vs0mg"},{"bike_id":"c821426f-b74a-4110-b371-84f0ef279375","system_id":"levelo_inurba_marseille","lat":43.31851,"lon":5.37351,"is_reserved":false,"is_disabled":false,"rental_uris":{"android":"levelo://app?vid=c821426f-b74a-4110-b371-84f0ef279375","ios":"levelo://app?vid=c821426f-b74a-4110-b371-84f0ef279375"},"vehicle_type_id":"4","last_reported":1756473590,"current_range_meters":17200,"station_id":"","pricing_plan_id":"cebpf4jnsgd1na2vs0mg"},{"bike_id":"a1265cbd-e7f9-4368-8c85-32e0a5c9f33f","system_id":"levelo_inurba_marseille","lat":43.30881,"lon":5.3963,"is_reserved":false,"is_disabled":false,"rental_uris":{"android":"levelo://app?vid=a1265cbd-e7f9-4368-8c85-32e0a5c9f33f","ios":"levelo://app?vid=a1265cbd-e7f9-4368-8c85-32e0a5c9f33f"},"vehicle_type_id":"4","last_reported":1756473590,"current_range_meters":17200,"station_id":"ce4bh012rcd13ifvqcv0","pricing_plan_id":"cebpf4jnsgd1na2vs0mg"},{"bike_id":"ead558dd-718d-4307-9cea-9052d8c31fe8","system_id":"levelo_inurba_marseille","lat":43.28035,"lon":5.36946,"is_reserved":false,"is_disabled":false,"rental_uris":{"android":"levelo://app?vid=ead558dd-718d-4307-9cea-9052d8c31fe8","ios":"levelo://app?vid=ead558dd-718d-4307-9cea-9052d8c31fe8"},"vehicle_type_id":"4","last_reported":1756473590,"current_range_meters":17200,"station_id":"ce4bha12rcd13ifvqef0","pricing_plan_id":"cebpf4jnsgd1na2vs0mg"},{"bike_id":"2956f252-8776-439f-971f-8045073eb3db","system_id":"levelo_inurba_marseille","lat":43.29045,"lon":5.35912,"is_reserved":false,"is_disabled":false,"rental_uris":{"android":"levelo://app?vid=2956f252-8776-439f-971f-8045073eb3db","ios":"levelo://app?vid=2956f252-8776-439f-971f-8045073eb3db"},"vehicle_type_id":"4","last_reported":1756473590,"current_range_meters":17200,"station_id":"ce4bha92rcd13ifvqeg0","pricing_plan_id":"cebpf4jnsgd1na2vs0mg"},{"bike_id":"cdd15ea5-2f46-4882-8224-a7ac61a1eeb8","system_id":"levelo_inurba_marseille","lat":43.28432,"lon":5.34967,"is_reserved":false,"is_disabled":false,"rental_uris":{"android":"levelo://app?vid=cdd15ea5-2f46-4882-8224-a7ac61a1eeb8","ios":"levelo://app?vid=cdd15ea5-2f46-4882-8224-a7ac61a1eeb8"},"vehicle_type_id":"4","last_reported":1756473590,"current_range_meters":17200,"station_id":"ce4bhbh2rcd13ifvqepg","pricing_plan_id":"cebpf4jnsgd1na2vs0mg"},{"bike_id":"b7334faf-f3b8-448b-9568-b921a0e48879","system_id":"levelo_inurba_marseille","lat":43.28429,"lon":5.34981,"is_reserved":false,"is_disabled":false,"rental_uris":{"android":"levelo://app?vid=b7334faf-f3b8-448b-9568-b921a0e48879","ios":"levelo://app?vid=b7334faf-f3b8-448b-9568-b921a0e48879"},"vehicle_type_id":"4","last_reported":1756473590,"current_range_meters":17200,"station_id":"ce4bhbh2rcd13ifvqepg","pricing_plan_id":"cebpf4jnsgd1na2vs0mg"},{"bike_id":"1deb08a5-06c1-4840-abfa-8bffa3558790","system_id":"levelo_inurba_marseille","lat":43.26211,"lon":5.37443,"is_reserved":false,"is_disabled":false,"rental_uris":{"android":"levelo://app?vid=1deb08a5-06c1-4840-abfa-8bffa3558790","ios":"levelo://app?vid=1deb08a5-06c1-4840-abfa-8bffa3558790"},"vehicle_type_id":"4","last_reported":1756473590,"current_range_meters":17200,"station_id":"ce4bhgp2rcd13ifvqfc0","pricing_plan_id":"cebpf4jnsgd1na2vs0mg"},{"bike_id":"e551fc0e-fb0b-45d2-be28-bbf224471ff3","system_id":"levelo_inurba_marseille","lat":43.23963,"lon":5.36636,"is_reserved":false,"is_disabled":false,"rental_uris":{"android":"levelo://app?vid=e551fc0e-fb0b-45d2-be28-bbf224471ff3","ios":"levelo://app?vid=e551fc0e-fb0b-45d2-be28-bbf224471ff3"},"vehicle_type_id":"4","last_reported":1756473590,"current_range_meters":17200,"station_id":"ce4bhi12rcd13ifvqfp0","pricing_plan_id":"cebpf4jnsgd1na2vs0mg"},{"bike_id":"7e002d77-c2cc-482b-bd1b-986fa89d5409","system_id":"levelo_inurba_marseille","lat":43.24668,"lon":5.3817,"is_reserved":false,"is_disabled":false,"rental_uris":{"android":"levelo://app?vid=7e002d77-c2cc-482b-bd1b-986fa89d5409","ios":"levelo://app?vid=7e002d77-c2cc-482b-bd1b-986fa89d5409"},"vehicle_type_id":"4","last_reported":1756473590,"current_range_meters":17200,"station_id":"ce4bhih2rcd13ifvqfr0","pricing_plan_id":"cebpf4jnsgd1na2vs0mg"},{"bike_id":"30299ad2-46a4-4821-bfbf-3ae4376ad74a","system_id":"levelo_inurba_marseille","lat":43.32112,"lon":5.36768,"is_reserved":false,"is_disabled":false,"rental_uris":{"android":"levelo://app?vid=30299ad2-46a4-4821-bfbf-3ae4376ad74a","ios":"levelo://app?vid=30299ad2-46a4-4821-bfbf-3ae4376ad74a"},"vehicle_type_id":"4","last_reported":1756473590,"current_range_meters":17200,"station_id":"ce4bhrh2rcd13ifvqhug","pricing_plan_id":"cebpf4jnsgd1na2vs0mg"},{"bike_id":"85b87efe-9880-42cc-892f-cc850ced9bd0","system_id":"levelo_inurba_marseille","lat":43.21755,"lon":5.34627,"is_reserved":false,"is_disabled":false,"rental_uris":{"android":"levelo://app?vid=85b87efe-9880-42cc-892f-cc850ced9bd0","ios":"levelo://app?vid=85b87efe-9880-42cc-892f-cc850ced9bd0"},"vehicle_type_id":"4","last_reported":1756473590,"current_range_meters":17200,"station_id":"st_cvj6r9ubvosntc0bgbag","pricing_plan_id":"cebpf4jnsgd1na2vs0mg"},{"bike_id":"f9a9ac4d-319f-4a45-814f-397625905680","system_id":"levelo_inurba_marseille","lat":43.21745,"lon":5.34599,"is_reserved":false,"is_disabled":false,"rental_uris":{"android":"levelo://app?vid=f9a9ac4d-319f-4a45-814f-397625905680","ios":"levelo://app?vid=f9a9ac4d-319f-4a45-814f-397625905680"},"vehicle_type_id":"4","last_reported":1756473590,"current_range_meters":17200,"station_id":"st_cvj6r9ubvosntc0bgbag","pricing_plan_id":"cebpf4jnsgd1na2vs0mg"},{"bike_id":"b7f376ed-6ad6-4bab-a0bc-ce30b84d7a4e","system_id":"levelo_inurba_marseille","lat":43.21192,"lon":5.35063,"is_reserved":false,"is_disabled":false,"rental_uris":{"android":"levelo://app?vid=b7f376ed-6ad6-4bab-a0bc-ce30b84d7a4e","ios":"levelo://app?vid=b7f376ed-6ad6-4bab-a0bc-ce30b84d7a4e"},"vehicle_type_id":"4","last_reported":1756473590,"current_range_meters":17200,"station_id":"st_cvj6sg6p6f1abm77japg","pricing_plan_id":"cebpf4jnsgd1na2vs0mg"},{"bike_id":"c0881cb5-357f-468d-a3c1-b313679c3509","system_id":"levelo_inurba_marseille","lat":43.337671,"lon":5.374507,"is_reserved":false,"is_disabled":false,"rental_uris":{"android":"levelo://app?vid=c0881cb5-357f-468d-a3c1-b313679c3509","ios":"levelo://app?vid=c0881cb5-357f-468d-a3c1-b313679c3509"},"vehicle_type_id":"4","last_reported":1756473590,"current_range_meters":17600,"station_id":"","pricing_plan_id":"cebpf4jnsgd1na2vs0mg"},{"bike_id":"7fc69ecd-8852-45d6-b40f-c277cd4e0291","system_id":"levelo_inurba_marseille","lat":43.29857,"lon":5.36254,"is_reserved":false,"is_disabled":false,"rental_uris":{"android":"levelo://app?vid=7fc69ecd-8852-45d6-b40f-c277cd4e0291","ios":"levelo://app?vid=7fc69ecd-8852-45d6-b40f-c277cd4e0291"},"vehicle_type_id":"4","last_reported":1756473590,"current_range_meters":17600,"station_id":"ce4bgpp2rcd13ifvqc3g","pricing_plan_id":"cebpf4jnsgd1na2vs0mg"},{"bike_id":"89d71a3a-c5bd-46ae-a9f2-4367c90a8ae9","system_id":"levelo_inurba_marseille","lat":43.28037,"lon":5.36952,"is_reserved":false,"is_disabled":false,"rental_uris":{"android":"levelo://app?vid=89d71a3a-c5bd-46ae-a9f2-4367c90a8ae9","ios":"levelo://app?vid=89d71a3a-c5bd-46ae-a9f2-4367c90a8ae9"},"vehicle_type_id":"4","last_reported":1756473590,"current_range_meters":17600,"station_id":"ce4bha12rcd13ifvqef0","pricing_plan_id":"cebpf4jnsgd1na2vs0mg"},{"bike_id":"fe82ab08-b5de-4d55-af48-44f2cb57b09d","system_id":"levelo_inurba_marseille","lat":43.26213,"lon":5.37452,"is_reserved":false,"is_disabled":false,"rental_uris":{"android":"levelo://app?vid=fe82ab08-b5de-4d55-af48-44f2cb57b09d","ios":"levelo://app?vid=fe82ab08-b5de-4d55-af48-44f2cb57b09d"},"vehicle_type_id":"4","last_reported":1756473590,"current_range_meters":17600,"station_id":"ce4bhgp2rcd13ifvqfc0","pricing_plan_id":"cebpf4jnsgd1na2vs0mg"},{"bike_id":"93cc04ec-00cd-4c5a-9919-841c31df513d","system_id":"levelo_inurba_marseille","lat":43.258285,"lon":5.394231,"is_reserved":false,"is_disabled":false,"rental_uris":{"android":"levelo://app?vid=93cc04ec-00cd-4c5a-9919-841c31df513d","ios":"levelo://app?vid=93cc04ec-00cd-4c5a-9919-841c31df513d"},"vehicle_type_id":"4","last_reported":1756473590,"current_range_meters":17600,"station_id":"ce4bhip2rcd13ifvqft0","pricing_plan_id":"cebpf4jnsgd1na2vs0mg"},{"bike_id":"a68e1ff5-d2f6-4f8b-b834-d5bed112e707","system_id":"levelo_inurba_marseille","lat":43.33029,"lon":5.39036,"is_reserved":false,"is_disabled":false,"rental_uris":{"android":"levelo://app?vid=a68e1ff5-d2f6-4f8b-b834-d5bed112e707","ios":"levelo://app?vid=a68e1ff5-d2f6-4f8b-b834-d5bed112e707"},"vehicle_type_id":"4","last_reported":1756473590,"current_range_meters":17600,"station_id":"ce4bhr92rcd13ifvqhrg","pricing_plan_id":"cebpf4jnsgd1na2vs0mg"},{"bike_id":"329cd2e3-3f50-464b-b205-37b738369eeb","system_id":"levelo_inurba_marseille","lat":43.32366,"lon":5.36746,"is_reserved":false,"is_disabled":false,"rental_uris":{"android":"levelo://app?vid=329cd2e3-3f50-464b-b205-37b738369eeb","ios":"levelo://app?vid=329cd2e3-3f50-464b-b205-37b738369eeb"},"vehicle_type_id":"4","last_reported":1756473590,"current_range_meters":17600,"station_id":"ce4bhsh2rcd13ifvqi2g","pricing_plan_id":"cebpf4jnsgd1na2vs0mg"},{"bike_id":"fc9b7f13-7e12-4e22-a2e9-4d73e71fe40c","system_id":"levelo_inurba_marseille","lat":43.30148,"lon":5.37404,"is_reserved":false,"is_disabled":false,"rental_uris":{"android":"levelo://app?vid=fc9b7f13-7e12-4e22-a2e9-4d73e71fe40c","ios":"levelo://app?vid=fc9b7f13-7e12-4e22-a2e9-4d73e71fe40c"},"vehicle_type_id":"4","last_reported":1756473590,"current_range_meters":18000,"station_id":"","pricing_plan_id":"cebpf4jnsgd1na2vs0mg"},{"bike_id":"f323f60c-a8eb-4167-9ba5-4de67ab645c8","system_id":"levelo_inurba_marseille","lat":43.29015,"lon":5.35605,"is_reserved":false,"is_disabled":false,"rental_uris":{"android":"levelo://app?vid=f323f60c-a8eb-4167-9ba5-4de67ab645c8","ios":"levelo://app?vid=f323f60c-a8eb-4167-9ba5-4de67ab645c8"},"vehicle_type_id":"4","last_reported":1756473590,"current_range_meters":18000,"station_id":"ce4bhb92rcd13ifvqen0","pricing_plan_id":"cebpf4jnsgd1na2vs0mg"},{"bike_id":"21470764-19cc-4f8a-9c1b-ba7d5818fb4d","system_id":"levelo_inurba_marseille","lat":43.25586,"lon":5.38241,"is_reserved":false,"is_disabled":false,"rental_uris":{"android":"levelo://app?vid=21470764-19cc-4f8a-9c1b-ba7d5818fb4d","ios":"levelo://app?vid=21470764-19cc-4f8a-9c1b-ba7d5818fb4d"},"vehicle_type_id":"4","last_reported":1756473590,"current_range_meters":18000,"station_id":"ce4bhih2rcd13ifvqfs0","pricing_plan_id":"cebpf4jnsgd1na2vs0mg"},{"bike_id":"3568c133-6182-4c59-8486-eb2e6cab8363","system_id":"levelo_inurba_marseille","lat":43.211853,"lon":5.350703,"is_reserved":false,"is_disabled":false,"rental_uris":{"android":"levelo://app?vid=3568c133-6182-4c59-8486-eb2e6cab8363","ios":"levelo://app?vid=3568c133-6182-4c59-8486-eb2e6cab8363"},"vehicle_type_id":"4","last_reported":1756473590,"current_range_meters":18000,"station_id":"st_cvj6sg6p6f1abm77japg","pricing_plan_id":"cebpf4jnsgd1na2vs0mg"},{"bike_id":"bf5da871-5597-4dc4-84aa-617551895818","system_id":"levelo_inurba_marseille","lat":43.21194,"lon":5.35068,"is_reserved":false,"is_disabled":false,"rental_uris":{"android":"levelo://app?vid=bf5da871-5597-4dc4-84aa-617551895818","ios":"levelo://app?vid=bf5da871-5597-4dc4-84aa-617551895818"},"vehicle_type_id":"4","last_reported":1756473590,"current_range_meters":18000,"station_id":"st_cvj6sg6p6f1abm77japg","pricing_plan_id":"cebpf4jnsgd1na2vs0mg"},{"bike_id":"f9ae6c14-cd03-4c62-b600-9d6cc2d50a4c","system_id":"levelo_inurba_marseille","lat":43.283426,"lon":5.408014,"is_reserved":false,"is_disabled":false,"rental_uris":{"android":"levelo://app?vid=f9ae6c14-cd03-4c62-b600-9d6cc2d50a4c","ios":"levelo://app?vid=f9ae6c14-cd03-4c62-b600-9d6cc2d50a4c"},"vehicle_type_id":"4","last_reported":1756473590,"current_range_meters":18800,"station_id":"","pricing_plan_id":"cebpf4jnsgd1na2vs0mg"},{"bike_id":"3299d70d-6db5-4acc-b1bf-7d59befc567b","system_id":"levelo_inurba_marseille","lat":43.28036,"lon":5.36942,"is_reserved":false,"is_disabled":false,"rental_uris":{"android":"levelo://app?vid=3299d70d-6db5-4acc-b1bf-7d59befc567b","ios":"levelo://app?vid=3299d70d-6db5-4acc-b1bf-7d59befc567b"},"vehicle_type_id":"4","last_reported":1756473590,"current_range_meters":18800,"station_id":"ce4bha12rcd13ifvqef0","pricing_plan_id":"cebpf4jnsgd1na2vs0mg"},{"bike_id":"917618cc-9cd8-4988-81a3-2c26bb4f962e","system_id":"levelo_inurba_marseille","lat":43.28672,"lon":5.36356,"is_reserved":false,"is_disabled":false,"rental_uris":{"android":"levelo://app?vid=917618cc-9cd8-4988-81a3-2c26bb4f962e","ios":"levelo://app?vid=917618cc-9cd8-4988-81a3-2c26bb4f962e"},"vehicle_type_id":"4","last_reported":1756473590,"current_range_meters":18800,"station_id":"ce4bhah2rcd13ifvqej0","pricing_plan_id":"cebpf4jnsgd1na2vs0mg"},{"bike_id":"4040db22-9c50-4856-839c-7bfd3bdea085","system_id":"levelo_inurba_marseille","lat":43.284069,"lon":5.349826,"is_reserved":false,"is_disabled":false,"rental_uris":{"android":"levelo://app?vid=4040db22-9c50-4856-839c-7bfd3bdea085","ios":"levelo://app?vid=4040db22-9c50-4856-839c-7bfd3bdea085"},"vehicle_type_id":"4","last_reported":1756473590,"current_range_meters":18800,"station_id":"ce4bhbh2rcd13ifvqepg","pricing_plan_id":"cebpf4jnsgd1na2vs0mg"},{"bike_id":"b9ebb1f7-b5f7-4fe9-8574-9b05344be7d5","system_id":"levelo_inurba_marseille","lat":43.284152,"lon":5.350087,"is_reserved":false,"is_disabled":false,"rental_uris":{"android":"levelo://app?vid=b9ebb1f7-b5f7-4fe9-8574-9b05344be7d5","ios":"levelo://app?vid=b9ebb1f7-b5f7-4fe9-8574-9b05344be7d5"},"vehicle_type_id":"4","last_reported":1756473590,"current_range_meters":18800,"station_id":"ce4bhbh2rcd13ifvqepg","pricing_plan_id":"cebpf4jnsgd1na2vs0mg"},{"bike_id":"abf373b4-5fcc-40f8-9f6c-684a456ec134","system_id":"levelo_inurba_marseille","lat":43.26194,"lon":5.37448,"is_reserved":false,"is_disabled":false,"rental_uris":{"android":"levelo://app?vid=abf373b4-5fcc-40f8-9f6c-684a456ec134","ios":"levelo://app?vid=abf373b4-5fcc-40f8-9f6c-684a456ec134"},"vehicle_type_id":"4","last_reported":1756473590,"current_range_meters":18800,"station_id":"ce4bhgp2rcd13ifvqfc0","pricing_plan_id":"cebpf4jnsgd1na2vs0mg"},{"bike_id":"2615933f-2601-429f-b7e2-f4caf5921a92","system_id":"levelo_inurba_marseille","lat":43.24392,"lon":5.37054,"is_reserved":false,"is_disabled":false,"rental_uris":{"android":"levelo://app?vid=2615933f-2601-429f-b7e2-f4caf5921a92","ios":"levelo://app?vid=2615933f-2601-429f-b7e2-f4caf5921a92"},"vehicle_type_id":"4","last_reported":1756473590,"current_range_meters":18800,"station_id":"ce4bhhh2rcd13ifvqfk0","pricing_plan_id":"cebpf4jnsgd1na2vs0mg"},{"bike_id":"ec628058-d969-44c5-837e-24508f6409d5","system_id":"levelo_inurba_marseille","lat":43.23971,"lon":5.36628,"is_reserved":false,"is_disabled":false,"rental_uris":{"android":"levelo://app?vid=ec628058-d969-44c5-837e-24508f6409d5","ios":"levelo://app?vid=ec628058-d969-44c5-837e-24508f6409d5"},"vehicle_type_id":"4","last_reported":1756473590,"current_range_meters":18800,"station_id":"ce4bhi12rcd13ifvqfp0","pricing_plan_id":"cebpf4jnsgd1na2vs0mg"},{"bike_id":"01af93ea-aaef-4bab-8e92-aa34484261b9","system_id":"levelo_inurba_marseille","lat":43.25822,"lon":5.39437,"is_reserved":false,"is_disabled":false,"rental_uris":{"android":"levelo://app?vid=01af93ea-aaef-4bab-8e92-aa34484261b9","ios":"levelo://app?vid=01af93ea-aaef-4bab-8e92-aa34484261b9"},"vehicle_type_id":"4","last_reported":1756473590,"current_range_meters":18800,"station_id":"ce4bhip2rcd13ifvqft0","pricing_plan_id":"cebpf4jnsgd1na2vs0mg"},{"bike_id":"de56a6ed-197b-4141-bdca-e04b68b822ba","system_id":"levelo_inurba_marseille","lat":43.25827,"lon":5.394336,"is_reserved":false,"is_disabled":false,"rental_uris":{"android":"levelo://app?vid=de56a6ed-197b-4141-bdca-e04b68b822ba","ios":"levelo://app?vid=de56a6ed-197b-4141-bdca-e04b68b822ba"},"vehicle_type_id":"4","last_reported":1756473590,"current_range_meters":18800,"station_id":"ce4bhip2rcd13ifvqft0","pricing_plan_id":"cebpf4jnsgd1na2vs0mg"},{"bike_id":"05955278-86d9-47b6-8d3a-f6df9e3a30d4","system_id":"levelo_inurba_marseille","lat":43.321025,"lon":5.367645,"is_reserved":false,"is_disabled":false,"rental_uris":{"android":"levelo://app?vid=05955278-86d9-47b6-8d3a-f6df9e3a30d4","ios":"levelo://app?vid=05955278-86d9-47b6-8d3a-f6df9e3a30d4"},"vehicle_type_id":"4","last_reported":1756473590,"current_range_meters":18800,"station_id":"ce4bhrh2rcd13ifvqhug","pricing_plan_id":"cebpf4jnsgd1na2vs0mg"},