{"last_updated":1731319794,"ttl":60,"version":"2.2","data":{"bikes":[{"bike_id":"721fbd53-b0c5-4b4d-8347-51c88d10df20","system_id":"levelo_inurba_marseille","lat":43.24807,"lon":5.37451,"is_reserved":false,"is_disabled":false,"rental_uris":{"android":"levelo://app?vid=721fbd53-b0c5-4b4d-8347-51c88d10df20","ios":"levelo://app?vid=721fbd53-b0c5-4b4d-8347-51c88d10df20"},"vehicle_type_id":"4","last_reported":1731319794,"current_range_meters":36400,"station_id":"ce4bhgh2rcd13ifvqfb0","pricing_plan_id":"cebpf4jnsgd1na2vs0mg"},{"bike_id":"55f338da-564d-4339-bcb5-5d0a4b68c4e6","system_id":"levelo_inurba_marseille","lat":43.31067,"lon":5.40105,"is_reserved":false,"is_disabled":false,"rental_uris":{"android":"levelo://app?vid=55f338da-564d-4339-bcb5-5d0a4b68c4e6","ios":"levelo://app?vid=55f338da-564d-4339-bcb5-5d0a4b68c4e6"},"vehicle_type_id":"4","last_reported":1731319794,"current_range_meters":5600,"station_id":"","pricing_plan_id":"cebpf4jnsgd1na2vs0mg"},{"bike_id":"99018ac9-c2a2-4cb6-a769-f8628271ce5d","system_id":"levelo_inurba_marseille","lat":43.24997,"lon":5.3893,"is_reserved":false,"is_disabled":false,"rental_uris":{"android":"levelo://app?vid=99018ac9-c2a2-4cb6-a769-f8628271ce5d","ios":"levelo://app?vid=99018ac9-c2a2-4cb6-a769-f8628271ce5d"},"vehicle_type_id":"4","last_reported":1731319794,"current_range_meters":34800,"station_id":"ce4bhgp2rcd13ifvqfd0","pricing_plan_id":"cebpf4jnsgd1na2vs0mg"},{"bike_id":"799c57a5-480b-45b1-8c6f-37c8415a7992","system_id":"levelo_inurba_marseille","lat":43.29937,"lon":5.36537,"is_reserved":false,"is_disabled":false,"rental_uris":{"android":"levelo://app?vid=799c57a5-480b-45b1-8c6f-37c8415a7992","ios":"levelo://app?vid=799c57a5-480b-45b1-8c6f-37c8415a7992"},"vehicle_type_id":"4","last_reported":1731319794,"current_range_meters":19200,"station_id":"ce4bgm92rcd13ifvqbr0","pricing_plan_id":"cebpf4jnsgd1na2vs0mg"},{"bike_id":"4fef4701-0d86-4e0c-9971-790a51913c3c","system_id":"levelo_inurba_marseille","lat":43.23192,"lon":5.39989,"is_reserved":false,"is_disabled":false,"rental_uris":{"android":"levelo://app?vid=4fef4701-0d86-4e0c-9971-790a51913c3c","ios":"levelo://app?vid=4fef4701-0d86-4e0c-9971-790a51913c3c"},"vehicle_type_id":"4","last_reported":1731319794,"current_range_meters":13600,"station_id":"ce4bhn12rcd13ifvqgqg","pricing_plan_id":"cebpf4jnsgd1na2vs0mg"},{"bike_id":"5daf7e81-adca-4c69-ac49-7439dac41928","system_id":"levelo_inurba_marseille","lat":43.29552,"lon":5.4228,"is_reserved":false,"is_disabled":false,"rental_uris":{"android":"levelo://app?vid=5daf7e81-adca-4c69-ac49-7439dac41928","ios":"levelo://app?vid=5daf7e81-adca-4c69-ac49-7439dac41928"},"vehicle_type_id":"4","last_reported":1731319794,"current_range_meters":38400,"station_id":"ce4bhph2rcd13ifvqhdg","pricing_plan_id":"cebpf4jnsgd1na2vs0mg"},{"bike_id":"f3d63f4d-eadc-455d-b402-115d199e3de1","system_id":"levelo_inurba_marseille","lat":43.31085,"lon":5.424288,"is_reserved":false,"is_disabled":false,"rental_uris":{"android":"levelo://app?vid=f3d63f4d-eadc-455d-b402-115d199e3de1","ios":"levelo://app?vid=f3d63f4d-eadc-455d-b402-115d199e3de1"},"vehicle_type_id":"4","last_reported":1731319794,"current_range_meters":38800,"station_id":"ce4bhp92rcd13ifvqhag","pricing_plan_id":"cebpf4jnsgd1na2vs0mg"},{"bike_id":"b0436c84-a4da-4a3d-a57d-7a1a7366a2ae","system_id":"levelo_inurba_marseille","lat":43.28005,"lon":5.40003,"is_reserved":false,"is_disabled":false,"rental_uris":{"android":"levelo://app?vid=b0436c84-a4da-4a3d-a57d-7a1a7366a2ae","ios":"levelo://app?vid=b0436c84-a4da-4a3d-a57d-7a1a7366a2ae"},"vehicle_type_id":"4","last_reported":1731319794,"current_range_meters":38400,"station_id":"ce4bho92rcd13ifvqh4g","pricing_plan_id":"cebpf4jnsgd1na2vs0mg"},{"bike_id":"c5fbc992-37e6-4bc3-b7bf-85d16a572268","system_id":"levelo_inurba_marseille","lat":43.26202,"lon":5.37931,"is_reserved":false,"is_disabled":false,"rental_uris":{"android":"levelo://app?vid=c5fbc992-37e6-4bc3-b7bf-85d16a572268","ios":"levelo://app?vid=c5fbc992-37e6-4bc3-b7bf-85d16a572268"},"vehicle_type_id":"4","last_reported":1731319794,"current_range_meters":18800,"station_id":"ce4bhjp2rcd13ifvqg90","pricing_plan_id":"cebpf4jnsgd1na2vs0mg"},{"bike_id":"6d0d5526-2b6c-4eee-93d6-42c07dbe7b80","system_id":"levelo_inurba_marseille","lat":43.25502,"lon":5.37651,"is_reserved":false,"is_disabled":false,"rental_uris":{"android":"levelo://app?vid=6d0d5526-2b6c-4eee-93d6-42c07dbe7b80","ios":"levelo://app?vid=6d0d5526-2b6c-4eee-93d6-42c07dbe7b80"},"vehicle_type_id":"4","last_reported":1731319794,"current_range_meters":40000,"station_id":"ce4bhh12rcd13ifvqff0","pricing_plan_id":"cebpf4jnsgd1na2vs0mg"},{"bike_id":"5a6849c5-55c2-4a8f-857d-363fc7795416","system_id":"levelo_inurba_marseille","lat":43.24655,"lon":5.38884,"is_reserved":false,"is_disabled":false,"rental_uris":{"android":"levelo://app?vid=5a6849c5-55c2-4a8f-857d-363fc7795416","ios":"levelo://app?vid=5a6849c5-55c2-4a8f-857d-363fc7795416"},"vehicle_type_id":"4","last_reported":1731319794,"current_range_meters":38800,"station_id":"ce4bhg12rcd13ifvqf60","pricing_plan_id":"cebpf4jnsgd1na2vs0mg"},{"bike_id":"e01c4be5-4087-488f-8cc7-72e0b228c508","system_id":"levelo_inurba_marseille","lat":43.28266,"lon":5.35064,"is_reserved":false,"is_disabled":false,"rental_uris":{"android":"levelo://app?vid=e01c4be5-4087-488f-8cc7-72e0b228c508","ios":"levelo://app?vid=e01c4be5-4087-488f-8cc7-72e0b228c508"},"vehicle_type_id":"4","last_reported":1731319794,"current_range_meters":24000,"station_id":"ce4bhbp2rcd13ifvqerg","pricing_plan_id":"cebpf4jnsgd1na2vs0mg"},{"bike_id":"e190c251-c1a2-4778-a47b-9401734e23d6","system_id":"levelo_inurba_marseille","lat":43.26782,"lon":5.39413,"is_reserved":false,"is_disabled":false,"rental_uris":{"android":"levelo://app?vid=e190c251-c1a2-4778-a47b-9401734e23d6","ios":"levelo://app?vid=e190c251-c1a2-4778-a47b-9401734e23d6"},"vehicle_type_id":"4","last_reported":1731319794,"current_range_meters":28000,"station_id":"ce4bhh12rcd13ifvqfg0","pricing_plan_id":"cebpf4jnsgd1na2vs0mg"},{"bike_id":"2e6b7bf3-b679-4142-a6e1-3efd5b5248b2","system_id":"levelo_inurba_marseille","lat":43.29536,"lon":5.39396,"is_reserved":false,"is_disabled":false,"rental_uris":{"android":"levelo://app?vid=2e6b7bf3-b679-4142-a6e1-3efd5b5248b2","ios":"levelo://app?vid=2e6b7bf3-b679-4142-a6e1-3efd5b5248b2"},"vehicle_type_id":"4","last_reported":1731319794,"current_range_meters":35200,"station_id":"ce4bh292rcd13ifvqdf0","pricing_plan_id":"cebpf4jnsgd1na2vs0mg"},{"bike_id":"c4420a14-6996-4bf9-9be0-73c0d9dd550e","system_id":"levelo_inurba_marseille","lat":43.286102,"lon":5.370634,"is_reserved":false,"is_disabled":false,"rental_uris":{"android":"levelo://app?vid=c4420a14-6996-4bf9-9be0-73c0d9dd550e","ios":"levelo://app?vid=c4420a14-6996-4bf9-9be0-73c0d9dd550e"},"vehicle_type_id":"4","last_reported":1731319794,"current_range_meters":25600,"station_id":"ce4bht12rcd13ifvqi60","pricing_plan_id":"cebpf4jnsgd1na2vs0mg"},{"bike_id":"c64a503b-3178-4205-8b0b-5c7c6bca77dd","system_id":"levelo_inurba_marseille","lat":43.28113,"lon":5.37826,"is_reserved":false,"is_disabled":false,"rental_uris":{"android":"levelo://app?vid=c64a503b-3178-4205-8b0b-5c7c6bca77dd","ios":"levelo://app?vid=c64a503b-3178-4205-8b0b-5c7c6bca77dd"},"vehicle_type_id":"4","last_reported":1731319794,"current_range_meters":38800,"station_id":"ce4bha12rcd13ifvqee0","pricing_plan_id":"cebpf4jnsgd1na2vs0mg"},{"bike_id":"9919db7a-8b4f-4220-becb-f54e10b5b1b8","system_id":"levelo_inurba_marseille","lat":43.23058,"lon":5.35492,"is_reserved":false,"is_disabled":false,"rental_uris":{"android":"levelo://app?vid=9919db7a-8b4f-4220-becb-f54e10b5b1b8","ios":"levelo://app?vid=9919db7a-8b4f-4220-becb-f54e10b5b1b8"},"vehicle_type_id":"4","last_reported":1731319794,"current_range_meters":36800,"station_id":"cpo3342slgdg3j2ifvpg","pricing_plan_id":"cebpf4jnsgd1na2vs0mg"},{"bike_id":"bb785616-26a0-4eb0-931b-17957df5cea3","system_id":"levelo_inurba_marseille","lat":43.29556,"lon":5.42291,"is_reserved":false,"is_disabled":false,"rental_uris":{"android":"levelo://app?vid=bb785616-26a0-4eb0-931b-17957df5cea3","ios":"levelo://app?vid=bb785616-26a0-4eb0-931b-17957df5cea3"},"vehicle_type_id":"4","last_reported":1731319794,"current_range_meters":37600,"station_id":"ce4bhph2rcd13ifvqhdg","pricing_plan_id":"cebpf4jnsgd1na2vs0mg"},{"bike_id":"5a36db12-ce9e-4ccb-8f60-0eabb9325472","system_id":"levelo_inurba_marseille","lat":43.2927,"lon":5.36849,"is_reserved":false,"is_disabled":false,"rental_uris":{"android":"levelo://app?vid=5a36db12-ce9e-4ccb-8f60-0eabb9325472","ios":"levelo://app?vid=5a36db12-ce9e-4ccb-8f60-0eabb9325472"},"vehicle_type_id":"4","last_reported":1731319794,"current_range_meters":35600,"station_id":"ce4bhbp2rcd13ifvqesg","pricing_plan_id":"cebpf4jnsgd1na2vs0mg"},{"bike_id":"1ec31f50-d96c-47c6-9806-96f227089cd4","system_id":"levelo_inurba_marseille","lat":43.27491,"lon":5.42449,"is_reserved":false,"is_disabled":false,"rental_uris":{"android":"levelo://app?vid=1ec31f50-d96c-47c6-9806-96f227089cd4","ios":"levelo://app?vid=1ec31f50-d96c-47c6-9806-96f227089cd4"},"vehicle_type_id":"4","last_reported":1731319794,"current_range_meters":37600,"station_id":"ce4bhn92rcd13ifvqgrg","pricing_plan_id":"cebpf4jnsgd1na2vs0mg"},{"bike_id":"2e615b9f-6908-489d-89ae-ceb9f8fe9221","system_id":"levelo_inurba_marseille","lat":43.30137,"lon":5.37414,"is_reserved":false,"is_disabled":false,"rental_uris":{"android":"levelo://app?vid=2e615b9f-6908-489d-89ae-ceb9f8fe9221","ios":"levelo://app?vid=2e615b9f-6908-489d-89ae-ceb9f8fe9221"},"vehicle_type_id":"4","last_reported":1731319794,"current_range_meters":38800,"station_id":"ce4bgs92rcd13ifvqcc0","pricing_plan_id":"cebpf4jnsgd1na2vs0mg"},{"bike_id":"7eee3634-2dfc-42ba-9a2d-f9edef08447f","system_id":"levelo_inurba_marseille","lat":43.30141,"lon":5.37418,"is_reserved":false,"is_disabled":false,"rental_uris":{"android":"levelo://app?vid=7eee3634-2dfc-42ba-9a2d-f9edef08447f","ios":"levelo://app?vid=7eee3634-2dfc-42ba-9a2d-f9edef08447f"},"vehicle_type_id":"4","last_reported":1731319794,"current_range_meters":9600,"station_id":"ce4bgs92rcd13ifvqcc0","pricing_plan_id":"cebpf4jnsgd1na2vs0mg"},{"bike_id":"2ee32fd1-f8f7-4cea-a813-14501e29cb92","system_id":"levelo_inurba_marseille","lat":43.31702,"lon":5.43704,"is_reserved":false,"is_disabled":false,"rental_uris":{"android":"levelo://app?vid=2ee32fd1-f8f7-4cea-a813-14501e29cb92","ios":"levelo://app?vid=2ee32fd1-f8f7-4cea-a813-14501e29cb92"},"vehicle_type_id":"4","last_reported":1731319794,"current_range_meters":36800,"station_id":"ce4bhp92rcd13ifvqhcg","pricing_plan_id":"cebpf4jnsgd1na2vs0mg"},{"bike_id":"8b949a42-149c-4b95-8499-b2f5cd111d1a","system_id":"levelo_inurba_marseille","lat":43.32343,"lon":5.40614,"is_reserved":false,"is_disabled":false,"rental_uris":{"android":"levelo://app?vid=8b949a42-149c-4b95-8499-b2f5cd111d1a","ios":"levelo://app?vid=8b949a42-149c-4b95-8499-b2f5cd111d1a"},"vehicle_type_id":"4","last_reported":1731319794,"current_range_meters":7200,"station_id":"ce4bhq92rcd13ifvqhjg","pricing_plan_id":"cebpf4jnsgd1na2vs0mg"},{"bike_id":"7d91b179-09e6-48bf-be33-04a59a4fb389","system_id":"levelo_inurba_marseille","lat":43.26685,"lon":5.38269,"is_reserved":false,"is_disabled":false,"rental_uris":{"android":"levelo://app?vid=7d91b179-09e6-48bf-be33-04a59a4fb389","ios":"levelo://app?vid=7d91b179-09e6-48bf-be33-04a59a4fb389"},"vehicle_type_id":"4","last_reported":1731319794,"current_range_meters":32400,"station_id":"ce4bhg92rcd13ifvqf90","pricing_plan_id":"cebpf4jnsgd1na2vs0mg"},{"bike_id":"d8bd1daf-6dc2-4263-96ee-5e88d9ced855","system_id":"levelo_inurba_marseille","lat":43.2558,"lon":5.38231,"is_reserved":false,"is_disabled":false,"rental_uris":{"android":"levelo://app?vid=d8bd1daf-6dc2-4263-96ee-5e88d9ced855","ios":"levelo://app?vid=d8bd1daf-6dc2-4263-96ee-5e88d9ced855"},"vehicle_type_id":"4","last_reported":1731319794,"current_range_meters":38800,"station_id":"ce4bhih2rcd13ifvqfs0","pricing_plan_id":"cebpf4jnsgd1na2vs0mg"},{"bike_id":"504107e1-b958-483c-880e-16213edb01f2","system_id":"levelo_inurba_marseille","lat":43.25571,"lon":5.38249,"is_reserved":false,"is_disabled":false,"rental_uris":{"android":"levelo://app?vid=504107e1-b958-483c-880e-16213edb01f2","ios":"levelo://app?vid=504107e1-b958-483c-880e-16213edb01f2"},"vehicle_type_id":"4","last_reported":1731319794,"current_range_meters":20000,"station_id":"ce4bhih2rcd13ifvqfs0","pricing_plan_id":"cebpf4jnsgd1na2vs0mg"},{"bike_id":"0448c062-1b7c-4d5e-9a19-e85cd883f589","system_id":"levelo_inurba_marseille","lat":43.29916,"lon":5.3747,"is_reserved":false,"is_disabled":false,"rental_uris":{"android":"levelo://app?vid=0448c062-1b7c-4d5e-9a19-e85cd883f589","ios":"levelo://app?vid=0448c062-1b7c-4d5e-9a19-e85cd883f589"},"vehicle_type_id":"4","last_reported":1731319794,"current_range_meters":27200,"station_id":"ce4bgjh2rcd13ifvqbg0","pricing_plan_id":"cebpf4jnsgd1na2vs0mg"},{"bike_id":"c8d91525-1ae3-436d-89fc-f20985c98c61","system_id":"levelo_inurba_marseille","lat":43.26568,"lon":5.38999,"is_reserved":false,"is_disabled":false,"rental_uris":{"android":"levelo://app?vid=c8d91525-1ae3-436d-89fc-f20985c98c61","ios":"levelo://app?vid=c8d91525-1ae3-436d-89fc-f20985c98c61"},"vehicle_type_id":"4","last_reported":1731319794,"current_range_meters":33200,"station_id":"ce4bhe12rcd13ifvqf30","pricing_plan_id":"cebpf4jnsgd1na2vs0mg"},{"bike_id":"5b0de584-6db9-4580-a802-d62e7bbb015e","system_id":"levelo_inurba_marseille","lat":43.30547,"lon":5.38448,"is_reserved":false,"is_disabled":false,"rental_uris":{"android":"levelo://app?vid=5b0de584-6db9-4580-a802-d62e7bbb015e","ios":"levelo://app?vid=5b0de584-6db9-4580-a802-d62e7bbb015e"},"vehicle_type_id":"4","last_reported":1731319794,"current_range_meters":37600,"station_id":"ce4bgg92rcd13ifvqb30","pricing_plan_id":"cebpf4jnsgd1na2vs0mg"},{"bike_id":"9b3427b5-8835-4521-9768-5d8a9529e3ab","system_id":"levelo_inurba_marseille","lat":43.25497,"lon":5.37651,"is_reserved":false,"is_disabled":false,"rental_uris":{"android":"levelo://app?vid=9b3427b5-8835-4521-9768-5d8a9529e3ab","ios":"levelo://app?vid=9b3427b5-8835-4521-9768-5d8a9529e3ab"},"vehicle_type_id":"4","last_reported":1731319794,"current_range_meters":38800,"station_id":"ce4bhh12rcd13ifvqff0","pricing_plan_id":"cebpf4jnsgd1na2vs0mg"},{"bike_id":"5c6bd620-e988-4c0a-85cc-9c410af9b46f","system_id":"levelo_inurba_marseille","lat":43.29576,"lon":5.37509,"is_reserved":false,"is_disabled":false,"rental_uris":{"android":"levelo://app?vid=5c6bd620-e988-4c0a-85cc-9c410af9b46f","ios":"levelo://app?vid=5c6bd620-e988-4c0a-85cc-9c410af9b46f"},"vehicle_type_id":"4","last_reported":1731319794,"current_range_meters":34000,"station_id":"ce4bgh92rcd13ifvqb50","pricing_plan_id":"cebpf4jnsgd1na2vs0mg"},{"bike_id":"b079ea28-1615-441e-9a0f-5be72eba61d6","system_id":"levelo_inurba_marseille","lat":43.26934,"lon":5.40241,"is_reserved":false,"is_disabled":false,"rental_uris":{"android":"levelo://app?vid=b079ea28-1615-441e-9a0f-5be72eba61d6","ios":"levelo://app?vid=b079ea28-1615-441e-9a0f-5be72eba61d6"},"vehicle_type_id":"4","last_reported":1731319794,"current_range_meters":38000,"station_id":"cjm6bp8fraef2m0cb0m0","pricing_plan_id":"cebpf4jnsgd1na2vs0mg"},{"bike_id":"c9dc3638-765f-4950-908e-ff77d3df3d10","system_id":"levelo_inurba_marseille","lat":43.24804,"lon":5.37453,"is_reserved":false,"is_disabled":false,"rental_uris":{"android":"levelo://app?vid=c9dc3638-765f-4950-908e-ff77d3df3d10","ios":"levelo://app?vid=c9dc3638-765f-4950-908e-ff77d3df3d10"},"vehicle_type_id":"4","last_reported":1731319794,"current_range_meters":38400,"station_id":"ce4bhgh2rcd13ifvqfb0","pricing_plan_id":"cebpf4jnsgd1na2vs0mg"},{"bike_id":"b724e38a-f23b-44ed-a4fb-f947e98a6b95","system_id":"levelo_inurba_marseille","lat":43.31367,"lon":5.385,"is_reserved":false,"is_disabled":false,"rental_uris":{"android":"levelo://app?vid=b724e38a-f23b-44ed-a4fb-f947e98a6b95","ios":"levelo://app?vid=b724e38a-f23b-44ed-a4fb-f947e98a6b95"},"vehicle_type_id":"4","last_reported":1731319794,"current_range_meters":37600,"station_id":"ce4bgt92rcd13ifvqcf0","pricing_plan_id":"cebpf4jnsgd1na2vs0mg"},{"bike_id":"f669496d-fae4-44fd-8a51-586e76ca89f8","system_id":"levelo_inurba_marseille","lat":43.29356,"lon":5.3784,"is_reserved":false,"is_disabled":false,"rental_uris":{"android":"levelo://app?vid=f669496d-fae4-44fd-8a51-586e76ca89f8","ios":"levelo://app?vid=f669496d-fae4-44fd-8a51-586e76ca89f8"},"vehicle_type_id":"4","last_reported":1731319794,"current_range_meters":23200,"station_id":"ce4bhu92rcd13ifvqi70","pricing_plan_id":"cebpf4jnsgd1na2vs0mg"},{"bike_id":"333a8fd1-0af5-4d2d-8e99-f8610bc57a84","system_id":"levelo_inurba_marseille","lat":43.23969,"lon":5.3663,"is_reserved":false,"is_disabled":false,"rental_uris":{"android":"levelo://app?vid=333a8fd1-0af5-4d2d-8e99-f8610bc57a84","ios":"levelo://app?vid=333a8fd1-0af5-4d2d-8e99-f8610bc57a84"},"vehicle_type_id":"4","last_reported":1731319794,"current_range_meters":10800,"station_id":"ce4bhi12rcd13ifvqfp0","pricing_plan_id":"cebpf4jnsgd1na2vs0mg"},{"bike_id":"59338bcc-9c54-4bed-a291-e60f063b93bb","system_id":"levelo_inurba_marseille","lat":43.23153,"lon":5.43701,"is_reserved":false,"is_disabled":false,"rental_uris":{"android":"levelo://app?vid=59338bcc-9c54-4bed-a291-e60f063b93bb","ios":"levelo://app?vid=59338bcc-9c54-4bed-a291-e60f063b93bb"},"vehicle_type_id":"4","last_reported":1731319794,"current_range_meters":21600,"station_id":"ce4bhmp2rcd13ifvqgog","pricing_plan_id":"cebpf4jnsgd1na2vs0mg"},{"bike_id":"18d5ff18-ee9a-4b5a-a98a-19107d632506","system_id":"levelo_inurba_marseille","lat":43.2837,"lon":5.35287,"is_reserved":false,"is_disabled":false,"rental_uris":{"android":"levelo://app?vid=18d5ff18-ee9a-4b5a-a98a-19107d632506","ios":"levelo://app?vid=18d5ff18-ee9a-4b5a-a98a-19107d632506"},"vehicle_type_id":"4","last_reported":1731319794,"current_range_meters":35200,"station_id":"","pricing_plan_id":"cebpf4jnsgd1na2vs0mg"},{"bike_id":"1b801f9e-f843-4459-baf9-f66996adf626","system_id":"levelo_inurba_marseille","lat":43.32363,"lon":5.38875,"is_reserved":false,"is_disabled":false,"rental_uris":{"android":"levelo://app?vid=1b801f9e-f843-4459-baf9-f66996adf626","ios":"levelo://app?vid=1b801f9e-f843-4459-baf9-f66996adf626"},"vehicle_type_id":"4","last_reported":1731319794,"current_range_meters":19600,"station_id":"ce4bhqp2rcd13ifvqhog","pricing_plan_id":"cebpf4jnsgd1na2vs0mg"},{"bike_id":"f2f2ad49-af25-4b8e-8e5a-253d5f2d2ed5","system_id":"levelo_inurba_marseille","lat":43.28416,"lon":5.34992,"is_reserved":false,"is_disabled":false,"rental_uris":{"android":"levelo://app?vid=f2f2ad49-af25-4b8e-8e5a-253d5f2d2ed5","ios":"levelo://app?vid=f2f2ad49-af25-4b8e-8e5a-253d5f2d2ed5"},"vehicle_type_id":"4","last_reported":1731319794,"current_range_meters":32400,"station_id":"ce4bhbh2rcd13ifvqepg","pricing_plan_id":"cebpf4jnsgd1na2vs0mg"},{"bike_id":"2972f759-c98e-4fe7-9758-85d215895273","system_id":"levelo_inurba_marseille","lat":43.23967,"lon":5.36619,"is_reserved":false,"is_disabled":false,"rental_uris":{"android":"levelo://app?vid=2972f759-c98e-4fe7-9758-85d215895273","ios":"levelo://app?vid=2972f759-c98e-4fe7-9758-85d215895273"},"vehicle_type_id":"4","last_reported":1731319794,"current_range_meters":31200,"station_id":"ce4bhi12rcd13ifvqfp0","pricing_plan_id":"cebpf4jnsgd1na2vs0mg"},{"bike_id":"7caca810-d26c-40aa-88d0-45d5685da385","system_id":"levelo_inurba_marseille","lat":43.2707,"lon":5.42278,"is_reserved":false,"is_disabled":false,"rental_uris":{"android":"levelo://app?vid=7caca810-d26c-40aa-88d0-45d5685da385","ios":"levelo://app?vid=7caca810-d26c-40aa-88d0-45d5685da385"},"vehicle_type_id":"4","last_reported":1731319794,"current_range_meters":10800,"station_id":"ce4bhk92rcd13ifvqgb0","pricing_plan_id":"cebpf4jnsgd1na2vs0mg"},{"bike_id":"706b5eef-ae05-4377-a33d-d98da68cbe98","system_id":"levelo_inurba_marseille","lat":43.26552,"lon":5.37286,"is_reserved":false,"is_disabled":false,"rental_uris":{"android":"levelo://app?vid=706b5eef-ae05-4377-a33d-d98da68cbe98","ios":"levelo://app?vid=706b5eef-ae05-4377-a33d-d98da68cbe98"},"vehicle_type_id":"4","last_reported":1731319794,"current_range_meters":16400,"station_id":"ce4bhg12rcd13ifvqf70","pricing_plan_id":"cebpf4jnsgd1na2vs0mg"},{"bike_id":"780bcf66-46a9-4ab1-9166-c1a0e7a36da6","system_id":"levelo_inurba_marseille","lat":43.31362,"lon":5.36699,"is_reserved":false,"is_disabled":false,"rental_uris":{"android":"levelo://app?vid=780bcf66-46a9-4ab1-9166-c1a0e7a36da6","ios":"levelo://app?vid=780bcf66-46a9-4ab1-9166-c1a0e7a36da6"},"vehicle_type_id":"4","last_reported":1731319794,"current_range_meters":38800,"station_id":"ce4bgr92rcd13ifvqc6g","pricing_plan_id":"cebpf4jnsgd1na2vs0mg"},{"bike_id":"50e3e4e8-1e52-4f17-b15d-6c36ad0905f4","system_id":"levelo_inurba_marseille","lat":43.2762,"lon":5.36108,"is_reserved":false,"is_disabled":false,"rental_uris":{"android":"levelo://app?vid=50e3e4e8-1e52-4f17-b15d-6c36ad0905f4","ios":"levelo://app?vid=50e3e4e8-1e52-4f17-b15d-6c36ad0905f4"},"vehicle_type_id":"4","last_reported":1731319794,"current_range_meters":38800,"station_id":"ce4bgj92rcd13ifvqbe0","pricing_plan_id":"cebpf4jnsgd1na2vs0mg"},{"bike_id":"e0182193-fbf2-407b-8cdf-f40e07e0e9af","system_id":"levelo_inurba_marseille","lat":43.30154,"lon":5.37411,"is_reserved":false,"is_disabled":false,"rental_uris":{"android":"levelo://app?vid=e0182193-fbf2-407b-8cdf-f40e07e0e9af","ios":"levelo://app?vid=e0182193-fbf2-407b-8cdf-f40e07e0e9af"},"vehicle_type_id":"4","last_reported":1731319794,"current_range_meters":27600,"station_id":"ce4bgs92rcd13ifvqcc0","pricing_plan_id":"cebpf4jnsgd1na2vs0mg"},{"bike_id":"a6e8212c-758e-434c-9390-14bcd3a2bedd","system_id":"levelo_inurba_marseille","lat":43.2655,"lon":5.37283,"is_reserved":false,"is_disabled":false,"rental_uris":{"android":"levelo://app?vid=a6e8212c-758e-434c-9390-14bcd3a2bedd","ios":"levelo://app?vid=a6e8212c-758e-434c-9390-14bcd3a2bedd"},"vehicle_type_id":"4","last_reported":1731319794,"current_range_meters":19600,"station_id":"ce4bhg12rcd13ifvqf70","pricing_plan_id":"cebpf4jnsgd1na2vs0mg"},{"bike_id":"b70e5e0c-b305-497b-a613-678833a2146e","system_id":"levelo_inurba_marseille","lat":43.23151,"lon":5.43726,"is_reserved":false,"is_disabled":false,"rental_uris":{"android":"levelo://app?vid=b70e5e0c-b305-497b-a613-678833a2146e","ios":"levelo://app?vid=b70e5e0c-b305-497b-a613-678833a2146e"},"vehicle_type_id":"4","last_reported":1731319794,"current_range_meters":14000,"station_id":"ce4bhmp2rcd13ifvqgog","pricing_plan_id":"cebpf4jnsgd1na2vs0mg"},{"bike_id":"1e1f5cf6-34b1-4db7-9fe5-b0d48348a2fd","system_id":"levelo_inurba_marseille","lat":43.26954,"lon":5.38628,"is_reserved":false,"is_disabled":false,"rental_uris":{"android":"levelo://app?vid=1e1f5cf6-34b1-4db7-9fe5-b0d48348a2fd","ios":"levelo://app?vid=1e1f5cf6-34b1-4db7-9fe5-b0d48348a2fd"},"vehicle_type_id":"4","last_reported":1731319794,"current_range_meters":24400,"station_id":"ce4bhh92rcd13ifvqfh0","pricing_plan_id":"cebpf4jnsgd1na2vs0mg"},{"bike_id":"55bc1d4d-769e-430a-8524-e818a77ccb19","system_id":"levelo_inurba_marseille","lat":43.23149,"lon":5.43718,"is_reserved":false,"is_disabled":false,"rental_uris":{"android":"levelo://app?vid=55bc1d4d-769e-430a-8524-e818a77ccb19","ios":"levelo://app?vid=55bc1d4d-769e-430a-8524-e818a77ccb19"},"vehicle_type_id":"4","last_reported":1731319794,"current_range_meters":9200,"station_id":"ce4bhmp2rcd13ifvqgog","pricing_plan_id":"cebpf4jnsgd1na2vs0mg"},{"bike_id":"e2a1fa4f-e8fe-4ac5-a37a-0645c7d262ef","system_id":"levelo_inurba_marseille","lat":43.27998,"lon":5.40003,"is_reserved":false,"is_disabled":false,"rental_uris":{"android":"levelo://app?vid=e2a1fa4f-e8fe-4ac5-a37a-0645c7d262ef","ios":"levelo://app?vid=e2a1fa4f-e8fe-4ac5-a37a-0645c7d262ef"},"vehicle_type_id":"4","last_reported":1731319794,"current_range_meters":20400,"station_id":"ce4bho92rcd13ifvqh4g","pricing_plan_id":"cebpf4jnsgd1na2vs0mg"},{"bike_id":"3a74e668-c81c-4ede-a059-9116e8f90e9b","system_id":"levelo_inurba_marseille","lat":43.2315,"lon":5.43711,"is_reserved":false,"is_disabled":false,"rental_uris":{"android":"levelo://app?vid=3a74e668-c81c-4ede-a059-9116e8f90e9b","ios":"levelo://app?vid=3a74e668-c81c-4ede-a059-9116e8f90e9b"},"vehicle_type_id":"4","last_reported":1731319794,"current_range_meters":9200,"station_id":"ce4bhmp2rcd13ifvqgog","pricing_plan_id":"cebpf4jnsgd1na2vs0mg"},{"bike_id":"db6c793b-0e37-4812-ad9e-3db1732a770c","system_id":"levelo_inurba_marseille","lat":43.30313,"lon":5.36882,"is_reserved":false,"is_disabled":false,"rental_uris":{"android":"levelo://app?vid=db6c793b-0e37-4812-ad9e-3db1732a770c","ios":"levelo://app?vid=db6c793b-0e37-4812-ad9e-3db1732a770c"},"vehicle_type_id":"4","last_reported":1731319794,"current_range_meters":38400,"station_id":"ce4bgqh2rcd13ifvqc5g","pricing_plan_id":"cebpf4jnsgd1na2vs0mg"},{"bike_id":"b7af9e15-375a-4144-a04e-631555547d55","system_id":"levelo_inurba_marseille","lat":43.24996,"lon":5.38931,"is_reserved":false,"is_disabled":false,"rental_uris":{"android":"levelo://app?vid=b7af9e15-375a-4144-a04e-631555547d55","ios":"levelo://app?vid=b7af9e15-375a-4144-a04e-631555547d55"},"vehicle_type_id":"4","last_reported":1731319794,"current_range_meters":14400,"station_id":"ce4bhgp2rcd13ifvqfd0","pricing_plan_id":"cebpf4jnsgd1na2vs0mg"},{"bike_id":"eb7f2906-b458-476c-9daa-9e60c1ee4455","system_id":"levelo_inurba_marseille","lat":43.28155,"lon":5.42634,"is_reserved":false,"is_disabled":false,"rental_uris":{"android":"levelo://app?vid=eb7f2906-b458-476c-9daa-9e60c1ee4455","ios":"levelo://app?vid=eb7f2906-b458-476c-9daa-9e60c1ee4455"},"vehicle_type_id":"4","last_reported":1731319794,"current_range_meters":38800,"station_id":"ce4bhnh2rcd13ifvqgug","pricing_plan_id":"cebpf4jnsgd1na2vs0mg"},{"bike_id":"253356f7-26d6-4e01-be18-b70450141aab","system_id":"levelo_inurba_marseille","lat":43.30883,"lon":5.37183,"is_reserved":false,"is_disabled":false,"rental_uris":{"android":"levelo://app?vid=253356f7-26d6-4e01-be18-b70450141aab","ios":"levelo://app?vid=253356f7-26d6-4e01-be18-b70450141aab"},"vehicle_type_id":"4","last_reported":1731319794,"current_range_meters":38800,"station_id":"ce4bguh2rcd13ifvqckg","pricing_plan_id":"cebpf4jnsgd1na2vs0mg"},{"bike_id":"080cc1bd-5920-425e-a2fd-72b7aea29340","system_id":"levelo_inurba_marseille","lat":43.30541,"lon":5.36555,"is_reserved":false,"is_disabled":false,"rental_uris":{"android":"levelo://app?vid=080cc1bd-5920-425e-a2fd-72b7aea29340","ios":"levelo://app?vid=080cc1bd-5920-425e-a2fd-72b7aea29340"},"vehicle_type_id":"4","last_reported":1731319794,"current_range_meters":32000,"station_id":"ce4bgs12rcd13ifvqcag","pricing_plan_id":"cebpf4jnsgd1na2vs0mg"},{"bike_id":"606120ec-c12c-47f4-b7e9-0220feacd55e","system_id":"levelo_inurba_marseille","lat":43.25868,"lon":5.39898,"is_reserved":false,"is_disabled":false,"rental_uris":{"android":"levelo://app?vid=606120ec-c12c-47f4-b7e9-0220feacd55e","ios":"levelo://app?vid=606120ec-c12c-47f4-b7e9-0220feacd55e"},"vehicle_type_id":"4","last_reported":1731319794,"current_range_meters":37600,"station_id":"ce4bhl92rcd13ifvqghg","pricing_plan_id":"cebpf4jnsgd1na2vs0mg"},{"bike_id":"a8411e45-d741-49af-bae3-6b83ebf0b203","system_id":"levelo_inurba_marseille","lat":43.27492,"lon":5.42444,"is_reserved":false,"is_disabled":false,"rental_uris":{"android":"levelo://app?vid=a8411e45-d741-49af-bae3-6b83ebf0b203","ios":"levelo://app?vid=a8411e45-d741-49af-bae3-6b83ebf0b203"},"vehicle_type_id":"4","last_reported":1731319794,"current_range_meters":40000,"station_id":"ce4bhn92rcd13ifvqgrg","pricing_plan_id":"cebpf4jnsgd1na2vs0mg"},{"bike_id":"4c821173-a17b-49e1-98f6-728f4310447d","system_id":"levelo_inurba_marseille","lat":43.30467,"lon":5.37899,"is_reserved":false,"is_disabled":false,"rental_uris":{"android":"levelo://app?vid=4c821173-a17b-49e1-98f6-728f4310447d","ios":"levelo://app?vid=4c821173-a17b-49e1-98f6-728f4310447d"},"vehicle_type_id":"4","last_reported":1731319794,"current_range_meters":23200,"station_id":"ce4bgup2rcd13ifvqcn0","pricing_plan_id":"cebpf4jnsgd1na2vs0mg"},{"bike_id":"f5f7adb1-08a0-41e5-84f8-4eacbb87fa6f","system_id":"levelo_inurba_marseille","lat":43.23967,"lon":5.36631,"is_reserved":false,"is_disabled":false,"rental_uris":{"android":"levelo://app?vid=f5f7adb1-08a0-41e5-84f8-4eacbb87fa6f","ios":"levelo://app?vid=f5f7adb1-08a0-41e5-84f8-4eacbb87fa6f"},"vehicle_type_id":"4","last_reported":1731319794,"current_range_meters":38800,"station_id":"ce4bhi12rcd13ifvqfp0","pricing_plan_id":"cebpf4jnsgd1na2vs0mg"},{"bike_id":"851779bb-3e79-4286-ac84-8245b0f01285","system_id":"levelo_inurba_marseille","lat":43.2455,"lon":5.39521,"is_reserved":false,"is_disabled":false,"rental_uris":{"android":"levelo://app?vid=851779bb-3e79-4286-ac84-8245b0f01285","ios":"levelo://app?vid=851779bb-3e79-4286-ac84-8245b0f01285"},"vehicle_type_id":"4","last_reported":1731319794,"current_range_meters":39200,"station_id":"ce4bhlp2rcd13ifvqgjg","pricing_plan_id":"cebpf4jnsgd1na2vs0mg"},{"bike_id":"b92d2a3f-978b-4cd3-bb47-9b2b9136b38a","system_id":"levelo_inurba_marseille","lat":43.26194,"lon":5.37444,"is_reserved":false,"is_disabled":false,"rental_uris":{"android":"levelo://app?vid=b92d2a3f-978b-4cd3-bb47-9b2b9136b38a","ios":"levelo://app?vid=b92d2a3f-978b-4cd3-bb47-9b2b9136b38a"},"vehicle_type_id":"4","last_reported":1731319794,"current_range_meters":32000,"station_id":"ce4bhgp2rcd13ifvqfc0","pricing_plan_id":"cebpf4jnsgd1na2vs0mg"},{"bike_id":"c8bb073a-8665-4e1f-8f4c-13394d33d8df","system_id":"levelo_inurba_marseille","lat":43.33607,"lon":5.41024,"is_reserved":false,"is_disabled":false,"rental_uris":{"android":"levelo://app?vid=c8bb073a-8665-4e1f-8f4c-13394d33d8df","ios":"levelo://app?vid=c8bb073a-8665-4e1f-8f4c-13394d33d8df"},"vehicle_type_id":"4","last_reported":1731319794,"current_range_meters":8000,"station_id":"ce4bhqh2rcd13ifvqhmg","pricing_plan_id":"cebpf4jnsgd1na2vs0mg"},{"bike_id":"22fde622-bda5-436c-8007-ac73ff8037b3","system_id":"levelo_inurba_marseille","lat":43.280026,"lon":5.41644,"is_reserved":false,"is_disabled":false,"rental_uris":{"android":"levelo://app?vid=22fde622-bda5-436c-8007-ac73ff8037b3","ios":"levelo://app?vid=22fde622-bda5-436c-8007-ac73ff8037b3"},"vehicle_type_id":"4","last_reported":1731319794,"current_range_meters":36800,"station_id":"ce4bho12rcd13ifvqh1g","pricing_plan_id":"cebpf4jnsgd1na2vs0mg"},{"bike_id":"fe444b42-d52a-4cc4-b485-176af1ee08ea","system_id":"levelo_inurba_marseille","lat":43.29037,"lon":5.38645,"is_reserved":false,"is_disabled":false,"rental_uris":{"android":"levelo://app?vid=fe444b42-d52a-4cc4-b485-176af1ee08ea","ios":"levelo://app?vid=fe444b42-d52a-4cc4-b485-176af1ee08ea"},"vehicle_type_id":"4","last_reported":1731319794,"current_range_meters":28400,"station_id":"ce4bh4p2rcd13ifvqe0g","pricing_plan_id":"cebpf4jnsgd1na2vs0mg"},{"bike_id":"c28c30a0-39dd-4299-a220-222985df9d05","system_id":"levelo_inurba_marseille","lat":43.34141,"lon":5.40908,"is_reserved":false,"is_disabled":false,"rental_uris":{"android":"levelo://app?vid=c28c30a0-39dd-4299-a220-222985df9d05","ios":"levelo://app?vid=c28c30a0-39dd-4299-a220-222985df9d05"},"vehicle_type_id":"4","last_reported":1731319794,"current_range_meters":30400,"station_id":"ce4bhqh2rcd13ifvqhlg","pricing_plan_id":"cebpf4jnsgd1na2vs0mg"},{"bike_id":"bab57586-1b68-4e15-84e9-7d7b9cdc5bab","system_id":"levelo_inurba_marseille","lat":43.30311,"lon":5.36886,"is_reserved":false,"is_disabled":false,"rental_uris":{"android":"levelo://app?vid=bab57586-1b68-4e15-84e9-7d7b9cdc5bab","ios":"levelo://app?vid=bab57586-1b68-4e15-84e9-7d7b9cdc5bab"},"vehicle_type_id":"4","last_reported":1731319794,"current_range_meters":38400,"station_id":"ce4bgqh2rcd13ifvqc5g","pricing_plan_id":"cebpf4jnsgd1na2vs0mg"},{"bike_id":"53752c0d-667a-4909-b68f-eb135379958b","system_id":"levelo_inurba_marseille","lat":43.2681,"lon":5.40264,"is_reserved":false,"is_disabled":false,"rental_uris":{"android":"levelo://app?vid=53752c0d-667a-4909-b68f-eb135379958b","ios":"levelo://app?vid=53752c0d-667a-4909-b68f-eb135379958b"},"vehicle_type_id":"4","last_reported":1731319794,"current_range_meters":26000,"station_id":"ce501612rcd8frsf0b60","pricing_plan_id":"cebpf4jnsgd1na2vs0mg"},{"bike_id":"85e2f4f3-6aa2-4c02-8cb0-3f10017cc61a","system_id":"levelo_inurba_marseille","lat":43.25081,"lon":5.39508,"is_reserved":false,"is_disabled":false,"rental_uris":{"android":"levelo://app?vid=85e2f4f3-6aa2-4c02-8cb0-3f10017cc61a","ios":"levelo://app?vid=85e2f4f3-6aa2-4c02-8cb0-3f10017cc61a"},"vehicle_type_id":"4","last_reported":1731319794,"current_range_meters":40000,"station_id":"ce4bhm12rcd13ifvqgkg","pricing_plan_id":"cebpf4jnsgd1na2vs0mg"},{"bike_id":"204e2a51-b828-4f56-981c-86423210c129","system_id":"levelo_inurba_marseille","lat":43.31341,"lon":5.36712,"is_reserved":false,"is_disabled":false,"rental_uris":{"android":"levelo://app?vid=204e2a51-b828-4f56-981c-86423210c129","ios":"levelo://app?vid=204e2a51-b828-4f56-981c-86423210c129"},"vehicle_type_id":"4","last_reported":1731319794,"current_range_meters":34800,"station_id":"ce4bgr92rcd13ifvqc6g","pricing_plan_id":"cebpf4jnsgd1na2vs0mg"},{"bike_id":"58ac37b7-fac0-457b-914f-13e1a481b5c5","system_id":"levelo_inurba_marseille","lat":43.27369,"lon":5.36249,"is_reserved":false,"is_disabled":false,"rental_uris":{"android":"levelo://app?vid=58ac37b7-fac0-457b-914f-13e1a481b5c5","ios":"levelo://app?vid=58ac37b7-fac0-457b-914f-13e1a481b5c5"},"vehicle_type_id":"4","last_reported":1731319794,"current_range_meters":25600,"station_id":"ce4bhbh2rcd13ifvqeo0","pricing_plan_id":"cebpf4jnsgd1na2vs0mg"},{"bike_id":"1348ab3b-862b-4b63-9222-197e3ceb49e1","system_id":"levelo_inurba_marseille","lat":43.25491,"lon":5.37645,"is_reserved":false,"is_disabled":false,"rental_uris":{"android":"levelo://app?vid=1348ab3b-862b-4b63-9222-197e3ceb49e1","ios":"levelo://app?vid=1348ab3b-862b-4b63-9222-197e3ceb49e1"},"vehicle_type_id":"4","last_reported":1731319794,"current_range_meters":10800,"station_id":"ce4bhh12rcd13ifvqff0","pricing_plan_id":"cebpf4jnsgd1na2vs0mg"},{"bike_id":"02e5dafe-fcef-4405-9cf5-47651341713d","system_id":"levelo_inurba_marseille","lat":43.24166,"lon":5.36393,"is_reserved":false,"is_disabled":false,"rental_uris":{"android":"levelo://app?vid=02e5dafe-fcef-4405-9cf5-47651341713d","ios":"levelo://app?vid=02e5dafe-fcef-4405-9cf5-47651341713d"},"vehicle_type_id":"4","last_reported":1731319794,"current_range_meters":4000,"station_id":"cpo36qri1sfpv3e86is0","pricing_plan_id":"cebpf4jnsgd1na2vs0mg"},{"bike_id":"1738d94f-8cb1-44cf-affb-0b3bc5528744","system_id":"levelo_inurba_marseille","lat":43.31725,"lon":5.42399,"is_reserved":false,"is_disabled":false,"rental_uris":{"android":"levelo://app?vid=1738d94f-8cb1-44cf-affb-0b3bc5528744","ios":"levelo://app?vid=1738d94f-8cb1-44cf-affb-0b3bc5528744"},"vehicle_type_id":"4","last_reported":1731319794,"current_range_meters":21600,"station_id":"ce4bhp92rcd13ifvqhbg","pricing_plan_id":"cebpf4jnsgd1na2vs0mg"},{"bike_id":"f60ec505-b2fe-4cb1-872c-e87e816b1d0b","system_id":"levelo_inurba_marseille","lat":43.30316,"lon":5.36898,"is_reserved":false,"is_disabled":false,"rental_uris":{"android":"levelo://app?vid=f60ec505-b2fe-4cb1-872c-e87e816b1d0b","ios":"levelo://app?vid=f60ec505-b2fe-4cb1-872c-e87e816b1d0b"},"vehicle_type_id":"4","last_reported":1731319794,"current_range_meters":28000,"station_id":"ce4bgqh2rcd13ifvqc5g","pricing_plan_id":"cebpf4jnsgd1na2vs0mg"},{"bike_id":"90808778-2072-4ffa-8f46-c3371f0c26ba","system_id":"levelo_inurba_marseille","lat":43.3091,"lon":5.36849,"is_reserved":false,"is_disabled":false,"rental_uris":{"android":"levelo://app?vid=90808778-2072-4ffa-8f46-c3371f0c26ba","ios":"levelo://app?vid=90808778-2072-4ffa-8f46-c3371f0c26ba"},"vehicle_type_id":"4","last_reported":1731319794,"current_range_meters":38000,"station_id":"ce4bgn92rcd13ifvqbvg","pricing_plan_id":"cebpf4jnsgd1na2vs0mg"},{"bike_id":"02938619-dc4a-42b4-b89b-878c0e7a7c57","system_id":"levelo_inurba_marseille","lat":43.29513,"lon":5.37505,"is_reserved":false,"is_disabled":false,"rental_uris":{"android":"levelo://app?vid=02938619-dc4a-42b4-b89b-878c0e7a7c57","ios":"levelo://app?vid=02938619-dc4a-42b4-b89b-878c0e7a7c57"},"vehicle_type_id":"4","last_reported":1731319794,"current_range_meters":38400,"station_id":"ce4bgkp2rcd13ifvqbmg","pricing_plan_id":"cebpf4jnsgd1na2vs0mg"},{"bike_id":"47c8651c-41a7-4b07-b3d0-de53e215e982","system_id":"levelo_inurba_marseille","lat":43.33602,"lon":5.41026,"is_reserved":false,"is_disabled":false,"rental_uris":{"android":"levelo://app?vid=47c8651c-41a7-4b07-b3d0-de53e215e982","ios":"levelo://app?vid=47c8651c-41a7-4b07-b3d0-de53e215e982"},"vehicle_type_id":"4","last_reported":1731319794,"current_range_meters":11600,"station_id":"ce4bhqh2rcd13ifvqhmg","pricing_plan_id":"cebpf4jnsgd1na2vs0mg"},{"bike_id":"8bac9053-3887-4a8c-beaf-c9a3ca84e1f9","system_id":"levelo_inurba_marseille","lat":43.29911,"lon":5.37439,"is_reserved":false,"is_disabled":false,"rental_uris":{"android":"levelo://app?vid=8bac9053-3887-4a8c-beaf-c9a3ca84e1f9","ios":"levelo://app?vid=8bac9053-3887-4a8c-beaf-c9a3ca84e1f9"},"vehicle_type_id":"4","last_reported":1731319794,"current_range_meters":35600,"station_id":"ce4bgjh2rcd13ifvqbg0","pricing_plan_id":"cebpf4jnsgd1na2vs0mg"},{"bike_id":"921beea4-f85d-4bd8-9429-a2e1b8a4ff1b","system_id":"levelo_inurba_marseille","lat":43.23185,"lon":5.39976,"is_reserved":false,"is_disabled":false,"rental_uris":{"android":"levelo://app?vid=921beea4-f85d-4bd8-9429-a2e1b8a4ff1b","ios":"levelo://app?vid=921beea4-f85d-4bd8-9429-a2e1b8a4ff1b"},"vehicle_type_id":"4","last_reported":1731319794,"current_range_meters":38800,"station_id":"ce4bha12rcd13ifvqee0","pricing_plan_id":"cebpf4jnsgd1na2vs0mg"},{"bike_id":"500cbc7e-5d5c-4fc3-b7c8-070be6a3ab71","system_id":"levelo_inurba_marseille","lat":43.26551,"lon":5.37291,"is_reserved":false,"is_disabled":false,"rental_uris":{"android":"levelo://app?vid=500cbc7e-5d5c-4fc3-b7c8-070be6a3ab71","ios":"levelo://app?vid=500cbc7e-5d5c-4fc3-b7c8-070be6a3ab71"},"vehicle_type_id":"4","last_reported":1731319794,"current_range_meters":27600,"station_id":"ce4bhg12rcd13ifvqf70","pricing_plan_id":"cebpf4jnsgd1na2vs0mg"},{"bike_id":"89a934bf-3f12-402e-a4e4-ef91851cbf7b","system_id":"levelo_inurba_marseille","lat":43.2558,"lon":5.38233,"is_reserved":false,"is_disabled":false,"rental_uris":{"android":"levelo://app?vid=89a934bf-3f12-402e-a4e4-ef91851cbf7b","ios":"levelo://app?vid=89a934bf-3f12-402e-a4e4-ef91851cbf7b"},"vehicle_type_id":"4","last_reported":1731319794,"current_range_meters":36000,"station_id":"ce4bhih2rcd13ifvqfs0","pricing_plan_id":"cebpf4jnsgd1na2vs0mg"},{"bike_id":"b8cdbc72-fb69-4a3a-8350-1fcbc7da926b","system_id":"levelo_inurba_marseille","lat":43.25869,"lon":5.39893,"is_reserved":false,"is_disabled":false,"rental_uris":{"android":"levelo://app?vid=b8cdbc72-fb69-4a3a-8350-1fcbc7da926b","ios":"levelo://app?vid=b8cdbc72-fb69-4a3a-8350-1fcbc7da926b"},"vehicle_type_id":"4","last_reported":1731319794,"current_range_meters":37600,"station_id":"ce4bhl92rcd13ifvqghg","pricing_plan_id":"cebpf4jnsgd1na2vs0mg"},{"bike_id":"ca6bc757-afb2-47ae-8348-d50290e625d2","system_id":"levelo_inurba_marseille","lat":43.2481,"lon":5.37453,"is_reserved":false,"is_disabled":false,"rental_uris":{"android":"levelo://app?vid=ca6bc757-afb2-47ae-8348-d50290e625d2","ios":"levelo://app?vid=ca6bc757-afb2-47ae-8348-d50290e625d2"},"vehicle_type_id":"4","last_reported":1731319794,"current_range_meters":30000,"station_id":"ce4bhgh2rcd13ifvqfb0","pricing_plan_id":"cebpf4jnsgd1na2vs0mg"},{"bike_id":"6480a6ab-c423-492a-951c-8714f119eeac","system_id":"levelo_inurba_marseille","lat":43.26557,"lon":5.3728,"is_reserved":false,"is_disabled":false,"rental_uris":{"android":"levelo://app?vid=6480a6ab-c423-492a-951c-8714f119eeac","ios":"levelo://app?vid=6480a6ab-c423-492a-951c-8714f119eeac"},"vehicle_type_id":"4","last_reported":1731319794,"current_range_meters":12800,"station_id":"ce4bhg12rcd13ifvqf70","pricing_plan_id":"cebpf4jnsgd1na2vs0mg"},{"bike_id":"ee286e96-20bc-4b40-9aae-96022d797427","system_id":"levelo_inurba_marseille","lat":43.29783,"lon":5.37097,"is_reserved":false,"is_disabled":false,"rental_uris":{"android":"levelo://app?vid=ee286e96-20bc-4b40-9aae-96022d797427","ios":"levelo://app?vid=ee286e96-20bc-4b40-9aae-96022d797427"},"vehicle_type_id":"4","last_reported":1731319794,"current_range_meters":38400,"station_id":"ce4bgop2rcd13ifvqc1g","pricing_plan_id":"cebpf4jnsgd1na2vs0mg"},{"bike_id":"b7be4a98-cbde-46fb-9668-ebdb296d0759","system_id":"levelo_inurba_marseille","lat":43.26504,"lon":5.3954,"is_reserved":false,"is_disabled":false,"rental_uris":{"android":"levelo://app?vid=b7be4a98-cbde-46fb-9668-ebdb296d0759","ios":"levelo://app?vid=b7be4a98-cbde-46fb-9668-ebdb296d0759"},"vehicle_type_id":"4","last_reported":1731319794,"current_range_meters":30000,"station_id":"ce4bhi12rcd13ifvqfq0","pricing_plan_id":"cebpf4jnsgd1na2vs0mg"},{"bike_id":"00079633-0204-49b0-9404-0f1d9390baca","system_id":"levelo_inurba_marseille","lat":43.24803,"lon":5.37458,"is_reserved":false,"is_disabled":false,"rental_uris":{"android":"levelo://app?vid=00079633-0204-49b0-9404-0f1d9390baca","ios":"levelo://app?vid=00079633-0204-49b0-9404-0f1d9390baca"},"vehicle_type_id":"4","last_reported":1731319794,"current_range_meters":38800,"station_id":"ce4bhgh2rcd13ifvqfb0","pricing_plan_id":"cebpf4jnsgd1na2vs0mg"},{"bike_id":"e738de8b-a66f-4c15-a663-5e44be3697c6","system_id":"levelo_inurba_marseille","lat":43.27321,"lon":5.39092,"is_reserved":false,"is_disabled":false,"rental_uris":{"android":"levelo://app?vid=e738de8b-a66f-4c15-a663-5e44be3697c6","ios":"levelo://app?vid=e738de8b-a66f-4c15-a663-5e44be3697c6"},"vehicle_type_id":"4","last_reported":1731319794,"current_range_meters":35600,"station_id":"ce4bhgp2rcd13ifvqfe0","pricing_plan_id":"cebpf4jnsgd1na2vs0mg"},{"bike_id":"73619afc-53d2-47fd-88cb-f63eec41bd94","system_id":"levelo_inurba_marseille","lat":43.2992,"lon":5.37485,"is_reserved":false,"is_disabled":false,"rental_uris":{"android":"levelo://app?vid=73619afc-53d2-47fd-88cb-f63eec41bd94","ios":"levelo://app?vid=73619afc-53d2-47fd-88cb-f63eec41bd94"},"vehicle_type_id":"4","last_reported":1731319794,"current_range_meters":30000,"station_id":"ce4bgjh2rcd13ifvqbg0","pricing_plan_id":"cebpf4jnsgd1na2vs0mg"},{"bike_id":"d205b9f3-5ec8-4dc0-bbd8-2595e44a413e","system_id":"levelo_inurba_marseille","lat":43.27071,"lon":5.42275,"is_reserved":false,"is_disabled":false,"rental_uris":{"android":"levelo://app?vid=d205b9f3-5ec8-4dc0-bbd8-2595e44a413e","ios":"levelo://app?vid=d205b9f3-5ec8-4dc0-bbd8-2595e44a413e"},"vehicle_type_id":"4","last_reported":1731319794,"current_range_meters":36800,"station_id":"ce4bhk92rcd13ifvqgb0","pricing_plan_id":"cebpf4jnsgd1na2vs0mg"},{"bike_id":"e7edad55-5481-412e-a2e7-f98a65efe8b7","system_id":"levelo_inurba_marseille","lat":43.28102,"lon":5.3783,"is_reserved":false,"is_disabled":false,"rental_uris":{"android":"levelo://app?vid=e7edad55-5481-412e-a2e7-f98a65efe8b7","ios":"levelo://app?vid=e7edad55-5481-412e-a2e7-f98a65efe8b7"},"vehicle_type_id":"4","last_reported":1731319794,"current_range_meters":38800,"station_id":"ce4bha12rcd13ifvqee0","pricing_plan_id":"cebpf4jnsgd1na2vs0mg"},{"bike_id":"e17bfe40-b34e-41bd-9664-3f885a4b238b","system_id":"levelo_inurba_marseille","lat":43.290178,"lon":5.399787,"is_reserved":false,"is_disabled":false,"rental_uris":{"android":"levelo://app?vid=e17bfe40-b34e-41bd-9664-3f885a4b238b","ios":"levelo://app?vid=e17bfe40-b34e-41bd-9664-3f885a4b238b"},"vehicle_type_id":"4","last_reported":1731319794,"current_range_meters":23200,"station_id":"ce4bh392rcd13ifvqdm0","pricing_plan_id":"cebpf4jnsgd1na2vs0mg"},{"bike_id":"373be1d5-bc96-4dee-9988-589763b86c75","system_id":"levelo_inurba_marseille","lat":43.29552,"lon":5.42289,"is_reserved":false,"is_disabled":false,"rental_uris":{"android":"levelo://app?vid=373be1d5-bc96-4dee-9988-589763b86c75","ios":"levelo://app?vid=373be1d5-bc96-4dee-9988-589763b86c75"},"vehicle_type_id":"4","last_reported":1731319794,"current_range_meters":18000,"station_id":"ce4bhph2rcd13ifvqhdg","pricing_plan_id":"cebpf4jnsgd1na2vs0mg"},{"bike_id":"4b53c73b-555f-42e8-90ce-4cd91ba65607","system_id":"levelo_inurba_marseille","lat":43.31763,"lon":5.39018,"is_reserved":false,"is_disabled":false,"rental_uris":{"android":"levelo://app?vid=4b53c73b-555f-42e8-90ce-4cd91ba65607","ios":"levelo://app?vid=4b53c73b-555f-42e8-90ce-4cd91ba65607"},"vehicle_type_id":"4","last_reported":1731319794,"current_range_meters":38800,"station_id":"ce4bhqp2rcd13ifvqhng","pricing_plan_id":"cebpf4jnsgd1na2vs0mg"},{"bike_id":"e38b52d1-15e9-48bd-9534-25aba6fa58cc","system_id":"levelo_inurba_marseille","lat":43.29583,"lon":5.37505,"is_reserved":false,"is_disabled":false,"rental_uris":{"android":"levelo://app?vid=e38b52d1-15e9-48bd-9534-25aba6fa58cc","ios":"levelo://app?vid=e38b52d1-15e9-48bd-9534-25aba6fa58cc"},"vehicle_type_id":"4","last_reported":1731319794,"current_range_meters":32800,"station_id":"ce4bgh92rcd13ifvqb50","pricing_plan_id":"cebpf4jnsgd1na2vs0mg"},{"bike_id":"30271328-2eec-4a76-b164-ed9d51ddc96e","system_id":"levelo_inurba_marseille","lat":43.30541,"lon":5.36555,"is_reserved":false,"is_disabled":false,"rental_uris":{"android":"levelo://app?vid=30271328-2eec-4a76-b164-ed9d51ddc96e","ios":"levelo://app?vid=30271328-2eec-4a76-b164-ed9d51ddc96e"},"vehicle_type_id":"4","last_reported":1731319794,"current_range_meters":36400,"station_id":"ce4bgs12rcd13ifvqcag","pricing_plan_id":"cebpf4jnsgd1na2vs0mg"},{"bike_id":"3415faaa-c111-4a6c-a879-a8c962906233","system_id":"levelo_inurba_marseille","lat":43.27052,"lon":5.40266,"is_reserved":false,"is_disabled":false,"rental_uris":{"android":"levelo://app?vid=3415faaa-c111-4a6c-a879-a8c962906233","ios":"levelo://app?vid=3415faaa-c111-4a6c-a879-a8c962906233"},"vehicle_type_id":"4","last_reported":1731319794,"current_range_meters":38400,"station_id":"ce4bhk92rcd13ifvqgc0","pricing_plan_id":"cebpf4jnsgd1na2vs0mg"},{"bike_id":"181fa628-fd06-4339-88f4-5d411c857699","system_id":"levelo_inurba_marseille","lat":43.27067,"lon":5.42277,"is_reserved":false,"is_disabled":false,"rental_uris":{"android":"levelo://app?vid=181fa628-fd06-4339-88f4-5d411c857699","ios":"levelo://app?vid=181fa628-fd06-4339-88f4-5d411c857699"},"vehicle_type_id":"4","last_reported":1731319794,"current_range_meters":37600,"station_id":"ce4bhk92rcd13ifvqgb0","pricing_plan_id":"cebpf4jnsgd1na2vs0mg"},{"bike_id":"d60436cd-5560-4b0e-86a6-eb009309ed67","system_id":"levelo_inurba_marseille","lat":43.268051,"lon":5.393456,"is_reserved":false,"is_disabled":false,"rental_uris":{"android":"levelo://app?vid=d60436cd-5560-4b0e-86a6-eb009309ed67","ios":"levelo://app?vid=d60436cd-5560-4b0e-86a6-eb009309ed67"},"vehicle_type_id":"4","last_reported":1731319794,"current_range_meters":12800,"station_id":"ce4bhh12rcd13ifvqfg0","pricing_plan_id":"cebpf4jnsgd1na2vs0mg"},{"bike_id":"a6de2a28-58d3-4bf9-8f8e-7c69b34eaee2","system_id":"levelo_inurba_marseille","lat":43.27367,"lon":5.3626,"is_reserved":false,"is_disabled":false,"rental_uris":{"android":"levelo://app?vid=a6de2a28-58d3-4bf9-8f8e-7c69b34eaee2","ios":"levelo://app?vid=a6de2a28-58d3-4bf9-8f8e-7c69b34eaee2"},"vehicle_type_id":"4","last_reported":1731319794,"current_range_meters":38000,"station_id":"ce4bhbh2rcd13ifvqeo0","pricing_plan_id":"cebpf4jnsgd1na2vs0mg"},{"bike_id":"9a5eb101-92a2-4eeb-93bd-8d070d90c1ea","system_id":"levelo_inurba_marseille","lat":43.30435,"lon":5.42531,"is_reserved":false,"is_disabled":false,"rental_uris":{"android":"levelo://app?vid=9a5eb101-92a2-4eeb-93bd-8d070d90c1ea","ios":"levelo://app?vid=9a5eb101-92a2-4eeb-93bd-8d070d90c1ea"},"vehicle_type_id":"4","last_reported":1731319794,"current_range_meters":8000,"station_id":"","pricing_plan_id":"cebpf4jnsgd1na2vs0mg"},{"bike_id":"00cb5520-2934-49aa-9f0e-eb60055831b2","system_id":"levelo_inurba_marseille","lat":43.25489,"lon":5.37644,"is_reserved":false,"is_disabled":false,"rental_uris":{"android":"levelo://app?vid=00cb5520-2934-49aa-9f0e-eb60055831b2","ios":"levelo://app?vid=00cb5520-2934-49aa-9f0e-eb60055831b2"},"vehicle_type_id":"4","last_reported":1731319794,"current_range_meters":27200,"station_id":"ce4bhh12rcd13ifvqff0","pricing_plan_id":"cebpf4jnsgd1na2vs0mg"},{"bike_id":"bc8e8179-f595-4f58-93a9-eead0c98d7f7","system_id":"levelo_inurba_marseille","lat":43.25867,"lon":5.39898,"is_reserved":false,"is_disabled":false,"rental_uris":{"android":"levelo://app?vid=bc8e8179-f595-4f58-93a9-eead0c98d7f7","ios":"levelo://app?vid=bc8e8179-f595-4f58-93a9-eead0c98d7f7"},"vehicle_type_id":"4","last_reported":1731319794,"current_range_meters":38000,"station_id":"ce4bhl92rcd13ifvqghg","pricing_plan_id":"cebpf4jnsgd1na2vs0mg"},{"bike_id":"5574c5c0-6884-4d99-8cb9-177fa8d343fc","system_id":"levelo_inurba_marseille","lat":43.30416,"lon":5.41279,"is_reserved":false,"is_disabled":false,"rental_uris":{"android":"levelo://app?vid=5574c5c0-6884-4d99-8cb9-177fa8d343fc","ios":"levelo://app?vid=5574c5c0-6884-4d99-8cb9-177fa8d343fc"},"vehicle_type_id":"4","last_reported":1731319794,"current_range_meters":3600,"station_id":"ce4bhop2rcd13ifvqh8g","pricing_plan_id":"cebpf4jnsgd1na2vs0mg"},{"bike_id":"df1a0c9f-5c99-4cc6-8e61-e78185fcde03","system_id":"levelo_inurba_marseille","lat":43.25078,"lon":5.39525,"is_reserved":false,"is_disabled":false,"rental_uris":{"android":"levelo://app?vid=df1a0c9f-5c99-4cc6-8e61-e78185fcde03","ios":"levelo://app?vid=df1a0c9f-5c99-4cc6-8e61-e78185fcde03"},"vehicle_type_id":"4","last_reported":1731319794,"current_range_meters":8800,"station_id":"ce4bhm12rcd13ifvqgkg","pricing_plan_id":"cebpf4jnsgd1na2vs0mg"},{"bike_id":"08e15649-f4fc-47e6-abc7-a30b153d6489","system_id":"levelo_inurba_marseille","lat":43.24808,"lon":5.374584,"is_reserved":false,"is_disabled":false,"rental_uris":{"android":"levelo://app?vid=08e15649-f4fc-47e6-abc7-a30b153d6489","ios":"levelo://app?vid=08e15649-f4fc-47e6-abc7-a30b153d6489"},"vehicle_type_id":"4","last_reported":1731319794,"current_range_meters":32400,"station_id":"ce4bhgh2rcd13ifvqfa0","pricing_plan_id":"cebpf4jnsgd1na2vs0mg"},{"bike_id":"d8af9d25-89e1-4a8d-be9b-207aa16d108f","system_id":"levelo_inurba_marseille","lat":43.31087,"lon":5.42427,"is_reserved":false,"is_disabled":false,"rental_uris":{"android":"levelo://app?vid=d8af9d25-89e1-4a8d-be9b-207aa16d108f","ios":"levelo://app?vid=d8af9d25-89e1-4a8d-be9b-207aa16d108f"},"vehicle_type_id":"4","last_reported":1731319794,"current_range_meters":37600,"station_id":"ce4bhp92rcd13ifvqhag","pricing_plan_id":"cebpf4jnsgd1na2vs0mg"},{"bike_id":"4c39aa19-0c48-4846-ae4a-17bcc31d5e1d","system_id":"levelo_inurba_marseille","lat":43.3236,"lon":5.38881,"is_reserved":false,"is_disabled":false,"rental_uris":{"android":"levelo://app?vid=4c39aa19-0c48-4846-ae4a-17bcc31d5e1d","ios":"levelo://app?vid=4c39aa19-0c48-4846-ae4a-17bcc31d5e1d"},"vehicle_type_id":"4","last_reported":1731319794,"current_range_meters":8800,"station_id":"ce4bhqp2rcd13ifvqhog","pricing_plan_id":"cebpf4jnsgd1na2vs0mg"},{"bike_id":"bc5d945c-0c4c-4fab-90f7-72bc8d55d57f","system_id":"levelo_inurba_marseille","lat":43.30416,"lon":5.41274,"is_reserved":false,"is_disabled":false,"rental_uris":{"android":"levelo://app?vid=bc5d945c-0c4c-4fab-90f7-72bc8d55d57f","ios":"levelo://app?vid=bc5d945c-0c4c-4fab-90f7-72bc8d55d57f"},"vehicle_type_id":"4","last_reported":1731319794,"current_range_meters":22800,"station_id":"ce4bhop2rcd13ifvqh8g","pricing_plan_id":"cebpf4jnsgd1na2vs0mg"},{"bike_id":"d1d7a58c-6198-42c5-91ce-d708d38d99a2","system_id":"levelo_inurba_marseille","lat":43.30886,"lon":5.39638,"is_reserved":false,"is_disabled":false,"rental_uris":{"android":"levelo://app?vid=d1d7a58c-6198-42c5-91ce-d708d38d99a2","ios":"levelo://app?vid=d1d7a58c-6198-42c5-91ce-d708d38d99a2"},"vehicle_type_id":"4","last_reported":1731319794,"current_range_meters":40000,"station_id":"ce4bh012rcd13ifvqcv0","pricing_plan_id":"cebpf4jnsgd1na2vs0mg"},{"bike_id":"f6ff179b-1403-41ed-b07c-bcec15c36f53","system_id":"levelo_inurba_marseille","lat":43.29839,"lon":5.36264,"is_reserved":false,"is_disabled":false,"rental_uris":{"android":"levelo://app?vid=f6ff179b-1403-41ed-b07c-bcec15c36f53","ios":"levelo://app?vid=f6ff179b-1403-41ed-b07c-bcec15c36f53"},"vehicle_type_id":"4","last_reported":1731319794,"current_range_meters":38800,"station_id":"ce4bgpp2rcd13ifvqc3g","pricing_plan_id":"cebpf4jnsgd1na2vs0mg"},{"bike_id":"1e7fd650-28c5-42ee-9922-4070c0acdb85","system_id":"levelo_inurba_marseille","lat":43.27497,"lon":5.42447,"is_reserved":false,"is_disabled":false,"rental_uris":{"android":"levelo://app?vid=1e7fd650-28c5-42ee-9922-4070c0acdb85","ios":"levelo://app?vid=1e7fd650-28c5-42ee-9922-4070c0acdb85"},"vehicle_type_id":"4","last_reported":1731319794,"current_range_meters":36000,"station_id":"ce4bhn92rcd13ifvqgrg","pricing_plan_id":"cebpf4jnsgd1na2vs0mg"},{"bike_id":"42808b97-390e-48c1-b0b7-3f4f4cb27229","system_id":"levelo_inurba_marseille","lat":43.29264,"lon":5.36846,"is_reserved":false,"is_disabled":false,"rental_uris":{"android":"levelo://app?vid=42808b97-390e-48c1-b0b7-3f4f4cb27229","ios":"levelo://app?vid=42808b97-390e-48c1-b0b7-3f4f4cb27229"},"vehicle_type_id":"4","last_reported":1731319794,"current_range_meters":36400,"station_id":"ce4bhbp2rcd13ifvqesg","pricing_plan_id":"cebpf4jnsgd1na2vs0mg"},{"bike_id":"afe37d67-d439-4b2e-995f-511a7480bb51","system_id":"levelo_inurba_marseille","lat":43.26568,"lon":5.39004,"is_reserved":false,"is_disabled":false,"rental_uris":{"android":"levelo://app?vid=afe37d67-d439-4b2e-995f-511a7480bb51","ios":"levelo://app?vid=afe37d67-d439-4b2e-995f-511a7480bb51"},"vehicle_type_id":"4","last_reported":1731319794,"current_range_meters":36800,"station_id":"ce4bhe12rcd13ifvqf30","pricing_plan_id":"cebpf4jnsgd1na2vs0mg"},{"bike_id":"a7ad36e5-4fa2-43fe-bbf4-2e08c319f4af","system_id":"levelo_inurba_marseille","lat":43.2558,"lon":5.38229,"is_reserved":false,"is_disabled":false,"rental_uris":{"android":"levelo://app?vid=a7ad36e5-4fa2-43fe-bbf4-2e08c319f4af","ios":"levelo://app?vid=a7ad36e5-4fa2-43fe-bbf4-2e08c319f4af"},"vehicle_type_id":"4","last_reported":1731319794,"current_range_meters":24000,"station_id":"ce4bhih2rcd13ifvqfs0","pricing_plan_id":"cebpf4jnsgd1na2vs0mg"},{"bike_id":"a5379cc8-aca3-463b-9c9c-1562c0ff3ffe","system_id":"levelo_inurba_marseille","lat":43.24403,"lon":5.37052,"is_reserved":false,"is_disabled":false,"rental_uris":{"android":"levelo://app?vid=a5379cc8-aca3-463b-9c9c-1562c0ff3ffe","ios":"levelo://app?vid=a5379cc8-aca3-463b-9c9c-1562c0ff3ffe"},"vehicle_type_id":"4","last_reported":1731319794,"current_range_meters":32000,"station_id":"ce4bhhh2rcd13ifvqfk0","pricing_plan_id":"cebpf4jnsgd1na2vs0mg"},{"bike_id":"ada9c1c5-a5a1-4aea-9fb9-213fda53ee37","system_id":"levelo_inurba_marseille","lat":43.30958,"lon":5.39033,"is_reserved":false,"is_disabled":false,"rental_uris":{"android":"levelo://app?vid=ada9c1c5-a5a1-4aea-9fb9-213fda53ee37","ios":"levelo://app?vid=ada9c1c5-a5a1-4aea-9fb9-213fda53ee37"},"vehicle_type_id":"4","last_reported":1731319794,"current_range_meters":38000,"station_id":"ce4bgup2rcd13ifvqco0","pricing_plan_id":"cebpf4jnsgd1na2vs0mg"},{"bike_id":"c86f9753-23bf-4b0b-99f7-a3303d896d97","system_id":"levelo_inurba_marseille","lat":43.23175,"lon":5.39979,"is_reserved":false,"is_disabled":false,"rental_uris":{"android":"levelo://app?vid=c86f9753-23bf-4b0b-99f7-a3303d896d97","ios":"levelo://app?vid=c86f9753-23bf-4b0b-99f7-a3303d896d97"},"vehicle_type_id":"4","last_reported":1731319794,"current_range_meters":38800,"station_id":"ce4bhn12rcd13ifvqgqg","pricing_plan_id":"cebpf4jnsgd1na2vs0mg"},{"bike_id":"5ab9d430-3d2b-4a66-870b-567fac89b27f","system_id":"levelo_inurba_marseille","lat":43.31323,"lon":5.39697,"is_reserved":false,"is_disabled":false,"rental_uris":{"android":"levelo://app?vid=5ab9d430-3d2b-4a66-870b-567fac89b27f","ios":"levelo://app?vid=5ab9d430-3d2b-4a66-870b-567fac89b27f"},"vehicle_type_id":"4","last_reported":1731319794,"current_range_meters":38800,"station_id":"ce4bgvp2rcd13ifvqcu0","pricing_plan_id":"cebpf4jnsgd1na2vs0mg"},{"bike_id":"edde4862-c1fc-4a12-b386-f996da4d75ae","system_id":"levelo_inurba_marseille","lat":43.27073,"lon":5.42275,"is_reserved":false,"is_disabled":false,"rental_uris":{"android":"levelo://app?vid=edde4862-c1fc-4a12-b386-f996da4d75ae","ios":"levelo://app?vid=edde4862-c1fc-4a12-b386-f996da4d75ae"},"vehicle_type_id":"4","last_reported":1731319794,"current_range_meters":32800,"station_id":"ce4bhk92rcd13ifvqgb0","pricing_plan_id":"cebpf4jnsgd1na2vs0mg"},{"bike_id":"07704a86-dbed-425a-854d-11b1a4e3d84c","system_id":"levelo_inurba_marseille","lat":43.33759,"lon":5.37444,"is_reserved":false,"is_disabled":false,"rental_uris":{"android":"levelo://app?vid=07704a86-dbed-425a-854d-11b1a4e3d84c","ios":"levelo://app?vid=07704a86-dbed-425a-854d-11b1a4e3d84c"},"vehicle_type_id":"4","last_reported":1731319794,"current_range_meters":25600,"station_id":"","pricing_plan_id":"cebpf4jnsgd1na2vs0mg"},{"bike_id":"7848f12a-0412-41aa-9aa5-bb42c338d8ca","system_id":"levelo_inurba_marseille","lat":43.29537,"lon":5.37503,"is_reserved":false,"is_disabled":false,"rental_uris":{"android":"levelo://app?vid=7848f12a-0412-41aa-9aa5-bb42c338d8ca","ios":"levelo://app?vid=7848f12a-0412-41aa-9aa5-bb42c338d8ca"},"vehicle_type_id":"4","last_reported":1731319794,"current_range_meters":38000,"station_id":"ce4bgkp2rcd13ifvqbmg","pricing_plan_id":"cebpf4jnsgd1na2vs0mg"},{"bike_id":"888637b5-c0d3-4402-a68c-bcbf50af3bba","system_id":"levelo_inurba_marseille","lat":43.30897,"lon":5.37183,"is_reserved":false,"is_disabled":false,"rental_uris":{"android":"levelo://app?vid=888637b5-c0d3-4402-a68c-bcbf50af3bba","ios":"levelo://app?vid=888637b5-c0d3-4402-a68c-bcbf50af3bba"},"vehicle_type_id":"4","last_reported":1731319794,"current_range_meters":34000,"station_id":"ce4bguh2rcd13ifvqckg","pricing_plan_id":"cebpf4jnsgd1na2vs0mg"},{"bike_id":"14d20505-09c3-49e6-b487-149678ce51b5","system_id":"levelo_inurba_marseille","lat":43.23196,"lon":5.35549,"is_reserved":false,"is_disabled":false,"rental_uris":{"android":"levelo://app?vid=14d20505-09c3-49e6-b487-149678ce51b5","ios":"levelo://app?vid=14d20505-09c3-49e6-b487-149678ce51b5"},"vehicle_type_id":"4","last_reported":1731319794,"current_range_meters":24400,"station_id":"ce4bhu92rcd13ifvqi70","pricing_plan_id":"cebpf4jnsgd1na2vs0mg"},{"bike_id":"d2bd9332-8f9b-4e5f-b0ca-5e8e4a76daca","system_id":"levelo_inurba_marseille","lat":43.27609,"lon":5.36102,"is_reserved":false,"is_disabled":false,"rental_uris":{"android":"levelo://app?vid=d2bd9332-8f9b-4e5f-b0ca-5e8e4a76daca","ios":"levelo://app?vid=d2bd9332-8f9b-4e5f-b0ca-5e8e4a76daca"},"vehicle_type_id":"4","last_reported":1731319794,"current_range_meters":30400,"station_id":"ce4bgj92rcd13ifvqbe0","pricing_plan_id":"cebpf4jnsgd1na2vs0mg"},{"bike_id":"85a7dc21-f713-4b22-8266-ba82aed34187","system_id":"levelo_inurba_marseille","lat":43.2572,"lon":5.4111,"is_reserved":false,"is_disabled":false,"rental_uris":{"android":"levelo://app?vid=85a7dc21-f713-4b22-8266-ba82aed34187","ios":"levelo://app?vid=85a7dc21-f713-4b22-8266-ba82aed34187"},"vehicle_type_id":"4","last_reported":1731319794,"current_range_meters":26800,"station_id":"ce4bhkp2rcd13ifvqgd0","pricing_plan_id":"cebpf4jnsgd1na2vs0mg"},{"bike_id":"5a250740-4f25-4c09-b074-a9fd5a02278a","system_id":"levelo_inurba_marseille","lat":43.30548,"lon":5.36719,"is_reserved":false,"is_disabled":false,"rental_uris":{"android":"levelo://app?vid=5a250740-4f25-4c09-b074-a9fd5a02278a","ios":"levelo://app?vid=5a250740-4f25-4c09-b074-a9fd5a02278a"},"vehicle_type_id":"4","last_reported":1731319794,"current_range_meters":23200,"station_id":"ce4bgrp2rcd13ifvqc9g","pricing_plan_id":"cebpf4jnsgd1na2vs0mg"},{"bike_id":"3d39d700-7173-4a12-8921-aec2f5a130a7","system_id":"levelo_inurba_marseille","lat":43.304169,"lon":5.39745,"is_reserved":false,"is_disabled":false,"rental_uris":{"android":"levelo://app?vid=3d39d700-7173-4a12-8921-aec2f5a130a7","ios":"levelo://app?vid=3d39d700-7173-4a12-8921-aec2f5a130a7"},"vehicle_type_id":"4","last_reported":1731319794,"current_range_meters":11200,"station_id":"ce4bh092rcd13ifvqd20","pricing_plan_id":"cebpf4jnsgd1na2vs0mg"},{"bike_id":"471c24df-c195-43ad-89b8-0d470fc104ba","system_id":"levelo_inurba_marseille","lat":43.31893,"lon":5.40733,"is_reserved":false,"is_disabled":false,"rental_uris":{"android":"levelo://app?vid=471c24df-c195-43ad-89b8-0d470fc104ba","ios":"levelo://app?vid=471c24df-c195-43ad-89b8-0d470fc104ba"},"vehicle_type_id":"4","last_reported":1731319794,"current_range_meters":38800,"station_id":"ce4bhq12rcd13ifvqhig","pricing_plan_id":"cebpf4jnsgd1na2vs0mg"},{"bike_id":"de953a33-eeda-4c1b-ae57-cc39222606a3","system_id":"levelo_inurba_marseille","lat":43.30096,"lon":5.39078,"is_reserved":false,"is_disabled":false,"rental_uris":{"android":"levelo://app?vid=de953a33-eeda-4c1b-ae57-cc39222606a3","ios":"levelo://app?vid=de953a33-eeda-4c1b-ae57-cc39222606a3"},"vehicle_type_id":"4","last_reported":1731319794,"current_range_meters":39200,"station_id":"ce4bh192rcd13ifvqdb0","pricing_plan_id":"cebpf4jnsgd1na2vs0mg"},{"bike_id":"06f17f8d-4c40-414f-a0ba-f6b2ac640410","system_id":"levelo_inurba_marseille","lat":43.28939,"lon":5.36621,"is_reserved":false,"is_disabled":false,"rental_uris":{"android":"levelo://app?vid=06f17f8d-4c40-414f-a0ba-f6b2ac640410","ios":"levelo://app?vid=06f17f8d-4c40-414f-a0ba-f6b2ac640410"},"vehicle_type_id":"4","last_reported":1731319794,"current_range_meters":30800,"station_id":"ce4bhap2rcd13ifvqek0","pricing_plan_id":"cebpf4jnsgd1na2vs0mg"},{"bike_id":"baac3be3-010c-4ab7-b814-2af962c842f8","system_id":"levelo_inurba_marseille","lat":43.28361,"lon":5.37523,"is_reserved":false,"is_disabled":false,"rental_uris":{"android":"levelo://app?vid=baac3be3-010c-4ab7-b814-2af962c842f8","ios":"levelo://app?vid=baac3be3-010c-4ab7-b814-2af962c842f8"},"vehicle_type_id":"4","last_reported":1731319794,"current_range_meters":22000,"station_id":"ce4bh412rcd13ifvqds0","pricing_plan_id":"cebpf4jnsgd1na2vs0mg"},{"bike_id":"c1e70269-c155-460e-aa50-d5a936cbf590","system_id":"levelo_inurba_marseille","lat":43.23066,"lon":5.3549,"is_reserved":false,"is_disabled":false,"rental_uris":{"android":"levelo://app?vid=c1e70269-c155-460e-aa50-d5a936cbf590","ios":"levelo://app?vid=c1e70269-c155-460e-aa50-d5a936cbf590"},"vehicle_type_id":"4","last_reported":1731319794,"current_range_meters":36000,"station_id":"cpo3342slgdg3j2ifvpg","pricing_plan_id":"cebpf4jnsgd1na2vs0mg"},{"bike_id":"d046cb90-746f-4994-abe8-a72ce289d892","system_id":"levelo_inurba_marseille","lat":43.26684,"lon":5.38272,"is_reserved":false,"is_disabled":false,"rental_uris":{"android":"levelo://app?vid=d046cb90-746f-4994-abe8-a72ce289d892","ios":"levelo://app?vid=d046cb90-746f-4994-abe8-a72ce289d892"},"vehicle_type_id":"4","last_reported":1731319794,"current_range_meters":19600,"station_id":"ce4bhg92rcd13ifvqf90","pricing_plan_id":"cebpf4jnsgd1na2vs0mg"},{"bike_id":"969227a2-98bf-4ab5-b6d3-e479d8b3607b","system_id":"levelo_inurba_marseille","lat":43.3153,"lon":5.38027,"is_reserved":false,"is_disabled":false,"rental_uris":{"android":"levelo://app?vid=969227a2-98bf-4ab5-b6d3-e479d8b3607b","ios":"levelo://app?vid=969227a2-98bf-4ab5-b6d3-e479d8b3607b"},"vehicle_type_id":"4","last_reported":1731319794,"current_range_meters":24000,"station_id":"ce4bhsp2rcd13ifvqi50","pricing_plan_id":"cebpf4jnsgd1na2vs0mg"},{"bike_id":"f5293701-df9b-4a3c-bf61-d686249e5d80","system_id":"levelo_inurba_marseille","lat":43.25865,"lon":5.39899,"is_reserved":false,"is_disabled":false,"rental_uris":{"android":"levelo://app?vid=f5293701-df9b-4a3c-bf61-d686249e5d80","ios":"levelo://app?vid=f5293701-df9b-4a3c-bf61-d686249e5d80"},"vehicle_type_id":"4","last_reported":1731319794,"current_range_meters":33200,"station_id":"ce4bhl92rcd13ifvqghg","pricing_plan_id":"cebpf4jnsgd1na2vs0mg"},{"bike_id":"a6a82fe6-b5ad-4b6d-89bd-5011bee16a93","system_id":"levelo_inurba_marseille","lat":43.31379,"lon":5.3664,"is_reserved":false,"is_disabled":false,"rental_uris":{"android":"levelo://app?vid=a6a82fe6-b5ad-4b6d-89bd-5011bee16a93","ios":"levelo://app?vid=a6a82fe6-b5ad-4b6d-89bd-5011bee16a93"},"vehicle_type_id":"4","last_reported":1731319794,"current_range_meters":17200,"station_id":"ce4bgr92rcd13ifvqc6g","pricing_plan_id":"cebpf4jnsgd1na2vs0mg"},{"bike_id":"b0a25a7c-0d25-4b72-ab41-b48adedeb0e0","system_id":"levelo_inurba_marseille","lat":43.29847,"lon":5.36266,"is_reserved":false,"is_disabled":false,"rental_uris":{"android":"levelo://app?vid=b0a25a7c-0d25-4b72-ab41-b48adedeb0e0","ios":"levelo://app?vid=b0a25a7c-0d25-4b72-ab41-b48adedeb0e0"},"vehicle_type_id":"4","last_reported":1731319794,"current_range_meters":23200,"station_id":"ce4bgpp2rcd13ifvqc3g","pricing_plan_id":"cebpf4jnsgd1na2vs0mg"},{"bike_id":"6cde4c04-b0af-4388-b53d-81ed2ec25717","system_id":"levelo_inurba_marseille","lat":43.31887,"lon":5.40727,"is_reserved":false,"is_disabled":false,"rental_uris":{"android":"levelo://app?vid=6cde4c04-b0af-4388-b53d-81ed2ec25717","ios":"levelo://app?vid=6cde4c04-b0af-4388-b53d-81ed2ec25717"},"vehicle_type_id":"4","last_reported":1731319794,"current_range_meters":38800,"station_id":"ce4bhq12rcd13ifvqhig","pricing_plan_id":"cebpf4jnsgd1na2vs0mg"},{"bike_id":"f93d033a-aaf0-4299-96d1-7294e059c33f","system_id":"levelo_inurba_marseille","lat":43.276184,"lon":5.361054,"is_reserved":false,"is_disabled":false,"rental_uris":{"android":"levelo://app?vid=f93d033a-aaf0-4299-96d1-7294e059c33f","ios":"levelo://app?vid=f93d033a-aaf0-4299-96d1-7294e059c33f"},"vehicle_type_id":"4","last_reported":1731319794,"current_range_meters":26000,"station_id":"ce4bgj92rcd13ifvqbe0","pricing_plan_id":"cebpf4jnsgd1na2vs0mg"},{"bike_id":"f231988b-c677-4d61-8d18-d58a52fe96b5","system_id":"levelo_inurba_marseille","lat":43.25504,"lon":5.37654,"is_reserved":false,"is_disabled":false,"rental_uris":{"android":"levelo://app?vid=f231988b-c677-4d61-8d18-d58a52fe96b5","ios":"levelo://app?vid=f231988b-c677-4d61-8d18-d58a52fe96b5"},"vehicle_type_id":"4","last_reported":1731319794,"current_range_meters":40000,"station_id":"ce4bhh12rcd13ifvqff0","pricing_plan_id":"cebpf4jnsgd1na2vs0mg"},{"bike_id":"05b62862-8331-49c7-8a0f-0d0121269a5e","system_id":"levelo_inurba_marseille","lat":43.28416,"lon":5.34982,"is_reserved":false,"is_disabled":false,"rental_uris":{"android":"levelo://app?vid=05b62862-8331-49c7-8a0f-0d0121269a5e","ios":"levelo://app?vid=05b62862-8331-49c7-8a0f-0d0121269a5e"},"vehicle_type_id":"4","last_reported":1731319794,"current_range_meters":38800,"station_id":"ce4bhbh2rcd13ifvqepg","pricing_plan_id":"cebpf4jnsgd1na2vs0mg"},{"bike_id":"e4eae8e9-f8a7-4c29-a50d-a756facfcacb","system_id":"levelo_inurba_marseille","lat":43.29693,"lon":5.37292,"is_reserved":false,"is_disabled":false,"rental_uris":{"android":"levelo://app?vid=e4eae8e9-f8a7-4c29-a50d-a756facfcacb","ios":"levelo://app?vid=e4eae8e9-f8a7-4c29-a50d-a756facfcacb"},"vehicle_type_id":"4","last_reported":1731319794,"current_range_meters":38400,"station_id":"ce4bgk12rcd13ifvqbj0","pricing_plan_id":"cebpf4jnsgd1na2vs0mg"},{"bike_id":"b5be075c-9e60-4c5e-bfd0-cdef23cab34c","system_id":"levelo_inurba_marseille","lat":43.29258,"lon":5.38441,"is_reserved":false,"is_disabled":false,"rental_uris":{"android":"levelo://app?vid=b5be075c-9e60-4c5e-bfd0-cdef23cab34c","ios":"levelo://app?vid=b5be075c-9e60-4c5e-bfd0-cdef23cab34c"},"vehicle_type_id":"4","last_reported":1731319794,"current_range_meters":34000,"station_id":"ce4bh692rcd13ifvqea0","pricing_plan_id":"cebpf4jnsgd1na2vs0mg"},{"bike_id":"85f3ddc3-1af9-4244-a6e8-4949da19964c","system_id":"levelo_inurba_marseille","lat":43.2707,"lon":5.42272,"is_reserved":false,"is_disabled":false,"rental_uris":{"android":"levelo://app?vid=85f3ddc3-1af9-4244-a6e8-4949da19964c","ios":"levelo://app?vid=85f3ddc3-1af9-4244-a6e8-4949da19964c"},"vehicle_type_id":"4","last_reported":1731319794,"current_range_meters":38400,"station_id":"ce4bhk92rcd13ifvqgb0","pricing_plan_id":"cebpf4jnsgd1na2vs0mg"},{"bike_id":"04eb0fca-8eef-47aa-9ff2-35648e49484a","system_id":"levelo_inurba_marseille","lat":43.29029,"lon":5.37562,"is_reserved":false,"is_disabled":false,"rental_uris":{"android":"levelo://app?vid=04eb0fca-8eef-47aa-9ff2-35648e49484a","ios":"levelo://app?vid=04eb0fca-8eef-47aa-9ff2-35648e49484a"},"vehicle_type_id":"4","last_reported":1731319794,"current_range_meters":38800,"station_id":"ce4bh692rcd13ifvqe90","pricing_plan_id":"cebpf4jnsgd1na2vs0mg"},{"bike_id":"6d72a493-11da-48b3-be50-fd384c9287b5","system_id":"levelo_inurba_marseille","lat":43.29849,"lon":5.36287,"is_reserved":false,"is_disabled":false,"rental_uris":{"android":"levelo://app?vid=6d72a493-11da-48b3-be50-fd384c9287b5","ios":"levelo://app?vid=6d72a493-11da-48b3-be50-fd384c9287b5"},"vehicle_type_id":"4","last_reported":1731319794,"current_range_meters":32400,"station_id":"ce4bgpp2rcd13ifvqc3g","pricing_plan_id":"cebpf4jnsgd1na2vs0mg"},{"bike_id":"59d330ec-6ac4-4725-9185-26d660d842ad","system_id":"levelo_inurba_marseille","lat":43.28105,"lon":5.37828,"is_reserved":false,"is_disabled":false,"rental_uris":{"android":"levelo://app?vid=59d330ec-6ac4-4725-9185-26d660d842ad","ios":"levelo://app?vid=59d330ec-6ac4-4725-9185-26d660d842ad"},"vehicle_type_id":"4","last_reported":1731319794,"current_range_meters":38800,"station_id":"ce4bha12rcd13ifvqee0","pricing_plan_id":"cebpf4jnsgd1na2vs0mg"},{"bike_id":"5353753f-bad8-453c-b77d-32fd6492d0e4","system_id":"levelo_inurba_marseille","lat":43.30133,"lon":5.39848,"is_reserved":false,"is_disabled":false,"rental_uris":{"android":"levelo://app?vid=5353753f-bad8-453c-b77d-32fd6492d0e4","ios":"levelo://app?vid=5353753f-bad8-453c-b77d-32fd6492d0e4"},"vehicle_type_id":"4","last_reported":1731319794,"current_range_meters":37600,"station_id":"ce4bh0h2rcd13ifvqd40","pricing_plan_id":"cebpf4jnsgd1na2vs0mg"},{"bike_id":"dac021be-548c-4b6a-9a70-535acb3e6011","system_id":"levelo_inurba_marseille","lat":43.29896,"lon":5.43661,"is_reserved":false,"is_disabled":false,"rental_uris":{"android":"levelo://app?vid=dac021be-548c-4b6a-9a70-535acb3e6011","ios":"levelo://app?vid=dac021be-548c-4b6a-9a70-535acb3e6011"},"vehicle_type_id":"4","last_reported":1731319794,"current_range_meters":40000,"station_id":"ce4bhpp2rcd13ifvqhfg","pricing_plan_id":"cebpf4jnsgd1na2vs0mg"},{"bike_id":"fecdd1f9-9ba9-40fe-8ffd-765c3531dbdd","system_id":"levelo_inurba_marseille","lat":43.265581,"lon":5.390048,"is_reserved":false,"is_disabled":false,"rental_uris":{"android":"levelo://app?vid=fecdd1f9-9ba9-40fe-8ffd-765c3531dbdd","ios":"levelo://app?vid=fecdd1f9-9ba9-40fe-8ffd-765c3531dbdd"},"vehicle_type_id":"4","last_reported":1731319794,"current_range_meters":38800,"station_id":"ce4bhe12rcd13ifvqf30","pricing_plan_id":"cebpf4jnsgd1na2vs0mg"},{"bike_id":"82ce0d1a-35aa-4501-b8b0-471c54595dce","system_id":"levelo_inurba_marseille","lat":43.23967,"lon":5.3663,"is_reserved":false,"is_disabled":false,"rental_uris":{"android":"levelo://app?vid=82ce0d1a-35aa-4501-b8b0-471c54595dce","ios":"levelo://app?vid=82ce0d1a-35aa-4501-b8b0-471c54595dce"},"vehicle_type_id":"4","last_reported":1731319794,"current_range_meters":24800,"station_id":"ce4bhi12rcd13ifvqfp0","pricing_plan_id":"cebpf4jnsgd1na2vs0mg"},{"bike_id":"817e9135-f248-4cc1-8820-67b2629e906a","system_id":"levelo_inurba_marseille","lat":43.26812,"lon":5.40264,"is_reserved":false,"is_disabled":false,"rental_uris":{"android":"levelo://app?vid=817e9135-f248-4cc1-8820-67b2629e906a","ios":"levelo://app?vid=817e9135-f248-4cc1-8820-67b2629e906a"},"vehicle_type_id":"4","last_reported":1731319794,"current_range_meters":33600,"station_id":"ce501612rcd8frsf0b60","pricing_plan_id":"cebpf4jnsgd1na2vs0mg"},{"bike_id":"b2fd0916-e46b-428f-a30e-067850d8a24a","system_id":"levelo_inurba_marseille","lat":43.30136,"lon":5.37405,"is_reserved":false,"is_disabled":false,"rental_uris":{"android":"levelo://app?vid=b2fd0916-e46b-428f-a30e-067850d8a24a","ios":"levelo://app?vid=b2fd0916-e46b-428f-a30e-067850d8a24a"},"vehicle_type_id":"4","last_reported":1731319794,"current_range_meters":28000,"station_id":"ce4bgs92rcd13ifvqcc0","pricing_plan_id":"cebpf4jnsgd1na2vs0mg"},{"bike_id":"85849e39-f38e-4437-afbd-f8d706fa4b32","system_id":"levelo_inurba_marseille","lat":43.28411,"lon":5.3498,"is_reserved":false,"is_disabled":false,"rental_uris":{"android":"levelo://app?vid=85849e39-f38e-4437-afbd-f8d706fa4b32","ios":"levelo://app?vid=85849e39-f38e-4437-afbd-f8d706fa4b32"},"vehicle_type_id":"4","last_reported":1731319794,"current_range_meters":32400,"station_id":"ce4bhbh2rcd13ifvqepg","pricing_plan_id":"cebpf4jnsgd1na2vs0mg"},{"bike_id":"d5990e19-0551-4ad3-8c2a-d80513ba61ae","system_id":"levelo_inurba_marseille","lat":43.23194,"lon":5.35552,"is_reserved":false,"is_disabled":false,"rental_uris":{"android":"levelo://app?vid=d5990e19-0551-4ad3-8c2a-d80513ba61ae","ios":"levelo://app?vid=d5990e19-0551-4ad3-8c2a-d80513ba61ae"},"vehicle_type_id":"4","last_reported":1731319794,"current_range_meters":39200,"station_id":"ce4bhu92rcd13ifvqi70","pricing_plan_id":"cebpf4jnsgd1na2vs0mg"},{"bike_id":"df403786-1c8c-4b02-8ecc-5923a6836dc9","system_id":"levelo_inurba_marseille","lat":43.31173,"lon":5.38705,"is_reserved":false,"is_disabled":false,"rental_uris":{"android":"levelo://app?vid=df403786-1c8c-4b02-8ecc-5923a6836dc9","ios":"levelo://app?vid=df403786-1c8c-4b02-8ecc-5923a6836dc9"},"vehicle_type_id":"4","last_reported":1731319794,"current_range_meters":35200,"station_id":"ce4bgih2rcd13ifvqba0","pricing_plan_id":"cebpf4jnsgd1na2vs0mg"},{"bike_id":"b5592ce4-33d8-49ae-b375-04cf6933067a","system_id":"levelo_inurba_marseille","lat":43.282623,"lon":5.350532,"is_reserved":false,"is_disabled":false,"rental_uris":{"android":"levelo://app?vid=b5592ce4-33d8-49ae-b375-04cf6933067a","ios":"levelo://app?vid=b5592ce4-33d8-49ae-b375-04cf6933067a"},"vehicle_type_id":"4","last_reported":1731319794,"current_range_meters":38800,"station_id":"ce4bhbp2rcd13ifvqerg","pricing_plan_id":"cebpf4jnsgd1na2vs0mg"},{"bike_id":"b2f3adca-b446-441d-a1ab-5903c30fd432","system_id":"levelo_inurba_marseille","lat":43.33772,"lon":5.37447,"is_reserved":false,"is_disabled":false,"rental_uris":{"android":"levelo://app?vid=b2f3adca-b446-441d-a1ab-5903c30fd432","ios":"levelo://app?vid=b2f3adca-b446-441d-a1ab-5903c30fd432"},"vehicle_type_id":"4","last_reported":1731319794,"current_range_meters":11600,"station_id":"","pricing_plan_id":"cebpf4jnsgd1na2vs0mg"},{"bike_id":"f8a80f2d-b549-46ec-a2ef-7f7a2490b738","system_id":"levelo_inurba_marseille","lat":43.26793,"lon":5.39411,"is_reserved":false,"is_disabled":false,"rental_uris":{"android":"levelo://app?vid=f8a80f2d-b549-46ec-a2ef-7f7a2490b738","ios":"levelo://app?vid=f8a80f2d-b549-46ec-a2ef-7f7a2490b738"},"vehicle_type_id":"4","last_reported":1731319794,"current_range_meters":38000,"station_id":"ce4bhh12rcd13ifvqfg0","pricing_plan_id":"cebpf4jnsgd1na2vs0mg"},{"bike_id":"73ae6848-5f67-4151-95f7-52ff0eee278d","system_id":"levelo_inurba_marseille","lat":43.30897,"lon":5.3718,"is_reserved":false,"is_disabled":false,"rental_uris":{"android":"levelo://app?vid=73ae6848-5f67-4151-95f7-52ff0eee278d","ios":"levelo://app?vid=73ae6848-5f67-4151-95f7-52ff0eee278d"},"vehicle_type_id":"4","last_reported":1731319794,"current_range_meters":38800,"station_id":"ce4bguh2rcd13ifvqckg","pricing_plan_id":"cebpf4jnsgd1na2vs0mg"},{"bike_id":"2bdf9060-9eaa-4055-aa8b-ae8cd81f6e98","system_id":"levelo_inurba_marseille","lat":43.27073,"lon":5.42275,"is_reserved":false,"is_disabled":false,"rental_uris":{"android":"levelo://app?vid=2bdf9060-9eaa-4055-aa8b-ae8cd81f6e98","ios":"levelo://app?vid=2bdf9060-9eaa-4055-aa8b-ae8cd81f6e98"},"vehicle_type_id":"4","last_reported":1731319794,"current_range_meters":11200,"station_id":"ce4bhk92rcd13ifvqgb0","pricing_plan_id":"cebpf4jnsgd1na2vs0mg"},{"bike_id":"32611972-68ae-49e3-a8eb-b24be408d53f","system_id":"levelo_inurba_marseille","lat":43.281006,"lon":5.378433,"is_reserved":false,"is_disabled":false,"rental_uris":{"android":"levelo://app?vid=32611972-68ae-49e3-a8eb-b24be408d53f","ios":"levelo://app?vid=32611972-68ae-49e3-a8eb-b24be408d53f"},"vehicle_type_id":"4","last_reported":1731319794,"current_range_meters":12000,"station_id":"ce4bha12rcd13ifvqee0","pricing_plan_id":"cebpf4jnsgd1na2vs0mg"},{"bike_id":"8148020f-1c2c-4fe4-8adc-b4b937986edf","system_id":"levelo_inurba_marseille","lat":43.34065,"lon":5.40969,"is_reserved":false,"is_disabled":false,"rental_uris":{"android":"levelo://app?vid=8148020f-1c2c-4fe4-8adc-b4b937986edf","ios":"levelo://app?vid=8148020f-1c2c-4fe4-8adc-b4b937986edf"},"vehicle_type_id":"4","last_reported":1731319794,"current_range_meters":36800,"station_id":"","pricing_plan_id":"cebpf4jnsgd1na2vs0mg"},{"bike_id":"490b143c-9a8c-43d3-bfd3-447f3300584e","system_id":"levelo_inurba_marseille","lat":43.30552,"lon":5.36554,"is_reserved":false,"is_disabled":false,"rental_uris":{"android":"levelo://app?vid=490b143c-9a8c-43d3-bfd3-447f3300584e","ios":"levelo://app?vid=490b143c-9a8c-43d3-bfd3-447f3300584e"},"vehicle_type_id":"4","last_reported":1731319794,"current_range_meters":14400,"station_id":"ce4bgs12rcd13ifvqcag","pricing_plan_id":"cebpf4jnsgd1na2vs0mg"},{"bike_id":"15cc5dd2-98ce-4e60-a381-0304fac7cb90","system_id":"levelo_inurba_marseille","lat":43.30121,"lon":5.39848,"is_reserved":false,"is_disabled":false,"rental_uris":{"android":"levelo://app?vid=15cc5dd2-98ce-4e60-a381-0304fac7cb90","ios":"levelo://app?vid=15cc5dd2-98ce-4e60-a381-0304fac7cb90"},"vehicle_type_id":"4","last_reported":1731319794,"current_range_meters":31200,"station_id":"ce4bh0h2rcd13ifvqd40","pricing_plan_id":"cebpf4jnsgd1na2vs0mg"},{"bike_id":"ecb2a974-e4b0-4ec6-9a12-c0201c9679b2","system_id":"levelo_inurba_marseille","lat":43.24652,"lon":5.38899,"is_reserved":false,"is_disabled":false,"rental_uris":{"android":"levelo://app?vid=ecb2a974-e4b0-4ec6-9a12-c0201c9679b2","ios":"levelo://app?vid=ecb2a974-e4b0-4ec6-9a12-c0201c9679b2"},"vehicle_type_id":"4","last_reported":1731319794,"current_range_meters":38800,"station_id":"ce4bhg12rcd13ifvqf60","pricing_plan_id":"cebpf4jnsgd1na2vs0mg"},{"bike_id":"072605ce-9062-4162-a5fb-983c88215696","system_id":"levelo_inurba_marseille","lat":43.30325,"lon":5.40431,"is_reserved":false,"is_disabled":false,"rental_uris":{"android":"levelo://app?vid=072605ce-9062-4162-a5fb-983c88215696","ios":"levelo://app?vid=072605ce-9062-4162-a5fb-983c88215696"},"vehicle_type_id":"4","last_reported":1731319794,"current_range_meters":32000,"station_id":"ce4bh012rcd13ifvqd10","pricing_plan_id":"cebpf4jnsgd1na2vs0mg"},{"bike_id":"9ab3b81e-4cd0-44e1-aa28-4461d425e0c0","system_id":"levelo_inurba_marseille","lat":43.3266,"lon":5.40985,"is_reserved":false,"is_disabled":false,"rental_uris":{"android":"levelo://app?vid=9ab3b81e-4cd0-44e1-aa28-4461d425e0c0","ios":"levelo://app?vid=9ab3b81e-4cd0-44e1-aa28-4461d425e0c0"},"vehicle_type_id":"4","last_reported":1731319794,"current_range_meters":33200,"station_id":"ce4bhpp2rcd13ifvqhgg","pricing_plan_id":"cebpf4jnsgd1na2vs0mg"},{"bike_id":"1f445bdb-6cba-4bc4-a07e-aa67ee26774c","system_id":"levelo_inurba_marseille","lat":43.30883,"lon":5.39637,"is_reserved":false,"is_disabled":false,"rental_uris":{"android":"levelo://app?vid=1f445bdb-6cba-4bc4-a07e-aa67ee26774c","ios":"levelo://app?vid=1f445bdb-6cba-4bc4-a07e-aa67ee26774c"},"vehicle_type_id":"4","last_reported":1731319794,"current_range_meters":40000,"station_id":"ce4bh012rcd13ifvqcv0","pricing_plan_id":"cebpf4jnsgd1na2vs0mg"},{"bike_id":"bedfe257-ec8e-44aa-a6ac-c456d43815ff","system_id":"levelo_inurba_marseille","lat":43.336073,"lon":5.41021,"is_reserved":false,"is_disabled":false,"rental_uris":{"android":"levelo://app?vid=bedfe257-ec8e-44aa-a6ac-c456d43815ff","ios":"levelo://app?vid=bedfe257-ec8e-44aa-a6ac-c456d43815ff"},"vehicle_type_id":"4","last_reported":1731319794,"current_range_meters":39200,"station_id":"ce4bhqh2rcd13ifvqhmg","pricing_plan_id":"cebpf4jnsgd1na2vs0mg"},{"bike_id":"ac659186-70a1-4190-99a4-216b54d87779","system_id":"levelo_inurba_marseille","lat":43.23155,"lon":5.437,"is_reserved":false,"is_disabled":false,"rental_uris":{"android":"levelo://app?vid=ac659186-70a1-4190-99a4-216b54d87779","ios":"levelo://app?vid=ac659186-70a1-4190-99a4-216b54d87779"},"vehicle_type_id":"4","last_reported":1731319794,"current_range_meters":36400,"station_id":"ce4bhmp2rcd13ifvqgog","pricing_plan_id":"cebpf4jnsgd1na2vs0mg"},{"bike_id":"b72ca6e7-47e9-42be-9a97-b74e22acdc0e","system_id":"levelo_inurba_marseille","lat":43.32104,"lon":5.36772,"is_reserved":false,"is_disabled":false,"rental_uris":{"android":"levelo://app?vid=b72ca6e7-47e9-42be-9a97-b74e22acdc0e","ios":"levelo://app?vid=b72ca6e7-47e9-42be-9a97-b74e22acdc0e"},"vehicle_type_id":"4","last_reported":1731319794,"current_range_meters":31200,"station_id":"ce4bhrh2rcd13ifvqhug","pricing_plan_id":"cebpf4jnsgd1na2vs0mg"},{"bike_id":"bb0d81f2-5de1-465d-a42f-883055648eee","system_id":"levelo_inurba_marseille","lat":43.28,"lon":5.40006,"is_reserved":false,"is_disabled":false,"rental_uris":{"android":"levelo://app?vid=bb0d81f2-5de1-465d-a42f-883055648eee","ios":"levelo://app?vid=bb0d81f2-5de1-465d-a42f-883055648eee"},"vehicle_type_id":"4","last_reported":1731319794,"current_range_meters":24400,"station_id":"ce4bho92rcd13ifvqh4g","pricing_plan_id":"cebpf4jnsgd1na2vs0mg"},{"bike_id":"b4d5962b-fc2e-4117-8811-372cd147927e","system_id":"levelo_inurba_marseille","lat":43.313595,"lon":5.36699,"is_reserved":false,"is_disabled":false,"rental_uris":{"android":"levelo://app?vid=b4d5962b-fc2e-4117-8811-372cd147927e","ios":"levelo://app?vid=b4d5962b-fc2e-4117-8811-372cd147927e"},"vehicle_type_id":"4","last_reported":1731319794,"current_range_meters":38400,"station_id":"ce4bgr92rcd13ifvqc6g","pricing_plan_id":"cebpf4jnsgd1na2vs0mg"},{"bike_id":"09cb3401-f44c-4645-80fb-f25d575be813","system_id":"levelo_inurba_marseille","lat":43.27206,"lon":5.39166,"is_reserved":false,"is_disabled":false,"rental_uris":{"android":"levelo://app?vid=09cb3401-f44c-4645-80fb-f25d575be813","ios":"levelo://app?vid=09cb3401-f44c-4645-80fb-f25d575be813"},"vehicle_type_id":"4","last_reported":1731319794,"current_range_meters":37600,"station_id":"ce4bhhp2rcd13ifvqfm0","pricing_plan_id":"cebpf4jnsgd1na2vs0mg"},{"bike_id":"922be998-49f1-4112-a352-89be868ef00d","system_id":"levelo_inurba_marseille","lat":43.29599,"lon":5.38096,"is_reserved":false,"is_disabled":false,"rental_uris":{"android":"levelo://app?vid=922be998-49f1-4112-a352-89be868ef00d","ios":"levelo://app?vid=922be998-49f1-4112-a352-89be868ef00d"},"vehicle_type_id":"4","last_reported":1731319794,"current_range_meters":17600,"station_id":"ce4bgl12rcd13ifvqbo0","pricing_plan_id":"cebpf4jnsgd1na2vs0mg"},{"bike_id":"e261fa72-7d32-4fb1-88c4-7333a1bbba14","system_id":"levelo_inurba_marseille","lat":43.26781,"lon":5.39413,"is_reserved":false,"is_disabled":false,"rental_uris":{"android":"levelo://app?vid=e261fa72-7d32-4fb1-88c4-7333a1bbba14","ios":"levelo://app?vid=e261fa72-7d32-4fb1-88c4-7333a1bbba14"},"vehicle_type_id":"4","last_reported":1731319794,"current_range_meters":38800,"station_id":"ce4bhh12rcd13ifvqfg0","pricing_plan_id":"cebpf4jnsgd1na2vs0mg"},{"bike_id":"2a9df905-d575-406b-9572-e562326b7921","system_id":"levelo_inurba_marseille","lat":43.30251,"lon":5.40058,"is_reserved":false,"is_disabled":false,"rental_uris":{"android":"levelo://app?vid=2a9df905-d575-406b-9572-e562326b7921","ios":"levelo://app?vid=2a9df905-d575-406b-9572-e562326b7921"},"vehicle_type_id":"4","last_reported":1731319794,"current_range_meters":31200,"station_id":"ce4bgvh2rcd13ifvqcs0","pricing_plan_id":"cebpf4jnsgd1na2vs0mg"},{"bike_id":"80bbe8ab-b96d-49cb-a576-6e7600e2ffd7","system_id":"levelo_inurba_marseille","lat":43.27968,"lon":5.38725,"is_reserved":false,"is_disabled":false,"rental_uris":{"android":"levelo://app?vid=80bbe8ab-b96d-49cb-a576-6e7600e2ffd7","ios":"levelo://app?vid=80bbe8ab-b96d-49cb-a576-6e7600e2ffd7"},"vehicle_type_id":"4","last_reported":1731319794,"current_range_meters":38800,"station_id":"ce4bhg12rcd13ifvqf80","pricing_plan_id":"cebpf4jnsgd1na2vs0mg"},{"bike_id":"901a8ee9-a86a-49aa-b9b0-44d3ae03326a","system_id":"levelo_inurba_marseille","lat":43.31714,"lon":5.43702,"is_reserved":false,"is_disabled":false,"rental_uris":{"android":"levelo://app?vid=901a8ee9-a86a-49aa-b9b0-44d3ae03326a","ios":"levelo://app?vid=901a8ee9-a86a-49aa-b9b0-44d3ae03326a"},"vehicle_type_id":"4","last_reported":1731319794,"current_range_meters":8400,"station_id":"ce4bhp92rcd13ifvqhcg","pricing_plan_id":"cebpf4jnsgd1na2vs0mg"},{"bike_id":"52a71ef5-8ef7-4a13-9edb-b931936b8cfb","system_id":"levelo_inurba_marseille","lat":43.33726,"lon":5.39186,"is_reserved":false,"is_disabled":false,"rental_uris":{"android":"levelo://app?vid=52a71ef5-8ef7-4a13-9edb-b931936b8cfb","ios":"levelo://app?vid=52a71ef5-8ef7-4a13-9edb-b931936b8cfb"},"vehicle_type_id":"4","last_reported":1731319794,"current_range_meters":30800,"station_id":"ce4bhr92rcd13ifvqhsg","pricing_plan_id":"cebpf4jnsgd1na2vs0mg"},{"bike_id":"f51901d5-f297-4260-8491-7be7250cd569","system_id":"levelo_inurba_marseille","lat":43.26566,"lon":5.38986,"is_reserved":false,"is_disabled":false,"rental_uris":{"android":"levelo://app?vid=f51901d5-f297-4260-8491-7be7250cd569","ios":"levelo://app?vid=f51901d5-f297-4260-8491-7be7250cd569"},"vehicle_type_id":"4","last_reported":1731319794,"current_range_meters":24400,"station_id":"ce4bhe12rcd13ifvqf30","pricing_plan_id":"cebpf4jnsgd1na2vs0mg"},{"bike_id":"cd8bfd38-9dfb-442b-a3e8-6ee87c13264a","system_id":"levelo_inurba_marseille","lat":43.26555,"lon":5.37282,"is_reserved":false,"is_disabled":false,"rental_uris":{"android":"levelo://app?vid=cd8bfd38-9dfb-442b-a3e8-6ee87c13264a","ios":"levelo://app?vid=cd8bfd38-9dfb-442b-a3e8-6ee87c13264a"},"vehicle_type_id":"4","last_reported":1731319794,"current_range_meters":33200,"station_id":"ce4bhg12rcd13ifvqf70","pricing_plan_id":"cebpf4jnsgd1na2vs0mg"},{"bike_id":"effe6a52-fd80-4e1d-a183-e0e0f1622037","system_id":"levelo_inurba_marseille","lat":43.31993,"lon":5.38148,"is_reserved":false,"is_disabled":false,"rental_uris":{"android":"levelo://app?vid=effe6a52-fd80-4e1d-a183-e0e0f1622037","ios":"levelo://app?vid=effe6a52-fd80-4e1d-a183-e0e0f1622037"},"vehicle_type_id":"4","last_reported":1731319794,"current_range_meters":29600,"station_id":"ce4bhr12rcd13ifvqhpg","pricing_plan_id":"cebpf4jnsgd1na2vs0mg"},{"bike_id":"c4230652-9dc7-46f6-acab-5e8d71ec9409","system_id":"levelo_inurba_marseille","lat":43.26932,"lon":5.38921,"is_reserved":false,"is_disabled":false,"rental_uris":{"android":"levelo://app?vid=c4230652-9dc7-46f6-acab-5e8d71ec9409","ios":"levelo://app?vid=c4230652-9dc7-46f6-acab-5e8d71ec9409"},"vehicle_type_id":"4","last_reported":1731319794,"current_range_meters":32400,"station_id":"ce4bhhh2rcd13ifvqfl0","pricing_plan_id":"cebpf4jnsgd1na2vs0mg"},{"bike_id":"ac0c247f-afb1-4fde-8602-a85a4e1a48cc","system_id":"levelo_inurba_marseille","lat":43.32654,"lon":5.4099,"is_reserved":false,"is_disabled":false,"rental_uris":{"android":"levelo://app?vid=ac0c247f-afb1-4fde-8602-a85a4e1a48cc","ios":"levelo://app?vid=ac0c247f-afb1-4fde-8602-a85a4e1a48cc"},"vehicle_type_id":"4","last_reported":1731319794,"current_range_meters":37600,"station_id":"ce4bhpp2rcd13ifvqhgg","pricing_plan_id":"cebpf4jnsgd1na2vs0mg"},{"bike_id":"7688bd19-3d11-406e-84d9-9c8cd611bb73","system_id":"levelo_inurba_marseille","lat":43.28156,"lon":5.42629,"is_reserved":false,"is_disabled":false,"rental_uris":{"android":"levelo://app?vid=7688bd19-3d11-406e-84d9-9c8cd611bb73","ios":"levelo://app?vid=7688bd19-3d11-406e-84d9-9c8cd611bb73"},"vehicle_type_id":"4","last_reported":1731319794,"current_range_meters":38000,"station_id":"ce4bhnh2rcd13ifvqgug","pricing_plan_id":"cebpf4jnsgd1na2vs0mg"},{"bike_id":"c74a236a-3f2a-4617-8ca8-47c166434983","system_id":"levelo_inurba_marseille","lat":43.28152,"lon":5.42642,"is_reserved":false,"is_disabled":false,"rental_uris":{"android":"levelo://app?vid=c74a236a-3f2a-4617-8ca8-47c166434983","ios":"levelo://app?vid=c74a236a-3f2a-4617-8ca8-47c166434983"},"vehicle_type_id":"4","last_reported":1731319794,"current_range_meters":33600,"station_id":"ce4bhnh2rcd13ifvqgug","pricing_plan_id":"cebpf4jnsgd1na2vs0mg"},{"bike_id":"a6b689d5-34ee-4666-a524-c8562c2f312f","system_id":"levelo_inurba_marseille","lat":43.29525,"lon":5.39036,"is_reserved":false,"is_disabled":false,"rental_uris":{"android":"levelo://app?vid=a6b689d5-34ee-4666-a524-c8562c2f312f","ios":"levelo://app?vid=a6b689d5-34ee-4666-a524-c8562c2f312f"},"vehicle_type_id":"4","last_reported":1731319794,"current_range_meters":33600,"station_id":"ce4bh3p2rcd13ifvqdp0","pricing_plan_id":"cebpf4jnsgd1na2vs0mg"},{"bike_id":"10854acd-bc01-4b81-976f-338cd3da6243","system_id":"levelo_inurba_marseille","lat":43.25105,"lon":5.40324,"is_reserved":false,"is_disabled":false,"rental_uris":{"android":"levelo://app?vid=10854acd-bc01-4b81-976f-338cd3da6243","ios":"levelo://app?vid=10854acd-bc01-4b81-976f-338cd3da6243"},"vehicle_type_id":"4","last_reported":1731319794,"current_range_meters":38800,"station_id":"ce4bhlh2rcd13ifvqgig","pricing_plan_id":"cebpf4jnsgd1na2vs0mg"},{"bike_id":"81c3c706-55d5-4515-bcda-e2c7ffc6d53f","system_id":"levelo_inurba_marseille","lat":43.30801,"lon":5.43513,"is_reserved":false,"is_disabled":false,"rental_uris":{"android":"levelo://app?vid=81c3c706-55d5-4515-bcda-e2c7ffc6d53f","ios":"levelo://app?vid=81c3c706-55d5-4515-bcda-e2c7ffc6d53f"},"vehicle_type_id":"4","last_reported":1731319794,"current_range_meters":38800,"station_id":"ce4bhph2rcd13ifvqheg","pricing_plan_id":"cebpf4jnsgd1na2vs0mg"},{"bike_id":"16edd5e5-0497-4831-bb6b-d18eb7e92293","system_id":"levelo_inurba_marseille","lat":43.24808,"lon":5.37453,"is_reserved":false,"is_disabled":false,"rental_uris":{"android":"levelo://app?vid=16edd5e5-0497-4831-bb6b-d18eb7e92293","ios":"levelo://app?vid=16edd5e5-0497-4831-bb6b-d18eb7e92293"},"vehicle_type_id":"4","last_reported":1731319794,"current_range_meters":24800,"station_id":"ce4bhgh2rcd13ifvqfb0","pricing_plan_id":"cebpf4jnsgd1na2vs0mg"},{"bike_id":"feb86f62-2c80-4064-8e38-33c5534046da","system_id":"levelo_inurba_marseille","lat":43.28194,"lon":5.39901,"is_reserved":false,"is_disabled":false,"rental_uris":{"android":"levelo://app?vid=feb86f62-2c80-4064-8e38-33c5534046da","ios":"levelo://app?vid=feb86f62-2c80-4064-8e38-33c5534046da"},"vehicle_type_id":"4","last_reported":1731319794,"current_range_meters":16800,"station_id":"","pricing_plan_id":"cebpf4jnsgd1na2vs0mg"},{"bike_id":"9861cb07-9aad-49de-bce6-c1409c08d3e4","system_id":"levelo_inurba_marseille","lat":43.301679,"lon":5.36621,"is_reserved":false,"is_disabled":false,"rental_uris":{"android":"levelo://app?vid=9861cb07-9aad-49de-bce6-c1409c08d3e4","ios":"levelo://app?vid=9861cb07-9aad-49de-bce6-c1409c08d3e4"},"vehicle_type_id":"4","last_reported":1731319794,"current_range_meters":31200,"station_id":"ce4bgrh2rcd13ifvqc8g","pricing_plan_id":"cebpf4jnsgd1na2vs0mg"},{"bike_id":"a2e0dbd8-6bb6-4f58-81e6-a5bb2ebfdca4","system_id":"levelo_inurba_marseille","lat":43.23194,"lon":5.35553,"is_reserved":false,"is_disabled":false,"rental_uris":{"android":"levelo://app?vid=a2e0dbd8-6bb6-4f58-81e6-a5bb2ebfdca4","ios":"levelo://app?vid=a2e0dbd8-6bb6-4f58-81e6-a5bb2ebfdca4"},"vehicle_type_id":"4","last_reported":1731319794,"current_range_meters":40000,"station_id":"ce4bhu92rcd13ifvqi70","pricing_plan_id":"cebpf4jnsgd1na2vs0mg"},{"bike_id":"1ffeff18-7c61-4ed0-b0fe-34a4ca7bc3d5","system_id":"levelo_inurba_marseille","lat":43.30949,"lon":5.39033,"is_reserved":false,"is_disabled":false,"rental_uris":{"android":"levelo://app?vid=1ffeff18-7c61-4ed0-b0fe-34a4ca7bc3d5","ios":"levelo://app?vid=1ffeff18-7c61-4ed0-b0fe-34a4ca7bc3d5"},"vehicle_type_id":"4","last_reported":1731319794,"current_range_meters":16400,"station_id":"","pricing_plan_id":"cebpf4jnsgd1na2vs0mg"},{"bike_id":"2253a08e-c630-4fea-a5bd-7d0c33c01446","system_id":"levelo_inurba_marseille","lat":43.26673,"lon":5.38255,"is_reserved":false,"is_disabled":false,"rental_uris":{"android":"levelo://app?vid=2253a08e-c630-4fea-a5bd-7d0c33c01446","ios":"levelo://app?vid=2253a08e-c630-4fea-a5bd-7d0c33c01446"},"vehicle_type_id":"4","last_reported":1731319794,"current_range_meters":28400,"station_id":"","pricing_plan_id":"cebpf4jnsgd1na2vs0mg"},{"bike_id":"9e3f5526-dc45-4ee1-9c8e-05c036614c5b","system_id":"levelo_inurba_marseille","lat":43.248,"lon":5.37455,"is_reserved":false,"is_disabled":false,"rental_uris":{"android":"levelo://app?vid=9e3f5526-dc45-4ee1-9c8e-05c036614c5b","ios":"levelo://app?vid=9e3f5526-dc45-4ee1-9c8e-05c036614c5b"},"vehicle_type_id":"4","last_reported":1731319794,"current_range_meters":36800,"station_id":"ce4bhgh2rcd13ifvqfb0","pricing_plan_id":"cebpf4jnsgd1na2vs0mg"},{"bike_id":"8e515963-9b94-4b46-b6d9-8bdf35acbd21","system_id":"levelo_inurba_marseille","lat":43.301456,"lon":5.374246,"is_reserved":false,"is_disabled":false,"rental_uris":{"android":"levelo://app?vid=8e515963-9b94-4b46-b6d9-8bdf35acbd21","ios":"levelo://app?vid=8e515963-9b94-4b46-b6d9-8bdf35acbd21"},"vehicle_type_id":"4","last_reported":1731319794,"current_range_meters":23200,"station_id":"ce4bgs92rcd13ifvqcc0","pricing_plan_id":"cebpf4jnsgd1na2vs0mg"},{"bike_id":"ab2a664c-93a2-484e-b5f9-981e6a4f4ccf","system_id":"levelo_inurba_marseille","lat":43.25862,"lon":5.39904,"is_reserved":false,"is_disabled":false,"rental_uris":{"android":"levelo://app?vid=ab2a664c-93a2-484e-b5f9-981e6a4f4ccf","ios":"levelo://app?vid=ab2a664c-93a2-484e-b5f9-981e6a4f4ccf"},"vehicle_type_id":"4","last_reported":1731319794,"current_range_meters":33200,"station_id":"ce4bhl92rcd13ifvqghg","pricing_plan_id":"cebpf4jnsgd1na2vs0mg"},{"bike_id":"f9d6f522-b8e8-45ab-ab43-51afd3e311d2","system_id":"levelo_inurba_marseille","lat":43.31363,"lon":5.36696,"is_reserved":false,"is_disabled":false,"rental_uris":{"android":"levelo://app?vid=f9d6f522-b8e8-45ab-ab43-51afd3e311d2","ios":"levelo://app?vid=f9d6f522-b8e8-45ab-ab43-51afd3e311d2"},"vehicle_type_id":"4","last_reported":1731319794,"current_range_meters":37600,"station_id":"ce4bgr92rcd13ifvqc6g","pricing_plan_id":"cebpf4jnsgd1na2vs0mg"},{"bike_id":"19781bd1-7c8d-4a05-8c58-ccd6096ac1e3","system_id":"levelo_inurba_marseille","lat":43.29037,"lon":5.37556,"is_reserved":false,"is_disabled":false,"rental_uris":{"android":"levelo://app?vid=19781bd1-7c8d-4a05-8c58-ccd6096ac1e3","ios":"levelo://app?vid=19781bd1-7c8d-4a05-8c58-ccd6096ac1e3"},"vehicle_type_id":"4","last_reported":1731319794,"current_range_meters":36000,"station_id":"ce4bh692rcd13ifvqe90","pricing_plan_id":"cebpf4jnsgd1na2vs0mg"},{"bike_id":"b7c36d9b-29ad-4921-99a4-58deb193c77f","system_id":"levelo_inurba_marseille","lat":43.29558,"lon":5.42292,"is_reserved":false,"is_disabled":false,"rental_uris":{"android":"levelo://app?vid=b7c36d9b-29ad-4921-99a4-58deb193c77f","ios":"levelo://app?vid=b7c36d9b-29ad-4921-99a4-58deb193c77f"},"vehicle_type_id":"4","last_reported":1731319794,"current_range_meters":12800,"station_id":"ce4bhph2rcd13ifvqhdg","pricing_plan_id":"cebpf4jnsgd1na2vs0mg"},{"bike_id":"7ca74166-6ab5-495b-9696-584d02466e1d","system_id":"levelo_inurba_marseille","lat":43.33603,"lon":5.41031,"is_reserved":false,"is_disabled":false,"rental_uris":{"android":"levelo://app?vid=7ca74166-6ab5-495b-9696-584d02466e1d","ios":"levelo://app?vid=7ca74166-6ab5-495b-9696-584d02466e1d"},"vehicle_type_id":"4","last_reported":1731319794,"current_range_meters":13600,"station_id":"ce4bhqh2rcd13ifvqhmg","pricing_plan_id":"cebpf4jnsgd1na2vs0mg"},{"bike_id":"0e1b6e24-8ebe-441d-ac01-cf4aede805b5","system_id":"levelo_inurba_marseille","lat":43.2827,"lon":5.35068,"is_reserved":false,"is_disabled":false,"rental_uris":{"android":"levelo://app?vid=0e1b6e24-8ebe-441d-ac01-cf4aede805b5","ios":"levelo://app?vid=0e1b6e24-8ebe-441d-ac01-cf4aede805b5"},"vehicle_type_id":"4","last_reported":1731319794,"current_range_meters":30800,"station_id":"ce4bhbp2rcd13ifvqerg","pricing_plan_id":"cebpf4jnsgd1na2vs0mg"},{"bike_id":"4ec64de8-7fe0-47cf-b20d-6779a023e615","system_id":"levelo_inurba_marseille","lat":43.26501,"lon":5.39532,"is_reserved":false,"is_disabled":false,"rental_uris":{"android":"levelo://app?vid=4ec64de8-7fe0-47cf-b20d-6779a023e615","ios":"levelo://app?vid=4ec64de8-7fe0-47cf-b20d-6779a023e615"},"vehicle_type_id":"4","last_reported":1731319794,"current_range_meters":38800,"station_id":"ce4bhi12rcd13ifvqfq0","pricing_plan_id":"cebpf4jnsgd1na2vs0mg"},{"bike_id":"de061b9d-0f97-4ef4-935a-3e8ebdf0540d","system_id":"levelo_inurba_marseille","lat":43.27371,"lon":5.36251,"is_reserved":false,"is_disabled":false,"rental_uris":{"android":"levelo://app?vid=de061b9d-0f97-4ef4-935a-3e8ebdf0540d","ios":"levelo://app?vid=de061b9d-0f97-4ef4-935a-3e8ebdf0540d"},"vehicle_type_id":"4","last_reported":1731319794,"current_range_meters":31200,"station_id":"ce4bhbh2rcd13ifvqeo0","pricing_plan_id":"cebpf4jnsgd1na2vs0mg"},{"bike_id":"7d7fc58e-790d-40dd-a4f3-0ca32ebc6ff0","system_id":"levelo_inurba_marseille","lat":43.3302,"lon":5.39035,"is_reserved":false,"is_disabled":false,"rental_uris":{"android":"levelo://app?vid=7d7fc58e-790d-40dd-a4f3-0ca32ebc6ff0","ios":"levelo://app?vid=7d7fc58e-790d-40dd-a4f3-0ca32ebc6ff0"},"vehicle_type_id":"4","last_reported":1731319794,"current_range_meters":38000,"station_id":"ce4bhr92rcd13ifvqhrg","pricing_plan_id":"cebpf4jnsgd1na2vs0mg"},{"bike_id":"496c4adf-6bcf-4e52-b951-ac9fa9431531","system_id":"levelo_inurba_marseille","lat":43.30141,"lon":5.37418,"is_reserved":false,"is_disabled":false,"rental_uris":{"android":"levelo://app?vid=496c4adf-6bcf-4e52-b951-ac9fa9431531","ios":"levelo://app?vid=496c4adf-6bcf-4e52-b951-ac9fa9431531"},"vehicle_type_id":"4","last_reported":1731319794,"current_range_meters":34000,"station_id":"ce4bgs92rcd13ifvqcc0","pricing_plan_id":"cebpf4jnsgd1na2vs0mg"},{"bike_id":"b16943e1-6e4b-4767-8789-7da828786277","system_id":"levelo_inurba_marseille","lat":43.34183,"lon":5.38613,"is_reserved":false,"is_disabled":false,"rental_uris":{"android":"levelo://app?vid=b16943e1-6e4b-4767-8789-7da828786277","ios":"levelo://app?vid=b16943e1-6e4b-4767-8789-7da828786277"},"vehicle_type_id":"4","last_reported":1731319794,"current_range_meters":14000,"station_id":"","pricing_plan_id":"cebpf4jnsgd1na2vs0mg"},{"bike_id":"8ddd264a-b043-4729-a13d-707fc33607bf","system_id":"levelo_inurba_marseille","lat":43.26061,"lon":5.39399,"is_reserved":false,"is_disabled":false,"rental_uris":{"android":"levelo://app?vid=8ddd264a-b043-4729-a13d-707fc33607bf","ios":"levelo://app?vid=8ddd264a-b043-4729-a13d-707fc33607bf"},"vehicle_type_id":"4","last_reported":1731319794,"current_range_meters":39200,"station_id":"ce4bhh92rcd13ifvqfj0","pricing_plan_id":"cebpf4jnsgd1na2vs0mg"},{"bike_id":"b654220c-40cc-42ba-a23b-e1d4d966eb1d","system_id":"levelo_inurba_marseille","lat":43.30469,"lon":5.37911,"is_reserved":false,"is_disabled":false,"rental_uris":{"android":"levelo://app?vid=b654220c-40cc-42ba-a23b-e1d4d966eb1d","ios":"levelo://app?vid=b654220c-40cc-42ba-a23b-e1d4d966eb1d"},"vehicle_type_id":"4","last_reported":1731319794,"current_range_meters":38000,"station_id":"ce4bgup2rcd13ifvqcn0","pricing_plan_id":"cebpf4jnsgd1na2vs0mg"},{"bike_id":"eabf1e72-9c75-49e7-a6a0-99f49f2dfe93","system_id":"levelo_inurba_marseille","lat":43.27907,"lon":5.38031,"is_reserved":false,"is_disabled":false,"rental_uris":{"android":"levelo://app?vid=eabf1e72-9c75-49e7-a6a0-99f49f2dfe93","ios":"levelo://app?vid=eabf1e72-9c75-49e7-a6a0-99f49f2dfe93"},"vehicle_type_id":"4","last_reported":1731319794,"current_range_meters":10800,"station_id":"ce4bhf92rcd13ifvqf50","pricing_plan_id":"cebpf4jnsgd1na2vs0mg"},{"bike_id":"c8185791-1fa0-4c5e-b4c3-c7daaf93185a","system_id":"levelo_inurba_marseille","lat":43.28269,"lon":5.35056,"is_reserved":false,"is_disabled":false,"rental_uris":{"android":"levelo://app?vid=c8185791-1fa0-4c5e-b4c3-c7daaf93185a","ios":"levelo://app?vid=c8185791-1fa0-4c5e-b4c3-c7daaf93185a"},"vehicle_type_id":"4","last_reported":1731319794,"current_range_meters":26000,"station_id":"ce4bhbp2rcd13ifvqerg","pricing_plan_id":"cebpf4jnsgd1na2vs0mg"},{"bike_id":"0acccacb-5c5e-4293-af73-a3ca4b76801a","system_id":"levelo_inurba_marseille","lat":43.27951,"lon":5.41047,"is_reserved":false,"is_disabled":false,"rental_uris":{"android":"levelo://app?vid=0acccacb-5c5e-4293-af73-a3ca4b76801a","ios":"levelo://app?vid=0acccacb-5c5e-4293-af73-a3ca4b76801a"},"vehicle_type_id":"4","last_reported":1731319794,"current_range_meters":8800,"station_id":"ce4bhnp2rcd13ifvqh0g","pricing_plan_id":"cebpf4jnsgd1na2vs0mg"},