{"last_updated":1753158992,"ttl":60,"version":"2.2","data":{"bikes":[{"bike_id":"53b742a7-31ae-4272-9bba-7740339e2a2f","system_id":"levelo_inurba_marseille","lat":43.33747,"lon":5.37463,"is_reserved":false,"is_disabled":false,"rental_uris":{"android":"levelo://app?vid=53b742a7-31ae-4272-9bba-7740339e2a2f","ios":"levelo://app?vid=53b742a7-31ae-4272-9bba-7740339e2a2f"},"vehicle_type_id":"1","last_reported":1753158993,"current_range_meters":3600,"station_id":"","pricing_plan_id":"cebpf4jnsgd1na2vs0mg"},{"bike_id":"433415c1-acea-4306-b3ad-c55437db8988","system_id":"levelo_inurba_marseille","lat":43.29512,"lon":5.38209,"is_reserved":false,"is_disabled":false,"rental_uris":{"android":"levelo://app?vid=433415c1-acea-4306-b3ad-c55437db8988","ios":"levelo://app?vid=433415c1-acea-4306-b3ad-c55437db8988"},"vehicle_type_id":"4","last_reported":1753158993,"current_range_meters":3200,"station_id":"","pricing_plan_id":"cebpf4jnsgd1na2vs0mg"},{"bike_id":"ed415a14-b4b4-4caf-8a06-7fd1c907bac5","system_id":"levelo_inurba_marseille","lat":43.215194,"lon":5.346196,"is_reserved":false,"is_disabled":false,"rental_uris":{"android":"levelo://app?vid=ed415a14-b4b4-4caf-8a06-7fd1c907bac5","ios":"levelo://app?vid=ed415a14-b4b4-4caf-8a06-7fd1c907bac5"},"vehicle_type_id":"4","last_reported":1753158993,"current_range_meters":3600,"station_id":"","pricing_plan_id":"cebpf4jnsgd1na2vs0mg"},{"bike_id":"e0970957-01ab-48d1-a9c0-d8f89b64ae56","system_id":"levelo_inurba_marseille","lat":43.273669,"lon":5.36254,"is_reserved":false,"is_disabled":true,"rental_uris":{"android":"levelo://app?vid=e0970957-01ab-48d1-a9c0-d8f89b64ae56","ios":"levelo://app?vid=e0970957-01ab-48d1-a9c0-d8f89b64ae56"},"vehicle_type_id":"4","last_reported":1753158993,"current_range_meters":4000,"station_id":"ce4bhbh2rcd13ifvqeo0","pricing_plan_id":"cebpf4jnsgd1na2vs0mg"},{"bike_id":"4a9980e9-7d00-48d3-a49c-b9371d3828d2","system_id":"levelo_inurba_marseille","lat":43.29618,"lon":5.372585,"is_reserved":false,"is_disabled":false,"rental_uris":{"android":"levelo://app?vid=4a9980e9-7d00-48d3-a49c-b9371d3828d2","ios":"levelo://app?vid=4a9980e9-7d00-48d3-a49c-b9371d3828d2"},"vehicle_type_id":"4","last_reported":1753158993,"current_range_meters":4000,"station_id":"","pricing_plan_id":"cebpf4jnsgd1na2vs0mg"},{"bike_id":"f18952d9-de72-4b00-ac50-ca46d1bc16b9","system_id":"levelo_inurba_marseille","lat":43.21196,"lon":5.35084,"is_reserved":false,"is_disabled":false,"rental_uris":{"android":"levelo://app?vid=f18952d9-de72-4b00-ac50-ca46d1bc16b9","ios":"levelo://app?vid=f18952d9-de72-4b00-ac50-ca46d1bc16b9"},"vehicle_type_id":"4","last_reported":1753158993,"current_range_meters":4000,"station_id":"st_cvj6sg6p6f1abm77japg","pricing_plan_id":"cebpf4jnsgd1na2vs0mg"},{"bike_id":"a6de290b-5c15-427b-bc37-8301607e1735","system_id":"levelo_inurba_marseille","lat":43.337725,"lon":5.374294,"is_reserved":false,"is_disabled":false,"rental_uris":{"android":"levelo://app?vid=a6de290b-5c15-427b-bc37-8301607e1735","ios":"levelo://app?vid=a6de290b-5c15-427b-bc37-8301607e1735"},"vehicle_type_id":"4","last_reported":1753158993,"current_range_meters":4400,"station_id":"","pricing_plan_id":"cebpf4jnsgd1na2vs0mg"},{"bike_id":"ef5c1446-37bd-4830-b7b0-ea420576a56f","system_id":"levelo_inurba_marseille","lat":43.268043,"lon":5.402625,"is_reserved":false,"is_disabled":true,"rental_uris":{"android":"levelo://app?vid=ef5c1446-37bd-4830-b7b0-ea420576a56f","ios":"levelo://app?vid=ef5c1446-37bd-4830-b7b0-ea420576a56f"},"vehicle_type_id":"4","last_reported":1753158993,"current_range_meters":4400,"station_id":"ce501612rcd8frsf0b60","pricing_plan_id":"cebpf4jnsgd1na2vs0mg"},{"bike_id":"630e83cd-6fcf-4ccd-bb9a-cce7e93f11d6","system_id":"levelo_inurba_marseille","lat":43.27386,"lon":5.36242,"is_reserved":false,"is_disabled":true,"rental_uris":{"android":"levelo://app?vid=630e83cd-6fcf-4ccd-bb9a-cce7e93f11d6","ios":"levelo://app?vid=630e83cd-6fcf-4ccd-bb9a-cce7e93f11d6"},"vehicle_type_id":"4","last_reported":1753158993,"current_range_meters":4800,"station_id":"ce4bhbh2rcd13ifvqeo0","pricing_plan_id":"cebpf4jnsgd1na2vs0mg"},{"bike_id":"fb2fc0ca-4212-483d-ba14-4e979ecf6b89","system_id":"levelo_inurba_marseille","lat":43.25941,"lon":5.40902,"is_reserved":false,"is_disabled":false,"rental_uris":{"android":"levelo://app?vid=fb2fc0ca-4212-483d-ba14-4e979ecf6b89","ios":"levelo://app?vid=fb2fc0ca-4212-483d-ba14-4e979ecf6b89"},"vehicle_type_id":"4","last_reported":1753158993,"current_range_meters":4800,"station_id":"ce4bhm92rcd13ifvqglg","pricing_plan_id":"cebpf4jnsgd1na2vs0mg"},{"bike_id":"64053951-11ab-4c5b-afcd-bee1a35f84be","system_id":"levelo_inurba_marseille","lat":43.292,"lon":5.35806,"is_reserved":false,"is_disabled":true,"rental_uris":{"android":"levelo://app?vid=64053951-11ab-4c5b-afcd-bee1a35f84be","ios":"levelo://app?vid=64053951-11ab-4c5b-afcd-bee1a35f84be"},"vehicle_type_id":"4","last_reported":1753158993,"current_range_meters":4800,"station_id":"ce4bhb12rcd13ifvqel0","pricing_plan_id":"cebpf4jnsgd1na2vs0mg"},{"bike_id":"54c62cfd-190d-4a0a-99a0-7a5cc5804e08","system_id":"levelo_inurba_marseille","lat":43.21185,"lon":5.35071,"is_reserved":false,"is_disabled":false,"rental_uris":{"android":"levelo://app?vid=54c62cfd-190d-4a0a-99a0-7a5cc5804e08","ios":"levelo://app?vid=54c62cfd-190d-4a0a-99a0-7a5cc5804e08"},"vehicle_type_id":"4","last_reported":1753158993,"current_range_meters":6400,"station_id":"st_cvj6sg6p6f1abm77japg","pricing_plan_id":"cebpf4jnsgd1na2vs0mg"},{"bike_id":"74223ff5-08d6-412c-8fa9-18427641ca37","system_id":"levelo_inurba_marseille","lat":43.231797,"lon":5.399792,"is_reserved":false,"is_disabled":false,"rental_uris":{"android":"levelo://app?vid=74223ff5-08d6-412c-8fa9-18427641ca37","ios":"levelo://app?vid=74223ff5-08d6-412c-8fa9-18427641ca37"},"vehicle_type_id":"4","last_reported":1753158993,"current_range_meters":6400,"station_id":"ce4bhn12rcd13ifvqgqg","pricing_plan_id":"cebpf4jnsgd1na2vs0mg"},{"bike_id":"2d5b8d2a-4bc9-4903-9a4e-7e2860e12b59","system_id":"levelo_inurba_marseille","lat":43.2621,"lon":5.37916,"is_reserved":false,"is_disabled":true,"rental_uris":{"android":"levelo://app?vid=2d5b8d2a-4bc9-4903-9a4e-7e2860e12b59","ios":"levelo://app?vid=2d5b8d2a-4bc9-4903-9a4e-7e2860e12b59"},"vehicle_type_id":"4","last_reported":1753158993,"current_range_meters":6400,"station_id":"ce4bhjp2rcd13ifvqg90","pricing_plan_id":"cebpf4jnsgd1na2vs0mg"},{"bike_id":"0fbf2b90-2e03-43d0-864b-3651ccc61800","system_id":"levelo_inurba_marseille","lat":43.286152,"lon":5.35103,"is_reserved":false,"is_disabled":false,"rental_uris":{"android":"levelo://app?vid=0fbf2b90-2e03-43d0-864b-3651ccc61800","ios":"levelo://app?vid=0fbf2b90-2e03-43d0-864b-3651ccc61800"},"vehicle_type_id":"4","last_reported":1753158993,"current_range_meters":6400,"station_id":"ce4bhch2rcd13ifvqeug","pricing_plan_id":"cebpf4jnsgd1na2vs0mg"},{"bike_id":"574953d5-8575-4a74-bdc7-0262f8fcbf01","system_id":"levelo_inurba_marseille","lat":43.283379,"lon":5.381055,"is_reserved":false,"is_disabled":true,"rental_uris":{"android":"levelo://app?vid=574953d5-8575-4a74-bdc7-0262f8fcbf01","ios":"levelo://app?vid=574953d5-8575-4a74-bdc7-0262f8fcbf01"},"vehicle_type_id":"4","last_reported":1753158993,"current_range_meters":6400,"station_id":"ce4bh412rcd13ifvqdr0","pricing_plan_id":"cebpf4jnsgd1na2vs0mg"},{"bike_id":"06333f60-d9ea-43c9-ba2a-80c3002c726d","system_id":"levelo_inurba_marseille","lat":43.211964,"lon":5.350748,"is_reserved":false,"is_disabled":false,"rental_uris":{"android":"levelo://app?vid=06333f60-d9ea-43c9-ba2a-80c3002c726d","ios":"levelo://app?vid=06333f60-d9ea-43c9-ba2a-80c3002c726d"},"vehicle_type_id":"4","last_reported":1753158993,"current_range_meters":6400,"station_id":"st_cvj6sg6p6f1abm77japg","pricing_plan_id":"cebpf4jnsgd1na2vs0mg"},{"bike_id":"e7349e47-8188-4fc1-98e6-c175d05fdb3f","system_id":"levelo_inurba_marseille","lat":43.292122,"lon":5.360439,"is_reserved":false,"is_disabled":true,"rental_uris":{"android":"levelo://app?vid=e7349e47-8188-4fc1-98e6-c175d05fdb3f","ios":"levelo://app?vid=e7349e47-8188-4fc1-98e6-c175d05fdb3f"},"vehicle_type_id":"4","last_reported":1753158993,"current_range_meters":6400,"station_id":"ce4bhbh2rcd13ifvqeqg","pricing_plan_id":"cebpf4jnsgd1na2vs0mg"},{"bike_id":"428942ae-179c-4d5f-8592-8493a768c578","system_id":"levelo_inurba_marseille","lat":43.239596,"lon":5.366251,"is_reserved":false,"is_disabled":true,"rental_uris":{"android":"levelo://app?vid=428942ae-179c-4d5f-8592-8493a768c578","ios":"levelo://app?vid=428942ae-179c-4d5f-8592-8493a768c578"},"vehicle_type_id":"4","last_reported":1753158993,"current_range_meters":8000,"station_id":"ce4bhi12rcd13ifvqfp0","pricing_plan_id":"cebpf4jnsgd1na2vs0mg"},{"bike_id":"8cac8672-6209-4b19-bca2-e64fa9998d3d","system_id":"levelo_inurba_marseille","lat":43.27803,"lon":5.35505,"is_reserved":false,"is_disabled":false,"rental_uris":{"android":"levelo://app?vid=8cac8672-6209-4b19-bca2-e64fa9998d3d","ios":"levelo://app?vid=8cac8672-6209-4b19-bca2-e64fa9998d3d"},"vehicle_type_id":"4","last_reported":1753158993,"current_range_meters":8400,"station_id":"","pricing_plan_id":"cebpf4jnsgd1na2vs0mg"},{"bike_id":"535bdaa4-ca45-42a4-9da6-eea71dd78143","system_id":"levelo_inurba_marseille","lat":43.28722,"lon":5.360896,"is_reserved":false,"is_disabled":false,"rental_uris":{"android":"levelo://app?vid=535bdaa4-ca45-42a4-9da6-eea71dd78143","ios":"levelo://app?vid=535bdaa4-ca45-42a4-9da6-eea71dd78143"},"vehicle_type_id":"4","last_reported":1753158993,"current_range_meters":8400,"station_id":"cki0cbj6b192h4jlfktg","pricing_plan_id":"cebpf4jnsgd1na2vs0mg"},{"bike_id":"bfba105d-90ae-4eb6-84d5-ccdad4cc9fb8","system_id":"levelo_inurba_marseille","lat":43.28949,"lon":5.36414,"is_reserved":false,"is_disabled":false,"rental_uris":{"android":"levelo://app?vid=bfba105d-90ae-4eb6-84d5-ccdad4cc9fb8","ios":"levelo://app?vid=bfba105d-90ae-4eb6-84d5-ccdad4cc9fb8"},"vehicle_type_id":"4","last_reported":1753158993,"current_range_meters":8400,"station_id":"ce4bhc92rcd13ifvqetg","pricing_plan_id":"cebpf4jnsgd1na2vs0mg"},{"bike_id":"21a144bd-367f-475e-bb38-34e0993cc910","system_id":"levelo_inurba_marseille","lat":43.2706,"lon":5.40258,"is_reserved":false,"is_disabled":false,"rental_uris":{"android":"levelo://app?vid=21a144bd-367f-475e-bb38-34e0993cc910","ios":"levelo://app?vid=21a144bd-367f-475e-bb38-34e0993cc910"},"vehicle_type_id":"4","last_reported":1753158993,"current_range_meters":8400,"station_id":"ce4bhk92rcd13ifvqgc0","pricing_plan_id":"cebpf4jnsgd1na2vs0mg"},{"bike_id":"e022a396-1cda-41e1-a581-20bbc6133ccf","system_id":"levelo_inurba_marseille","lat":43.21193,"lon":5.35075,"is_reserved":false,"is_disabled":false,"rental_uris":{"android":"levelo://app?vid=e022a396-1cda-41e1-a581-20bbc6133ccf","ios":"levelo://app?vid=e022a396-1cda-41e1-a581-20bbc6133ccf"},"vehicle_type_id":"4","last_reported":1753158993,"current_range_meters":8400,"station_id":"st_cvj6sg6p6f1abm77japg","pricing_plan_id":"cebpf4jnsgd1na2vs0mg"},{"bike_id":"b7082957-3a9f-4d91-9a0b-08d65eafeb7f","system_id":"levelo_inurba_marseille","lat":43.25005,"lon":5.38925,"is_reserved":false,"is_disabled":true,"rental_uris":{"android":"levelo://app?vid=b7082957-3a9f-4d91-9a0b-08d65eafeb7f","ios":"levelo://app?vid=b7082957-3a9f-4d91-9a0b-08d65eafeb7f"},"vehicle_type_id":"4","last_reported":1753158993,"current_range_meters":8400,"station_id":"ce4bhgp2rcd13ifvqfd0","pricing_plan_id":"cebpf4jnsgd1na2vs0mg"},{"bike_id":"0cb2c80a-7457-4a4a-ad92-f0361b5225d6","system_id":"levelo_inurba_marseille","lat":43.244389,"lon":5.37466,"is_reserved":false,"is_disabled":true,"rental_uris":{"android":"levelo://app?vid=0cb2c80a-7457-4a4a-ad92-f0361b5225d6","ios":"levelo://app?vid=0cb2c80a-7457-4a4a-ad92-f0361b5225d6"},"vehicle_type_id":"4","last_reported":1753158993,"current_range_meters":8400,"station_id":"","pricing_plan_id":"cebpf4jnsgd1na2vs0mg"},{"bike_id":"a16aee05-cbc8-4e68-94b9-27049373540b","system_id":"levelo_inurba_marseille","lat":43.24722,"lon":5.38026,"is_reserved":false,"is_disabled":false,"rental_uris":{"android":"levelo://app?vid=a16aee05-cbc8-4e68-94b9-27049373540b","ios":"levelo://app?vid=a16aee05-cbc8-4e68-94b9-27049373540b"},"vehicle_type_id":"4","last_reported":1753158993,"current_range_meters":8400,"station_id":"","pricing_plan_id":"cebpf4jnsgd1na2vs0mg"},{"bike_id":"f6c52911-fd77-413c-8d6c-a0a354ce15be","system_id":"levelo_inurba_marseille","lat":43.30257,"lon":5.40037,"is_reserved":false,"is_disabled":false,"rental_uris":{"android":"levelo://app?vid=f6c52911-fd77-413c-8d6c-a0a354ce15be","ios":"levelo://app?vid=f6c52911-fd77-413c-8d6c-a0a354ce15be"},"vehicle_type_id":"4","last_reported":1753158993,"current_range_meters":8400,"station_id":"ce4bgvh2rcd13ifvqcs0","pricing_plan_id":"cebpf4jnsgd1na2vs0mg"},{"bike_id":"540f1268-596e-4d56-983a-84b54e12af74","system_id":"levelo_inurba_marseille","lat":43.296864,"lon":5.372939,"is_reserved":false,"is_disabled":false,"rental_uris":{"android":"levelo://app?vid=540f1268-596e-4d56-983a-84b54e12af74","ios":"levelo://app?vid=540f1268-596e-4d56-983a-84b54e12af74"},"vehicle_type_id":"4","last_reported":1753158993,"current_range_meters":8400,"station_id":"ce4bgk12rcd13ifvqbj0","pricing_plan_id":"cebpf4jnsgd1na2vs0mg"},{"bike_id":"cf03fd04-6d88-4038-bf4c-bd4e4addcf6d","system_id":"levelo_inurba_marseille","lat":43.3062,"lon":5.37127,"is_reserved":false,"is_disabled":false,"rental_uris":{"android":"levelo://app?vid=cf03fd04-6d88-4038-bf4c-bd4e4addcf6d","ios":"levelo://app?vid=cf03fd04-6d88-4038-bf4c-bd4e4addcf6d"},"vehicle_type_id":"4","last_reported":1753158993,"current_range_meters":8800,"station_id":"","pricing_plan_id":"cebpf4jnsgd1na2vs0mg"},{"bike_id":"c695f162-6b42-40d7-8780-ed224e75f8e8","system_id":"levelo_inurba_marseille","lat":43.33756,"lon":5.37505,"is_reserved":false,"is_disabled":false,"rental_uris":{"android":"levelo://app?vid=c695f162-6b42-40d7-8780-ed224e75f8e8","ios":"levelo://app?vid=c695f162-6b42-40d7-8780-ed224e75f8e8"},"vehicle_type_id":"4","last_reported":1753158993,"current_range_meters":8800,"station_id":"","pricing_plan_id":"cebpf4jnsgd1na2vs0mg"},{"bike_id":"c3622956-1ba0-4f60-b9ef-b69da0bf1e85","system_id":"levelo_inurba_marseille","lat":43.276184,"lon":5.361166,"is_reserved":false,"is_disabled":false,"rental_uris":{"android":"levelo://app?vid=c3622956-1ba0-4f60-b9ef-b69da0bf1e85","ios":"levelo://app?vid=c3622956-1ba0-4f60-b9ef-b69da0bf1e85"},"vehicle_type_id":"4","last_reported":1753158993,"current_range_meters":8800,"station_id":"ce4bgj92rcd13ifvqbe0","pricing_plan_id":"cebpf4jnsgd1na2vs0mg"},{"bike_id":"f2d6a093-3173-4017-a0d0-07ecd701a9c7","system_id":"levelo_inurba_marseille","lat":43.254891,"lon":5.376519,"is_reserved":false,"is_disabled":true,"rental_uris":{"android":"levelo://app?vid=f2d6a093-3173-4017-a0d0-07ecd701a9c7","ios":"levelo://app?vid=f2d6a093-3173-4017-a0d0-07ecd701a9c7"},"vehicle_type_id":"4","last_reported":1753158993,"current_range_meters":9200,"station_id":"ce4bhh12rcd13ifvqff0","pricing_plan_id":"cebpf4jnsgd1na2vs0mg"},{"bike_id":"38b21c36-20f7-4023-93fa-4356edc8f88e","system_id":"levelo_inurba_marseille","lat":43.302636,"lon":5.400399,"is_reserved":false,"is_disabled":false,"rental_uris":{"android":"levelo://app?vid=38b21c36-20f7-4023-93fa-4356edc8f88e","ios":"levelo://app?vid=38b21c36-20f7-4023-93fa-4356edc8f88e"},"vehicle_type_id":"4","last_reported":1753158993,"current_range_meters":9600,"station_id":"ce4bgvh2rcd13ifvqcs0","pricing_plan_id":"cebpf4jnsgd1na2vs0mg"},{"bike_id":"f8d4901c-1955-42a6-bf5b-32cc66454dec","system_id":"levelo_inurba_marseille","lat":43.28396,"lon":5.37512,"is_reserved":false,"is_disabled":false,"rental_uris":{"android":"levelo://app?vid=f8d4901c-1955-42a6-bf5b-32cc66454dec","ios":"levelo://app?vid=f8d4901c-1955-42a6-bf5b-32cc66454dec"},"vehicle_type_id":"4","last_reported":1753158993,"current_range_meters":9600,"station_id":"ce4bh412rcd13ifvqds0","pricing_plan_id":"cebpf4jnsgd1na2vs0mg"},{"bike_id":"a85e6cc0-e61d-43e8-89a6-55ee6ebc3a86","system_id":"levelo_inurba_marseille","lat":43.272152,"lon":5.391894,"is_reserved":false,"is_disabled":false,"rental_uris":{"android":"levelo://app?vid=a85e6cc0-e61d-43e8-89a6-55ee6ebc3a86","ios":"levelo://app?vid=a85e6cc0-e61d-43e8-89a6-55ee6ebc3a86"},"vehicle_type_id":"4","last_reported":1753158993,"current_range_meters":9600,"station_id":"ce4bhhp2rcd13ifvqfm0","pricing_plan_id":"cebpf4jnsgd1na2vs0mg"},{"bike_id":"96a19b6d-f4d9-4c94-a779-af14526dce6c","system_id":"levelo_inurba_marseille","lat":43.291917,"lon":5.393306,"is_reserved":false,"is_disabled":false,"rental_uris":{"android":"levelo://app?vid=96a19b6d-f4d9-4c94-a779-af14526dce6c","ios":"levelo://app?vid=96a19b6d-f4d9-4c94-a779-af14526dce6c"},"vehicle_type_id":"4","last_reported":1753158993,"current_range_meters":9600,"station_id":"ce4bh192rcd13ifvqdd0","pricing_plan_id":"cebpf4jnsgd1na2vs0mg"},{"bike_id":"1bdc5e80-6d38-4620-9007-55ce514df051","system_id":"levelo_inurba_marseille","lat":43.230594,"lon":5.355205,"is_reserved":false,"is_disabled":false,"rental_uris":{"android":"levelo://app?vid=1bdc5e80-6d38-4620-9007-55ce514df051","ios":"levelo://app?vid=1bdc5e80-6d38-4620-9007-55ce514df051"},"vehicle_type_id":"4","last_reported":1753158993,"current_range_meters":10000,"station_id":"cpo3342slgdg3j2ifvpg","pricing_plan_id":"cebpf4jnsgd1na2vs0mg"},{"bike_id":"07481afa-6635-4dc1-8a31-8a97247e4afb","system_id":"levelo_inurba_marseille","lat":43.21185,"lon":5.35082,"is_reserved":false,"is_disabled":false,"rental_uris":{"android":"levelo://app?vid=07481afa-6635-4dc1-8a31-8a97247e4afb","ios":"levelo://app?vid=07481afa-6635-4dc1-8a31-8a97247e4afb"},"vehicle_type_id":"4","last_reported":1753158993,"current_range_meters":10000,"station_id":"st_cvj6sg6p6f1abm77japg","pricing_plan_id":"cebpf4jnsgd1na2vs0mg"},{"bike_id":"2e8d116a-61e3-4c96-a083-703b0b748cde","system_id":"levelo_inurba_marseille","lat":43.29877,"lon":5.38943,"is_reserved":false,"is_disabled":false,"rental_uris":{"android":"levelo://app?vid=2e8d116a-61e3-4c96-a083-703b0b748cde","ios":"levelo://app?vid=2e8d116a-61e3-4c96-a083-703b0b748cde"},"vehicle_type_id":"4","last_reported":1753158993,"current_range_meters":10000,"station_id":"ce4bh392rcd13ifvqdl0","pricing_plan_id":"cebpf4jnsgd1na2vs0mg"},{"bike_id":"e2a3d231-b3ab-46ea-8ac4-61447fd9e627","system_id":"levelo_inurba_marseille","lat":43.30737,"lon":5.42436,"is_reserved":false,"is_disabled":false,"rental_uris":{"android":"levelo://app?vid=e2a3d231-b3ab-46ea-8ac4-61447fd9e627","ios":"levelo://app?vid=e2a3d231-b3ab-46ea-8ac4-61447fd9e627"},"vehicle_type_id":"4","last_reported":1753158993,"current_range_meters":10000,"station_id":"st_cvj6ca6bvosntc0bfgr0","pricing_plan_id":"cebpf4jnsgd1na2vs0mg"},{"bike_id":"b355686e-9711-4834-88a1-57b23f58ae4b","system_id":"levelo_inurba_marseille","lat":43.23194,"lon":5.3555,"is_reserved":false,"is_disabled":false,"rental_uris":{"android":"levelo://app?vid=b355686e-9711-4834-88a1-57b23f58ae4b","ios":"levelo://app?vid=b355686e-9711-4834-88a1-57b23f58ae4b"},"vehicle_type_id":"4","last_reported":1753158993,"current_range_meters":10000,"station_id":"ce4bhu92rcd13ifvqi70","pricing_plan_id":"cebpf4jnsgd1na2vs0mg"},{"bike_id":"a85423c1-c5e4-4af3-806a-2b1bf2f2d17b","system_id":"levelo_inurba_marseille","lat":43.292794,"lon":5.401355,"is_reserved":false,"is_disabled":false,"rental_uris":{"android":"levelo://app?vid=a85423c1-c5e4-4af3-806a-2b1bf2f2d17b","ios":"levelo://app?vid=a85423c1-c5e4-4af3-806a-2b1bf2f2d17b"},"vehicle_type_id":"4","last_reported":1753158993,"current_range_meters":10000,"station_id":"ce4bh312rcd13ifvqdk0","pricing_plan_id":"cebpf4jnsgd1na2vs0mg"},{"bike_id":"5e35c1a9-f9ea-4e6b-a65e-56d2fa6dd71c","system_id":"levelo_inurba_marseille","lat":43.29033,"lon":5.39969,"is_reserved":false,"is_disabled":false,"rental_uris":{"android":"levelo://app?vid=5e35c1a9-f9ea-4e6b-a65e-56d2fa6dd71c","ios":"levelo://app?vid=5e35c1a9-f9ea-4e6b-a65e-56d2fa6dd71c"},"vehicle_type_id":"4","last_reported":1753158993,"current_range_meters":10000,"station_id":"ce4bh392rcd13ifvqdm0","pricing_plan_id":"cebpf4jnsgd1na2vs0mg"},{"bike_id":"e1c8ecda-08c6-445c-a782-d40045c154d3","system_id":"levelo_inurba_marseille","lat":43.286165,"lon":5.351037,"is_reserved":false,"is_disabled":true,"rental_uris":{"android":"levelo://app?vid=e1c8ecda-08c6-445c-a782-d40045c154d3","ios":"levelo://app?vid=e1c8ecda-08c6-445c-a782-d40045c154d3"},"vehicle_type_id":"4","last_reported":1753158993,"current_range_meters":10800,"station_id":"ce4bhch2rcd13ifvqeug","pricing_plan_id":"cebpf4jnsgd1na2vs0mg"},{"bike_id":"328e472f-5ae1-4ad9-833e-8bfd84d0df0a","system_id":"levelo_inurba_marseille","lat":43.279929,"lon":5.399401,"is_reserved":false,"is_disabled":false,"rental_uris":{"android":"levelo://app?vid=328e472f-5ae1-4ad9-833e-8bfd84d0df0a","ios":"levelo://app?vid=328e472f-5ae1-4ad9-833e-8bfd84d0df0a"},"vehicle_type_id":"4","last_reported":1753158993,"current_range_meters":10800,"station_id":"","pricing_plan_id":"cebpf4jnsgd1na2vs0mg"},{"bike_id":"082bead9-81cd-445f-b749-08d2f0bd61d0","system_id":"levelo_inurba_marseille","lat":43.22917,"lon":5.35371,"is_reserved":false,"is_disabled":true,"rental_uris":{"android":"levelo://app?vid=082bead9-81cd-445f-b749-08d2f0bd61d0","ios":"levelo://app?vid=082bead9-81cd-445f-b749-08d2f0bd61d0"},"vehicle_type_id":"4","last_reported":1753158993,"current_range_meters":10800,"station_id":"cpo3532slgdg3j2ikp40","pricing_plan_id":"cebpf4jnsgd1na2vs0mg"},{"bike_id":"2d9e50df-3619-414b-8197-61383b3bc244","system_id":"levelo_inurba_marseille","lat":43.283445,"lon":5.381041,"is_reserved":false,"is_disabled":false,"rental_uris":{"android":"levelo://app?vid=2d9e50df-3619-414b-8197-61383b3bc244","ios":"levelo://app?vid=2d9e50df-3619-414b-8197-61383b3bc244"},"vehicle_type_id":"4","last_reported":1753158993,"current_range_meters":10800,"station_id":"ce4bh412rcd13ifvqdr0","pricing_plan_id":"cebpf4jnsgd1na2vs0mg"},{"bike_id":"0cb9b113-1300-436e-883d-8f02f83daf4e","system_id":"levelo_inurba_marseille","lat":43.28406,"lon":5.37518,"is_reserved":false,"is_disabled":false,"rental_uris":{"android":"levelo://app?vid=0cb9b113-1300-436e-883d-8f02f83daf4e","ios":"levelo://app?vid=0cb9b113-1300-436e-883d-8f02f83daf4e"},"vehicle_type_id":"4","last_reported":1753158993,"current_range_meters":10800,"station_id":"ce4bh412rcd13ifvqds0","pricing_plan_id":"cebpf4jnsgd1na2vs0mg"},{"bike_id":"9c838529-2f8d-4cf1-ba58-27067ac84219","system_id":"levelo_inurba_marseille","lat":43.241729,"lon":5.363998,"is_reserved":false,"is_disabled":false,"rental_uris":{"android":"levelo://app?vid=9c838529-2f8d-4cf1-ba58-27067ac84219","ios":"levelo://app?vid=9c838529-2f8d-4cf1-ba58-27067ac84219"},"vehicle_type_id":"4","last_reported":1753158993,"current_range_meters":10800,"station_id":"cpo36qri1sfpv3e86is0","pricing_plan_id":"cebpf4jnsgd1na2vs0mg"},{"bike_id":"6af8e47e-5fe5-4b8c-9d07-a38c4cde5d71","system_id":"levelo_inurba_marseille","lat":43.24066,"lon":5.37751,"is_reserved":false,"is_disabled":false,"rental_uris":{"android":"levelo://app?vid=6af8e47e-5fe5-4b8c-9d07-a38c4cde5d71","ios":"levelo://app?vid=6af8e47e-5fe5-4b8c-9d07-a38c4cde5d71"},"vehicle_type_id":"4","last_reported":1753158993,"current_range_meters":10800,"station_id":"ce4bhnp2rcd13ifvqgvg","pricing_plan_id":"cebpf4jnsgd1na2vs0mg"},{"bike_id":"523d528a-80ef-4c0a-986f-e24abf3cd641","system_id":"levelo_inurba_marseille","lat":43.27315,"lon":5.39107,"is_reserved":false,"is_disabled":true,"rental_uris":{"android":"levelo://app?vid=523d528a-80ef-4c0a-986f-e24abf3cd641","ios":"levelo://app?vid=523d528a-80ef-4c0a-986f-e24abf3cd641"},"vehicle_type_id":"4","last_reported":1753158993,"current_range_meters":10800,"station_id":"ce4bhgp2rcd13ifvqfe0","pricing_plan_id":"cebpf4jnsgd1na2vs0mg"},{"bike_id":"dcf3708e-28f1-439c-a33c-3314b62f6374","system_id":"levelo_inurba_marseille","lat":43.28084,"lon":5.39687,"is_reserved":false,"is_disabled":false,"rental_uris":{"android":"levelo://app?vid=dcf3708e-28f1-439c-a33c-3314b62f6374","ios":"levelo://app?vid=dcf3708e-28f1-439c-a33c-3314b62f6374"},"vehicle_type_id":"4","last_reported":1753158993,"current_range_meters":10800,"station_id":"ce4bho12rcd13ifvqh2g","pricing_plan_id":"cebpf4jnsgd1na2vs0mg"},{"bike_id":"5c4d228e-f1dc-4e50-9cfa-8fb802e4d124","system_id":"levelo_inurba_marseille","lat":43.28623,"lon":5.3822,"is_reserved":false,"is_disabled":false,"rental_uris":{"android":"levelo://app?vid=5c4d228e-f1dc-4e50-9cfa-8fb802e4d124","ios":"levelo://app?vid=5c4d228e-f1dc-4e50-9cfa-8fb802e4d124"},"vehicle_type_id":"4","last_reported":1753158993,"current_range_meters":10800,"station_id":"","pricing_plan_id":"cebpf4jnsgd1na2vs0mg"},{"bike_id":"ac49738a-4d4f-43d3-9c67-46980e61ae95","system_id":"levelo_inurba_marseille","lat":43.31703,"lon":5.37665,"is_reserved":false,"is_disabled":false,"rental_uris":{"android":"levelo://app?vid=ac49738a-4d4f-43d3-9c67-46980e61ae95","ios":"levelo://app?vid=ac49738a-4d4f-43d3-9c67-46980e61ae95"},"vehicle_type_id":"4","last_reported":1753158993,"current_range_meters":10800,"station_id":"","pricing_plan_id":"cebpf4jnsgd1na2vs0mg"},{"bike_id":"829915d1-e486-4f77-a21a-1a0a65722b23","system_id":"levelo_inurba_marseille","lat":43.270726,"lon":5.422706,"is_reserved":false,"is_disabled":true,"rental_uris":{"android":"levelo://app?vid=829915d1-e486-4f77-a21a-1a0a65722b23","ios":"levelo://app?vid=829915d1-e486-4f77-a21a-1a0a65722b23"},"vehicle_type_id":"4","last_reported":1753158993,"current_range_meters":10800,"station_id":"ce4bhk92rcd13ifvqgb0","pricing_plan_id":"cebpf4jnsgd1na2vs0mg"},{"bike_id":"32ce66c5-6b2a-4336-9c55-d421679c8953","system_id":"levelo_inurba_marseille","lat":43.295052,"lon":5.389934,"is_reserved":false,"is_disabled":false,"rental_uris":{"android":"levelo://app?vid=32ce66c5-6b2a-4336-9c55-d421679c8953","ios":"levelo://app?vid=32ce66c5-6b2a-4336-9c55-d421679c8953"},"vehicle_type_id":"4","last_reported":1753158993,"current_range_meters":11200,"station_id":"ce4bh3p2rcd13ifvqdp0","pricing_plan_id":"cebpf4jnsgd1na2vs0mg"},{"bike_id":"3117258b-a0b2-4038-960e-7505313a6719","system_id":"levelo_inurba_marseille","lat":43.321128,"lon":5.367719,"is_reserved":false,"is_disabled":false,"rental_uris":{"android":"levelo://app?vid=3117258b-a0b2-4038-960e-7505313a6719","ios":"levelo://app?vid=3117258b-a0b2-4038-960e-7505313a6719"},"vehicle_type_id":"4","last_reported":1753158993,"current_range_meters":11200,"station_id":"ce4bhrh2rcd13ifvqhug","pricing_plan_id":"cebpf4jnsgd1na2vs0mg"},{"bike_id":"983d4263-f897-41cb-ada9-22b842710b92","system_id":"levelo_inurba_marseille","lat":43.28155,"lon":5.42654,"is_reserved":false,"is_disabled":false,"rental_uris":{"android":"levelo://app?vid=983d4263-f897-41cb-ada9-22b842710b92","ios":"levelo://app?vid=983d4263-f897-41cb-ada9-22b842710b92"},"vehicle_type_id":"4","last_reported":1753158993,"current_range_meters":11200,"station_id":"ce4bhnh2rcd13ifvqgug","pricing_plan_id":"cebpf4jnsgd1na2vs0mg"},{"bike_id":"d485f597-db0c-4d03-a6b7-f0eec45f33b2","system_id":"levelo_inurba_marseille","lat":43.2927,"lon":5.36843,"is_reserved":false,"is_disabled":true,"rental_uris":{"android":"levelo://app?vid=d485f597-db0c-4d03-a6b7-f0eec45f33b2","ios":"levelo://app?vid=d485f597-db0c-4d03-a6b7-f0eec45f33b2"},"vehicle_type_id":"4","last_reported":1753158993,"current_range_meters":11200,"station_id":"ce4bhbp2rcd13ifvqesg","pricing_plan_id":"cebpf4jnsgd1na2vs0mg"},{"bike_id":"eaff56b1-d219-42d3-ad41-870cb8ed5924","system_id":"levelo_inurba_marseille","lat":43.27908,"lon":5.38028,"is_reserved":false,"is_disabled":false,"rental_uris":{"android":"levelo://app?vid=eaff56b1-d219-42d3-ad41-870cb8ed5924","ios":"levelo://app?vid=eaff56b1-d219-42d3-ad41-870cb8ed5924"},"vehicle_type_id":"4","last_reported":1753158993,"current_range_meters":11200,"station_id":"ce4bhf92rcd13ifvqf50","pricing_plan_id":"cebpf4jnsgd1na2vs0mg"},{"bike_id":"2814fa79-5ad0-4958-8e9b-65a71a7a118a","system_id":"levelo_inurba_marseille","lat":43.29136,"lon":5.441699,"is_reserved":false,"is_disabled":false,"rental_uris":{"android":"levelo://app?vid=2814fa79-5ad0-4958-8e9b-65a71a7a118a","ios":"levelo://app?vid=2814fa79-5ad0-4958-8e9b-65a71a7a118a"},"vehicle_type_id":"4","last_reported":1753158993,"current_range_meters":11200,"station_id":"","pricing_plan_id":"cebpf4jnsgd1na2vs0mg"},{"bike_id":"c4ddf749-008b-4a14-af16-f3a13a431402","system_id":"levelo_inurba_marseille","lat":43.211907,"lon":5.350721,"is_reserved":false,"is_disabled":false,"rental_uris":{"android":"levelo://app?vid=c4ddf749-008b-4a14-af16-f3a13a431402","ios":"levelo://app?vid=c4ddf749-008b-4a14-af16-f3a13a431402"},"vehicle_type_id":"4","last_reported":1753158993,"current_range_meters":11600,"station_id":"st_cvj6sg6p6f1abm77japg","pricing_plan_id":"cebpf4jnsgd1na2vs0mg"},{"bike_id":"18a559b1-d0e0-4c64-bb26-9de38c17c032","system_id":"levelo_inurba_marseille","lat":43.27108,"lon":5.42277,"is_reserved":false,"is_disabled":false,"rental_uris":{"android":"levelo://app?vid=18a559b1-d0e0-4c64-bb26-9de38c17c032","ios":"levelo://app?vid=18a559b1-d0e0-4c64-bb26-9de38c17c032"},"vehicle_type_id":"4","last_reported":1753158993,"current_range_meters":11600,"station_id":"ce4bhk92rcd13ifvqgb0","pricing_plan_id":"cebpf4jnsgd1na2vs0mg"},{"bike_id":"1c22819b-ef69-41c3-af80-068c7a58af48","system_id":"levelo_inurba_marseille","lat":43.32104,"lon":5.36792,"is_reserved":false,"is_disabled":false,"rental_uris":{"android":"levelo://app?vid=1c22819b-ef69-41c3-af80-068c7a58af48","ios":"levelo://app?vid=1c22819b-ef69-41c3-af80-068c7a58af48"},"vehicle_type_id":"4","last_reported":1753158993,"current_range_meters":11600,"station_id":"ce4bhrh2rcd13ifvqhug","pricing_plan_id":"cebpf4jnsgd1na2vs0mg"},{"bike_id":"d0d3aa49-8b6f-4a01-b368-8d7a86d391dd","system_id":"levelo_inurba_marseille","lat":43.276241,"lon":5.361107,"is_reserved":false,"is_disabled":false,"rental_uris":{"android":"levelo://app?vid=d0d3aa49-8b6f-4a01-b368-8d7a86d391dd","ios":"levelo://app?vid=d0d3aa49-8b6f-4a01-b368-8d7a86d391dd"},"vehicle_type_id":"4","last_reported":1753158993,"current_range_meters":11600,"station_id":"ce4bgj92rcd13ifvqbe0","pricing_plan_id":"cebpf4jnsgd1na2vs0mg"},{"bike_id":"781d153d-8193-4f8d-9f81-8070aed1d0b5","system_id":"levelo_inurba_marseille","lat":43.289417,"lon":5.363979,"is_reserved":false,"is_disabled":false,"rental_uris":{"android":"levelo://app?vid=781d153d-8193-4f8d-9f81-8070aed1d0b5","ios":"levelo://app?vid=781d153d-8193-4f8d-9f81-8070aed1d0b5"},"vehicle_type_id":"4","last_reported":1753158993,"current_range_meters":12000,"station_id":"ce4bhc92rcd13ifvqetg","pricing_plan_id":"cebpf4jnsgd1na2vs0mg"},{"bike_id":"95ad42ea-7a03-4c56-9db4-019357f24f84","system_id":"levelo_inurba_marseille","lat":43.23193,"lon":5.39981,"is_reserved":false,"is_disabled":false,"rental_uris":{"android":"levelo://app?vid=95ad42ea-7a03-4c56-9db4-019357f24f84","ios":"levelo://app?vid=95ad42ea-7a03-4c56-9db4-019357f24f84"},"vehicle_type_id":"4","last_reported":1753158993,"current_range_meters":12000,"station_id":"ce4bhn12rcd13ifvqgqg","pricing_plan_id":"cebpf4jnsgd1na2vs0mg"},{"bike_id":"2e53d9f8-1df5-48f5-b763-5f8396a6577a","system_id":"levelo_inurba_marseille","lat":43.23156,"lon":5.35564,"is_reserved":false,"is_disabled":false,"rental_uris":{"android":"levelo://app?vid=2e53d9f8-1df5-48f5-b763-5f8396a6577a","ios":"levelo://app?vid=2e53d9f8-1df5-48f5-b763-5f8396a6577a"},"vehicle_type_id":"4","last_reported":1753158993,"current_range_meters":12000,"station_id":"ce4bhu92rcd13ifvqi70","pricing_plan_id":"cebpf4jnsgd1na2vs0mg"},{"bike_id":"584653da-8819-41c3-a027-5f277b80e764","system_id":"levelo_inurba_marseille","lat":43.27955,"lon":5.38709,"is_reserved":false,"is_disabled":false,"rental_uris":{"android":"levelo://app?vid=584653da-8819-41c3-a027-5f277b80e764","ios":"levelo://app?vid=584653da-8819-41c3-a027-5f277b80e764"},"vehicle_type_id":"4","last_reported":1753158993,"current_range_meters":12000,"station_id":"ce4bhg12rcd13ifvqf80","pricing_plan_id":"cebpf4jnsgd1na2vs0mg"},{"bike_id":"ec84aa5c-77e8-4caf-b79f-8fd3d205d300","system_id":"levelo_inurba_marseille","lat":43.28278,"lon":5.35073,"is_reserved":false,"is_disabled":true,"rental_uris":{"android":"levelo://app?vid=ec84aa5c-77e8-4caf-b79f-8fd3d205d300","ios":"levelo://app?vid=ec84aa5c-77e8-4caf-b79f-8fd3d205d300"},"vehicle_type_id":"4","last_reported":1753158993,"current_range_meters":12000,"station_id":"ce4bhbp2rcd13ifvqerg","pricing_plan_id":"cebpf4jnsgd1na2vs0mg"},{"bike_id":"667be1b5-d9c2-4b20-9ef6-81dd5e39a1ee","system_id":"levelo_inurba_marseille","lat":43.270713,"lon":5.422706,"is_reserved":false,"is_disabled":false,"rental_uris":{"android":"levelo://app?vid=667be1b5-d9c2-4b20-9ef6-81dd5e39a1ee","ios":"levelo://app?vid=667be1b5-d9c2-4b20-9ef6-81dd5e39a1ee"},"vehicle_type_id":"4","last_reported":1753158993,"current_range_meters":12400,"station_id":"ce4bhk92rcd13ifvqgb0","pricing_plan_id":"cebpf4jnsgd1na2vs0mg"},{"bike_id":"fb06cc63-b17d-4ae2-8f6f-683ddfde89cc","system_id":"levelo_inurba_marseille","lat":43.301342,"lon":5.398634,"is_reserved":false,"is_disabled":false,"rental_uris":{"android":"levelo://app?vid=fb06cc63-b17d-4ae2-8f6f-683ddfde89cc","ios":"levelo://app?vid=fb06cc63-b17d-4ae2-8f6f-683ddfde89cc"},"vehicle_type_id":"4","last_reported":1753158993,"current_range_meters":12400,"station_id":"ce4bh112rcd13ifvqda0","pricing_plan_id":"cebpf4jnsgd1na2vs0mg"},{"bike_id":"c43c3a06-ea1e-48f3-8d6b-d403c2218d7e","system_id":"levelo_inurba_marseille","lat":43.289477,"lon":5.396179,"is_reserved":false,"is_disabled":false,"rental_uris":{"android":"levelo://app?vid=c43c3a06-ea1e-48f3-8d6b-d403c2218d7e","ios":"levelo://app?vid=c43c3a06-ea1e-48f3-8d6b-d403c2218d7e"},"vehicle_type_id":"4","last_reported":1753158993,"current_range_meters":12400,"station_id":"ce4bh3h2rcd13ifvqdn0","pricing_plan_id":"cebpf4jnsgd1na2vs0mg"},{"bike_id":"289b7b04-082d-4df4-bce3-77c2c7e6429a","system_id":"levelo_inurba_marseille","lat":43.231879,"lon":5.399858,"is_reserved":false,"is_disabled":false,"rental_uris":{"android":"levelo://app?vid=289b7b04-082d-4df4-bce3-77c2c7e6429a","ios":"levelo://app?vid=289b7b04-082d-4df4-bce3-77c2c7e6429a"},"vehicle_type_id":"4","last_reported":1753158993,"current_range_meters":12400,"station_id":"ce4bhn12rcd13ifvqgqg","pricing_plan_id":"cebpf4jnsgd1na2vs0mg"},{"bike_id":"400e3982-68c6-43c1-994f-12bdcf4dc313","system_id":"levelo_inurba_marseille","lat":43.292513,"lon":5.409216,"is_reserved":false,"is_disabled":false,"rental_uris":{"android":"levelo://app?vid=400e3982-68c6-43c1-994f-12bdcf4dc313","ios":"levelo://app?vid=400e3982-68c6-43c1-994f-12bdcf4dc313"},"vehicle_type_id":"4","last_reported":1753158993,"current_range_meters":12400,"station_id":"ce4bh192rcd13ifvqdc0","pricing_plan_id":"cebpf4jnsgd1na2vs0mg"},{"bike_id":"996ec95e-5fe9-4d4e-8f13-61a9f9dafa5d","system_id":"levelo_inurba_marseille","lat":43.24077,"lon":5.37779,"is_reserved":false,"is_disabled":false,"rental_uris":{"android":"levelo://app?vid=996ec95e-5fe9-4d4e-8f13-61a9f9dafa5d","ios":"levelo://app?vid=996ec95e-5fe9-4d4e-8f13-61a9f9dafa5d"},"vehicle_type_id":"4","last_reported":1753158993,"current_range_meters":12400,"station_id":"ce4bhnp2rcd13ifvqgvg","pricing_plan_id":"cebpf4jnsgd1na2vs0mg"},{"bike_id":"85b008dd-0f9f-4205-aa28-4f549082c3e6","system_id":"levelo_inurba_marseille","lat":43.211881,"lon":5.350794,"is_reserved":false,"is_disabled":false,"rental_uris":{"android":"levelo://app?vid=85b008dd-0f9f-4205-aa28-4f549082c3e6","ios":"levelo://app?vid=85b008dd-0f9f-4205-aa28-4f549082c3e6"},"vehicle_type_id":"4","last_reported":1753158993,"current_range_meters":12800,"station_id":"st_cvj6sg6p6f1abm77japg","pricing_plan_id":"cebpf4jnsgd1na2vs0mg"},{"bike_id":"ba2b3a99-8668-4f5d-bab3-0079c47bd454","system_id":"levelo_inurba_marseille","lat":43.325336,"lon":5.414673,"is_reserved":false,"is_disabled":true,"rental_uris":{"android":"levelo://app?vid=ba2b3a99-8668-4f5d-bab3-0079c47bd454","ios":"levelo://app?vid=ba2b3a99-8668-4f5d-bab3-0079c47bd454"},"vehicle_type_id":"4","last_reported":1753158993,"current_range_meters":12800,"station_id":"ce4bhq12rcd13ifvqhhg","pricing_plan_id":"cebpf4jnsgd1na2vs0mg"},{"bike_id":"4bfba9d8-2088-4783-8f94-183d94cdfb12","system_id":"levelo_inurba_marseille","lat":43.30938,"lon":5.40142,"is_reserved":false,"is_disabled":false,"rental_uris":{"android":"levelo://app?vid=4bfba9d8-2088-4783-8f94-183d94cdfb12","ios":"levelo://app?vid=4bfba9d8-2088-4783-8f94-183d94cdfb12"},"vehicle_type_id":"4","last_reported":1753158993,"current_range_meters":12800,"station_id":"ce4bgvp2rcd13ifvqct0","pricing_plan_id":"cebpf4jnsgd1na2vs0mg"},{"bike_id":"ea4700e1-e28c-4ee5-986b-66e11352f60c","system_id":"levelo_inurba_marseille","lat":43.30948,"lon":5.39031,"is_reserved":false,"is_disabled":false,"rental_uris":{"android":"levelo://app?vid=ea4700e1-e28c-4ee5-986b-66e11352f60c","ios":"levelo://app?vid=ea4700e1-e28c-4ee5-986b-66e11352f60c"},"vehicle_type_id":"4","last_reported":1753158993,"current_range_meters":12800,"station_id":"ce4bgup2rcd13ifvqco0","pricing_plan_id":"cebpf4jnsgd1na2vs0mg"},{"bike_id":"8623e104-31b9-42b2-96cf-b9f1ba7058fc","system_id":"levelo_inurba_marseille","lat":43.21208,"lon":5.35057,"is_reserved":false,"is_disabled":false,"rental_uris":{"android":"levelo://app?vid=8623e104-31b9-42b2-96cf-b9f1ba7058fc","ios":"levelo://app?vid=8623e104-31b9-42b2-96cf-b9f1ba7058fc"},"vehicle_type_id":"4","last_reported":1753158993,"current_range_meters":12800,"station_id":"st_cvj6sg6p6f1abm77japg","pricing_plan_id":"cebpf4jnsgd1na2vs0mg"},{"bike_id":"bdff3499-1d7e-4e90-a13d-e43595e48949","system_id":"levelo_inurba_marseille","lat":43.27072,"lon":5.42292,"is_reserved":false,"is_disabled":false,"rental_uris":{"android":"levelo://app?vid=bdff3499-1d7e-4e90-a13d-e43595e48949","ios":"levelo://app?vid=bdff3499-1d7e-4e90-a13d-e43595e48949"},"vehicle_type_id":"4","last_reported":1753158993,"current_range_meters":13600,"station_id":"ce4bhk92rcd13ifvqgb0","pricing_plan_id":"cebpf4jnsgd1na2vs0mg"},{"bike_id":"3a720939-29fa-4f4f-b70d-5ad24683127e","system_id":"levelo_inurba_marseille","lat":43.28153,"lon":5.42664,"is_reserved":false,"is_disabled":false,"rental_uris":{"android":"levelo://app?vid=3a720939-29fa-4f4f-b70d-5ad24683127e","ios":"levelo://app?vid=3a720939-29fa-4f4f-b70d-5ad24683127e"},"vehicle_type_id":"4","last_reported":1753158993,"current_range_meters":13600,"station_id":"ce4bhnh2rcd13ifvqgug","pricing_plan_id":"cebpf4jnsgd1na2vs0mg"},{"bike_id":"e57606de-d549-4a50-8b75-91216215a181","system_id":"levelo_inurba_marseille","lat":43.27509,"lon":5.42463,"is_reserved":false,"is_disabled":true,"rental_uris":{"android":"levelo://app?vid=e57606de-d549-4a50-8b75-91216215a181","ios":"levelo://app?vid=e57606de-d549-4a50-8b75-91216215a181"},"vehicle_type_id":"4","last_reported":1753158993,"current_range_meters":13600,"station_id":"ce4bhn92rcd13ifvqgrg","pricing_plan_id":"cebpf4jnsgd1na2vs0mg"},{"bike_id":"1eef45c2-ccdc-4d31-8643-6312bbf498a1","system_id":"levelo_inurba_marseille","lat":43.330486,"lon":5.378355,"is_reserved":false,"is_disabled":false,"rental_uris":{"android":"levelo://app?vid=1eef45c2-ccdc-4d31-8643-6312bbf498a1","ios":"levelo://app?vid=1eef45c2-ccdc-4d31-8643-6312bbf498a1"},"vehicle_type_id":"4","last_reported":1753158993,"current_range_meters":13600,"station_id":"","pricing_plan_id":"cebpf4jnsgd1na2vs0mg"},{"bike_id":"8423e589-47bf-47a8-b90f-452fc938c46b","system_id":"levelo_inurba_marseille","lat":43.32306,"lon":5.36695,"is_reserved":false,"is_disabled":false,"rental_uris":{"android":"levelo://app?vid=8423e589-47bf-47a8-b90f-452fc938c46b","ios":"levelo://app?vid=8423e589-47bf-47a8-b90f-452fc938c46b"},"vehicle_type_id":"4","last_reported":1753158993,"current_range_meters":13600,"station_id":"ce4bhsh2rcd13ifvqi2g","pricing_plan_id":"cebpf4jnsgd1na2vs0mg"},{"bike_id":"0d04369e-f201-4daa-bf5d-cbf094f424a0","system_id":"levelo_inurba_marseille","lat":43.274771,"lon":5.424648,"is_reserved":false,"is_disabled":false,"rental_uris":{"android":"levelo://app?vid=0d04369e-f201-4daa-bf5d-cbf094f424a0","ios":"levelo://app?vid=0d04369e-f201-4daa-bf5d-cbf094f424a0"},"vehicle_type_id":"4","last_reported":1753158993,"current_range_meters":13600,"station_id":"ce4bhn92rcd13ifvqgrg","pricing_plan_id":"cebpf4jnsgd1na2vs0mg"},{"bike_id":"50d16da1-39af-48c8-9080-8fc1a2184959","system_id":"levelo_inurba_marseille","lat":43.21216,"lon":5.35053,"is_reserved":false,"is_disabled":false,"rental_uris":{"android":"levelo://app?vid=50d16da1-39af-48c8-9080-8fc1a2184959","ios":"levelo://app?vid=50d16da1-39af-48c8-9080-8fc1a2184959"},"vehicle_type_id":"4","last_reported":1753158993,"current_range_meters":13600,"station_id":"st_cvj6sg6p6f1abm77japg","pricing_plan_id":"cebpf4jnsgd1na2vs0mg"},{"bike_id":"b6191c96-af83-462f-a3cc-e4778a781fff","system_id":"levelo_inurba_marseille","lat":43.21196,"lon":5.35057,"is_reserved":false,"is_disabled":false,"rental_uris":{"android":"levelo://app?vid=b6191c96-af83-462f-a3cc-e4778a781fff","ios":"levelo://app?vid=b6191c96-af83-462f-a3cc-e4778a781fff"},"vehicle_type_id":"4","last_reported":1753158993,"current_range_meters":14000,"station_id":"st_cvj6sg6p6f1abm77japg","pricing_plan_id":"cebpf4jnsgd1na2vs0mg"},{"bike_id":"a5d420c1-6f63-4560-9fe2-e08db2c4fecb","system_id":"levelo_inurba_marseille","lat":43.211945,"lon":5.350729,"is_reserved":false,"is_disabled":false,"rental_uris":{"android":"levelo://app?vid=a5d420c1-6f63-4560-9fe2-e08db2c4fecb","ios":"levelo://app?vid=a5d420c1-6f63-4560-9fe2-e08db2c4fecb"},"vehicle_type_id":"4","last_reported":1753158993,"current_range_meters":14000,"station_id":"st_cvj6sg6p6f1abm77japg","pricing_plan_id":"cebpf4jnsgd1na2vs0mg"},{"bike_id":"7ec42a52-da66-41f1-b634-ce575b461b35","system_id":"levelo_inurba_marseille","lat":43.309262,"lon":5.401447,"is_reserved":false,"is_disabled":false,"rental_uris":{"android":"levelo://app?vid=7ec42a52-da66-41f1-b634-ce575b461b35","ios":"levelo://app?vid=7ec42a52-da66-41f1-b634-ce575b461b35"},"vehicle_type_id":"4","last_reported":1753158993,"current_range_meters":14000,"station_id":"ce4bgvp2rcd13ifvqct0","pricing_plan_id":"cebpf4jnsgd1na2vs0mg"},{"bike_id":"6ecd5a2b-6dae-44b3-a162-e5286af43d43","system_id":"levelo_inurba_marseille","lat":43.22535,"lon":5.34785,"is_reserved":false,"is_disabled":false,"rental_uris":{"android":"levelo://app?vid=6ecd5a2b-6dae-44b3-a162-e5286af43d43","ios":"levelo://app?vid=6ecd5a2b-6dae-44b3-a162-e5286af43d43"},"vehicle_type_id":"4","last_reported":1753158993,"current_range_meters":14000,"station_id":"st_cvj5dfep6f1abm77gieg","pricing_plan_id":"cebpf4jnsgd1na2vs0mg"},{"bike_id":"2d6095ea-f882-494d-a187-fa879408181e","system_id":"levelo_inurba_marseille","lat":43.251321,"lon":5.373376,"is_reserved":false,"is_disabled":false,"rental_uris":{"android":"levelo://app?vid=2d6095ea-f882-494d-a187-fa879408181e","ios":"levelo://app?vid=2d6095ea-f882-494d-a187-fa879408181e"},"vehicle_type_id":"4","last_reported":1753158993,"current_range_meters":14000,"station_id":"","pricing_plan_id":"cebpf4jnsgd1na2vs0mg"},{"bike_id":"76e8a4c7-1966-4c02-a21a-c2d4f4e224d8","system_id":"levelo_inurba_marseille","lat":43.29269,"lon":5.37624,"is_reserved":false,"is_disabled":true,"rental_uris":{"android":"levelo://app?vid=76e8a4c7-1966-4c02-a21a-c2d4f4e224d8","ios":"levelo://app?vid=76e8a4c7-1966-4c02-a21a-c2d4f4e224d8"},"vehicle_type_id":"4","last_reported":1753158993,"current_range_meters":14400,"station_id":"ce4bgi12rcd13ifvqb80","pricing_plan_id":"cebpf4jnsgd1na2vs0mg"},{"bike_id":"6d8aadac-2000-49b5-afc5-a32e8ef5e602","system_id":"levelo_inurba_marseille","lat":43.24095,"lon":5.37726,"is_reserved":false,"is_disabled":false,"rental_uris":{"android":"levelo://app?vid=6d8aadac-2000-49b5-afc5-a32e8ef5e602","ios":"levelo://app?vid=6d8aadac-2000-49b5-afc5-a32e8ef5e602"},"vehicle_type_id":"4","last_reported":1753158993,"current_range_meters":14400,"station_id":"ce4bhnp2rcd13ifvqgvg","pricing_plan_id":"cebpf4jnsgd1na2vs0mg"},{"bike_id":"6940e707-2866-429c-af31-7f2bd9c2bc86","system_id":"levelo_inurba_marseille","lat":43.241616,"lon":5.364004,"is_reserved":false,"is_disabled":false,"rental_uris":{"android":"levelo://app?vid=6940e707-2866-429c-af31-7f2bd9c2bc86","ios":"levelo://app?vid=6940e707-2866-429c-af31-7f2bd9c2bc86"},"vehicle_type_id":"4","last_reported":1753158993,"current_range_meters":14400,"station_id":"cpo36qri1sfpv3e86is0","pricing_plan_id":"cebpf4jnsgd1na2vs0mg"},{"bike_id":"c52f7ccb-8f42-42ed-bbe8-49a539d770ef","system_id":"levelo_inurba_marseille","lat":43.25586,"lon":5.38227,"is_reserved":false,"is_disabled":false,"rental_uris":{"android":"levelo://app?vid=c52f7ccb-8f42-42ed-bbe8-49a539d770ef","ios":"levelo://app?vid=c52f7ccb-8f42-42ed-bbe8-49a539d770ef"},"vehicle_type_id":"4","last_reported":1753158993,"current_range_meters":14400,"station_id":"ce4bhih2rcd13ifvqfs0","pricing_plan_id":"cebpf4jnsgd1na2vs0mg"},{"bike_id":"5c60ff00-8a7a-4c46-b539-0227854b2074","system_id":"levelo_inurba_marseille","lat":43.297777,"lon":5.381044,"is_reserved":false,"is_disabled":true,"rental_uris":{"android":"levelo://app?vid=5c60ff00-8a7a-4c46-b539-0227854b2074","ios":"levelo://app?vid=5c60ff00-8a7a-4c46-b539-0227854b2074"},"vehicle_type_id":"4","last_reported":1753158993,"current_range_meters":14400,"station_id":"ce4bgip2rcd13ifvqbb0","pricing_plan_id":"cebpf4jnsgd1na2vs0mg"},{"bike_id":"7ff4fc28-cadd-40d7-90f6-f685780a72ea","system_id":"levelo_inurba_marseille","lat":43.243926,"lon":5.370661,"is_reserved":false,"is_disabled":false,"rental_uris":{"android":"levelo://app?vid=7ff4fc28-cadd-40d7-90f6-f685780a72ea","ios":"levelo://app?vid=7ff4fc28-cadd-40d7-90f6-f685780a72ea"},"vehicle_type_id":"4","last_reported":1753158993,"current_range_meters":14800,"station_id":"ce4bhhh2rcd13ifvqfk0","pricing_plan_id":"cebpf4jnsgd1na2vs0mg"},{"bike_id":"0cb19f5e-6a19-4fc0-9b18-698188d68bf4","system_id":"levelo_inurba_marseille","lat":43.29726,"lon":5.43265,"is_reserved":false,"is_disabled":false,"rental_uris":{"android":"levelo://app?vid=0cb19f5e-6a19-4fc0-9b18-698188d68bf4","ios":"levelo://app?vid=0cb19f5e-6a19-4fc0-9b18-698188d68bf4"},"vehicle_type_id":"4","last_reported":1753158993,"current_range_meters":14800,"station_id":"","pricing_plan_id":"cebpf4jnsgd1na2vs0mg"},{"bike_id":"f6d4a8bf-8662-4c91-923f-e6d2ca5b0092","system_id":"levelo_inurba_marseille","lat":43.28414,"lon":5.37508,"is_reserved":false,"is_disabled":false,"rental_uris":{"android":"levelo://app?vid=f6d4a8bf-8662-4c91-923f-e6d2ca5b0092","ios":"levelo://app?vid=f6d4a8bf-8662-4c91-923f-e6d2ca5b0092"},"vehicle_type_id":"4","last_reported":1753158993,"current_range_meters":14800,"station_id":"ce4bh412rcd13ifvqds0","pricing_plan_id":"cebpf4jnsgd1na2vs0mg"},{"bike_id":"5a5db7b6-af2d-4029-8f39-cfa78d44a10d","system_id":"levelo_inurba_marseille","lat":43.276164,"lon":5.361274,"is_reserved":false,"is_disabled":false,"rental_uris":{"android":"levelo://app?vid=5a5db7b6-af2d-4029-8f39-cfa78d44a10d","ios":"levelo://app?vid=5a5db7b6-af2d-4029-8f39-cfa78d44a10d"},"vehicle_type_id":"4","last_reported":1753158993,"current_range_meters":14800,"station_id":"ce4bgj92rcd13ifvqbe0","pricing_plan_id":"cebpf4jnsgd1na2vs0mg"},{"bike_id":"68ad25bf-3ce4-4219-aae6-b4b4ca3df214","system_id":"levelo_inurba_marseille","lat":43.225044,"lon":5.347869,"is_reserved":false,"is_disabled":false,"rental_uris":{"android":"levelo://app?vid=68ad25bf-3ce4-4219-aae6-b4b4ca3df214","ios":"levelo://app?vid=68ad25bf-3ce4-4219-aae6-b4b4ca3df214"},"vehicle_type_id":"4","last_reported":1753158993,"current_range_meters":14800,"station_id":"st_cvj5dfep6f1abm77gieg","pricing_plan_id":"cebpf4jnsgd1na2vs0mg"},{"bike_id":"91faf937-6768-4101-98da-411036d125c4","system_id":"levelo_inurba_marseille","lat":43.22932,"lon":5.35385,"is_reserved":false,"is_disabled":false,"rental_uris":{"android":"levelo://app?vid=91faf937-6768-4101-98da-411036d125c4","ios":"levelo://app?vid=91faf937-6768-4101-98da-411036d125c4"},"vehicle_type_id":"4","last_reported":1753158993,"current_range_meters":14800,"station_id":"cpo3532slgdg3j2ikp40","pricing_plan_id":"cebpf4jnsgd1na2vs0mg"},{"bike_id":"7230cb4d-8cd2-4957-9d99-c27265ab6ce1","system_id":"levelo_inurba_marseille","lat":43.29299,"lon":5.37168,"is_reserved":false,"is_disabled":true,"rental_uris":{"android":"levelo://app?vid=7230cb4d-8cd2-4957-9d99-c27265ab6ce1","ios":"levelo://app?vid=7230cb4d-8cd2-4957-9d99-c27265ab6ce1"},"vehicle_type_id":"4","last_reported":1753158993,"current_range_meters":14800,"station_id":"ce4bgh92rcd13ifvqb40","pricing_plan_id":"cebpf4jnsgd1na2vs0mg"},{"bike_id":"5fc145b8-f138-4a9e-93e6-3babaebcf629","system_id":"levelo_inurba_marseille","lat":43.292696,"lon":5.401316,"is_reserved":false,"is_disabled":false,"rental_uris":{"android":"levelo://app?vid=5fc145b8-f138-4a9e-93e6-3babaebcf629","ios":"levelo://app?vid=5fc145b8-f138-4a9e-93e6-3babaebcf629"},"vehicle_type_id":"4","last_reported":1753158993,"current_range_meters":14800,"station_id":"ce4bh312rcd13ifvqdk0","pricing_plan_id":"cebpf4jnsgd1na2vs0mg"},{"bike_id":"06f0e7b5-15a0-4c85-a421-381e139dc51e","system_id":"levelo_inurba_marseille","lat":43.298961,"lon":5.436664,"is_reserved":false,"is_disabled":false,"rental_uris":{"android":"levelo://app?vid=06f0e7b5-15a0-4c85-a421-381e139dc51e","ios":"levelo://app?vid=06f0e7b5-15a0-4c85-a421-381e139dc51e"},"vehicle_type_id":"4","last_reported":1753158993,"current_range_meters":15200,"station_id":"ce4bhpp2rcd13ifvqhfg","pricing_plan_id":"cebpf4jnsgd1na2vs0mg"},{"bike_id":"30024855-0441-48a8-a6a8-7584d6af22c8","system_id":"levelo_inurba_marseille","lat":43.30934,"lon":5.4015,"is_reserved":false,"is_disabled":false,"rental_uris":{"android":"levelo://app?vid=30024855-0441-48a8-a6a8-7584d6af22c8","ios":"levelo://app?vid=30024855-0441-48a8-a6a8-7584d6af22c8"},"vehicle_type_id":"4","last_reported":1753158993,"current_range_meters":15200,"station_id":"ce4bgvp2rcd13ifvqct0","pricing_plan_id":"cebpf4jnsgd1na2vs0mg"},{"bike_id":"4d2fb385-600a-460f-817d-c81c8838ad28","system_id":"levelo_inurba_marseille","lat":43.3236,"lon":5.36748,"is_reserved":false,"is_disabled":false,"rental_uris":{"android":"levelo://app?vid=4d2fb385-600a-460f-817d-c81c8838ad28","ios":"levelo://app?vid=4d2fb385-600a-460f-817d-c81c8838ad28"},"vehicle_type_id":"4","last_reported":1753158993,"current_range_meters":15200,"station_id":"ce4bhsh2rcd13ifvqi2g","pricing_plan_id":"cebpf4jnsgd1na2vs0mg"},{"bike_id":"2c65fd0c-8341-4809-b3b2-6854e35356df","system_id":"levelo_inurba_marseille","lat":43.306496,"lon":5.400845,"is_reserved":false,"is_disabled":false,"rental_uris":{"android":"levelo://app?vid=2c65fd0c-8341-4809-b3b2-6854e35356df","ios":"levelo://app?vid=2c65fd0c-8341-4809-b3b2-6854e35356df"},"vehicle_type_id":"4","last_reported":1753158993,"current_range_meters":15200,"station_id":"ce4bh112rcd13ifvqda0","pricing_plan_id":"cebpf4jnsgd1na2vs0mg"},{"bike_id":"91d08a97-f4ec-47ae-aba7-eb40d08db0f5","system_id":"levelo_inurba_marseille","lat":43.211963,"lon":5.350785,"is_reserved":false,"is_disabled":false,"rental_uris":{"android":"levelo://app?vid=91d08a97-f4ec-47ae-aba7-eb40d08db0f5","ios":"levelo://app?vid=91d08a97-f4ec-47ae-aba7-eb40d08db0f5"},"vehicle_type_id":"4","last_reported":1753158993,"current_range_meters":15200,"station_id":"st_cvj6sg6p6f1abm77japg","pricing_plan_id":"cebpf4jnsgd1na2vs0mg"},{"bike_id":"dae9d2f9-4335-4d0e-9d6c-5de7f888ab5a","system_id":"levelo_inurba_marseille","lat":43.299,"lon":5.43667,"is_reserved":false,"is_disabled":false,"rental_uris":{"android":"levelo://app?vid=dae9d2f9-4335-4d0e-9d6c-5de7f888ab5a","ios":"levelo://app?vid=dae9d2f9-4335-4d0e-9d6c-5de7f888ab5a"},"vehicle_type_id":"4","last_reported":1753158993,"current_range_meters":16000,"station_id":"ce4bhpp2rcd13ifvqhfg","pricing_plan_id":"cebpf4jnsgd1na2vs0mg"},{"bike_id":"67f314e7-8218-4c48-95e0-7357b53b5ceb","system_id":"levelo_inurba_marseille","lat":43.28485,"lon":5.38536,"is_reserved":false,"is_disabled":false,"rental_uris":{"android":"levelo://app?vid=67f314e7-8218-4c48-95e0-7357b53b5ceb","ios":"levelo://app?vid=67f314e7-8218-4c48-95e0-7357b53b5ceb"},"vehicle_type_id":"4","last_reported":1753158993,"current_range_meters":16000,"station_id":"","pricing_plan_id":"cebpf4jnsgd1na2vs0mg"},{"bike_id":"a521607d-1c0a-4b41-a0f1-43c2608320f8","system_id":"levelo_inurba_marseille","lat":43.28225,"lon":5.395079,"is_reserved":false,"is_disabled":false,"rental_uris":{"android":"levelo://app?vid=a521607d-1c0a-4b41-a0f1-43c2608320f8","ios":"levelo://app?vid=a521607d-1c0a-4b41-a0f1-43c2608320f8"},"vehicle_type_id":"4","last_reported":1753158993,"current_range_meters":16000,"station_id":"","pricing_plan_id":"cebpf4jnsgd1na2vs0mg"},{"bike_id":"1ba771b0-5212-4f98-b002-d31b9afe16c2","system_id":"levelo_inurba_marseille","lat":43.27634,"lon":5.36111,"is_reserved":false,"is_disabled":false,"rental_uris":{"android":"levelo://app?vid=1ba771b0-5212-4f98-b002-d31b9afe16c2","ios":"levelo://app?vid=1ba771b0-5212-4f98-b002-d31b9afe16c2"},"vehicle_type_id":"4","last_reported":1753158993,"current_range_meters":16000,"station_id":"ce4bgj92rcd13ifvqbe0","pricing_plan_id":"cebpf4jnsgd1na2vs0mg"},{"bike_id":"d05bc00b-7e16-4441-9e07-1ae48a2b4f5f","system_id":"levelo_inurba_marseille","lat":43.274931,"lon":5.424537,"is_reserved":false,"is_disabled":false,"rental_uris":{"android":"levelo://app?vid=d05bc00b-7e16-4441-9e07-1ae48a2b4f5f","ios":"levelo://app?vid=d05bc00b-7e16-4441-9e07-1ae48a2b4f5f"},"vehicle_type_id":"4","last_reported":1753158993,"current_range_meters":16000,"station_id":"ce4bhn92rcd13ifvqgrg","pricing_plan_id":"cebpf4jnsgd1na2vs0mg"},{"bike_id":"034fb144-e964-4bcb-aafe-c2009eb12513","system_id":"levelo_inurba_marseille","lat":43.29786,"lon":5.39353,"is_reserved":false,"is_disabled":false,"rental_uris":{"android":"levelo://app?vid=034fb144-e964-4bcb-aafe-c2009eb12513","ios":"levelo://app?vid=034fb144-e964-4bcb-aafe-c2009eb12513"},"vehicle_type_id":"4","last_reported":1753158993,"current_range_meters":16000,"station_id":"chh1huq6cuj3fo74tm60","pricing_plan_id":"cebpf4jnsgd1na2vs0mg"},{"bike_id":"fe732a6c-bff8-47cc-932a-3c976c2c7a76","system_id":"levelo_inurba_marseille","lat":43.280363,"lon":5.369555,"is_reserved":false,"is_disabled":true,"rental_uris":{"android":"levelo://app?vid=fe732a6c-bff8-47cc-932a-3c976c2c7a76","ios":"levelo://app?vid=fe732a6c-bff8-47cc-932a-3c976c2c7a76"},"vehicle_type_id":"4","last_reported":1753158993,"current_range_meters":16400,"station_id":"","pricing_plan_id":"cebpf4jnsgd1na2vs0mg"},{"bike_id":"67db1a2b-f59b-4d47-b4d5-6f939adc4475","system_id":"levelo_inurba_marseille","lat":43.279186,"lon":5.395824,"is_reserved":false,"is_disabled":false,"rental_uris":{"android":"levelo://app?vid=67db1a2b-f59b-4d47-b4d5-6f939adc4475","ios":"levelo://app?vid=67db1a2b-f59b-4d47-b4d5-6f939adc4475"},"vehicle_type_id":"4","last_reported":1753158993,"current_range_meters":16400,"station_id":"ce4bhf92rcd13ifvqf40","pricing_plan_id":"cebpf4jnsgd1na2vs0mg"},{"bike_id":"de4e98c3-82ca-4c88-9379-c8eb99022426","system_id":"levelo_inurba_marseille","lat":43.22929,"lon":5.3536,"is_reserved":false,"is_disabled":true,"rental_uris":{"android":"levelo://app?vid=de4e98c3-82ca-4c88-9379-c8eb99022426","ios":"levelo://app?vid=de4e98c3-82ca-4c88-9379-c8eb99022426"},"vehicle_type_id":"4","last_reported":1753158993,"current_range_meters":16400,"station_id":"cpo3532slgdg3j2ikp40","pricing_plan_id":"cebpf4jnsgd1na2vs0mg"},{"bike_id":"cd7440a2-a14f-4b5c-84dc-d480300ed6f8","system_id":"levelo_inurba_marseille","lat":43.30642,"lon":5.40063,"is_reserved":false,"is_disabled":false,"rental_uris":{"android":"levelo://app?vid=cd7440a2-a14f-4b5c-84dc-d480300ed6f8","ios":"levelo://app?vid=cd7440a2-a14f-4b5c-84dc-d480300ed6f8"},"vehicle_type_id":"4","last_reported":1753158993,"current_range_meters":16400,"station_id":"ce4bh112rcd13ifvqda0","pricing_plan_id":"cebpf4jnsgd1na2vs0mg"},{"bike_id":"d063c1cd-0f91-45f5-b7d1-cb578dd52878","system_id":"levelo_inurba_marseille","lat":43.289414,"lon":5.396326,"is_reserved":false,"is_disabled":false,"rental_uris":{"android":"levelo://app?vid=d063c1cd-0f91-45f5-b7d1-cb578dd52878","ios":"levelo://app?vid=d063c1cd-0f91-45f5-b7d1-cb578dd52878"},"vehicle_type_id":"4","last_reported":1753158993,"current_range_meters":16400,"station_id":"ce4bh3h2rcd13ifvqdn0","pricing_plan_id":"cebpf4jnsgd1na2vs0mg"},{"bike_id":"13adf853-6ca7-4ebd-8c9f-f4512dd3a322","system_id":"levelo_inurba_marseille","lat":43.33226,"lon":5.39829,"is_reserved":false,"is_disabled":true,"rental_uris":{"android":"levelo://app?vid=13adf853-6ca7-4ebd-8c9f-f4512dd3a322","ios":"levelo://app?vid=13adf853-6ca7-4ebd-8c9f-f4512dd3a322"},"vehicle_type_id":"4","last_reported":1753158993,"current_range_meters":16400,"station_id":"","pricing_plan_id":"cebpf4jnsgd1na2vs0mg"},{"bike_id":"1367b248-8421-4a8a-b4ce-b5b27d626155","system_id":"levelo_inurba_marseille","lat":43.28045,"lon":5.36954,"is_reserved":false,"is_disabled":false,"rental_uris":{"android":"levelo://app?vid=1367b248-8421-4a8a-b4ce-b5b27d626155","ios":"levelo://app?vid=1367b248-8421-4a8a-b4ce-b5b27d626155"},"vehicle_type_id":"4","last_reported":1753158993,"current_range_meters":16400,"station_id":"ce4bha12rcd13ifvqef0","pricing_plan_id":"cebpf4jnsgd1na2vs0mg"},{"bike_id":"b050b2a0-6d4d-4d6b-b7de-6a89501ce2b7","system_id":"levelo_inurba_marseille","lat":43.2896,"lon":5.36388,"is_reserved":false,"is_disabled":true,"rental_uris":{"android":"levelo://app?vid=b050b2a0-6d4d-4d6b-b7de-6a89501ce2b7","ios":"levelo://app?vid=b050b2a0-6d4d-4d6b-b7de-6a89501ce2b7"},"vehicle_type_id":"4","last_reported":1753158993,"current_range_meters":16400,"station_id":"ce4bhc92rcd13ifvqetg","pricing_plan_id":"cebpf4jnsgd1na2vs0mg"},{"bike_id":"87bc9e6f-1d5b-4237-a1df-3b5cfd8a9777","system_id":"levelo_inurba_marseille","lat":43.211945,"lon":5.350691,"is_reserved":false,"is_disabled":false,"rental_uris":{"android":"levelo://app?vid=87bc9e6f-1d5b-4237-a1df-3b5cfd8a9777","ios":"levelo://app?vid=87bc9e6f-1d5b-4237-a1df-3b5cfd8a9777"},"vehicle_type_id":"4","last_reported":1753158993,"current_range_meters":16400,"station_id":"st_cvj6sg6p6f1abm77japg","pricing_plan_id":"cebpf4jnsgd1na2vs0mg"},{"bike_id":"abc5489a-f823-4dc4-b736-76f0b8370bbd","system_id":"levelo_inurba_marseille","lat":43.24168,"lon":5.36385,"is_reserved":false,"is_disabled":false,"rental_uris":{"android":"levelo://app?vid=abc5489a-f823-4dc4-b736-76f0b8370bbd","ios":"levelo://app?vid=abc5489a-f823-4dc4-b736-76f0b8370bbd"},"vehicle_type_id":"4","last_reported":1753158993,"current_range_meters":16400,"station_id":"cpo36qri1sfpv3e86is0","pricing_plan_id":"cebpf4jnsgd1na2vs0mg"},{"bike_id":"668bfa40-7ae0-42dd-a6b6-6631a40f0c0f","system_id":"levelo_inurba_marseille","lat":43.331399,"lon":5.385985,"is_reserved":false,"is_disabled":false,"rental_uris":{"android":"levelo://app?vid=668bfa40-7ae0-42dd-a6b6-6631a40f0c0f","ios":"levelo://app?vid=668bfa40-7ae0-42dd-a6b6-6631a40f0c0f"},"vehicle_type_id":"4","last_reported":1753158993,"current_range_meters":16400,"station_id":"","pricing_plan_id":"cebpf4jnsgd1na2vs0mg"},{"bike_id":"b52df7e2-ad75-4d6b-a395-f1eb700f2fd1","system_id":"levelo_inurba_marseille","lat":43.24135,"lon":5.36437,"is_reserved":false,"is_disabled":false,"rental_uris":{"android":"levelo://app?vid=b52df7e2-ad75-4d6b-a395-f1eb700f2fd1","ios":"levelo://app?vid=b52df7e2-ad75-4d6b-a395-f1eb700f2fd1"},"vehicle_type_id":"4","last_reported":1753158993,"current_range_meters":16400,"station_id":"","pricing_plan_id":"cebpf4jnsgd1na2vs0mg"},{"bike_id":"5e7786c0-b9df-45d9-9800-77100c3aac18","system_id":"levelo_inurba_marseille","lat":43.288423,"lon":5.393429,"is_reserved":false,"is_disabled":false,"rental_uris":{"android":"levelo://app?vid=5e7786c0-b9df-45d9-9800-77100c3aac18","ios":"levelo://app?vid=5e7786c0-b9df-45d9-9800-77100c3aac18"},"vehicle_type_id":"4","last_reported":1753158993,"current_range_meters":16800,"station_id":"ce4bh2p2rcd13ifvqdi0","pricing_plan_id":"cebpf4jnsgd1na2vs0mg"},{"bike_id":"35373130-f4cd-44cb-876f-f02868a8f40f","system_id":"levelo_inurba_marseille","lat":43.28404,"lon":5.37526,"is_reserved":false,"is_disabled":false,"rental_uris":{"android":"levelo://app?vid=35373130-f4cd-44cb-876f-f02868a8f40f","ios":"levelo://app?vid=35373130-f4cd-44cb-876f-f02868a8f40f"},"vehicle_type_id":"4","last_reported":1753158993,"current_range_meters":16800,"station_id":"ce4bh412rcd13ifvqds0","pricing_plan_id":"cebpf4jnsgd1na2vs0mg"},{"bike_id":"93f14dd9-fd91-428f-959e-464e3035ad74","system_id":"levelo_inurba_marseille","lat":43.30463,"lon":5.37901,"is_reserved":false,"is_disabled":false,"rental_uris":{"android":"levelo://app?vid=93f14dd9-fd91-428f-959e-464e3035ad74","ios":"levelo://app?vid=93f14dd9-fd91-428f-959e-464e3035ad74"},"vehicle_type_id":"4","last_reported":1753158993,"current_range_meters":16800,"station_id":"ce4bgup2rcd13ifvqcn0","pricing_plan_id":"cebpf4jnsgd1na2vs0mg"},{"bike_id":"f1fbf846-f3f1-417d-8c94-d51d64694164","system_id":"levelo_inurba_marseille","lat":43.30611,"lon":5.39323,"is_reserved":false,"is_disabled":false,"rental_uris":{"android":"levelo://app?vid=f1fbf846-f3f1-417d-8c94-d51d64694164","ios":"levelo://app?vid=f1fbf846-f3f1-417d-8c94-d51d64694164"},"vehicle_type_id":"4","last_reported":1753158993,"current_range_meters":16800,"station_id":"ce4bh0p2rcd13ifvqd80","pricing_plan_id":"cebpf4jnsgd1na2vs0mg"},{"bike_id":"0252eab3-c3f3-4486-b893-58cb3f957c57","system_id":"levelo_inurba_marseille","lat":43.31734,"lon":5.38504,"is_reserved":false,"is_disabled":false,"rental_uris":{"android":"levelo://app?vid=0252eab3-c3f3-4486-b893-58cb3f957c57","ios":"levelo://app?vid=0252eab3-c3f3-4486-b893-58cb3f957c57"},"vehicle_type_id":"4","last_reported":1753158993,"current_range_meters":16800,"station_id":"","pricing_plan_id":"cebpf4jnsgd1na2vs0mg"},{"bike_id":"51931bf6-1eb4-445c-8f29-98888cfaefc7","system_id":"levelo_inurba_marseille","lat":43.293959,"lon":5.39856,"is_reserved":false,"is_disabled":false,"rental_uris":{"android":"levelo://app?vid=51931bf6-1eb4-445c-8f29-98888cfaefc7","ios":"levelo://app?vid=51931bf6-1eb4-445c-8f29-98888cfaefc7"},"vehicle_type_id":"4","last_reported":1753158993,"current_range_meters":16800,"station_id":"","pricing_plan_id":"cebpf4jnsgd1na2vs0mg"},{"bike_id":"2d5abf02-1f47-4a68-9f8e-2e92083d2f8c","system_id":"levelo_inurba_marseille","lat":43.28863,"lon":5.39316,"is_reserved":false,"is_disabled":false,"rental_uris":{"android":"levelo://app?vid=2d5abf02-1f47-4a68-9f8e-2e92083d2f8c","ios":"levelo://app?vid=2d5abf02-1f47-4a68-9f8e-2e92083d2f8c"},"vehicle_type_id":"4","last_reported":1753158993,"current_range_meters":16800,"station_id":"ce4bh2p2rcd13ifvqdi0","pricing_plan_id":"cebpf4jnsgd1na2vs0mg"},{"bike_id":"c256de2c-3769-4e71-9bf8-220fcbafc1d6","system_id":"levelo_inurba_marseille","lat":43.33562,"lon":5.36158,"is_reserved":false,"is_disabled":false,"rental_uris":{"android":"levelo://app?vid=c256de2c-3769-4e71-9bf8-220fcbafc1d6","ios":"levelo://app?vid=c256de2c-3769-4e71-9bf8-220fcbafc1d6"},"vehicle_type_id":"4","last_reported":1753158993,"current_range_meters":16800,"station_id":"","pricing_plan_id":"cebpf4jnsgd1na2vs0mg"},{"bike_id":"b4c1aa2a-e931-4ce6-8816-30ad77bdd520","system_id":"levelo_inurba_marseille","lat":43.241448,"lon":5.363743,"is_reserved":false,"is_disabled":false,"rental_uris":{"android":"levelo://app?vid=b4c1aa2a-e931-4ce6-8816-30ad77bdd520","ios":"levelo://app?vid=b4c1aa2a-e931-4ce6-8816-30ad77bdd520"},"vehicle_type_id":"4","last_reported":1753158993,"current_range_meters":16800,"station_id":"","pricing_plan_id":"cebpf4jnsgd1na2vs0mg"},{"bike_id":"3f433ebd-3701-478f-a1e6-92c3813f640b","system_id":"levelo_inurba_marseille","lat":43.25107,"lon":5.40328,"is_reserved":false,"is_disabled":true,"rental_uris":{"android":"levelo://app?vid=3f433ebd-3701-478f-a1e6-92c3813f640b","ios":"levelo://app?vid=3f433ebd-3701-478f-a1e6-92c3813f640b"},"vehicle_type_id":"4","last_reported":1753158993,"current_range_meters":16800,"station_id":"ce4bhlh2rcd13ifvqgig","pricing_plan_id":"cebpf4jnsgd1na2vs0mg"},{"bike_id":"5ddbdee7-b7ea-4b2d-b685-5aed40e5e0d4","system_id":"levelo_inurba_marseille","lat":43.28407,"lon":5.37522,"is_reserved":false,"is_disabled":false,"rental_uris":{"android":"levelo://app?vid=5ddbdee7-b7ea-4b2d-b685-5aed40e5e0d4","ios":"levelo://app?vid=5ddbdee7-b7ea-4b2d-b685-5aed40e5e0d4"},"vehicle_type_id":"4","last_reported":1753158993,"current_range_meters":16800,"station_id":"ce4bh412rcd13ifvqds0","pricing_plan_id":"cebpf4jnsgd1na2vs0mg"},{"bike_id":"7227f2a0-48ac-47a6-aa2d-661ad6a7a763","system_id":"levelo_inurba_marseille","lat":43.29058,"lon":5.3717,"is_reserved":false,"is_disabled":true,"rental_uris":{"android":"levelo://app?vid=7227f2a0-48ac-47a6-aa2d-661ad6a7a763","ios":"levelo://app?vid=7227f2a0-48ac-47a6-aa2d-661ad6a7a763"},"vehicle_type_id":"4","last_reported":1753158993,"current_range_meters":16800,"station_id":"ce4bgh92rcd13ifvqb40","pricing_plan_id":"cebpf4jnsgd1na2vs0mg"},{"bike_id":"1378d347-6366-41f3-8fa1-551af20fc7d8","system_id":"levelo_inurba_marseille","lat":43.30893,"lon":5.39648,"is_reserved":false,"is_disabled":false,"rental_uris":{"android":"levelo://app?vid=1378d347-6366-41f3-8fa1-551af20fc7d8","ios":"levelo://app?vid=1378d347-6366-41f3-8fa1-551af20fc7d8"},"vehicle_type_id":"4","last_reported":1753158993,"current_range_meters":16800,"station_id":"ce4bh012rcd13ifvqcv0","pricing_plan_id":"cebpf4jnsgd1na2vs0mg"},{"bike_id":"c5445fa5-9221-4e5d-b2bc-b87ec0aac921","system_id":"levelo_inurba_marseille","lat":43.22925,"lon":5.35381,"is_reserved":false,"is_disabled":false,"rental_uris":{"android":"levelo://app?vid=c5445fa5-9221-4e5d-b2bc-b87ec0aac921","ios":"levelo://app?vid=c5445fa5-9221-4e5d-b2bc-b87ec0aac921"},"vehicle_type_id":"4","last_reported":1753158993,"current_range_meters":16800,"station_id":"cpo3532slgdg3j2ikp40","pricing_plan_id":"cebpf4jnsgd1na2vs0mg"},{"bike_id":"6270388c-e1bf-41b4-83eb-3d2f1008ca14","system_id":"levelo_inurba_marseille","lat":43.327362,"lon":5.37723,"is_reserved":false,"is_disabled":false,"rental_uris":{"android":"levelo://app?vid=6270388c-e1bf-41b4-83eb-3d2f1008ca14","ios":"levelo://app?vid=6270388c-e1bf-41b4-83eb-3d2f1008ca14"},"vehicle_type_id":"4","last_reported":1753158993,"current_range_meters":16800,"station_id":"","pricing_plan_id":"cebpf4jnsgd1na2vs0mg"},{"bike_id":"38cbbc2f-2178-4d0e-8130-6cf5abd60741","system_id":"levelo_inurba_marseille","lat":43.26027,"lon":5.37549,"is_reserved":false,"is_disabled":true,"rental_uris":{"android":"levelo://app?vid=38cbbc2f-2178-4d0e-8130-6cf5abd60741","ios":"levelo://app?vid=38cbbc2f-2178-4d0e-8130-6cf5abd60741"},"vehicle_type_id":"4","last_reported":1753158993,"current_range_meters":17200,"station_id":"ce4bhgh2rcd13ifvqfa0","pricing_plan_id":"cebpf4jnsgd1na2vs0mg"},{"bike_id":"5153e984-1abc-4d5b-91ef-21249865a3e6","system_id":"levelo_inurba_marseille","lat":43.21197,"lon":5.35074,"is_reserved":false,"is_disabled":false,"rental_uris":{"android":"levelo://app?vid=5153e984-1abc-4d5b-91ef-21249865a3e6","ios":"levelo://app?vid=5153e984-1abc-4d5b-91ef-21249865a3e6"},"vehicle_type_id":"4","last_reported":1753158993,"current_range_meters":17200,"station_id":"st_cvj6sg6p6f1abm77japg","pricing_plan_id":"cebpf4jnsgd1na2vs0mg"},{"bike_id":"da3d806a-4a4b-4164-9c55-529538ed2115","system_id":"levelo_inurba_marseille","lat":43.31221,"lon":5.36849,"is_reserved":false,"is_disabled":false,"rental_uris":{"android":"levelo://app?vid=da3d806a-4a4b-4164-9c55-529538ed2115","ios":"levelo://app?vid=da3d806a-4a4b-4164-9c55-529538ed2115"},"vehicle_type_id":"4","last_reported":1753158993,"current_range_meters":17200,"station_id":"ce4bgl92rcd13ifvqbq0","pricing_plan_id":"cebpf4jnsgd1na2vs0mg"},{"bike_id":"02bda465-5730-4d42-a0d1-5ffc89217a3f","system_id":"levelo_inurba_marseille","lat":43.30658,"lon":5.38184,"is_reserved":false,"is_disabled":false,"rental_uris":{"android":"levelo://app?vid=02bda465-5730-4d42-a0d1-5ffc89217a3f","ios":"levelo://app?vid=02bda465-5730-4d42-a0d1-5ffc89217a3f"},"vehicle_type_id":"4","last_reported":1753158993,"current_range_meters":17200,"station_id":"","pricing_plan_id":"cebpf4jnsgd1na2vs0mg"},{"bike_id":"d07ff534-1665-489b-a018-336fa7d38374","system_id":"levelo_inurba_marseille","lat":43.25111,"lon":5.40314,"is_reserved":false,"is_disabled":false,"rental_uris":{"android":"levelo://app?vid=d07ff534-1665-489b-a018-336fa7d38374","ios":"levelo://app?vid=d07ff534-1665-489b-a018-336fa7d38374"},"vehicle_type_id":"4","last_reported":1753158993,"current_range_meters":17200,"station_id":"ce4bhlh2rcd13ifvqgig","pricing_plan_id":"cebpf4jnsgd1na2vs0mg"},{"bike_id":"b29393d9-e8f4-4c61-b1ac-673a12ba9d9e","system_id":"levelo_inurba_marseille","lat":43.271093,"lon":5.403316,"is_reserved":false,"is_disabled":false,"rental_uris":{"android":"levelo://app?vid=b29393d9-e8f4-4c61-b1ac-673a12ba9d9e","ios":"levelo://app?vid=b29393d9-e8f4-4c61-b1ac-673a12ba9d9e"},"vehicle_type_id":"4","last_reported":1753158993,"current_range_meters":17200,"station_id":"","pricing_plan_id":"cebpf4jnsgd1na2vs0mg"},{"bike_id":"3c7f072f-3158-420f-bc51-68912fc0c6a8","system_id":"levelo_inurba_marseille","lat":43.290274,"lon":5.375517,"is_reserved":false,"is_disabled":true,"rental_uris":{"android":"levelo://app?vid=3c7f072f-3158-420f-bc51-68912fc0c6a8","ios":"levelo://app?vid=3c7f072f-3158-420f-bc51-68912fc0c6a8"},"vehicle_type_id":"4","last_reported":1753158993,"current_range_meters":17200,"station_id":"ce4bh692rcd13ifvqe90","pricing_plan_id":"cebpf4jnsgd1na2vs0mg"},{"bike_id":"de5426ba-ae67-47a4-bece-c11c7065cd1e","system_id":"levelo_inurba_marseille","lat":43.211941,"lon":5.350745,"is_reserved":false,"is_disabled":false,"rental_uris":{"android":"levelo://app?vid=de5426ba-ae67-47a4-bece-c11c7065cd1e","ios":"levelo://app?vid=de5426ba-ae67-47a4-bece-c11c7065cd1e"},"vehicle_type_id":"4","last_reported":1753158993,"current_range_meters":17200,"station_id":"st_cvj6sg6p6f1abm77japg","pricing_plan_id":"cebpf4jnsgd1na2vs0mg"},{"bike_id":"c3071153-d15b-437d-b33d-8b8d9d500df0","system_id":"levelo_inurba_marseille","lat":43.24085,"lon":5.37753,"is_reserved":false,"is_disabled":false,"rental_uris":{"android":"levelo://app?vid=c3071153-d15b-437d-b33d-8b8d9d500df0","ios":"levelo://app?vid=c3071153-d15b-437d-b33d-8b8d9d500df0"},"vehicle_type_id":"4","last_reported":1753158993,"current_range_meters":17600,"station_id":"ce4bhnp2rcd13ifvqgvg","pricing_plan_id":"cebpf4jnsgd1na2vs0mg"},{"bike_id":"79326a13-cde9-4cb8-becd-ff105cdb3360","system_id":"levelo_inurba_marseille","lat":43.246604,"lon":5.381685,"is_reserved":false,"is_disabled":false,"rental_uris":{"android":"levelo://app?vid=79326a13-cde9-4cb8-becd-ff105cdb3360","ios":"levelo://app?vid=79326a13-cde9-4cb8-becd-ff105cdb3360"},"vehicle_type_id":"4","last_reported":1753158993,"current_range_meters":17600,"station_id":"ce4bhih2rcd13ifvqfr0","pricing_plan_id":"cebpf4jnsgd1na2vs0mg"},{"bike_id":"8ec4b23c-b5fc-42e7-9660-b8744055f745","system_id":"levelo_inurba_marseille","lat":43.28464,"lon":5.38417,"is_reserved":false,"is_disabled":false,"rental_uris":{"android":"levelo://app?vid=8ec4b23c-b5fc-42e7-9660-b8744055f745","ios":"levelo://app?vid=8ec4b23c-b5fc-42e7-9660-b8744055f745"},"vehicle_type_id":"4","last_reported":1753158993,"current_range_meters":17600,"station_id":"ce4bh512rcd13ifvqe3g","pricing_plan_id":"cebpf4jnsgd1na2vs0mg"},{"bike_id":"f5767321-03ff-4c6c-8a78-ad57e022e0a0","system_id":"levelo_inurba_marseille","lat":43.29026,"lon":5.3814,"is_reserved":false,"is_disabled":true,"rental_uris":{"android":"levelo://app?vid=f5767321-03ff-4c6c-8a78-ad57e022e0a0","ios":"levelo://app?vid=f5767321-03ff-4c6c-8a78-ad57e022e0a0"},"vehicle_type_id":"4","last_reported":1753158993,"current_range_meters":17600,"station_id":"ce4bh4p2rcd13ifvqe1g","pricing_plan_id":"cebpf4jnsgd1na2vs0mg"},{"bike_id":"494f97be-feb6-4ce2-84dd-bdc5f14db45d","system_id":"levelo_inurba_marseille","lat":43.27495,"lon":5.42457,"is_reserved":false,"is_disabled":false,"rental_uris":{"android":"levelo://app?vid=494f97be-feb6-4ce2-84dd-bdc5f14db45d","ios":"levelo://app?vid=494f97be-feb6-4ce2-84dd-bdc5f14db45d"},"vehicle_type_id":"4","last_reported":1753158993,"current_range_meters":17600,"station_id":"ce4bhn92rcd13ifvqgrg","pricing_plan_id":"cebpf4jnsgd1na2vs0mg"},{"bike_id":"64a2f514-4942-458d-b3fc-7d7fd0dfd1b1","system_id":"levelo_inurba_marseille","lat":43.211954,"lon":5.350698,"is_reserved":false,"is_disabled":false,"rental_uris":{"android":"levelo://app?vid=64a2f514-4942-458d-b3fc-7d7fd0dfd1b1","ios":"levelo://app?vid=64a2f514-4942-458d-b3fc-7d7fd0dfd1b1"},"vehicle_type_id":"4","last_reported":1753158993,"current_range_meters":17600,"station_id":"st_cvj6sg6p6f1abm77japg","pricing_plan_id":"cebpf4jnsgd1na2vs0mg"},{"bike_id":"fd678af6-c39f-4009-9cd4-36a5e361e94e","system_id":"levelo_inurba_marseille","lat":43.29185,"lon":5.35801,"is_reserved":false,"is_disabled":true,"rental_uris":{"android":"levelo://app?vid=fd678af6-c39f-4009-9cd4-36a5e361e94e","ios":"levelo://app?vid=fd678af6-c39f-4009-9cd4-36a5e361e94e"},"vehicle_type_id":"4","last_reported":1753158993,"current_range_meters":17600,"station_id":"ce4bhb12rcd13ifvqel0","pricing_plan_id":"cebpf4jnsgd1na2vs0mg"},{"bike_id":"080acd18-9baa-4736-beb6-5e98e18d315c","system_id":"levelo_inurba_marseille","lat":43.240644,"lon":5.377708,"is_reserved":false,"is_disabled":false,"rental_uris":{"android":"levelo://app?vid=080acd18-9baa-4736-beb6-5e98e18d315c","ios":"levelo://app?vid=080acd18-9baa-4736-beb6-5e98e18d315c"},"vehicle_type_id":"4","last_reported":1753158993,"current_range_meters":17600,"station_id":"ce4bhnp2rcd13ifvqgvg","pricing_plan_id":"cebpf4jnsgd1na2vs0mg"},{"bike_id":"bf1a364f-d5fa-413b-8996-711982f927e6","system_id":"levelo_inurba_marseille","lat":43.289,"lon":5.38433,"is_reserved":false,"is_disabled":false,"rental_uris":{"android":"levelo://app?vid=bf1a364f-d5fa-413b-8996-711982f927e6","ios":"levelo://app?vid=bf1a364f-d5fa-413b-8996-711982f927e6"},"vehicle_type_id":"4","last_reported":1753158993,"current_range_meters":19200,"station_id":"","pricing_plan_id":"cebpf4jnsgd1na2vs0mg"},{"bike_id":"dda96cde-9f78-4371-a72f-1d24145c396a","system_id":"levelo_inurba_marseille","lat":43.211878,"lon":5.350708,"is_reserved":false,"is_disabled":false,"rental_uris":{"android":"levelo://app?vid=dda96cde-9f78-4371-a72f-1d24145c396a","ios":"levelo://app?vid=dda96cde-9f78-4371-a72f-1d24145c396a"},"vehicle_type_id":"4","last_reported":1753158993,"current_range_meters":18000,"station_id":"st_cvj6sg6p6f1abm77japg","pricing_plan_id":"cebpf4jnsgd1na2vs0mg"},{"bike_id":"79bcb9c9-90dd-47dc-a749-f5e6210d5170","system_id":"levelo_inurba_marseille","lat":43.31325,"lon":5.39689,"is_reserved":false,"is_disabled":false,"rental_uris":{"android":"levelo://app?vid=79bcb9c9-90dd-47dc-a749-f5e6210d5170","ios":"levelo://app?vid=79bcb9c9-90dd-47dc-a749-f5e6210d5170"},"vehicle_type_id":"4","last_reported":1753158993,"current_range_meters":17600,"station_id":"ce4bgvp2rcd13ifvqcu0","pricing_plan_id":"cebpf4jnsgd1na2vs0mg"},{"bike_id":"e730d36a-13f0-49bb-86fb-4a20da2e6767","system_id":"levelo_inurba_marseille","lat":43.241645,"lon":5.36405,"is_reserved":false,"is_disabled":false,"rental_uris":{"android":"levelo://app?vid=e730d36a-13f0-49bb-86fb-4a20da2e6767","ios":"levelo://app?vid=e730d36a-13f0-49bb-86fb-4a20da2e6767"},"vehicle_type_id":"4","last_reported":1753158993,"current_range_meters":18000,"station_id":"cpo36qri1sfpv3e86is0","pricing_plan_id":"cebpf4jnsgd1na2vs0mg"},{"bike_id":"ac4e9fda-4086-43d7-9dc4-afe6942bea08","system_id":"levelo_inurba_marseille","lat":43.230614,"lon":5.35497,"is_reserved":false,"is_disabled":false,"rental_uris":{"android":"levelo://app?vid=ac4e9fda-4086-43d7-9dc4-afe6942bea08","ios":"levelo://app?vid=ac4e9fda-4086-43d7-9dc4-afe6942bea08"},"vehicle_type_id":"4","last_reported":1753158993,"current_range_meters":18000,"station_id":"cpo3342slgdg3j2ifvpg","pricing_plan_id":"cebpf4jnsgd1na2vs0mg"},{"bike_id":"754b4024-68fd-497f-8612-44217b088a37","system_id":"levelo_inurba_marseille","lat":43.28852,"lon":5.39331,"is_reserved":false,"is_disabled":false,"rental_uris":{"android":"levelo://app?vid=754b4024-68fd-497f-8612-44217b088a37","ios":"levelo://app?vid=754b4024-68fd-497f-8612-44217b088a37"},"vehicle_type_id":"4","last_reported":1753158993,"current_range_meters":18000,"station_id":"ce4bh2p2rcd13ifvqdi0","pricing_plan_id":"cebpf4jnsgd1na2vs0mg"},{"bike_id":"7a3e8286-d23a-436c-a229-6ffa0c627ba2","system_id":"levelo_inurba_marseille","lat":43.21209,"lon":5.35067,"is_reserved":false,"is_disabled":false,"rental_uris":{"android":"levelo://app?vid=7a3e8286-d23a-436c-a229-6ffa0c627ba2","ios":"levelo://app?vid=7a3e8286-d23a-436c-a229-6ffa0c627ba2"},"vehicle_type_id":"4","last_reported":1753158993,"current_range_meters":18000,"station_id":"st_cvj6sg6p6f1abm77japg","pricing_plan_id":"cebpf4jnsgd1na2vs0mg"},{"bike_id":"5055e185-49d5-4f8a-861f-322590396430","system_id":"levelo_inurba_marseille","lat":43.25108,"lon":5.39467,"is_reserved":false,"is_disabled":false,"rental_uris":{"android":"levelo://app?vid=5055e185-49d5-4f8a-861f-322590396430","ios":"levelo://app?vid=5055e185-49d5-4f8a-861f-322590396430"},"vehicle_type_id":"4","last_reported":1753158993,"current_range_meters":18000,"station_id":"ce4bhm12rcd13ifvqgkg","pricing_plan_id":"cebpf4jnsgd1na2vs0mg"},{"bike_id":"0c18c21b-8232-4709-94a5-191396b3881b","system_id":"levelo_inurba_marseille","lat":43.27507,"lon":5.42404,"is_reserved":false,"is_disabled":false,"rental_uris":{"android":"levelo://app?vid=0c18c21b-8232-4709-94a5-191396b3881b","ios":"levelo://app?vid=0c18c21b-8232-4709-94a5-191396b3881b"},"vehicle_type_id":"4","last_reported":1753158993,"current_range_meters":18000,"station_id":"ce4bhn92rcd13ifvqgrg","pricing_plan_id":"cebpf4jnsgd1na2vs0mg"},{"bike_id":"a7fce724-bb42-4faf-bd28-907e651a062f","system_id":"levelo_inurba_marseille","lat":43.29051,"lon":5.39995,"is_reserved":false,"is_disabled":true,"rental_uris":{"android":"levelo://app?vid=a7fce724-bb42-4faf-bd28-907e651a062f","ios":"levelo://app?vid=a7fce724-bb42-4faf-bd28-907e651a062f"},"vehicle_type_id":"4","last_reported":1753158993,"current_range_meters":18800,"station_id":"ce4bh392rcd13ifvqdm0","pricing_plan_id":"cebpf4jnsgd1na2vs0mg"},{"bike_id":"36ead621-a488-4651-9e26-662eb33150b8","system_id":"levelo_inurba_marseille","lat":43.28041,"lon":5.36939,"is_reserved":false,"is_disabled":false,"rental_uris":{"android":"levelo://app?vid=36ead621-a488-4651-9e26-662eb33150b8","ios":"levelo://app?vid=36ead621-a488-4651-9e26-662eb33150b8"},"vehicle_type_id":"4","last_reported":1753158993,"current_range_meters":18800,"station_id":"ce4bha12rcd13ifvqef0","pricing_plan_id":"cebpf4jnsgd1na2vs0mg"},{"bike_id":"09ce1f37-5b07-45c4-a76c-7ba0d0176051","system_id":"levelo_inurba_marseille","lat":43.32217,"lon":5.36779,"is_reserved":false,"is_disabled":false,"rental_uris":{"android":"levelo://app?vid=09ce1f37-5b07-45c4-a76c-7ba0d0176051","ios":"levelo://app?vid=09ce1f37-5b07-45c4-a76c-7ba0d0176051"},"vehicle_type_id":"4","last_reported":1753158993,"current_range_meters":18800,"station_id":"","pricing_plan_id":"cebpf4jnsgd1na2vs0mg"},{"bike_id":"91f528de-626e-46cf-ba56-2b41f50873fe","system_id":"levelo_inurba_marseille","lat":43.29771,"lon":5.38126,"is_reserved":false,"is_disabled":false,"rental_uris":{"android":"levelo://app?vid=91f528de-626e-46cf-ba56-2b41f50873fe","ios":"levelo://app?vid=91f528de-626e-46cf-ba56-2b41f50873fe"},"vehicle_type_id":"4","last_reported":1753158993,"current_range_meters":18800,"station_id":"ce4bgip2rcd13ifvqbb0","pricing_plan_id":"cebpf4jnsgd1na2vs0mg"},{"bike_id":"cbbbcc55-91c3-4089-bec9-fe96602008f6","system_id":"levelo_inurba_marseille","lat":43.28203,"lon":5.42652,"is_reserved":false,"is_disabled":false,"rental_uris":{"android":"levelo://app?vid=cbbbcc55-91c3-4089-bec9-fe96602008f6","ios":"levelo://app?vid=cbbbcc55-91c3-4089-bec9-fe96602008f6"},"vehicle_type_id":"4","last_reported":1753158993,"current_range_meters":18800,"station_id":"","pricing_plan_id":"cebpf4jnsgd1na2vs0mg"},{"bike_id":"815b0b45-4cd2-43fa-9cd5-3e64d39dbc16","system_id":"levelo_inurba_marseille","lat":43.30588,"lon":5.37212,"is_reserved":false,"is_disabled":true,"rental_uris":{"android":"levelo://app?vid=815b0b45-4cd2-43fa-9cd5-3e64d39dbc16","ios":"levelo://app?vid=815b0b45-4cd2-43fa-9cd5-3e64d39dbc16"},"vehicle_type_id":"4","last_reported":1753158993,"current_range_meters":18800,"station_id":"ce4bgqh2rcd13ifvqc4g","pricing_plan_id":"cebpf4jnsgd1na2vs0mg"},{"bike_id":"b001fe33-a25d-4a40-a985-edaab45fa237","system_id":"levelo_inurba_marseille","lat":43.24095,"lon":5.37732,"is_reserved":false,"is_disabled":false,"rental_uris":{"android":"levelo://app?vid=b001fe33-a25d-4a40-a985-edaab45fa237","ios":"levelo://app?vid=b001fe33-a25d-4a40-a985-edaab45fa237"},"vehicle_type_id":"4","last_reported":1753158993,"current_range_meters":18800,"station_id":"ce4bhnp2rcd13ifvqgvg","pricing_plan_id":"cebpf4jnsgd1na2vs0mg"},{"bike_id":"3876af6e-a868-4aa6-afbb-deb3bffdb10a","system_id":"levelo_inurba_marseille","lat":43.229245,"lon":5.353814,"is_reserved":false,"is_disabled":false,"rental_uris":{"android":"levelo://app?vid=3876af6e-a868-4aa6-afbb-deb3bffdb10a","ios":"levelo://app?vid=3876af6e-a868-4aa6-afbb-deb3bffdb10a"},"vehicle_type_id":"4","last_reported":1753158993,"current_range_meters":19200,"station_id":"cpo3532slgdg3j2ikp40","pricing_plan_id":"cebpf4jnsgd1na2vs0mg"},{"bike_id":"81fba013-909e-4f1c-8dc3-8911f0a1441d","system_id":"levelo_inurba_marseille","lat":43.28432,"lon":5.34998,"is_reserved":false,"is_disabled":true,"rental_uris":{"android":"levelo://app?vid=81fba013-909e-4f1c-8dc3-8911f0a1441d","ios":"levelo://app?vid=81fba013-909e-4f1c-8dc3-8911f0a1441d"},"vehicle_type_id":"4","last_reported":1753158993,"current_range_meters":19200,"station_id":"ce4bhbh2rcd13ifvqepg","pricing_plan_id":"cebpf4jnsgd1na2vs0mg"},{"bike_id":"eb382477-4226-4b4c-8e95-1421d9024f04","system_id":"levelo_inurba_marseille","lat":43.28041,"lon":5.36944,"is_reserved":false,"is_disabled":false,"rental_uris":{"android":"levelo://app?vid=eb382477-4226-4b4c-8e95-1421d9024f04","ios":"levelo://app?vid=eb382477-4226-4b4c-8e95-1421d9024f04"},"vehicle_type_id":"4","last_reported":1753158993,"current_range_meters":19200,"station_id":"ce4bha12rcd13ifvqef0","pricing_plan_id":"cebpf4jnsgd1na2vs0mg"},{"bike_id":"4b209779-1337-48e1-8017-72986ee6ccac","system_id":"levelo_inurba_marseille","lat":43.24162,"lon":5.36395,"is_reserved":false,"is_disabled":false,"rental_uris":{"android":"levelo://app?vid=4b209779-1337-48e1-8017-72986ee6ccac","ios":"levelo://app?vid=4b209779-1337-48e1-8017-72986ee6ccac"},"vehicle_type_id":"4","last_reported":1753158993,"current_range_meters":19200,"station_id":"cpo36qri1sfpv3e86is0","pricing_plan_id":"cebpf4jnsgd1na2vs0mg"},{"bike_id":"04bb8e0c-b1ab-47fd-8929-da5088119fe8","system_id":"levelo_inurba_marseille","lat":43.26571,"lon":5.372879,"is_reserved":false,"is_disabled":false,"rental_uris":{"android":"levelo://app?vid=04bb8e0c-b1ab-47fd-8929-da5088119fe8","ios":"levelo://app?vid=04bb8e0c-b1ab-47fd-8929-da5088119fe8"},"vehicle_type_id":"4","last_reported":1753158993,"current_range_meters":19200,"station_id":"","pricing_plan_id":"cebpf4jnsgd1na2vs0mg"},{"bike_id":"fbadd995-4f87-4889-b9e4-4be7810af36f","system_id":"levelo_inurba_marseille","lat":43.279963,"lon":5.416696,"is_reserved":false,"is_disabled":false,"rental_uris":{"android":"levelo://app?vid=fbadd995-4f87-4889-b9e4-4be7810af36f","ios":"levelo://app?vid=fbadd995-4f87-4889-b9e4-4be7810af36f"},"vehicle_type_id":"4","last_reported":1753158993,"current_range_meters":19200,"station_id":"ce4bho12rcd13ifvqh1g","pricing_plan_id":"cebpf4jnsgd1na2vs0mg"},{"bike_id":"9b140174-1804-4949-bde5-a44099f54e28","system_id":"levelo_inurba_marseille","lat":43.29022,"lon":5.40086,"is_reserved":false,"is_disabled":false,"rental_uris":{"android":"levelo://app?vid=9b140174-1804-4949-bde5-a44099f54e28","ios":"levelo://app?vid=9b140174-1804-4949-bde5-a44099f54e28"},"vehicle_type_id":"4","last_reported":1753158993,"current_range_meters":19600,"station_id":"","pricing_plan_id":"cebpf4jnsgd1na2vs0mg"},{"bike_id":"b84a9930-1090-4451-8834-dec4d444af55","system_id":"levelo_inurba_marseille","lat":43.2468,"lon":5.38117,"is_reserved":false,"is_disabled":false,"rental_uris":{"android":"levelo://app?vid=b84a9930-1090-4451-8834-dec4d444af55","ios":"levelo://app?vid=b84a9930-1090-4451-8834-dec4d444af55"},"vehicle_type_id":"4","last_reported":1753158993,"current_range_meters":19600,"station_id":"ce4bhih2rcd13ifvqfr0","pricing_plan_id":"cebpf4jnsgd1na2vs0mg"},{"bike_id":"d3efef1e-0fec-4541-87fb-6df6ecce6f21","system_id":"levelo_inurba_marseille","lat":43.23189,"lon":5.35539,"is_reserved":false,"is_disabled":false,"rental_uris":{"android":"levelo://app?vid=d3efef1e-0fec-4541-87fb-6df6ecce6f21","ios":"levelo://app?vid=d3efef1e-0fec-4541-87fb-6df6ecce6f21"},"vehicle_type_id":"4","last_reported":1753158993,"current_range_meters":19600,"station_id":"ce4bhu92rcd13ifvqi70","pricing_plan_id":"cebpf4jnsgd1na2vs0mg"},{"bike_id":"b0814be2-3228-42a3-8f14-9e3ad3e47b21","system_id":"levelo_inurba_marseille","lat":43.250138,"lon":5.38918,"is_reserved":false,"is_disabled":true,"rental_uris":{"android":"levelo://app?vid=b0814be2-3228-42a3-8f14-9e3ad3e47b21","ios":"levelo://app?vid=b0814be2-3228-42a3-8f14-9e3ad3e47b21"},"vehicle_type_id":"4","last_reported":1753158993,"current_range_meters":19600,"station_id":"ce4bhgp2rcd13ifvqfd0","pricing_plan_id":"cebpf4jnsgd1na2vs0mg"},{"bike_id":"16f2965b-cb51-4128-ae92-649faca6a04b","system_id":"levelo_inurba_marseille","lat":43.250852,"lon":5.395246,"is_reserved":false,"is_disabled":false,"rental_uris":{"android":"levelo://app?vid=16f2965b-cb51-4128-ae92-649faca6a04b","ios":"levelo://app?vid=16f2965b-cb51-4128-ae92-649faca6a04b"},"vehicle_type_id":"4","last_reported":1753158993,"current_range_meters":19600,"station_id":"ce4bhm12rcd13ifvqgkg","pricing_plan_id":"cebpf4jnsgd1na2vs0mg"},{"bike_id":"5a31d20e-e9fc-47a7-a2fa-ec6871dfcc58","system_id":"levelo_inurba_marseille","lat":43.3076,"lon":5.42535,"is_reserved":false,"is_disabled":false,"rental_uris":{"android":"levelo://app?vid=5a31d20e-e9fc-47a7-a2fa-ec6871dfcc58","ios":"levelo://app?vid=5a31d20e-e9fc-47a7-a2fa-ec6871dfcc58"},"vehicle_type_id":"4","last_reported":1753158993,"current_range_meters":19600,"station_id":"st_cvj6ca6bvosntc0bfgr0","pricing_plan_id":"cebpf4jnsgd1na2vs0mg"},{"bike_id":"6d23e765-24be-402c-b4de-ff24cb318e32","system_id":"levelo_inurba_marseille","lat":43.22924,"lon":5.35375,"is_reserved":false,"is_disabled":false,"rental_uris":{"android":"levelo://app?vid=6d23e765-24be-402c-b4de-ff24cb318e32","ios":"levelo://app?vid=6d23e765-24be-402c-b4de-ff24cb318e32"},"vehicle_type_id":"4","last_reported":1753158993,"current_range_meters":20000,"station_id":"cpo3532slgdg3j2ikp40","pricing_plan_id":"cebpf4jnsgd1na2vs0mg"},{"bike_id":"9155d11b-816e-4ab0-b2ff-ba970f89639b","system_id":"levelo_inurba_marseille","lat":43.29053,"lon":5.39961,"is_reserved":false,"is_disabled":false,"rental_uris":{"android":"levelo://app?vid=9155d11b-816e-4ab0-b2ff-ba970f89639b","ios":"levelo://app?vid=9155d11b-816e-4ab0-b2ff-ba970f89639b"},"vehicle_type_id":"4","last_reported":1753158993,"current_range_meters":20000,"station_id":"ce4bh392rcd13ifvqdm0","pricing_plan_id":"cebpf4jnsgd1na2vs0mg"},{"bike_id":"5cd570b3-5ede-4c04-957b-bd2e249463fd","system_id":"levelo_inurba_marseille","lat":43.21186,"lon":5.35071,"is_reserved":false,"is_disabled":false,"rental_uris":{"android":"levelo://app?vid=5cd570b3-5ede-4c04-957b-bd2e249463fd","ios":"levelo://app?vid=5cd570b3-5ede-4c04-957b-bd2e249463fd"},"vehicle_type_id":"4","last_reported":1753158993,"current_range_meters":20000,"station_id":"st_cvj6sg6p6f1abm77japg","pricing_plan_id":"cebpf4jnsgd1na2vs0mg"},{"bike_id":"486f15e6-d09f-4b2f-afc6-d08dd0c4282d","system_id":"levelo_inurba_marseille","lat":43.23197,"lon":5.39985,"is_reserved":false,"is_disabled":false,"rental_uris":{"android":"levelo://app?vid=486f15e6-d09f-4b2f-afc6-d08dd0c4282d","ios":"levelo://app?vid=486f15e6-d09f-4b2f-afc6-d08dd0c4282d"},"vehicle_type_id":"4","last_reported":1753158993,"current_range_meters":20000,"station_id":"ce4bhn12rcd13ifvqgqg","pricing_plan_id":"cebpf4jnsgd1na2vs0mg"},{"bike_id":"2975a10e-052a-4ed4-8afb-b52549159b49","system_id":"levelo_inurba_marseille","lat":43.32925,"lon":5.376049,"is_reserved":false,"is_disabled":false,"rental_uris":{"android":"levelo://app?vid=2975a10e-052a-4ed4-8afb-b52549159b49","ios":"levelo://app?vid=2975a10e-052a-4ed4-8afb-b52549159b49"},"vehicle_type_id":"4","last_reported":1753158993,"current_range_meters":20000,"station_id":"","pricing_plan_id":"cebpf4jnsgd1na2vs0mg"},{"bike_id":"53a934bb-a7e3-444c-9a03-72d4c8d9014f","system_id":"levelo_inurba_marseille","lat":43.23173,"lon":5.40001,"is_reserved":false,"is_disabled":false,"rental_uris":{"android":"levelo://app?vid=53a934bb-a7e3-444c-9a03-72d4c8d9014f","ios":"levelo://app?vid=53a934bb-a7e3-444c-9a03-72d4c8d9014f"},"vehicle_type_id":"4","last_reported":1753158993,"current_range_meters":20000,"station_id":"ce4bhn12rcd13ifvqgqg","pricing_plan_id":"cebpf4jnsgd1na2vs0mg"},{"bike_id":"ae38ed86-2290-42dc-b60e-4abe26167de0","system_id":"levelo_inurba_marseille","lat":43.29565,"lon":5.39957,"is_reserved":false,"is_disabled":false,"rental_uris":{"android":"levelo://app?vid=ae38ed86-2290-42dc-b60e-4abe26167de0","ios":"levelo://app?vid=ae38ed86-2290-42dc-b60e-4abe26167de0"},"vehicle_type_id":"4","last_reported":1753158993,"current_range_meters":20000,"station_id":"ce4bh312rcd13ifvqdj0","pricing_plan_id":"cebpf4jnsgd1na2vs0mg"},{"bike_id":"80905ec7-f6de-4811-9581-32d2fb3137b1","system_id":"levelo_inurba_marseille","lat":43.28854,"lon":5.39327,"is_reserved":false,"is_disabled":false,"rental_uris":{"android":"levelo://app?vid=80905ec7-f6de-4811-9581-32d2fb3137b1","ios":"levelo://app?vid=80905ec7-f6de-4811-9581-32d2fb3137b1"},"vehicle_type_id":"4","last_reported":1753158993,"current_range_meters":20000,"station_id":"ce4bh2p2rcd13ifvqdi0","pricing_plan_id":"cebpf4jnsgd1na2vs0mg"},{"bike_id":"5ea1e0b3-e596-45e6-88e9-c65da10bd3b4","system_id":"levelo_inurba_marseille","lat":43.29982,"lon":5.37422,"is_reserved":false,"is_disabled":false,"rental_uris":{"android":"levelo://app?vid=5ea1e0b3-e596-45e6-88e9-c65da10bd3b4","ios":"levelo://app?vid=5ea1e0b3-e596-45e6-88e9-c65da10bd3b4"},"vehicle_type_id":"4","last_reported":1753158993,"current_range_meters":20400,"station_id":"","pricing_plan_id":"cebpf4jnsgd1na2vs0mg"},{"bike_id":"29b14e23-f4d2-4fd7-9c3b-1f5dde7b2e61","system_id":"levelo_inurba_marseille","lat":43.28609,"lon":5.37058,"is_reserved":false,"is_disabled":true,"rental_uris":{"android":"levelo://app?vid=29b14e23-f4d2-4fd7-9c3b-1f5dde7b2e61","ios":"levelo://app?vid=29b14e23-f4d2-4fd7-9c3b-1f5dde7b2e61"},"vehicle_type_id":"4","last_reported":1753158993,"current_range_meters":20400,"station_id":"ce4bht12rcd13ifvqi60","pricing_plan_id":"cebpf4jnsgd1na2vs0mg"},{"bike_id":"1e547757-372a-461c-b297-e7e8ff494dca","system_id":"levelo_inurba_marseille","lat":43.30601,"lon":5.39355,"is_reserved":false,"is_disabled":false,"rental_uris":{"android":"levelo://app?vid=1e547757-372a-461c-b297-e7e8ff494dca","ios":"levelo://app?vid=1e547757-372a-461c-b297-e7e8ff494dca"},"vehicle_type_id":"4","last_reported":1753158993,"current_range_meters":20400,"station_id":"ce4bh0p2rcd13ifvqd80","pricing_plan_id":"cebpf4jnsgd1na2vs0mg"},{"bike_id":"eaca2472-d206-44db-839f-7f3a0f874082","system_id":"levelo_inurba_marseille","lat":43.28608,"lon":5.37058,"is_reserved":false,"is_disabled":false,"rental_uris":{"android":"levelo://app?vid=eaca2472-d206-44db-839f-7f3a0f874082","ios":"levelo://app?vid=eaca2472-d206-44db-839f-7f3a0f874082"},"vehicle_type_id":"4","last_reported":1753158993,"current_range_meters":20400,"station_id":"ce4bht12rcd13ifvqi60","pricing_plan_id":"cebpf4jnsgd1na2vs0mg"},{"bike_id":"8f9cad40-0574-4eca-a58e-996078f0af72","system_id":"levelo_inurba_marseille","lat":43.29047,"lon":5.39999,"is_reserved":false,"is_disabled":false,"rental_uris":{"android":"levelo://app?vid=8f9cad40-0574-4eca-a58e-996078f0af72","ios":"levelo://app?vid=8f9cad40-0574-4eca-a58e-996078f0af72"},"vehicle_type_id":"4","last_reported":1753158993,"current_range_meters":20400,"station_id":"ce4bh392rcd13ifvqdm0","pricing_plan_id":"cebpf4jnsgd1na2vs0mg"},{"bike_id":"af8c5f4d-1a1e-471c-9d12-96dba369d20a","system_id":"levelo_inurba_marseille","lat":43.28772,"lon":5.40405,"is_reserved":false,"is_disabled":false,"rental_uris":{"android":"levelo://app?vid=af8c5f4d-1a1e-471c-9d12-96dba369d20a","ios":"levelo://app?vid=af8c5f4d-1a1e-471c-9d12-96dba369d20a"},"vehicle_type_id":"4","last_reported":1753158993,"current_range_meters":20800,"station_id":"","pricing_plan_id":"cebpf4jnsgd1na2vs0mg"},{"bike_id":"005b1758-b217-47ee-b6da-37711cec6e16","system_id":"levelo_inurba_marseille","lat":43.24173,"lon":5.36389,"is_reserved":false,"is_disabled":true,"rental_uris":{"android":"levelo://app?vid=005b1758-b217-47ee-b6da-37711cec6e16","ios":"levelo://app?vid=005b1758-b217-47ee-b6da-37711cec6e16"},"vehicle_type_id":"4","last_reported":1753158993,"current_range_meters":20800,"station_id":"cpo36qri1sfpv3e86is0","pricing_plan_id":"cebpf4jnsgd1na2vs0mg"},{"bike_id":"9a275660-9fd9-4e38-a7d2-a57563387800","system_id":"levelo_inurba_marseille","lat":43.30604,"lon":5.39362,"is_reserved":false,"is_disabled":false,"rental_uris":{"android":"levelo://app?vid=9a275660-9fd9-4e38-a7d2-a57563387800","ios":"levelo://app?vid=9a275660-9fd9-4e38-a7d2-a57563387800"},"vehicle_type_id":"4","last_reported":1753158993,"current_range_meters":20800,"station_id":"ce4bh0p2rcd13ifvqd80","pricing_plan_id":"cebpf4jnsgd1na2vs0mg"},{"bike_id":"4123fed9-3b89-4b59-a60e-a74e6a0b0cc6","system_id":"levelo_inurba_marseille","lat":43.30263,"lon":5.40042,"is_reserved":false,"is_disabled":false,"rental_uris":{"android":"levelo://app?vid=4123fed9-3b89-4b59-a60e-a74e6a0b0cc6","ios":"levelo://app?vid=4123fed9-3b89-4b59-a60e-a74e6a0b0cc6"},"vehicle_type_id":"4","last_reported":1753158993,"current_range_meters":20800,"station_id":"ce4bgvh2rcd13ifvqcs0","pricing_plan_id":"cebpf4jnsgd1na2vs0mg"},{"bike_id":"dc6fc453-9812-4d99-8dd4-5c70596d59ce","system_id":"levelo_inurba_marseille","lat":43.337534,"lon":5.374547,"is_reserved":false,"is_disabled":false,"rental_uris":{"android":"levelo://app?vid=dc6fc453-9812-4d99-8dd4-5c70596d59ce","ios":"levelo://app?vid=dc6fc453-9812-4d99-8dd4-5c70596d59ce"},"vehicle_type_id":"4","last_reported":1753158993,"current_range_meters":20800,"station_id":"","pricing_plan_id":"cebpf4jnsgd1na2vs0mg"},{"bike_id":"2c47db04-15df-4a2a-8459-a941650094eb","system_id":"levelo_inurba_marseille","lat":43.21199,"lon":5.35074,"is_reserved":false,"is_disabled":false,"rental_uris":{"android":"levelo://app?vid=2c47db04-15df-4a2a-8459-a941650094eb","ios":"levelo://app?vid=2c47db04-15df-4a2a-8459-a941650094eb"},"vehicle_type_id":"4","last_reported":1753158993,"current_range_meters":20800,"station_id":"st_cvj6sg6p6f1abm77japg","pricing_plan_id":"cebpf4jnsgd1na2vs0mg"},{"bike_id":"22e71abe-ccc7-4ba5-8d97-3644bd9154eb","system_id":"levelo_inurba_marseille","lat":43.31075,"lon":5.38355,"is_reserved":false,"is_disabled":false,"rental_uris":{"android":"levelo://app?vid=22e71abe-ccc7-4ba5-8d97-3644bd9154eb","ios":"levelo://app?vid=22e71abe-ccc7-4ba5-8d97-3644bd9154eb"},"vehicle_type_id":"4","last_reported":1753158993,"current_range_meters":20800,"station_id":"ce4bgv92rcd13ifvqcr0","pricing_plan_id":"cebpf4jnsgd1na2vs0mg"},{"bike_id":"14ff57e9-df81-436a-97c8-6f0e1a67e809","system_id":"levelo_inurba_marseille","lat":43.32124,"lon":5.36797,"is_reserved":false,"is_disabled":false,"rental_uris":{"android":"levelo://app?vid=14ff57e9-df81-436a-97c8-6f0e1a67e809","ios":"levelo://app?vid=14ff57e9-df81-436a-97c8-6f0e1a67e809"},"vehicle_type_id":"4","last_reported":1753158993,"current_range_meters":20800,"station_id":"ce4bhrh2rcd13ifvqhug","pricing_plan_id":"cebpf4jnsgd1na2vs0mg"},{"bike_id":"33903fe2-7b34-4120-bbb9-522092a1fcfb","system_id":"levelo_inurba_marseille","lat":43.27806,"lon":5.40699,"is_reserved":false,"is_disabled":false,"rental_uris":{"android":"levelo://app?vid=33903fe2-7b34-4120-bbb9-522092a1fcfb","ios":"levelo://app?vid=33903fe2-7b34-4120-bbb9-522092a1fcfb"},"vehicle_type_id":"4","last_reported":1753158993,"current_range_meters":20800,"station_id":"ce4bhnh2rcd13ifvqgtg","pricing_plan_id":"cebpf4jnsgd1na2vs0mg"},{"bike_id":"eb39f0d6-2f37-46c1-ab5c-f53ed31350a1","system_id":"levelo_inurba_marseille","lat":43.32101,"lon":5.36798,"is_reserved":false,"is_disabled":false,"rental_uris":{"android":"levelo://app?vid=eb39f0d6-2f37-46c1-ab5c-f53ed31350a1","ios":"levelo://app?vid=eb39f0d6-2f37-46c1-ab5c-f53ed31350a1"},"vehicle_type_id":"4","last_reported":1753158993,"current_range_meters":21600,"station_id":"ce4bhrh2rcd13ifvqhug","pricing_plan_id":"cebpf4jnsgd1na2vs0mg"},{"bike_id":"c4f10c42-444b-440d-a739-b37c12b0c6fa","system_id":"levelo_inurba_marseille","lat":43.276176,"lon":5.361005,"is_reserved":false,"is_disabled":false,"rental_uris":{"android":"levelo://app?vid=c4f10c42-444b-440d-a739-b37c12b0c6fa","ios":"levelo://app?vid=c4f10c42-444b-440d-a739-b37c12b0c6fa"},"vehicle_type_id":"4","last_reported":1753158993,"current_range_meters":21600,"station_id":"","pricing_plan_id":"cebpf4jnsgd1na2vs0mg"},{"bike_id":"9cc7a44d-f981-4e76-b7a6-4382210a5454","system_id":"levelo_inurba_marseille","lat":43.30945,"lon":5.39024,"is_reserved":false,"is_disabled":false,"rental_uris":{"android":"levelo://app?vid=9cc7a44d-f981-4e76-b7a6-4382210a5454","ios":"levelo://app?vid=9cc7a44d-f981-4e76-b7a6-4382210a5454"},"vehicle_type_id":"4","last_reported":1753158993,"current_range_meters":20800,"station_id":"ce4bgup2rcd13ifvqco0","pricing_plan_id":"cebpf4jnsgd1na2vs0mg"},{"bike_id":"405b8ede-3592-4640-b627-55123f25c256","system_id":"levelo_inurba_marseille","lat":43.30609,"lon":5.3935,"is_reserved":false,"is_disabled":false,"rental_uris":{"android":"levelo://app?vid=405b8ede-3592-4640-b627-55123f25c256","ios":"levelo://app?vid=405b8ede-3592-4640-b627-55123f25c256"},"vehicle_type_id":"4","last_reported":1753158993,"current_range_meters":21600,"station_id":"ce4bh0p2rcd13ifvqd80","pricing_plan_id":"cebpf4jnsgd1na2vs0mg"},{"bike_id":"cc05a64a-ec49-4352-9f43-c89a463bfcf4","system_id":"levelo_inurba_marseille","lat":43.29197,"lon":5.39316,"is_reserved":false,"is_disabled":false,"rental_uris":{"android":"levelo://app?vid=cc05a64a-ec49-4352-9f43-c89a463bfcf4","ios":"levelo://app?vid=cc05a64a-ec49-4352-9f43-c89a463bfcf4"},"vehicle_type_id":"4","last_reported":1753158993,"current_range_meters":21600,"station_id":"ce4bh192rcd13ifvqdd0","pricing_plan_id":"cebpf4jnsgd1na2vs0mg"},{"bike_id":"61db9a4a-0ff7-46f3-8e1f-0994dbc8326b","system_id":"levelo_inurba_marseille","lat":43.31849,"lon":5.36794,"is_reserved":false,"is_disabled":false,"rental_uris":{"android":"levelo://app?vid=61db9a4a-0ff7-46f3-8e1f-0994dbc8326b","ios":"levelo://app?vid=61db9a4a-0ff7-46f3-8e1f-0994dbc8326b"},"vehicle_type_id":"4","last_reported":1753158993,"current_range_meters":21600,"station_id":"","pricing_plan_id":"cebpf4jnsgd1na2vs0mg"},{"bike_id":"5d24a823-f7a8-43d3-80c4-160c1271f2b6","system_id":"levelo_inurba_marseille","lat":43.30736,"lon":5.42456,"is_reserved":false,"is_disabled":false,"rental_uris":{"android":"levelo://app?vid=5d24a823-f7a8-43d3-80c4-160c1271f2b6","ios":"levelo://app?vid=5d24a823-f7a8-43d3-80c4-160c1271f2b6"},"vehicle_type_id":"4","last_reported":1753158993,"current_range_meters":21600,"station_id":"st_cvj6ca6bvosntc0bfgr0","pricing_plan_id":"cebpf4jnsgd1na2vs0mg"},{"bike_id":"1971bd53-8384-4d31-b819-8bf65c8bc1fa","system_id":"levelo_inurba_marseille","lat":43.25129,"lon":5.40321,"is_reserved":false,"is_disabled":false,"rental_uris":{"android":"levelo://app?vid=1971bd53-8384-4d31-b819-8bf65c8bc1fa","ios":"levelo://app?vid=1971bd53-8384-4d31-b819-8bf65c8bc1fa"},"vehicle_type_id":"4","last_reported":1753158993,"current_range_meters":22000,"station_id":"ce4bhlh2rcd13ifvqgig","pricing_plan_id":"cebpf4jnsgd1na2vs0mg"},{"bike_id":"09828e30-a2f0-4be4-9f6d-5777922152a1","system_id":"levelo_inurba_marseille","lat":43.27896,"lon":5.38014,"is_reserved":false,"is_disabled":false,"rental_uris":{"android":"levelo://app?vid=09828e30-a2f0-4be4-9f6d-5777922152a1","ios":"levelo://app?vid=09828e30-a2f0-4be4-9f6d-5777922152a1"},"vehicle_type_id":"4","last_reported":1753158993,"current_range_meters":22000,"station_id":"ce4bhf92rcd13ifvqf50","pricing_plan_id":"cebpf4jnsgd1na2vs0mg"},