{"last_updated":1726067387,"ttl":30,"version":"2.2","data":{"bikes":[{"bike_id":"588a92d1-b353-41b2-9133-3da27562c333","system_id":"levelo_inurba_marseille","lat":43.26562,"lon":5.37292,"is_reserved":false,"is_disabled":false,"rental_uris":{"android":"levelo://app?vid=588a92d1-b353-41b2-9133-3da27562c333","ios":"levelo://app?vid=588a92d1-b353-41b2-9133-3da27562c333"},"vehicle_type_id":"4","last_reported":1726067387,"current_range_meters":37600,"station_id":"ce4bhg12rcd13ifvqf70","pricing_plan_id":"cebpf4jnsgd1na2vs0mg"},{"bike_id":"3824f32b-f85d-4ffd-86bb-51b259ed0a21","system_id":"levelo_inurba_marseille","lat":43.29277,"lon":5.36849,"is_reserved":false,"is_disabled":false,"rental_uris":{"android":"levelo://app?vid=3824f32b-f85d-4ffd-86bb-51b259ed0a21","ios":"levelo://app?vid=3824f32b-f85d-4ffd-86bb-51b259ed0a21"},"vehicle_type_id":"4","last_reported":1726067387,"current_range_meters":8000,"station_id":"ce4bhbp2rcd13ifvqesg","pricing_plan_id":"cebpf4jnsgd1na2vs0mg"},{"bike_id":"ac791e3e-bed6-4b58-b4d6-25288193f468","system_id":"levelo_inurba_marseille","lat":43.292267,"lon":5.363855,"is_reserved":false,"is_disabled":false,"rental_uris":{"android":"levelo://app?vid=ac791e3e-bed6-4b58-b4d6-25288193f468","ios":"levelo://app?vid=ac791e3e-bed6-4b58-b4d6-25288193f468"},"vehicle_type_id":"4","last_reported":1726067387,"current_range_meters":23200,"station_id":"","pricing_plan_id":"cebpf4jnsgd1na2vs0mg"},{"bike_id":"2631e82d-5f16-45a7-b9d4-9f5816fd658f","system_id":"levelo_inurba_marseille","lat":43.23146,"lon":5.43703,"is_reserved":false,"is_disabled":false,"rental_uris":{"android":"levelo://app?vid=2631e82d-5f16-45a7-b9d4-9f5816fd658f","ios":"levelo://app?vid=2631e82d-5f16-45a7-b9d4-9f5816fd658f"},"vehicle_type_id":"4","last_reported":1726067387,"current_range_meters":2800,"station_id":"ce4bhmp2rcd13ifvqgog","pricing_plan_id":"cebpf4jnsgd1na2vs0mg"},{"bike_id":"815cb416-5176-4a5d-b11c-a464fd8822d2","system_id":"levelo_inurba_marseille","lat":43.3015,"lon":5.3808,"is_reserved":false,"is_disabled":false,"rental_uris":{"android":"levelo://app?vid=815cb416-5176-4a5d-b11c-a464fd8822d2","ios":"levelo://app?vid=815cb416-5176-4a5d-b11c-a464fd8822d2"},"vehicle_type_id":"4","last_reported":1726067387,"current_range_meters":36800,"station_id":"ce4bgjp2rcd13ifvqbh0","pricing_plan_id":"cebpf4jnsgd1na2vs0mg"},{"bike_id":"0689f3b1-726f-4829-a222-98d89aac4c94","system_id":"levelo_inurba_marseille","lat":43.30644,"lon":5.400959,"is_reserved":false,"is_disabled":false,"rental_uris":{"android":"levelo://app?vid=0689f3b1-726f-4829-a222-98d89aac4c94","ios":"levelo://app?vid=0689f3b1-726f-4829-a222-98d89aac4c94"},"vehicle_type_id":"4","last_reported":1726067387,"current_range_meters":10800,"station_id":"ce4bh112rcd13ifvqda0","pricing_plan_id":"cebpf4jnsgd1na2vs0mg"},{"bike_id":"ea2ddb7b-9622-4f69-a771-c53556b72d68","system_id":"levelo_inurba_marseille","lat":43.25083,"lon":5.39519,"is_reserved":false,"is_disabled":false,"rental_uris":{"android":"levelo://app?vid=ea2ddb7b-9622-4f69-a771-c53556b72d68","ios":"levelo://app?vid=ea2ddb7b-9622-4f69-a771-c53556b72d68"},"vehicle_type_id":"4","last_reported":1726067387,"current_range_meters":38800,"station_id":"ce4bhm12rcd13ifvqgkg","pricing_plan_id":"cebpf4jnsgd1na2vs0mg"},{"bike_id":"b2209165-0dc0-40e8-a828-b20400ca6442","system_id":"levelo_inurba_marseille","lat":43.3042,"lon":5.41277,"is_reserved":false,"is_disabled":false,"rental_uris":{"android":"levelo://app?vid=b2209165-0dc0-40e8-a828-b20400ca6442","ios":"levelo://app?vid=b2209165-0dc0-40e8-a828-b20400ca6442"},"vehicle_type_id":"4","last_reported":1726067387,"current_range_meters":28800,"station_id":"ce4bhop2rcd13ifvqh8g","pricing_plan_id":"cebpf4jnsgd1na2vs0mg"},{"bike_id":"fc5cc4ae-10d7-438e-b0c0-a7d72dc3f7d5","system_id":"levelo_inurba_marseille","lat":43.28727,"lon":5.36075,"is_reserved":false,"is_disabled":false,"rental_uris":{"android":"levelo://app?vid=fc5cc4ae-10d7-438e-b0c0-a7d72dc3f7d5","ios":"levelo://app?vid=fc5cc4ae-10d7-438e-b0c0-a7d72dc3f7d5"},"vehicle_type_id":"4","last_reported":1726067387,"current_range_meters":16800,"station_id":"cki0cbj6b192h4jlfktg","pricing_plan_id":"cebpf4jnsgd1na2vs0mg"},{"bike_id":"61c3dd73-5220-401a-941e-2099162f62af","system_id":"levelo_inurba_marseille","lat":43.30804,"lon":5.4352,"is_reserved":false,"is_disabled":false,"rental_uris":{"android":"levelo://app?vid=61c3dd73-5220-401a-941e-2099162f62af","ios":"levelo://app?vid=61c3dd73-5220-401a-941e-2099162f62af"},"vehicle_type_id":"4","last_reported":1726067387,"current_range_meters":12400,"station_id":"ce4bhph2rcd13ifvqheg","pricing_plan_id":"cebpf4jnsgd1na2vs0mg"},{"bike_id":"8763a202-047a-4757-a383-8b55ec9d3f3a","system_id":"levelo_inurba_marseille","lat":43.25819,"lon":5.39424,"is_reserved":false,"is_disabled":false,"rental_uris":{"android":"levelo://app?vid=8763a202-047a-4757-a383-8b55ec9d3f3a","ios":"levelo://app?vid=8763a202-047a-4757-a383-8b55ec9d3f3a"},"vehicle_type_id":"4","last_reported":1726067387,"current_range_meters":22000,"station_id":"ce4bhip2rcd13ifvqft0","pricing_plan_id":"cebpf4jnsgd1na2vs0mg"},{"bike_id":"33ec85d6-d400-43a6-aa60-c2311b1560de","system_id":"levelo_inurba_marseille","lat":43.2978,"lon":5.37096,"is_reserved":false,"is_disabled":false,"rental_uris":{"android":"levelo://app?vid=33ec85d6-d400-43a6-aa60-c2311b1560de","ios":"levelo://app?vid=33ec85d6-d400-43a6-aa60-c2311b1560de"},"vehicle_type_id":"4","last_reported":1726067387,"current_range_meters":26800,"station_id":"ce4bgop2rcd13ifvqc1g","pricing_plan_id":"cebpf4jnsgd1na2vs0mg"},{"bike_id":"b962b21b-55c3-4504-b9f4-56fa67af11e6","system_id":"levelo_inurba_marseille","lat":43.25817,"lon":5.3943,"is_reserved":false,"is_disabled":false,"rental_uris":{"android":"levelo://app?vid=b962b21b-55c3-4504-b9f4-56fa67af11e6","ios":"levelo://app?vid=b962b21b-55c3-4504-b9f4-56fa67af11e6"},"vehicle_type_id":"4","last_reported":1726067387,"current_range_meters":13600,"station_id":"ce4bhip2rcd13ifvqft0","pricing_plan_id":"cebpf4jnsgd1na2vs0mg"},{"bike_id":"fc03d7fe-53be-46c5-b131-979674aee230","system_id":"levelo_inurba_marseille","lat":43.31685,"lon":5.40471,"is_reserved":false,"is_disabled":false,"rental_uris":{"android":"levelo://app?vid=fc03d7fe-53be-46c5-b131-979674aee230","ios":"levelo://app?vid=fc03d7fe-53be-46c5-b131-979674aee230"},"vehicle_type_id":"4","last_reported":1726067387,"current_range_meters":18800,"station_id":"ce4bh012rcd13ifvqd00","pricing_plan_id":"cebpf4jnsgd1na2vs0mg"},{"bike_id":"107292a3-ed88-4b55-a49f-b7c138732df6","system_id":"levelo_inurba_marseille","lat":43.30601,"lon":5.37227,"is_reserved":false,"is_disabled":false,"rental_uris":{"android":"levelo://app?vid=107292a3-ed88-4b55-a49f-b7c138732df6","ios":"levelo://app?vid=107292a3-ed88-4b55-a49f-b7c138732df6"},"vehicle_type_id":"4","last_reported":1726067387,"current_range_meters":20800,"station_id":"ce4bgqh2rcd13ifvqc4g","pricing_plan_id":"cebpf4jnsgd1na2vs0mg"},{"bike_id":"1e3dfb46-8fdf-4335-a970-36b09d8c8629","system_id":"levelo_inurba_marseille","lat":43.2756,"lon":5.3841,"is_reserved":false,"is_disabled":false,"rental_uris":{"android":"levelo://app?vid=1e3dfb46-8fdf-4335-a970-36b09d8c8629","ios":"levelo://app?vid=1e3dfb46-8fdf-4335-a970-36b09d8c8629"},"vehicle_type_id":"4","last_reported":1726067387,"current_range_meters":9600,"station_id":"ce4bhh92rcd13ifvqfi0","pricing_plan_id":"cebpf4jnsgd1na2vs0mg"},{"bike_id":"b413bc3e-6bbd-4e11-abff-54bb0b63b087","system_id":"levelo_inurba_marseille","lat":43.23975,"lon":5.36616,"is_reserved":false,"is_disabled":false,"rental_uris":{"android":"levelo://app?vid=b413bc3e-6bbd-4e11-abff-54bb0b63b087","ios":"levelo://app?vid=b413bc3e-6bbd-4e11-abff-54bb0b63b087"},"vehicle_type_id":"4","last_reported":1726067387,"current_range_meters":19200,"station_id":"ce4bhi12rcd13ifvqfp0","pricing_plan_id":"cebpf4jnsgd1na2vs0mg"},{"bike_id":"c418a0a3-69bc-4a59-97fd-7bc4eeb30394","system_id":"levelo_inurba_marseille","lat":43.3053,"lon":5.36542,"is_reserved":false,"is_disabled":false,"rental_uris":{"android":"levelo://app?vid=c418a0a3-69bc-4a59-97fd-7bc4eeb30394","ios":"levelo://app?vid=c418a0a3-69bc-4a59-97fd-7bc4eeb30394"},"vehicle_type_id":"4","last_reported":1726067387,"current_range_meters":38800,"station_id":"ce4bgs12rcd13ifvqcag","pricing_plan_id":"cebpf4jnsgd1na2vs0mg"},{"bike_id":"b005d8f2-5763-4ff5-a6e8-53344b0093a7","system_id":"levelo_inurba_marseille","lat":43.29194,"lon":5.39311,"is_reserved":false,"is_disabled":false,"rental_uris":{"android":"levelo://app?vid=b005d8f2-5763-4ff5-a6e8-53344b0093a7","ios":"levelo://app?vid=b005d8f2-5763-4ff5-a6e8-53344b0093a7"},"vehicle_type_id":"4","last_reported":1726067387,"current_range_meters":28000,"station_id":"ce4bh192rcd13ifvqdd0","pricing_plan_id":"cebpf4jnsgd1na2vs0mg"},{"bike_id":"d82e0da7-4123-4237-8a7d-619e17c6b191","system_id":"levelo_inurba_marseille","lat":43.24078,"lon":5.37751,"is_reserved":false,"is_disabled":false,"rental_uris":{"android":"levelo://app?vid=d82e0da7-4123-4237-8a7d-619e17c6b191","ios":"levelo://app?vid=d82e0da7-4123-4237-8a7d-619e17c6b191"},"vehicle_type_id":"4","last_reported":1726067387,"current_range_meters":14400,"station_id":"ce4bhnp2rcd13ifvqgvg","pricing_plan_id":"cebpf4jnsgd1na2vs0mg"},{"bike_id":"fff63518-2684-4d2e-80e7-5a32fbfa5e58","system_id":"levelo_inurba_marseille","lat":43.29902,"lon":5.436738,"is_reserved":false,"is_disabled":false,"rental_uris":{"android":"levelo://app?vid=fff63518-2684-4d2e-80e7-5a32fbfa5e58","ios":"levelo://app?vid=fff63518-2684-4d2e-80e7-5a32fbfa5e58"},"vehicle_type_id":"4","last_reported":1726067387,"current_range_meters":19600,"station_id":"ce4bhpp2rcd13ifvqhfg","pricing_plan_id":"cebpf4jnsgd1na2vs0mg"},{"bike_id":"8a1a632c-3463-4000-b347-a12a9f38c47e","system_id":"levelo_inurba_marseille","lat":43.30781,"lon":5.37647,"is_reserved":false,"is_disabled":false,"rental_uris":{"android":"levelo://app?vid=8a1a632c-3463-4000-b347-a12a9f38c47e","ios":"levelo://app?vid=8a1a632c-3463-4000-b347-a12a9f38c47e"},"vehicle_type_id":"4","last_reported":1726067387,"current_range_meters":36800,"station_id":"ce4bgv92rcd13ifvqcq0","pricing_plan_id":"cebpf4jnsgd1na2vs0mg"},{"bike_id":"25842457-7db9-450c-bb0c-92b879caa9ef","system_id":"levelo_inurba_marseille","lat":43.29853,"lon":5.36272,"is_reserved":false,"is_disabled":false,"rental_uris":{"android":"levelo://app?vid=25842457-7db9-450c-bb0c-92b879caa9ef","ios":"levelo://app?vid=25842457-7db9-450c-bb0c-92b879caa9ef"},"vehicle_type_id":"4","last_reported":1726067387,"current_range_meters":38400,"station_id":"ce4bgpp2rcd13ifvqc3g","pricing_plan_id":"cebpf4jnsgd1na2vs0mg"},{"bike_id":"00115f0a-ac26-4e9a-986d-383b5654c372","system_id":"levelo_inurba_marseille","lat":43.26687,"lon":5.38273,"is_reserved":false,"is_disabled":false,"rental_uris":{"android":"levelo://app?vid=00115f0a-ac26-4e9a-986d-383b5654c372","ios":"levelo://app?vid=00115f0a-ac26-4e9a-986d-383b5654c372"},"vehicle_type_id":"4","last_reported":1726067387,"current_range_meters":24000,"station_id":"ce4bhg92rcd13ifvqf90","pricing_plan_id":"cebpf4jnsgd1na2vs0mg"},{"bike_id":"6dfbc6a1-3984-441b-b6e5-90fde29c9256","system_id":"levelo_inurba_marseille","lat":43.30546,"lon":5.36548,"is_reserved":false,"is_disabled":false,"rental_uris":{"android":"levelo://app?vid=6dfbc6a1-3984-441b-b6e5-90fde29c9256","ios":"levelo://app?vid=6dfbc6a1-3984-441b-b6e5-90fde29c9256"},"vehicle_type_id":"4","last_reported":1726067387,"current_range_meters":20400,"station_id":"ce4bgs12rcd13ifvqcag","pricing_plan_id":"cebpf4jnsgd1na2vs0mg"},{"bike_id":"9bffd09e-af32-4eab-9ea6-978f1b52b525","system_id":"levelo_inurba_marseille","lat":43.30308,"lon":5.39199,"is_reserved":false,"is_disabled":false,"rental_uris":{"android":"levelo://app?vid=9bffd09e-af32-4eab-9ea6-978f1b52b525","ios":"levelo://app?vid=9bffd09e-af32-4eab-9ea6-978f1b52b525"},"vehicle_type_id":"4","last_reported":1726067387,"current_range_meters":38000,"station_id":"ce4bgkh2rcd13ifvqbk0","pricing_plan_id":"cebpf4jnsgd1na2vs0mg"},{"bike_id":"7fd40d4b-74ca-4c0b-acd2-6c3c8dab4e5d","system_id":"levelo_inurba_marseille","lat":43.292064,"lon":5.39319,"is_reserved":false,"is_disabled":false,"rental_uris":{"android":"levelo://app?vid=7fd40d4b-74ca-4c0b-acd2-6c3c8dab4e5d","ios":"levelo://app?vid=7fd40d4b-74ca-4c0b-acd2-6c3c8dab4e5d"},"vehicle_type_id":"4","last_reported":1726067387,"current_range_meters":15200,"station_id":"ce4bh192rcd13ifvqdd0","pricing_plan_id":"cebpf4jnsgd1na2vs0mg"},{"bike_id":"b55edf7c-79e6-47b5-8da1-5223c1ee16a6","system_id":"levelo_inurba_marseille","lat":43.26194,"lon":5.37448,"is_reserved":false,"is_disabled":false,"rental_uris":{"android":"levelo://app?vid=b55edf7c-79e6-47b5-8da1-5223c1ee16a6","ios":"levelo://app?vid=b55edf7c-79e6-47b5-8da1-5223c1ee16a6"},"vehicle_type_id":"4","last_reported":1726067387,"current_range_meters":15200,"station_id":"ce4bhgp2rcd13ifvqfc0","pricing_plan_id":"cebpf4jnsgd1na2vs0mg"},{"bike_id":"a6196515-73fe-4ee0-b552-b88eeae38e26","system_id":"levelo_inurba_marseille","lat":43.29277,"lon":5.36848,"is_reserved":false,"is_disabled":false,"rental_uris":{"android":"levelo://app?vid=a6196515-73fe-4ee0-b552-b88eeae38e26","ios":"levelo://app?vid=a6196515-73fe-4ee0-b552-b88eeae38e26"},"vehicle_type_id":"4","last_reported":1726067387,"current_range_meters":3600,"station_id":"ce4bhbp2rcd13ifvqesg","pricing_plan_id":"cebpf4jnsgd1na2vs0mg"},{"bike_id":"bf588980-2f0a-463a-9d8a-980054503cae","system_id":"levelo_inurba_marseille","lat":43.29711,"lon":5.36595,"is_reserved":false,"is_disabled":false,"rental_uris":{"android":"levelo://app?vid=bf588980-2f0a-463a-9d8a-980054503cae","ios":"levelo://app?vid=bf588980-2f0a-463a-9d8a-980054503cae"},"vehicle_type_id":"4","last_reported":1726067387,"current_range_meters":38400,"station_id":"ce4bgn12rcd13ifvqbt0","pricing_plan_id":"cebpf4jnsgd1na2vs0mg"},{"bike_id":"5ae5e484-ba20-4375-944d-6cf4adfedfa8","system_id":"levelo_inurba_marseille","lat":43.29705,"lon":5.36598,"is_reserved":false,"is_disabled":false,"rental_uris":{"android":"levelo://app?vid=5ae5e484-ba20-4375-944d-6cf4adfedfa8","ios":"levelo://app?vid=5ae5e484-ba20-4375-944d-6cf4adfedfa8"},"vehicle_type_id":"4","last_reported":1726067387,"current_range_meters":12400,"station_id":"ce4bgn12rcd13ifvqbt0","pricing_plan_id":"cebpf4jnsgd1na2vs0mg"},{"bike_id":"00ca710c-aa25-453d-b5eb-9286e939dc6d","system_id":"levelo_inurba_marseille","lat":43.29548,"lon":5.42276,"is_reserved":false,"is_disabled":false,"rental_uris":{"android":"levelo://app?vid=00ca710c-aa25-453d-b5eb-9286e939dc6d","ios":"levelo://app?vid=00ca710c-aa25-453d-b5eb-9286e939dc6d"},"vehicle_type_id":"4","last_reported":1726067387,"current_range_meters":38800,"station_id":"ce4bhph2rcd13ifvqhdg","pricing_plan_id":"cebpf4jnsgd1na2vs0mg"},{"bike_id":"c841d19a-3062-47a9-893d-8ed395a4cab6","system_id":"levelo_inurba_marseille","lat":43.311864,"lon":5.387447,"is_reserved":false,"is_disabled":false,"rental_uris":{"android":"levelo://app?vid=c841d19a-3062-47a9-893d-8ed395a4cab6","ios":"levelo://app?vid=c841d19a-3062-47a9-893d-8ed395a4cab6"},"vehicle_type_id":"4","last_reported":1726067387,"current_range_meters":18800,"station_id":"ce4bgv12rcd13ifvqcp0","pricing_plan_id":"cebpf4jnsgd1na2vs0mg"},{"bike_id":"a36a6131-7175-4d21-afcf-16a3b952996a","system_id":"levelo_inurba_marseille","lat":43.30821,"lon":5.37654,"is_reserved":false,"is_disabled":false,"rental_uris":{"android":"levelo://app?vid=a36a6131-7175-4d21-afcf-16a3b952996a","ios":"levelo://app?vid=a36a6131-7175-4d21-afcf-16a3b952996a"},"vehicle_type_id":"4","last_reported":1726067387,"current_range_meters":9200,"station_id":"ce4bgv92rcd13ifvqcq0","pricing_plan_id":"cebpf4jnsgd1na2vs0mg"},{"bike_id":"b705a46a-a4d7-4d3c-b35f-96bda1545646","system_id":"levelo_inurba_marseille","lat":43.29593,"lon":5.38158,"is_reserved":false,"is_disabled":false,"rental_uris":{"android":"levelo://app?vid=b705a46a-a4d7-4d3c-b35f-96bda1545646","ios":"levelo://app?vid=b705a46a-a4d7-4d3c-b35f-96bda1545646"},"vehicle_type_id":"4","last_reported":1726067387,"current_range_meters":13600,"station_id":"ce4bgl12rcd13ifvqbo0","pricing_plan_id":"cebpf4jnsgd1na2vs0mg"},{"bike_id":"d0b7aa61-7851-46ae-af5a-7a19cfdfc900","system_id":"levelo_inurba_marseille","lat":43.2606,"lon":5.39393,"is_reserved":false,"is_disabled":false,"rental_uris":{"android":"levelo://app?vid=d0b7aa61-7851-46ae-af5a-7a19cfdfc900","ios":"levelo://app?vid=d0b7aa61-7851-46ae-af5a-7a19cfdfc900"},"vehicle_type_id":"4","last_reported":1726067387,"current_range_meters":38800,"station_id":"ce4bhh92rcd13ifvqfj0","pricing_plan_id":"cebpf4jnsgd1na2vs0mg"},{"bike_id":"4ec6a117-face-491c-9200-3fe8361d1ace","system_id":"levelo_inurba_marseille","lat":43.23186,"lon":5.39987,"is_reserved":false,"is_disabled":false,"rental_uris":{"android":"levelo://app?vid=4ec6a117-face-491c-9200-3fe8361d1ace","ios":"levelo://app?vid=4ec6a117-face-491c-9200-3fe8361d1ace"},"vehicle_type_id":"4","last_reported":1726067387,"current_range_meters":26800,"station_id":"ce4bhn12rcd13ifvqgqg","pricing_plan_id":"cebpf4jnsgd1na2vs0mg"},{"bike_id":"fd17a8e7-e7f2-4a63-8e67-7f477e66864f","system_id":"levelo_inurba_marseille","lat":43.26557,"lon":5.3728,"is_reserved":false,"is_disabled":false,"rental_uris":{"android":"levelo://app?vid=fd17a8e7-e7f2-4a63-8e67-7f477e66864f","ios":"levelo://app?vid=fd17a8e7-e7f2-4a63-8e67-7f477e66864f"},"vehicle_type_id":"4","last_reported":1726067387,"current_range_meters":7200,"station_id":"ce4bhg12rcd13ifvqf70","pricing_plan_id":"cebpf4jnsgd1na2vs0mg"},{"bike_id":"70496fba-c8e9-4ae2-90e5-e17cbeaa2919","system_id":"levelo_inurba_marseille","lat":43.28,"lon":5.40017,"is_reserved":false,"is_disabled":false,"rental_uris":{"android":"levelo://app?vid=70496fba-c8e9-4ae2-90e5-e17cbeaa2919","ios":"levelo://app?vid=70496fba-c8e9-4ae2-90e5-e17cbeaa2919"},"vehicle_type_id":"4","last_reported":1726067387,"current_range_meters":26800,"station_id":"ce4bho92rcd13ifvqh4g","pricing_plan_id":"cebpf4jnsgd1na2vs0mg"},{"bike_id":"a391b936-7f99-47c9-8f0e-230ab21f118b","system_id":"levelo_inurba_marseille","lat":43.27904,"lon":5.381393,"is_reserved":false,"is_disabled":false,"rental_uris":{"android":"levelo://app?vid=a391b936-7f99-47c9-8f0e-230ab21f118b","ios":"levelo://app?vid=a391b936-7f99-47c9-8f0e-230ab21f118b"},"vehicle_type_id":"4","last_reported":1726067387,"current_range_meters":9200,"station_id":"ce4bhf92rcd13ifvqf50","pricing_plan_id":"cebpf4jnsgd1na2vs0mg"},{"bike_id":"b57b7c50-b45e-48bf-80f1-5809fd7245ab","system_id":"levelo_inurba_marseille","lat":43.26684,"lon":5.3827,"is_reserved":false,"is_disabled":false,"rental_uris":{"android":"levelo://app?vid=b57b7c50-b45e-48bf-80f1-5809fd7245ab","ios":"levelo://app?vid=b57b7c50-b45e-48bf-80f1-5809fd7245ab"},"vehicle_type_id":"4","last_reported":1726067387,"current_range_meters":38400,"station_id":"ce4bhg92rcd13ifvqf90","pricing_plan_id":"cebpf4jnsgd1na2vs0mg"},{"bike_id":"14a7e07e-ea7d-472b-996f-ae43c1ced82d","system_id":"levelo_inurba_marseille","lat":43.25122,"lon":5.40316,"is_reserved":false,"is_disabled":false,"rental_uris":{"android":"levelo://app?vid=14a7e07e-ea7d-472b-996f-ae43c1ced82d","ios":"levelo://app?vid=14a7e07e-ea7d-472b-996f-ae43c1ced82d"},"vehicle_type_id":"4","last_reported":1726067387,"current_range_meters":8400,"station_id":"ce4bhlh2rcd13ifvqgig","pricing_plan_id":"cebpf4jnsgd1na2vs0mg"},{"bike_id":"acd55071-35a7-42f8-9f64-d7e0e0415247","system_id":"levelo_inurba_marseille","lat":43.26685,"lon":5.38256,"is_reserved":false,"is_disabled":false,"rental_uris":{"android":"levelo://app?vid=acd55071-35a7-42f8-9f64-d7e0e0415247","ios":"levelo://app?vid=acd55071-35a7-42f8-9f64-d7e0e0415247"},"vehicle_type_id":"4","last_reported":1726067387,"current_range_meters":26800,"station_id":"ce4bhg92rcd13ifvqf90","pricing_plan_id":"cebpf4jnsgd1na2vs0mg"},{"bike_id":"88cf5dd6-c835-4104-9def-26019de205df","system_id":"levelo_inurba_marseille","lat":43.29898,"lon":5.43671,"is_reserved":false,"is_disabled":false,"rental_uris":{"android":"levelo://app?vid=88cf5dd6-c835-4104-9def-26019de205df","ios":"levelo://app?vid=88cf5dd6-c835-4104-9def-26019de205df"},"vehicle_type_id":"4","last_reported":1726067387,"current_range_meters":34000,"station_id":"ce4bhpp2rcd13ifvqhfg","pricing_plan_id":"cebpf4jnsgd1na2vs0mg"},{"bike_id":"06457a82-70eb-40d8-b80b-da45f5acd8b4","system_id":"levelo_inurba_marseille","lat":43.27422,"lon":5.39423,"is_reserved":false,"is_disabled":false,"rental_uris":{"android":"levelo://app?vid=06457a82-70eb-40d8-b80b-da45f5acd8b4","ios":"levelo://app?vid=06457a82-70eb-40d8-b80b-da45f5acd8b4"},"vehicle_type_id":"4","last_reported":1726067387,"current_range_meters":28400,"station_id":"ce4bhdp2rcd13ifvqf20","pricing_plan_id":"cebpf4jnsgd1na2vs0mg"},{"bike_id":"46fed3f8-27ec-4816-b0fa-a182a2b87203","system_id":"levelo_inurba_marseille","lat":43.33029,"lon":5.39041,"is_reserved":false,"is_disabled":false,"rental_uris":{"android":"levelo://app?vid=46fed3f8-27ec-4816-b0fa-a182a2b87203","ios":"levelo://app?vid=46fed3f8-27ec-4816-b0fa-a182a2b87203"},"vehicle_type_id":"4","last_reported":1726067387,"current_range_meters":12800,"station_id":"ce4bhr92rcd13ifvqhrg","pricing_plan_id":"cebpf4jnsgd1na2vs0mg"},{"bike_id":"8e06870f-59b1-4019-8c4e-0fd97a649554","system_id":"levelo_inurba_marseille","lat":43.28,"lon":5.40015,"is_reserved":false,"is_disabled":false,"rental_uris":{"android":"levelo://app?vid=8e06870f-59b1-4019-8c4e-0fd97a649554","ios":"levelo://app?vid=8e06870f-59b1-4019-8c4e-0fd97a649554"},"vehicle_type_id":"4","last_reported":1726067387,"current_range_meters":16000,"station_id":"ce4bho92rcd13ifvqh4g","pricing_plan_id":"cebpf4jnsgd1na2vs0mg"},{"bike_id":"3278407a-c8eb-476f-a4d5-e9be860924d5","system_id":"levelo_inurba_marseille","lat":43.2953,"lon":5.38537,"is_reserved":false,"is_disabled":false,"rental_uris":{"android":"levelo://app?vid=3278407a-c8eb-476f-a4d5-e9be860924d5","ios":"levelo://app?vid=3278407a-c8eb-476f-a4d5-e9be860924d5"},"vehicle_type_id":"4","last_reported":1726067387,"current_range_meters":16400,"station_id":"ce4bgih2rcd13ifvqba0","pricing_plan_id":"cebpf4jnsgd1na2vs0mg"},{"bike_id":"ca83b445-f9b8-4c3b-8fbf-9f0e930b1f13","system_id":"levelo_inurba_marseille","lat":43.29845,"lon":5.36275,"is_reserved":false,"is_disabled":false,"rental_uris":{"android":"levelo://app?vid=ca83b445-f9b8-4c3b-8fbf-9f0e930b1f13","ios":"levelo://app?vid=ca83b445-f9b8-4c3b-8fbf-9f0e930b1f13"},"vehicle_type_id":"4","last_reported":1726067387,"current_range_meters":36000,"station_id":"ce4bgpp2rcd13ifvqc3g","pricing_plan_id":"cebpf4jnsgd1na2vs0mg"},{"bike_id":"2e330c0b-597a-4d54-a5de-eb50a375a091","system_id":"levelo_inurba_marseille","lat":43.24655,"lon":5.38891,"is_reserved":false,"is_disabled":false,"rental_uris":{"android":"levelo://app?vid=2e330c0b-597a-4d54-a5de-eb50a375a091","ios":"levelo://app?vid=2e330c0b-597a-4d54-a5de-eb50a375a091"},"vehicle_type_id":"4","last_reported":1726067387,"current_range_meters":16800,"station_id":"ce4bhg12rcd13ifvqf60","pricing_plan_id":"cebpf4jnsgd1na2vs0mg"},{"bike_id":"2f93a91f-021e-4a0a-bcbe-7faff364b587","system_id":"levelo_inurba_marseille","lat":43.29911,"lon":5.37462,"is_reserved":false,"is_disabled":false,"rental_uris":{"android":"levelo://app?vid=2f93a91f-021e-4a0a-bcbe-7faff364b587","ios":"levelo://app?vid=2f93a91f-021e-4a0a-bcbe-7faff364b587"},"vehicle_type_id":"4","last_reported":1726067387,"current_range_meters":38800,"station_id":"ce4bgjh2rcd13ifvqbg0","pricing_plan_id":"cebpf4jnsgd1na2vs0mg"},{"bike_id":"bd83c066-cd08-4485-8759-7940a30a3fa5","system_id":"levelo_inurba_marseille","lat":43.269106,"lon":5.388802,"is_reserved":false,"is_disabled":false,"rental_uris":{"android":"levelo://app?vid=bd83c066-cd08-4485-8759-7940a30a3fa5","ios":"levelo://app?vid=bd83c066-cd08-4485-8759-7940a30a3fa5"},"vehicle_type_id":"4","last_reported":1726067387,"current_range_meters":16800,"station_id":"ce4bhhh2rcd13ifvqfl0","pricing_plan_id":"cebpf4jnsgd1na2vs0mg"},{"bike_id":"91fce6cf-0af2-4d89-84b8-e2ab9664d9dc","system_id":"levelo_inurba_marseille","lat":43.29964,"lon":5.41319,"is_reserved":false,"is_disabled":false,"rental_uris":{"android":"levelo://app?vid=91fce6cf-0af2-4d89-84b8-e2ab9664d9dc","ios":"levelo://app?vid=91fce6cf-0af2-4d89-84b8-e2ab9664d9dc"},"vehicle_type_id":"4","last_reported":1726067387,"current_range_meters":26800,"station_id":"ce4bhp12rcd13ifvqh9g","pricing_plan_id":"cebpf4jnsgd1na2vs0mg"},{"bike_id":"152c16e5-ee8e-4575-8d12-1841d802a248","system_id":"levelo_inurba_marseille","lat":43.30426,"lon":5.41271,"is_reserved":false,"is_disabled":false,"rental_uris":{"android":"levelo://app?vid=152c16e5-ee8e-4575-8d12-1841d802a248","ios":"levelo://app?vid=152c16e5-ee8e-4575-8d12-1841d802a248"},"vehicle_type_id":"4","last_reported":1726067387,"current_range_meters":24800,"station_id":"ce4bhop2rcd13ifvqh8g","pricing_plan_id":"cebpf4jnsgd1na2vs0mg"},{"bike_id":"73b9e7db-6862-45af-a8fe-5c1dd087d721","system_id":"levelo_inurba_marseille","lat":43.28432,"lon":5.39179,"is_reserved":false,"is_disabled":false,"rental_uris":{"android":"levelo://app?vid=73b9e7db-6862-45af-a8fe-5c1dd087d721","ios":"levelo://app?vid=73b9e7db-6862-45af-a8fe-5c1dd087d721"},"vehicle_type_id":"4","last_reported":1726067387,"current_range_meters":36400,"station_id":"ce4bhoh2rcd13ifvqh5g","pricing_plan_id":"cebpf4jnsgd1na2vs0mg"},{"bike_id":"79856fd3-e060-4047-9b13-4ff41228abed","system_id":"levelo_inurba_marseille","lat":43.311281,"lon":5.387262,"is_reserved":false,"is_disabled":false,"rental_uris":{"android":"levelo://app?vid=79856fd3-e060-4047-9b13-4ff41228abed","ios":"levelo://app?vid=79856fd3-e060-4047-9b13-4ff41228abed"},"vehicle_type_id":"4","last_reported":1726067387,"current_range_meters":16000,"station_id":"ce4bgv12rcd13ifvqcp0","pricing_plan_id":"cebpf4jnsgd1na2vs0mg"},{"bike_id":"dd7f6df3-46e6-4f22-b872-d4de8dbafbeb","system_id":"levelo_inurba_marseille","lat":43.28274,"lon":5.3507,"is_reserved":false,"is_disabled":false,"rental_uris":{"android":"levelo://app?vid=dd7f6df3-46e6-4f22-b872-d4de8dbafbeb","ios":"levelo://app?vid=dd7f6df3-46e6-4f22-b872-d4de8dbafbeb"},"vehicle_type_id":"4","last_reported":1726067387,"current_range_meters":24800,"station_id":"ce4bhbp2rcd13ifvqerg","pricing_plan_id":"cebpf4jnsgd1na2vs0mg"},{"bike_id":"de0c3073-3eaa-4596-9891-c3381daa6ed7","system_id":"levelo_inurba_marseille","lat":43.29003,"lon":5.35614,"is_reserved":false,"is_disabled":false,"rental_uris":{"android":"levelo://app?vid=de0c3073-3eaa-4596-9891-c3381daa6ed7","ios":"levelo://app?vid=de0c3073-3eaa-4596-9891-c3381daa6ed7"},"vehicle_type_id":"4","last_reported":1726067387,"current_range_meters":22400,"station_id":"ce4bhb92rcd13ifvqen0","pricing_plan_id":"cebpf4jnsgd1na2vs0mg"},{"bike_id":"5c70df26-4b90-4d40-86d0-169a5d39cf40","system_id":"levelo_inurba_marseille","lat":43.24807,"lon":5.37455,"is_reserved":false,"is_disabled":false,"rental_uris":{"android":"levelo://app?vid=5c70df26-4b90-4d40-86d0-169a5d39cf40","ios":"levelo://app?vid=5c70df26-4b90-4d40-86d0-169a5d39cf40"},"vehicle_type_id":"4","last_reported":1726067387,"current_range_meters":8800,"station_id":"ce4bhgh2rcd13ifvqfb0","pricing_plan_id":"cebpf4jnsgd1na2vs0mg"},{"bike_id":"d6c5cb05-a129-4f51-8de3-78a66c21f7e4","system_id":"levelo_inurba_marseille","lat":43.28468,"lon":5.35883,"is_reserved":false,"is_disabled":false,"rental_uris":{"android":"levelo://app?vid=d6c5cb05-a129-4f51-8de3-78a66c21f7e4","ios":"levelo://app?vid=d6c5cb05-a129-4f51-8de3-78a66c21f7e4"},"vehicle_type_id":"4","last_reported":1726067387,"current_range_meters":23200,"station_id":"ce4bhah2rcd13ifvqei0","pricing_plan_id":"cebpf4jnsgd1na2vs0mg"},{"bike_id":"afba6b6d-963a-49c5-b260-b949af368258","system_id":"levelo_inurba_marseille","lat":43.27325,"lon":5.39082,"is_reserved":false,"is_disabled":false,"rental_uris":{"android":"levelo://app?vid=afba6b6d-963a-49c5-b260-b949af368258","ios":"levelo://app?vid=afba6b6d-963a-49c5-b260-b949af368258"},"vehicle_type_id":"4","last_reported":1726067387,"current_range_meters":32400,"station_id":"ce4bhgp2rcd13ifvqfe0","pricing_plan_id":"cebpf4jnsgd1na2vs0mg"},{"bike_id":"aecdea64-c4c5-40e4-9d29-2a9aa21ff301","system_id":"levelo_inurba_marseille","lat":43.27202,"lon":5.39187,"is_reserved":false,"is_disabled":false,"rental_uris":{"android":"levelo://app?vid=aecdea64-c4c5-40e4-9d29-2a9aa21ff301","ios":"levelo://app?vid=aecdea64-c4c5-40e4-9d29-2a9aa21ff301"},"vehicle_type_id":"4","last_reported":1726067387,"current_range_meters":2800,"station_id":"ce4bhhp2rcd13ifvqfm0","pricing_plan_id":"cebpf4jnsgd1na2vs0mg"},{"bike_id":"061e76f9-f2be-48ca-bb2d-f66e7a7deb78","system_id":"levelo_inurba_marseille","lat":43.25723,"lon":5.41112,"is_reserved":false,"is_disabled":false,"rental_uris":{"android":"levelo://app?vid=061e76f9-f2be-48ca-bb2d-f66e7a7deb78","ios":"levelo://app?vid=061e76f9-f2be-48ca-bb2d-f66e7a7deb78"},"vehicle_type_id":"4","last_reported":1726067387,"current_range_meters":26000,"station_id":"ce4bhkp2rcd13ifvqgd0","pricing_plan_id":"cebpf4jnsgd1na2vs0mg"},{"bike_id":"9e62614e-118a-498d-b80f-2ad56694674b","system_id":"levelo_inurba_marseille","lat":43.31224,"lon":5.36853,"is_reserved":false,"is_disabled":false,"rental_uris":{"android":"levelo://app?vid=9e62614e-118a-498d-b80f-2ad56694674b","ios":"levelo://app?vid=9e62614e-118a-498d-b80f-2ad56694674b"},"vehicle_type_id":"4","last_reported":1726067387,"current_range_meters":30000,"station_id":"ce4bgl92rcd13ifvqbq0","pricing_plan_id":"cebpf4jnsgd1na2vs0mg"},{"bike_id":"5c31f488-4153-47b1-b186-867d00090349","system_id":"levelo_inurba_marseille","lat":43.301366,"lon":5.387865,"is_reserved":false,"is_disabled":false,"rental_uris":{"android":"levelo://app?vid=5c31f488-4153-47b1-b186-867d00090349","ios":"levelo://app?vid=5c31f488-4153-47b1-b186-867d00090349"},"vehicle_type_id":"4","last_reported":1726067387,"current_range_meters":22000,"station_id":"ce4bghh2rcd13ifvqb60","pricing_plan_id":"cebpf4jnsgd1na2vs0mg"},{"bike_id":"e6f96de0-61ec-4748-a734-8c2cacbee67f","system_id":"levelo_inurba_marseille","lat":43.23053,"lon":5.35486,"is_reserved":false,"is_disabled":false,"rental_uris":{"android":"levelo://app?vid=e6f96de0-61ec-4748-a734-8c2cacbee67f","ios":"levelo://app?vid=e6f96de0-61ec-4748-a734-8c2cacbee67f"},"vehicle_type_id":"4","last_reported":1726067387,"current_range_meters":5600,"station_id":"cpo3342slgdg3j2ifvpg","pricing_plan_id":"cebpf4jnsgd1na2vs0mg"},{"bike_id":"bcd6fcd4-842c-43cb-8ec7-ea6e62e6d0b8","system_id":"levelo_inurba_marseille","lat":43.29259,"lon":5.40902,"is_reserved":false,"is_disabled":false,"rental_uris":{"android":"levelo://app?vid=bcd6fcd4-842c-43cb-8ec7-ea6e62e6d0b8","ios":"levelo://app?vid=bcd6fcd4-842c-43cb-8ec7-ea6e62e6d0b8"},"vehicle_type_id":"4","last_reported":1726067387,"current_range_meters":20400,"station_id":"ce4bh192rcd13ifvqdc0","pricing_plan_id":"cebpf4jnsgd1na2vs0mg"},{"bike_id":"9a018730-dfcf-47bf-b533-1b16241343b1","system_id":"levelo_inurba_marseille","lat":43.30126,"lon":5.39866,"is_reserved":false,"is_disabled":false,"rental_uris":{"android":"levelo://app?vid=9a018730-dfcf-47bf-b533-1b16241343b1","ios":"levelo://app?vid=9a018730-dfcf-47bf-b533-1b16241343b1"},"vehicle_type_id":"4","last_reported":1726067387,"current_range_meters":28400,"station_id":"ce4bh0h2rcd13ifvqd40","pricing_plan_id":"cebpf4jnsgd1na2vs0mg"},{"bike_id":"5ab00aa6-8946-4245-94c5-3f926942d20d","system_id":"levelo_inurba_marseille","lat":43.30933,"lon":5.40156,"is_reserved":false,"is_disabled":false,"rental_uris":{"android":"levelo://app?vid=5ab00aa6-8946-4245-94c5-3f926942d20d","ios":"levelo://app?vid=5ab00aa6-8946-4245-94c5-3f926942d20d"},"vehicle_type_id":"4","last_reported":1726067387,"current_range_meters":24800,"station_id":"ce4bgvp2rcd13ifvqct0","pricing_plan_id":"cebpf4jnsgd1na2vs0mg"},{"bike_id":"2a65337a-3e4f-40f8-a2fb-1eb77dc1b7bb","system_id":"levelo_inurba_marseille","lat":43.28946,"lon":5.36391,"is_reserved":false,"is_disabled":false,"rental_uris":{"android":"levelo://app?vid=2a65337a-3e4f-40f8-a2fb-1eb77dc1b7bb","ios":"levelo://app?vid=2a65337a-3e4f-40f8-a2fb-1eb77dc1b7bb"},"vehicle_type_id":"4","last_reported":1726067387,"current_range_meters":19600,"station_id":"ce4bhc92rcd13ifvqetg","pricing_plan_id":"cebpf4jnsgd1na2vs0mg"},{"bike_id":"d8ec3a5f-b158-429d-bad3-359ca034e61c","system_id":"levelo_inurba_marseille","lat":43.29557,"lon":5.42283,"is_reserved":false,"is_disabled":false,"rental_uris":{"android":"levelo://app?vid=d8ec3a5f-b158-429d-bad3-359ca034e61c","ios":"levelo://app?vid=d8ec3a5f-b158-429d-bad3-359ca034e61c"},"vehicle_type_id":"4","last_reported":1726067387,"current_range_meters":30000,"station_id":"ce4bhph2rcd13ifvqhdg","pricing_plan_id":"cebpf4jnsgd1na2vs0mg"},{"bike_id":"f8204089-eb8b-4c50-8900-19fede8da2f4","system_id":"levelo_inurba_marseille","lat":43.28613,"lon":5.35101,"is_reserved":false,"is_disabled":false,"rental_uris":{"android":"levelo://app?vid=f8204089-eb8b-4c50-8900-19fede8da2f4","ios":"levelo://app?vid=f8204089-eb8b-4c50-8900-19fede8da2f4"},"vehicle_type_id":"4","last_reported":1726067387,"current_range_meters":31200,"station_id":"ce4bhch2rcd13ifvqeug","pricing_plan_id":"cebpf4jnsgd1na2vs0mg"},{"bike_id":"f0974e9a-31a3-4c17-841c-57224836aa7a","system_id":"levelo_inurba_marseille","lat":43.24181,"lon":5.39704,"is_reserved":false,"is_disabled":false,"rental_uris":{"android":"levelo://app?vid=f0974e9a-31a3-4c17-841c-57224836aa7a","ios":"levelo://app?vid=f0974e9a-31a3-4c17-841c-57224836aa7a"},"vehicle_type_id":"4","last_reported":1726067387,"current_range_meters":22800,"station_id":"ce4bhn12rcd13ifvqgpg","pricing_plan_id":"cebpf4jnsgd1na2vs0mg"},{"bike_id":"35d6f27b-c497-4c62-a1ad-ca5a3fdaded9","system_id":"levelo_inurba_marseille","lat":43.31767,"lon":5.39006,"is_reserved":false,"is_disabled":false,"rental_uris":{"android":"levelo://app?vid=35d6f27b-c497-4c62-a1ad-ca5a3fdaded9","ios":"levelo://app?vid=35d6f27b-c497-4c62-a1ad-ca5a3fdaded9"},"vehicle_type_id":"4","last_reported":1726067387,"current_range_meters":25600,"station_id":"ce4bhqp2rcd13ifvqhng","pricing_plan_id":"cebpf4jnsgd1na2vs0mg"},{"bike_id":"8fa87e54-6918-4414-893c-61387a229692","system_id":"levelo_inurba_marseille","lat":43.23201,"lon":5.35544,"is_reserved":false,"is_disabled":false,"rental_uris":{"android":"levelo://app?vid=8fa87e54-6918-4414-893c-61387a229692","ios":"levelo://app?vid=8fa87e54-6918-4414-893c-61387a229692"},"vehicle_type_id":"4","last_reported":1726067387,"current_range_meters":8800,"station_id":"ce4bhu92rcd13ifvqi70","pricing_plan_id":"cebpf4jnsgd1na2vs0mg"},{"bike_id":"729f692d-02cf-40a7-81c2-6c7c7fd098f7","system_id":"levelo_inurba_marseille","lat":43.2792,"lon":5.39574,"is_reserved":false,"is_disabled":false,"rental_uris":{"android":"levelo://app?vid=729f692d-02cf-40a7-81c2-6c7c7fd098f7","ios":"levelo://app?vid=729f692d-02cf-40a7-81c2-6c7c7fd098f7"},"vehicle_type_id":"4","last_reported":1726067387,"current_range_meters":28800,"station_id":"ce4bhf92rcd13ifvqf40","pricing_plan_id":"cebpf4jnsgd1na2vs0mg"},{"bike_id":"e7dcac4c-dfec-4889-892a-b7a1153429ea","system_id":"levelo_inurba_marseille","lat":43.23193,"lon":5.35544,"is_reserved":false,"is_disabled":false,"rental_uris":{"android":"levelo://app?vid=e7dcac4c-dfec-4889-892a-b7a1153429ea","ios":"levelo://app?vid=e7dcac4c-dfec-4889-892a-b7a1153429ea"},"vehicle_type_id":"4","last_reported":1726067387,"current_range_meters":24400,"station_id":"ce4bhu92rcd13ifvqi70","pricing_plan_id":"cebpf4jnsgd1na2vs0mg"},{"bike_id":"02b55b8c-d3e6-49bb-af35-4573f98e4b34","system_id":"levelo_inurba_marseille","lat":43.268,"lon":5.40261,"is_reserved":false,"is_disabled":false,"rental_uris":{"android":"levelo://app?vid=02b55b8c-d3e6-49bb-af35-4573f98e4b34","ios":"levelo://app?vid=02b55b8c-d3e6-49bb-af35-4573f98e4b34"},"vehicle_type_id":"4","last_reported":1726067387,"current_range_meters":18000,"station_id":"ce501612rcd8frsf0b60","pricing_plan_id":"cebpf4jnsgd1na2vs0mg"},{"bike_id":"1162448a-dc6a-42c7-8a20-b7403f386563","system_id":"levelo_inurba_marseille","lat":43.23965,"lon":5.36631,"is_reserved":false,"is_disabled":false,"rental_uris":{"android":"levelo://app?vid=1162448a-dc6a-42c7-8a20-b7403f386563","ios":"levelo://app?vid=1162448a-dc6a-42c7-8a20-b7403f386563"},"vehicle_type_id":"4","last_reported":1726067387,"current_range_meters":17600,"station_id":"ce4bhi12rcd13ifvqfp0","pricing_plan_id":"cebpf4jnsgd1na2vs0mg"},{"bike_id":"4eb5cf07-a838-47ac-bfa9-94266ba671b6","system_id":"levelo_inurba_marseille","lat":43.25087,"lon":5.39516,"is_reserved":false,"is_disabled":false,"rental_uris":{"android":"levelo://app?vid=4eb5cf07-a838-47ac-bfa9-94266ba671b6","ios":"levelo://app?vid=4eb5cf07-a838-47ac-bfa9-94266ba671b6"},"vehicle_type_id":"4","last_reported":1726067387,"current_range_meters":18000,"station_id":"ce4bhm12rcd13ifvqgkg","pricing_plan_id":"cebpf4jnsgd1na2vs0mg"},{"bike_id":"7bf34770-9bd5-490f-b6c7-87d026cf4fc0","system_id":"levelo_inurba_marseille","lat":43.27977,"lon":5.38745,"is_reserved":false,"is_disabled":false,"rental_uris":{"android":"levelo://app?vid=7bf34770-9bd5-490f-b6c7-87d026cf4fc0","ios":"levelo://app?vid=7bf34770-9bd5-490f-b6c7-87d026cf4fc0"},"vehicle_type_id":"4","last_reported":1726067387,"current_range_meters":4400,"station_id":"ce4bhg12rcd13ifvqf80","pricing_plan_id":"cebpf4jnsgd1na2vs0mg"},{"bike_id":"20830e58-6dfa-4d74-b146-cb3e5ad772ce","system_id":"levelo_inurba_marseille","lat":43.29005,"lon":5.35609,"is_reserved":false,"is_disabled":false,"rental_uris":{"android":"levelo://app?vid=20830e58-6dfa-4d74-b146-cb3e5ad772ce","ios":"levelo://app?vid=20830e58-6dfa-4d74-b146-cb3e5ad772ce"},"vehicle_type_id":"4","last_reported":1726067387,"current_range_meters":31200,"station_id":"ce4bhb92rcd13ifvqen0","pricing_plan_id":"cebpf4jnsgd1na2vs0mg"},{"bike_id":"37d8c39f-1cdd-4f24-9274-2d093441df6e","system_id":"levelo_inurba_marseille","lat":43.31221,"lon":5.36845,"is_reserved":false,"is_disabled":false,"rental_uris":{"android":"levelo://app?vid=37d8c39f-1cdd-4f24-9274-2d093441df6e","ios":"levelo://app?vid=37d8c39f-1cdd-4f24-9274-2d093441df6e"},"vehicle_type_id":"4","last_reported":1726067387,"current_range_meters":29600,"station_id":"","pricing_plan_id":"cebpf4jnsgd1na2vs0mg"},{"bike_id":"a5a441ce-6242-469a-b330-fa1ec11ece58","system_id":"levelo_inurba_marseille","lat":43.30801,"lon":5.38165,"is_reserved":false,"is_disabled":false,"rental_uris":{"android":"levelo://app?vid=a5a441ce-6242-469a-b330-fa1ec11ece58","ios":"levelo://app?vid=a5a441ce-6242-469a-b330-fa1ec11ece58"},"vehicle_type_id":"4","last_reported":1726067387,"current_range_meters":33600,"station_id":"ce4bgt12rcd13ifvqce0","pricing_plan_id":"cebpf4jnsgd1na2vs0mg"},{"bike_id":"ea31f0b9-fc8c-420d-b410-67dcd70c48ab","system_id":"levelo_inurba_marseille","lat":43.33027,"lon":5.39036,"is_reserved":false,"is_disabled":false,"rental_uris":{"android":"levelo://app?vid=ea31f0b9-fc8c-420d-b410-67dcd70c48ab","ios":"levelo://app?vid=ea31f0b9-fc8c-420d-b410-67dcd70c48ab"},"vehicle_type_id":"4","last_reported":1726067387,"current_range_meters":38000,"station_id":"ce4bhr92rcd13ifvqhrg","pricing_plan_id":"cebpf4jnsgd1na2vs0mg"},{"bike_id":"9c517802-6877-4c13-8236-aac64e9a3ca6","system_id":"levelo_inurba_marseille","lat":43.31358,"lon":5.36712,"is_reserved":false,"is_disabled":false,"rental_uris":{"android":"levelo://app?vid=9c517802-6877-4c13-8236-aac64e9a3ca6","ios":"levelo://app?vid=9c517802-6877-4c13-8236-aac64e9a3ca6"},"vehicle_type_id":"4","last_reported":1726067387,"current_range_meters":16400,"station_id":"ce4bgr92rcd13ifvqc6g","pricing_plan_id":"cebpf4jnsgd1na2vs0mg"},{"bike_id":"b28f0063-a13c-4706-a417-82da73445ab9","system_id":"levelo_inurba_marseille","lat":43.28461,"lon":5.35889,"is_reserved":false,"is_disabled":false,"rental_uris":{"android":"levelo://app?vid=b28f0063-a13c-4706-a417-82da73445ab9","ios":"levelo://app?vid=b28f0063-a13c-4706-a417-82da73445ab9"},"vehicle_type_id":"4","last_reported":1726067387,"current_range_meters":32000,"station_id":"ce4bhah2rcd13ifvqei0","pricing_plan_id":"cebpf4jnsgd1na2vs0mg"},{"bike_id":"d36c2608-fb69-45dc-8716-3c428fce853b","system_id":"levelo_inurba_marseille","lat":43.24653,"lon":5.38898,"is_reserved":false,"is_disabled":false,"rental_uris":{"android":"levelo://app?vid=d36c2608-fb69-45dc-8716-3c428fce853b","ios":"levelo://app?vid=d36c2608-fb69-45dc-8716-3c428fce853b"},"vehicle_type_id":"4","last_reported":1726067387,"current_range_meters":9200,"station_id":"ce4bhg12rcd13ifvqf60","pricing_plan_id":"cebpf4jnsgd1na2vs0mg"},{"bike_id":"dd2d66a6-976d-43e6-83be-d6211ff78acc","system_id":"levelo_inurba_marseille","lat":43.33723,"lon":5.39175,"is_reserved":false,"is_disabled":false,"rental_uris":{"android":"levelo://app?vid=dd2d66a6-976d-43e6-83be-d6211ff78acc","ios":"levelo://app?vid=dd2d66a6-976d-43e6-83be-d6211ff78acc"},"vehicle_type_id":"4","last_reported":1726067387,"current_range_meters":16400,"station_id":"ce4bhr92rcd13ifvqhsg","pricing_plan_id":"cebpf4jnsgd1na2vs0mg"},{"bike_id":"147fd519-3dbd-4035-b109-f95f11693e32","system_id":"levelo_inurba_marseille","lat":43.23193,"lon":5.3555,"is_reserved":false,"is_disabled":false,"rental_uris":{"android":"levelo://app?vid=147fd519-3dbd-4035-b109-f95f11693e32","ios":"levelo://app?vid=147fd519-3dbd-4035-b109-f95f11693e32"},"vehicle_type_id":"4","last_reported":1726067387,"current_range_meters":32800,"station_id":"ce4bhu92rcd13ifvqi70","pricing_plan_id":"cebpf4jnsgd1na2vs0mg"},{"bike_id":"d0970d72-9c6c-4eb1-93ec-e650e65b55fc","system_id":"levelo_inurba_marseille","lat":43.25729,"lon":5.41104,"is_reserved":false,"is_disabled":false,"rental_uris":{"android":"levelo://app?vid=d0970d72-9c6c-4eb1-93ec-e650e65b55fc","ios":"levelo://app?vid=d0970d72-9c6c-4eb1-93ec-e650e65b55fc"},"vehicle_type_id":"4","last_reported":1726067387,"current_range_meters":15200,"station_id":"ce4bhkp2rcd13ifvqgd0","pricing_plan_id":"cebpf4jnsgd1na2vs0mg"},{"bike_id":"5b6b7c0b-e651-43e4-99d9-c196896f952b","system_id":"levelo_inurba_marseille","lat":43.28938,"lon":5.36638,"is_reserved":false,"is_disabled":false,"rental_uris":{"android":"levelo://app?vid=5b6b7c0b-e651-43e4-99d9-c196896f952b","ios":"levelo://app?vid=5b6b7c0b-e651-43e4-99d9-c196896f952b"},"vehicle_type_id":"4","last_reported":1726067387,"current_range_meters":4400,"station_id":"ce4bhap2rcd13ifvqek0","pricing_plan_id":"cebpf4jnsgd1na2vs0mg"},{"bike_id":"c49d6ebc-2616-4703-8f14-30a51b54111c","system_id":"levelo_inurba_marseille","lat":43.3266,"lon":5.4099,"is_reserved":false,"is_disabled":false,"rental_uris":{"android":"levelo://app?vid=c49d6ebc-2616-4703-8f14-30a51b54111c","ios":"levelo://app?vid=c49d6ebc-2616-4703-8f14-30a51b54111c"},"vehicle_type_id":"4","last_reported":1726067387,"current_range_meters":20400,"station_id":"ce4bhpp2rcd13ifvqhgg","pricing_plan_id":"cebpf4jnsgd1na2vs0mg"},{"bike_id":"7136b719-b11e-40b9-bd7b-53e554241ca1","system_id":"levelo_inurba_marseille","lat":43.34142,"lon":5.40904,"is_reserved":false,"is_disabled":false,"rental_uris":{"android":"levelo://app?vid=7136b719-b11e-40b9-bd7b-53e554241ca1","ios":"levelo://app?vid=7136b719-b11e-40b9-bd7b-53e554241ca1"},"vehicle_type_id":"4","last_reported":1726067387,"current_range_meters":19600,"station_id":"ce4bhqh2rcd13ifvqhlg","pricing_plan_id":"cebpf4jnsgd1na2vs0mg"},{"bike_id":"5876c5ef-9fac-478d-bd3c-ea1780c21005","system_id":"levelo_inurba_marseille","lat":43.33755,"lon":5.37446,"is_reserved":false,"is_disabled":false,"rental_uris":{"android":"levelo://app?vid=5876c5ef-9fac-478d-bd3c-ea1780c21005","ios":"levelo://app?vid=5876c5ef-9fac-478d-bd3c-ea1780c21005"},"vehicle_type_id":"4","last_reported":1726067387,"current_range_meters":38800,"station_id":"","pricing_plan_id":"cebpf4jnsgd1na2vs0mg"},{"bike_id":"3ef293cb-6b10-47c2-a61b-1c747b67c2aa","system_id":"levelo_inurba_marseille","lat":43.22929,"lon":5.35378,"is_reserved":false,"is_disabled":false,"rental_uris":{"android":"levelo://app?vid=3ef293cb-6b10-47c2-a61b-1c747b67c2aa","ios":"levelo://app?vid=3ef293cb-6b10-47c2-a61b-1c747b67c2aa"},"vehicle_type_id":"4","last_reported":1726067387,"current_range_meters":35200,"station_id":"cpo3532slgdg3j2ikp40","pricing_plan_id":"cebpf4jnsgd1na2vs0mg"},{"bike_id":"a6eae732-7bf8-44dd-a815-5bd1cd3e2220","system_id":"levelo_inurba_marseille","lat":43.29016,"lon":5.38123,"is_reserved":false,"is_disabled":false,"rental_uris":{"android":"levelo://app?vid=a6eae732-7bf8-44dd-a815-5bd1cd3e2220","ios":"levelo://app?vid=a6eae732-7bf8-44dd-a815-5bd1cd3e2220"},"vehicle_type_id":"4","last_reported":1726067387,"current_range_meters":39200,"station_id":"ce4bh4p2rcd13ifvqe1g","pricing_plan_id":"cebpf4jnsgd1na2vs0mg"},{"bike_id":"dc9b07db-1460-4695-8cb5-f8898fe0649e","system_id":"levelo_inurba_marseille","lat":43.29852,"lon":5.36275,"is_reserved":false,"is_disabled":false,"rental_uris":{"android":"levelo://app?vid=dc9b07db-1460-4695-8cb5-f8898fe0649e","ios":"levelo://app?vid=dc9b07db-1460-4695-8cb5-f8898fe0649e"},"vehicle_type_id":"4","last_reported":1726067387,"current_range_meters":38400,"station_id":"ce4bgpp2rcd13ifvqc3g","pricing_plan_id":"cebpf4jnsgd1na2vs0mg"},{"bike_id":"f0b47156-8698-4486-a45d-169702b5f5e2","system_id":"levelo_inurba_marseille","lat":43.29776,"lon":5.37109,"is_reserved":false,"is_disabled":false,"rental_uris":{"android":"levelo://app?vid=f0b47156-8698-4486-a45d-169702b5f5e2","ios":"levelo://app?vid=f0b47156-8698-4486-a45d-169702b5f5e2"},"vehicle_type_id":"4","last_reported":1726067387,"current_range_meters":33200,"station_id":"ce4bgop2rcd13ifvqc1g","pricing_plan_id":"cebpf4jnsgd1na2vs0mg"},{"bike_id":"b8238a33-c501-47ba-bfa8-e7dc4d31d9c3","system_id":"levelo_inurba_marseille","lat":43.33026,"lon":5.39031,"is_reserved":false,"is_disabled":false,"rental_uris":{"android":"levelo://app?vid=b8238a33-c501-47ba-bfa8-e7dc4d31d9c3","ios":"levelo://app?vid=b8238a33-c501-47ba-bfa8-e7dc4d31d9c3"},"vehicle_type_id":"4","last_reported":1726067387,"current_range_meters":27200,"station_id":"ce4bhr92rcd13ifvqhrg","pricing_plan_id":"cebpf4jnsgd1na2vs0mg"},{"bike_id":"b827dd16-dadf-4ad8-b48a-eb74b207593e","system_id":"levelo_inurba_marseille","lat":43.24803,"lon":5.37454,"is_reserved":false,"is_disabled":false,"rental_uris":{"android":"levelo://app?vid=b827dd16-dadf-4ad8-b48a-eb74b207593e","ios":"levelo://app?vid=b827dd16-dadf-4ad8-b48a-eb74b207593e"},"vehicle_type_id":"4","last_reported":1726067387,"current_range_meters":22400,"station_id":"ce4bhgh2rcd13ifvqfb0","pricing_plan_id":"cebpf4jnsgd1na2vs0mg"},{"bike_id":"023a6e80-ecf0-4a33-bda3-761f6899c7c1","system_id":"levelo_inurba_marseille","lat":43.27945,"lon":5.41041,"is_reserved":false,"is_disabled":false,"rental_uris":{"android":"levelo://app?vid=023a6e80-ecf0-4a33-bda3-761f6899c7c1","ios":"levelo://app?vid=023a6e80-ecf0-4a33-bda3-761f6899c7c1"},"vehicle_type_id":"4","last_reported":1726067387,"current_range_meters":17200,"station_id":"ce4bhnp2rcd13ifvqh0g","pricing_plan_id":"cebpf4jnsgd1na2vs0mg"},{"bike_id":"51c6c6f4-21fd-484e-a8ba-06ab90ab58e6","system_id":"levelo_inurba_marseille","lat":43.22935,"lon":5.35374,"is_reserved":false,"is_disabled":false,"rental_uris":{"android":"levelo://app?vid=51c6c6f4-21fd-484e-a8ba-06ab90ab58e6","ios":"levelo://app?vid=51c6c6f4-21fd-484e-a8ba-06ab90ab58e6"},"vehicle_type_id":"4","last_reported":1726067387,"current_range_meters":22800,"station_id":"cpo3532slgdg3j2ikp40","pricing_plan_id":"cebpf4jnsgd1na2vs0mg"},{"bike_id":"a764adc3-7393-412e-aaf1-9567a418c923","system_id":"levelo_inurba_marseille","lat":43.297408,"lon":5.38008,"is_reserved":false,"is_disabled":false,"rental_uris":{"android":"levelo://app?vid=a764adc3-7393-412e-aaf1-9567a418c923","ios":"levelo://app?vid=a764adc3-7393-412e-aaf1-9567a418c923"},"vehicle_type_id":"4","last_reported":1726067387,"current_range_meters":34000,"station_id":"ce4bgip2rcd13ifvqbb0","pricing_plan_id":"cebpf4jnsgd1na2vs0mg"},{"bike_id":"ba698d04-e6bd-4773-8331-513f4ee79672","system_id":"levelo_inurba_marseille","lat":43.29201,"lon":5.35799,"is_reserved":false,"is_disabled":false,"rental_uris":{"android":"levelo://app?vid=ba698d04-e6bd-4773-8331-513f4ee79672","ios":"levelo://app?vid=ba698d04-e6bd-4773-8331-513f4ee79672"},"vehicle_type_id":"4","last_reported":1726067387,"current_range_meters":32800,"station_id":"ce4bhb12rcd13ifvqel0","pricing_plan_id":"cebpf4jnsgd1na2vs0mg"},{"bike_id":"a343a461-6410-47fa-bb5a-76281a897de9","system_id":"levelo_inurba_marseille","lat":43.27908,"lon":5.3801,"is_reserved":false,"is_disabled":false,"rental_uris":{"android":"levelo://app?vid=a343a461-6410-47fa-bb5a-76281a897de9","ios":"levelo://app?vid=a343a461-6410-47fa-bb5a-76281a897de9"},"vehicle_type_id":"4","last_reported":1726067387,"current_range_meters":22800,"station_id":"ce4bhf92rcd13ifvqf50","pricing_plan_id":"cebpf4jnsgd1na2vs0mg"},{"bike_id":"d5d3fa40-43e9-4fe1-89b2-86858686e86a","system_id":"levelo_inurba_marseille","lat":43.27327,"lon":5.39083,"is_reserved":false,"is_disabled":false,"rental_uris":{"android":"levelo://app?vid=d5d3fa40-43e9-4fe1-89b2-86858686e86a","ios":"levelo://app?vid=d5d3fa40-43e9-4fe1-89b2-86858686e86a"},"vehicle_type_id":"4","last_reported":1726067387,"current_range_meters":4800,"station_id":"ce4bhgp2rcd13ifvqfe0","pricing_plan_id":"cebpf4jnsgd1na2vs0mg"},{"bike_id":"4fe85f92-0bff-432d-83e9-5d07a4800861","system_id":"levelo_inurba_marseille","lat":43.248,"lon":5.37447,"is_reserved":false,"is_disabled":false,"rental_uris":{"android":"levelo://app?vid=4fe85f92-0bff-432d-83e9-5d07a4800861","ios":"levelo://app?vid=4fe85f92-0bff-432d-83e9-5d07a4800861"},"vehicle_type_id":"4","last_reported":1726067387,"current_range_meters":6400,"station_id":"ce4bhgh2rcd13ifvqfb0","pricing_plan_id":"cebpf4jnsgd1na2vs0mg"},{"bike_id":"ea0fe2f1-6523-4b21-8148-2cb54e4a891a","system_id":"levelo_inurba_marseille","lat":43.27318,"lon":5.39082,"is_reserved":false,"is_disabled":false,"rental_uris":{"android":"levelo://app?vid=ea0fe2f1-6523-4b21-8148-2cb54e4a891a","ios":"levelo://app?vid=ea0fe2f1-6523-4b21-8148-2cb54e4a891a"},"vehicle_type_id":"4","last_reported":1726067387,"current_range_meters":37600,"station_id":"ce4bhgp2rcd13ifvqfe0","pricing_plan_id":"cebpf4jnsgd1na2vs0mg"},{"bike_id":"321dc09b-9853-4170-af08-25a0d828d560","system_id":"levelo_inurba_marseille","lat":43.23184,"lon":5.3998,"is_reserved":false,"is_disabled":false,"rental_uris":{"android":"levelo://app?vid=321dc09b-9853-4170-af08-25a0d828d560","ios":"levelo://app?vid=321dc09b-9853-4170-af08-25a0d828d560"},"vehicle_type_id":"4","last_reported":1726067387,"current_range_meters":39200,"station_id":"ce4bhn12rcd13ifvqgqg","pricing_plan_id":"cebpf4jnsgd1na2vs0mg"},{"bike_id":"1e85ef7c-0efa-43fb-a82b-295974d3baa7","system_id":"levelo_inurba_marseille","lat":43.24806,"lon":5.37454,"is_reserved":false,"is_disabled":false,"rental_uris":{"android":"levelo://app?vid=1e85ef7c-0efa-43fb-a82b-295974d3baa7","ios":"levelo://app?vid=1e85ef7c-0efa-43fb-a82b-295974d3baa7"},"vehicle_type_id":"4","last_reported":1726067387,"current_range_meters":4000,"station_id":"ce4bhgh2rcd13ifvqfb0","pricing_plan_id":"cebpf4jnsgd1na2vs0mg"},{"bike_id":"970b494d-9409-4b08-a88c-7a920d33be00","system_id":"levelo_inurba_marseille","lat":43.28275,"lon":5.3506,"is_reserved":false,"is_disabled":false,"rental_uris":{"android":"levelo://app?vid=970b494d-9409-4b08-a88c-7a920d33be00","ios":"levelo://app?vid=970b494d-9409-4b08-a88c-7a920d33be00"},"vehicle_type_id":"4","last_reported":1726067387,"current_range_meters":9200,"station_id":"ce4bhbp2rcd13ifvqerg","pricing_plan_id":"cebpf4jnsgd1na2vs0mg"},{"bike_id":"9b0270c9-7913-451a-894d-8d5e4360f82b","system_id":"levelo_inurba_marseille","lat":43.25116,"lon":5.40323,"is_reserved":false,"is_disabled":false,"rental_uris":{"android":"levelo://app?vid=9b0270c9-7913-451a-894d-8d5e4360f82b","ios":"levelo://app?vid=9b0270c9-7913-451a-894d-8d5e4360f82b"},"vehicle_type_id":"4","last_reported":1726067387,"current_range_meters":8400,"station_id":"ce4bhlh2rcd13ifvqgig","pricing_plan_id":"cebpf4jnsgd1na2vs0mg"},{"bike_id":"c8e0fcb6-1d3f-4d83-b861-1f56e6b3ab2c","system_id":"levelo_inurba_marseille","lat":43.3229,"lon":5.38266,"is_reserved":false,"is_disabled":false,"rental_uris":{"android":"levelo://app?vid=c8e0fcb6-1d3f-4d83-b861-1f56e6b3ab2c","ios":"levelo://app?vid=c8e0fcb6-1d3f-4d83-b861-1f56e6b3ab2c"},"vehicle_type_id":"4","last_reported":1726067387,"current_range_meters":30800,"station_id":"ce4bhr12rcd13ifvqhqg","pricing_plan_id":"cebpf4jnsgd1na2vs0mg"},{"bike_id":"60636253-0a37-45e9-84b9-b01d883d166f","system_id":"levelo_inurba_marseille","lat":43.29257,"lon":5.38437,"is_reserved":false,"is_disabled":false,"rental_uris":{"android":"levelo://app?vid=60636253-0a37-45e9-84b9-b01d883d166f","ios":"levelo://app?vid=60636253-0a37-45e9-84b9-b01d883d166f"},"vehicle_type_id":"4","last_reported":1726067387,"current_range_meters":12400,"station_id":"ce4bh692rcd13ifvqea0","pricing_plan_id":"cebpf4jnsgd1na2vs0mg"},{"bike_id":"394ba6fe-4a64-44af-8ad8-9ff0cdf59d14","system_id":"levelo_inurba_marseille","lat":43.30544,"lon":5.36532,"is_reserved":false,"is_disabled":false,"rental_uris":{"android":"levelo://app?vid=394ba6fe-4a64-44af-8ad8-9ff0cdf59d14","ios":"levelo://app?vid=394ba6fe-4a64-44af-8ad8-9ff0cdf59d14"},"vehicle_type_id":"4","last_reported":1726067387,"current_range_meters":17200,"station_id":"ce4bgs12rcd13ifvqcag","pricing_plan_id":"cebpf4jnsgd1na2vs0mg"},{"bike_id":"206eb04c-b603-40cb-b369-a8090514b8b3","system_id":"levelo_inurba_marseille","lat":43.2842,"lon":5.34987,"is_reserved":false,"is_disabled":false,"rental_uris":{"android":"levelo://app?vid=206eb04c-b603-40cb-b369-a8090514b8b3","ios":"levelo://app?vid=206eb04c-b603-40cb-b369-a8090514b8b3"},"vehicle_type_id":"4","last_reported":1726067387,"current_range_meters":38800,"station_id":"ce4bhbh2rcd13ifvqepg","pricing_plan_id":"cebpf4jnsgd1na2vs0mg"},{"bike_id":"a283cad7-ff3e-412b-8556-cacb3424818a","system_id":"levelo_inurba_marseille","lat":43.27421,"lon":5.39406,"is_reserved":false,"is_disabled":false,"rental_uris":{"android":"levelo://app?vid=a283cad7-ff3e-412b-8556-cacb3424818a","ios":"levelo://app?vid=a283cad7-ff3e-412b-8556-cacb3424818a"},"vehicle_type_id":"4","last_reported":1726067387,"current_range_meters":16400,"station_id":"ce4bhdp2rcd13ifvqf20","pricing_plan_id":"cebpf4jnsgd1na2vs0mg"},{"bike_id":"e934963e-5ae3-4b94-b954-49ab350306ba","system_id":"levelo_inurba_marseille","lat":43.33027,"lon":5.39036,"is_reserved":false,"is_disabled":false,"rental_uris":{"android":"levelo://app?vid=e934963e-5ae3-4b94-b954-49ab350306ba","ios":"levelo://app?vid=e934963e-5ae3-4b94-b954-49ab350306ba"},"vehicle_type_id":"4","last_reported":1726067387,"current_range_meters":35600,"station_id":"ce4bhr92rcd13ifvqhrg","pricing_plan_id":"cebpf4jnsgd1na2vs0mg"},{"bike_id":"9610f388-60c6-49bb-84bb-4ea91a1f925b","system_id":"levelo_inurba_marseille","lat":43.29551,"lon":5.42278,"is_reserved":false,"is_disabled":false,"rental_uris":{"android":"levelo://app?vid=9610f388-60c6-49bb-84bb-4ea91a1f925b","ios":"levelo://app?vid=9610f388-60c6-49bb-84bb-4ea91a1f925b"},"vehicle_type_id":"4","last_reported":1726067387,"current_range_meters":4400,"station_id":"ce4bhph2rcd13ifvqhdg","pricing_plan_id":"cebpf4jnsgd1na2vs0mg"},{"bike_id":"92dbe112-801a-4df9-a063-d011debc88d9","system_id":"levelo_inurba_marseille","lat":43.29294,"lon":5.37457,"is_reserved":false,"is_disabled":false,"rental_uris":{"android":"levelo://app?vid=92dbe112-801a-4df9-a063-d011debc88d9","ios":"levelo://app?vid=92dbe112-801a-4df9-a063-d011debc88d9"},"vehicle_type_id":"4","last_reported":1726067387,"current_range_meters":10800,"station_id":"ce4bgi12rcd13ifvqb70","pricing_plan_id":"cebpf4jnsgd1na2vs0mg"},{"bike_id":"cee6c413-edbf-40be-a501-584c4256effd","system_id":"levelo_inurba_marseille","lat":43.32288,"lon":5.38267,"is_reserved":false,"is_disabled":false,"rental_uris":{"android":"levelo://app?vid=cee6c413-edbf-40be-a501-584c4256effd","ios":"levelo://app?vid=cee6c413-edbf-40be-a501-584c4256effd"},"vehicle_type_id":"4","last_reported":1726067387,"current_range_meters":11200,"station_id":"ce4bhr12rcd13ifvqhqg","pricing_plan_id":"cebpf4jnsgd1na2vs0mg"},{"bike_id":"b29bc0fa-48b3-4d55-ba1e-f13def3fc004","system_id":"levelo_inurba_marseille","lat":43.26933,"lon":5.38913,"is_reserved":false,"is_disabled":false,"rental_uris":{"android":"levelo://app?vid=b29bc0fa-48b3-4d55-ba1e-f13def3fc004","ios":"levelo://app?vid=b29bc0fa-48b3-4d55-ba1e-f13def3fc004"},"vehicle_type_id":"4","last_reported":1726067387,"current_range_meters":23200,"station_id":"ce4bhhh2rcd13ifvqfl0","pricing_plan_id":"cebpf4jnsgd1na2vs0mg"},{"bike_id":"5f8714c2-4691-49c6-af6f-ae88c4dd369a","system_id":"levelo_inurba_marseille","lat":43.28012,"lon":5.39996,"is_reserved":false,"is_disabled":false,"rental_uris":{"android":"levelo://app?vid=5f8714c2-4691-49c6-af6f-ae88c4dd369a","ios":"levelo://app?vid=5f8714c2-4691-49c6-af6f-ae88c4dd369a"},"vehicle_type_id":"4","last_reported":1726067387,"current_range_meters":6000,"station_id":"ce4bho92rcd13ifvqh4g","pricing_plan_id":"cebpf4jnsgd1na2vs0mg"},{"bike_id":"7ea8139e-6dba-478b-be2e-eab026036a1e","system_id":"levelo_inurba_marseille","lat":43.27424,"lon":5.3941,"is_reserved":false,"is_disabled":false,"rental_uris":{"android":"levelo://app?vid=7ea8139e-6dba-478b-be2e-eab026036a1e","ios":"levelo://app?vid=7ea8139e-6dba-478b-be2e-eab026036a1e"},"vehicle_type_id":"4","last_reported":1726067387,"current_range_meters":29600,"station_id":"ce4bhdp2rcd13ifvqf20","pricing_plan_id":"cebpf4jnsgd1na2vs0mg"},{"bike_id":"59c69735-67c5-4616-a4e3-4d11b991683d","system_id":"levelo_inurba_marseille","lat":43.26059,"lon":5.39398,"is_reserved":false,"is_disabled":false,"rental_uris":{"android":"levelo://app?vid=59c69735-67c5-4616-a4e3-4d11b991683d","ios":"levelo://app?vid=59c69735-67c5-4616-a4e3-4d11b991683d"},"vehicle_type_id":"4","last_reported":1726067387,"current_range_meters":34800,"station_id":"ce4bhh92rcd13ifvqfj0","pricing_plan_id":"cebpf4jnsgd1na2vs0mg"},{"bike_id":"44eae123-db97-403a-aa5a-a0af2e10dfcf","system_id":"levelo_inurba_marseille","lat":43.29271,"lon":5.36838,"is_reserved":false,"is_disabled":false,"rental_uris":{"android":"levelo://app?vid=44eae123-db97-403a-aa5a-a0af2e10dfcf","ios":"levelo://app?vid=44eae123-db97-403a-aa5a-a0af2e10dfcf"},"vehicle_type_id":"4","last_reported":1726067387,"current_range_meters":24400,"station_id":"ce4bhbp2rcd13ifvqesg","pricing_plan_id":"cebpf4jnsgd1na2vs0mg"},{"bike_id":"e19c1a4e-47bf-437a-bf52-ddcc46bc61e3","system_id":"levelo_inurba_marseille","lat":43.254791,"lon":5.376327,"is_reserved":false,"is_disabled":false,"rental_uris":{"android":"levelo://app?vid=e19c1a4e-47bf-437a-bf52-ddcc46bc61e3","ios":"levelo://app?vid=e19c1a4e-47bf-437a-bf52-ddcc46bc61e3"},"vehicle_type_id":"4","last_reported":1726067387,"current_range_meters":16800,"station_id":"ce4bhh12rcd13ifvqff0","pricing_plan_id":"cebpf4jnsgd1na2vs0mg"},{"bike_id":"a74dd8d8-2157-4fc5-ba81-01d993052f7e","system_id":"levelo_inurba_marseille","lat":43.25584,"lon":5.38226,"is_reserved":false,"is_disabled":false,"rental_uris":{"android":"levelo://app?vid=a74dd8d8-2157-4fc5-ba81-01d993052f7e","ios":"levelo://app?vid=a74dd8d8-2157-4fc5-ba81-01d993052f7e"},"vehicle_type_id":"4","last_reported":1726067387,"current_range_meters":14400,"station_id":"ce4bhih2rcd13ifvqfs0","pricing_plan_id":"cebpf4jnsgd1na2vs0mg"},{"bike_id":"077d5053-7181-42e1-a069-238a2e52d080","system_id":"levelo_inurba_marseille","lat":43.31761,"lon":5.39011,"is_reserved":false,"is_disabled":false,"rental_uris":{"android":"levelo://app?vid=077d5053-7181-42e1-a069-238a2e52d080","ios":"levelo://app?vid=077d5053-7181-42e1-a069-238a2e52d080"},"vehicle_type_id":"4","last_reported":1726067387,"current_range_meters":22800,"station_id":"ce4bhqp2rcd13ifvqhng","pricing_plan_id":"cebpf4jnsgd1na2vs0mg"},{"bike_id":"1734e22c-9e87-4b9a-b709-907559e027c7","system_id":"levelo_inurba_marseille","lat":43.28157,"lon":5.42649,"is_reserved":false,"is_disabled":false,"rental_uris":{"android":"levelo://app?vid=1734e22c-9e87-4b9a-b709-907559e027c7","ios":"levelo://app?vid=1734e22c-9e87-4b9a-b709-907559e027c7"},"vehicle_type_id":"4","last_reported":1726067387,"current_range_meters":14400,"station_id":"ce4bhnh2rcd13ifvqgug","pricing_plan_id":"cebpf4jnsgd1na2vs0mg"},{"bike_id":"f400d370-a20e-4ced-86f0-64f62510749c","system_id":"levelo_inurba_marseille","lat":43.3237,"lon":5.38926,"is_reserved":false,"is_disabled":false,"rental_uris":{"android":"levelo://app?vid=f400d370-a20e-4ced-86f0-64f62510749c","ios":"levelo://app?vid=f400d370-a20e-4ced-86f0-64f62510749c"},"vehicle_type_id":"4","last_reported":1726067387,"current_range_meters":13600,"station_id":"","pricing_plan_id":"cebpf4jnsgd1na2vs0mg"},{"bike_id":"ede0aed3-c023-4853-89b7-450f0ea2a60b","system_id":"levelo_inurba_marseille","lat":43.30425,"lon":5.41272,"is_reserved":false,"is_disabled":false,"rental_uris":{"android":"levelo://app?vid=ede0aed3-c023-4853-89b7-450f0ea2a60b","ios":"levelo://app?vid=ede0aed3-c023-4853-89b7-450f0ea2a60b"},"vehicle_type_id":"4","last_reported":1726067387,"current_range_meters":25600,"station_id":"ce4bhop2rcd13ifvqh8g","pricing_plan_id":"cebpf4jnsgd1na2vs0mg"},{"bike_id":"143049cf-4830-4219-a121-2a60df83aa5d","system_id":"levelo_inurba_marseille","lat":43.337444,"lon":5.374475,"is_reserved":false,"is_disabled":false,"rental_uris":{"android":"levelo://app?vid=143049cf-4830-4219-a121-2a60df83aa5d","ios":"levelo://app?vid=143049cf-4830-4219-a121-2a60df83aa5d"},"vehicle_type_id":"4","last_reported":1726067387,"current_range_meters":32000,"station_id":"","pricing_plan_id":"cebpf4jnsgd1na2vs0mg"},{"bike_id":"59c3b078-1e38-4dc4-9e15-c1dcf455a44e","system_id":"levelo_inurba_marseille","lat":43.22935,"lon":5.35374,"is_reserved":false,"is_disabled":false,"rental_uris":{"android":"levelo://app?vid=59c3b078-1e38-4dc4-9e15-c1dcf455a44e","ios":"levelo://app?vid=59c3b078-1e38-4dc4-9e15-c1dcf455a44e"},"vehicle_type_id":"4","last_reported":1726067387,"current_range_meters":24400,"station_id":"cpo3532slgdg3j2ikp40","pricing_plan_id":"cebpf4jnsgd1na2vs0mg"},{"bike_id":"39e95502-6a51-4f99-82d4-bad15add4618","system_id":"levelo_inurba_marseille","lat":43.22935,"lon":5.35375,"is_reserved":false,"is_disabled":false,"rental_uris":{"android":"levelo://app?vid=39e95502-6a51-4f99-82d4-bad15add4618","ios":"levelo://app?vid=39e95502-6a51-4f99-82d4-bad15add4618"},"vehicle_type_id":"4","last_reported":1726067387,"current_range_meters":20400,"station_id":"cpo3532slgdg3j2ikp40","pricing_plan_id":"cebpf4jnsgd1na2vs0mg"},{"bike_id":"227e4936-b489-451c-836f-20de4c6d0d06","system_id":"levelo_inurba_marseille","lat":43.29417,"lon":5.38626,"is_reserved":false,"is_disabled":false,"rental_uris":{"android":"levelo://app?vid=227e4936-b489-451c-836f-20de4c6d0d06","ios":"levelo://app?vid=227e4936-b489-451c-836f-20de4c6d0d06"},"vehicle_type_id":"4","last_reported":1726067387,"current_range_meters":32800,"station_id":"ce4bh2h2rcd13ifvqdh0","pricing_plan_id":"cebpf4jnsgd1na2vs0mg"},{"bike_id":"cec131b6-6c84-4899-9723-159f4b060af5","system_id":"levelo_inurba_marseille","lat":43.31702,"lon":5.37654,"is_reserved":false,"is_disabled":false,"rental_uris":{"android":"levelo://app?vid=cec131b6-6c84-4899-9723-159f4b060af5","ios":"levelo://app?vid=cec131b6-6c84-4899-9723-159f4b060af5"},"vehicle_type_id":"4","last_reported":1726067387,"current_range_meters":7200,"station_id":"","pricing_plan_id":"cebpf4jnsgd1na2vs0mg"},{"bike_id":"f2b3b549-7f8a-4eae-b464-4b6623533f44","system_id":"levelo_inurba_marseille","lat":43.33749,"lon":5.37451,"is_reserved":false,"is_disabled":false,"rental_uris":{"android":"levelo://app?vid=f2b3b549-7f8a-4eae-b464-4b6623533f44","ios":"levelo://app?vid=f2b3b549-7f8a-4eae-b464-4b6623533f44"},"vehicle_type_id":"4","last_reported":1726067387,"current_range_meters":32400,"station_id":"","pricing_plan_id":"cebpf4jnsgd1na2vs0mg"},{"bike_id":"47a7e317-802f-48fb-b80f-677c4e85d62b","system_id":"levelo_inurba_marseille","lat":43.26962,"lon":5.3862,"is_reserved":false,"is_disabled":false,"rental_uris":{"android":"levelo://app?vid=47a7e317-802f-48fb-b80f-677c4e85d62b","ios":"levelo://app?vid=47a7e317-802f-48fb-b80f-677c4e85d62b"},"vehicle_type_id":"4","last_reported":1726067387,"current_range_meters":11200,"station_id":"ce4bhh92rcd13ifvqfh0","pricing_plan_id":"cebpf4jnsgd1na2vs0mg"},{"bike_id":"0f2ed8ff-6e5a-423b-bd7e-f16768ff28ba","system_id":"levelo_inurba_marseille","lat":43.29906,"lon":5.38137,"is_reserved":false,"is_disabled":false,"rental_uris":{"android":"levelo://app?vid=0f2ed8ff-6e5a-423b-bd7e-f16768ff28ba","ios":"levelo://app?vid=0f2ed8ff-6e5a-423b-bd7e-f16768ff28ba"},"vehicle_type_id":"4","last_reported":1726067387,"current_range_meters":1600,"station_id":"ce4bgj12rcd13ifvqbc0","pricing_plan_id":"cebpf4jnsgd1na2vs0mg"},{"bike_id":"5600056e-8ccf-44c5-8ab3-e8d6b7f728e9","system_id":"levelo_inurba_marseille","lat":43.24168,"lon":5.36392,"is_reserved":false,"is_disabled":false,"rental_uris":{"android":"levelo://app?vid=5600056e-8ccf-44c5-8ab3-e8d6b7f728e9","ios":"levelo://app?vid=5600056e-8ccf-44c5-8ab3-e8d6b7f728e9"},"vehicle_type_id":"4","last_reported":1726067387,"current_range_meters":27600,"station_id":"cpo36qri1sfpv3e86is0","pricing_plan_id":"cebpf4jnsgd1na2vs0mg"},{"bike_id":"38a69614-fc80-4fe6-9020-2aa2f561d214","system_id":"levelo_inurba_marseille","lat":43.2668,"lon":5.38264,"is_reserved":false,"is_disabled":false,"rental_uris":{"android":"levelo://app?vid=38a69614-fc80-4fe6-9020-2aa2f561d214","ios":"levelo://app?vid=38a69614-fc80-4fe6-9020-2aa2f561d214"},"vehicle_type_id":"4","last_reported":1726067387,"current_range_meters":38800,"station_id":"ce4bhg92rcd13ifvqf90","pricing_plan_id":"cebpf4jnsgd1na2vs0mg"},{"bike_id":"73d7f658-47a2-40c6-b0bd-1fe41dceeaae","system_id":"levelo_inurba_marseille","lat":43.27175,"lon":5.40995,"is_reserved":false,"is_disabled":false,"rental_uris":{"android":"levelo://app?vid=73d7f658-47a2-40c6-b0bd-1fe41dceeaae","ios":"levelo://app?vid=73d7f658-47a2-40c6-b0bd-1fe41dceeaae"},"vehicle_type_id":"4","last_reported":1726067387,"current_range_meters":18800,"station_id":"ce4bhl12rcd13ifvqgf0","pricing_plan_id":"cebpf4jnsgd1na2vs0mg"},{"bike_id":"21a93f7a-d61f-40fd-ab85-5eb2fd8eb0a1","system_id":"levelo_inurba_marseille","lat":43.25085,"lon":5.39517,"is_reserved":false,"is_disabled":false,"rental_uris":{"android":"levelo://app?vid=21a93f7a-d61f-40fd-ab85-5eb2fd8eb0a1","ios":"levelo://app?vid=21a93f7a-d61f-40fd-ab85-5eb2fd8eb0a1"},"vehicle_type_id":"4","last_reported":1726067387,"current_range_meters":18800,"station_id":"ce4bhm12rcd13ifvqgkg","pricing_plan_id":"cebpf4jnsgd1na2vs0mg"},{"bike_id":"0a7d9b5d-f48f-4696-8b02-1ec155524527","system_id":"levelo_inurba_marseille","lat":43.30888,"lon":5.39653,"is_reserved":false,"is_disabled":false,"rental_uris":{"android":"levelo://app?vid=0a7d9b5d-f48f-4696-8b02-1ec155524527","ios":"levelo://app?vid=0a7d9b5d-f48f-4696-8b02-1ec155524527"},"vehicle_type_id":"4","last_reported":1726067387,"current_range_meters":30400,"station_id":"ce4bh012rcd13ifvqcv0","pricing_plan_id":"cebpf4jnsgd1na2vs0mg"},{"bike_id":"8371cf27-c593-4d1d-8017-a9645ecf4746","system_id":"levelo_inurba_marseille","lat":43.27205,"lon":5.3919,"is_reserved":false,"is_disabled":false,"rental_uris":{"android":"levelo://app?vid=8371cf27-c593-4d1d-8017-a9645ecf4746","ios":"levelo://app?vid=8371cf27-c593-4d1d-8017-a9645ecf4746"},"vehicle_type_id":"4","last_reported":1726067387,"current_range_meters":27600,"station_id":"ce4bhhp2rcd13ifvqfm0","pricing_plan_id":"cebpf4jnsgd1na2vs0mg"},{"bike_id":"a1cee584-b64d-4217-8183-45d85287b461","system_id":"levelo_inurba_marseille","lat":43.26196,"lon":5.37449,"is_reserved":false,"is_disabled":false,"rental_uris":{"android":"levelo://app?vid=a1cee584-b64d-4217-8183-45d85287b461","ios":"levelo://app?vid=a1cee584-b64d-4217-8183-45d85287b461"},"vehicle_type_id":"4","last_reported":1726067387,"current_range_meters":28400,"station_id":"ce4bhgp2rcd13ifvqfc0","pricing_plan_id":"cebpf4jnsgd1na2vs0mg"},{"bike_id":"3c45e72c-a88e-44aa-8bca-e1a0ffd178f8","system_id":"levelo_inurba_marseille","lat":43.27533,"lon":5.43426,"is_reserved":false,"is_disabled":false,"rental_uris":{"android":"levelo://app?vid=3c45e72c-a88e-44aa-8bca-e1a0ffd178f8","ios":"levelo://app?vid=3c45e72c-a88e-44aa-8bca-e1a0ffd178f8"},"vehicle_type_id":"4","last_reported":1726067387,"current_range_meters":5600,"station_id":"","pricing_plan_id":"cebpf4jnsgd1na2vs0mg"},{"bike_id":"f05fc4e7-5435-424e-8f86-827fdf979fe4","system_id":"levelo_inurba_marseille","lat":43.2955,"lon":5.42278,"is_reserved":false,"is_disabled":false,"rental_uris":{"android":"levelo://app?vid=f05fc4e7-5435-424e-8f86-827fdf979fe4","ios":"levelo://app?vid=f05fc4e7-5435-424e-8f86-827fdf979fe4"},"vehicle_type_id":"4","last_reported":1726067387,"current_range_meters":34800,"station_id":"ce4bhph2rcd13ifvqhdg","pricing_plan_id":"cebpf4jnsgd1na2vs0mg"},{"bike_id":"c42c5264-7504-44fa-8b14-e5341a1a95eb","system_id":"levelo_inurba_marseille","lat":43.26216,"lon":5.37439,"is_reserved":false,"is_disabled":false,"rental_uris":{"android":"levelo://app?vid=c42c5264-7504-44fa-8b14-e5341a1a95eb","ios":"levelo://app?vid=c42c5264-7504-44fa-8b14-e5341a1a95eb"},"vehicle_type_id":"4","last_reported":1726067387,"current_range_meters":28800,"station_id":"ce4bhgp2rcd13ifvqfc0","pricing_plan_id":"cebpf4jnsgd1na2vs0mg"},{"bike_id":"52162e44-9309-4aeb-9696-bb565746c341","system_id":"levelo_inurba_marseille","lat":43.30663,"lon":5.39273,"is_reserved":false,"is_disabled":false,"rental_uris":{"android":"levelo://app?vid=52162e44-9309-4aeb-9696-bb565746c341","ios":"levelo://app?vid=52162e44-9309-4aeb-9696-bb565746c341"},"vehicle_type_id":"4","last_reported":1726067387,"current_range_meters":9200,"station_id":"","pricing_plan_id":"cebpf4jnsgd1na2vs0mg"},{"bike_id":"6bb36c06-d28a-495f-90e4-547a6846f79a","system_id":"levelo_inurba_marseille","lat":43.29701,"lon":5.36607,"is_reserved":false,"is_disabled":false,"rental_uris":{"android":"levelo://app?vid=6bb36c06-d28a-495f-90e4-547a6846f79a","ios":"levelo://app?vid=6bb36c06-d28a-495f-90e4-547a6846f79a"},"vehicle_type_id":"4","last_reported":1726067387,"current_range_meters":38400,"station_id":"ce4bgn12rcd13ifvqbt0","pricing_plan_id":"cebpf4jnsgd1na2vs0mg"},{"bike_id":"aa98a23a-faa7-465e-b548-cbb20438eee0","system_id":"levelo_inurba_marseille","lat":43.29029,"lon":5.35622,"is_reserved":false,"is_disabled":false,"rental_uris":{"android":"levelo://app?vid=aa98a23a-faa7-465e-b548-cbb20438eee0","ios":"levelo://app?vid=aa98a23a-faa7-465e-b548-cbb20438eee0"},"vehicle_type_id":"4","last_reported":1726067387,"current_range_meters":30800,"station_id":"ce4bhb12rcd13ifvqem0","pricing_plan_id":"cebpf4jnsgd1na2vs0mg"},{"bike_id":"f58772ed-080f-4a06-947e-cfd3417ad257","system_id":"levelo_inurba_marseille","lat":43.30416,"lon":5.41276,"is_reserved":false,"is_disabled":false,"rental_uris":{"android":"levelo://app?vid=f58772ed-080f-4a06-947e-cfd3417ad257","ios":"levelo://app?vid=f58772ed-080f-4a06-947e-cfd3417ad257"},"vehicle_type_id":"4","last_reported":1726067387,"current_range_meters":19600,"station_id":"ce4bhop2rcd13ifvqh8g","pricing_plan_id":"cebpf4jnsgd1na2vs0mg"},{"bike_id":"6cc95b7a-cb37-48e2-8682-a1d2bf2d8e96","system_id":"levelo_inurba_marseille","lat":43.3053,"lon":5.36539,"is_reserved":false,"is_disabled":false,"rental_uris":{"android":"levelo://app?vid=6cc95b7a-cb37-48e2-8682-a1d2bf2d8e96","ios":"levelo://app?vid=6cc95b7a-cb37-48e2-8682-a1d2bf2d8e96"},"vehicle_type_id":"4","last_reported":1726067387,"current_range_meters":7200,"station_id":"ce4bgs12rcd13ifvqcag","pricing_plan_id":"cebpf4jnsgd1na2vs0mg"},{"bike_id":"6f5b4e60-7336-4df8-b2bc-d1fefc88a24c","system_id":"levelo_inurba_marseille","lat":43.29706,"lon":5.36598,"is_reserved":false,"is_disabled":false,"rental_uris":{"android":"levelo://app?vid=6f5b4e60-7336-4df8-b2bc-d1fefc88a24c","ios":"levelo://app?vid=6f5b4e60-7336-4df8-b2bc-d1fefc88a24c"},"vehicle_type_id":"4","last_reported":1726067387,"current_range_meters":30800,"station_id":"ce4bgn12rcd13ifvqbt0","pricing_plan_id":"cebpf4jnsgd1na2vs0mg"},{"bike_id":"ee41233d-7057-4ec4-b3c6-63f582836de8","system_id":"levelo_inurba_marseille","lat":43.22934,"lon":5.35376,"is_reserved":false,"is_disabled":false,"rental_uris":{"android":"levelo://app?vid=ee41233d-7057-4ec4-b3c6-63f582836de8","ios":"levelo://app?vid=ee41233d-7057-4ec4-b3c6-63f582836de8"},"vehicle_type_id":"4","last_reported":1726067387,"current_range_meters":32000,"station_id":"cpo3532slgdg3j2ikp40","pricing_plan_id":"cebpf4jnsgd1na2vs0mg"},{"bike_id":"aceaa97a-b654-4426-aee8-30a89abe4327","system_id":"levelo_inurba_marseille","lat":43.23961,"lon":5.36622,"is_reserved":false,"is_disabled":false,"rental_uris":{"android":"levelo://app?vid=aceaa97a-b654-4426-aee8-30a89abe4327","ios":"levelo://app?vid=aceaa97a-b654-4426-aee8-30a89abe4327"},"vehicle_type_id":"4","last_reported":1726067387,"current_range_meters":33200,"station_id":"ce4bhi12rcd13ifvqfp0","pricing_plan_id":"cebpf4jnsgd1na2vs0mg"},{"bike_id":"783dece3-d545-4d5e-8a24-439bc3d0f461","system_id":"levelo_inurba_marseille","lat":43.25113,"lon":5.40326,"is_reserved":false,"is_disabled":false,"rental_uris":{"android":"levelo://app?vid=783dece3-d545-4d5e-8a24-439bc3d0f461","ios":"levelo://app?vid=783dece3-d545-4d5e-8a24-439bc3d0f461"},"vehicle_type_id":"4","last_reported":1726067387,"current_range_meters":11600,"station_id":"ce4bhlh2rcd13ifvqgig","pricing_plan_id":"cebpf4jnsgd1na2vs0mg"},{"bike_id":"8cbfd6ac-b7c9-4272-8ceb-074116c5c9e7","system_id":"levelo_inurba_marseille","lat":43.273144,"lon":5.390736,"is_reserved":false,"is_disabled":false,"rental_uris":{"android":"levelo://app?vid=8cbfd6ac-b7c9-4272-8ceb-074116c5c9e7","ios":"levelo://app?vid=8cbfd6ac-b7c9-4272-8ceb-074116c5c9e7"},"vehicle_type_id":"4","last_reported":1726067387,"current_range_meters":27600,"station_id":"ce4bhgp2rcd13ifvqfe0","pricing_plan_id":"cebpf4jnsgd1na2vs0mg"},{"bike_id":"0987f898-5a0a-4cbe-bfc0-11dfea423b25","system_id":"levelo_inurba_marseille","lat":43.23183,"lon":5.39978,"is_reserved":false,"is_disabled":false,"rental_uris":{"android":"levelo://app?vid=0987f898-5a0a-4cbe-bfc0-11dfea423b25","ios":"levelo://app?vid=0987f898-5a0a-4cbe-bfc0-11dfea423b25"},"vehicle_type_id":"4","last_reported":1726067387,"current_range_meters":18800,"station_id":"ce4bhn12rcd13ifvqgqg","pricing_plan_id":"cebpf4jnsgd1na2vs0mg"},{"bike_id":"a2d27f6e-7752-44cc-bd58-88895b2e41c3","system_id":"levelo_inurba_marseille","lat":43.27901,"lon":5.38014,"is_reserved":false,"is_disabled":false,"rental_uris":{"android":"levelo://app?vid=a2d27f6e-7752-44cc-bd58-88895b2e41c3","ios":"levelo://app?vid=a2d27f6e-7752-44cc-bd58-88895b2e41c3"},"vehicle_type_id":"4","last_reported":1726067387,"current_range_meters":9600,"station_id":"ce4bhf92rcd13ifvqf50","pricing_plan_id":"cebpf4jnsgd1na2vs0mg"},{"bike_id":"a9efa8ae-9243-4901-bcc6-c48f1967ee57","system_id":"levelo_inurba_marseille","lat":43.29962,"lon":5.41316,"is_reserved":false,"is_disabled":false,"rental_uris":{"android":"levelo://app?vid=a9efa8ae-9243-4901-bcc6-c48f1967ee57","ios":"levelo://app?vid=a9efa8ae-9243-4901-bcc6-c48f1967ee57"},"vehicle_type_id":"4","last_reported":1726067387,"current_range_meters":16400,"station_id":"ce4bhp12rcd13ifvqh9g","pricing_plan_id":"cebpf4jnsgd1na2vs0mg"},{"bike_id":"92ee407c-4175-41c0-872d-b39bba12b990","system_id":"levelo_inurba_marseille","lat":43.28071,"lon":5.39638,"is_reserved":false,"is_disabled":false,"rental_uris":{"android":"levelo://app?vid=92ee407c-4175-41c0-872d-b39bba12b990","ios":"levelo://app?vid=92ee407c-4175-41c0-872d-b39bba12b990"},"vehicle_type_id":"4","last_reported":1726067387,"current_range_meters":27200,"station_id":"ce4bho12rcd13ifvqh2g","pricing_plan_id":"cebpf4jnsgd1na2vs0mg"},{"bike_id":"14eb1a14-f846-40e5-87ed-a062aa25370c","system_id":"levelo_inurba_marseille","lat":43.27372,"lon":5.36246,"is_reserved":false,"is_disabled":false,"rental_uris":{"android":"levelo://app?vid=14eb1a14-f846-40e5-87ed-a062aa25370c","ios":"levelo://app?vid=14eb1a14-f846-40e5-87ed-a062aa25370c"},"vehicle_type_id":"4","last_reported":1726067387,"current_range_meters":30000,"station_id":"ce4bhbh2rcd13ifvqeo0","pricing_plan_id":"cebpf4jnsgd1na2vs0mg"},{"bike_id":"2c3ab888-091b-43f4-a64a-aa176ee37d18","system_id":"levelo_inurba_marseille","lat":43.25115,"lon":5.40319,"is_reserved":false,"is_disabled":false,"rental_uris":{"android":"levelo://app?vid=2c3ab888-091b-43f4-a64a-aa176ee37d18","ios":"levelo://app?vid=2c3ab888-091b-43f4-a64a-aa176ee37d18"},"vehicle_type_id":"4","last_reported":1726067387,"current_range_meters":10800,"station_id":"ce4bhlh2rcd13ifvqgig","pricing_plan_id":"cebpf4jnsgd1na2vs0mg"},{"bike_id":"187cbcb2-979d-41c7-94a0-86e604c4a640","system_id":"levelo_inurba_marseille","lat":43.29225,"lon":5.36053,"is_reserved":false,"is_disabled":false,"rental_uris":{"android":"levelo://app?vid=187cbcb2-979d-41c7-94a0-86e604c4a640","ios":"levelo://app?vid=187cbcb2-979d-41c7-94a0-86e604c4a640"},"vehicle_type_id":"4","last_reported":1726067387,"current_range_meters":14000,"station_id":"ce4bhbh2rcd13ifvqeqg","pricing_plan_id":"cebpf4jnsgd1na2vs0mg"},{"bike_id":"b9143fa8-936e-49b8-b688-f9648100d260","system_id":"levelo_inurba_marseille","lat":43.279053,"lon":5.353319,"is_reserved":false,"is_disabled":false,"rental_uris":{"android":"levelo://app?vid=b9143fa8-936e-49b8-b688-f9648100d260","ios":"levelo://app?vid=b9143fa8-936e-49b8-b688-f9648100d260"},"vehicle_type_id":"4","last_reported":1726067387,"current_range_meters":32400,"station_id":"ce4bhgh2rcd13ifvqfb0","pricing_plan_id":"cebpf4jnsgd1na2vs0mg"},{"bike_id":"c7ad5cd4-30f3-4618-808b-083f47bfb368","system_id":"levelo_inurba_marseille","lat":43.26066,"lon":5.39396,"is_reserved":false,"is_disabled":false,"rental_uris":{"android":"levelo://app?vid=c7ad5cd4-30f3-4618-808b-083f47bfb368","ios":"levelo://app?vid=c7ad5cd4-30f3-4618-808b-083f47bfb368"},"vehicle_type_id":"4","last_reported":1726067387,"current_range_meters":28800,"station_id":"ce4bhh92rcd13ifvqfj0","pricing_plan_id":"cebpf4jnsgd1na2vs0mg"},{"bike_id":"ab1cb667-97ff-4fd4-b932-aa42efd6b0dd","system_id":"levelo_inurba_marseille","lat":43.28856,"lon":5.35861,"is_reserved":false,"is_disabled":false,"rental_uris":{"android":"levelo://app?vid=ab1cb667-97ff-4fd4-b932-aa42efd6b0dd","ios":"levelo://app?vid=ab1cb667-97ff-4fd4-b932-aa42efd6b0dd"},"vehicle_type_id":"4","last_reported":1726067387,"current_range_meters":18000,"station_id":"ce4bhb12rcd13ifvqem0","pricing_plan_id":"cebpf4jnsgd1na2vs0mg"},{"bike_id":"20929f51-935c-48d4-967b-2954de27f46c","system_id":"levelo_inurba_marseille","lat":43.30419,"lon":5.41272,"is_reserved":false,"is_disabled":false,"rental_uris":{"android":"levelo://app?vid=20929f51-935c-48d4-967b-2954de27f46c","ios":"levelo://app?vid=20929f51-935c-48d4-967b-2954de27f46c"},"vehicle_type_id":"4","last_reported":1726067387,"current_range_meters":38800,"station_id":"ce4bhop2rcd13ifvqh8g","pricing_plan_id":"cebpf4jnsgd1na2vs0mg"},{"bike_id":"508296e8-73fe-4924-91a7-2cc43ef6c8d2","system_id":"levelo_inurba_marseille","lat":43.26062,"lon":5.39396,"is_reserved":false,"is_disabled":false,"rental_uris":{"android":"levelo://app?vid=508296e8-73fe-4924-91a7-2cc43ef6c8d2","ios":"levelo://app?vid=508296e8-73fe-4924-91a7-2cc43ef6c8d2"},"vehicle_type_id":"4","last_reported":1726067387,"current_range_meters":16800,"station_id":"ce4bhh92rcd13ifvqfj0","pricing_plan_id":"cebpf4jnsgd1na2vs0mg"},{"bike_id":"2a9a636e-33ed-4e3b-98b7-f1a70ff306f8","system_id":"levelo_inurba_marseille","lat":43.26198,"lon":5.37452,"is_reserved":false,"is_disabled":false,"rental_uris":{"android":"levelo://app?vid=2a9a636e-33ed-4e3b-98b7-f1a70ff306f8","ios":"levelo://app?vid=2a9a636e-33ed-4e3b-98b7-f1a70ff306f8"},"vehicle_type_id":"4","last_reported":1726067387,"current_range_meters":9200,"station_id":"ce4bhgp2rcd13ifvqfc0","pricing_plan_id":"cebpf4jnsgd1na2vs0mg"},{"bike_id":"f1a1a89e-68f3-4f43-b5fd-9ca26a3b57ed","system_id":"levelo_inurba_marseille","lat":43.254913,"lon":5.376439,"is_reserved":false,"is_disabled":false,"rental_uris":{"android":"levelo://app?vid=f1a1a89e-68f3-4f43-b5fd-9ca26a3b57ed","ios":"levelo://app?vid=f1a1a89e-68f3-4f43-b5fd-9ca26a3b57ed"},"vehicle_type_id":"4","last_reported":1726067387,"current_range_meters":6800,"station_id":"ce4bhh12rcd13ifvqff0","pricing_plan_id":"cebpf4jnsgd1na2vs0mg"},{"bike_id":"23dfd80a-8233-484e-b7ab-a331c2c855e6","system_id":"levelo_inurba_marseille","lat":43.27817,"lon":5.40717,"is_reserved":false,"is_disabled":false,"rental_uris":{"android":"levelo://app?vid=23dfd80a-8233-484e-b7ab-a331c2c855e6","ios":"levelo://app?vid=23dfd80a-8233-484e-b7ab-a331c2c855e6"},"vehicle_type_id":"4","last_reported":1726067387,"current_range_meters":33600,"station_id":"ce4bhnh2rcd13ifvqgtg","pricing_plan_id":"cebpf4jnsgd1na2vs0mg"},{"bike_id":"a10042b1-9b9d-4d13-8590-44f9e2138566","system_id":"levelo_inurba_marseille","lat":43.296229,"lon":5.371707,"is_reserved":false,"is_disabled":false,"rental_uris":{"android":"levelo://app?vid=a10042b1-9b9d-4d13-8590-44f9e2138566","ios":"levelo://app?vid=a10042b1-9b9d-4d13-8590-44f9e2138566"},"vehicle_type_id":"4","last_reported":1726067387,"current_range_meters":27200,"station_id":"ce4bgnh2rcd13ifvqc0g","pricing_plan_id":"cebpf4jnsgd1na2vs0mg"},{"bike_id":"d5b6d79a-1e12-4caa-99b9-12604b2136e0","system_id":"levelo_inurba_marseille","lat":43.26952,"lon":5.38621,"is_reserved":false,"is_disabled":false,"rental_uris":{"android":"levelo://app?vid=d5b6d79a-1e12-4caa-99b9-12604b2136e0","ios":"levelo://app?vid=d5b6d79a-1e12-4caa-99b9-12604b2136e0"},"vehicle_type_id":"4","last_reported":1726067387,"current_range_meters":26000,"station_id":"ce4bhh92rcd13ifvqfh0","pricing_plan_id":"cebpf4jnsgd1na2vs0mg"},{"bike_id":"3fffbd65-70de-4b72-bd9c-d4dae6a1558a","system_id":"levelo_inurba_marseille","lat":43.27072,"lon":5.42281,"is_reserved":false,"is_disabled":false,"rental_uris":{"android":"levelo://app?vid=3fffbd65-70de-4b72-bd9c-d4dae6a1558a","ios":"levelo://app?vid=3fffbd65-70de-4b72-bd9c-d4dae6a1558a"},"vehicle_type_id":"4","last_reported":1726067387,"current_range_meters":10800,"station_id":"ce4bhk92rcd13ifvqgb0","pricing_plan_id":"cebpf4jnsgd1na2vs0mg"},{"bike_id":"3c19c3e3-345b-4892-95be-845eec38adea","system_id":"levelo_inurba_marseille","lat":43.27204,"lon":5.39186,"is_reserved":false,"is_disabled":false,"rental_uris":{"android":"levelo://app?vid=3c19c3e3-345b-4892-95be-845eec38adea","ios":"levelo://app?vid=3c19c3e3-345b-4892-95be-845eec38adea"},"vehicle_type_id":"4","last_reported":1726067387,"current_range_meters":24000,"station_id":"ce4bhhp2rcd13ifvqfm0","pricing_plan_id":"cebpf4jnsgd1na2vs0mg"},{"bike_id":"4d480993-0eeb-47a1-877d-1d894f4f0fad","system_id":"levelo_inurba_marseille","lat":43.25113,"lon":5.40321,"is_reserved":false,"is_disabled":false,"rental_uris":{"android":"levelo://app?vid=4d480993-0eeb-47a1-877d-1d894f4f0fad","ios":"levelo://app?vid=4d480993-0eeb-47a1-877d-1d894f4f0fad"},"vehicle_type_id":"4","last_reported":1726067387,"current_range_meters":6400,"station_id":"ce4bhlh2rcd13ifvqgig","pricing_plan_id":"cebpf4jnsgd1na2vs0mg"},{"bike_id":"82680f5f-dc31-4a4f-9061-e4a864eab57b","system_id":"levelo_inurba_marseille","lat":43.24389,"lon":5.37055,"is_reserved":false,"is_disabled":false,"rental_uris":{"android":"levelo://app?vid=82680f5f-dc31-4a4f-9061-e4a864eab57b","ios":"levelo://app?vid=82680f5f-dc31-4a4f-9061-e4a864eab57b"},"vehicle_type_id":"4","last_reported":1726067387,"current_range_meters":2800,"station_id":"ce4bhhh2rcd13ifvqfk0","pricing_plan_id":"cebpf4jnsgd1na2vs0mg"},{"bike_id":"99f34ee8-5904-450f-b879-9e9f453a666e","system_id":"levelo_inurba_marseille","lat":43.30888,"lon":5.39631,"is_reserved":false,"is_disabled":false,"rental_uris":{"android":"levelo://app?vid=99f34ee8-5904-450f-b879-9e9f453a666e","ios":"levelo://app?vid=99f34ee8-5904-450f-b879-9e9f453a666e"},"vehicle_type_id":"4","last_reported":1726067387,"current_range_meters":6000,"station_id":"ce4bh012rcd13ifvqcv0","pricing_plan_id":"cebpf4jnsgd1na2vs0mg"},{"bike_id":"a1683b12-12ec-413f-99ad-bd0263626059","system_id":"levelo_inurba_marseille","lat":43.315156,"lon":5.372814,"is_reserved":false,"is_disabled":false,"rental_uris":{"android":"levelo://app?vid=a1683b12-12ec-413f-99ad-bd0263626059","ios":"levelo://app?vid=a1683b12-12ec-413f-99ad-bd0263626059"},"vehicle_type_id":"4","last_reported":1726067387,"current_range_meters":25200,"station_id":"ce4bgt12rcd13ifvqcd0","pricing_plan_id":"cebpf4jnsgd1na2vs0mg"},{"bike_id":"de9e305a-9e44-4f7f-a432-42f57c6cf1c9","system_id":"levelo_inurba_marseille","lat":43.29959,"lon":5.41325,"is_reserved":false,"is_disabled":false,"rental_uris":{"android":"levelo://app?vid=de9e305a-9e44-4f7f-a432-42f57c6cf1c9","ios":"levelo://app?vid=de9e305a-9e44-4f7f-a432-42f57c6cf1c9"},"vehicle_type_id":"4","last_reported":1726067387,"current_range_meters":40000,"station_id":"ce4bhp12rcd13ifvqh9g","pricing_plan_id":"cebpf4jnsgd1na2vs0mg"},{"bike_id":"b45d775a-75e8-4b59-940f-f6d93785daeb","system_id":"levelo_inurba_marseille","lat":43.32659,"lon":5.40989,"is_reserved":false,"is_disabled":false,"rental_uris":{"android":"levelo://app?vid=b45d775a-75e8-4b59-940f-f6d93785daeb","ios":"levelo://app?vid=b45d775a-75e8-4b59-940f-f6d93785daeb"},"vehicle_type_id":"4","last_reported":1726067387,"current_range_meters":20400,"station_id":"ce4bhpp2rcd13ifvqhgg","pricing_plan_id":"cebpf4jnsgd1na2vs0mg"},{"bike_id":"c52f5e21-6b89-4365-b0d5-bf28483940ea","system_id":"levelo_inurba_marseille","lat":43.26193,"lon":5.37449,"is_reserved":false,"is_disabled":false,"rental_uris":{"android":"levelo://app?vid=c52f5e21-6b89-4365-b0d5-bf28483940ea","ios":"levelo://app?vid=c52f5e21-6b89-4365-b0d5-bf28483940ea"},"vehicle_type_id":"4","last_reported":1726067387,"current_range_meters":32000,"station_id":"ce4bhgp2rcd13ifvqfc0","pricing_plan_id":"cebpf4jnsgd1na2vs0mg"},{"bike_id":"3215e488-9a4a-425f-9796-0f0cf954d5b8","system_id":"levelo_inurba_marseille","lat":43.27427,"lon":5.39402,"is_reserved":false,"is_disabled":false,"rental_uris":{"android":"levelo://app?vid=3215e488-9a4a-425f-9796-0f0cf954d5b8","ios":"levelo://app?vid=3215e488-9a4a-425f-9796-0f0cf954d5b8"},"vehicle_type_id":"4","last_reported":1726067387,"current_range_meters":38800,"station_id":"ce4bhdp2rcd13ifvqf20","pricing_plan_id":"cebpf4jnsgd1na2vs0mg"},{"bike_id":"230e3a22-1a03-408c-b711-7f167a488065","system_id":"levelo_inurba_marseille","lat":43.30566,"lon":5.38132,"is_reserved":false,"is_disabled":false,"rental_uris":{"android":"levelo://app?vid=230e3a22-1a03-408c-b711-7f167a488065","ios":"levelo://app?vid=230e3a22-1a03-408c-b711-7f167a488065"},"vehicle_type_id":"4","last_reported":1726067387,"current_range_meters":8400,"station_id":"ce4bgup2rcd13ifvqcn0","pricing_plan_id":"cebpf4jnsgd1na2vs0mg"},{"bike_id":"b8335ed6-b8ab-48f8-a306-ce443d5777a3","system_id":"levelo_inurba_marseille","lat":43.30416,"lon":5.41279,"is_reserved":false,"is_disabled":false,"rental_uris":{"android":"levelo://app?vid=b8335ed6-b8ab-48f8-a306-ce443d5777a3","ios":"levelo://app?vid=b8335ed6-b8ab-48f8-a306-ce443d5777a3"},"vehicle_type_id":"4","last_reported":1726067387,"current_range_meters":20800,"station_id":"ce4bhop2rcd13ifvqh8g","pricing_plan_id":"cebpf4jnsgd1na2vs0mg"},{"bike_id":"bb9cd97a-0d53-4025-85d6-bf60ecc1b620","system_id":"levelo_inurba_marseille","lat":43.29547,"lon":5.42274,"is_reserved":false,"is_disabled":false,"rental_uris":{"android":"levelo://app?vid=bb9cd97a-0d53-4025-85d6-bf60ecc1b620","ios":"levelo://app?vid=bb9cd97a-0d53-4025-85d6-bf60ecc1b620"},"vehicle_type_id":"4","last_reported":1726067387,"current_range_meters":38800,"station_id":"ce4bhph2rcd13ifvqhdg","pricing_plan_id":"cebpf4jnsgd1na2vs0mg"},{"bike_id":"51ed0c15-52aa-4bdc-bc53-2cf67029c347","system_id":"levelo_inurba_marseille","lat":43.317579,"lon":5.39018,"is_reserved":false,"is_disabled":false,"rental_uris":{"android":"levelo://app?vid=51ed0c15-52aa-4bdc-bc53-2cf67029c347","ios":"levelo://app?vid=51ed0c15-52aa-4bdc-bc53-2cf67029c347"},"vehicle_type_id":"4","last_reported":1726067387,"current_range_meters":22400,"station_id":"ce4bhqp2rcd13ifvqhng","pricing_plan_id":"cebpf4jnsgd1na2vs0mg"},{"bike_id":"7fbbab59-79bc-421b-821a-c2edc5ccad11","system_id":"levelo_inurba_marseille","lat":43.31522,"lon":5.38022,"is_reserved":false,"is_disabled":false,"rental_uris":{"android":"levelo://app?vid=7fbbab59-79bc-421b-821a-c2edc5ccad11","ios":"levelo://app?vid=7fbbab59-79bc-421b-821a-c2edc5ccad11"},"vehicle_type_id":"4","last_reported":1726067387,"current_range_meters":10800,"station_id":"ce4bhsp2rcd13ifvqi50","pricing_plan_id":"cebpf4jnsgd1na2vs0mg"},{"bike_id":"be03d44b-ca34-4ed9-acf0-32234e2b1e02","system_id":"levelo_inurba_marseille","lat":43.28275,"lon":5.35063,"is_reserved":false,"is_disabled":false,"rental_uris":{"android":"levelo://app?vid=be03d44b-ca34-4ed9-acf0-32234e2b1e02","ios":"levelo://app?vid=be03d44b-ca34-4ed9-acf0-32234e2b1e02"},"vehicle_type_id":"4","last_reported":1726067387,"current_range_meters":24000,"station_id":"ce4bhbp2rcd13ifvqerg","pricing_plan_id":"cebpf4jnsgd1na2vs0mg"},{"bike_id":"f5167aa6-7066-4040-839f-feb3ce966164","system_id":"levelo_inurba_marseille","lat":43.29776,"lon":5.39323,"is_reserved":false,"is_disabled":false,"rental_uris":{"android":"levelo://app?vid=f5167aa6-7066-4040-839f-feb3ce966164","ios":"levelo://app?vid=f5167aa6-7066-4040-839f-feb3ce966164"},"vehicle_type_id":"4","last_reported":1726067387,"current_range_meters":23200,"station_id":"chh1huq6cuj3fo74tm60","pricing_plan_id":"cebpf4jnsgd1na2vs0mg"},{"bike_id":"edd51be4-f9a9-4b6f-a3bc-4bf1ce7cc7be","system_id":"levelo_inurba_marseille","lat":43.26677,"lon":5.38261,"is_reserved":false,"is_disabled":false,"rental_uris":{"android":"levelo://app?vid=edd51be4-f9a9-4b6f-a3bc-4bf1ce7cc7be","ios":"levelo://app?vid=edd51be4-f9a9-4b6f-a3bc-4bf1ce7cc7be"},"vehicle_type_id":"4","last_reported":1726067387,"current_range_meters":30400,"station_id":"ce4bhg92rcd13ifvqf90","pricing_plan_id":"cebpf4jnsgd1na2vs0mg"},{"bike_id":"46bb7a04-62f3-4e11-ae94-af1281959d63","system_id":"levelo_inurba_marseille","lat":43.28573,"lon":5.3949,"is_reserved":false,"is_disabled":false,"rental_uris":{"android":"levelo://app?vid=46bb7a04-62f3-4e11-ae94-af1281959d63","ios":"levelo://app?vid=46bb7a04-62f3-4e11-ae94-af1281959d63"},"vehicle_type_id":"4","last_reported":1726067387,"current_range_meters":39200,"station_id":"ce4bh292rcd13ifvqdg0","pricing_plan_id":"cebpf4jnsgd1na2vs0mg"},{"bike_id":"e0ec3d3d-0dc8-4c04-a0cd-af4cc90e0e48","system_id":"levelo_inurba_marseille","lat":43.25584,"lon":5.38224,"is_reserved":false,"is_disabled":false,"rental_uris":{"android":"levelo://app?vid=e0ec3d3d-0dc8-4c04-a0cd-af4cc90e0e48","ios":"levelo://app?vid=e0ec3d3d-0dc8-4c04-a0cd-af4cc90e0e48"},"vehicle_type_id":"4","last_reported":1726067387,"current_range_meters":4000,"station_id":"ce4bhih2rcd13ifvqfs0","pricing_plan_id":"cebpf4jnsgd1na2vs0mg"},{"bike_id":"9188f37f-edbf-4356-93b5-7cfb6680a543","system_id":"levelo_inurba_marseille","lat":43.33024,"lon":5.39045,"is_reserved":false,"is_disabled":false,"rental_uris":{"android":"levelo://app?vid=9188f37f-edbf-4356-93b5-7cfb6680a543","ios":"levelo://app?vid=9188f37f-edbf-4356-93b5-7cfb6680a543"},"vehicle_type_id":"4","last_reported":1726067387,"current_range_meters":32000,"station_id":"ce4bhr92rcd13ifvqhrg","pricing_plan_id":"cebpf4jnsgd1na2vs0mg"},{"bike_id":"8013a7fc-86c9-405f-9e7b-ed589925b7dd","system_id":"levelo_inurba_marseille","lat":43.31086,"lon":5.40094,"is_reserved":false,"is_disabled":false,"rental_uris":{"android":"levelo://app?vid=8013a7fc-86c9-405f-9e7b-ed589925b7dd","ios":"levelo://app?vid=8013a7fc-86c9-405f-9e7b-ed589925b7dd"},"vehicle_type_id":"4","last_reported":1726067387,"current_range_meters":7200,"station_id":"","pricing_plan_id":"cebpf4jnsgd1na2vs0mg"},{"bike_id":"7ff65f4c-31e2-4306-95df-1677f44412f6","system_id":"levelo_inurba_marseille","lat":43.31757,"lon":5.39012,"is_reserved":false,"is_disabled":false,"rental_uris":{"android":"levelo://app?vid=7ff65f4c-31e2-4306-95df-1677f44412f6","ios":"levelo://app?vid=7ff65f4c-31e2-4306-95df-1677f44412f6"},"vehicle_type_id":"4","last_reported":1726067387,"current_range_meters":17600,"station_id":"ce4bhqp2rcd13ifvqhng","pricing_plan_id":"cebpf4jnsgd1na2vs0mg"},{"bike_id":"3b3aa228-f9c2-4a05-a800-efed800b971e","system_id":"levelo_inurba_marseille","lat":43.2738,"lon":5.3625,"is_reserved":false,"is_disabled":false,"rental_uris":{"android":"levelo://app?vid=3b3aa228-f9c2-4a05-a800-efed800b971e","ios":"levelo://app?vid=3b3aa228-f9c2-4a05-a800-efed800b971e"},"vehicle_type_id":"4","last_reported":1726067387,"current_range_meters":16800,"station_id":"ce4bhbh2rcd13ifvqeo0","pricing_plan_id":"cebpf4jnsgd1na2vs0mg"},{"bike_id":"f6372f4e-7eb9-43e6-9ea8-02ef73d48edb","system_id":"levelo_inurba_marseille","lat":43.28579,"lon":5.39494,"is_reserved":false,"is_disabled":false,"rental_uris":{"android":"levelo://app?vid=f6372f4e-7eb9-43e6-9ea8-02ef73d48edb","ios":"levelo://app?vid=f6372f4e-7eb9-43e6-9ea8-02ef73d48edb"},"vehicle_type_id":"4","last_reported":1726067387,"current_range_meters":6000,"station_id":"ce4bh292rcd13ifvqdg0","pricing_plan_id":"cebpf4jnsgd1na2vs0mg"},{"bike_id":"01ac9959-90b2-493c-a8fd-75170bf3edc4","system_id":"levelo_inurba_marseille","lat":43.33045,"lon":5.36453,"is_reserved":false,"is_disabled":false,"rental_uris":{"android":"levelo://app?vid=01ac9959-90b2-493c-a8fd-75170bf3edc4","ios":"levelo://app?vid=01ac9959-90b2-493c-a8fd-75170bf3edc4"},"vehicle_type_id":"4","last_reported":1726067387,"current_range_meters":23200,"station_id":"","pricing_plan_id":"cebpf4jnsgd1na2vs0mg"},{"bike_id":"f1c58944-a686-4561-942a-5948af44eef1","system_id":"levelo_inurba_marseille","lat":43.28615,"lon":5.351,"is_reserved":false,"is_disabled":false,"rental_uris":{"android":"levelo://app?vid=f1c58944-a686-4561-942a-5948af44eef1","ios":"levelo://app?vid=f1c58944-a686-4561-942a-5948af44eef1"},"vehicle_type_id":"4","last_reported":1726067387,"current_range_meters":22800,"station_id":"ce4bhch2rcd13ifvqeug","pricing_plan_id":"cebpf4jnsgd1na2vs0mg"},{"bike_id":"6042e2e6-f30e-4230-8de0-a7095062ad14","system_id":"levelo_inurba_marseille","lat":43.30359,"lon":5.41876,"is_reserved":false,"is_disabled":false,"rental_uris":{"android":"levelo://app?vid=6042e2e6-f30e-4230-8de0-a7095062ad14","ios":"levelo://app?vid=6042e2e6-f30e-4230-8de0-a7095062ad14"},"vehicle_type_id":"4","last_reported":1726067387,"current_range_meters":38000,"station_id":"ce4bhop2rcd13ifvqh7g","pricing_plan_id":"cebpf4jnsgd1na2vs0mg"},{"bike_id":"e630f839-0c67-4ea5-8c72-613265b874e0","system_id":"levelo_inurba_marseille","lat":43.281512,"lon":5.405081,"is_reserved":false,"is_disabled":false,"rental_uris":{"android":"levelo://app?vid=e630f839-0c67-4ea5-8c72-613265b874e0","ios":"levelo://app?vid=e630f839-0c67-4ea5-8c72-613265b874e0"},"vehicle_type_id":"4","last_reported":1726067387,"current_range_meters":22400,"station_id":"ce4bhnh2rcd13ifvqgug","pricing_plan_id":"cebpf4jnsgd1na2vs0mg"},{"bike_id":"db24b084-20e6-4432-ac42-6786467dc495","system_id":"levelo_inurba_marseille","lat":43.31895,"lon":5.37214,"is_reserved":false,"is_disabled":false,"rental_uris":{"android":"levelo://app?vid=db24b084-20e6-4432-ac42-6786467dc495","ios":"levelo://app?vid=db24b084-20e6-4432-ac42-6786467dc495"},"vehicle_type_id":"4","last_reported":1726067387,"current_range_meters":36400,"station_id":"","pricing_plan_id":"cebpf4jnsgd1na2vs0mg"},{"bike_id":"7d2d60cc-b351-4c87-9c5b-ee8d91adf1b7","system_id":"levelo_inurba_marseille","lat":43.24652,"lon":5.38888,"is_reserved":false,"is_disabled":false,"rental_uris":{"android":"levelo://app?vid=7d2d60cc-b351-4c87-9c5b-ee8d91adf1b7","ios":"levelo://app?vid=7d2d60cc-b351-4c87-9c5b-ee8d91adf1b7"},"vehicle_type_id":"4","last_reported":1726067387,"current_range_meters":24000,"station_id":"ce4bhg12rcd13ifvqf60","pricing_plan_id":"cebpf4jnsgd1na2vs0mg"},{"bike_id":"951200f2-3169-471d-ad63-d05beaf439a4","system_id":"levelo_inurba_marseille","lat":43.27912,"lon":5.38002,"is_reserved":false,"is_disabled":false,"rental_uris":{"android":"levelo://app?vid=951200f2-3169-471d-ad63-d05beaf439a4","ios":"levelo://app?vid=951200f2-3169-471d-ad63-d05beaf439a4"},"vehicle_type_id":"4","last_reported":1726067387,"current_range_meters":36400,"station_id":"ce4bhf92rcd13ifvqf50","pricing_plan_id":"cebpf4jnsgd1na2vs0mg"},{"bike_id":"a655f18e-4ab1-402e-b5eb-576e7af98468","system_id":"levelo_inurba_marseille","lat":43.28489,"lon":5.3856,"is_reserved":false,"is_disabled":false,"rental_uris":{"android":"levelo://app?vid=a655f18e-4ab1-402e-b5eb-576e7af98468","ios":"levelo://app?vid=a655f18e-4ab1-402e-b5eb-576e7af98468"},"vehicle_type_id":"4","last_reported":1726067387,"current_range_meters":22800,"station_id":"ce4bh8p2rcd13ifvqeb0","pricing_plan_id":"cebpf4jnsgd1na2vs0mg"},{"bike_id":"95b8c5b5-a542-49e3-9142-7d7f1e06d152","system_id":"levelo_inurba_marseille","lat":43.251158,"lon":5.403159,"is_reserved":false,"is_disabled":false,"rental_uris":{"android":"levelo://app?vid=95b8c5b5-a542-49e3-9142-7d7f1e06d152","ios":"levelo://app?vid=95b8c5b5-a542-49e3-9142-7d7f1e06d152"},"vehicle_type_id":"4","last_reported":1726067387,"current_range_meters":2800,"station_id":"ce4bhlh2rcd13ifvqgig","pricing_plan_id":"cebpf4jnsgd1na2vs0mg"},{"bike_id":"e91dd27f-3699-4850-8e71-01922c3067b7","system_id":"levelo_inurba_marseille","lat":43.286992,"lon":5.399865,"is_reserved":false,"is_disabled":false,"rental_uris":{"android":"levelo://app?vid=e91dd27f-3699-4850-8e71-01922c3067b7","ios":"levelo://app?vid=e91dd27f-3699-4850-8e71-01922c3067b7"},"vehicle_type_id":"4","last_reported":1726067387,"current_range_meters":14800,"station_id":"ce4bho92rcd13ifvqh3g","pricing_plan_id":"cebpf4jnsgd1na2vs0mg"},{"bike_id":"1babe19f-8402-42c7-b5c3-32a475551e64","system_id":"levelo_inurba_marseille","lat":43.33025,"lon":5.3904,"is_reserved":false,"is_disabled":false,"rental_uris":{"android":"levelo://app?vid=1babe19f-8402-42c7-b5c3-32a475551e64","ios":"levelo://app?vid=1babe19f-8402-42c7-b5c3-32a475551e64"},"vehicle_type_id":"4","last_reported":1726067387,"current_range_meters":20800,"station_id":"ce4bhr92rcd13ifvqhrg","pricing_plan_id":"cebpf4jnsgd1na2vs0mg"},{"bike_id":"739bab8d-6221-4edc-879e-8e248fb6a039","system_id":"levelo_inurba_marseille","lat":43.32889,"lon":5.38877,"is_reserved":false,"is_disabled":false,"rental_uris":{"android":"levelo://app?vid=739bab8d-6221-4edc-879e-8e248fb6a039","ios":"levelo://app?vid=739bab8d-6221-4edc-879e-8e248fb6a039"},"vehicle_type_id":"4","last_reported":1726067387,"current_range_meters":8000,"station_id":"","pricing_plan_id":"cebpf4jnsgd1na2vs0mg"},{"bike_id":"4b915461-e88d-42ed-a705-5d1a34c76f0e","system_id":"levelo_inurba_marseille","lat":43.29271,"lon":5.38446,"is_reserved":false,"is_disabled":false,"rental_uris":{"android":"levelo://app?vid=4b915461-e88d-42ed-a705-5d1a34c76f0e","ios":"levelo://app?vid=4b915461-e88d-42ed-a705-5d1a34c76f0e"},"vehicle_type_id":"4","last_reported":1726067387,"current_range_meters":7200,"station_id":"ce4bh692rcd13ifvqea0","pricing_plan_id":"cebpf4jnsgd1na2vs0mg"},{"bike_id":"c2789524-7fa2-47af-83c7-17cdee833300","system_id":"levelo_inurba_marseille","lat":43.27366,"lon":5.36255,"is_reserved":false,"is_disabled":false,"rental_uris":{"android":"levelo://app?vid=c2789524-7fa2-47af-83c7-17cdee833300","ios":"levelo://app?vid=c2789524-7fa2-47af-83c7-17cdee833300"},"vehicle_type_id":"4","last_reported":1726067387,"current_range_meters":10000,"station_id":"ce4bhbh2rcd13ifvqeo0","pricing_plan_id":"cebpf4jnsgd1na2vs0mg"},{"bike_id":"5f85fe95-7649-4072-8f42-47a13ba34938","system_id":"levelo_inurba_marseille","lat":43.30411,"lon":5.41283,"is_reserved":false,"is_disabled":false,"rental_uris":{"android":"levelo://app?vid=5f85fe95-7649-4072-8f42-47a13ba34938","ios":"levelo://app?vid=5f85fe95-7649-4072-8f42-47a13ba34938"},"vehicle_type_id":"4","last_reported":1726067387,"current_range_meters":32800,"station_id":"ce4bhop2rcd13ifvqh8g","pricing_plan_id":"cebpf4jnsgd1na2vs0mg"},{"bike_id":"830fd6a2-7c0f-4749-af4e-4d145c7fca05","system_id":"levelo_inurba_marseille","lat":43.25103,"lon":5.40327,"is_reserved":false,"is_disabled":false,"rental_uris":{"android":"levelo://app?vid=830fd6a2-7c0f-4749-af4e-4d145c7fca05","ios":"levelo://app?vid=830fd6a2-7c0f-4749-af4e-4d145c7fca05"},"vehicle_type_id":"4","last_reported":1726067387,"current_range_meters":7200,"station_id":"ce4bhlh2rcd13ifvqgig","pricing_plan_id":"cebpf4jnsgd1na2vs0mg"},