{"last_updated":1774352213,"ttl":60,"version":"2.2","data":{"bikes":[{"bike_id":"8bfb6df6-fc89-48a8-b76c-032c6c731284","system_id":"levelo_inurba_marseille","lat":43.31712,"lon":5.437,"is_reserved":false,"is_disabled":false,"rental_uris":{"android":"levelo://app?vid=8bfb6df6-fc89-48a8-b76c-032c6c731284","ios":"levelo://app?vid=8bfb6df6-fc89-48a8-b76c-032c6c731284"},"vehicle_type_id":"4","last_reported":1774352214,"current_range_meters":2800,"station_id":"ce4bhp92rcd13ifvqhcg","pricing_plan_id":"cebpf4jnsgd1na2vs0mg"},{"bike_id":"f2a2a817-7062-4d02-9f09-b7ed8b62eefc","system_id":"levelo_inurba_marseille","lat":43.28155,"lon":5.426465,"is_reserved":false,"is_disabled":false,"rental_uris":{"android":"levelo://app?vid=f2a2a817-7062-4d02-9f09-b7ed8b62eefc","ios":"levelo://app?vid=f2a2a817-7062-4d02-9f09-b7ed8b62eefc"},"vehicle_type_id":"4","last_reported":1774352214,"current_range_meters":2800,"station_id":"ce4bhnh2rcd13ifvqgug","pricing_plan_id":"cebpf4jnsgd1na2vs0mg"},{"bike_id":"87959183-40cb-4bb7-9431-851bf8fbf873","system_id":"levelo_inurba_marseille","lat":43.24066,"lon":5.37765,"is_reserved":false,"is_disabled":false,"rental_uris":{"android":"levelo://app?vid=87959183-40cb-4bb7-9431-851bf8fbf873","ios":"levelo://app?vid=87959183-40cb-4bb7-9431-851bf8fbf873"},"vehicle_type_id":"4","last_reported":1774352214,"current_range_meters":2800,"station_id":"ce4bhnp2rcd13ifvqgvg","pricing_plan_id":"cebpf4jnsgd1na2vs0mg"},{"bike_id":"85d0a95e-bc0b-4d36-bde7-fd46008d21e4","system_id":"levelo_inurba_marseille","lat":43.24659,"lon":5.38151,"is_reserved":false,"is_disabled":false,"rental_uris":{"android":"levelo://app?vid=85d0a95e-bc0b-4d36-bde7-fd46008d21e4","ios":"levelo://app?vid=85d0a95e-bc0b-4d36-bde7-fd46008d21e4"},"vehicle_type_id":"4","last_reported":1774352214,"current_range_meters":2800,"station_id":"ce4bhih2rcd13ifvqfr0","pricing_plan_id":"cebpf4jnsgd1na2vs0mg"},{"bike_id":"58821aef-8377-46f9-aa8f-6ed9ed9db02d","system_id":"levelo_inurba_marseille","lat":43.23191,"lon":5.3998,"is_reserved":false,"is_disabled":false,"rental_uris":{"android":"levelo://app?vid=58821aef-8377-46f9-aa8f-6ed9ed9db02d","ios":"levelo://app?vid=58821aef-8377-46f9-aa8f-6ed9ed9db02d"},"vehicle_type_id":"4","last_reported":1774352214,"current_range_meters":2800,"station_id":"ce4bhn12rcd13ifvqgqg","pricing_plan_id":"cebpf4jnsgd1na2vs0mg"},{"bike_id":"0aa28225-375e-43e3-b77d-9a5ba3724fd5","system_id":"levelo_inurba_marseille","lat":43.29305,"lon":5.37452,"is_reserved":false,"is_disabled":false,"rental_uris":{"android":"levelo://app?vid=0aa28225-375e-43e3-b77d-9a5ba3724fd5","ios":"levelo://app?vid=0aa28225-375e-43e3-b77d-9a5ba3724fd5"},"vehicle_type_id":"4","last_reported":1774352214,"current_range_meters":2800,"station_id":"ce4bgi12rcd13ifvqb70","pricing_plan_id":"cebpf4jnsgd1na2vs0mg"},{"bike_id":"2733f5d6-4126-4a8b-9735-e5f56c1a5a0c","system_id":"levelo_inurba_marseille","lat":43.23891,"lon":5.37465,"is_reserved":false,"is_disabled":false,"rental_uris":{"android":"levelo://app?vid=2733f5d6-4126-4a8b-9735-e5f56c1a5a0c","ios":"levelo://app?vid=2733f5d6-4126-4a8b-9735-e5f56c1a5a0c"},"vehicle_type_id":"4","last_reported":1774352214,"current_range_meters":2800,"station_id":"st_d6sm7csbq4hs73f8fpjg","pricing_plan_id":"cebpf4jnsgd1na2vs0mg"},{"bike_id":"8b1b995d-bac3-486c-b7b1-3b9a70a58122","system_id":"levelo_inurba_marseille","lat":43.23057,"lon":5.3548,"is_reserved":false,"is_disabled":false,"rental_uris":{"android":"levelo://app?vid=8b1b995d-bac3-486c-b7b1-3b9a70a58122","ios":"levelo://app?vid=8b1b995d-bac3-486c-b7b1-3b9a70a58122"},"vehicle_type_id":"4","last_reported":1774352214,"current_range_meters":2800,"station_id":"cpo3342slgdg3j2ifvpg","pricing_plan_id":"cebpf4jnsgd1na2vs0mg"},{"bike_id":"c3f3c8ac-b6d1-4026-a061-65e7cfa764fe","system_id":"levelo_inurba_marseille","lat":43.28479,"lon":5.48392,"is_reserved":false,"is_disabled":false,"rental_uris":{"android":"levelo://app?vid=c3f3c8ac-b6d1-4026-a061-65e7cfa764fe","ios":"levelo://app?vid=c3f3c8ac-b6d1-4026-a061-65e7cfa764fe"},"vehicle_type_id":"4","last_reported":1774352214,"current_range_meters":2800,"station_id":"","pricing_plan_id":"cebpf4jnsgd1na2vs0mg"},{"bike_id":"c39bb183-9e21-46c8-bdb7-21aee3d57433","system_id":"levelo_inurba_marseille","lat":43.30888,"lon":5.3965,"is_reserved":false,"is_disabled":false,"rental_uris":{"android":"levelo://app?vid=c39bb183-9e21-46c8-bdb7-21aee3d57433","ios":"levelo://app?vid=c39bb183-9e21-46c8-bdb7-21aee3d57433"},"vehicle_type_id":"4","last_reported":1774352214,"current_range_meters":3200,"station_id":"ce4bh012rcd13ifvqcv0","pricing_plan_id":"cebpf4jnsgd1na2vs0mg"},{"bike_id":"7d0e7181-3a70-4370-9354-bef3948a92c8","system_id":"levelo_inurba_marseille","lat":43.29959,"lon":5.41327,"is_reserved":false,"is_disabled":false,"rental_uris":{"android":"levelo://app?vid=7d0e7181-3a70-4370-9354-bef3948a92c8","ios":"levelo://app?vid=7d0e7181-3a70-4370-9354-bef3948a92c8"},"vehicle_type_id":"4","last_reported":1774352214,"current_range_meters":3200,"station_id":"ce4bhp12rcd13ifvqh9g","pricing_plan_id":"cebpf4jnsgd1na2vs0mg"},{"bike_id":"4bc91efc-5348-4dd5-84c0-807354869870","system_id":"levelo_inurba_marseille","lat":43.27811,"lon":5.40698,"is_reserved":false,"is_disabled":false,"rental_uris":{"android":"levelo://app?vid=4bc91efc-5348-4dd5-84c0-807354869870","ios":"levelo://app?vid=4bc91efc-5348-4dd5-84c0-807354869870"},"vehicle_type_id":"4","last_reported":1774352214,"current_range_meters":3200,"station_id":"ce4bhnh2rcd13ifvqgtg","pricing_plan_id":"cebpf4jnsgd1na2vs0mg"},{"bike_id":"7705ed16-3530-4723-85ab-529298b2398e","system_id":"levelo_inurba_marseille","lat":43.23067,"lon":5.3549,"is_reserved":false,"is_disabled":false,"rental_uris":{"android":"levelo://app?vid=7705ed16-3530-4723-85ab-529298b2398e","ios":"levelo://app?vid=7705ed16-3530-4723-85ab-529298b2398e"},"vehicle_type_id":"4","last_reported":1774352214,"current_range_meters":3200,"station_id":"cpo3342slgdg3j2ifvpg","pricing_plan_id":"cebpf4jnsgd1na2vs0mg"},{"bike_id":"f8d5978c-db74-4193-9bbf-b995ea132154","system_id":"levelo_inurba_marseille","lat":43.27347,"lon":5.39082,"is_reserved":false,"is_disabled":false,"rental_uris":{"android":"levelo://app?vid=f8d5978c-db74-4193-9bbf-b995ea132154","ios":"levelo://app?vid=f8d5978c-db74-4193-9bbf-b995ea132154"},"vehicle_type_id":"4","last_reported":1774352214,"current_range_meters":3200,"station_id":"ce4bhgp2rcd13ifvqfe0","pricing_plan_id":"cebpf4jnsgd1na2vs0mg"},{"bike_id":"0f88d6b7-883f-4b13-98ff-b1b3b7d422a5","system_id":"levelo_inurba_marseille","lat":43.25934,"lon":5.4092,"is_reserved":false,"is_disabled":true,"rental_uris":{"android":"levelo://app?vid=0f88d6b7-883f-4b13-98ff-b1b3b7d422a5","ios":"levelo://app?vid=0f88d6b7-883f-4b13-98ff-b1b3b7d422a5"},"vehicle_type_id":"4","last_reported":1774352214,"current_range_meters":3200,"station_id":"ce4bhm92rcd13ifvqglg","pricing_plan_id":"cebpf4jnsgd1na2vs0mg"},{"bike_id":"82d19d95-2492-495d-b746-799a9f30f6d5","system_id":"levelo_inurba_marseille","lat":43.28278,"lon":5.40839,"is_reserved":false,"is_disabled":false,"rental_uris":{"android":"levelo://app?vid=82d19d95-2492-495d-b746-799a9f30f6d5","ios":"levelo://app?vid=82d19d95-2492-495d-b746-799a9f30f6d5"},"vehicle_type_id":"4","last_reported":1774352214,"current_range_meters":3200,"station_id":"","pricing_plan_id":"cebpf4jnsgd1na2vs0mg"},{"bike_id":"6f3fdbf9-917f-421d-aa86-02187d7ba65c","system_id":"levelo_inurba_marseille","lat":43.28496,"lon":5.48396,"is_reserved":false,"is_disabled":false,"rental_uris":{"android":"levelo://app?vid=6f3fdbf9-917f-421d-aa86-02187d7ba65c","ios":"levelo://app?vid=6f3fdbf9-917f-421d-aa86-02187d7ba65c"},"vehicle_type_id":"4","last_reported":1774352214,"current_range_meters":3200,"station_id":"st_d3svhcjqgbts73a3dn0g","pricing_plan_id":"cebpf4jnsgd1na2vs0mg"},{"bike_id":"078c8d6a-6a18-480a-9826-cb5f26ba0dcb","system_id":"levelo_inurba_marseille","lat":43.24387,"lon":5.37061,"is_reserved":false,"is_disabled":false,"rental_uris":{"android":"levelo://app?vid=078c8d6a-6a18-480a-9826-cb5f26ba0dcb","ios":"levelo://app?vid=078c8d6a-6a18-480a-9826-cb5f26ba0dcb"},"vehicle_type_id":"4","last_reported":1774352214,"current_range_meters":3200,"station_id":"ce4bhhh2rcd13ifvqfk0","pricing_plan_id":"cebpf4jnsgd1na2vs0mg"},{"bike_id":"d800c613-ad48-4197-9627-52b5164a5a60","system_id":"levelo_inurba_marseille","lat":43.23177,"lon":5.43686,"is_reserved":false,"is_disabled":false,"rental_uris":{"android":"levelo://app?vid=d800c613-ad48-4197-9627-52b5164a5a60","ios":"levelo://app?vid=d800c613-ad48-4197-9627-52b5164a5a60"},"vehicle_type_id":"4","last_reported":1774352214,"current_range_meters":3200,"station_id":"ce4bhmp2rcd13ifvqgog","pricing_plan_id":"cebpf4jnsgd1na2vs0mg"},{"bike_id":"0c1af71c-ad3d-4cf7-9f47-43fef6dbb5a3","system_id":"levelo_inurba_marseille","lat":43.31134,"lon":5.38643,"is_reserved":false,"is_disabled":false,"rental_uris":{"android":"levelo://app?vid=0c1af71c-ad3d-4cf7-9f47-43fef6dbb5a3","ios":"levelo://app?vid=0c1af71c-ad3d-4cf7-9f47-43fef6dbb5a3"},"vehicle_type_id":"4","last_reported":1774352214,"current_range_meters":3200,"station_id":"","pricing_plan_id":"cebpf4jnsgd1na2vs0mg"},{"bike_id":"367af1bf-1843-48c7-85dc-f03c91195391","system_id":"levelo_inurba_marseille","lat":43.30638,"lon":5.40098,"is_reserved":false,"is_disabled":false,"rental_uris":{"android":"levelo://app?vid=367af1bf-1843-48c7-85dc-f03c91195391","ios":"levelo://app?vid=367af1bf-1843-48c7-85dc-f03c91195391"},"vehicle_type_id":"4","last_reported":1774352214,"current_range_meters":3600,"station_id":"ce4bh112rcd13ifvqda0","pricing_plan_id":"cebpf4jnsgd1na2vs0mg"},{"bike_id":"a5543d89-1bbf-4cb7-a185-2d1901007a9d","system_id":"levelo_inurba_marseille","lat":43.262,"lon":5.37929,"is_reserved":false,"is_disabled":false,"rental_uris":{"android":"levelo://app?vid=a5543d89-1bbf-4cb7-a185-2d1901007a9d","ios":"levelo://app?vid=a5543d89-1bbf-4cb7-a185-2d1901007a9d"},"vehicle_type_id":"4","last_reported":1774352214,"current_range_meters":3600,"station_id":"ce4bhjp2rcd13ifvqg90","pricing_plan_id":"cebpf4jnsgd1na2vs0mg"},{"bike_id":"63fb6336-17f6-4435-9585-e8e9f8fc71fb","system_id":"levelo_inurba_marseille","lat":43.23158,"lon":5.43715,"is_reserved":false,"is_disabled":false,"rental_uris":{"android":"levelo://app?vid=63fb6336-17f6-4435-9585-e8e9f8fc71fb","ios":"levelo://app?vid=63fb6336-17f6-4435-9585-e8e9f8fc71fb"},"vehicle_type_id":"4","last_reported":1774352214,"current_range_meters":3600,"station_id":"ce4bhmp2rcd13ifvqgog","pricing_plan_id":"cebpf4jnsgd1na2vs0mg"},{"bike_id":"f88785b3-6943-4637-92b7-314729fe3c58","system_id":"levelo_inurba_marseille","lat":43.30835,"lon":5.3828,"is_reserved":false,"is_disabled":false,"rental_uris":{"android":"levelo://app?vid=f88785b3-6943-4637-92b7-314729fe3c58","ios":"levelo://app?vid=f88785b3-6943-4637-92b7-314729fe3c58"},"vehicle_type_id":"4","last_reported":1774352214,"current_range_meters":3600,"station_id":"","pricing_plan_id":"cebpf4jnsgd1na2vs0mg"},{"bike_id":"ffb98fb8-da98-43fb-9eac-ddb2ee1141c2","system_id":"levelo_inurba_marseille","lat":43.24634,"lon":5.4164,"is_reserved":false,"is_disabled":false,"rental_uris":{"android":"levelo://app?vid=ffb98fb8-da98-43fb-9eac-ddb2ee1141c2","ios":"levelo://app?vid=ffb98fb8-da98-43fb-9eac-ddb2ee1141c2"},"vehicle_type_id":"4","last_reported":1774352214,"current_range_meters":3600,"station_id":"","pricing_plan_id":"cebpf4jnsgd1na2vs0mg"},{"bike_id":"f554888c-9515-430c-b3e9-327a4cc15db0","system_id":"levelo_inurba_marseille","lat":43.2964,"lon":5.42423,"is_reserved":false,"is_disabled":false,"rental_uris":{"android":"levelo://app?vid=f554888c-9515-430c-b3e9-327a4cc15db0","ios":"levelo://app?vid=f554888c-9515-430c-b3e9-327a4cc15db0"},"vehicle_type_id":"4","last_reported":1774352214,"current_range_meters":3600,"station_id":"","pricing_plan_id":"cebpf4jnsgd1na2vs0mg"},{"bike_id":"6a361988-483c-4fea-b668-fae45fefb959","system_id":"levelo_inurba_marseille","lat":43.32139,"lon":5.36804,"is_reserved":false,"is_disabled":false,"rental_uris":{"android":"levelo://app?vid=6a361988-483c-4fea-b668-fae45fefb959","ios":"levelo://app?vid=6a361988-483c-4fea-b668-fae45fefb959"},"vehicle_type_id":"4","last_reported":1774352214,"current_range_meters":4000,"station_id":"","pricing_plan_id":"cebpf4jnsgd1na2vs0mg"},{"bike_id":"8a067a40-2b29-4806-a830-bffb2dfb8e57","system_id":"levelo_inurba_marseille","lat":43.26583,"lon":5.37269,"is_reserved":false,"is_disabled":false,"rental_uris":{"android":"levelo://app?vid=8a067a40-2b29-4806-a830-bffb2dfb8e57","ios":"levelo://app?vid=8a067a40-2b29-4806-a830-bffb2dfb8e57"},"vehicle_type_id":"4","last_reported":1774352214,"current_range_meters":4000,"station_id":"ce4bhg12rcd13ifvqf70","pricing_plan_id":"cebpf4jnsgd1na2vs0mg"},{"bike_id":"134ec09b-de3e-41f0-93c9-aa86737c6894","system_id":"levelo_inurba_marseille","lat":43.32488,"lon":5.38302,"is_reserved":false,"is_disabled":false,"rental_uris":{"android":"levelo://app?vid=134ec09b-de3e-41f0-93c9-aa86737c6894","ios":"levelo://app?vid=134ec09b-de3e-41f0-93c9-aa86737c6894"},"vehicle_type_id":"4","last_reported":1774352214,"current_range_meters":4000,"station_id":"st_d4asgbiv49dc73anf9m0","pricing_plan_id":"cebpf4jnsgd1na2vs0mg"},{"bike_id":"1e1db994-b280-49e0-bd9d-89157eb4f87b","system_id":"levelo_inurba_marseille","lat":43.29925,"lon":5.37481,"is_reserved":false,"is_disabled":false,"rental_uris":{"android":"levelo://app?vid=1e1db994-b280-49e0-bd9d-89157eb4f87b","ios":"levelo://app?vid=1e1db994-b280-49e0-bd9d-89157eb4f87b"},"vehicle_type_id":"4","last_reported":1774352214,"current_range_meters":4000,"station_id":"ce4bgjh2rcd13ifvqbg0","pricing_plan_id":"cebpf4jnsgd1na2vs0mg"},{"bike_id":"d3d926ad-63f2-4adb-a058-3d3cf4d0d377","system_id":"levelo_inurba_marseille","lat":43.286168,"lon":5.350978,"is_reserved":false,"is_disabled":false,"rental_uris":{"android":"levelo://app?vid=d3d926ad-63f2-4adb-a058-3d3cf4d0d377","ios":"levelo://app?vid=d3d926ad-63f2-4adb-a058-3d3cf4d0d377"},"vehicle_type_id":"4","last_reported":1774352214,"current_range_meters":4000,"station_id":"ce4bhch2rcd13ifvqeug","pricing_plan_id":"cebpf4jnsgd1na2vs0mg"},{"bike_id":"87cab354-e36c-4dc9-949d-1832434988fa","system_id":"levelo_inurba_marseille","lat":43.31302,"lon":5.38429,"is_reserved":false,"is_disabled":false,"rental_uris":{"android":"levelo://app?vid=87cab354-e36c-4dc9-949d-1832434988fa","ios":"levelo://app?vid=87cab354-e36c-4dc9-949d-1832434988fa"},"vehicle_type_id":"4","last_reported":1774352214,"current_range_meters":4000,"station_id":"","pricing_plan_id":"cebpf4jnsgd1na2vs0mg"},{"bike_id":"4d88734a-162e-4307-92a3-61e5ee7aa63f","system_id":"levelo_inurba_marseille","lat":43.29205,"lon":5.42586,"is_reserved":false,"is_disabled":true,"rental_uris":{"android":"levelo://app?vid=4d88734a-162e-4307-92a3-61e5ee7aa63f","ios":"levelo://app?vid=4d88734a-162e-4307-92a3-61e5ee7aa63f"},"vehicle_type_id":"4","last_reported":1774352214,"current_range_meters":4000,"station_id":"","pricing_plan_id":"cebpf4jnsgd1na2vs0mg"},{"bike_id":"9f8c5aae-214b-4b16-b28e-49c211477f37","system_id":"levelo_inurba_marseille","lat":43.28557,"lon":5.44068,"is_reserved":false,"is_disabled":false,"rental_uris":{"android":"levelo://app?vid=9f8c5aae-214b-4b16-b28e-49c211477f37","ios":"levelo://app?vid=9f8c5aae-214b-4b16-b28e-49c211477f37"},"vehicle_type_id":"4","last_reported":1774352214,"current_range_meters":4000,"station_id":"st_d3j3df2ikq2c7380ej80","pricing_plan_id":"cebpf4jnsgd1na2vs0mg"},{"bike_id":"d882c5f0-6d30-468c-89d5-352032b15473","system_id":"levelo_inurba_marseille","lat":43.23254,"lon":5.35474,"is_reserved":false,"is_disabled":false,"rental_uris":{"android":"levelo://app?vid=d882c5f0-6d30-468c-89d5-352032b15473","ios":"levelo://app?vid=d882c5f0-6d30-468c-89d5-352032b15473"},"vehicle_type_id":"4","last_reported":1774352214,"current_range_meters":4000,"station_id":"","pricing_plan_id":"cebpf4jnsgd1na2vs0mg"},{"bike_id":"43e533cf-9b26-44c4-be7e-ee1dae392786","system_id":"levelo_inurba_marseille","lat":43.26373,"lon":5.41084,"is_reserved":false,"is_disabled":false,"rental_uris":{"android":"levelo://app?vid=43e533cf-9b26-44c4-be7e-ee1dae392786","ios":"levelo://app?vid=43e533cf-9b26-44c4-be7e-ee1dae392786"},"vehicle_type_id":"4","last_reported":1774352214,"current_range_meters":4000,"station_id":"st_d4e5ca6na9uc73bfl5fg","pricing_plan_id":"cebpf4jnsgd1na2vs0mg"},{"bike_id":"17ecb8f1-df4c-49b8-9174-4fdee094aaf6","system_id":"levelo_inurba_marseille","lat":43.26548,"lon":5.37288,"is_reserved":false,"is_disabled":false,"rental_uris":{"android":"levelo://app?vid=17ecb8f1-df4c-49b8-9174-4fdee094aaf6","ios":"levelo://app?vid=17ecb8f1-df4c-49b8-9174-4fdee094aaf6"},"vehicle_type_id":"4","last_reported":1774352214,"current_range_meters":4000,"station_id":"ce4bhg12rcd13ifvqf70","pricing_plan_id":"cebpf4jnsgd1na2vs0mg"},{"bike_id":"bf5af6f8-69a5-4b76-be3f-994c76781739","system_id":"levelo_inurba_marseille","lat":43.26554,"lon":5.39041,"is_reserved":false,"is_disabled":true,"rental_uris":{"android":"levelo://app?vid=bf5af6f8-69a5-4b76-be3f-994c76781739","ios":"levelo://app?vid=bf5af6f8-69a5-4b76-be3f-994c76781739"},"vehicle_type_id":"4","last_reported":1774352214,"current_range_meters":4400,"station_id":"ce4bhe12rcd13ifvqf30","pricing_plan_id":"cebpf4jnsgd1na2vs0mg"},{"bike_id":"2a5f80a6-a530-40e8-8b57-fb3c7d7e0c72","system_id":"levelo_inurba_marseille","lat":43.25943,"lon":5.40883,"is_reserved":false,"is_disabled":false,"rental_uris":{"android":"levelo://app?vid=2a5f80a6-a530-40e8-8b57-fb3c7d7e0c72","ios":"levelo://app?vid=2a5f80a6-a530-40e8-8b57-fb3c7d7e0c72"},"vehicle_type_id":"4","last_reported":1774352214,"current_range_meters":4400,"station_id":"ce4bhm92rcd13ifvqglg","pricing_plan_id":"cebpf4jnsgd1na2vs0mg"},{"bike_id":"bbb20be4-a4e3-4756-bf9e-de6efa0abbb9","system_id":"levelo_inurba_marseille","lat":43.29196,"lon":5.42559,"is_reserved":false,"is_disabled":false,"rental_uris":{"android":"levelo://app?vid=bbb20be4-a4e3-4756-bf9e-de6efa0abbb9","ios":"levelo://app?vid=bbb20be4-a4e3-4756-bf9e-de6efa0abbb9"},"vehicle_type_id":"4","last_reported":1774352214,"current_range_meters":4400,"station_id":"","pricing_plan_id":"cebpf4jnsgd1na2vs0mg"},{"bike_id":"c0ede030-ab9a-4615-a9c7-01479ac5ac50","system_id":"levelo_inurba_marseille","lat":43.26707,"lon":5.38248,"is_reserved":false,"is_disabled":false,"rental_uris":{"android":"levelo://app?vid=c0ede030-ab9a-4615-a9c7-01479ac5ac50","ios":"levelo://app?vid=c0ede030-ab9a-4615-a9c7-01479ac5ac50"},"vehicle_type_id":"4","last_reported":1774352214,"current_range_meters":4400,"station_id":"ce4bhg92rcd13ifvqf90","pricing_plan_id":"cebpf4jnsgd1na2vs0mg"},{"bike_id":"0add2a96-b6be-483b-ad2e-88265dc5481b","system_id":"levelo_inurba_marseille","lat":43.23897,"lon":5.37453,"is_reserved":false,"is_disabled":false,"rental_uris":{"android":"levelo://app?vid=0add2a96-b6be-483b-ad2e-88265dc5481b","ios":"levelo://app?vid=0add2a96-b6be-483b-ad2e-88265dc5481b"},"vehicle_type_id":"4","last_reported":1774352214,"current_range_meters":4400,"station_id":"st_d6sm7csbq4hs73f8fpjg","pricing_plan_id":"cebpf4jnsgd1na2vs0mg"},{"bike_id":"cb985f98-6888-4f97-be87-3eb753f98117","system_id":"levelo_inurba_marseille","lat":43.27567,"lon":5.38426,"is_reserved":false,"is_disabled":false,"rental_uris":{"android":"levelo://app?vid=cb985f98-6888-4f97-be87-3eb753f98117","ios":"levelo://app?vid=cb985f98-6888-4f97-be87-3eb753f98117"},"vehicle_type_id":"4","last_reported":1774352214,"current_range_meters":4400,"station_id":"ce4bhh92rcd13ifvqfi0","pricing_plan_id":"cebpf4jnsgd1na2vs0mg"},{"bike_id":"f7e664bc-8cfe-465d-9dbe-128ca982aa9c","system_id":"levelo_inurba_marseille","lat":43.25009,"lon":5.38893,"is_reserved":false,"is_disabled":false,"rental_uris":{"android":"levelo://app?vid=f7e664bc-8cfe-465d-9dbe-128ca982aa9c","ios":"levelo://app?vid=f7e664bc-8cfe-465d-9dbe-128ca982aa9c"},"vehicle_type_id":"4","last_reported":1774352214,"current_range_meters":4800,"station_id":"ce4bhgp2rcd13ifvqfd0","pricing_plan_id":"cebpf4jnsgd1na2vs0mg"},{"bike_id":"315c98bd-e218-4c25-876a-d6ca913e4738","system_id":"levelo_inurba_marseille","lat":43.29975,"lon":5.38885,"is_reserved":false,"is_disabled":false,"rental_uris":{"android":"levelo://app?vid=315c98bd-e218-4c25-876a-d6ca913e4738","ios":"levelo://app?vid=315c98bd-e218-4c25-876a-d6ca913e4738"},"vehicle_type_id":"4","last_reported":1774352214,"current_range_meters":4800,"station_id":"","pricing_plan_id":"cebpf4jnsgd1na2vs0mg"},{"bike_id":"f7fa1ad5-099f-49b7-ba3e-26442c9181b9","system_id":"levelo_inurba_marseille","lat":43.3054,"lon":5.36534,"is_reserved":false,"is_disabled":false,"rental_uris":{"android":"levelo://app?vid=f7fa1ad5-099f-49b7-ba3e-26442c9181b9","ios":"levelo://app?vid=f7fa1ad5-099f-49b7-ba3e-26442c9181b9"},"vehicle_type_id":"4","last_reported":1774352214,"current_range_meters":4800,"station_id":"ce4bgs12rcd13ifvqcag","pricing_plan_id":"cebpf4jnsgd1na2vs0mg"},{"bike_id":"7f703957-1dd4-482f-8904-932ed05e2ea5","system_id":"levelo_inurba_marseille","lat":43.29978,"lon":5.38472,"is_reserved":false,"is_disabled":false,"rental_uris":{"android":"levelo://app?vid=7f703957-1dd4-482f-8904-932ed05e2ea5","ios":"levelo://app?vid=7f703957-1dd4-482f-8904-932ed05e2ea5"},"vehicle_type_id":"4","last_reported":1774352214,"current_range_meters":4800,"station_id":"ce4bgj92rcd13ifvqbd0","pricing_plan_id":"cebpf4jnsgd1na2vs0mg"},{"bike_id":"44fa29ca-b862-4a84-b5f1-7a9b20cec0fc","system_id":"levelo_inurba_marseille","lat":43.23152,"lon":5.43714,"is_reserved":false,"is_disabled":false,"rental_uris":{"android":"levelo://app?vid=44fa29ca-b862-4a84-b5f1-7a9b20cec0fc","ios":"levelo://app?vid=44fa29ca-b862-4a84-b5f1-7a9b20cec0fc"},"vehicle_type_id":"4","last_reported":1774352214,"current_range_meters":4800,"station_id":"ce4bhmp2rcd13ifvqgog","pricing_plan_id":"cebpf4jnsgd1na2vs0mg"},{"bike_id":"c97824ac-19ae-436f-ab9f-bdb41afb9968","system_id":"levelo_inurba_marseille","lat":43.29873,"lon":5.38902,"is_reserved":false,"is_disabled":false,"rental_uris":{"android":"levelo://app?vid=c97824ac-19ae-436f-ab9f-bdb41afb9968","ios":"levelo://app?vid=c97824ac-19ae-436f-ab9f-bdb41afb9968"},"vehicle_type_id":"4","last_reported":1774352214,"current_range_meters":4800,"station_id":"ce4bh392rcd13ifvqdl0","pricing_plan_id":"cebpf4jnsgd1na2vs0mg"},{"bike_id":"98aa1c8a-7d98-4320-b367-9e51480a2f7e","system_id":"levelo_inurba_marseille","lat":43.33539,"lon":5.37472,"is_reserved":false,"is_disabled":false,"rental_uris":{"android":"levelo://app?vid=98aa1c8a-7d98-4320-b367-9e51480a2f7e","ios":"levelo://app?vid=98aa1c8a-7d98-4320-b367-9e51480a2f7e"},"vehicle_type_id":"4","last_reported":1774352214,"current_range_meters":4800,"station_id":"","pricing_plan_id":"cebpf4jnsgd1na2vs0mg"},{"bike_id":"f186bad8-5bed-4bb3-8e6b-283c87fad25e","system_id":"levelo_inurba_marseille","lat":43.27375,"lon":5.36258,"is_reserved":false,"is_disabled":false,"rental_uris":{"android":"levelo://app?vid=f186bad8-5bed-4bb3-8e6b-283c87fad25e","ios":"levelo://app?vid=f186bad8-5bed-4bb3-8e6b-283c87fad25e"},"vehicle_type_id":"4","last_reported":1774352214,"current_range_meters":4800,"station_id":"ce4bhbh2rcd13ifvqeo0","pricing_plan_id":"cebpf4jnsgd1na2vs0mg"},{"bike_id":"eb7a7f56-5fe1-4638-8414-2f94a8aa7efb","system_id":"levelo_inurba_marseille","lat":43.30956,"lon":5.39033,"is_reserved":false,"is_disabled":false,"rental_uris":{"android":"levelo://app?vid=eb7a7f56-5fe1-4638-8414-2f94a8aa7efb","ios":"levelo://app?vid=eb7a7f56-5fe1-4638-8414-2f94a8aa7efb"},"vehicle_type_id":"4","last_reported":1774352214,"current_range_meters":5600,"station_id":"ce4bgup2rcd13ifvqco0","pricing_plan_id":"cebpf4jnsgd1na2vs0mg"},{"bike_id":"67fa727b-a75e-43f5-8f7f-0420dd73f369","system_id":"levelo_inurba_marseille","lat":43.31481,"lon":5.37292,"is_reserved":false,"is_disabled":false,"rental_uris":{"android":"levelo://app?vid=67fa727b-a75e-43f5-8f7f-0420dd73f369","ios":"levelo://app?vid=67fa727b-a75e-43f5-8f7f-0420dd73f369"},"vehicle_type_id":"4","last_reported":1774352214,"current_range_meters":5600,"station_id":"ce4bgt12rcd13ifvqcd0","pricing_plan_id":"cebpf4jnsgd1na2vs0mg"},{"bike_id":"d2260517-36eb-498b-95a6-a249410b03cf","system_id":"levelo_inurba_marseille","lat":43.26572,"lon":5.3982,"is_reserved":false,"is_disabled":false,"rental_uris":{"android":"levelo://app?vid=d2260517-36eb-498b-95a6-a249410b03cf","ios":"levelo://app?vid=d2260517-36eb-498b-95a6-a249410b03cf"},"vehicle_type_id":"4","last_reported":1774352214,"current_range_meters":5600,"station_id":"","pricing_plan_id":"cebpf4jnsgd1na2vs0mg"},{"bike_id":"72bc71b1-30b8-4cb9-a499-36ec1318b046","system_id":"levelo_inurba_marseille","lat":43.26929,"lon":5.38913,"is_reserved":false,"is_disabled":false,"rental_uris":{"android":"levelo://app?vid=72bc71b1-30b8-4cb9-a499-36ec1318b046","ios":"levelo://app?vid=72bc71b1-30b8-4cb9-a499-36ec1318b046"},"vehicle_type_id":"4","last_reported":1774352214,"current_range_meters":5600,"station_id":"ce4bhhh2rcd13ifvqfl0","pricing_plan_id":"cebpf4jnsgd1na2vs0mg"},{"bike_id":"141066b1-5234-40af-9c07-ec152c8edc09","system_id":"levelo_inurba_marseille","lat":43.32057,"lon":5.41558,"is_reserved":false,"is_disabled":false,"rental_uris":{"android":"levelo://app?vid=141066b1-5234-40af-9c07-ec152c8edc09","ios":"levelo://app?vid=141066b1-5234-40af-9c07-ec152c8edc09"},"vehicle_type_id":"4","last_reported":1774352214,"current_range_meters":6000,"station_id":"ce4bhq92rcd13ifvqhkg","pricing_plan_id":"cebpf4jnsgd1na2vs0mg"},{"bike_id":"9ee9e783-2c85-4849-91db-12992211c84e","system_id":"levelo_inurba_marseille","lat":43.23156,"lon":5.43694,"is_reserved":false,"is_disabled":false,"rental_uris":{"android":"levelo://app?vid=9ee9e783-2c85-4849-91db-12992211c84e","ios":"levelo://app?vid=9ee9e783-2c85-4849-91db-12992211c84e"},"vehicle_type_id":"4","last_reported":1774352214,"current_range_meters":6000,"station_id":"ce4bhmp2rcd13ifvqgog","pricing_plan_id":"cebpf4jnsgd1na2vs0mg"},{"bike_id":"a2fabdf4-bd61-4352-82b4-201f5349c59d","system_id":"levelo_inurba_marseille","lat":43.26559,"lon":5.39015,"is_reserved":false,"is_disabled":true,"rental_uris":{"android":"levelo://app?vid=a2fabdf4-bd61-4352-82b4-201f5349c59d","ios":"levelo://app?vid=a2fabdf4-bd61-4352-82b4-201f5349c59d"},"vehicle_type_id":"4","last_reported":1774352214,"current_range_meters":6000,"station_id":"ce4bhe12rcd13ifvqf30","pricing_plan_id":"cebpf4jnsgd1na2vs0mg"},{"bike_id":"2f502975-a390-4073-b153-a56892e056fa","system_id":"levelo_inurba_marseille","lat":43.33763,"lon":5.3743,"is_reserved":false,"is_disabled":false,"rental_uris":{"android":"levelo://app?vid=2f502975-a390-4073-b153-a56892e056fa","ios":"levelo://app?vid=2f502975-a390-4073-b153-a56892e056fa"},"vehicle_type_id":"4","last_reported":1774352214,"current_range_meters":6000,"station_id":"","pricing_plan_id":"cebpf4jnsgd1na2vs0mg"},{"bike_id":"e41c893a-4032-48f3-bf3a-8efcbfe1465c","system_id":"levelo_inurba_marseille","lat":43.25841,"lon":5.39435,"is_reserved":false,"is_disabled":true,"rental_uris":{"android":"levelo://app?vid=e41c893a-4032-48f3-bf3a-8efcbfe1465c","ios":"levelo://app?vid=e41c893a-4032-48f3-bf3a-8efcbfe1465c"},"vehicle_type_id":"4","last_reported":1774352214,"current_range_meters":6000,"station_id":"ce4bhip2rcd13ifvqft0","pricing_plan_id":"cebpf4jnsgd1na2vs0mg"},{"bike_id":"1d0f3067-7ca2-4fbd-8b40-b921c6748a4a","system_id":"levelo_inurba_marseille","lat":43.28472,"lon":5.48386,"is_reserved":false,"is_disabled":false,"rental_uris":{"android":"levelo://app?vid=1d0f3067-7ca2-4fbd-8b40-b921c6748a4a","ios":"levelo://app?vid=1d0f3067-7ca2-4fbd-8b40-b921c6748a4a"},"vehicle_type_id":"4","last_reported":1774352214,"current_range_meters":6000,"station_id":"","pricing_plan_id":"cebpf4jnsgd1na2vs0mg"},{"bike_id":"72999db3-62c4-4d6b-9c7f-3129997c7dc6","system_id":"levelo_inurba_marseille","lat":43.28134,"lon":5.4095,"is_reserved":false,"is_disabled":false,"rental_uris":{"android":"levelo://app?vid=72999db3-62c4-4d6b-9c7f-3129997c7dc6","ios":"levelo://app?vid=72999db3-62c4-4d6b-9c7f-3129997c7dc6"},"vehicle_type_id":"4","last_reported":1774352214,"current_range_meters":6000,"station_id":"","pricing_plan_id":"cebpf4jnsgd1na2vs0mg"},{"bike_id":"24c84d75-5402-4596-8ac9-65f26b73e6f9","system_id":"levelo_inurba_marseille","lat":43.29727,"lon":5.37691,"is_reserved":false,"is_disabled":false,"rental_uris":{"android":"levelo://app?vid=24c84d75-5402-4596-8ac9-65f26b73e6f9","ios":"levelo://app?vid=24c84d75-5402-4596-8ac9-65f26b73e6f9"},"vehicle_type_id":"4","last_reported":1774352214,"current_range_meters":6000,"station_id":"ce4bgkh2rcd13ifvqbl0","pricing_plan_id":"cebpf4jnsgd1na2vs0mg"},{"bike_id":"2800d3ae-4516-415c-9215-32d251476b25","system_id":"levelo_inurba_marseille","lat":43.30392,"lon":5.42467,"is_reserved":false,"is_disabled":false,"rental_uris":{"android":"levelo://app?vid=2800d3ae-4516-415c-9215-32d251476b25","ios":"levelo://app?vid=2800d3ae-4516-415c-9215-32d251476b25"},"vehicle_type_id":"4","last_reported":1774352214,"current_range_meters":6000,"station_id":"ce4bghh2rcd13ifvqb60","pricing_plan_id":"cebpf4jnsgd1na2vs0mg"},{"bike_id":"ddd19851-2813-4f37-ad2a-16ff941ac458","system_id":"levelo_inurba_marseille","lat":43.26942,"lon":5.40241,"is_reserved":false,"is_disabled":false,"rental_uris":{"android":"levelo://app?vid=ddd19851-2813-4f37-ad2a-16ff941ac458","ios":"levelo://app?vid=ddd19851-2813-4f37-ad2a-16ff941ac458"},"vehicle_type_id":"4","last_reported":1774352214,"current_range_meters":6000,"station_id":"cjm6bp8fraef2m0cb0m0","pricing_plan_id":"cebpf4jnsgd1na2vs0mg"},{"bike_id":"03394cc4-9f83-46b9-9edc-9e258f5f55ad","system_id":"levelo_inurba_marseille","lat":43.217526,"lon":5.34599,"is_reserved":false,"is_disabled":false,"rental_uris":{"android":"levelo://app?vid=03394cc4-9f83-46b9-9edc-9e258f5f55ad","ios":"levelo://app?vid=03394cc4-9f83-46b9-9edc-9e258f5f55ad"},"vehicle_type_id":"4","last_reported":1774352214,"current_range_meters":6000,"station_id":"st_cvj6r9ubvosntc0bgbag","pricing_plan_id":"cebpf4jnsgd1na2vs0mg"},{"bike_id":"4978bd98-dfa6-4af8-982b-1cf2f5d8f956","system_id":"levelo_inurba_marseille","lat":43.29844,"lon":5.36263,"is_reserved":false,"is_disabled":false,"rental_uris":{"android":"levelo://app?vid=4978bd98-dfa6-4af8-982b-1cf2f5d8f956","ios":"levelo://app?vid=4978bd98-dfa6-4af8-982b-1cf2f5d8f956"},"vehicle_type_id":"4","last_reported":1774352214,"current_range_meters":6000,"station_id":"ce4bgpp2rcd13ifvqc3g","pricing_plan_id":"cebpf4jnsgd1na2vs0mg"},{"bike_id":"7b0b1471-211e-4cd2-ac8c-fedbeaa65604","system_id":"levelo_inurba_marseille","lat":43.30122,"lon":5.43115,"is_reserved":false,"is_disabled":false,"rental_uris":{"android":"levelo://app?vid=7b0b1471-211e-4cd2-ac8c-fedbeaa65604","ios":"levelo://app?vid=7b0b1471-211e-4cd2-ac8c-fedbeaa65604"},"vehicle_type_id":"4","last_reported":1774352214,"current_range_meters":6000,"station_id":"st_d3js3co5814s73ftftug","pricing_plan_id":"cebpf4jnsgd1na2vs0mg"},{"bike_id":"bbcec521-b2cb-4752-a30b-3cc813f9ce07","system_id":"levelo_inurba_marseille","lat":43.28766,"lon":5.44799,"is_reserved":false,"is_disabled":false,"rental_uris":{"android":"levelo://app?vid=bbcec521-b2cb-4752-a30b-3cc813f9ce07","ios":"levelo://app?vid=bbcec521-b2cb-4752-a30b-3cc813f9ce07"},"vehicle_type_id":"4","last_reported":1774352214,"current_range_meters":6000,"station_id":"","pricing_plan_id":"cebpf4jnsgd1na2vs0mg"},{"bike_id":"40906df4-17dd-4d9f-ac1f-0880c5eb117e","system_id":"levelo_inurba_marseille","lat":43.32363,"lon":5.36771,"is_reserved":false,"is_disabled":false,"rental_uris":{"android":"levelo://app?vid=40906df4-17dd-4d9f-ac1f-0880c5eb117e","ios":"levelo://app?vid=40906df4-17dd-4d9f-ac1f-0880c5eb117e"},"vehicle_type_id":"4","last_reported":1774352214,"current_range_meters":6400,"station_id":"ce4bhsh2rcd13ifvqi2g","pricing_plan_id":"cebpf4jnsgd1na2vs0mg"},{"bike_id":"34092ada-d338-4cdd-b261-4a35252d5ee6","system_id":"levelo_inurba_marseille","lat":43.30146,"lon":5.38086,"is_reserved":false,"is_disabled":false,"rental_uris":{"android":"levelo://app?vid=34092ada-d338-4cdd-b261-4a35252d5ee6","ios":"levelo://app?vid=34092ada-d338-4cdd-b261-4a35252d5ee6"},"vehicle_type_id":"4","last_reported":1774352214,"current_range_meters":6400,"station_id":"ce4bgjp2rcd13ifvqbh0","pricing_plan_id":"cebpf4jnsgd1na2vs0mg"},{"bike_id":"a9fcd02c-7b6b-4ad8-a39d-d88606ee3ac0","system_id":"levelo_inurba_marseille","lat":43.24996,"lon":5.3889,"is_reserved":false,"is_disabled":true,"rental_uris":{"android":"levelo://app?vid=a9fcd02c-7b6b-4ad8-a39d-d88606ee3ac0","ios":"levelo://app?vid=a9fcd02c-7b6b-4ad8-a39d-d88606ee3ac0"},"vehicle_type_id":"4","last_reported":1774352214,"current_range_meters":6400,"station_id":"ce4bhgp2rcd13ifvqfd0","pricing_plan_id":"cebpf4jnsgd1na2vs0mg"},{"bike_id":"2352ec73-5b12-4d16-b788-5149145b1708","system_id":"levelo_inurba_marseille","lat":43.303104,"lon":5.392157,"is_reserved":false,"is_disabled":false,"rental_uris":{"android":"levelo://app?vid=2352ec73-5b12-4d16-b788-5149145b1708","ios":"levelo://app?vid=2352ec73-5b12-4d16-b788-5149145b1708"},"vehicle_type_id":"4","last_reported":1774352214,"current_range_meters":6400,"station_id":"ce4bgkh2rcd13ifvqbk0","pricing_plan_id":"cebpf4jnsgd1na2vs0mg"},{"bike_id":"984079ef-dac2-4f3d-839e-069af9ca9a81","system_id":"levelo_inurba_marseille","lat":43.280084,"lon":5.399997,"is_reserved":false,"is_disabled":false,"rental_uris":{"android":"levelo://app?vid=984079ef-dac2-4f3d-839e-069af9ca9a81","ios":"levelo://app?vid=984079ef-dac2-4f3d-839e-069af9ca9a81"},"vehicle_type_id":"4","last_reported":1774352214,"current_range_meters":6400,"station_id":"ce4bho92rcd13ifvqh4g","pricing_plan_id":"cebpf4jnsgd1na2vs0mg"},{"bike_id":"e19dd65f-07b2-4279-aa03-239f724f30b8","system_id":"levelo_inurba_marseille","lat":43.24072,"lon":5.37737,"is_reserved":false,"is_disabled":false,"rental_uris":{"android":"levelo://app?vid=e19dd65f-07b2-4279-aa03-239f724f30b8","ios":"levelo://app?vid=e19dd65f-07b2-4279-aa03-239f724f30b8"},"vehicle_type_id":"4","last_reported":1774352214,"current_range_meters":6400,"station_id":"ce4bhnp2rcd13ifvqgvg","pricing_plan_id":"cebpf4jnsgd1na2vs0mg"},{"bike_id":"e3b76d08-9638-41fb-992e-9889dd2115d8","system_id":"levelo_inurba_marseille","lat":43.33605,"lon":5.41026,"is_reserved":false,"is_disabled":false,"rental_uris":{"android":"levelo://app?vid=e3b76d08-9638-41fb-992e-9889dd2115d8","ios":"levelo://app?vid=e3b76d08-9638-41fb-992e-9889dd2115d8"},"vehicle_type_id":"4","last_reported":1774352214,"current_range_meters":6400,"station_id":"ce4bhqh2rcd13ifvqhmg","pricing_plan_id":"cebpf4jnsgd1na2vs0mg"},{"bike_id":"4ce98637-072f-4197-bd69-11f207a88eab","system_id":"levelo_inurba_marseille","lat":43.28496,"lon":5.47279,"is_reserved":false,"is_disabled":false,"rental_uris":{"android":"levelo://app?vid=4ce98637-072f-4197-bd69-11f207a88eab","ios":"levelo://app?vid=4ce98637-072f-4197-bd69-11f207a88eab"},"vehicle_type_id":"4","last_reported":1774352214,"current_range_meters":6400,"station_id":"","pricing_plan_id":"cebpf4jnsgd1na2vs0mg"},{"bike_id":"69a34fac-fc80-43dc-bb66-91eee3bdfb90","system_id":"levelo_inurba_marseille","lat":43.28762,"lon":5.35324,"is_reserved":false,"is_disabled":false,"rental_uris":{"android":"levelo://app?vid=69a34fac-fc80-43dc-bb66-91eee3bdfb90","ios":"levelo://app?vid=69a34fac-fc80-43dc-bb66-91eee3bdfb90"},"vehicle_type_id":"4","last_reported":1774352214,"current_range_meters":6400,"station_id":"","pricing_plan_id":"cebpf4jnsgd1na2vs0mg"},{"bike_id":"77b55392-11a5-41e2-b78d-8ff901690675","system_id":"levelo_inurba_marseille","lat":43.27846,"lon":5.3922,"is_reserved":false,"is_disabled":false,"rental_uris":{"android":"levelo://app?vid=77b55392-11a5-41e2-b78d-8ff901690675","ios":"levelo://app?vid=77b55392-11a5-41e2-b78d-8ff901690675"},"vehicle_type_id":"4","last_reported":1774352214,"current_range_meters":6400,"station_id":"ce4bhjp2rcd13ifvqga0","pricing_plan_id":"cebpf4jnsgd1na2vs0mg"},{"bike_id":"6e12c744-c386-4fad-befe-29eb201902c0","system_id":"levelo_inurba_marseille","lat":43.2534,"lon":5.42178,"is_reserved":false,"is_disabled":false,"rental_uris":{"android":"levelo://app?vid=6e12c744-c386-4fad-befe-29eb201902c0","ios":"levelo://app?vid=6e12c744-c386-4fad-befe-29eb201902c0"},"vehicle_type_id":"4","last_reported":1774352214,"current_range_meters":6400,"station_id":"","pricing_plan_id":"cebpf4jnsgd1na2vs0mg"},{"bike_id":"83ba9a27-1ffd-46e6-b6cd-44c9db3f84fb","system_id":"levelo_inurba_marseille","lat":43.24949,"lon":5.4048,"is_reserved":false,"is_disabled":false,"rental_uris":{"android":"levelo://app?vid=83ba9a27-1ffd-46e6-b6cd-44c9db3f84fb","ios":"levelo://app?vid=83ba9a27-1ffd-46e6-b6cd-44c9db3f84fb"},"vehicle_type_id":"4","last_reported":1774352214,"current_range_meters":6400,"station_id":"st_d2ngiaodas8pm72gd1h0","pricing_plan_id":"cebpf4jnsgd1na2vs0mg"},{"bike_id":"d89b1915-483d-4d09-b44a-47b8df915eef","system_id":"levelo_inurba_marseille","lat":43.23093,"lon":5.35487,"is_reserved":false,"is_disabled":false,"rental_uris":{"android":"levelo://app?vid=d89b1915-483d-4d09-b44a-47b8df915eef","ios":"levelo://app?vid=d89b1915-483d-4d09-b44a-47b8df915eef"},"vehicle_type_id":"4","last_reported":1774352214,"current_range_meters":6400,"station_id":"cpo3342slgdg3j2ifvpg","pricing_plan_id":"cebpf4jnsgd1na2vs0mg"},{"bike_id":"32ed0dee-ba1b-4333-b81c-24ef318fabae","system_id":"levelo_inurba_marseille","lat":43.30215,"lon":5.39457,"is_reserved":false,"is_disabled":false,"rental_uris":{"android":"levelo://app?vid=32ed0dee-ba1b-4333-b81c-24ef318fabae","ios":"levelo://app?vid=32ed0dee-ba1b-4333-b81c-24ef318fabae"},"vehicle_type_id":"4","last_reported":1774352214,"current_range_meters":6400,"station_id":"ce4bh0p2rcd13ifvqd70","pricing_plan_id":"cebpf4jnsgd1na2vs0mg"},{"bike_id":"4a8ea3b0-1d96-4768-a200-f4fcc9fdb159","system_id":"levelo_inurba_marseille","lat":43.29025,"lon":5.38643,"is_reserved":false,"is_disabled":false,"rental_uris":{"android":"levelo://app?vid=4a8ea3b0-1d96-4768-a200-f4fcc9fdb159","ios":"levelo://app?vid=4a8ea3b0-1d96-4768-a200-f4fcc9fdb159"},"vehicle_type_id":"4","last_reported":1774352214,"current_range_meters":6800,"station_id":"ce4bh4p2rcd13ifvqe0g","pricing_plan_id":"cebpf4jnsgd1na2vs0mg"},{"bike_id":"9ddaaee9-1e7f-4253-8534-99f8caa64526","system_id":"levelo_inurba_marseille","lat":43.2694,"lon":5.40249,"is_reserved":false,"is_disabled":false,"rental_uris":{"android":"levelo://app?vid=9ddaaee9-1e7f-4253-8534-99f8caa64526","ios":"levelo://app?vid=9ddaaee9-1e7f-4253-8534-99f8caa64526"},"vehicle_type_id":"4","last_reported":1774352214,"current_range_meters":6800,"station_id":"cjm6bp8fraef2m0cb0m0","pricing_plan_id":"cebpf4jnsgd1na2vs0mg"},{"bike_id":"294a0ae4-8dd5-42da-b113-f8ac9debf169","system_id":"levelo_inurba_marseille","lat":43.29972,"lon":5.38492,"is_reserved":false,"is_disabled":true,"rental_uris":{"android":"levelo://app?vid=294a0ae4-8dd5-42da-b113-f8ac9debf169","ios":"levelo://app?vid=294a0ae4-8dd5-42da-b113-f8ac9debf169"},"vehicle_type_id":"4","last_reported":1774352214,"current_range_meters":6800,"station_id":"ce4bgj92rcd13ifvqbd0","pricing_plan_id":"cebpf4jnsgd1na2vs0mg"},{"bike_id":"f910acab-e234-4475-91c9-ec3fea6d1bf3","system_id":"levelo_inurba_marseille","lat":43.29898,"lon":5.4366,"is_reserved":false,"is_disabled":false,"rental_uris":{"android":"levelo://app?vid=f910acab-e234-4475-91c9-ec3fea6d1bf3","ios":"levelo://app?vid=f910acab-e234-4475-91c9-ec3fea6d1bf3"},"vehicle_type_id":"4","last_reported":1774352214,"current_range_meters":6800,"station_id":"ce4bhpp2rcd13ifvqhfg","pricing_plan_id":"cebpf4jnsgd1na2vs0mg"},{"bike_id":"723e7a23-5678-4097-b3d4-28ccc2fdcf61","system_id":"levelo_inurba_marseille","lat":43.28619,"lon":5.35098,"is_reserved":false,"is_disabled":false,"rental_uris":{"android":"levelo://app?vid=723e7a23-5678-4097-b3d4-28ccc2fdcf61","ios":"levelo://app?vid=723e7a23-5678-4097-b3d4-28ccc2fdcf61"},"vehicle_type_id":"4","last_reported":1774352214,"current_range_meters":6800,"station_id":"ce4bhch2rcd13ifvqeug","pricing_plan_id":"cebpf4jnsgd1na2vs0mg"},{"bike_id":"80eab0a9-c843-4605-a833-c586c3d79ce2","system_id":"levelo_inurba_marseille","lat":43.317033,"lon":5.377334,"is_reserved":false,"is_disabled":false,"rental_uris":{"android":"levelo://app?vid=80eab0a9-c843-4605-a833-c586c3d79ce2","ios":"levelo://app?vid=80eab0a9-c843-4605-a833-c586c3d79ce2"},"vehicle_type_id":"4","last_reported":1774352214,"current_range_meters":6800,"station_id":"ce4bgth2rcd13ifvqch0","pricing_plan_id":"cebpf4jnsgd1na2vs0mg"},{"bike_id":"e777dc2e-9308-43c6-a6be-09685ee35cc2","system_id":"levelo_inurba_marseille","lat":43.28545,"lon":5.44087,"is_reserved":false,"is_disabled":false,"rental_uris":{"android":"levelo://app?vid=e777dc2e-9308-43c6-a6be-09685ee35cc2","ios":"levelo://app?vid=e777dc2e-9308-43c6-a6be-09685ee35cc2"},"vehicle_type_id":"4","last_reported":1774352214,"current_range_meters":6800,"station_id":"st_d3j3df2ikq2c7380ej80","pricing_plan_id":"cebpf4jnsgd1na2vs0mg"},{"bike_id":"aa929685-e4dd-4a31-a1c6-979463fa81a3","system_id":"levelo_inurba_marseille","lat":43.28479,"lon":5.484,"is_reserved":false,"is_disabled":false,"rental_uris":{"android":"levelo://app?vid=aa929685-e4dd-4a31-a1c6-979463fa81a3","ios":"levelo://app?vid=aa929685-e4dd-4a31-a1c6-979463fa81a3"},"vehicle_type_id":"4","last_reported":1774352214,"current_range_meters":6800,"station_id":"st_d3svhcjqgbts73a3dn0g","pricing_plan_id":"cebpf4jnsgd1na2vs0mg"},{"bike_id":"27a8af3f-7682-4429-85af-8d74282bd1de","system_id":"levelo_inurba_marseille","lat":43.30534,"lon":5.3652,"is_reserved":false,"is_disabled":false,"rental_uris":{"android":"levelo://app?vid=27a8af3f-7682-4429-85af-8d74282bd1de","ios":"levelo://app?vid=27a8af3f-7682-4429-85af-8d74282bd1de"},"vehicle_type_id":"4","last_reported":1774352214,"current_range_meters":6800,"station_id":"ce4bgs12rcd13ifvqcag","pricing_plan_id":"cebpf4jnsgd1na2vs0mg"},{"bike_id":"9be37a25-79de-43c2-b934-7db63853cf20","system_id":"levelo_inurba_marseille","lat":43.26535,"lon":5.37312,"is_reserved":false,"is_disabled":false,"rental_uris":{"android":"levelo://app?vid=9be37a25-79de-43c2-b934-7db63853cf20","ios":"levelo://app?vid=9be37a25-79de-43c2-b934-7db63853cf20"},"vehicle_type_id":"4","last_reported":1774352214,"current_range_meters":6800,"station_id":"ce4bhg12rcd13ifvqf70","pricing_plan_id":"cebpf4jnsgd1na2vs0mg"},{"bike_id":"8dfc04c0-eee0-4fe8-8102-5f741a39e134","system_id":"levelo_inurba_marseille","lat":43.26208,"lon":5.37439,"is_reserved":false,"is_disabled":false,"rental_uris":{"android":"levelo://app?vid=8dfc04c0-eee0-4fe8-8102-5f741a39e134","ios":"levelo://app?vid=8dfc04c0-eee0-4fe8-8102-5f741a39e134"},"vehicle_type_id":"4","last_reported":1774352214,"current_range_meters":6800,"station_id":"ce4bhgp2rcd13ifvqfc0","pricing_plan_id":"cebpf4jnsgd1na2vs0mg"},{"bike_id":"9c134060-ad13-414a-9d07-f82217cebe13","system_id":"levelo_inurba_marseille","lat":43.23885,"lon":5.37452,"is_reserved":false,"is_disabled":false,"rental_uris":{"android":"levelo://app?vid=9c134060-ad13-414a-9d07-f82217cebe13","ios":"levelo://app?vid=9c134060-ad13-414a-9d07-f82217cebe13"},"vehicle_type_id":"4","last_reported":1774352214,"current_range_meters":6800,"station_id":"st_d6sm7csbq4hs73f8fpjg","pricing_plan_id":"cebpf4jnsgd1na2vs0mg"},{"bike_id":"82aadc8f-eda7-4252-b082-5aefae0edd2f","system_id":"levelo_inurba_marseille","lat":43.26684,"lon":5.38287,"is_reserved":false,"is_disabled":false,"rental_uris":{"android":"levelo://app?vid=82aadc8f-eda7-4252-b082-5aefae0edd2f","ios":"levelo://app?vid=82aadc8f-eda7-4252-b082-5aefae0edd2f"},"vehicle_type_id":"4","last_reported":1774352214,"current_range_meters":6800,"station_id":"ce4bhg92rcd13ifvqf90","pricing_plan_id":"cebpf4jnsgd1na2vs0mg"},{"bike_id":"0e2f4137-e82a-401c-945f-6a1c7c098239","system_id":"levelo_inurba_marseille","lat":43.29618,"lon":5.37142,"is_reserved":false,"is_disabled":false,"rental_uris":{"android":"levelo://app?vid=0e2f4137-e82a-401c-945f-6a1c7c098239","ios":"levelo://app?vid=0e2f4137-e82a-401c-945f-6a1c7c098239"},"vehicle_type_id":"4","last_reported":1774352214,"current_range_meters":7200,"station_id":"ce4bgnh2rcd13ifvqc0g","pricing_plan_id":"cebpf4jnsgd1na2vs0mg"},{"bike_id":"b75036ac-d81d-4bfd-a9c8-a051a6ff39fe","system_id":"levelo_inurba_marseille","lat":43.28529,"lon":5.44126,"is_reserved":false,"is_disabled":false,"rental_uris":{"android":"levelo://app?vid=b75036ac-d81d-4bfd-a9c8-a051a6ff39fe","ios":"levelo://app?vid=b75036ac-d81d-4bfd-a9c8-a051a6ff39fe"},"vehicle_type_id":"4","last_reported":1774352214,"current_range_meters":7200,"station_id":"st_d3j3df2ikq2c7380ej80","pricing_plan_id":"cebpf4jnsgd1na2vs0mg"},{"bike_id":"5c941c2b-f0fa-4f64-af96-831f9028136a","system_id":"levelo_inurba_marseille","lat":43.32228,"lon":5.37123,"is_reserved":false,"is_disabled":false,"rental_uris":{"android":"levelo://app?vid=5c941c2b-f0fa-4f64-af96-831f9028136a","ios":"levelo://app?vid=5c941c2b-f0fa-4f64-af96-831f9028136a"},"vehicle_type_id":"4","last_reported":1774352214,"current_range_meters":7200,"station_id":"","pricing_plan_id":"cebpf4jnsgd1na2vs0mg"},{"bike_id":"77deb619-deef-42c1-ade2-8dca83a843fb","system_id":"levelo_inurba_marseille","lat":43.29487,"lon":5.43302,"is_reserved":false,"is_disabled":false,"rental_uris":{"android":"levelo://app?vid=77deb619-deef-42c1-ade2-8dca83a843fb","ios":"levelo://app?vid=77deb619-deef-42c1-ade2-8dca83a843fb"},"vehicle_type_id":"4","last_reported":1774352214,"current_range_meters":7200,"station_id":"st_d3j5ugp08ojc73fj9d10","pricing_plan_id":"cebpf4jnsgd1na2vs0mg"},{"bike_id":"543b6845-6387-4a4b-bb16-a06562514fb1","system_id":"levelo_inurba_marseille","lat":43.311182,"lon":5.377873,"is_reserved":false,"is_disabled":true,"rental_uris":{"android":"levelo://app?vid=543b6845-6387-4a4b-bb16-a06562514fb1","ios":"levelo://app?vid=543b6845-6387-4a4b-bb16-a06562514fb1"},"vehicle_type_id":"4","last_reported":1774352214,"current_range_meters":7200,"station_id":"ce4bgt92rcd13ifvqcg0","pricing_plan_id":"cebpf4jnsgd1na2vs0mg"},{"bike_id":"6c1d0e87-6224-41c4-b6f0-420c2a470c80","system_id":"levelo_inurba_marseille","lat":43.30433,"lon":5.38893,"is_reserved":false,"is_disabled":false,"rental_uris":{"android":"levelo://app?vid=6c1d0e87-6224-41c4-b6f0-420c2a470c80","ios":"levelo://app?vid=6c1d0e87-6224-41c4-b6f0-420c2a470c80"},"vehicle_type_id":"4","last_reported":1774352214,"current_range_meters":7200,"station_id":"ce4bgk12rcd13ifvqbi0","pricing_plan_id":"cebpf4jnsgd1na2vs0mg"},{"bike_id":"098144e5-733b-42c7-b084-7ac44619c48e","system_id":"levelo_inurba_marseille","lat":43.30562,"lon":5.36516,"is_reserved":false,"is_disabled":false,"rental_uris":{"android":"levelo://app?vid=098144e5-733b-42c7-b084-7ac44619c48e","ios":"levelo://app?vid=098144e5-733b-42c7-b084-7ac44619c48e"},"vehicle_type_id":"4","last_reported":1774352214,"current_range_meters":7200,"station_id":"ce4bgs12rcd13ifvqcag","pricing_plan_id":"cebpf4jnsgd1na2vs0mg"},{"bike_id":"c7463a25-23c4-41d8-806f-209aa4df409c","system_id":"levelo_inurba_marseille","lat":43.28279,"lon":5.35052,"is_reserved":false,"is_disabled":false,"rental_uris":{"android":"levelo://app?vid=c7463a25-23c4-41d8-806f-209aa4df409c","ios":"levelo://app?vid=c7463a25-23c4-41d8-806f-209aa4df409c"},"vehicle_type_id":"4","last_reported":1774352214,"current_range_meters":7200,"station_id":"ce4bhbp2rcd13ifvqerg","pricing_plan_id":"cebpf4jnsgd1na2vs0mg"},{"bike_id":"29f49a32-ba08-40ef-839e-89650b416d04","system_id":"levelo_inurba_marseille","lat":43.3104,"lon":5.37917,"is_reserved":false,"is_disabled":false,"rental_uris":{"android":"levelo://app?vid=29f49a32-ba08-40ef-839e-89650b416d04","ios":"levelo://app?vid=29f49a32-ba08-40ef-839e-89650b416d04"},"vehicle_type_id":"4","last_reported":1774352214,"current_range_meters":7200,"station_id":"","pricing_plan_id":"cebpf4jnsgd1na2vs0mg"},{"bike_id":"5cca4b32-612b-471f-a02d-66912cbe70ff","system_id":"levelo_inurba_marseille","lat":43.21191,"lon":5.3507,"is_reserved":false,"is_disabled":true,"rental_uris":{"android":"levelo://app?vid=5cca4b32-612b-471f-a02d-66912cbe70ff","ios":"levelo://app?vid=5cca4b32-612b-471f-a02d-66912cbe70ff"},"vehicle_type_id":"4","last_reported":1774352214,"current_range_meters":7200,"station_id":"st_cvj6sg6p6f1abm77japg","pricing_plan_id":"cebpf4jnsgd1na2vs0mg"},{"bike_id":"c3fb6ac0-526f-4836-98cf-d46bdb9ad792","system_id":"levelo_inurba_marseille","lat":43.31049,"lon":5.37162,"is_reserved":false,"is_disabled":false,"rental_uris":{"android":"levelo://app?vid=c3fb6ac0-526f-4836-98cf-d46bdb9ad792","ios":"levelo://app?vid=c3fb6ac0-526f-4836-98cf-d46bdb9ad792"},"vehicle_type_id":"4","last_reported":1774352214,"current_range_meters":7200,"station_id":"st_d4kl2rp97mjs73e7tdfg","pricing_plan_id":"cebpf4jnsgd1na2vs0mg"},{"bike_id":"f35a9644-f102-427c-8b00-579a35988db3","system_id":"levelo_inurba_marseille","lat":43.21203,"lon":5.35065,"is_reserved":false,"is_disabled":false,"rental_uris":{"android":"levelo://app?vid=f35a9644-f102-427c-8b00-579a35988db3","ios":"levelo://app?vid=f35a9644-f102-427c-8b00-579a35988db3"},"vehicle_type_id":"4","last_reported":1774352214,"current_range_meters":7200,"station_id":"st_cvj6sg6p6f1abm77japg","pricing_plan_id":"cebpf4jnsgd1na2vs0mg"},{"bike_id":"0d489b01-590f-434e-9649-624f92bba9bb","system_id":"levelo_inurba_marseille","lat":43.23196,"lon":5.35536,"is_reserved":false,"is_disabled":false,"rental_uris":{"android":"levelo://app?vid=0d489b01-590f-434e-9649-624f92bba9bb","ios":"levelo://app?vid=0d489b01-590f-434e-9649-624f92bba9bb"},"vehicle_type_id":"4","last_reported":1774352214,"current_range_meters":7200,"station_id":"ce4bhu92rcd13ifvqi70","pricing_plan_id":"cebpf4jnsgd1na2vs0mg"},{"bike_id":"17c1f954-7ef7-4a5f-844e-17131e305a89","system_id":"levelo_inurba_marseille","lat":43.23893,"lon":5.37456,"is_reserved":false,"is_disabled":false,"rental_uris":{"android":"levelo://app?vid=17c1f954-7ef7-4a5f-844e-17131e305a89","ios":"levelo://app?vid=17c1f954-7ef7-4a5f-844e-17131e305a89"},"vehicle_type_id":"4","last_reported":1774352214,"current_range_meters":7200,"station_id":"st_d6sm7csbq4hs73f8fpjg","pricing_plan_id":"cebpf4jnsgd1na2vs0mg"},{"bike_id":"29a311a2-8c83-4778-b76c-56070b790302","system_id":"levelo_inurba_marseille","lat":43.27086,"lon":5.4228,"is_reserved":false,"is_disabled":false,"rental_uris":{"android":"levelo://app?vid=29a311a2-8c83-4778-b76c-56070b790302","ios":"levelo://app?vid=29a311a2-8c83-4778-b76c-56070b790302"},"vehicle_type_id":"4","last_reported":1774352214,"current_range_meters":7200,"station_id":"ce4bhk92rcd13ifvqgb0","pricing_plan_id":"cebpf4jnsgd1na2vs0mg"},{"bike_id":"7e03e45c-d69c-4371-8267-aa26cde43729","system_id":"levelo_inurba_marseille","lat":43.25566,"lon":5.38234,"is_reserved":false,"is_disabled":true,"rental_uris":{"android":"levelo://app?vid=7e03e45c-d69c-4371-8267-aa26cde43729","ios":"levelo://app?vid=7e03e45c-d69c-4371-8267-aa26cde43729"},"vehicle_type_id":"4","last_reported":1774352214,"current_range_meters":7200,"station_id":"ce4bhih2rcd13ifvqfs0","pricing_plan_id":"cebpf4jnsgd1na2vs0mg"},{"bike_id":"04e42d2b-817b-4033-8935-148ae7f53cb4","system_id":"levelo_inurba_marseille","lat":43.28204,"lon":5.39041,"is_reserved":false,"is_disabled":true,"rental_uris":{"android":"levelo://app?vid=04e42d2b-817b-4033-8935-148ae7f53cb4","ios":"levelo://app?vid=04e42d2b-817b-4033-8935-148ae7f53cb4"},"vehicle_type_id":"4","last_reported":1774352214,"current_range_meters":7200,"station_id":"ce4bhn92rcd13ifvqgsg","pricing_plan_id":"cebpf4jnsgd1na2vs0mg"},{"bike_id":"e3639a64-f841-40c2-9d27-776257788ada","system_id":"levelo_inurba_marseille","lat":43.23146,"lon":5.43729,"is_reserved":false,"is_disabled":false,"rental_uris":{"android":"levelo://app?vid=e3639a64-f841-40c2-9d27-776257788ada","ios":"levelo://app?vid=e3639a64-f841-40c2-9d27-776257788ada"},"vehicle_type_id":"4","last_reported":1774352214,"current_range_meters":7200,"station_id":"ce4bhmp2rcd13ifvqgog","pricing_plan_id":"cebpf4jnsgd1na2vs0mg"},{"bike_id":"a9670e18-acb0-4a64-b6c8-a94f1a233db6","system_id":"levelo_inurba_marseille","lat":43.28272,"lon":5.3507,"is_reserved":false,"is_disabled":false,"rental_uris":{"android":"levelo://app?vid=a9670e18-acb0-4a64-b6c8-a94f1a233db6","ios":"levelo://app?vid=a9670e18-acb0-4a64-b6c8-a94f1a233db6"},"vehicle_type_id":"4","last_reported":1774352214,"current_range_meters":7200,"station_id":"ce4bhbp2rcd13ifvqerg","pricing_plan_id":"cebpf4jnsgd1na2vs0mg"},{"bike_id":"dc6b5f99-fae1-4f22-a1a9-6f28e41db96e","system_id":"levelo_inurba_marseille","lat":43.31491,"lon":5.37292,"is_reserved":false,"is_disabled":false,"rental_uris":{"android":"levelo://app?vid=dc6b5f99-fae1-4f22-a1a9-6f28e41db96e","ios":"levelo://app?vid=dc6b5f99-fae1-4f22-a1a9-6f28e41db96e"},"vehicle_type_id":"4","last_reported":1774352214,"current_range_meters":7200,"station_id":"ce4bgt12rcd13ifvqcd0","pricing_plan_id":"cebpf4jnsgd1na2vs0mg"},{"bike_id":"63ecf3e2-b359-4df6-b223-76ae007149f8","system_id":"levelo_inurba_marseille","lat":43.2954,"lon":5.37477,"is_reserved":false,"is_disabled":false,"rental_uris":{"android":"levelo://app?vid=63ecf3e2-b359-4df6-b223-76ae007149f8","ios":"levelo://app?vid=63ecf3e2-b359-4df6-b223-76ae007149f8"},"vehicle_type_id":"4","last_reported":1774352214,"current_range_meters":7200,"station_id":"ce4bgkp2rcd13ifvqbmg","pricing_plan_id":"cebpf4jnsgd1na2vs0mg"},{"bike_id":"583e6688-0d97-472a-b1ec-7a756df95af0","system_id":"levelo_inurba_marseille","lat":43.29612,"lon":5.3671,"is_reserved":false,"is_disabled":false,"rental_uris":{"android":"levelo://app?vid=583e6688-0d97-472a-b1ec-7a756df95af0","ios":"levelo://app?vid=583e6688-0d97-472a-b1ec-7a756df95af0"},"vehicle_type_id":"4","last_reported":1774352214,"current_range_meters":8000,"station_id":"ce4bgph2rcd13ifvqc2g","pricing_plan_id":"cebpf4jnsgd1na2vs0mg"},{"bike_id":"edda675a-b62b-421d-aa8f-95ea6d9ae219","system_id":"levelo_inurba_marseille","lat":43.315,"lon":5.37281,"is_reserved":false,"is_disabled":false,"rental_uris":{"android":"levelo://app?vid=edda675a-b62b-421d-aa8f-95ea6d9ae219","ios":"levelo://app?vid=edda675a-b62b-421d-aa8f-95ea6d9ae219"},"vehicle_type_id":"4","last_reported":1774352214,"current_range_meters":8000,"station_id":"ce4bgt12rcd13ifvqcd0","pricing_plan_id":"cebpf4jnsgd1na2vs0mg"},{"bike_id":"8e331d09-f777-47e4-a327-164db2e188a9","system_id":"levelo_inurba_marseille","lat":43.2657,"lon":5.40319,"is_reserved":false,"is_disabled":true,"rental_uris":{"android":"levelo://app?vid=8e331d09-f777-47e4-a327-164db2e188a9","ios":"levelo://app?vid=8e331d09-f777-47e4-a327-164db2e188a9"},"vehicle_type_id":"4","last_reported":1774352214,"current_range_meters":8000,"station_id":"ce4bhmp2rcd13ifvqgng","pricing_plan_id":"cebpf4jnsgd1na2vs0mg"},{"bike_id":"ff47fefb-b748-4cb1-b5ff-b0a348769fe4","system_id":"levelo_inurba_marseille","lat":43.30172,"lon":5.38071,"is_reserved":false,"is_disabled":false,"rental_uris":{"android":"levelo://app?vid=ff47fefb-b748-4cb1-b5ff-b0a348769fe4","ios":"levelo://app?vid=ff47fefb-b748-4cb1-b5ff-b0a348769fe4"},"vehicle_type_id":"4","last_reported":1774352214,"current_range_meters":8000,"station_id":"ce4bgjp2rcd13ifvqbh0","pricing_plan_id":"cebpf4jnsgd1na2vs0mg"},{"bike_id":"253bfbd1-c3f6-4b72-a716-55890f3b4db7","system_id":"levelo_inurba_marseille","lat":43.28473,"lon":5.48391,"is_reserved":false,"is_disabled":false,"rental_uris":{"android":"levelo://app?vid=253bfbd1-c3f6-4b72-a716-55890f3b4db7","ios":"levelo://app?vid=253bfbd1-c3f6-4b72-a716-55890f3b4db7"},"vehicle_type_id":"4","last_reported":1774352214,"current_range_meters":8000,"station_id":"","pricing_plan_id":"cebpf4jnsgd1na2vs0mg"},{"bike_id":"6a4c75b2-52d6-426f-ae33-fc60cb0a291a","system_id":"levelo_inurba_marseille","lat":43.30277,"lon":5.37717,"is_reserved":false,"is_disabled":false,"rental_uris":{"android":"levelo://app?vid=6a4c75b2-52d6-426f-ae33-fc60cb0a291a","ios":"levelo://app?vid=6a4c75b2-52d6-426f-ae33-fc60cb0a291a"},"vehicle_type_id":"4","last_reported":1774352214,"current_range_meters":8000,"station_id":"ce4bguh2rcd13ifvqcj0","pricing_plan_id":"cebpf4jnsgd1na2vs0mg"},{"bike_id":"229e923f-c796-4bd8-b7b3-ce5ffe925edd","system_id":"levelo_inurba_marseille","lat":43.29383,"lon":5.37845,"is_reserved":false,"is_disabled":false,"rental_uris":{"android":"levelo://app?vid=229e923f-c796-4bd8-b7b3-ce5ffe925edd","ios":"levelo://app?vid=229e923f-c796-4bd8-b7b3-ce5ffe925edd"},"vehicle_type_id":"4","last_reported":1774352214,"current_range_meters":8000,"station_id":"ce4bgjh2rcd13ifvqbf0","pricing_plan_id":"cebpf4jnsgd1na2vs0mg"},{"bike_id":"0b786319-6d9f-4d1c-890a-5150198e272a","system_id":"levelo_inurba_marseille","lat":43.28478,"lon":5.484,"is_reserved":false,"is_disabled":false,"rental_uris":{"android":"levelo://app?vid=0b786319-6d9f-4d1c-890a-5150198e272a","ios":"levelo://app?vid=0b786319-6d9f-4d1c-890a-5150198e272a"},"vehicle_type_id":"4","last_reported":1774352214,"current_range_meters":8000,"station_id":"st_d3svhcjqgbts73a3dn0g","pricing_plan_id":"cebpf4jnsgd1na2vs0mg"},{"bike_id":"0c922e19-2322-44a8-932a-8cdb0d8863ed","system_id":"levelo_inurba_marseille","lat":43.243849,"lon":5.370609,"is_reserved":false,"is_disabled":false,"rental_uris":{"android":"levelo://app?vid=0c922e19-2322-44a8-932a-8cdb0d8863ed","ios":"levelo://app?vid=0c922e19-2322-44a8-932a-8cdb0d8863ed"},"vehicle_type_id":"4","last_reported":1774352214,"current_range_meters":8000,"station_id":"ce4bhhh2rcd13ifvqfk0","pricing_plan_id":"cebpf4jnsgd1na2vs0mg"},{"bike_id":"efa8a9e2-d0f9-4774-bd46-4f0acd088750","system_id":"levelo_inurba_marseille","lat":43.30819,"lon":5.39981,"is_reserved":false,"is_disabled":false,"rental_uris":{"android":"levelo://app?vid=efa8a9e2-d0f9-4774-bd46-4f0acd088750","ios":"levelo://app?vid=efa8a9e2-d0f9-4774-bd46-4f0acd088750"},"vehicle_type_id":"4","last_reported":1774352214,"current_range_meters":8000,"station_id":"","pricing_plan_id":"cebpf4jnsgd1na2vs0mg"},{"bike_id":"36481b72-8503-4640-a688-f49f74ef521c","system_id":"levelo_inurba_marseille","lat":43.26551,"lon":5.37284,"is_reserved":false,"is_disabled":false,"rental_uris":{"android":"levelo://app?vid=36481b72-8503-4640-a688-f49f74ef521c","ios":"levelo://app?vid=36481b72-8503-4640-a688-f49f74ef521c"},"vehicle_type_id":"4","last_reported":1774352214,"current_range_meters":8000,"station_id":"ce4bhg12rcd13ifvqf70","pricing_plan_id":"cebpf4jnsgd1na2vs0mg"},{"bike_id":"f3dccb27-25f8-415f-8a8c-207408b72398","system_id":"levelo_inurba_marseille","lat":43.32023,"lon":5.3662,"is_reserved":false,"is_disabled":false,"rental_uris":{"android":"levelo://app?vid=f3dccb27-25f8-415f-8a8c-207408b72398","ios":"levelo://app?vid=f3dccb27-25f8-415f-8a8c-207408b72398"},"vehicle_type_id":"4","last_reported":1774352214,"current_range_meters":8000,"station_id":"","pricing_plan_id":"cebpf4jnsgd1na2vs0mg"},{"bike_id":"5ac4332e-454f-48c2-9a20-24e49f2ccb9d","system_id":"levelo_inurba_marseille","lat":43.29378,"lon":5.37842,"is_reserved":false,"is_disabled":false,"rental_uris":{"android":"levelo://app?vid=5ac4332e-454f-48c2-9a20-24e49f2ccb9d","ios":"levelo://app?vid=5ac4332e-454f-48c2-9a20-24e49f2ccb9d"},"vehicle_type_id":"4","last_reported":1774352214,"current_range_meters":8000,"station_id":"ce4bgjh2rcd13ifvqbf0","pricing_plan_id":"cebpf4jnsgd1na2vs0mg"},{"bike_id":"a6ccf754-1150-49b6-9b78-3f4df6c988b2","system_id":"levelo_inurba_marseille","lat":43.263784,"lon":5.410661,"is_reserved":false,"is_disabled":false,"rental_uris":{"android":"levelo://app?vid=a6ccf754-1150-49b6-9b78-3f4df6c988b2","ios":"levelo://app?vid=a6ccf754-1150-49b6-9b78-3f4df6c988b2"},"vehicle_type_id":"4","last_reported":1774352214,"current_range_meters":8000,"station_id":"st_d4e5ca6na9uc73bfl5fg","pricing_plan_id":"cebpf4jnsgd1na2vs0mg"},{"bike_id":"801aedc6-324f-46c7-8ddd-275b629d5f3c","system_id":"levelo_inurba_marseille","lat":43.28524,"lon":5.44101,"is_reserved":false,"is_disabled":false,"rental_uris":{"android":"levelo://app?vid=801aedc6-324f-46c7-8ddd-275b629d5f3c","ios":"levelo://app?vid=801aedc6-324f-46c7-8ddd-275b629d5f3c"},"vehicle_type_id":"4","last_reported":1774352214,"current_range_meters":8000,"station_id":"st_d3j3df2ikq2c7380ej80","pricing_plan_id":"cebpf4jnsgd1na2vs0mg"},{"bike_id":"c947c1b9-d2f0-45ad-8fad-dc3ee6710aa8","system_id":"levelo_inurba_marseille","lat":43.28929,"lon":5.38404,"is_reserved":false,"is_disabled":false,"rental_uris":{"android":"levelo://app?vid=c947c1b9-d2f0-45ad-8fad-dc3ee6710aa8","ios":"levelo://app?vid=c947c1b9-d2f0-45ad-8fad-dc3ee6710aa8"},"vehicle_type_id":"4","last_reported":1774352214,"current_range_meters":8000,"station_id":"ce4bh612rcd13ifvqe6g","pricing_plan_id":"cebpf4jnsgd1na2vs0mg"},{"bike_id":"aac16f30-8732-48f4-bb17-1bd0acbb479e","system_id":"levelo_inurba_marseille","lat":43.26578,"lon":5.37266,"is_reserved":false,"is_disabled":false,"rental_uris":{"android":"levelo://app?vid=aac16f30-8732-48f4-bb17-1bd0acbb479e","ios":"levelo://app?vid=aac16f30-8732-48f4-bb17-1bd0acbb479e"},"vehicle_type_id":"4","last_reported":1774352214,"current_range_meters":8400,"station_id":"ce4bhg12rcd13ifvqf70","pricing_plan_id":"cebpf4jnsgd1na2vs0mg"},{"bike_id":"577b128f-7e9b-4213-9dd9-20049cbeadd3","system_id":"levelo_inurba_marseille","lat":43.24675,"lon":5.38133,"is_reserved":false,"is_disabled":false,"rental_uris":{"android":"levelo://app?vid=577b128f-7e9b-4213-9dd9-20049cbeadd3","ios":"levelo://app?vid=577b128f-7e9b-4213-9dd9-20049cbeadd3"},"vehicle_type_id":"4","last_reported":1774352214,"current_range_meters":8400,"station_id":"ce4bhih2rcd13ifvqfr0","pricing_plan_id":"cebpf4jnsgd1na2vs0mg"},{"bike_id":"7b6c8f1e-bc5a-4218-9383-b05da73318e0","system_id":"levelo_inurba_marseille","lat":43.32363,"lon":5.3676,"is_reserved":false,"is_disabled":false,"rental_uris":{"android":"levelo://app?vid=7b6c8f1e-bc5a-4218-9383-b05da73318e0","ios":"levelo://app?vid=7b6c8f1e-bc5a-4218-9383-b05da73318e0"},"vehicle_type_id":"4","last_reported":1774352214,"current_range_meters":8400,"station_id":"ce4bhsh2rcd13ifvqi2g","pricing_plan_id":"cebpf4jnsgd1na2vs0mg"},{"bike_id":"21212254-e5a0-4af6-a45f-ed4c631ca773","system_id":"levelo_inurba_marseille","lat":43.25515,"lon":5.37656,"is_reserved":false,"is_disabled":false,"rental_uris":{"android":"levelo://app?vid=21212254-e5a0-4af6-a45f-ed4c631ca773","ios":"levelo://app?vid=21212254-e5a0-4af6-a45f-ed4c631ca773"},"vehicle_type_id":"4","last_reported":1774352214,"current_range_meters":8400,"station_id":"ce4bhh12rcd13ifvqff0","pricing_plan_id":"cebpf4jnsgd1na2vs0mg"},{"bike_id":"a14d2edd-85c5-4116-8db5-355e3fb2ddbe","system_id":"levelo_inurba_marseille","lat":43.33566,"lon":5.37421,"is_reserved":false,"is_disabled":false,"rental_uris":{"android":"levelo://app?vid=a14d2edd-85c5-4116-8db5-355e3fb2ddbe","ios":"levelo://app?vid=a14d2edd-85c5-4116-8db5-355e3fb2ddbe"},"vehicle_type_id":"4","last_reported":1774352214,"current_range_meters":8400,"station_id":"st_d46tts09ee8s73dlu43g","pricing_plan_id":"cebpf4jnsgd1na2vs0mg"},{"bike_id":"445a363e-6635-4c6f-9d9b-6ed1d223c4e8","system_id":"levelo_inurba_marseille","lat":43.29557,"lon":5.43889,"is_reserved":false,"is_disabled":false,"rental_uris":{"android":"levelo://app?vid=445a363e-6635-4c6f-9d9b-6ed1d223c4e8","ios":"levelo://app?vid=445a363e-6635-4c6f-9d9b-6ed1d223c4e8"},"vehicle_type_id":"4","last_reported":1774352214,"current_range_meters":8400,"station_id":"","pricing_plan_id":"cebpf4jnsgd1na2vs0mg"},{"bike_id":"066cfe81-714d-4a28-ba8d-e13baf5bbb1b","system_id":"levelo_inurba_marseille","lat":43.27266,"lon":5.41147,"is_reserved":false,"is_disabled":false,"rental_uris":{"android":"levelo://app?vid=066cfe81-714d-4a28-ba8d-e13baf5bbb1b","ios":"levelo://app?vid=066cfe81-714d-4a28-ba8d-e13baf5bbb1b"},"vehicle_type_id":"4","last_reported":1774352214,"current_range_meters":8400,"station_id":"","pricing_plan_id":"cebpf4jnsgd1na2vs0mg"},{"bike_id":"7f97ff93-a465-4a12-958c-3f0f1e1d17e6","system_id":"levelo_inurba_marseille","lat":43.23894,"lon":5.3746,"is_reserved":false,"is_disabled":false,"rental_uris":{"android":"levelo://app?vid=7f97ff93-a465-4a12-958c-3f0f1e1d17e6","ios":"levelo://app?vid=7f97ff93-a465-4a12-958c-3f0f1e1d17e6"},"vehicle_type_id":"4","last_reported":1774352214,"current_range_meters":8400,"station_id":"st_d6sm7csbq4hs73f8fpjg","pricing_plan_id":"cebpf4jnsgd1na2vs0mg"},{"bike_id":"5bd9aec4-f639-4190-9ebd-ffd6e8dfa9b4","system_id":"levelo_inurba_marseille","lat":43.31058,"lon":5.37171,"is_reserved":false,"is_disabled":false,"rental_uris":{"android":"levelo://app?vid=5bd9aec4-f639-4190-9ebd-ffd6e8dfa9b4","ios":"levelo://app?vid=5bd9aec4-f639-4190-9ebd-ffd6e8dfa9b4"},"vehicle_type_id":"4","last_reported":1774352214,"current_range_meters":8400,"station_id":"st_d4kl2rp97mjs73e7tdfg","pricing_plan_id":"cebpf4jnsgd1na2vs0mg"},{"bike_id":"19f1add8-fb4d-4df2-9f34-3abb6a2112fe","system_id":"levelo_inurba_marseille","lat":43.21194,"lon":5.35064,"is_reserved":false,"is_disabled":false,"rental_uris":{"android":"levelo://app?vid=19f1add8-fb4d-4df2-9f34-3abb6a2112fe","ios":"levelo://app?vid=19f1add8-fb4d-4df2-9f34-3abb6a2112fe"},"vehicle_type_id":"4","last_reported":1774352214,"current_range_meters":8400,"station_id":"st_cvj6sg6p6f1abm77japg","pricing_plan_id":"cebpf4jnsgd1na2vs0mg"},{"bike_id":"8aa507e7-e6bd-4861-b754-6c06023061cc","system_id":"levelo_inurba_marseille","lat":43.29692,"lon":5.38259,"is_reserved":false,"is_disabled":false,"rental_uris":{"android":"levelo://app?vid=8aa507e7-e6bd-4861-b754-6c06023061cc","ios":"levelo://app?vid=8aa507e7-e6bd-4861-b754-6c06023061cc"},"vehicle_type_id":"4","last_reported":1774352214,"current_range_meters":8400,"station_id":"","pricing_plan_id":"cebpf4jnsgd1na2vs0mg"},{"bike_id":"1cc5660e-1784-464b-8aeb-f6a12a8c6da9","system_id":"levelo_inurba_marseille","lat":43.29606,"lon":5.37704,"is_reserved":false,"is_disabled":false,"rental_uris":{"android":"levelo://app?vid=1cc5660e-1784-464b-8aeb-f6a12a8c6da9","ios":"levelo://app?vid=1cc5660e-1784-464b-8aeb-f6a12a8c6da9"},"vehicle_type_id":"4","last_reported":1774352214,"current_range_meters":8400,"station_id":"ce4bgi92rcd13ifvqb90","pricing_plan_id":"cebpf4jnsgd1na2vs0mg"},{"bike_id":"6711ca2b-9a4e-46b1-892e-1007cc2a656e","system_id":"levelo_inurba_marseille","lat":43.28534,"lon":5.44121,"is_reserved":false,"is_disabled":false,"rental_uris":{"android":"levelo://app?vid=6711ca2b-9a4e-46b1-892e-1007cc2a656e","ios":"levelo://app?vid=6711ca2b-9a4e-46b1-892e-1007cc2a656e"},"vehicle_type_id":"4","last_reported":1774352214,"current_range_meters":8400,"station_id":"st_d3j3df2ikq2c7380ej80","pricing_plan_id":"cebpf4jnsgd1na2vs0mg"},{"bike_id":"0edb33a8-c0c9-43cb-9d1e-abc2c62cd077","system_id":"levelo_inurba_marseille","lat":43.30971,"lon":5.39021,"is_reserved":false,"is_disabled":false,"rental_uris":{"android":"levelo://app?vid=0edb33a8-c0c9-43cb-9d1e-abc2c62cd077","ios":"levelo://app?vid=0edb33a8-c0c9-43cb-9d1e-abc2c62cd077"},"vehicle_type_id":"4","last_reported":1774352214,"current_range_meters":8400,"station_id":"ce4bgup2rcd13ifvqco0","pricing_plan_id":"cebpf4jnsgd1na2vs0mg"},{"bike_id":"5208ee98-7e4f-445b-9dbc-5d8fbec80d74","system_id":"levelo_inurba_marseille","lat":43.23373,"lon":5.41231,"is_reserved":false,"is_disabled":false,"rental_uris":{"android":"levelo://app?vid=5208ee98-7e4f-445b-9dbc-5d8fbec80d74","ios":"levelo://app?vid=5208ee98-7e4f-445b-9dbc-5d8fbec80d74"},"vehicle_type_id":"4","last_reported":1774352214,"current_range_meters":8400,"station_id":"","pricing_plan_id":"cebpf4jnsgd1na2vs0mg"},{"bike_id":"5ecae002-d94a-48c0-9c56-03698e32a88c","system_id":"levelo_inurba_marseille","lat":43.23906,"lon":5.37416,"is_reserved":false,"is_disabled":false,"rental_uris":{"android":"levelo://app?vid=5ecae002-d94a-48c0-9c56-03698e32a88c","ios":"levelo://app?vid=5ecae002-d94a-48c0-9c56-03698e32a88c"},"vehicle_type_id":"4","last_reported":1774352214,"current_range_meters":8400,"station_id":"st_d6sm7csbq4hs73f8fpjg","pricing_plan_id":"cebpf4jnsgd1na2vs0mg"},{"bike_id":"18911888-078d-4900-b574-66e9960b927c","system_id":"levelo_inurba_marseille","lat":43.26571,"lon":5.39013,"is_reserved":false,"is_disabled":false,"rental_uris":{"android":"levelo://app?vid=18911888-078d-4900-b574-66e9960b927c","ios":"levelo://app?vid=18911888-078d-4900-b574-66e9960b927c"},"vehicle_type_id":"4","last_reported":1774352214,"current_range_meters":8400,"station_id":"ce4bhe12rcd13ifvqf30","pricing_plan_id":"cebpf4jnsgd1na2vs0mg"},{"bike_id":"02a29044-af44-4ad0-ad60-be49d8de6622","system_id":"levelo_inurba_marseille","lat":43.29759,"lon":5.42779,"is_reserved":false,"is_disabled":false,"rental_uris":{"android":"levelo://app?vid=02a29044-af44-4ad0-ad60-be49d8de6622","ios":"levelo://app?vid=02a29044-af44-4ad0-ad60-be49d8de6622"},"vehicle_type_id":"4","last_reported":1774352214,"current_range_meters":8800,"station_id":"st_d3md5207bmas73dh9klg","pricing_plan_id":"cebpf4jnsgd1na2vs0mg"},{"bike_id":"4078e5c4-b784-4a81-827e-b1a58b5db34d","system_id":"levelo_inurba_marseille","lat":43.30535,"lon":5.36522,"is_reserved":false,"is_disabled":false,"rental_uris":{"android":"levelo://app?vid=4078e5c4-b784-4a81-827e-b1a58b5db34d","ios":"levelo://app?vid=4078e5c4-b784-4a81-827e-b1a58b5db34d"},"vehicle_type_id":"4","last_reported":1774352214,"current_range_meters":8800,"station_id":"ce4bgs12rcd13ifvqcag","pricing_plan_id":"cebpf4jnsgd1na2vs0mg"},{"bike_id":"1956b4b1-2733-4998-b5d8-2f8c7a4333e6","system_id":"levelo_inurba_marseille","lat":43.29655,"lon":5.37295,"is_reserved":false,"is_disabled":false,"rental_uris":{"android":"levelo://app?vid=1956b4b1-2733-4998-b5d8-2f8c7a4333e6","ios":"levelo://app?vid=1956b4b1-2733-4998-b5d8-2f8c7a4333e6"},"vehicle_type_id":"4","last_reported":1774352214,"current_range_meters":8800,"station_id":"ce4bgk12rcd13ifvqbj0","pricing_plan_id":"cebpf4jnsgd1na2vs0mg"},{"bike_id":"66a43d55-32c7-48fb-b013-3d7574d12857","system_id":"levelo_inurba_marseille","lat":43.25016,"lon":5.38911,"is_reserved":false,"is_disabled":true,"rental_uris":{"android":"levelo://app?vid=66a43d55-32c7-48fb-b013-3d7574d12857","ios":"levelo://app?vid=66a43d55-32c7-48fb-b013-3d7574d12857"},"vehicle_type_id":"4","last_reported":1774352214,"current_range_meters":8800,"station_id":"ce4bhgp2rcd13ifvqfd0","pricing_plan_id":"cebpf4jnsgd1na2vs0mg"},{"bike_id":"da6972b3-b161-480b-8ef0-1ff556fc7299","system_id":"levelo_inurba_marseille","lat":43.2379,"lon":5.36632,"is_reserved":false,"is_disabled":false,"rental_uris":{"android":"levelo://app?vid=da6972b3-b161-480b-8ef0-1ff556fc7299","ios":"levelo://app?vid=da6972b3-b161-480b-8ef0-1ff556fc7299"},"vehicle_type_id":"4","last_reported":1774352214,"current_range_meters":8800,"station_id":"st_d3nk18o9ro0c73en2l3g","pricing_plan_id":"cebpf4jnsgd1na2vs0mg"},{"bike_id":"b8d7a02a-f8e6-461d-88a3-e73fba899271","system_id":"levelo_inurba_marseille","lat":43.21752,"lon":5.34615,"is_reserved":false,"is_disabled":true,"rental_uris":{"android":"levelo://app?vid=b8d7a02a-f8e6-461d-88a3-e73fba899271","ios":"levelo://app?vid=b8d7a02a-f8e6-461d-88a3-e73fba899271"},"vehicle_type_id":"4","last_reported":1774352214,"current_range_meters":8800,"station_id":"st_cvj6r9ubvosntc0bgbag","pricing_plan_id":"cebpf4jnsgd1na2vs0mg"},{"bike_id":"ee0008af-b338-43bd-8cd8-01b4212c701e","system_id":"levelo_inurba_marseille","lat":43.30955,"lon":5.39091,"is_reserved":false,"is_disabled":false,"rental_uris":{"android":"levelo://app?vid=ee0008af-b338-43bd-8cd8-01b4212c701e","ios":"levelo://app?vid=ee0008af-b338-43bd-8cd8-01b4212c701e"},"vehicle_type_id":"4","last_reported":1774352214,"current_range_meters":8800,"station_id":"ce4bgup2rcd13ifvqco0","pricing_plan_id":"cebpf4jnsgd1na2vs0mg"},{"bike_id":"e8a0a083-9bc3-4467-929c-4e24dbde997f","system_id":"levelo_inurba_marseille","lat":43.29911,"lon":5.38139,"is_reserved":false,"is_disabled":false,"rental_uris":{"android":"levelo://app?vid=e8a0a083-9bc3-4467-929c-4e24dbde997f","ios":"levelo://app?vid=e8a0a083-9bc3-4467-929c-4e24dbde997f"},"vehicle_type_id":"4","last_reported":1774352214,"current_range_meters":8800,"station_id":"ce4bgj12rcd13ifvqbc0","pricing_plan_id":"cebpf4jnsgd1na2vs0mg"},{"bike_id":"7c59c074-6646-4968-803b-ea035a59d3f4","system_id":"levelo_inurba_marseille","lat":43.23788,"lon":5.36634,"is_reserved":false,"is_disabled":false,"rental_uris":{"android":"levelo://app?vid=7c59c074-6646-4968-803b-ea035a59d3f4","ios":"levelo://app?vid=7c59c074-6646-4968-803b-ea035a59d3f4"},"vehicle_type_id":"4","last_reported":1774352214,"current_range_meters":8800,"station_id":"st_d3nk18o9ro0c73en2l3g","pricing_plan_id":"cebpf4jnsgd1na2vs0mg"},{"bike_id":"e6349eb3-2730-461c-ae14-f386689052fa","system_id":"levelo_inurba_marseille","lat":43.31624,"lon":5.37805,"is_reserved":false,"is_disabled":true,"rental_uris":{"android":"levelo://app?vid=e6349eb3-2730-461c-ae14-f386689052fa","ios":"levelo://app?vid=e6349eb3-2730-461c-ae14-f386689052fa"},"vehicle_type_id":"4","last_reported":1774352214,"current_range_meters":8800,"station_id":"","pricing_plan_id":"cebpf4jnsgd1na2vs0mg"},{"bike_id":"584125c6-2468-4f45-a44d-fd68c53d0920","system_id":"levelo_inurba_marseille","lat":43.30941,"lon":5.39032,"is_reserved":false,"is_disabled":false,"rental_uris":{"android":"levelo://app?vid=584125c6-2468-4f45-a44d-fd68c53d0920","ios":"levelo://app?vid=584125c6-2468-4f45-a44d-fd68c53d0920"},"vehicle_type_id":"4","last_reported":1774352214,"current_range_meters":8800,"station_id":"ce4bgup2rcd13ifvqco0","pricing_plan_id":"cebpf4jnsgd1na2vs0mg"},{"bike_id":"cbe143e8-3e8d-46c8-8239-3389a4661d28","system_id":"levelo_inurba_marseille","lat":43.30294,"lon":5.36913,"is_reserved":false,"is_disabled":false,"rental_uris":{"android":"levelo://app?vid=cbe143e8-3e8d-46c8-8239-3389a4661d28","ios":"levelo://app?vid=cbe143e8-3e8d-46c8-8239-3389a4661d28"},"vehicle_type_id":"4","last_reported":1774352214,"current_range_meters":8800,"station_id":"ce4bgqh2rcd13ifvqc5g","pricing_plan_id":"cebpf4jnsgd1na2vs0mg"},{"bike_id":"8edde19f-14bb-4a9f-b9ee-19b95f05ec2f","system_id":"levelo_inurba_marseille","lat":43.33556,"lon":5.37446,"is_reserved":false,"is_disabled":false,"rental_uris":{"android":"levelo://app?vid=8edde19f-14bb-4a9f-b9ee-19b95f05ec2f","ios":"levelo://app?vid=8edde19f-14bb-4a9f-b9ee-19b95f05ec2f"},"vehicle_type_id":"4","last_reported":1774352214,"current_range_meters":8800,"station_id":"st_d46tts09ee8s73dlu43g","pricing_plan_id":"cebpf4jnsgd1na2vs0mg"},{"bike_id":"8d8566de-f03a-4e5e-aa8c-ad2e3c17ab03","system_id":"levelo_inurba_marseille","lat":43.31529,"lon":5.37329,"is_reserved":false,"is_disabled":false,"rental_uris":{"android":"levelo://app?vid=8d8566de-f03a-4e5e-aa8c-ad2e3c17ab03","ios":"levelo://app?vid=8d8566de-f03a-4e5e-aa8c-ad2e3c17ab03"},"vehicle_type_id":"4","last_reported":1774352214,"current_range_meters":8800,"station_id":"","pricing_plan_id":"cebpf4jnsgd1na2vs0mg"},{"bike_id":"21fe5367-bc7b-450b-ae3e-fd7029e0e0c8","system_id":"levelo_inurba_marseille","lat":43.31715,"lon":5.43705,"is_reserved":false,"is_disabled":false,"rental_uris":{"android":"levelo://app?vid=21fe5367-bc7b-450b-ae3e-fd7029e0e0c8","ios":"levelo://app?vid=21fe5367-bc7b-450b-ae3e-fd7029e0e0c8"},"vehicle_type_id":"4","last_reported":1774352214,"current_range_meters":8800,"station_id":"ce4bhp92rcd13ifvqhcg","pricing_plan_id":"cebpf4jnsgd1na2vs0mg"},{"bike_id":"e0dfd533-af70-4356-b761-e1b91e9e88b2","system_id":"levelo_inurba_marseille","lat":43.29563,"lon":5.3753,"is_reserved":false,"is_disabled":false,"rental_uris":{"android":"levelo://app?vid=e0dfd533-af70-4356-b761-e1b91e9e88b2","ios":"levelo://app?vid=e0dfd533-af70-4356-b761-e1b91e9e88b2"},"vehicle_type_id":"4","last_reported":1774352214,"current_range_meters":9200,"station_id":"ce4bgh92rcd13ifvqb50","pricing_plan_id":"cebpf4jnsgd1na2vs0mg"},{"bike_id":"a9abd8af-8bd4-41e9-9b12-068972ec99fa","system_id":"levelo_inurba_marseille","lat":43.33539,"lon":5.37457,"is_reserved":false,"is_disabled":false,"rental_uris":{"android":"levelo://app?vid=a9abd8af-8bd4-41e9-9b12-068972ec99fa","ios":"levelo://app?vid=a9abd8af-8bd4-41e9-9b12-068972ec99fa"},"vehicle_type_id":"4","last_reported":1774352214,"current_range_meters":9200,"station_id":"st_d46tts09ee8s73dlu43g","pricing_plan_id":"cebpf4jnsgd1na2vs0mg"},{"bike_id":"4c7aea34-8b10-4b70-9d3a-bf352cffc8b7","system_id":"levelo_inurba_marseille","lat":43.28431,"lon":5.34989,"is_reserved":false,"is_disabled":false,"rental_uris":{"android":"levelo://app?vid=4c7aea34-8b10-4b70-9d3a-bf352cffc8b7","ios":"levelo://app?vid=4c7aea34-8b10-4b70-9d3a-bf352cffc8b7"},"vehicle_type_id":"4","last_reported":1774352214,"current_range_meters":9200,"station_id":"ce4bhbh2rcd13ifvqepg","pricing_plan_id":"cebpf4jnsgd1na2vs0mg"},{"bike_id":"5cbb6b33-cd42-48cd-ad8f-b3cedeba4f97","system_id":"levelo_inurba_marseille","lat":43.23897,"lon":5.37456,"is_reserved":false,"is_disabled":false,"rental_uris":{"android":"levelo://app?vid=5cbb6b33-cd42-48cd-ad8f-b3cedeba4f97","ios":"levelo://app?vid=5cbb6b33-cd42-48cd-ad8f-b3cedeba4f97"},"vehicle_type_id":"4","last_reported":1774352214,"current_range_meters":9200,"station_id":"st_d6sm7csbq4hs73f8fpjg","pricing_plan_id":"cebpf4jnsgd1na2vs0mg"},{"bike_id":"22a24422-8367-44e3-afc2-fd1672c2c7f5","system_id":"levelo_inurba_marseille","lat":43.28493,"lon":5.48381,"is_reserved":false,"is_disabled":false,"rental_uris":{"android":"levelo://app?vid=22a24422-8367-44e3-afc2-fd1672c2c7f5","ios":"levelo://app?vid=22a24422-8367-44e3-afc2-fd1672c2c7f5"},"vehicle_type_id":"4","last_reported":1774352214,"current_range_meters":9200,"station_id":"","pricing_plan_id":"cebpf4jnsgd1na2vs0mg"},{"bike_id":"f5c03b01-d29b-4410-a5f0-a0b3d299600e","system_id":"levelo_inurba_marseille","lat":43.27508,"lon":5.4244,"is_reserved":false,"is_disabled":false,"rental_uris":{"android":"levelo://app?vid=f5c03b01-d29b-4410-a5f0-a0b3d299600e","ios":"levelo://app?vid=f5c03b01-d29b-4410-a5f0-a0b3d299600e"},"vehicle_type_id":"4","last_reported":1774352214,"current_range_meters":9200,"station_id":"","pricing_plan_id":"cebpf4jnsgd1na2vs0mg"},{"bike_id":"62c0eda8-c666-40c1-b62d-71242266f316","system_id":"levelo_inurba_marseille","lat":43.28452,"lon":5.39169,"is_reserved":false,"is_disabled":true,"rental_uris":{"android":"levelo://app?vid=62c0eda8-c666-40c1-b62d-71242266f316","ios":"levelo://app?vid=62c0eda8-c666-40c1-b62d-71242266f316"},"vehicle_type_id":"4","last_reported":1774352214,"current_range_meters":9200,"station_id":"ce4bhoh2rcd13ifvqh5g","pricing_plan_id":"cebpf4jnsgd1na2vs0mg"},{"bike_id":"cad372e9-21d0-4185-8f35-f1ed23250c21","system_id":"levelo_inurba_marseille","lat":43.30892,"lon":5.39658,"is_reserved":false,"is_disabled":false,"rental_uris":{"android":"levelo://app?vid=cad372e9-21d0-4185-8f35-f1ed23250c21","ios":"levelo://app?vid=cad372e9-21d0-4185-8f35-f1ed23250c21"},"vehicle_type_id":"4","last_reported":1774352214,"current_range_meters":9200,"station_id":"ce4bh012rcd13ifvqcv0","pricing_plan_id":"cebpf4jnsgd1na2vs0mg"},{"bike_id":"1e918871-5864-4c70-b8b0-f948647bad08","system_id":"levelo_inurba_marseille","lat":43.24546,"lon":5.39508,"is_reserved":false,"is_disabled":false,"rental_uris":{"android":"levelo://app?vid=1e918871-5864-4c70-b8b0-f948647bad08","ios":"levelo://app?vid=1e918871-5864-4c70-b8b0-f948647bad08"},"vehicle_type_id":"4","last_reported":1774352214,"current_range_meters":9200,"station_id":"ce4bhlp2rcd13ifvqgjg","pricing_plan_id":"cebpf4jnsgd1na2vs0mg"},{"bike_id":"854fa555-916f-42ba-819b-35b93c0e74ed","system_id":"levelo_inurba_marseille","lat":43.23891,"lon":5.37455,"is_reserved":false,"is_disabled":false,"rental_uris":{"android":"levelo://app?vid=854fa555-916f-42ba-819b-35b93c0e74ed","ios":"levelo://app?vid=854fa555-916f-42ba-819b-35b93c0e74ed"},"vehicle_type_id":"4","last_reported":1774352214,"current_range_meters":9200,"station_id":"st_d6sm7csbq4hs73f8fpjg","pricing_plan_id":"cebpf4jnsgd1na2vs0mg"},{"bike_id":"1bd10714-9a87-4665-b46d-2c508a6c2ef5","system_id":"levelo_inurba_marseille","lat":43.27215,"lon":5.39182,"is_reserved":false,"is_disabled":false,"rental_uris":{"android":"levelo://app?vid=1bd10714-9a87-4665-b46d-2c508a6c2ef5","ios":"levelo://app?vid=1bd10714-9a87-4665-b46d-2c508a6c2ef5"},"vehicle_type_id":"4","last_reported":1774352214,"current_range_meters":9200,"station_id":"ce4bhhp2rcd13ifvqfm0","pricing_plan_id":"cebpf4jnsgd1na2vs0mg"},{"bike_id":"4662a8bb-19fe-49fa-bacb-fdb45cebb52e","system_id":"levelo_inurba_marseille","lat":43.2737,"lon":5.36258,"is_reserved":false,"is_disabled":false,"rental_uris":{"android":"levelo://app?vid=4662a8bb-19fe-49fa-bacb-fdb45cebb52e","ios":"levelo://app?vid=4662a8bb-19fe-49fa-bacb-fdb45cebb52e"},"vehicle_type_id":"4","last_reported":1774352214,"current_range_meters":9200,"station_id":"ce4bhbh2rcd13ifvqeo0","pricing_plan_id":"cebpf4jnsgd1na2vs0mg"},{"bike_id":"762eba06-8520-41c7-b0b4-8147df78de21","system_id":"levelo_inurba_marseille","lat":43.33155,"lon":5.37679,"is_reserved":false,"is_disabled":false,"rental_uris":{"android":"levelo://app?vid=762eba06-8520-41c7-b0b4-8147df78de21","ios":"levelo://app?vid=762eba06-8520-41c7-b0b4-8147df78de21"},"vehicle_type_id":"4","last_reported":1774352214,"current_range_meters":9200,"station_id":"st_d46cu089ee8s73dldbu0","pricing_plan_id":"cebpf4jnsgd1na2vs0mg"},{"bike_id":"d520c672-a946-4bd2-bc2d-9a95f6b0b226","system_id":"levelo_inurba_marseille","lat":43.23913,"lon":5.3746,"is_reserved":false,"is_disabled":false,"rental_uris":{"android":"levelo://app?vid=d520c672-a946-4bd2-bc2d-9a95f6b0b226","ios":"levelo://app?vid=d520c672-a946-4bd2-bc2d-9a95f6b0b226"},"vehicle_type_id":"4","last_reported":1774352214,"current_range_meters":9200,"station_id":"st_d6sm7csbq4hs73f8fpjg","pricing_plan_id":"cebpf4jnsgd1na2vs0mg"},{"bike_id":"992d461f-8839-4086-b27a-9edc1d38b03d","system_id":"levelo_inurba_marseille","lat":43.33474,"lon":5.37512,"is_reserved":false,"is_disabled":false,"rental_uris":{"android":"levelo://app?vid=992d461f-8839-4086-b27a-9edc1d38b03d","ios":"levelo://app?vid=992d461f-8839-4086-b27a-9edc1d38b03d"},"vehicle_type_id":"4","last_reported":1774352214,"current_range_meters":9600,"station_id":"","pricing_plan_id":"cebpf4jnsgd1na2vs0mg"},{"bike_id":"659460d5-1083-48ca-9799-b96962297f2a","system_id":"levelo_inurba_marseille","lat":43.31356,"lon":5.38488,"is_reserved":false,"is_disabled":false,"rental_uris":{"android":"levelo://app?vid=659460d5-1083-48ca-9799-b96962297f2a","ios":"levelo://app?vid=659460d5-1083-48ca-9799-b96962297f2a"},"vehicle_type_id":"4","last_reported":1774352214,"current_range_meters":9600,"station_id":"ce4bgt92rcd13ifvqcf0","pricing_plan_id":"cebpf4jnsgd1na2vs0mg"},{"bike_id":"e8428cd4-c8c7-4157-bdf7-045d0e008d43","system_id":"levelo_inurba_marseille","lat":43.24178,"lon":5.39726,"is_reserved":false,"is_disabled":false,"rental_uris":{"android":"levelo://app?vid=e8428cd4-c8c7-4157-bdf7-045d0e008d43","ios":"levelo://app?vid=e8428cd4-c8c7-4157-bdf7-045d0e008d43"},"vehicle_type_id":"4","last_reported":1774352214,"current_range_meters":9600,"station_id":"ce4bhn12rcd13ifvqgpg","pricing_plan_id":"cebpf4jnsgd1na2vs0mg"},{"bike_id":"f2b39dc0-1756-47d6-8ab0-b4e4abf99a06","system_id":"levelo_inurba_marseille","lat":43.28266,"lon":5.35075,"is_reserved":false,"is_disabled":false,"rental_uris":{"android":"levelo://app?vid=f2b39dc0-1756-47d6-8ab0-b4e4abf99a06","ios":"levelo://app?vid=f2b39dc0-1756-47d6-8ab0-b4e4abf99a06"},"vehicle_type_id":"4","last_reported":1774352214,"current_range_meters":9600,"station_id":"ce4bhbp2rcd13ifvqerg","pricing_plan_id":"cebpf4jnsgd1na2vs0mg"},{"bike_id":"489b1f47-9bf9-4f10-90f5-3b4dff230700","system_id":"levelo_inurba_marseille","lat":43.2378,"lon":5.36629,"is_reserved":false,"is_disabled":false,"rental_uris":{"android":"levelo://app?vid=489b1f47-9bf9-4f10-90f5-3b4dff230700","ios":"levelo://app?vid=489b1f47-9bf9-4f10-90f5-3b4dff230700"},"vehicle_type_id":"4","last_reported":1774352214,"current_range_meters":9600,"station_id":"st_d3nk18o9ro0c73en2l3g","pricing_plan_id":"cebpf4jnsgd1na2vs0mg"},{"bike_id":"ed8243ec-cff9-4edf-9bea-a305e68a8102","system_id":"levelo_inurba_marseille","lat":43.29384,"lon":5.37858,"is_reserved":false,"is_disabled":false,"rental_uris":{"android":"levelo://app?vid=ed8243ec-cff9-4edf-9bea-a305e68a8102","ios":"levelo://app?vid=ed8243ec-cff9-4edf-9bea-a305e68a8102"},"vehicle_type_id":"4","last_reported":1774352214,"current_range_meters":9600,"station_id":"","pricing_plan_id":"cebpf4jnsgd1na2vs0mg"},{"bike_id":"b9d157e4-adb0-4d64-b93d-349f42c39fcf","system_id":"levelo_inurba_marseille","lat":43.31912,"lon":5.36794,"is_reserved":false,"is_disabled":false,"rental_uris":{"android":"levelo://app?vid=b9d157e4-adb0-4d64-b93d-349f42c39fcf","ios":"levelo://app?vid=b9d157e4-adb0-4d64-b93d-349f42c39fcf"},"vehicle_type_id":"4","last_reported":1774352214,"current_range_meters":9600,"station_id":"st_d6o2h0d0559c73evc1b0","pricing_plan_id":"cebpf4jnsgd1na2vs0mg"},{"bike_id":"96ef8b23-5054-4ed2-9788-4da8cf353732","system_id":"levelo_inurba_marseille","lat":43.25948,"lon":5.40889,"is_reserved":false,"is_disabled":false,"rental_uris":{"android":"levelo://app?vid=96ef8b23-5054-4ed2-9788-4da8cf353732","ios":"levelo://app?vid=96ef8b23-5054-4ed2-9788-4da8cf353732"},"vehicle_type_id":"4","last_reported":1774352214,"current_range_meters":9600,"station_id":"ce4bhm92rcd13ifvqglg","pricing_plan_id":"cebpf4jnsgd1na2vs0mg"},{"bike_id":"ef0ec3fd-5a33-441f-a3ec-aebaa7974610","system_id":"levelo_inurba_marseille","lat":43.32042,"lon":5.41555,"is_reserved":false,"is_disabled":false,"rental_uris":{"android":"levelo://app?vid=ef0ec3fd-5a33-441f-a3ec-aebaa7974610","ios":"levelo://app?vid=ef0ec3fd-5a33-441f-a3ec-aebaa7974610"},"vehicle_type_id":"4","last_reported":1774352214,"current_range_meters":9600,"station_id":"ce4bhq92rcd13ifvqhkg","pricing_plan_id":"cebpf4jnsgd1na2vs0mg"},{"bike_id":"906f17c0-60c6-4dfc-84c3-93d15fbf23d8","system_id":"levelo_inurba_marseille","lat":43.26714,"lon":5.38252,"is_reserved":false,"is_disabled":false,"rental_uris":{"android":"levelo://app?vid=906f17c0-60c6-4dfc-84c3-93d15fbf23d8","ios":"levelo://app?vid=906f17c0-60c6-4dfc-84c3-93d15fbf23d8"},"vehicle_type_id":"4","last_reported":1774352214,"current_range_meters":10000,"station_id":"ce4bhg92rcd13ifvqf90","pricing_plan_id":"cebpf4jnsgd1na2vs0mg"},{"bike_id":"00632196-0233-4f69-90af-0a36bab1dde0","system_id":"levelo_inurba_marseille","lat":43.22543,"lon":5.34811,"is_reserved":false,"is_disabled":false,"rental_uris":{"android":"levelo://app?vid=00632196-0233-4f69-90af-0a36bab1dde0","ios":"levelo://app?vid=00632196-0233-4f69-90af-0a36bab1dde0"},"vehicle_type_id":"4","last_reported":1774352214,"current_range_meters":10000,"station_id":"","pricing_plan_id":"cebpf4jnsgd1na2vs0mg"},{"bike_id":"8926c4c4-5f6a-4e55-a77a-ca8a5ff700ce","system_id":"levelo_inurba_marseille","lat":43.30462,"lon":5.37909,"is_reserved":false,"is_disabled":true,"rental_uris":{"android":"levelo://app?vid=8926c4c4-5f6a-4e55-a77a-ca8a5ff700ce","ios":"levelo://app?vid=8926c4c4-5f6a-4e55-a77a-ca8a5ff700ce"},"vehicle_type_id":"4","last_reported":1774352214,"current_range_meters":10000,"station_id":"","pricing_plan_id":"cebpf4jnsgd1na2vs0mg"},{"bike_id":"afe0a86a-bdb1-4d45-9157-9ef00bbb9918","system_id":"levelo_inurba_marseille","lat":43.2682,"lon":5.39412,"is_reserved":false,"is_disabled":false,"rental_uris":{"android":"levelo://app?vid=afe0a86a-bdb1-4d45-9157-9ef00bbb9918","ios":"levelo://app?vid=afe0a86a-bdb1-4d45-9157-9ef00bbb9918"},"vehicle_type_id":"4","last_reported":1774352214,"current_range_meters":10000,"station_id":"ce4bhh12rcd13ifvqfg0","pricing_plan_id":"cebpf4jnsgd1na2vs0mg"},{"bike_id":"adaf8e00-ca2c-49b5-9b35-6749da32aa87","system_id":"levelo_inurba_marseille","lat":43.3355,"lon":5.37451,"is_reserved":false,"is_disabled":false,"rental_uris":{"android":"levelo://app?vid=adaf8e00-ca2c-49b5-9b35-6749da32aa87","ios":"levelo://app?vid=adaf8e00-ca2c-49b5-9b35-6749da32aa87"},"vehicle_type_id":"4","last_reported":1774352214,"current_range_meters":10000,"station_id":"st_d46tts09ee8s73dlu43g","pricing_plan_id":"cebpf4jnsgd1na2vs0mg"},{"bike_id":"5690c1b1-970b-41e6-aa69-b3fe7213f979","system_id":"levelo_inurba_marseille","lat":43.28038,"lon":5.36953,"is_reserved":false,"is_disabled":false,"rental_uris":{"android":"levelo://app?vid=5690c1b1-970b-41e6-aa69-b3fe7213f979","ios":"levelo://app?vid=5690c1b1-970b-41e6-aa69-b3fe7213f979"},"vehicle_type_id":"4","last_reported":1774352214,"current_range_meters":10000,"station_id":"ce4bha12rcd13ifvqef0","pricing_plan_id":"cebpf4jnsgd1na2vs0mg"},{"bike_id":"36c30ee7-542d-41db-b84b-a18e4b79c37e","system_id":"levelo_inurba_marseille","lat":43.2792,"lon":5.39553,"is_reserved":false,"is_disabled":true,"rental_uris":{"android":"levelo://app?vid=36c30ee7-542d-41db-b84b-a18e4b79c37e","ios":"levelo://app?vid=36c30ee7-542d-41db-b84b-a18e4b79c37e"},"vehicle_type_id":"4","last_reported":1774352214,"current_range_meters":10000,"station_id":"ce4bhf92rcd13ifvqf40","pricing_plan_id":"cebpf4jnsgd1na2vs0mg"},{"bike_id":"db23ebda-ef7b-4738-b1a2-70195b447c20","system_id":"levelo_inurba_marseille","lat":43.22569,"lon":5.41627,"is_reserved":false,"is_disabled":false,"rental_uris":{"android":"levelo://app?vid=db23ebda-ef7b-4738-b1a2-70195b447c20","ios":"levelo://app?vid=db23ebda-ef7b-4738-b1a2-70195b447c20"},"vehicle_type_id":"4","last_reported":1774352214,"current_range_meters":10000,"station_id":"st_d2o4gvlbi1j2169b742g","pricing_plan_id":"cebpf4jnsgd1na2vs0mg"},{"bike_id":"81afbade-9b61-4865-965d-d9c81a599521","system_id":"levelo_inurba_marseille","lat":43.23799,"lon":5.36608,"is_reserved":false,"is_disabled":false,"rental_uris":{"android":"levelo://app?vid=81afbade-9b61-4865-965d-d9c81a599521","ios":"levelo://app?vid=81afbade-9b61-4865-965d-d9c81a599521"},"vehicle_type_id":"4","last_reported":1774352214,"current_range_meters":10000,"station_id":"st_d3nk18o9ro0c73en2l3g","pricing_plan_id":"cebpf4jnsgd1na2vs0mg"},{"bike_id":"7acbb730-6c79-419d-ae15-4ae006fd7da1","system_id":"levelo_inurba_marseille","lat":43.239,"lon":5.37444,"is_reserved":false,"is_disabled":false,"rental_uris":{"android":"levelo://app?vid=7acbb730-6c79-419d-ae15-4ae006fd7da1","ios":"levelo://app?vid=7acbb730-6c79-419d-ae15-4ae006fd7da1"},"vehicle_type_id":"4","last_reported":1774352214,"current_range_meters":10000,"station_id":"st_d6sm7csbq4hs73f8fpjg","pricing_plan_id":"cebpf4jnsgd1na2vs0mg"},{"bike_id":"3969d9ff-e51e-44fd-8e71-b3c87bcabc26","system_id":"levelo_inurba_marseille","lat":43.25832,"lon":5.39441,"is_reserved":false,"is_disabled":false,"rental_uris":{"android":"levelo://app?vid=3969d9ff-e51e-44fd-8e71-b3c87bcabc26","ios":"levelo://app?vid=3969d9ff-e51e-44fd-8e71-b3c87bcabc26"},"vehicle_type_id":"4","last_reported":1774352214,"current_range_meters":10000,"station_id":"ce4bhip2rcd13ifvqft0","pricing_plan_id":"cebpf4jnsgd1na2vs0mg"},{"bike_id":"5666bfce-b5e0-4096-95ba-64d1d591a285","system_id":"levelo_inurba_marseille","lat":43.24205,"lon":5.388,"is_reserved":false,"is_disabled":false,"rental_uris":{"android":"levelo://app?vid=5666bfce-b5e0-4096-95ba-64d1d591a285","ios":"levelo://app?vid=5666bfce-b5e0-4096-95ba-64d1d591a285"},"vehicle_type_id":"4","last_reported":1774352214,"current_range_meters":10000,"station_id":"","pricing_plan_id":"cebpf4jnsgd1na2vs0mg"},{"bike_id":"3c68b8c9-7b48-4a5e-96da-c48a047e8ef3","system_id":"levelo_inurba_marseille","lat":43.3248,"lon":5.36574,"is_reserved":false,"is_disabled":false,"rental_uris":{"android":"levelo://app?vid=3c68b8c9-7b48-4a5e-96da-c48a047e8ef3","ios":"levelo://app?vid=3c68b8c9-7b48-4a5e-96da-c48a047e8ef3"},"vehicle_type_id":"4","last_reported":1774352214,"current_range_meters":10800,"station_id":"ce4bhs12rcd13ifvqhvg","pricing_plan_id":"cebpf4jnsgd1na2vs0mg"},{"bike_id":"63e7416c-20b1-4f3c-816f-a49f74fe6d7b","system_id":"levelo_inurba_marseille","lat":43.2466,"lon":5.38161,"is_reserved":false,"is_disabled":false,"rental_uris":{"android":"levelo://app?vid=63e7416c-20b1-4f3c-816f-a49f74fe6d7b","ios":"levelo://app?vid=63e7416c-20b1-4f3c-816f-a49f74fe6d7b"},"vehicle_type_id":"4","last_reported":1774352214,"current_range_meters":10800,"station_id":"ce4bhih2rcd13ifvqfr0","pricing_plan_id":"cebpf4jnsgd1na2vs0mg"},{"bike_id":"fdd8bf84-b2fe-4508-9572-06ea662fa5ac","system_id":"levelo_inurba_marseille","lat":43.28477,"lon":5.48398,"is_reserved":false,"is_disabled":false,"rental_uris":{"android":"levelo://app?vid=fdd8bf84-b2fe-4508-9572-06ea662fa5ac","ios":"levelo://app?vid=fdd8bf84-b2fe-4508-9572-06ea662fa5ac"},"vehicle_type_id":"4","last_reported":1774352214,"current_range_meters":10800,"station_id":"","pricing_plan_id":"cebpf4jnsgd1na2vs0mg"},{"bike_id":"fadd83d2-5a56-4dab-abd3-4fc024887366","system_id":"levelo_inurba_marseille","lat":43.28477,"lon":5.48397,"is_reserved":false,"is_disabled":false,"rental_uris":{"android":"levelo://app?vid=fadd83d2-5a56-4dab-abd3-4fc024887366","ios":"levelo://app?vid=fadd83d2-5a56-4dab-abd3-4fc024887366"},"vehicle_type_id":"4","last_reported":1774352214,"current_range_meters":10800,"station_id":"","pricing_plan_id":"cebpf4jnsgd1na2vs0mg"},{"bike_id":"0d49a786-383f-439a-9d2e-aa991a5bc868","system_id":"levelo_inurba_marseille","lat":43.2718,"lon":5.40988,"is_reserved":false,"is_disabled":false,"rental_uris":{"android":"levelo://app?vid=0d49a786-383f-439a-9d2e-aa991a5bc868","ios":"levelo://app?vid=0d49a786-383f-439a-9d2e-aa991a5bc868"},"vehicle_type_id":"4","last_reported":1774352214,"current_range_meters":10800,"station_id":"ce4bhl12rcd13ifvqgf0","pricing_plan_id":"cebpf4jnsgd1na2vs0mg"},{"bike_id":"d2221a01-c26e-4870-88e9-198ce1bf858d","system_id":"levelo_inurba_marseille","lat":43.23061,"lon":5.35498,"is_reserved":false,"is_disabled":false,"rental_uris":{"android":"levelo://app?vid=d2221a01-c26e-4870-88e9-198ce1bf858d","ios":"levelo://app?vid=d2221a01-c26e-4870-88e9-198ce1bf858d"},"vehicle_type_id":"4","last_reported":1774352214,"current_range_meters":10800,"station_id":"cpo3342slgdg3j2ifvpg","pricing_plan_id":"cebpf4jnsgd1na2vs0mg"},{"bike_id":"21800d29-3481-4758-b7e9-e138cc33b063","system_id":"levelo_inurba_marseille","lat":43.29936,"lon":5.37481,"is_reserved":false,"is_disabled":false,"rental_uris":{"android":"levelo://app?vid=21800d29-3481-4758-b7e9-e138cc33b063","ios":"levelo://app?vid=21800d29-3481-4758-b7e9-e138cc33b063"},"vehicle_type_id":"4","last_reported":1774352214,"current_range_meters":10800,"station_id":"ce4bgjh2rcd13ifvqbg0","pricing_plan_id":"cebpf4jnsgd1na2vs0mg"},{"bike_id":"451e822b-d17c-41b3-aa86-e9da4e66ded2","system_id":"levelo_inurba_marseille","lat":43.23961,"lon":5.36629,"is_reserved":false,"is_disabled":false,"rental_uris":{"android":"levelo://app?vid=451e822b-d17c-41b3-aa86-e9da4e66ded2","ios":"levelo://app?vid=451e822b-d17c-41b3-aa86-e9da4e66ded2"},"vehicle_type_id":"4","last_reported":1774352214,"current_range_meters":10800,"station_id":"ce4bhi12rcd13ifvqfp0","pricing_plan_id":"cebpf4jnsgd1na2vs0mg"},{"bike_id":"0c48dd8c-0cdf-4988-95dd-31b05278dc56","system_id":"levelo_inurba_marseille","lat":43.2379,"lon":5.36606,"is_reserved":false,"is_disabled":false,"rental_uris":{"android":"levelo://app?vid=0c48dd8c-0cdf-4988-95dd-31b05278dc56","ios":"levelo://app?vid=0c48dd8c-0cdf-4988-95dd-31b05278dc56"},"vehicle_type_id":"4","last_reported":1774352214,"current_range_meters":10800,"station_id":"st_d3nk18o9ro0c73en2l3g","pricing_plan_id":"cebpf4jnsgd1na2vs0mg"},{"bike_id":"fb926acf-9d79-4026-acf9-e1b5ab2fa65a","system_id":"levelo_inurba_marseille","lat":43.2891,"lon":5.38421,"is_reserved":false,"is_disabled":false,"rental_uris":{"android":"levelo://app?vid=fb926acf-9d79-4026-acf9-e1b5ab2fa65a","ios":"levelo://app?vid=fb926acf-9d79-4026-acf9-e1b5ab2fa65a"},"vehicle_type_id":"4","last_reported":1774352214,"current_range_meters":10800,"station_id":"ce4bh612rcd13ifvqe6g","pricing_plan_id":"cebpf4jnsgd1na2vs0mg"},{"bike_id":"f7964fa2-d7a6-41b0-97f9-1f4fa6b33c53","system_id":"levelo_inurba_marseille","lat":43.25337,"lon":5.42182,"is_reserved":false,"is_disabled":false,"rental_uris":{"android":"levelo://app?vid=f7964fa2-d7a6-41b0-97f9-1f4fa6b33c53","ios":"levelo://app?vid=f7964fa2-d7a6-41b0-97f9-1f4fa6b33c53"},"vehicle_type_id":"4","last_reported":1774352214,"current_range_meters":11200,"station_id":"","pricing_plan_id":"cebpf4jnsgd1na2vs0mg"},{"bike_id":"f4e12de3-12ee-449c-bb7b-82b4b799a0fa","system_id":"levelo_inurba_marseille","lat":43.246511,"lon":5.388933,"is_reserved":false,"is_disabled":true,"rental_uris":{"android":"levelo://app?vid=f4e12de3-12ee-449c-bb7b-82b4b799a0fa","ios":"levelo://app?vid=f4e12de3-12ee-449c-bb7b-82b4b799a0fa"},"vehicle_type_id":"4","last_reported":1774352214,"current_range_meters":11200,"station_id":"ce4bgg92rcd13ifvqb30","pricing_plan_id":"cebpf4jnsgd1na2vs0mg"},{"bike_id":"390642d5-ebc3-4bda-abf8-55b0c8070dc5","system_id":"levelo_inurba_marseille","lat":43.26701,"lon":5.38216,"is_reserved":false,"is_disabled":true,"rental_uris":{"android":"levelo://app?vid=390642d5-ebc3-4bda-abf8-55b0c8070dc5","ios":"levelo://app?vid=390642d5-ebc3-4bda-abf8-55b0c8070dc5"},"vehicle_type_id":"4","last_reported":1774352214,"current_range_meters":11200,"station_id":"ce4bhg92rcd13ifvqf90","pricing_plan_id":"cebpf4jnsgd1na2vs0mg"},{"bike_id":"d64c94f3-e268-41de-bac3-5a218887d9b5","system_id":"levelo_inurba_marseille","lat":43.28474,"lon":5.48403,"is_reserved":false,"is_disabled":false,"rental_uris":{"android":"levelo://app?vid=d64c94f3-e268-41de-bac3-5a218887d9b5","ios":"levelo://app?vid=d64c94f3-e268-41de-bac3-5a218887d9b5"},"vehicle_type_id":"4","last_reported":1774352214,"current_range_meters":11200,"station_id":"","pricing_plan_id":"cebpf4jnsgd1na2vs0mg"},{"bike_id":"1f79b281-4c7e-42fd-85e8-6ac2f2c6e346","system_id":"levelo_inurba_marseille","lat":43.21229,"lon":5.35053,"is_reserved":false,"is_disabled":false,"rental_uris":{"android":"levelo://app?vid=1f79b281-4c7e-42fd-85e8-6ac2f2c6e346","ios":"levelo://app?vid=1f79b281-4c7e-42fd-85e8-6ac2f2c6e346"},"vehicle_type_id":"4","last_reported":1774352214,"current_range_meters":11200,"station_id":"","pricing_plan_id":"cebpf4jnsgd1na2vs0mg"},{"bike_id":"89673b48-b93e-49b1-91bc-4a5460ed425e","system_id":"levelo_inurba_marseille","lat":43.29891,"lon":5.43687,"is_reserved":false,"is_disabled":false,"rental_uris":{"android":"levelo://app?vid=89673b48-b93e-49b1-91bc-4a5460ed425e","ios":"levelo://app?vid=89673b48-b93e-49b1-91bc-4a5460ed425e"},"vehicle_type_id":"4","last_reported":1774352214,"current_range_meters":11200,"station_id":"ce4bhpp2rcd13ifvqhfg","pricing_plan_id":"cebpf4jnsgd1na2vs0mg"},{"bike_id":"7ea6fdc2-331a-49a0-86c0-bac72acd4c08","system_id":"levelo_inurba_marseille","lat":43.28871,"lon":5.42481,"is_reserved":false,"is_disabled":false,"rental_uris":{"android":"levelo://app?vid=7ea6fdc2-331a-49a0-86c0-bac72acd4c08","ios":"levelo://app?vid=7ea6fdc2-331a-49a0-86c0-bac72acd4c08"},"vehicle_type_id":"4","last_reported":1774352214,"current_range_meters":11200,"station_id":"","pricing_plan_id":"cebpf4jnsgd1na2vs0mg"},{"bike_id":"484f2abe-81d9-4c3a-92bb-99d4e164fc66","system_id":"levelo_inurba_marseille","lat":43.27506,"lon":5.41582,"is_reserved":false,"is_disabled":false,"rental_uris":{"android":"levelo://app?vid=484f2abe-81d9-4c3a-92bb-99d4e164fc66","ios":"levelo://app?vid=484f2abe-81d9-4c3a-92bb-99d4e164fc66"},"vehicle_type_id":"4","last_reported":1774352214,"current_range_meters":11200,"station_id":"st_d6im8g6chgec73a5pndg","pricing_plan_id":"cebpf4jnsgd1na2vs0mg"},{"bike_id":"a7db7561-eb7a-42d1-b75b-9b219264b5e4","system_id":"levelo_inurba_marseille","lat":43.28411,"lon":5.37539,"is_reserved":false,"is_disabled":true,"rental_uris":{"android":"levelo://app?vid=a7db7561-eb7a-42d1-b75b-9b219264b5e4","ios":"levelo://app?vid=a7db7561-eb7a-42d1-b75b-9b219264b5e4"},"vehicle_type_id":"4","last_reported":1774352214,"current_range_meters":11200,"station_id":"ce4bh412rcd13ifvqds0","pricing_plan_id":"cebpf4jnsgd1na2vs0mg"},{"bike_id":"526b1a54-1174-47a5-b5d7-e3da14731487","system_id":"levelo_inurba_marseille","lat":43.2695,"lon":5.40234,"is_reserved":false,"is_disabled":false,"rental_uris":{"android":"levelo://app?vid=526b1a54-1174-47a5-b5d7-e3da14731487","ios":"levelo://app?vid=526b1a54-1174-47a5-b5d7-e3da14731487"},"vehicle_type_id":"4","last_reported":1774352214,"current_range_meters":11200,"station_id":"cjm6bp8fraef2m0cb0m0","pricing_plan_id":"cebpf4jnsgd1na2vs0mg"},{"bike_id":"51745f36-c351-4eef-a937-4ffce973aa2e","system_id":"levelo_inurba_marseille","lat":43.21193,"lon":5.35075,"is_reserved":false,"is_disabled":false,"rental_uris":{"android":"levelo://app?vid=51745f36-c351-4eef-a937-4ffce973aa2e","ios":"levelo://app?vid=51745f36-c351-4eef-a937-4ffce973aa2e"},