{"last_updated":1769994785,"ttl":60,"version":"2.2","data":{"bikes":[{"bike_id":"f1afac7b-3a1b-4cac-a9fd-69907f58ad17","system_id":"levelo_inurba_marseille","lat":43.26937,"lon":5.4027,"is_reserved":false,"is_disabled":false,"rental_uris":{"android":"levelo://app?vid=f1afac7b-3a1b-4cac-a9fd-69907f58ad17","ios":"levelo://app?vid=f1afac7b-3a1b-4cac-a9fd-69907f58ad17"},"vehicle_type_id":"4","last_reported":1769994786,"current_range_meters":2800,"station_id":"cjm6bp8fraef2m0cb0m0","pricing_plan_id":"cebpf4jnsgd1na2vs0mg"},{"bike_id":"f63ad825-b273-458f-bf2e-2ef630e3fede","system_id":"levelo_inurba_marseille","lat":43.22561,"lon":5.41622,"is_reserved":false,"is_disabled":false,"rental_uris":{"android":"levelo://app?vid=f63ad825-b273-458f-bf2e-2ef630e3fede","ios":"levelo://app?vid=f63ad825-b273-458f-bf2e-2ef630e3fede"},"vehicle_type_id":"4","last_reported":1769994786,"current_range_meters":2800,"station_id":"st_d2o4gvlbi1j2169b742g","pricing_plan_id":"cebpf4jnsgd1na2vs0mg"},{"bike_id":"fb793f9e-27c8-4aa6-9e5b-d172f980944b","system_id":"levelo_inurba_marseille","lat":43.27931,"lon":5.41038,"is_reserved":false,"is_disabled":true,"rental_uris":{"android":"levelo://app?vid=fb793f9e-27c8-4aa6-9e5b-d172f980944b","ios":"levelo://app?vid=fb793f9e-27c8-4aa6-9e5b-d172f980944b"},"vehicle_type_id":"4","last_reported":1769994786,"current_range_meters":2800,"station_id":"ce4bhnp2rcd13ifvqh0g","pricing_plan_id":"cebpf4jnsgd1na2vs0mg"},{"bike_id":"bb1dfbad-7424-4ef3-85e1-58163ed62194","system_id":"levelo_inurba_marseille","lat":43.217528,"lon":5.346042,"is_reserved":false,"is_disabled":false,"rental_uris":{"android":"levelo://app?vid=bb1dfbad-7424-4ef3-85e1-58163ed62194","ios":"levelo://app?vid=bb1dfbad-7424-4ef3-85e1-58163ed62194"},"vehicle_type_id":"4","last_reported":1769994786,"current_range_meters":2800,"station_id":"st_cvj6r9ubvosntc0bgbag","pricing_plan_id":"cebpf4jnsgd1na2vs0mg"},{"bike_id":"d4d18011-2bf0-4a2b-a896-7a5c21af3b9d","system_id":"levelo_inurba_marseille","lat":43.28487,"lon":5.48399,"is_reserved":false,"is_disabled":false,"rental_uris":{"android":"levelo://app?vid=d4d18011-2bf0-4a2b-a896-7a5c21af3b9d","ios":"levelo://app?vid=d4d18011-2bf0-4a2b-a896-7a5c21af3b9d"},"vehicle_type_id":"4","last_reported":1769994786,"current_range_meters":2800,"station_id":"st_d3svhcjqgbts73a3dn0g","pricing_plan_id":"cebpf4jnsgd1na2vs0mg"},{"bike_id":"e3cbd460-9f8a-4b53-8041-3dd2c19b0e1c","system_id":"levelo_inurba_marseille","lat":43.30416,"lon":5.41297,"is_reserved":false,"is_disabled":false,"rental_uris":{"android":"levelo://app?vid=e3cbd460-9f8a-4b53-8041-3dd2c19b0e1c","ios":"levelo://app?vid=e3cbd460-9f8a-4b53-8041-3dd2c19b0e1c"},"vehicle_type_id":"4","last_reported":1769994786,"current_range_meters":2800,"station_id":"ce4bhop2rcd13ifvqh8g","pricing_plan_id":"cebpf4jnsgd1na2vs0mg"},{"bike_id":"5be20501-8e04-4673-9119-891aadf1acc1","system_id":"levelo_inurba_marseille","lat":43.28491,"lon":5.48394,"is_reserved":false,"is_disabled":false,"rental_uris":{"android":"levelo://app?vid=5be20501-8e04-4673-9119-891aadf1acc1","ios":"levelo://app?vid=5be20501-8e04-4673-9119-891aadf1acc1"},"vehicle_type_id":"4","last_reported":1769994786,"current_range_meters":2800,"station_id":"","pricing_plan_id":"cebpf4jnsgd1na2vs0mg"},{"bike_id":"178d6e40-c2d2-4bfc-a219-950ebc5c922c","system_id":"levelo_inurba_marseille","lat":43.279509,"lon":5.387288,"is_reserved":false,"is_disabled":false,"rental_uris":{"android":"levelo://app?vid=178d6e40-c2d2-4bfc-a219-950ebc5c922c","ios":"levelo://app?vid=178d6e40-c2d2-4bfc-a219-950ebc5c922c"},"vehicle_type_id":"4","last_reported":1769994786,"current_range_meters":2800,"station_id":"","pricing_plan_id":"cebpf4jnsgd1na2vs0mg"},{"bike_id":"cda423b0-114c-4365-aeb1-89fb80c8de39","system_id":"levelo_inurba_marseille","lat":43.24804,"lon":5.3745,"is_reserved":false,"is_disabled":false,"rental_uris":{"android":"levelo://app?vid=cda423b0-114c-4365-aeb1-89fb80c8de39","ios":"levelo://app?vid=cda423b0-114c-4365-aeb1-89fb80c8de39"},"vehicle_type_id":"4","last_reported":1769994786,"current_range_meters":3200,"station_id":"ce4bhgh2rcd13ifvqfb0","pricing_plan_id":"cebpf4jnsgd1na2vs0mg"},{"bike_id":"a0f4c4d9-b17d-4551-87f4-b3e192df9153","system_id":"levelo_inurba_marseille","lat":43.23038,"lon":5.35484,"is_reserved":false,"is_disabled":false,"rental_uris":{"android":"levelo://app?vid=a0f4c4d9-b17d-4551-87f4-b3e192df9153","ios":"levelo://app?vid=a0f4c4d9-b17d-4551-87f4-b3e192df9153"},"vehicle_type_id":"4","last_reported":1769994786,"current_range_meters":3200,"station_id":"cpo3342slgdg3j2ifvpg","pricing_plan_id":"cebpf4jnsgd1na2vs0mg"},{"bike_id":"1b85baa8-054d-452c-96ac-e14de5f87229","system_id":"levelo_inurba_marseille","lat":43.26563,"lon":5.40319,"is_reserved":false,"is_disabled":false,"rental_uris":{"android":"levelo://app?vid=1b85baa8-054d-452c-96ac-e14de5f87229","ios":"levelo://app?vid=1b85baa8-054d-452c-96ac-e14de5f87229"},"vehicle_type_id":"4","last_reported":1769994786,"current_range_meters":3200,"station_id":"ce4bhmp2rcd13ifvqgng","pricing_plan_id":"cebpf4jnsgd1na2vs0mg"},{"bike_id":"e66c0050-63ae-4842-902f-7ed4f4ed8737","system_id":"levelo_inurba_marseille","lat":43.22548,"lon":5.41629,"is_reserved":false,"is_disabled":false,"rental_uris":{"android":"levelo://app?vid=e66c0050-63ae-4842-902f-7ed4f4ed8737","ios":"levelo://app?vid=e66c0050-63ae-4842-902f-7ed4f4ed8737"},"vehicle_type_id":"4","last_reported":1769994786,"current_range_meters":3200,"station_id":"st_d2o4gvlbi1j2169b742g","pricing_plan_id":"cebpf4jnsgd1na2vs0mg"},{"bike_id":"519cc48e-d066-4eae-ab86-d197d14dc892","system_id":"levelo_inurba_marseille","lat":43.298847,"lon":5.397296,"is_reserved":false,"is_disabled":false,"rental_uris":{"android":"levelo://app?vid=519cc48e-d066-4eae-ab86-d197d14dc892","ios":"levelo://app?vid=519cc48e-d066-4eae-ab86-d197d14dc892"},"vehicle_type_id":"4","last_reported":1769994786,"current_range_meters":3200,"station_id":"ce4bh312rcd13ifvqdj0","pricing_plan_id":"cebpf4jnsgd1na2vs0mg"},{"bike_id":"a6e26a0f-f73b-4462-82cf-9518bca8be33","system_id":"levelo_inurba_marseille","lat":43.27361,"lon":5.362515,"is_reserved":false,"is_disabled":false,"rental_uris":{"android":"levelo://app?vid=a6e26a0f-f73b-4462-82cf-9518bca8be33","ios":"levelo://app?vid=a6e26a0f-f73b-4462-82cf-9518bca8be33"},"vehicle_type_id":"4","last_reported":1769994786,"current_range_meters":3200,"station_id":"ce4bhbh2rcd13ifvqeo0","pricing_plan_id":"cebpf4jnsgd1na2vs0mg"},{"bike_id":"e701a3f7-2e1f-487e-bad5-83c9140f1723","system_id":"levelo_inurba_marseille","lat":43.31766,"lon":5.3738,"is_reserved":false,"is_disabled":false,"rental_uris":{"android":"levelo://app?vid=e701a3f7-2e1f-487e-bad5-83c9140f1723","ios":"levelo://app?vid=e701a3f7-2e1f-487e-bad5-83c9140f1723"},"vehicle_type_id":"4","last_reported":1769994786,"current_range_meters":3200,"station_id":"","pricing_plan_id":"cebpf4jnsgd1na2vs0mg"},{"bike_id":"d5e67bfe-03c5-4643-9903-6eac267b87da","system_id":"levelo_inurba_marseille","lat":43.240024,"lon":5.378236,"is_reserved":false,"is_disabled":false,"rental_uris":{"android":"levelo://app?vid=d5e67bfe-03c5-4643-9903-6eac267b87da","ios":"levelo://app?vid=d5e67bfe-03c5-4643-9903-6eac267b87da"},"vehicle_type_id":"4","last_reported":1769994786,"current_range_meters":3200,"station_id":"","pricing_plan_id":"cebpf4jnsgd1na2vs0mg"},{"bike_id":"0a8bd2b9-8f66-47cb-8794-72cdd9e9bbcd","system_id":"levelo_inurba_marseille","lat":43.27824,"lon":5.40709,"is_reserved":false,"is_disabled":false,"rental_uris":{"android":"levelo://app?vid=0a8bd2b9-8f66-47cb-8794-72cdd9e9bbcd","ios":"levelo://app?vid=0a8bd2b9-8f66-47cb-8794-72cdd9e9bbcd"},"vehicle_type_id":"4","last_reported":1769994786,"current_range_meters":3200,"station_id":"ce4bhnh2rcd13ifvqgtg","pricing_plan_id":"cebpf4jnsgd1na2vs0mg"},{"bike_id":"d8d7d7c6-6bfe-4fb0-85f9-b02b994f2a2a","system_id":"levelo_inurba_marseille","lat":43.29212,"lon":5.36049,"is_reserved":false,"is_disabled":true,"rental_uris":{"android":"levelo://app?vid=d8d7d7c6-6bfe-4fb0-85f9-b02b994f2a2a","ios":"levelo://app?vid=d8d7d7c6-6bfe-4fb0-85f9-b02b994f2a2a"},"vehicle_type_id":"4","last_reported":1769994786,"current_range_meters":3600,"station_id":"ce4bhbh2rcd13ifvqeqg","pricing_plan_id":"cebpf4jnsgd1na2vs0mg"},{"bike_id":"298537c3-8d5d-434e-a14c-bbd01ad397a2","system_id":"levelo_inurba_marseille","lat":43.30225,"lon":5.37098,"is_reserved":false,"is_disabled":false,"rental_uris":{"android":"levelo://app?vid=298537c3-8d5d-434e-a14c-bbd01ad397a2","ios":"levelo://app?vid=298537c3-8d5d-434e-a14c-bbd01ad397a2"},"vehicle_type_id":"4","last_reported":1769994786,"current_range_meters":3600,"station_id":"","pricing_plan_id":"cebpf4jnsgd1na2vs0mg"},{"bike_id":"ec77c27c-93c9-4c58-b70c-9c56f74ef4ba","system_id":"levelo_inurba_marseille","lat":43.31118,"lon":5.377543,"is_reserved":false,"is_disabled":false,"rental_uris":{"android":"levelo://app?vid=ec77c27c-93c9-4c58-b70c-9c56f74ef4ba","ios":"levelo://app?vid=ec77c27c-93c9-4c58-b70c-9c56f74ef4ba"},"vehicle_type_id":"4","last_reported":1769994786,"current_range_meters":3600,"station_id":"ce4bgt92rcd13ifvqcg0","pricing_plan_id":"cebpf4jnsgd1na2vs0mg"},{"bike_id":"4bf50099-7288-4f24-87c7-44039c046e7f","system_id":"levelo_inurba_marseille","lat":43.2668,"lon":5.38275,"is_reserved":false,"is_disabled":false,"rental_uris":{"android":"levelo://app?vid=4bf50099-7288-4f24-87c7-44039c046e7f","ios":"levelo://app?vid=4bf50099-7288-4f24-87c7-44039c046e7f"},"vehicle_type_id":"4","last_reported":1769994786,"current_range_meters":3600,"station_id":"ce4bhg92rcd13ifvqf90","pricing_plan_id":"cebpf4jnsgd1na2vs0mg"},{"bike_id":"43223b70-9436-492d-a211-2e6bd6bde1ae","system_id":"levelo_inurba_marseille","lat":43.30551,"lon":5.38404,"is_reserved":false,"is_disabled":false,"rental_uris":{"android":"levelo://app?vid=43223b70-9436-492d-a211-2e6bd6bde1ae","ios":"levelo://app?vid=43223b70-9436-492d-a211-2e6bd6bde1ae"},"vehicle_type_id":"4","last_reported":1769994786,"current_range_meters":3600,"station_id":"ce4bgg92rcd13ifvqb30","pricing_plan_id":"cebpf4jnsgd1na2vs0mg"},{"bike_id":"7a4412cf-c498-4121-be46-049419c026d4","system_id":"levelo_inurba_marseille","lat":43.279463,"lon":5.410406,"is_reserved":false,"is_disabled":false,"rental_uris":{"android":"levelo://app?vid=7a4412cf-c498-4121-be46-049419c026d4","ios":"levelo://app?vid=7a4412cf-c498-4121-be46-049419c026d4"},"vehicle_type_id":"4","last_reported":1769994786,"current_range_meters":3600,"station_id":"ce4bhnp2rcd13ifvqh0g","pricing_plan_id":"cebpf4jnsgd1na2vs0mg"},{"bike_id":"2618561d-cd06-4493-b916-9511a3eac222","system_id":"levelo_inurba_marseille","lat":43.27375,"lon":5.36256,"is_reserved":false,"is_disabled":false,"rental_uris":{"android":"levelo://app?vid=2618561d-cd06-4493-b916-9511a3eac222","ios":"levelo://app?vid=2618561d-cd06-4493-b916-9511a3eac222"},"vehicle_type_id":"4","last_reported":1769994786,"current_range_meters":3600,"station_id":"ce4bhbh2rcd13ifvqeo0","pricing_plan_id":"cebpf4jnsgd1na2vs0mg"},{"bike_id":"ee39f90f-3222-4732-9961-b784c72f0999","system_id":"levelo_inurba_marseille","lat":43.23195,"lon":5.35556,"is_reserved":false,"is_disabled":false,"rental_uris":{"android":"levelo://app?vid=ee39f90f-3222-4732-9961-b784c72f0999","ios":"levelo://app?vid=ee39f90f-3222-4732-9961-b784c72f0999"},"vehicle_type_id":"4","last_reported":1769994786,"current_range_meters":3600,"station_id":"ce4bhu92rcd13ifvqi70","pricing_plan_id":"cebpf4jnsgd1na2vs0mg"},{"bike_id":"27ee7c2c-779a-4fe8-bbed-098223e005e6","system_id":"levelo_inurba_marseille","lat":43.282699,"lon":5.350737,"is_reserved":false,"is_disabled":false,"rental_uris":{"android":"levelo://app?vid=27ee7c2c-779a-4fe8-bbed-098223e005e6","ios":"levelo://app?vid=27ee7c2c-779a-4fe8-bbed-098223e005e6"},"vehicle_type_id":"4","last_reported":1769994786,"current_range_meters":4000,"station_id":"ce4bhbp2rcd13ifvqerg","pricing_plan_id":"cebpf4jnsgd1na2vs0mg"},{"bike_id":"77a5c2f3-1c27-4943-aef0-c45731a9bc15","system_id":"levelo_inurba_marseille","lat":43.28887,"lon":5.38843,"is_reserved":false,"is_disabled":false,"rental_uris":{"android":"levelo://app?vid=77a5c2f3-1c27-4943-aef0-c45731a9bc15","ios":"levelo://app?vid=77a5c2f3-1c27-4943-aef0-c45731a9bc15"},"vehicle_type_id":"4","last_reported":1769994786,"current_range_meters":4000,"station_id":"","pricing_plan_id":"cebpf4jnsgd1na2vs0mg"},{"bike_id":"7b8b7d29-0fce-4e10-89de-484199c062d8","system_id":"levelo_inurba_marseille","lat":43.316891,"lon":5.404678,"is_reserved":false,"is_disabled":false,"rental_uris":{"android":"levelo://app?vid=7b8b7d29-0fce-4e10-89de-484199c062d8","ios":"levelo://app?vid=7b8b7d29-0fce-4e10-89de-484199c062d8"},"vehicle_type_id":"4","last_reported":1769994786,"current_range_meters":4000,"station_id":"ce4bh012rcd13ifvqd00","pricing_plan_id":"cebpf4jnsgd1na2vs0mg"},{"bike_id":"e28cd813-c0f1-463d-a579-8998a87473dc","system_id":"levelo_inurba_marseille","lat":43.31284,"lon":5.40171,"is_reserved":false,"is_disabled":false,"rental_uris":{"android":"levelo://app?vid=e28cd813-c0f1-463d-a579-8998a87473dc","ios":"levelo://app?vid=e28cd813-c0f1-463d-a579-8998a87473dc"},"vehicle_type_id":"4","last_reported":1769994786,"current_range_meters":4000,"station_id":"ce4bh092rcd13ifvqd30","pricing_plan_id":"cebpf4jnsgd1na2vs0mg"},{"bike_id":"0d9d3404-87e5-4955-8e5f-cc6505a9e73e","system_id":"levelo_inurba_marseille","lat":43.229373,"lon":5.353756,"is_reserved":false,"is_disabled":false,"rental_uris":{"android":"levelo://app?vid=0d9d3404-87e5-4955-8e5f-cc6505a9e73e","ios":"levelo://app?vid=0d9d3404-87e5-4955-8e5f-cc6505a9e73e"},"vehicle_type_id":"4","last_reported":1769994786,"current_range_meters":4000,"station_id":"cpo3532slgdg3j2ikp40","pricing_plan_id":"cebpf4jnsgd1na2vs0mg"},{"bike_id":"ecdd52fd-98df-4ed8-9b9f-16db4fdb1985","system_id":"levelo_inurba_marseille","lat":43.24071,"lon":5.377971,"is_reserved":false,"is_disabled":false,"rental_uris":{"android":"levelo://app?vid=ecdd52fd-98df-4ed8-9b9f-16db4fdb1985","ios":"levelo://app?vid=ecdd52fd-98df-4ed8-9b9f-16db4fdb1985"},"vehicle_type_id":"4","last_reported":1769994786,"current_range_meters":4400,"station_id":"ce4bhgp2rcd13ifvqfc0","pricing_plan_id":"cebpf4jnsgd1na2vs0mg"},{"bike_id":"003757f1-f4de-4ff1-907e-8d9a40ed0bb7","system_id":"levelo_inurba_marseille","lat":43.31102,"lon":5.37785,"is_reserved":false,"is_disabled":false,"rental_uris":{"android":"levelo://app?vid=003757f1-f4de-4ff1-907e-8d9a40ed0bb7","ios":"levelo://app?vid=003757f1-f4de-4ff1-907e-8d9a40ed0bb7"},"vehicle_type_id":"4","last_reported":1769994786,"current_range_meters":4400,"station_id":"ce4bgt92rcd13ifvqcg0","pricing_plan_id":"cebpf4jnsgd1na2vs0mg"},{"bike_id":"d0ee8c38-72c8-4a11-9f6a-de79eceead1a","system_id":"levelo_inurba_marseille","lat":43.23146,"lon":5.43723,"is_reserved":false,"is_disabled":false,"rental_uris":{"android":"levelo://app?vid=d0ee8c38-72c8-4a11-9f6a-de79eceead1a","ios":"levelo://app?vid=d0ee8c38-72c8-4a11-9f6a-de79eceead1a"},"vehicle_type_id":"4","last_reported":1769994786,"current_range_meters":4400,"station_id":"ce4bhmp2rcd13ifvqgog","pricing_plan_id":"cebpf4jnsgd1na2vs0mg"},{"bike_id":"ff6065a2-0e71-4d35-8eda-c24b991ceb70","system_id":"levelo_inurba_marseille","lat":43.27374,"lon":5.36262,"is_reserved":false,"is_disabled":false,"rental_uris":{"android":"levelo://app?vid=ff6065a2-0e71-4d35-8eda-c24b991ceb70","ios":"levelo://app?vid=ff6065a2-0e71-4d35-8eda-c24b991ceb70"},"vehicle_type_id":"4","last_reported":1769994786,"current_range_meters":4400,"station_id":"ce4bhbh2rcd13ifvqeo0","pricing_plan_id":"cebpf4jnsgd1na2vs0mg"},{"bike_id":"3ba7ff2b-aa75-4edd-a097-2a01468d04db","system_id":"levelo_inurba_marseille","lat":43.24083,"lon":5.37739,"is_reserved":false,"is_disabled":false,"rental_uris":{"android":"levelo://app?vid=3ba7ff2b-aa75-4edd-a097-2a01468d04db","ios":"levelo://app?vid=3ba7ff2b-aa75-4edd-a097-2a01468d04db"},"vehicle_type_id":"4","last_reported":1769994786,"current_range_meters":4400,"station_id":"ce4bhnp2rcd13ifvqgvg","pricing_plan_id":"cebpf4jnsgd1na2vs0mg"},{"bike_id":"e19dcbee-55f5-4a14-8d7c-7f5193d4d389","system_id":"levelo_inurba_marseille","lat":43.27941,"lon":5.4106,"is_reserved":false,"is_disabled":false,"rental_uris":{"android":"levelo://app?vid=e19dcbee-55f5-4a14-8d7c-7f5193d4d389","ios":"levelo://app?vid=e19dcbee-55f5-4a14-8d7c-7f5193d4d389"},"vehicle_type_id":"4","last_reported":1769994786,"current_range_meters":4400,"station_id":"ce4bhnp2rcd13ifvqh0g","pricing_plan_id":"cebpf4jnsgd1na2vs0mg"},{"bike_id":"f8a0ae1c-a37d-4006-8541-a752d1a3cea9","system_id":"levelo_inurba_marseille","lat":43.296479,"lon":5.401185,"is_reserved":false,"is_disabled":false,"rental_uris":{"android":"levelo://app?vid=f8a0ae1c-a37d-4006-8541-a752d1a3cea9","ios":"levelo://app?vid=f8a0ae1c-a37d-4006-8541-a752d1a3cea9"},"vehicle_type_id":"4","last_reported":1769994786,"current_range_meters":4400,"station_id":"","pricing_plan_id":"cebpf4jnsgd1na2vs0mg"},{"bike_id":"6e2e9e6b-9180-4489-adb4-62a40596f5aa","system_id":"levelo_inurba_marseille","lat":43.29275,"lon":5.40878,"is_reserved":false,"is_disabled":false,"rental_uris":{"android":"levelo://app?vid=6e2e9e6b-9180-4489-adb4-62a40596f5aa","ios":"levelo://app?vid=6e2e9e6b-9180-4489-adb4-62a40596f5aa"},"vehicle_type_id":"4","last_reported":1769994786,"current_range_meters":4400,"station_id":"ce4bh192rcd13ifvqdc0","pricing_plan_id":"cebpf4jnsgd1na2vs0mg"},{"bike_id":"0b331fa1-be61-4ee4-8f48-817f3b90db42","system_id":"levelo_inurba_marseille","lat":43.28698,"lon":5.35566,"is_reserved":false,"is_disabled":false,"rental_uris":{"android":"levelo://app?vid=0b331fa1-be61-4ee4-8f48-817f3b90db42","ios":"levelo://app?vid=0b331fa1-be61-4ee4-8f48-817f3b90db42"},"vehicle_type_id":"4","last_reported":1769994786,"current_range_meters":4400,"station_id":"","pricing_plan_id":"cebpf4jnsgd1na2vs0mg"},{"bike_id":"3f016251-f617-46a2-8e71-d5c73095e4c4","system_id":"levelo_inurba_marseille","lat":43.290003,"lon":5.356148,"is_reserved":false,"is_disabled":true,"rental_uris":{"android":"levelo://app?vid=3f016251-f617-46a2-8e71-d5c73095e4c4","ios":"levelo://app?vid=3f016251-f617-46a2-8e71-d5c73095e4c4"},"vehicle_type_id":"4","last_reported":1769994786,"current_range_meters":4800,"station_id":"ce4bhb92rcd13ifvqen0","pricing_plan_id":"cebpf4jnsgd1na2vs0mg"},{"bike_id":"4b538e95-d67b-4c55-8519-1ec597c2ad3f","system_id":"levelo_inurba_marseille","lat":43.24081,"lon":5.37783,"is_reserved":false,"is_disabled":false,"rental_uris":{"android":"levelo://app?vid=4b538e95-d67b-4c55-8519-1ec597c2ad3f","ios":"levelo://app?vid=4b538e95-d67b-4c55-8519-1ec597c2ad3f"},"vehicle_type_id":"4","last_reported":1769994786,"current_range_meters":4800,"station_id":"ce4bhnp2rcd13ifvqgvg","pricing_plan_id":"cebpf4jnsgd1na2vs0mg"},{"bike_id":"5e1c4385-fefc-40d8-9043-9539df7efdd8","system_id":"levelo_inurba_marseille","lat":43.337444,"lon":5.374475,"is_reserved":false,"is_disabled":false,"rental_uris":{"android":"levelo://app?vid=5e1c4385-fefc-40d8-9043-9539df7efdd8","ios":"levelo://app?vid=5e1c4385-fefc-40d8-9043-9539df7efdd8"},"vehicle_type_id":"4","last_reported":1769994786,"current_range_meters":4800,"station_id":"ce4bhbp2rcd13ifvqesg","pricing_plan_id":"cebpf4jnsgd1na2vs0mg"},{"bike_id":"1b262235-a4c8-42b2-9b62-c37b9e14300f","system_id":"levelo_inurba_marseille","lat":43.27823,"lon":5.4072,"is_reserved":false,"is_disabled":false,"rental_uris":{"android":"levelo://app?vid=1b262235-a4c8-42b2-9b62-c37b9e14300f","ios":"levelo://app?vid=1b262235-a4c8-42b2-9b62-c37b9e14300f"},"vehicle_type_id":"4","last_reported":1769994786,"current_range_meters":4800,"station_id":"ce4bhnh2rcd13ifvqgtg","pricing_plan_id":"cebpf4jnsgd1na2vs0mg"},{"bike_id":"e88f00ed-766b-4b5b-8d69-ecf898801be1","system_id":"levelo_inurba_marseille","lat":43.31109,"lon":5.37779,"is_reserved":false,"is_disabled":false,"rental_uris":{"android":"levelo://app?vid=e88f00ed-766b-4b5b-8d69-ecf898801be1","ios":"levelo://app?vid=e88f00ed-766b-4b5b-8d69-ecf898801be1"},"vehicle_type_id":"4","last_reported":1769994786,"current_range_meters":4800,"station_id":"ce4bgt92rcd13ifvqcg0","pricing_plan_id":"cebpf4jnsgd1na2vs0mg"},{"bike_id":"cc15c741-b789-4619-bb15-d01163161379","system_id":"levelo_inurba_marseille","lat":43.31063,"lon":5.39381,"is_reserved":false,"is_disabled":false,"rental_uris":{"android":"levelo://app?vid=cc15c741-b789-4619-bb15-d01163161379","ios":"levelo://app?vid=cc15c741-b789-4619-bb15-d01163161379"},"vehicle_type_id":"4","last_reported":1769994786,"current_range_meters":4800,"station_id":"","pricing_plan_id":"cebpf4jnsgd1na2vs0mg"},{"bike_id":"c16bbffc-3f7b-4299-aa6c-4c3611fa54d9","system_id":"levelo_inurba_marseille","lat":43.28421,"lon":5.39036,"is_reserved":false,"is_disabled":true,"rental_uris":{"android":"levelo://app?vid=c16bbffc-3f7b-4299-aa6c-4c3611fa54d9","ios":"levelo://app?vid=c16bbffc-3f7b-4299-aa6c-4c3611fa54d9"},"vehicle_type_id":"4","last_reported":1769994786,"current_range_meters":5600,"station_id":"","pricing_plan_id":"cebpf4jnsgd1na2vs0mg"},{"bike_id":"d431d2dc-fe64-4d55-be3e-18b6291747e9","system_id":"levelo_inurba_marseille","lat":43.23062,"lon":5.35487,"is_reserved":false,"is_disabled":false,"rental_uris":{"android":"levelo://app?vid=d431d2dc-fe64-4d55-be3e-18b6291747e9","ios":"levelo://app?vid=d431d2dc-fe64-4d55-be3e-18b6291747e9"},"vehicle_type_id":"4","last_reported":1769994786,"current_range_meters":5600,"station_id":"cpo3342slgdg3j2ifvpg","pricing_plan_id":"cebpf4jnsgd1na2vs0mg"},{"bike_id":"ddcbae43-31a1-4a2a-a439-401aedcebd53","system_id":"levelo_inurba_marseille","lat":43.2841,"lon":5.35928,"is_reserved":false,"is_disabled":false,"rental_uris":{"android":"levelo://app?vid=ddcbae43-31a1-4a2a-a439-401aedcebd53","ios":"levelo://app?vid=ddcbae43-31a1-4a2a-a439-401aedcebd53"},"vehicle_type_id":"4","last_reported":1769994786,"current_range_meters":5600,"station_id":"","pricing_plan_id":"cebpf4jnsgd1na2vs0mg"},{"bike_id":"93e60425-8aae-4f4b-b447-57ef8147db67","system_id":"levelo_inurba_marseille","lat":43.284797,"lon":5.484139,"is_reserved":false,"is_disabled":false,"rental_uris":{"android":"levelo://app?vid=93e60425-8aae-4f4b-b447-57ef8147db67","ios":"levelo://app?vid=93e60425-8aae-4f4b-b447-57ef8147db67"},"vehicle_type_id":"4","last_reported":1769994786,"current_range_meters":5600,"station_id":"","pricing_plan_id":"cebpf4jnsgd1na2vs0mg"},{"bike_id":"767dc731-f365-45e9-b7a0-0144ed9ff9a5","system_id":"levelo_inurba_marseille","lat":43.311982,"lon":5.368754,"is_reserved":false,"is_disabled":false,"rental_uris":{"android":"levelo://app?vid=767dc731-f365-45e9-b7a0-0144ed9ff9a5","ios":"levelo://app?vid=767dc731-f365-45e9-b7a0-0144ed9ff9a5"},"vehicle_type_id":"4","last_reported":1769994786,"current_range_meters":5600,"station_id":"ce4bgl92rcd13ifvqbq0","pricing_plan_id":"cebpf4jnsgd1na2vs0mg"},{"bike_id":"26bd2557-3046-4212-82fc-da1fdbd42b2c","system_id":"levelo_inurba_marseille","lat":43.28537,"lon":5.44096,"is_reserved":false,"is_disabled":false,"rental_uris":{"android":"levelo://app?vid=26bd2557-3046-4212-82fc-da1fdbd42b2c","ios":"levelo://app?vid=26bd2557-3046-4212-82fc-da1fdbd42b2c"},"vehicle_type_id":"4","last_reported":1769994786,"current_range_meters":5600,"station_id":"st_d3j3df2ikq2c7380ej80","pricing_plan_id":"cebpf4jnsgd1na2vs0mg"},{"bike_id":"92c39e43-0cd4-4171-abec-21e14bf07368","system_id":"levelo_inurba_marseille","lat":43.255819,"lon":5.382356,"is_reserved":false,"is_disabled":false,"rental_uris":{"android":"levelo://app?vid=92c39e43-0cd4-4171-abec-21e14bf07368","ios":"levelo://app?vid=92c39e43-0cd4-4171-abec-21e14bf07368"},"vehicle_type_id":"4","last_reported":1769994786,"current_range_meters":5600,"station_id":"ce4bhih2rcd13ifvqfs0","pricing_plan_id":"cebpf4jnsgd1na2vs0mg"},{"bike_id":"0b595329-88a5-4dab-8a2c-b70bbda22e84","system_id":"levelo_inurba_marseille","lat":43.27934,"lon":5.41048,"is_reserved":false,"is_disabled":false,"rental_uris":{"android":"levelo://app?vid=0b595329-88a5-4dab-8a2c-b70bbda22e84","ios":"levelo://app?vid=0b595329-88a5-4dab-8a2c-b70bbda22e84"},"vehicle_type_id":"4","last_reported":1769994786,"current_range_meters":5600,"station_id":"ce4bhnp2rcd13ifvqh0g","pricing_plan_id":"cebpf4jnsgd1na2vs0mg"},{"bike_id":"6683b936-5f74-4236-9c71-81c279f26420","system_id":"levelo_inurba_marseille","lat":43.25504,"lon":5.37648,"is_reserved":false,"is_disabled":false,"rental_uris":{"android":"levelo://app?vid=6683b936-5f74-4236-9c71-81c279f26420","ios":"levelo://app?vid=6683b936-5f74-4236-9c71-81c279f26420"},"vehicle_type_id":"4","last_reported":1769994786,"current_range_meters":5600,"station_id":"ce4bhh12rcd13ifvqff0","pricing_plan_id":"cebpf4jnsgd1na2vs0mg"},{"bike_id":"f830e511-39a0-45a4-b629-9bc716a62b92","system_id":"levelo_inurba_marseille","lat":43.24674,"lon":5.3814,"is_reserved":false,"is_disabled":false,"rental_uris":{"android":"levelo://app?vid=f830e511-39a0-45a4-b629-9bc716a62b92","ios":"levelo://app?vid=f830e511-39a0-45a4-b629-9bc716a62b92"},"vehicle_type_id":"4","last_reported":1769994786,"current_range_meters":5600,"station_id":"ce4bhih2rcd13ifvqfr0","pricing_plan_id":"cebpf4jnsgd1na2vs0mg"},{"bike_id":"e5b9c854-52bd-4571-9d09-3836aec2957e","system_id":"levelo_inurba_marseille","lat":43.2417,"lon":5.36393,"is_reserved":false,"is_disabled":false,"rental_uris":{"android":"levelo://app?vid=e5b9c854-52bd-4571-9d09-3836aec2957e","ios":"levelo://app?vid=e5b9c854-52bd-4571-9d09-3836aec2957e"},"vehicle_type_id":"4","last_reported":1769994786,"current_range_meters":5600,"station_id":"cpo36qri1sfpv3e86is0","pricing_plan_id":"cebpf4jnsgd1na2vs0mg"},{"bike_id":"e3e986c3-0db0-40fd-a1a5-f07ce5425792","system_id":"levelo_inurba_marseille","lat":43.27294,"lon":5.39129,"is_reserved":false,"is_disabled":true,"rental_uris":{"android":"levelo://app?vid=e3e986c3-0db0-40fd-a1a5-f07ce5425792","ios":"levelo://app?vid=e3e986c3-0db0-40fd-a1a5-f07ce5425792"},"vehicle_type_id":"4","last_reported":1769994786,"current_range_meters":5600,"station_id":"","pricing_plan_id":"cebpf4jnsgd1na2vs0mg"},{"bike_id":"5b4c0c7a-c0c9-4273-96c2-faded5f9cc26","system_id":"levelo_inurba_marseille","lat":43.27957,"lon":5.41029,"is_reserved":false,"is_disabled":false,"rental_uris":{"android":"levelo://app?vid=5b4c0c7a-c0c9-4273-96c2-faded5f9cc26","ios":"levelo://app?vid=5b4c0c7a-c0c9-4273-96c2-faded5f9cc26"},"vehicle_type_id":"4","last_reported":1769994786,"current_range_meters":6000,"station_id":"ce4bhnp2rcd13ifvqh0g","pricing_plan_id":"cebpf4jnsgd1na2vs0mg"},{"bike_id":"6f8455de-cdcb-4115-8f9f-1a1c57d7cc8a","system_id":"levelo_inurba_marseille","lat":43.25014,"lon":5.38905,"is_reserved":false,"is_disabled":false,"rental_uris":{"android":"levelo://app?vid=6f8455de-cdcb-4115-8f9f-1a1c57d7cc8a","ios":"levelo://app?vid=6f8455de-cdcb-4115-8f9f-1a1c57d7cc8a"},"vehicle_type_id":"4","last_reported":1769994786,"current_range_meters":6000,"station_id":"ce4bhgp2rcd13ifvqfd0","pricing_plan_id":"cebpf4jnsgd1na2vs0mg"},{"bike_id":"63081118-16d4-4931-91ec-4e3aa1e179f6","system_id":"levelo_inurba_marseille","lat":43.30098,"lon":5.39092,"is_reserved":false,"is_disabled":false,"rental_uris":{"android":"levelo://app?vid=63081118-16d4-4931-91ec-4e3aa1e179f6","ios":"levelo://app?vid=63081118-16d4-4931-91ec-4e3aa1e179f6"},"vehicle_type_id":"4","last_reported":1769994786,"current_range_meters":6000,"station_id":"ce4bh192rcd13ifvqdb0","pricing_plan_id":"cebpf4jnsgd1na2vs0mg"},{"bike_id":"d7b2aa7c-9d3d-448d-b3f2-482cc7b455c0","system_id":"levelo_inurba_marseille","lat":43.26379,"lon":5.41062,"is_reserved":false,"is_disabled":false,"rental_uris":{"android":"levelo://app?vid=d7b2aa7c-9d3d-448d-b3f2-482cc7b455c0","ios":"levelo://app?vid=d7b2aa7c-9d3d-448d-b3f2-482cc7b455c0"},"vehicle_type_id":"4","last_reported":1769994786,"current_range_meters":6000,"station_id":"st_d4e5ca6na9uc73bfl5fg","pricing_plan_id":"cebpf4jnsgd1na2vs0mg"},{"bike_id":"dc68db14-c906-4c81-af24-38ade0c0fe18","system_id":"levelo_inurba_marseille","lat":43.22556,"lon":5.41631,"is_reserved":false,"is_disabled":false,"rental_uris":{"android":"levelo://app?vid=dc68db14-c906-4c81-af24-38ade0c0fe18","ios":"levelo://app?vid=dc68db14-c906-4c81-af24-38ade0c0fe18"},"vehicle_type_id":"4","last_reported":1769994786,"current_range_meters":6000,"station_id":"st_d2o4gvlbi1j2169b742g","pricing_plan_id":"cebpf4jnsgd1na2vs0mg"},{"bike_id":"1c1f8539-b1ae-43f7-94e2-f9ba91100b64","system_id":"levelo_inurba_marseille","lat":43.31663,"lon":5.37742,"is_reserved":false,"is_disabled":false,"rental_uris":{"android":"levelo://app?vid=1c1f8539-b1ae-43f7-94e2-f9ba91100b64","ios":"levelo://app?vid=1c1f8539-b1ae-43f7-94e2-f9ba91100b64"},"vehicle_type_id":"4","last_reported":1769994786,"current_range_meters":6000,"station_id":"ce4bgth2rcd13ifvqch0","pricing_plan_id":"cebpf4jnsgd1na2vs0mg"},{"bike_id":"2c9d9ec4-87d2-4a0f-9375-615bf9c41c46","system_id":"levelo_inurba_marseille","lat":43.261923,"lon":5.374524,"is_reserved":false,"is_disabled":false,"rental_uris":{"android":"levelo://app?vid=2c9d9ec4-87d2-4a0f-9375-615bf9c41c46","ios":"levelo://app?vid=2c9d9ec4-87d2-4a0f-9375-615bf9c41c46"},"vehicle_type_id":"4","last_reported":1769994786,"current_range_meters":6000,"station_id":"ce4bhgp2rcd13ifvqfc0","pricing_plan_id":"cebpf4jnsgd1na2vs0mg"},{"bike_id":"ba1d96b0-32b8-465c-8cae-95618aefc0ee","system_id":"levelo_inurba_marseille","lat":43.28908,"lon":5.38399,"is_reserved":false,"is_disabled":true,"rental_uris":{"android":"levelo://app?vid=ba1d96b0-32b8-465c-8cae-95618aefc0ee","ios":"levelo://app?vid=ba1d96b0-32b8-465c-8cae-95618aefc0ee"},"vehicle_type_id":"4","last_reported":1769994786,"current_range_meters":6000,"station_id":"ce4bh612rcd13ifvqe6g","pricing_plan_id":"cebpf4jnsgd1na2vs0mg"},{"bike_id":"4ba7c61c-8375-48d5-b175-cebb1b8db43a","system_id":"levelo_inurba_marseille","lat":43.27815,"lon":5.39208,"is_reserved":false,"is_disabled":false,"rental_uris":{"android":"levelo://app?vid=4ba7c61c-8375-48d5-b175-cebb1b8db43a","ios":"levelo://app?vid=4ba7c61c-8375-48d5-b175-cebb1b8db43a"},"vehicle_type_id":"4","last_reported":1769994786,"current_range_meters":6000,"station_id":"ce4bhjp2rcd13ifvqga0","pricing_plan_id":"cebpf4jnsgd1na2vs0mg"},{"bike_id":"74ac2feb-a7ae-41ed-97e6-16a7d353da55","system_id":"levelo_inurba_marseille","lat":43.248091,"lon":5.374592,"is_reserved":false,"is_disabled":true,"rental_uris":{"android":"levelo://app?vid=74ac2feb-a7ae-41ed-97e6-16a7d353da55","ios":"levelo://app?vid=74ac2feb-a7ae-41ed-97e6-16a7d353da55"},"vehicle_type_id":"4","last_reported":1769994786,"current_range_meters":6000,"station_id":"ce4bhgh2rcd13ifvqfb0","pricing_plan_id":"cebpf4jnsgd1na2vs0mg"},{"bike_id":"ec645fdb-79f8-439a-aff3-f0124606fdef","system_id":"levelo_inurba_marseille","lat":43.25115,"lon":5.40346,"is_reserved":false,"is_disabled":false,"rental_uris":{"android":"levelo://app?vid=ec645fdb-79f8-439a-aff3-f0124606fdef","ios":"levelo://app?vid=ec645fdb-79f8-439a-aff3-f0124606fdef"},"vehicle_type_id":"4","last_reported":1769994786,"current_range_meters":6000,"station_id":"ce4bhlh2rcd13ifvqgig","pricing_plan_id":"cebpf4jnsgd1na2vs0mg"},{"bike_id":"e685b8e3-afce-4dcd-a202-86a08c955aff","system_id":"levelo_inurba_marseille","lat":43.23194,"lon":5.35545,"is_reserved":false,"is_disabled":false,"rental_uris":{"android":"levelo://app?vid=e685b8e3-afce-4dcd-a202-86a08c955aff","ios":"levelo://app?vid=e685b8e3-afce-4dcd-a202-86a08c955aff"},"vehicle_type_id":"4","last_reported":1769994786,"current_range_meters":6000,"station_id":"ce4bhu92rcd13ifvqi70","pricing_plan_id":"cebpf4jnsgd1na2vs0mg"},{"bike_id":"b4aee4d3-892f-4c3a-b975-2ea1f13d72e4","system_id":"levelo_inurba_marseille","lat":43.341445,"lon":5.408973,"is_reserved":false,"is_disabled":false,"rental_uris":{"android":"levelo://app?vid=b4aee4d3-892f-4c3a-b975-2ea1f13d72e4","ios":"levelo://app?vid=b4aee4d3-892f-4c3a-b975-2ea1f13d72e4"},"vehicle_type_id":"4","last_reported":1769994786,"current_range_meters":6000,"station_id":"ce4bhqh2rcd13ifvqhlg","pricing_plan_id":"cebpf4jnsgd1na2vs0mg"},{"bike_id":"7daac408-4780-43dd-9cc8-945818f4b564","system_id":"levelo_inurba_marseille","lat":43.29489,"lon":5.43309,"is_reserved":false,"is_disabled":false,"rental_uris":{"android":"levelo://app?vid=7daac408-4780-43dd-9cc8-945818f4b564","ios":"levelo://app?vid=7daac408-4780-43dd-9cc8-945818f4b564"},"vehicle_type_id":"4","last_reported":1769994786,"current_range_meters":6000,"station_id":"st_d3j5ugp08ojc73fj9d10","pricing_plan_id":"cebpf4jnsgd1na2vs0mg"},{"bike_id":"e1b9d24f-2421-486f-a00c-01e9adfdba49","system_id":"levelo_inurba_marseille","lat":43.23178,"lon":5.39989,"is_reserved":false,"is_disabled":false,"rental_uris":{"android":"levelo://app?vid=e1b9d24f-2421-486f-a00c-01e9adfdba49","ios":"levelo://app?vid=e1b9d24f-2421-486f-a00c-01e9adfdba49"},"vehicle_type_id":"4","last_reported":1769994786,"current_range_meters":6000,"station_id":"ce4bhn12rcd13ifvqgqg","pricing_plan_id":"cebpf4jnsgd1na2vs0mg"},{"bike_id":"45494373-182a-4c2c-b628-7cdced94deb6","system_id":"levelo_inurba_marseille","lat":43.29875,"lon":5.38903,"is_reserved":false,"is_disabled":false,"rental_uris":{"android":"levelo://app?vid=45494373-182a-4c2c-b628-7cdced94deb6","ios":"levelo://app?vid=45494373-182a-4c2c-b628-7cdced94deb6"},"vehicle_type_id":"4","last_reported":1769994786,"current_range_meters":6400,"station_id":"ce4bh392rcd13ifvqdl0","pricing_plan_id":"cebpf4jnsgd1na2vs0mg"},{"bike_id":"55821144-4cea-4c88-a4ef-ac2c18f1fa0e","system_id":"levelo_inurba_marseille","lat":43.24057,"lon":5.3776,"is_reserved":false,"is_disabled":false,"rental_uris":{"android":"levelo://app?vid=55821144-4cea-4c88-a4ef-ac2c18f1fa0e","ios":"levelo://app?vid=55821144-4cea-4c88-a4ef-ac2c18f1fa0e"},"vehicle_type_id":"4","last_reported":1769994786,"current_range_meters":6400,"station_id":"ce4bhnp2rcd13ifvqgvg","pricing_plan_id":"cebpf4jnsgd1na2vs0mg"},{"bike_id":"cda7d8d9-ec08-4ba8-ab16-db0e7515076a","system_id":"levelo_inurba_marseille","lat":43.290256,"lon":5.386251,"is_reserved":false,"is_disabled":false,"rental_uris":{"android":"levelo://app?vid=cda7d8d9-ec08-4ba8-ab16-db0e7515076a","ios":"levelo://app?vid=cda7d8d9-ec08-4ba8-ab16-db0e7515076a"},"vehicle_type_id":"4","last_reported":1769994786,"current_range_meters":6400,"station_id":"ce4bh4p2rcd13ifvqe0g","pricing_plan_id":"cebpf4jnsgd1na2vs0mg"},{"bike_id":"51487434-2c5b-44ec-b6f1-b2d802fd5baf","system_id":"levelo_inurba_marseille","lat":43.29638,"lon":5.37144,"is_reserved":false,"is_disabled":false,"rental_uris":{"android":"levelo://app?vid=51487434-2c5b-44ec-b6f1-b2d802fd5baf","ios":"levelo://app?vid=51487434-2c5b-44ec-b6f1-b2d802fd5baf"},"vehicle_type_id":"4","last_reported":1769994786,"current_range_meters":6400,"station_id":"ce4bgnh2rcd13ifvqc0g","pricing_plan_id":"cebpf4jnsgd1na2vs0mg"},{"bike_id":"ab6c83e0-5dad-4068-933a-4059e6467edb","system_id":"levelo_inurba_marseille","lat":43.26552,"lon":5.403209,"is_reserved":false,"is_disabled":false,"rental_uris":{"android":"levelo://app?vid=ab6c83e0-5dad-4068-933a-4059e6467edb","ios":"levelo://app?vid=ab6c83e0-5dad-4068-933a-4059e6467edb"},"vehicle_type_id":"4","last_reported":1769994786,"current_range_meters":6400,"station_id":"ce4bhmp2rcd13ifvqgng","pricing_plan_id":"cebpf4jnsgd1na2vs0mg"},{"bike_id":"6f70f7c4-40d6-414f-8b9b-325d1bbb8b8e","system_id":"levelo_inurba_marseille","lat":43.26064,"lon":5.39403,"is_reserved":false,"is_disabled":false,"rental_uris":{"android":"levelo://app?vid=6f70f7c4-40d6-414f-8b9b-325d1bbb8b8e","ios":"levelo://app?vid=6f70f7c4-40d6-414f-8b9b-325d1bbb8b8e"},"vehicle_type_id":"4","last_reported":1769994786,"current_range_meters":6400,"station_id":"ce4bhh92rcd13ifvqfj0","pricing_plan_id":"cebpf4jnsgd1na2vs0mg"},{"bike_id":"c9f48c9b-8a34-442c-b519-55185a953e4a","system_id":"levelo_inurba_marseille","lat":43.28963,"lon":5.37595,"is_reserved":false,"is_disabled":false,"rental_uris":{"android":"levelo://app?vid=c9f48c9b-8a34-442c-b519-55185a953e4a","ios":"levelo://app?vid=c9f48c9b-8a34-442c-b519-55185a953e4a"},"vehicle_type_id":"4","last_reported":1769994786,"current_range_meters":6400,"station_id":"","pricing_plan_id":"cebpf4jnsgd1na2vs0mg"},{"bike_id":"b00753f6-9e43-40ef-9959-628446071746","system_id":"levelo_inurba_marseille","lat":43.2781,"lon":5.40712,"is_reserved":false,"is_disabled":true,"rental_uris":{"android":"levelo://app?vid=b00753f6-9e43-40ef-9959-628446071746","ios":"levelo://app?vid=b00753f6-9e43-40ef-9959-628446071746"},"vehicle_type_id":"4","last_reported":1769994786,"current_range_meters":6400,"station_id":"ce4bhnh2rcd13ifvqgtg","pricing_plan_id":"cebpf4jnsgd1na2vs0mg"},{"bike_id":"a0a535df-bf68-4cf1-a7cb-b5b91347d85f","system_id":"levelo_inurba_marseille","lat":43.24545,"lon":5.39538,"is_reserved":false,"is_disabled":false,"rental_uris":{"android":"levelo://app?vid=a0a535df-bf68-4cf1-a7cb-b5b91347d85f","ios":"levelo://app?vid=a0a535df-bf68-4cf1-a7cb-b5b91347d85f"},"vehicle_type_id":"4","last_reported":1769994786,"current_range_meters":6400,"station_id":"ce4bhlp2rcd13ifvqgjg","pricing_plan_id":"cebpf4jnsgd1na2vs0mg"},{"bike_id":"bafe06f4-691a-42ad-b544-2647048d76df","system_id":"levelo_inurba_marseille","lat":43.23029,"lon":5.35501,"is_reserved":false,"is_disabled":false,"rental_uris":{"android":"levelo://app?vid=bafe06f4-691a-42ad-b544-2647048d76df","ios":"levelo://app?vid=bafe06f4-691a-42ad-b544-2647048d76df"},"vehicle_type_id":"4","last_reported":1769994786,"current_range_meters":6400,"station_id":"cpo3342slgdg3j2ifvpg","pricing_plan_id":"cebpf4jnsgd1na2vs0mg"},{"bike_id":"7dc17180-b588-4aeb-a334-6dc04f53330c","system_id":"levelo_inurba_marseille","lat":43.28686,"lon":5.37382,"is_reserved":false,"is_disabled":false,"rental_uris":{"android":"levelo://app?vid=7dc17180-b588-4aeb-a334-6dc04f53330c","ios":"levelo://app?vid=7dc17180-b588-4aeb-a334-6dc04f53330c"},"vehicle_type_id":"4","last_reported":1769994786,"current_range_meters":6400,"station_id":"ce4bh3p2rcd13ifvqdq0","pricing_plan_id":"cebpf4jnsgd1na2vs0mg"},{"bike_id":"064b8bc8-52f1-41a1-98a8-692ee47c9995","system_id":"levelo_inurba_marseille","lat":43.217529,"lon":5.346013,"is_reserved":false,"is_disabled":true,"rental_uris":{"android":"levelo://app?vid=064b8bc8-52f1-41a1-98a8-692ee47c9995","ios":"levelo://app?vid=064b8bc8-52f1-41a1-98a8-692ee47c9995"},"vehicle_type_id":"4","last_reported":1769994786,"current_range_meters":6400,"station_id":"","pricing_plan_id":"cebpf4jnsgd1na2vs0mg"},{"bike_id":"669cbfea-a557-4cea-af48-034865d30cc0","system_id":"levelo_inurba_marseille","lat":43.25337,"lon":5.42177,"is_reserved":false,"is_disabled":true,"rental_uris":{"android":"levelo://app?vid=669cbfea-a557-4cea-af48-034865d30cc0","ios":"levelo://app?vid=669cbfea-a557-4cea-af48-034865d30cc0"},"vehicle_type_id":"4","last_reported":1769994786,"current_range_meters":6400,"station_id":"st_d2m65c5bi1j21697t3ng","pricing_plan_id":"cebpf4jnsgd1na2vs0mg"},{"bike_id":"58982c61-2f00-4e02-b620-223b4d372a1d","system_id":"levelo_inurba_marseille","lat":43.25568,"lon":5.38243,"is_reserved":false,"is_disabled":false,"rental_uris":{"android":"levelo://app?vid=58982c61-2f00-4e02-b620-223b4d372a1d","ios":"levelo://app?vid=58982c61-2f00-4e02-b620-223b4d372a1d"},"vehicle_type_id":"4","last_reported":1769994786,"current_range_meters":6400,"station_id":"ce4bhih2rcd13ifvqfs0","pricing_plan_id":"cebpf4jnsgd1na2vs0mg"},{"bike_id":"53336c15-c4a9-4afd-ad5c-4a4cebf6f0c1","system_id":"levelo_inurba_marseille","lat":43.24157,"lon":5.36479,"is_reserved":false,"is_disabled":false,"rental_uris":{"android":"levelo://app?vid=53336c15-c4a9-4afd-ad5c-4a4cebf6f0c1","ios":"levelo://app?vid=53336c15-c4a9-4afd-ad5c-4a4cebf6f0c1"},"vehicle_type_id":"4","last_reported":1769994786,"current_range_meters":6400,"station_id":"","pricing_plan_id":"cebpf4jnsgd1na2vs0mg"},{"bike_id":"55392003-6bce-4df2-a517-2db7a8819d4b","system_id":"levelo_inurba_marseille","lat":43.28343,"lon":5.38106,"is_reserved":false,"is_disabled":false,"rental_uris":{"android":"levelo://app?vid=55392003-6bce-4df2-a517-2db7a8819d4b","ios":"levelo://app?vid=55392003-6bce-4df2-a517-2db7a8819d4b"},"vehicle_type_id":"4","last_reported":1769994786,"current_range_meters":6800,"station_id":"ce4bh412rcd13ifvqdr0","pricing_plan_id":"cebpf4jnsgd1na2vs0mg"},{"bike_id":"0a1300ad-2f14-46b7-8956-d36a4a430b42","system_id":"levelo_inurba_marseille","lat":43.24798,"lon":5.37451,"is_reserved":false,"is_disabled":false,"rental_uris":{"android":"levelo://app?vid=0a1300ad-2f14-46b7-8956-d36a4a430b42","ios":"levelo://app?vid=0a1300ad-2f14-46b7-8956-d36a4a430b42"},"vehicle_type_id":"4","last_reported":1769994786,"current_range_meters":6800,"station_id":"ce4bhgh2rcd13ifvqfb0","pricing_plan_id":"cebpf4jnsgd1na2vs0mg"},{"bike_id":"7ba60a6b-1a4f-451e-9068-e334377144f7","system_id":"levelo_inurba_marseille","lat":43.26561,"lon":5.37293,"is_reserved":false,"is_disabled":false,"rental_uris":{"android":"levelo://app?vid=7ba60a6b-1a4f-451e-9068-e334377144f7","ios":"levelo://app?vid=7ba60a6b-1a4f-451e-9068-e334377144f7"},"vehicle_type_id":"4","last_reported":1769994786,"current_range_meters":6800,"station_id":"ce4bhg12rcd13ifvqf70","pricing_plan_id":"cebpf4jnsgd1na2vs0mg"},{"bike_id":"8d19955e-e09c-4b47-a6e3-ae607dbe5088","system_id":"levelo_inurba_marseille","lat":43.26217,"lon":5.37461,"is_reserved":false,"is_disabled":true,"rental_uris":{"android":"levelo://app?vid=8d19955e-e09c-4b47-a6e3-ae607dbe5088","ios":"levelo://app?vid=8d19955e-e09c-4b47-a6e3-ae607dbe5088"},"vehicle_type_id":"4","last_reported":1769994786,"current_range_meters":6800,"station_id":"ce4bhgp2rcd13ifvqfc0","pricing_plan_id":"cebpf4jnsgd1na2vs0mg"},{"bike_id":"d2ee53f1-49b6-44a6-a171-d364ff8162cf","system_id":"levelo_inurba_marseille","lat":43.3337,"lon":5.4313,"is_reserved":false,"is_disabled":false,"rental_uris":{"android":"levelo://app?vid=d2ee53f1-49b6-44a6-a171-d364ff8162cf","ios":"levelo://app?vid=d2ee53f1-49b6-44a6-a171-d364ff8162cf"},"vehicle_type_id":"4","last_reported":1769994786,"current_range_meters":6800,"station_id":"","pricing_plan_id":"cebpf4jnsgd1na2vs0mg"},{"bike_id":"4f5d5401-a251-4bec-a1d9-6a46b0771284","system_id":"levelo_inurba_marseille","lat":43.29297,"lon":5.3715,"is_reserved":false,"is_disabled":false,"rental_uris":{"android":"levelo://app?vid=4f5d5401-a251-4bec-a1d9-6a46b0771284","ios":"levelo://app?vid=4f5d5401-a251-4bec-a1d9-6a46b0771284"},"vehicle_type_id":"4","last_reported":1769994786,"current_range_meters":6800,"station_id":"ce4bgh92rcd13ifvqb40","pricing_plan_id":"cebpf4jnsgd1na2vs0mg"},{"bike_id":"e1d85e8f-816e-43e5-832f-fa3bb6c7d9fd","system_id":"levelo_inurba_marseille","lat":43.29815,"lon":5.44065,"is_reserved":false,"is_disabled":false,"rental_uris":{"android":"levelo://app?vid=e1d85e8f-816e-43e5-832f-fa3bb6c7d9fd","ios":"levelo://app?vid=e1d85e8f-816e-43e5-832f-fa3bb6c7d9fd"},"vehicle_type_id":"4","last_reported":1769994786,"current_range_meters":6800,"station_id":"st_d3jp68qikq2c7381ktn0","pricing_plan_id":"cebpf4jnsgd1na2vs0mg"},{"bike_id":"d02a39b5-b9e6-42c0-89cf-ec41b03ef41c","system_id":"levelo_inurba_marseille","lat":43.27368,"lon":5.36258,"is_reserved":false,"is_disabled":false,"rental_uris":{"android":"levelo://app?vid=d02a39b5-b9e6-42c0-89cf-ec41b03ef41c","ios":"levelo://app?vid=d02a39b5-b9e6-42c0-89cf-ec41b03ef41c"},"vehicle_type_id":"4","last_reported":1769994786,"current_range_meters":6800,"station_id":"ce4bhbh2rcd13ifvqeo0","pricing_plan_id":"cebpf4jnsgd1na2vs0mg"},{"bike_id":"2cfe0b76-7fe5-4fd9-b3a3-329506bfba9f","system_id":"levelo_inurba_marseille","lat":43.26578,"lon":5.39034,"is_reserved":false,"is_disabled":false,"rental_uris":{"android":"levelo://app?vid=2cfe0b76-7fe5-4fd9-b3a3-329506bfba9f","ios":"levelo://app?vid=2cfe0b76-7fe5-4fd9-b3a3-329506bfba9f"},"vehicle_type_id":"4","last_reported":1769994786,"current_range_meters":6800,"station_id":"ce4bhe12rcd13ifvqf30","pricing_plan_id":"cebpf4jnsgd1na2vs0mg"},{"bike_id":"8bb7b732-ca43-4507-82e9-af15cdb95eb1","system_id":"levelo_inurba_marseille","lat":43.287,"lon":5.37379,"is_reserved":false,"is_disabled":false,"rental_uris":{"android":"levelo://app?vid=8bb7b732-ca43-4507-82e9-af15cdb95eb1","ios":"levelo://app?vid=8bb7b732-ca43-4507-82e9-af15cdb95eb1"},"vehicle_type_id":"4","last_reported":1769994786,"current_range_meters":6800,"station_id":"ce4bh3p2rcd13ifvqdq0","pricing_plan_id":"cebpf4jnsgd1na2vs0mg"},{"bike_id":"ef3ac042-6517-4112-9988-08ee387cbd2b","system_id":"levelo_inurba_marseille","lat":43.289734,"lon":5.390573,"is_reserved":false,"is_disabled":false,"rental_uris":{"android":"levelo://app?vid=ef3ac042-6517-4112-9988-08ee387cbd2b","ios":"levelo://app?vid=ef3ac042-6517-4112-9988-08ee387cbd2b"},"vehicle_type_id":"4","last_reported":1769994786,"current_range_meters":6800,"station_id":"","pricing_plan_id":"cebpf4jnsgd1na2vs0mg"},{"bike_id":"cec514c3-7ecb-423b-80b5-18639cf7781d","system_id":"levelo_inurba_marseille","lat":43.25661,"lon":5.37646,"is_reserved":false,"is_disabled":false,"rental_uris":{"android":"levelo://app?vid=cec514c3-7ecb-423b-80b5-18639cf7781d","ios":"levelo://app?vid=cec514c3-7ecb-423b-80b5-18639cf7781d"},"vehicle_type_id":"4","last_reported":1769994786,"current_range_meters":6800,"station_id":"","pricing_plan_id":"cebpf4jnsgd1na2vs0mg"},{"bike_id":"15f38625-14a2-40fd-bec6-91fdb6960c8c","system_id":"levelo_inurba_marseille","lat":43.28768,"lon":5.39042,"is_reserved":false,"is_disabled":false,"rental_uris":{"android":"levelo://app?vid=15f38625-14a2-40fd-bec6-91fdb6960c8c","ios":"levelo://app?vid=15f38625-14a2-40fd-bec6-91fdb6960c8c"},"vehicle_type_id":"4","last_reported":1769994786,"current_range_meters":6800,"station_id":"","pricing_plan_id":"cebpf4jnsgd1na2vs0mg"},{"bike_id":"328c2510-89ab-4838-a99d-d2d1b553a137","system_id":"levelo_inurba_marseille","lat":43.28164,"lon":5.42641,"is_reserved":false,"is_disabled":false,"rental_uris":{"android":"levelo://app?vid=328c2510-89ab-4838-a99d-d2d1b553a137","ios":"levelo://app?vid=328c2510-89ab-4838-a99d-d2d1b553a137"},"vehicle_type_id":"4","last_reported":1769994786,"current_range_meters":6800,"station_id":"ce4bhnh2rcd13ifvqgug","pricing_plan_id":"cebpf4jnsgd1na2vs0mg"},{"bike_id":"2b052603-1775-4258-80ad-ae63b6286ef5","system_id":"levelo_inurba_marseille","lat":43.29758,"lon":5.35933,"is_reserved":false,"is_disabled":true,"rental_uris":{"android":"levelo://app?vid=2b052603-1775-4258-80ad-ae63b6286ef5","ios":"levelo://app?vid=2b052603-1775-4258-80ad-ae63b6286ef5"},"vehicle_type_id":"4","last_reported":1769994786,"current_range_meters":6800,"station_id":"","pricing_plan_id":"cebpf4jnsgd1na2vs0mg"},{"bike_id":"a1238032-13c3-4e05-a4c3-c3bf83d0a36e","system_id":"levelo_inurba_marseille","lat":43.31131,"lon":5.3776,"is_reserved":false,"is_disabled":false,"rental_uris":{"android":"levelo://app?vid=a1238032-13c3-4e05-a4c3-c3bf83d0a36e","ios":"levelo://app?vid=a1238032-13c3-4e05-a4c3-c3bf83d0a36e"},"vehicle_type_id":"4","last_reported":1769994786,"current_range_meters":6800,"station_id":"ce4bgt92rcd13ifvqcg0","pricing_plan_id":"cebpf4jnsgd1na2vs0mg"},{"bike_id":"ae6076f5-67fa-439f-8c52-3710dfc4ce50","system_id":"levelo_inurba_marseille","lat":43.27825,"lon":5.40702,"is_reserved":false,"is_disabled":false,"rental_uris":{"android":"levelo://app?vid=ae6076f5-67fa-439f-8c52-3710dfc4ce50","ios":"levelo://app?vid=ae6076f5-67fa-439f-8c52-3710dfc4ce50"},"vehicle_type_id":"4","last_reported":1769994786,"current_range_meters":6800,"station_id":"ce4bhnh2rcd13ifvqgtg","pricing_plan_id":"cebpf4jnsgd1na2vs0mg"},{"bike_id":"5a46f343-f8c0-4bd7-9859-14e3ca910ba6","system_id":"levelo_inurba_marseille","lat":43.29477,"lon":5.43329,"is_reserved":false,"is_disabled":false,"rental_uris":{"android":"levelo://app?vid=5a46f343-f8c0-4bd7-9859-14e3ca910ba6","ios":"levelo://app?vid=5a46f343-f8c0-4bd7-9859-14e3ca910ba6"},"vehicle_type_id":"4","last_reported":1769994786,"current_range_meters":6800,"station_id":"st_d3j5ugp08ojc73fj9d10","pricing_plan_id":"cebpf4jnsgd1na2vs0mg"},{"bike_id":"d1a4c207-5791-4015-8c48-e9fcda8077be","system_id":"levelo_inurba_marseille","lat":43.331641,"lon":5.376863,"is_reserved":false,"is_disabled":false,"rental_uris":{"android":"levelo://app?vid=d1a4c207-5791-4015-8c48-e9fcda8077be","ios":"levelo://app?vid=d1a4c207-5791-4015-8c48-e9fcda8077be"},"vehicle_type_id":"4","last_reported":1769994786,"current_range_meters":7200,"station_id":"st_d46cu089ee8s73dldbu0","pricing_plan_id":"cebpf4jnsgd1na2vs0mg"},{"bike_id":"eae001be-3b34-469f-b5f5-7615da95a4ed","system_id":"levelo_inurba_marseille","lat":43.278173,"lon":5.407235,"is_reserved":false,"is_disabled":false,"rental_uris":{"android":"levelo://app?vid=eae001be-3b34-469f-b5f5-7615da95a4ed","ios":"levelo://app?vid=eae001be-3b34-469f-b5f5-7615da95a4ed"},"vehicle_type_id":"4","last_reported":1769994786,"current_range_meters":7200,"station_id":"ce4bhnh2rcd13ifvqgtg","pricing_plan_id":"cebpf4jnsgd1na2vs0mg"},{"bike_id":"14686324-f38c-4c03-a8e6-8dc7dda2f6d4","system_id":"levelo_inurba_marseille","lat":43.28033,"lon":5.36946,"is_reserved":false,"is_disabled":false,"rental_uris":{"android":"levelo://app?vid=14686324-f38c-4c03-a8e6-8dc7dda2f6d4","ios":"levelo://app?vid=14686324-f38c-4c03-a8e6-8dc7dda2f6d4"},"vehicle_type_id":"4","last_reported":1769994786,"current_range_meters":7200,"station_id":"ce4bha12rcd13ifvqef0","pricing_plan_id":"cebpf4jnsgd1na2vs0mg"},{"bike_id":"b8b94943-9f85-4dce-9193-e4086fb48a3d","system_id":"levelo_inurba_marseille","lat":43.28212,"lon":5.39056,"is_reserved":false,"is_disabled":false,"rental_uris":{"android":"levelo://app?vid=b8b94943-9f85-4dce-9193-e4086fb48a3d","ios":"levelo://app?vid=b8b94943-9f85-4dce-9193-e4086fb48a3d"},"vehicle_type_id":"4","last_reported":1769994786,"current_range_meters":7200,"station_id":"ce4bhn92rcd13ifvqgsg","pricing_plan_id":"cebpf4jnsgd1na2vs0mg"},{"bike_id":"fff7e7d9-a5a2-4648-8c64-acd8db891467","system_id":"levelo_inurba_marseille","lat":43.26208,"lon":5.40447,"is_reserved":false,"is_disabled":true,"rental_uris":{"android":"levelo://app?vid=fff7e7d9-a5a2-4648-8c64-acd8db891467","ios":"levelo://app?vid=fff7e7d9-a5a2-4648-8c64-acd8db891467"},"vehicle_type_id":"4","last_reported":1769994786,"current_range_meters":7200,"station_id":"ce4bhmh2rcd13ifvqgmg","pricing_plan_id":"cebpf4jnsgd1na2vs0mg"},{"bike_id":"90cc7704-1d56-4c80-bbd3-26f6402cccdc","system_id":"levelo_inurba_marseille","lat":43.24949,"lon":5.40494,"is_reserved":false,"is_disabled":false,"rental_uris":{"android":"levelo://app?vid=90cc7704-1d56-4c80-bbd3-26f6402cccdc","ios":"levelo://app?vid=90cc7704-1d56-4c80-bbd3-26f6402cccdc"},"vehicle_type_id":"4","last_reported":1769994786,"current_range_meters":7200,"station_id":"st_d2ngiaodas8pm72gd1h0","pricing_plan_id":"cebpf4jnsgd1na2vs0mg"},{"bike_id":"4c50b102-00aa-40e2-83bd-5e90d2e54b17","system_id":"levelo_inurba_marseille","lat":43.27973,"lon":5.39993,"is_reserved":false,"is_disabled":false,"rental_uris":{"android":"levelo://app?vid=4c50b102-00aa-40e2-83bd-5e90d2e54b17","ios":"levelo://app?vid=4c50b102-00aa-40e2-83bd-5e90d2e54b17"},"vehicle_type_id":"4","last_reported":1769994786,"current_range_meters":7200,"station_id":"ce4bho92rcd13ifvqh4g","pricing_plan_id":"cebpf4jnsgd1na2vs0mg"},{"bike_id":"934c3ee0-4ca8-4f75-bda1-aa61f44468cd","system_id":"levelo_inurba_marseille","lat":43.29037,"lon":5.38641,"is_reserved":false,"is_disabled":false,"rental_uris":{"android":"levelo://app?vid=934c3ee0-4ca8-4f75-bda1-aa61f44468cd","ios":"levelo://app?vid=934c3ee0-4ca8-4f75-bda1-aa61f44468cd"},"vehicle_type_id":"4","last_reported":1769994786,"current_range_meters":7200,"station_id":"ce4bh4p2rcd13ifvqe0g","pricing_plan_id":"cebpf4jnsgd1na2vs0mg"},{"bike_id":"231e54e6-7161-4587-916f-33b52f42e31e","system_id":"levelo_inurba_marseille","lat":43.28471,"lon":5.35894,"is_reserved":false,"is_disabled":false,"rental_uris":{"android":"levelo://app?vid=231e54e6-7161-4587-916f-33b52f42e31e","ios":"levelo://app?vid=231e54e6-7161-4587-916f-33b52f42e31e"},"vehicle_type_id":"4","last_reported":1769994786,"current_range_meters":7200,"station_id":"ce4bhah2rcd13ifvqei0","pricing_plan_id":"cebpf4jnsgd1na2vs0mg"},{"bike_id":"6632b7eb-39fd-4ac6-ab18-a3a8fd79732f","system_id":"levelo_inurba_marseille","lat":43.30872,"lon":5.37157,"is_reserved":false,"is_disabled":false,"rental_uris":{"android":"levelo://app?vid=6632b7eb-39fd-4ac6-ab18-a3a8fd79732f","ios":"levelo://app?vid=6632b7eb-39fd-4ac6-ab18-a3a8fd79732f"},"vehicle_type_id":"4","last_reported":1769994786,"current_range_meters":7200,"station_id":"ce4bguh2rcd13ifvqckg","pricing_plan_id":"cebpf4jnsgd1na2vs0mg"},{"bike_id":"b9a9097f-13d0-49a9-bb46-6f5237ccc9ec","system_id":"levelo_inurba_marseille","lat":43.27379,"lon":5.36256,"is_reserved":false,"is_disabled":false,"rental_uris":{"android":"levelo://app?vid=b9a9097f-13d0-49a9-bb46-6f5237ccc9ec","ios":"levelo://app?vid=b9a9097f-13d0-49a9-bb46-6f5237ccc9ec"},"vehicle_type_id":"4","last_reported":1769994786,"current_range_meters":7200,"station_id":"ce4bhbh2rcd13ifvqeo0","pricing_plan_id":"cebpf4jnsgd1na2vs0mg"},{"bike_id":"a8689520-55da-4b01-8143-85728e8bbdaa","system_id":"levelo_inurba_marseille","lat":43.26661,"lon":5.38598,"is_reserved":false,"is_disabled":false,"rental_uris":{"android":"levelo://app?vid=a8689520-55da-4b01-8143-85728e8bbdaa","ios":"levelo://app?vid=a8689520-55da-4b01-8143-85728e8bbdaa"},"vehicle_type_id":"4","last_reported":1769994786,"current_range_meters":7200,"station_id":"","pricing_plan_id":"cebpf4jnsgd1na2vs0mg"},{"bike_id":"3d9e2227-10a1-46d8-a7dd-9c39f443eb78","system_id":"levelo_inurba_marseille","lat":43.304149,"lon":5.412915,"is_reserved":false,"is_disabled":false,"rental_uris":{"android":"levelo://app?vid=3d9e2227-10a1-46d8-a7dd-9c39f443eb78","ios":"levelo://app?vid=3d9e2227-10a1-46d8-a7dd-9c39f443eb78"},"vehicle_type_id":"4","last_reported":1769994786,"current_range_meters":7200,"station_id":"ce4bhop2rcd13ifvqh8g","pricing_plan_id":"cebpf4jnsgd1na2vs0mg"},{"bike_id":"48defe86-fd01-4bdf-bb58-0b96240d5da2","system_id":"levelo_inurba_marseille","lat":43.284788,"lon":5.483889,"is_reserved":false,"is_disabled":false,"rental_uris":{"android":"levelo://app?vid=48defe86-fd01-4bdf-bb58-0b96240d5da2","ios":"levelo://app?vid=48defe86-fd01-4bdf-bb58-0b96240d5da2"},"vehicle_type_id":"4","last_reported":1769994786,"current_range_meters":7200,"station_id":"st_d3svhcjqgbts73a3dn0g","pricing_plan_id":"cebpf4jnsgd1na2vs0mg"},{"bike_id":"878fc9ce-9c57-49fc-989b-1dee708aa47d","system_id":"levelo_inurba_marseille","lat":43.2927,"lon":5.3685,"is_reserved":false,"is_disabled":false,"rental_uris":{"android":"levelo://app?vid=878fc9ce-9c57-49fc-989b-1dee708aa47d","ios":"levelo://app?vid=878fc9ce-9c57-49fc-989b-1dee708aa47d"},"vehicle_type_id":"4","last_reported":1769994786,"current_range_meters":8000,"station_id":"ce4bhbp2rcd13ifvqesg","pricing_plan_id":"cebpf4jnsgd1na2vs0mg"},{"bike_id":"915f07f8-71e8-442d-9fd7-f7e4f42ace83","system_id":"levelo_inurba_marseille","lat":43.23793,"lon":5.36634,"is_reserved":false,"is_disabled":false,"rental_uris":{"android":"levelo://app?vid=915f07f8-71e8-442d-9fd7-f7e4f42ace83","ios":"levelo://app?vid=915f07f8-71e8-442d-9fd7-f7e4f42ace83"},"vehicle_type_id":"4","last_reported":1769994786,"current_range_meters":8000,"station_id":"st_d3nk18o9ro0c73en2l3g","pricing_plan_id":"cebpf4jnsgd1na2vs0mg"},{"bike_id":"7c0d9424-4c16-451a-a5e1-26585d6883f7","system_id":"levelo_inurba_marseille","lat":43.288591,"lon":5.425125,"is_reserved":false,"is_disabled":false,"rental_uris":{"android":"levelo://app?vid=7c0d9424-4c16-451a-a5e1-26585d6883f7","ios":"levelo://app?vid=7c0d9424-4c16-451a-a5e1-26585d6883f7"},"vehicle_type_id":"4","last_reported":1769994786,"current_range_meters":8000,"station_id":"st_d3b462108ojc7389ooeg","pricing_plan_id":"cebpf4jnsgd1na2vs0mg"},{"bike_id":"02087be4-3493-4a9e-a6d1-eb7f40b4874c","system_id":"levelo_inurba_marseille","lat":43.26541,"lon":5.39004,"is_reserved":false,"is_disabled":false,"rental_uris":{"android":"levelo://app?vid=02087be4-3493-4a9e-a6d1-eb7f40b4874c","ios":"levelo://app?vid=02087be4-3493-4a9e-a6d1-eb7f40b4874c"},"vehicle_type_id":"4","last_reported":1769994786,"current_range_meters":8000,"station_id":"ce4bhe12rcd13ifvqf30","pricing_plan_id":"cebpf4jnsgd1na2vs0mg"},{"bike_id":"da1cc9b1-3b64-490a-b8d8-fe9a47834cfd","system_id":"levelo_inurba_marseille","lat":43.27935,"lon":5.38707,"is_reserved":false,"is_disabled":false,"rental_uris":{"android":"levelo://app?vid=da1cc9b1-3b64-490a-b8d8-fe9a47834cfd","ios":"levelo://app?vid=da1cc9b1-3b64-490a-b8d8-fe9a47834cfd"},"vehicle_type_id":"4","last_reported":1769994786,"current_range_meters":8000,"station_id":"","pricing_plan_id":"cebpf4jnsgd1na2vs0mg"},{"bike_id":"d64baf67-1a62-4b86-9aae-88e7781f3b30","system_id":"levelo_inurba_marseille","lat":43.23193,"lon":5.39999,"is_reserved":false,"is_disabled":false,"rental_uris":{"android":"levelo://app?vid=d64baf67-1a62-4b86-9aae-88e7781f3b30","ios":"levelo://app?vid=d64baf67-1a62-4b86-9aae-88e7781f3b30"},"vehicle_type_id":"4","last_reported":1769994786,"current_range_meters":8000,"station_id":"ce4bhn12rcd13ifvqgqg","pricing_plan_id":"cebpf4jnsgd1na2vs0mg"},{"bike_id":"4d614b31-2487-459c-80b4-20568895cab0","system_id":"levelo_inurba_marseille","lat":43.240181,"lon":5.378042,"is_reserved":false,"is_disabled":true,"rental_uris":{"android":"levelo://app?vid=4d614b31-2487-459c-80b4-20568895cab0","ios":"levelo://app?vid=4d614b31-2487-459c-80b4-20568895cab0"},"vehicle_type_id":"4","last_reported":1769994786,"current_range_meters":8000,"station_id":"ce4bhnp2rcd13ifvqgvg","pricing_plan_id":"cebpf4jnsgd1na2vs0mg"},{"bike_id":"1fa8e335-1ff0-404e-b8c4-82c4c2c91fd1","system_id":"levelo_inurba_marseille","lat":43.31173,"lon":5.38741,"is_reserved":false,"is_disabled":false,"rental_uris":{"android":"levelo://app?vid=1fa8e335-1ff0-404e-b8c4-82c4c2c91fd1","ios":"levelo://app?vid=1fa8e335-1ff0-404e-b8c4-82c4c2c91fd1"},"vehicle_type_id":"4","last_reported":1769994786,"current_range_meters":8000,"station_id":"ce4bgv12rcd13ifvqcp0","pricing_plan_id":"cebpf4jnsgd1na2vs0mg"},{"bike_id":"f34b59e1-4e39-4af3-a25b-ab4cbda4d328","system_id":"levelo_inurba_marseille","lat":43.24809,"lon":5.37468,"is_reserved":false,"is_disabled":false,"rental_uris":{"android":"levelo://app?vid=f34b59e1-4e39-4af3-a25b-ab4cbda4d328","ios":"levelo://app?vid=f34b59e1-4e39-4af3-a25b-ab4cbda4d328"},"vehicle_type_id":"4","last_reported":1769994786,"current_range_meters":8000,"station_id":"ce4bhgh2rcd13ifvqfb0","pricing_plan_id":"cebpf4jnsgd1na2vs0mg"},{"bike_id":"ead9d525-178d-43f7-b202-498aac541976","system_id":"levelo_inurba_marseille","lat":43.22551,"lon":5.4165,"is_reserved":false,"is_disabled":false,"rental_uris":{"android":"levelo://app?vid=ead9d525-178d-43f7-b202-498aac541976","ios":"levelo://app?vid=ead9d525-178d-43f7-b202-498aac541976"},"vehicle_type_id":"4","last_reported":1769994786,"current_range_meters":8000,"station_id":"st_d2o4gvlbi1j2169b742g","pricing_plan_id":"cebpf4jnsgd1na2vs0mg"},{"bike_id":"1d871e15-87dd-49cd-870e-4c3cf09f339c","system_id":"levelo_inurba_marseille","lat":43.23797,"lon":5.3662,"is_reserved":false,"is_disabled":false,"rental_uris":{"android":"levelo://app?vid=1d871e15-87dd-49cd-870e-4c3cf09f339c","ios":"levelo://app?vid=1d871e15-87dd-49cd-870e-4c3cf09f339c"},"vehicle_type_id":"4","last_reported":1769994786,"current_range_meters":8000,"station_id":"st_d3nk18o9ro0c73en2l3g","pricing_plan_id":"cebpf4jnsgd1na2vs0mg"},{"bike_id":"3a58788c-4a23-4531-9872-db4b04a34512","system_id":"levelo_inurba_marseille","lat":43.25008,"lon":5.38916,"is_reserved":false,"is_disabled":false,"rental_uris":{"android":"levelo://app?vid=3a58788c-4a23-4531-9872-db4b04a34512","ios":"levelo://app?vid=3a58788c-4a23-4531-9872-db4b04a34512"},"vehicle_type_id":"4","last_reported":1769994786,"current_range_meters":8000,"station_id":"ce4bhgp2rcd13ifvqfd0","pricing_plan_id":"cebpf4jnsgd1na2vs0mg"},{"bike_id":"07a8f0de-8f5d-4ee6-a2fa-cbf26afc63cc","system_id":"levelo_inurba_marseille","lat":43.2456,"lon":5.39557,"is_reserved":false,"is_disabled":false,"rental_uris":{"android":"levelo://app?vid=07a8f0de-8f5d-4ee6-a2fa-cbf26afc63cc","ios":"levelo://app?vid=07a8f0de-8f5d-4ee6-a2fa-cbf26afc63cc"},"vehicle_type_id":"4","last_reported":1769994786,"current_range_meters":8000,"station_id":"ce4bhlp2rcd13ifvqgjg","pricing_plan_id":"cebpf4jnsgd1na2vs0mg"},{"bike_id":"4c8d6559-5c0e-4c38-8c22-f1ad5781fe43","system_id":"levelo_inurba_marseille","lat":43.292751,"lon":5.401344,"is_reserved":false,"is_disabled":false,"rental_uris":{"android":"levelo://app?vid=4c8d6559-5c0e-4c38-8c22-f1ad5781fe43","ios":"levelo://app?vid=4c8d6559-5c0e-4c38-8c22-f1ad5781fe43"},"vehicle_type_id":"4","last_reported":1769994786,"current_range_meters":8000,"station_id":"ce4bh312rcd13ifvqdk0","pricing_plan_id":"cebpf4jnsgd1na2vs0mg"},{"bike_id":"fb770f52-ce98-4cd4-aae7-0a310d77081f","system_id":"levelo_inurba_marseille","lat":43.28866,"lon":5.4251,"is_reserved":false,"is_disabled":true,"rental_uris":{"android":"levelo://app?vid=fb770f52-ce98-4cd4-aae7-0a310d77081f","ios":"levelo://app?vid=fb770f52-ce98-4cd4-aae7-0a310d77081f"},"vehicle_type_id":"4","last_reported":1769994786,"current_range_meters":8000,"station_id":"st_d3b462108ojc7389ooeg","pricing_plan_id":"cebpf4jnsgd1na2vs0mg"},{"bike_id":"5314c925-8abd-4499-af6f-34a67e79c6a8","system_id":"levelo_inurba_marseille","lat":43.28604,"lon":5.39891,"is_reserved":false,"is_disabled":false,"rental_uris":{"android":"levelo://app?vid=5314c925-8abd-4499-af6f-34a67e79c6a8","ios":"levelo://app?vid=5314c925-8abd-4499-af6f-34a67e79c6a8"},"vehicle_type_id":"4","last_reported":1769994786,"current_range_meters":8000,"station_id":"st_d4a7ka997mjs738ck50g","pricing_plan_id":"cebpf4jnsgd1na2vs0mg"},{"bike_id":"76695816-489b-4401-ac2a-0147df0088c5","system_id":"levelo_inurba_marseille","lat":43.30483,"lon":5.37904,"is_reserved":false,"is_disabled":true,"rental_uris":{"android":"levelo://app?vid=76695816-489b-4401-ac2a-0147df0088c5","ios":"levelo://app?vid=76695816-489b-4401-ac2a-0147df0088c5"},"vehicle_type_id":"4","last_reported":1769994786,"current_range_meters":8400,"station_id":"ce4bgup2rcd13ifvqcn0","pricing_plan_id":"cebpf4jnsgd1na2vs0mg"},{"bike_id":"94cbe5a1-172e-4cc9-bb27-f3369919b100","system_id":"levelo_inurba_marseille","lat":43.24085,"lon":5.37737,"is_reserved":false,"is_disabled":false,"rental_uris":{"android":"levelo://app?vid=94cbe5a1-172e-4cc9-bb27-f3369919b100","ios":"levelo://app?vid=94cbe5a1-172e-4cc9-bb27-f3369919b100"},"vehicle_type_id":"4","last_reported":1769994786,"current_range_meters":8400,"station_id":"ce4bhnp2rcd13ifvqgvg","pricing_plan_id":"cebpf4jnsgd1na2vs0mg"},{"bike_id":"c908c76d-5841-48a6-bd50-48ef6a9cf886","system_id":"levelo_inurba_marseille","lat":43.32487,"lon":5.382873,"is_reserved":false,"is_disabled":false,"rental_uris":{"android":"levelo://app?vid=c908c76d-5841-48a6-bd50-48ef6a9cf886","ios":"levelo://app?vid=c908c76d-5841-48a6-bd50-48ef6a9cf886"},"vehicle_type_id":"4","last_reported":1769994786,"current_range_meters":8400,"station_id":"st_d4asgbiv49dc73anf9m0","pricing_plan_id":"cebpf4jnsgd1na2vs0mg"},{"bike_id":"e09e2717-153b-489f-b446-f480f14d97b2","system_id":"levelo_inurba_marseille","lat":43.27943,"lon":5.4105,"is_reserved":false,"is_disabled":false,"rental_uris":{"android":"levelo://app?vid=e09e2717-153b-489f-b446-f480f14d97b2","ios":"levelo://app?vid=e09e2717-153b-489f-b446-f480f14d97b2"},"vehicle_type_id":"4","last_reported":1769994786,"current_range_meters":8400,"station_id":"ce4bhnp2rcd13ifvqh0g","pricing_plan_id":"cebpf4jnsgd1na2vs0mg"},{"bike_id":"4b39f1cc-8d5c-4330-8483-0300616cf7c0","system_id":"levelo_inurba_marseille","lat":43.2406,"lon":5.36369,"is_reserved":false,"is_disabled":false,"rental_uris":{"android":"levelo://app?vid=4b39f1cc-8d5c-4330-8483-0300616cf7c0","ios":"levelo://app?vid=4b39f1cc-8d5c-4330-8483-0300616cf7c0"},"vehicle_type_id":"4","last_reported":1769994786,"current_range_meters":8400,"station_id":"","pricing_plan_id":"cebpf4jnsgd1na2vs0mg"},{"bike_id":"f056ea2b-6797-487b-a390-938d25af24c7","system_id":"levelo_inurba_marseille","lat":43.274941,"lon":5.424513,"is_reserved":false,"is_disabled":false,"rental_uris":{"android":"levelo://app?vid=f056ea2b-6797-487b-a390-938d25af24c7","ios":"levelo://app?vid=f056ea2b-6797-487b-a390-938d25af24c7"},"vehicle_type_id":"4","last_reported":1769994786,"current_range_meters":8400,"station_id":"ce4bhn92rcd13ifvqgrg","pricing_plan_id":"cebpf4jnsgd1na2vs0mg"},{"bike_id":"c727b0e5-6d02-4d30-8ab7-176d38c9e150","system_id":"levelo_inurba_marseille","lat":43.317193,"lon":5.423934,"is_reserved":false,"is_disabled":false,"rental_uris":{"android":"levelo://app?vid=c727b0e5-6d02-4d30-8ab7-176d38c9e150","ios":"levelo://app?vid=c727b0e5-6d02-4d30-8ab7-176d38c9e150"},"vehicle_type_id":"4","last_reported":1769994786,"current_range_meters":8400,"station_id":"ce4bhp92rcd13ifvqhbg","pricing_plan_id":"cebpf4jnsgd1na2vs0mg"},{"bike_id":"adddaa60-d055-4421-b10f-573a435d7714","system_id":"levelo_inurba_marseille","lat":43.25483,"lon":5.37647,"is_reserved":false,"is_disabled":false,"rental_uris":{"android":"levelo://app?vid=adddaa60-d055-4421-b10f-573a435d7714","ios":"levelo://app?vid=adddaa60-d055-4421-b10f-573a435d7714"},"vehicle_type_id":"4","last_reported":1769994786,"current_range_meters":8400,"station_id":"ce4bhh12rcd13ifvqff0","pricing_plan_id":"cebpf4jnsgd1na2vs0mg"},{"bike_id":"7339baea-42a7-44c8-866b-b3318d7a94e4","system_id":"levelo_inurba_marseille","lat":43.310544,"lon":5.371791,"is_reserved":false,"is_disabled":false,"rental_uris":{"android":"levelo://app?vid=7339baea-42a7-44c8-866b-b3318d7a94e4","ios":"levelo://app?vid=7339baea-42a7-44c8-866b-b3318d7a94e4"},"vehicle_type_id":"4","last_reported":1769994786,"current_range_meters":8400,"station_id":"st_d4kl2rp97mjs73e7tdfg","pricing_plan_id":"cebpf4jnsgd1na2vs0mg"},{"bike_id":"647e8c67-198d-4317-8b12-fb4881b15010","system_id":"levelo_inurba_marseille","lat":43.29767,"lon":5.36459,"is_reserved":false,"is_disabled":false,"rental_uris":{"android":"levelo://app?vid=647e8c67-198d-4317-8b12-fb4881b15010","ios":"levelo://app?vid=647e8c67-198d-4317-8b12-fb4881b15010"},"vehicle_type_id":"4","last_reported":1769994786,"current_range_meters":8400,"station_id":"","pricing_plan_id":"cebpf4jnsgd1na2vs0mg"},{"bike_id":"bad2142d-9f55-4621-b045-df305d11c2d1","system_id":"levelo_inurba_marseille","lat":43.31251,"lon":5.36856,"is_reserved":false,"is_disabled":false,"rental_uris":{"android":"levelo://app?vid=bad2142d-9f55-4621-b045-df305d11c2d1","ios":"levelo://app?vid=bad2142d-9f55-4621-b045-df305d11c2d1"},"vehicle_type_id":"4","last_reported":1769994786,"current_range_meters":8400,"station_id":"ce4bgl92rcd13ifvqbq0","pricing_plan_id":"cebpf4jnsgd1na2vs0mg"},{"bike_id":"df56c3cd-b8f3-4331-9204-6cdae907a930","system_id":"levelo_inurba_marseille","lat":43.2998,"lon":5.37196,"is_reserved":false,"is_disabled":true,"rental_uris":{"android":"levelo://app?vid=df56c3cd-b8f3-4331-9204-6cdae907a930","ios":"levelo://app?vid=df56c3cd-b8f3-4331-9204-6cdae907a930"},"vehicle_type_id":"4","last_reported":1769994786,"current_range_meters":8400,"station_id":"ce4bgr92rcd13ifvqc7g","pricing_plan_id":"cebpf4jnsgd1na2vs0mg"},{"bike_id":"80f86e00-c283-4a17-a19a-e4aecae6582f","system_id":"levelo_inurba_marseille","lat":43.291955,"lon":5.393199,"is_reserved":false,"is_disabled":true,"rental_uris":{"android":"levelo://app?vid=80f86e00-c283-4a17-a19a-e4aecae6582f","ios":"levelo://app?vid=80f86e00-c283-4a17-a19a-e4aecae6582f"},"vehicle_type_id":"4","last_reported":1769994786,"current_range_meters":8400,"station_id":"ce4bh192rcd13ifvqdd0","pricing_plan_id":"cebpf4jnsgd1na2vs0mg"},{"bike_id":"c98bcba6-d7b0-4b2f-8fe2-48ff2adb5d2b","system_id":"levelo_inurba_marseille","lat":43.29782,"lon":5.393347,"is_reserved":false,"is_disabled":false,"rental_uris":{"android":"levelo://app?vid=c98bcba6-d7b0-4b2f-8fe2-48ff2adb5d2b","ios":"levelo://app?vid=c98bcba6-d7b0-4b2f-8fe2-48ff2adb5d2b"},"vehicle_type_id":"4","last_reported":1769994786,"current_range_meters":8400,"station_id":"chh1huq6cuj3fo74tm60","pricing_plan_id":"cebpf4jnsgd1na2vs0mg"},{"bike_id":"598c3be9-e516-4a68-8ee3-e84cf24002f9","system_id":"levelo_inurba_marseille","lat":43.25002,"lon":5.38912,"is_reserved":false,"is_disabled":true,"rental_uris":{"android":"levelo://app?vid=598c3be9-e516-4a68-8ee3-e84cf24002f9","ios":"levelo://app?vid=598c3be9-e516-4a68-8ee3-e84cf24002f9"},"vehicle_type_id":"4","last_reported":1769994786,"current_range_meters":8400,"station_id":"ce4bhgp2rcd13ifvqfd0","pricing_plan_id":"cebpf4jnsgd1na2vs0mg"},{"bike_id":"ef7394c4-2156-4b9c-9d8c-159e5222bedb","system_id":"levelo_inurba_marseille","lat":43.298764,"lon":5.389098,"is_reserved":false,"is_disabled":false,"rental_uris":{"android":"levelo://app?vid=ef7394c4-2156-4b9c-9d8c-159e5222bedb","ios":"levelo://app?vid=ef7394c4-2156-4b9c-9d8c-159e5222bedb"},"vehicle_type_id":"4","last_reported":1769994786,"current_range_meters":8400,"station_id":"ce4bh392rcd13ifvqdl0","pricing_plan_id":"cebpf4jnsgd1na2vs0mg"},{"bike_id":"d61291e6-ad65-4e29-b504-9e58112c8da3","system_id":"levelo_inurba_marseille","lat":43.30092,"lon":5.39073,"is_reserved":false,"is_disabled":false,"rental_uris":{"android":"levelo://app?vid=d61291e6-ad65-4e29-b504-9e58112c8da3","ios":"levelo://app?vid=d61291e6-ad65-4e29-b504-9e58112c8da3"},"vehicle_type_id":"4","last_reported":1769994786,"current_range_meters":8400,"station_id":"ce4bh192rcd13ifvqdb0","pricing_plan_id":"cebpf4jnsgd1na2vs0mg"},{"bike_id":"4060097e-e5cb-4033-97df-057cbdd0760e","system_id":"levelo_inurba_marseille","lat":43.31112,"lon":5.37775,"is_reserved":false,"is_disabled":false,"rental_uris":{"android":"levelo://app?vid=4060097e-e5cb-4033-97df-057cbdd0760e","ios":"levelo://app?vid=4060097e-e5cb-4033-97df-057cbdd0760e"},"vehicle_type_id":"4","last_reported":1769994786,"current_range_meters":8400,"station_id":"ce4bgt92rcd13ifvqcg0","pricing_plan_id":"cebpf4jnsgd1na2vs0mg"},{"bike_id":"fcc56630-d6aa-427a-9b6b-6381e911d09d","system_id":"levelo_inurba_marseille","lat":43.27935,"lon":5.4105,"is_reserved":false,"is_disabled":false,"rental_uris":{"android":"levelo://app?vid=fcc56630-d6aa-427a-9b6b-6381e911d09d","ios":"levelo://app?vid=fcc56630-d6aa-427a-9b6b-6381e911d09d"},"vehicle_type_id":"4","last_reported":1769994786,"current_range_meters":8800,"station_id":"ce4bhnp2rcd13ifvqh0g","pricing_plan_id":"cebpf4jnsgd1na2vs0mg"},{"bike_id":"297d13dc-a8fe-4c7e-ab4e-c67c01d72bc9","system_id":"levelo_inurba_marseille","lat":43.2668,"lon":5.38272,"is_reserved":false,"is_disabled":false,"rental_uris":{"android":"levelo://app?vid=297d13dc-a8fe-4c7e-ab4e-c67c01d72bc9","ios":"levelo://app?vid=297d13dc-a8fe-4c7e-ab4e-c67c01d72bc9"},"vehicle_type_id":"4","last_reported":1769994786,"current_range_meters":8800,"station_id":"ce4bhg92rcd13ifvqf90","pricing_plan_id":"cebpf4jnsgd1na2vs0mg"},{"bike_id":"83954c91-b1be-419e-85e2-be05d774291d","system_id":"levelo_inurba_marseille","lat":43.24083,"lon":5.37746,"is_reserved":false,"is_disabled":false,"rental_uris":{"android":"levelo://app?vid=83954c91-b1be-419e-85e2-be05d774291d","ios":"levelo://app?vid=83954c91-b1be-419e-85e2-be05d774291d"},"vehicle_type_id":"4","last_reported":1769994786,"current_range_meters":8800,"station_id":"ce4bhnp2rcd13ifvqgvg","pricing_plan_id":"cebpf4jnsgd1na2vs0mg"},{"bike_id":"5e98e774-ce1f-4d8e-9499-8e91ec1bd867","system_id":"levelo_inurba_marseille","lat":43.255757,"lon":5.382287,"is_reserved":false,"is_disabled":false,"rental_uris":{"android":"levelo://app?vid=5e98e774-ce1f-4d8e-9499-8e91ec1bd867","ios":"levelo://app?vid=5e98e774-ce1f-4d8e-9499-8e91ec1bd867"},"vehicle_type_id":"4","last_reported":1769994786,"current_range_meters":8800,"station_id":"ce4bhih2rcd13ifvqfs0","pricing_plan_id":"cebpf4jnsgd1na2vs0mg"},{"bike_id":"2d538e38-1b37-4b8e-bd2e-7d47bdc6040e","system_id":"levelo_inurba_marseille","lat":43.29056,"lon":5.37533,"is_reserved":false,"is_disabled":true,"rental_uris":{"android":"levelo://app?vid=2d538e38-1b37-4b8e-bd2e-7d47bdc6040e","ios":"levelo://app?vid=2d538e38-1b37-4b8e-bd2e-7d47bdc6040e"},"vehicle_type_id":"4","last_reported":1769994786,"current_range_meters":8800,"station_id":"ce4bh692rcd13ifvqe90","pricing_plan_id":"cebpf4jnsgd1na2vs0mg"},{"bike_id":"360a7cc4-4a14-4903-a69b-231671ec0884","system_id":"levelo_inurba_marseille","lat":43.27824,"lon":5.3922,"is_reserved":false,"is_disabled":false,"rental_uris":{"android":"levelo://app?vid=360a7cc4-4a14-4903-a69b-231671ec0884","ios":"levelo://app?vid=360a7cc4-4a14-4903-a69b-231671ec0884"},"vehicle_type_id":"4","last_reported":1769994786,"current_range_meters":8800,"station_id":"ce4bhjp2rcd13ifvqga0","pricing_plan_id":"cebpf4jnsgd1na2vs0mg"},{"bike_id":"9793b84d-9eb4-4d22-8eec-fae4bbb0768d","system_id":"levelo_inurba_marseille","lat":43.279384,"lon":5.410362,"is_reserved":false,"is_disabled":false,"rental_uris":{"android":"levelo://app?vid=9793b84d-9eb4-4d22-8eec-fae4bbb0768d","ios":"levelo://app?vid=9793b84d-9eb4-4d22-8eec-fae4bbb0768d"},"vehicle_type_id":"4","last_reported":1769994786,"current_range_meters":8800,"station_id":"ce4bhnp2rcd13ifvqh0g","pricing_plan_id":"cebpf4jnsgd1na2vs0mg"},{"bike_id":"e73a6b18-e6bd-4af3-92ae-5f38381bf229","system_id":"levelo_inurba_marseille","lat":43.3015,"lon":5.37405,"is_reserved":false,"is_disabled":false,"rental_uris":{"android":"levelo://app?vid=e73a6b18-e6bd-4af3-92ae-5f38381bf229","ios":"levelo://app?vid=e73a6b18-e6bd-4af3-92ae-5f38381bf229"},"vehicle_type_id":"4","last_reported":1769994786,"current_range_meters":8800,"station_id":"ce4bgs92rcd13ifvqcc0","pricing_plan_id":"cebpf4jnsgd1na2vs0mg"},{"bike_id":"180da0d1-bd60-4b3f-a4d6-ad95d36df675","system_id":"levelo_inurba_marseille","lat":43.231956,"lon":5.355434,"is_reserved":false,"is_disabled":false,"rental_uris":{"android":"levelo://app?vid=180da0d1-bd60-4b3f-a4d6-ad95d36df675","ios":"levelo://app?vid=180da0d1-bd60-4b3f-a4d6-ad95d36df675"},"vehicle_type_id":"4","last_reported":1769994786,"current_range_meters":8800,"station_id":"ce4bhu92rcd13ifvqi70","pricing_plan_id":"cebpf4jnsgd1na2vs0mg"},{"bike_id":"1abf9e9a-1918-4306-bac2-36b45cf037f6","system_id":"levelo_inurba_marseille","lat":43.28693,"lon":5.37371,"is_reserved":false,"is_disabled":false,"rental_uris":{"android":"levelo://app?vid=1abf9e9a-1918-4306-bac2-36b45cf037f6","ios":"levelo://app?vid=1abf9e9a-1918-4306-bac2-36b45cf037f6"},"vehicle_type_id":"4","last_reported":1769994786,"current_range_meters":8800,"station_id":"ce4bh3p2rcd13ifvqdq0","pricing_plan_id":"cebpf4jnsgd1na2vs0mg"},{"bike_id":"20e5a6ab-b7c2-47d7-a8a2-b30b7e3c699b","system_id":"levelo_inurba_marseille","lat":43.28499,"lon":5.48396,"is_reserved":false,"is_disabled":false,"rental_uris":{"android":"levelo://app?vid=20e5a6ab-b7c2-47d7-a8a2-b30b7e3c699b","ios":"levelo://app?vid=20e5a6ab-b7c2-47d7-a8a2-b30b7e3c699b"},"vehicle_type_id":"4","last_reported":1769994786,"current_range_meters":8800,"station_id":"st_d3svhcjqgbts73a3dn0g","pricing_plan_id":"cebpf4jnsgd1na2vs0mg"},{"bike_id":"04a5a56a-3b29-44bb-97a5-7e1195da1eb0","system_id":"levelo_inurba_marseille","lat":43.25079,"lon":5.39501,"is_reserved":false,"is_disabled":false,"rental_uris":{"android":"levelo://app?vid=04a5a56a-3b29-44bb-97a5-7e1195da1eb0","ios":"levelo://app?vid=04a5a56a-3b29-44bb-97a5-7e1195da1eb0"},"vehicle_type_id":"4","last_reported":1769994786,"current_range_meters":8800,"station_id":"ce4bhm12rcd13ifvqgkg","pricing_plan_id":"cebpf4jnsgd1na2vs0mg"},{"bike_id":"95fb9b5d-387c-4b2b-9bd6-77bdd9f1b121","system_id":"levelo_inurba_marseille","lat":43.289446,"lon":5.366398,"is_reserved":false,"is_disabled":false,"rental_uris":{"android":"levelo://app?vid=95fb9b5d-387c-4b2b-9bd6-77bdd9f1b121","ios":"levelo://app?vid=95fb9b5d-387c-4b2b-9bd6-77bdd9f1b121"},"vehicle_type_id":"4","last_reported":1769994786,"current_range_meters":9200,"station_id":"ce4bhap2rcd13ifvqek0","pricing_plan_id":"cebpf4jnsgd1na2vs0mg"},{"bike_id":"383629b2-73f2-4b1e-9cf1-7119fdaec39e","system_id":"levelo_inurba_marseille","lat":43.27372,"lon":5.36271,"is_reserved":false,"is_disabled":false,"rental_uris":{"android":"levelo://app?vid=383629b2-73f2-4b1e-9cf1-7119fdaec39e","ios":"levelo://app?vid=383629b2-73f2-4b1e-9cf1-7119fdaec39e"},"vehicle_type_id":"4","last_reported":1769994786,"current_range_meters":9200,"station_id":"ce4bhbh2rcd13ifvqeo0","pricing_plan_id":"cebpf4jnsgd1na2vs0mg"},{"bike_id":"42f3911a-939e-4889-9561-3c06517c8f7e","system_id":"levelo_inurba_marseille","lat":43.26754,"lon":5.39417,"is_reserved":false,"is_disabled":true,"rental_uris":{"android":"levelo://app?vid=42f3911a-939e-4889-9561-3c06517c8f7e","ios":"levelo://app?vid=42f3911a-939e-4889-9561-3c06517c8f7e"},"vehicle_type_id":"4","last_reported":1769994786,"current_range_meters":9200,"station_id":"ce4bhh12rcd13ifvqfg0","pricing_plan_id":"cebpf4jnsgd1na2vs0mg"},{"bike_id":"a7a08982-a4b3-4165-befb-342335e20b0b","system_id":"levelo_inurba_marseille","lat":43.23791,"lon":5.3666,"is_reserved":false,"is_disabled":false,"rental_uris":{"android":"levelo://app?vid=a7a08982-a4b3-4165-befb-342335e20b0b","ios":"levelo://app?vid=a7a08982-a4b3-4165-befb-342335e20b0b"},"vehicle_type_id":"4","last_reported":1769994786,"current_range_meters":9200,"station_id":"st_d3nk18o9ro0c73en2l3g","pricing_plan_id":"cebpf4jnsgd1na2vs0mg"},{"bike_id":"2f272f9d-bafe-4a44-a2e3-105574c73c4b","system_id":"levelo_inurba_marseille","lat":43.24167,"lon":5.39724,"is_reserved":false,"is_disabled":false,"rental_uris":{"android":"levelo://app?vid=2f272f9d-bafe-4a44-a2e3-105574c73c4b","ios":"levelo://app?vid=2f272f9d-bafe-4a44-a2e3-105574c73c4b"},"vehicle_type_id":"4","last_reported":1769994786,"current_range_meters":9200,"station_id":"ce4bhn12rcd13ifvqgpg","pricing_plan_id":"cebpf4jnsgd1na2vs0mg"},{"bike_id":"78f87509-7a97-4d09-86ee-cdbe34d59bc6","system_id":"levelo_inurba_marseille","lat":43.24824,"lon":5.38467,"is_reserved":false,"is_disabled":false,"rental_uris":{"android":"levelo://app?vid=78f87509-7a97-4d09-86ee-cdbe34d59bc6","ios":"levelo://app?vid=78f87509-7a97-4d09-86ee-cdbe34d59bc6"},"vehicle_type_id":"4","last_reported":1769994786,"current_range_meters":9200,"station_id":"","pricing_plan_id":"cebpf4jnsgd1na2vs0mg"},{"bike_id":"5d0d47a8-756c-475a-969a-b713ee9b7b0d","system_id":"levelo_inurba_marseille","lat":43.31041,"lon":5.39383,"is_reserved":false,"is_disabled":false,"rental_uris":{"android":"levelo://app?vid=5d0d47a8-756c-475a-969a-b713ee9b7b0d","ios":"levelo://app?vid=5d0d47a8-756c-475a-969a-b713ee9b7b0d"},"vehicle_type_id":"4","last_reported":1769994786,"current_range_meters":9200,"station_id":"","pricing_plan_id":"cebpf4jnsgd1na2vs0mg"},{"bike_id":"62af0ab7-05b6-4f47-9cdb-5da8f9fcdec4","system_id":"levelo_inurba_marseille","lat":43.22544,"lon":5.41654,"is_reserved":false,"is_disabled":false,"rental_uris":{"android":"levelo://app?vid=62af0ab7-05b6-4f47-9cdb-5da8f9fcdec4","ios":"levelo://app?vid=62af0ab7-05b6-4f47-9cdb-5da8f9fcdec4"},"vehicle_type_id":"4","last_reported":1769994786,"current_range_meters":9200,"station_id":"st_d2o4gvlbi1j2169b742g","pricing_plan_id":"cebpf4jnsgd1na2vs0mg"},{"bike_id":"22baf9fe-221d-4a36-8efa-991ae1dccb97","system_id":"levelo_inurba_marseille","lat":43.24997,"lon":5.38926,"is_reserved":false,"is_disabled":false,"rental_uris":{"android":"levelo://app?vid=22baf9fe-221d-4a36-8efa-991ae1dccb97","ios":"levelo://app?vid=22baf9fe-221d-4a36-8efa-991ae1dccb97"},"vehicle_type_id":"4","last_reported":1769994786,"current_range_meters":9200,"station_id":"ce4bhgp2rcd13ifvqfd0","pricing_plan_id":"cebpf4jnsgd1na2vs0mg"},{"bike_id":"cc0b84ac-7fbb-4980-b58e-e350075abe8e","system_id":"levelo_inurba_marseille","lat":43.28035,"lon":5.36958,"is_reserved":false,"is_disabled":false,"rental_uris":{"android":"levelo://app?vid=cc0b84ac-7fbb-4980-b58e-e350075abe8e","ios":"levelo://app?vid=cc0b84ac-7fbb-4980-b58e-e350075abe8e"},"vehicle_type_id":"4","last_reported":1769994786,"current_range_meters":9200,"station_id":"ce4bha12rcd13ifvqef0","pricing_plan_id":"cebpf4jnsgd1na2vs0mg"},{"bike_id":"11669f92-a768-40e3-968e-23d92654a864","system_id":"levelo_inurba_marseille","lat":43.27961,"lon":5.41037,"is_reserved":false,"is_disabled":false,"rental_uris":{"android":"levelo://app?vid=11669f92-a768-40e3-968e-23d92654a864","ios":"levelo://app?vid=11669f92-a768-40e3-968e-23d92654a864"},"vehicle_type_id":"4","last_reported":1769994786,"current_range_meters":9200,"station_id":"ce4bhnp2rcd13ifvqh0g","pricing_plan_id":"cebpf4jnsgd1na2vs0mg"},{"bike_id":"7ac53e7b-4a27-4aab-9631-08495b8cb3e9","system_id":"levelo_inurba_marseille","lat":43.29521,"lon":5.37503,"is_reserved":false,"is_disabled":true,"rental_uris":{"android":"levelo://app?vid=7ac53e7b-4a27-4aab-9631-08495b8cb3e9","ios":"levelo://app?vid=7ac53e7b-4a27-4aab-9631-08495b8cb3e9"},"vehicle_type_id":"4","last_reported":1769994786,"current_range_meters":9200,"station_id":"ce4bgkp2rcd13ifvqbmg","pricing_plan_id":"cebpf4jnsgd1na2vs0mg"},{"bike_id":"6727a572-a551-4eb0-a695-8a672aba5c03","system_id":"levelo_inurba_marseille","lat":43.28231,"lon":5.39045,"is_reserved":false,"is_disabled":false,"rental_uris":{"android":"levelo://app?vid=6727a572-a551-4eb0-a695-8a672aba5c03","ios":"levelo://app?vid=6727a572-a551-4eb0-a695-8a672aba5c03"},"vehicle_type_id":"4","last_reported":1769994786,"current_range_meters":9200,"station_id":"ce4bhn92rcd13ifvqgsg","pricing_plan_id":"cebpf4jnsgd1na2vs0mg"},{"bike_id":"35321c53-c7e0-4ca6-b81e-4e15b9397397","system_id":"levelo_inurba_marseille","lat":43.303185,"lon":5.404408,"is_reserved":false,"is_disabled":false,"rental_uris":{"android":"levelo://app?vid=35321c53-c7e0-4ca6-b81e-4e15b9397397","ios":"levelo://app?vid=35321c53-c7e0-4ca6-b81e-4e15b9397397"},"vehicle_type_id":"4","last_reported":1769994786,"current_range_meters":9200,"station_id":"ce4bh012rcd13ifvqd10","pricing_plan_id":"cebpf4jnsgd1na2vs0mg"},{"bike_id":"e44395fa-7907-4bb2-a758-919bbc8c9fef","system_id":"levelo_inurba_marseille","lat":43.23199,"lon":5.39985,"is_reserved":false,"is_disabled":false,"rental_uris":{"android":"levelo://app?vid=e44395fa-7907-4bb2-a758-919bbc8c9fef","ios":"levelo://app?vid=e44395fa-7907-4bb2-a758-919bbc8c9fef"},"vehicle_type_id":"4","last_reported":1769994786,"current_range_meters":9200,"station_id":"ce4bhn12rcd13ifvqgqg","pricing_plan_id":"cebpf4jnsgd1na2vs0mg"},{"bike_id":"c2c87f3b-6e0d-4627-9bd1-7058992deb12","system_id":"levelo_inurba_marseille","lat":43.29912,"lon":5.38893,"is_reserved":false,"is_disabled":false,"rental_uris":{"android":"levelo://app?vid=c2c87f3b-6e0d-4627-9bd1-7058992deb12","ios":"levelo://app?vid=c2c87f3b-6e0d-4627-9bd1-7058992deb12"},"vehicle_type_id":"4","last_reported":1769994786,"current_range_meters":9200,"station_id":"ce4bh392rcd13ifvqdl0","pricing_plan_id":"cebpf4jnsgd1na2vs0mg"},{"bike_id":"b947422b-a304-4e96-8220-ccb3578ecc0e","system_id":"levelo_inurba_marseille","lat":43.295678,"lon":5.399845,"is_reserved":false,"is_disabled":false,"rental_uris":{"android":"levelo://app?vid=b947422b-a304-4e96-8220-ccb3578ecc0e","ios":"levelo://app?vid=b947422b-a304-4e96-8220-ccb3578ecc0e"},"vehicle_type_id":"4","last_reported":1769994786,"current_range_meters":9200,"station_id":"ce4bh312rcd13ifvqdj0","pricing_plan_id":"cebpf4jnsgd1na2vs0mg"},{"bike_id":"282b4c58-6430-4481-adf2-6fc926d2a7c4","system_id":"levelo_inurba_marseille","lat":43.23189,"lon":5.3556,"is_reserved":false,"is_disabled":false,"rental_uris":{"android":"levelo://app?vid=282b4c58-6430-4481-adf2-6fc926d2a7c4","ios":"levelo://app?vid=282b4c58-6430-4481-adf2-6fc926d2a7c4"},"vehicle_type_id":"4","last_reported":1769994786,"current_range_meters":9200,"station_id":"ce4bhu92rcd13ifvqi70","pricing_plan_id":"cebpf4jnsgd1na2vs0mg"},{"bike_id":"27dcb8fb-bc37-437e-8d8b-62fa0efb4197","system_id":"levelo_inurba_marseille","lat":43.28406,"lon":5.34996,"is_reserved":false,"is_disabled":false,"rental_uris":{"android":"levelo://app?vid=27dcb8fb-bc37-437e-8d8b-62fa0efb4197","ios":"levelo://app?vid=27dcb8fb-bc37-437e-8d8b-62fa0efb4197"},"vehicle_type_id":"4","last_reported":1769994786,"current_range_meters":9200,"station_id":"ce4bhbh2rcd13ifvqepg","pricing_plan_id":"cebpf4jnsgd1na2vs0mg"},{"bike_id":"cb652aae-eb8d-4c85-bb6b-af4efa9307de","system_id":"levelo_inurba_marseille","lat":43.291952,"lon":5.393281,"is_reserved":false,"is_disabled":false,"rental_uris":{"android":"levelo://app?vid=cb652aae-eb8d-4c85-bb6b-af4efa9307de","ios":"levelo://app?vid=cb652aae-eb8d-4c85-bb6b-af4efa9307de"},"vehicle_type_id":"4","last_reported":1769994786,"current_range_meters":9200,"station_id":"ce4bh192rcd13ifvqdd0","pricing_plan_id":"cebpf4jnsgd1na2vs0mg"},{"bike_id":"f2748036-3c4c-4f63-bbed-aebdbbcc7cf4","system_id":"levelo_inurba_marseille","lat":43.290251,"lon":5.386345,"is_reserved":false,"is_disabled":false,"rental_uris":{"android":"levelo://app?vid=f2748036-3c4c-4f63-bbed-aebdbbcc7cf4","ios":"levelo://app?vid=f2748036-3c4c-4f63-bbed-aebdbbcc7cf4"},"vehicle_type_id":"4","last_reported":1769994786,"current_range_meters":9200,"station_id":"ce4bh4p2rcd13ifvqe0g","pricing_plan_id":"cebpf4jnsgd1na2vs0mg"},{"bike_id":"089327ba-abdd-4b2e-8009-bfe058203ae7","system_id":"levelo_inurba_marseille","lat":43.30312,"lon":5.40448,"is_reserved":false,"is_disabled":false,"rental_uris":{"android":"levelo://app?vid=089327ba-abdd-4b2e-8009-bfe058203ae7","ios":"levelo://app?vid=089327ba-abdd-4b2e-8009-bfe058203ae7"},"vehicle_type_id":"4","last_reported":1769994786,"current_range_meters":9200,"station_id":"ce4bh012rcd13ifvqd10","pricing_plan_id":"cebpf4jnsgd1na2vs0mg"},{"bike_id":"5c20de7c-c4c5-43dc-a180-edfb8db23bb2","system_id":"levelo_inurba_marseille","lat":43.29789,"lon":5.39342,"is_reserved":false,"is_disabled":false,"rental_uris":{"android":"levelo://app?vid=5c20de7c-c4c5-43dc-a180-edfb8db23bb2","ios":"levelo://app?vid=5c20de7c-c4c5-43dc-a180-edfb8db23bb2"},"vehicle_type_id":"4","last_reported":1769994786,"current_range_meters":9200,"station_id":"chh1huq6cuj3fo74tm60","pricing_plan_id":"cebpf4jnsgd1na2vs0mg"},{"bike_id":"cd51f784-a77c-4831-b04b-afe6fd280c95","system_id":"levelo_inurba_marseille","lat":43.23198,"lon":5.35566,"is_reserved":false,"is_disabled":false,"rental_uris":{"android":"levelo://app?vid=cd51f784-a77c-4831-b04b-afe6fd280c95","ios":"levelo://app?vid=cd51f784-a77c-4831-b04b-afe6fd280c95"},"vehicle_type_id":"4","last_reported":1769994786,"current_range_meters":9200,"station_id":"ce4bhu92rcd13ifvqi70","pricing_plan_id":"cebpf4jnsgd1na2vs0mg"},{"bike_id":"70082df4-ae32-4772-be64-2ddbdbc5d650","system_id":"levelo_inurba_marseille","lat":43.31162,"lon":5.387088,"is_reserved":false,"is_disabled":false,"rental_uris":{"android":"levelo://app?vid=70082df4-ae32-4772-be64-2ddbdbc5d650","ios":"levelo://app?vid=70082df4-ae32-4772-be64-2ddbdbc5d650"},"vehicle_type_id":"4","last_reported":1769994786,"current_range_meters":9200,"station_id":"ce4bgv12rcd13ifvqcp0","pricing_plan_id":"cebpf4jnsgd1na2vs0mg"},{"bike_id":"ef04139b-3bc8-4250-afaa-5ab3d7e75d66","system_id":"levelo_inurba_marseille","lat":43.290281,"lon":5.386396,"is_reserved":false,"is_disabled":false,"rental_uris":{"android":"levelo://app?vid=ef04139b-3bc8-4250-afaa-5ab3d7e75d66","ios":"levelo://app?vid=ef04139b-3bc8-4250-afaa-5ab3d7e75d66"},"vehicle_type_id":"4","last_reported":1769994786,"current_range_meters":9600,"station_id":"ce4bh4p2rcd13ifvqe0g","pricing_plan_id":"cebpf4jnsgd1na2vs0mg"},{"bike_id":"f207853e-5c05-46f7-bdb1-5985173ad7e9","system_id":"levelo_inurba_marseille","lat":43.29568,"lon":5.39974,"is_reserved":false,"is_disabled":false,"rental_uris":{"android":"levelo://app?vid=f207853e-5c05-46f7-bdb1-5985173ad7e9","ios":"levelo://app?vid=f207853e-5c05-46f7-bdb1-5985173ad7e9"},"vehicle_type_id":"4","last_reported":1769994786,"current_range_meters":9600,"station_id":"ce4bh312rcd13ifvqdj0","pricing_plan_id":"cebpf4jnsgd1na2vs0mg"},{"bike_id":"0517a75b-6043-4b2e-add4-a996952921a8","system_id":"levelo_inurba_marseille","lat":43.26569,"lon":5.39015,"is_reserved":false,"is_disabled":false,"rental_uris":{"android":"levelo://app?vid=0517a75b-6043-4b2e-add4-a996952921a8","ios":"levelo://app?vid=0517a75b-6043-4b2e-add4-a996952921a8"},"vehicle_type_id":"4","last_reported":1769994786,"current_range_meters":9600,"station_id":"ce4bhe12rcd13ifvqf30","pricing_plan_id":"cebpf4jnsgd1na2vs0mg"},{"bike_id":"a4a78e26-f7cc-42fe-a5d9-4836263a9354","system_id":"levelo_inurba_marseille","lat":43.331601,"lon":5.376825,"is_reserved":false,"is_disabled":false,"rental_uris":{"android":"levelo://app?vid=a4a78e26-f7cc-42fe-a5d9-4836263a9354","ios":"levelo://app?vid=a4a78e26-f7cc-42fe-a5d9-4836263a9354"},"vehicle_type_id":"4","last_reported":1769994786,"current_range_meters":9600,"station_id":"st_d46cu089ee8s73dldbu0","pricing_plan_id":"cebpf4jnsgd1na2vs0mg"},{"bike_id":"2ebe3d1a-eb9d-4119-9eb6-9d700362d893","system_id":"levelo_inurba_marseille","lat":43.24188,"lon":5.39724,"is_reserved":false,"is_disabled":false,"rental_uris":{"android":"levelo://app?vid=2ebe3d1a-eb9d-4119-9eb6-9d700362d893","ios":"levelo://app?vid=2ebe3d1a-eb9d-4119-9eb6-9d700362d893"},"vehicle_type_id":"4","last_reported":1769994786,"current_range_meters":9600,"station_id":"ce4bhn12rcd13ifvqgpg","pricing_plan_id":"cebpf4jnsgd1na2vs0mg"},{"bike_id":"4500c96f-e45a-477e-87fd-dc1e306eb7ef","system_id":"levelo_inurba_marseille","lat":43.292417,"lon":5.409157,"is_reserved":false,"is_disabled":false,"rental_uris":{"android":"levelo://app?vid=4500c96f-e45a-477e-87fd-dc1e306eb7ef","ios":"levelo://app?vid=4500c96f-e45a-477e-87fd-dc1e306eb7ef"},"vehicle_type_id":"4","last_reported":1769994786,"current_range_meters":9600,"station_id":"ce4bh192rcd13ifvqdc0","pricing_plan_id":"cebpf4jnsgd1na2vs0mg"},{"bike_id":"61c60e02-8ed5-49e9-90c2-04146b3fff6a","system_id":"levelo_inurba_marseille","lat":43.33164,"lon":5.37693,"is_reserved":false,"is_disabled":false,"rental_uris":{"android":"levelo://app?vid=61c60e02-8ed5-49e9-90c2-04146b3fff6a","ios":"levelo://app?vid=61c60e02-8ed5-49e9-90c2-04146b3fff6a"},"vehicle_type_id":"4","last_reported":1769994786,"current_range_meters":9600,"station_id":"st_d46cu089ee8s73dldbu0","pricing_plan_id":"cebpf4jnsgd1na2vs0mg"},{"bike_id":"7a63607e-d6c9-438d-9bdb-3315ab1e4a40","system_id":"levelo_inurba_marseille","lat":43.28102,"lon":5.3964,"is_reserved":false,"is_disabled":false,"rental_uris":{"android":"levelo://app?vid=7a63607e-d6c9-438d-9bdb-3315ab1e4a40","ios":"levelo://app?vid=7a63607e-d6c9-438d-9bdb-3315ab1e4a40"},"vehicle_type_id":"4","last_reported":1769994786,"current_range_meters":9600,"station_id":"ce4bho12rcd13ifvqh2g","pricing_plan_id":"cebpf4jnsgd1na2vs0mg"},{"bike_id":"8774adf0-091c-4acb-a18a-0b7f970d22ca","system_id":"levelo_inurba_marseille","lat":43.29882,"lon":5.38427,"is_reserved":false,"is_disabled":false,"rental_uris":{"android":"levelo://app?vid=8774adf0-091c-4acb-a18a-0b7f970d22ca","ios":"levelo://app?vid=8774adf0-091c-4acb-a18a-0b7f970d22ca"},"vehicle_type_id":"4","last_reported":1769994786,"current_range_meters":9600,"station_id":"","pricing_plan_id":"cebpf4jnsgd1na2vs0mg"},{"bike_id":"0326d62d-a870-4c65-ac20-66cf6ef6ff3b","system_id":"levelo_inurba_marseille","lat":43.310807,"lon":5.375071,"is_reserved":false,"is_disabled":false,"rental_uris":{"android":"levelo://app?vid=0326d62d-a870-4c65-ac20-66cf6ef6ff3b","ios":"levelo://app?vid=0326d62d-a870-4c65-ac20-66cf6ef6ff3b"},"vehicle_type_id":"4","last_reported":1769994786,"current_range_meters":9600,"station_id":"","pricing_plan_id":"cebpf4jnsgd1na2vs0mg"},{"bike_id":"3b9a700f-1185-4a32-8b14-d8af57755a56","system_id":"levelo_inurba_marseille","lat":43.26217,"lon":5.4044,"is_reserved":false,"is_disabled":false,"rental_uris":{"android":"levelo://app?vid=3b9a700f-1185-4a32-8b14-d8af57755a56","ios":"levelo://app?vid=3b9a700f-1185-4a32-8b14-d8af57755a56"},"vehicle_type_id":"4","last_reported":1769994786,"current_range_meters":9600,"station_id":"ce4bhmh2rcd13ifvqgmg","pricing_plan_id":"cebpf4jnsgd1na2vs0mg"},{"bike_id":"2d60ab74-e596-4c7f-a0fb-86b7ca4a7bcd","system_id":"levelo_inurba_marseille","lat":43.31564,"lon":5.38788,"is_reserved":false,"is_disabled":false,"rental_uris":{"android":"levelo://app?vid=2d60ab74-e596-4c7f-a0fb-86b7ca4a7bcd","ios":"levelo://app?vid=2d60ab74-e596-4c7f-a0fb-86b7ca4a7bcd"},"vehicle_type_id":"4","last_reported":1769994786,"current_range_meters":9600,"station_id":"","pricing_plan_id":"cebpf4jnsgd1na2vs0mg"},{"bike_id":"9fff0643-071c-436a-8cfd-837b6e92089a","system_id":"levelo_inurba_marseille","lat":43.25924,"lon":5.4089,"is_reserved":false,"is_disabled":false,"rental_uris":{"android":"levelo://app?vid=9fff0643-071c-436a-8cfd-837b6e92089a","ios":"levelo://app?vid=9fff0643-071c-436a-8cfd-837b6e92089a"},"vehicle_type_id":"4","last_reported":1769994786,"current_range_meters":9600,"station_id":"ce4bhm92rcd13ifvqglg","pricing_plan_id":"cebpf4jnsgd1na2vs0mg"},{"bike_id":"96637857-4b05-40a3-964b-ff3bebb226a0","system_id":"levelo_inurba_marseille","lat":43.248138,"lon":5.374538,"is_reserved":false,"is_disabled":false,"rental_uris":{"android":"levelo://app?vid=96637857-4b05-40a3-964b-ff3bebb226a0","ios":"levelo://app?vid=96637857-4b05-40a3-964b-ff3bebb226a0"},"vehicle_type_id":"4","last_reported":1769994786,"current_range_meters":10000,"station_id":"ce4bhgh2rcd13ifvqfb0","pricing_plan_id":"cebpf4jnsgd1na2vs0mg"},{"bike_id":"450d125b-db69-4dd8-9efc-f1b0ec2c3479","system_id":"levelo_inurba_marseille","lat":43.231515,"lon":5.437259,"is_reserved":false,"is_disabled":false,"rental_uris":{"android":"levelo://app?vid=450d125b-db69-4dd8-9efc-f1b0ec2c3479","ios":"levelo://app?vid=450d125b-db69-4dd8-9efc-f1b0ec2c3479"},"vehicle_type_id":"4","last_reported":1769994786,"current_range_meters":10000,"station_id":"ce4bhmp2rcd13ifvqgog","pricing_plan_id":"cebpf4jnsgd1na2vs0mg"},{"bike_id":"771ea2bc-bf93-42aa-8bb5-10cd9d180578","system_id":"levelo_inurba_marseille","lat":43.33555,"lon":5.37459,"is_reserved":false,"is_disabled":false,"rental_uris":{"android":"levelo://app?vid=771ea2bc-bf93-42aa-8bb5-10cd9d180578","ios":"levelo://app?vid=771ea2bc-bf93-42aa-8bb5-10cd9d180578"},"vehicle_type_id":"4","last_reported":1769994786,"current_range_meters":10000,"station_id":"st_d46tts09ee8s73dlu43g","pricing_plan_id":"cebpf4jnsgd1na2vs0mg"},{"bike_id":"1b46784a-1250-4910-bf43-38f5cf56ddbe","system_id":"levelo_inurba_marseille","lat":43.29003,"lon":5.38654,"is_reserved":false,"is_disabled":false,"rental_uris":{"android":"levelo://app?vid=1b46784a-1250-4910-bf43-38f5cf56ddbe","ios":"levelo://app?vid=1b46784a-1250-4910-bf43-38f5cf56ddbe"},"vehicle_type_id":"4","last_reported":1769994786,"current_range_meters":10000,"station_id":"ce4bh4p2rcd13ifvqe0g","pricing_plan_id":"cebpf4jnsgd1na2vs0mg"},{"bike_id":"d93c4035-43d1-42e3-bd1c-de8b3b8e4c95","system_id":"levelo_inurba_marseille","lat":43.25795,"lon":5.39467,"is_reserved":false,"is_disabled":false,"rental_uris":{"android":"levelo://app?vid=d93c4035-43d1-42e3-bd1c-de8b3b8e4c95","ios":"levelo://app?vid=d93c4035-43d1-42e3-bd1c-de8b3b8e4c95"},"vehicle_type_id":"4","last_reported":1769994786,"current_range_meters":10000,"station_id":"ce4bhip2rcd13ifvqft0","pricing_plan_id":"cebpf4jnsgd1na2vs0mg"},{"bike_id":"bede27fe-8e40-4aaa-96e7-53911ce1248e","system_id":"levelo_inurba_marseille","lat":43.28272,"lon":5.35099,"is_reserved":false,"is_disabled":false,"rental_uris":{"android":"levelo://app?vid=bede27fe-8e40-4aaa-96e7-53911ce1248e","ios":"levelo://app?vid=bede27fe-8e40-4aaa-96e7-53911ce1248e"},"vehicle_type_id":"4","last_reported":1769994786,"current_range_meters":10000,"station_id":"ce4bhbp2rcd13ifvqerg","pricing_plan_id":"cebpf4jnsgd1na2vs0mg"},{"bike_id":"f4bef384-efce-4dfc-97cd-21cc8e160d07","system_id":"levelo_inurba_marseille","lat":43.3172,"lon":5.42429,"is_reserved":false,"is_disabled":false,"rental_uris":{"android":"levelo://app?vid=f4bef384-efce-4dfc-97cd-21cc8e160d07","ios":"levelo://app?vid=f4bef384-efce-4dfc-97cd-21cc8e160d07"},"vehicle_type_id":"4","last_reported":1769994786,"current_range_meters":10000,"station_id":"ce4bhp92rcd13ifvqhbg","pricing_plan_id":"cebpf4jnsgd1na2vs0mg"},{"bike_id":"3063f827-fa63-4911-85d8-b0f9548db5f5","system_id":"levelo_inurba_marseille","lat":43.29787,"lon":5.37095,"is_reserved":false,"is_disabled":false,"rental_uris":{"android":"levelo://app?vid=3063f827-fa63-4911-85d8-b0f9548db5f5","ios":"levelo://app?vid=3063f827-fa63-4911-85d8-b0f9548db5f5"},"vehicle_type_id":"4","last_reported":1769994786,"current_range_meters":10000,"station_id":"ce4bgop2rcd13ifvqc1g","pricing_plan_id":"cebpf4jnsgd1na2vs0mg"},{"bike_id":"a1b1805c-8410-4392-bb5d-9cb7c461adf3","system_id":"levelo_inurba_marseille","lat":43.29784,"lon":5.38092,"is_reserved":false,"is_disabled":true,"rental_uris":{"android":"levelo://app?vid=a1b1805c-8410-4392-bb5d-9cb7c461adf3","ios":"levelo://app?vid=a1b1805c-8410-4392-bb5d-9cb7c461adf3"},"vehicle_type_id":"4","last_reported":1769994786,"current_range_meters":10000,"station_id":"ce4bgip2rcd13ifvqbb0","pricing_plan_id":"cebpf4jnsgd1na2vs0mg"},{"bike_id":"08b20334-3e9e-45da-98e2-403d0460dda8","system_id":"levelo_inurba_marseille","lat":43.2319,"lon":5.35551,"is_reserved":false,"is_disabled":false,"rental_uris":{"android":"levelo://app?vid=08b20334-3e9e-45da-98e2-403d0460dda8","ios":"levelo://app?vid=08b20334-3e9e-45da-98e2-403d0460dda8"},"vehicle_type_id":"4","last_reported":1769994786,"current_range_meters":10000,"station_id":"ce4bhu92rcd13ifvqi70","pricing_plan_id":"cebpf4jnsgd1na2vs0mg"},{"bike_id":"07fcb62c-1f31-4e36-b994-3d6f02e04e4b","system_id":"levelo_inurba_marseille","lat":43.25526,"lon":5.37664,"is_reserved":false,"is_disabled":false,"rental_uris":{"android":"levelo://app?vid=07fcb62c-1f31-4e36-b994-3d6f02e04e4b","ios":"levelo://app?vid=07fcb62c-1f31-4e36-b994-3d6f02e04e4b"},"vehicle_type_id":"4","last_reported":1769994786,"current_range_meters":10000,"station_id":"ce4bhh12rcd13ifvqff0","pricing_plan_id":"cebpf4jnsgd1na2vs0mg"},{"bike_id":"a414b5eb-b922-4aba-8753-3f3cfbfb10da","system_id":"levelo_inurba_marseille","lat":43.28941,"lon":5.36415,"is_reserved":false,"is_disabled":false,"rental_uris":{"android":"levelo://app?vid=a414b5eb-b922-4aba-8753-3f3cfbfb10da","ios":"levelo://app?vid=a414b5eb-b922-4aba-8753-3f3cfbfb10da"},"vehicle_type_id":"4","last_reported":1769994786,"current_range_meters":10000,"station_id":"ce4bhc92rcd13ifvqetg","pricing_plan_id":"cebpf4jnsgd1na2vs0mg"},{"bike_id":"90ba5afa-5575-45ce-af95-476a5d039955","system_id":"levelo_inurba_marseille","lat":43.25719,"lon":5.41109,"is_reserved":false,"is_disabled":false,"rental_uris":{"android":"levelo://app?vid=90ba5afa-5575-45ce-af95-476a5d039955","ios":"levelo://app?vid=90ba5afa-5575-45ce-af95-476a5d039955"},"vehicle_type_id":"4","last_reported":1769994786,"current_range_meters":10000,"station_id":"ce4bhkp2rcd13ifvqgd0","pricing_plan_id":"cebpf4jnsgd1na2vs0mg"},{"bike_id":"58977562-1567-4d50-83f8-5538e0cea511","system_id":"levelo_inurba_marseille","lat":43.24329,"lon":5.39818,"is_reserved":false,"is_disabled":false,"rental_uris":{"android":"levelo://app?vid=58977562-1567-4d50-83f8-5538e0cea511","ios":"levelo://app?vid=58977562-1567-4d50-83f8-5538e0cea511"},"vehicle_type_id":"4","last_reported":1769994786,"current_range_meters":10000,"station_id":"ce4bhn12rcd13ifvqgpg","pricing_plan_id":"cebpf4jnsgd1na2vs0mg"},{"bike_id":"a4548633-c611-4940-9123-b16ed88397ec","system_id":"levelo_inurba_marseille","lat":43.27982,"lon":5.41656,"is_reserved":false,"is_disabled":false,"rental_uris":{"android":"levelo://app?vid=a4548633-c611-4940-9123-b16ed88397ec","ios":"levelo://app?vid=a4548633-c611-4940-9123-b16ed88397ec"},"vehicle_type_id":"4","last_reported":1769994786,"current_range_meters":10000,"station_id":"ce4bho12rcd13ifvqh1g","pricing_plan_id":"cebpf4jnsgd1na2vs0mg"},{"bike_id":"7e63c05e-26aa-4248-873a-bceb35e056c7","system_id":"levelo_inurba_marseille","lat":43.28932,"lon":5.3664,"is_reserved":false,"is_disabled":false,"rental_uris":{"android":"levelo://app?vid=7e63c05e-26aa-4248-873a-bceb35e056c7","ios":"levelo://app?vid=7e63c05e-26aa-4248-873a-bceb35e056c7"},"vehicle_type_id":"4","last_reported":1769994786,"current_range_meters":10000,"station_id":"ce4bhap2rcd13ifvqek0","pricing_plan_id":"cebpf4jnsgd1na2vs0mg"},{"bike_id":"e762f157-21a1-4313-b19a-dd42b6c85c87","system_id":"levelo_inurba_marseille","lat":43.28679,"lon":5.37454,"is_reserved":false,"is_disabled":false,"rental_uris":{"android":"levelo://app?vid=e762f157-21a1-4313-b19a-dd42b6c85c87","ios":"levelo://app?vid=e762f157-21a1-4313-b19a-dd42b6c85c87"},"vehicle_type_id":"4","last_reported":1769994786,"current_range_meters":10000,"station_id":"","pricing_plan_id":"cebpf4jnsgd1na2vs0mg"},