{"last_updated":1747138883,"ttl":60,"version":"2.2","data":{"bikes":[{"bike_id":"c0b9fd4f-e181-46ce-b0bf-f5119973334f","system_id":"levelo_inurba_marseille","lat":43.33771,"lon":5.37424,"is_reserved":false,"is_disabled":false,"rental_uris":{"android":"levelo://app?vid=c0b9fd4f-e181-46ce-b0bf-f5119973334f","ios":"levelo://app?vid=c0b9fd4f-e181-46ce-b0bf-f5119973334f"},"vehicle_type_id":"4","last_reported":1747138883,"current_range_meters":24000,"station_id":"","pricing_plan_id":"cebpf4jnsgd1na2vs0mg"},{"bike_id":"823bad38-6ddd-4ba7-9606-649d87492ae2","system_id":"levelo_inurba_marseille","lat":43.283403,"lon":5.382575,"is_reserved":false,"is_disabled":true,"rental_uris":{"android":"levelo://app?vid=823bad38-6ddd-4ba7-9606-649d87492ae2","ios":"levelo://app?vid=823bad38-6ddd-4ba7-9606-649d87492ae2"},"vehicle_type_id":"4","last_reported":1747138883,"current_range_meters":0,"station_id":"","pricing_plan_id":"cebpf4jnsgd1na2vs0mg"},{"bike_id":"25684216-a3fc-4916-8e05-9505382e4ab5","system_id":"levelo_inurba_marseille","lat":43.27353,"lon":5.39029,"is_reserved":false,"is_disabled":true,"rental_uris":{"android":"levelo://app?vid=25684216-a3fc-4916-8e05-9505382e4ab5","ios":"levelo://app?vid=25684216-a3fc-4916-8e05-9505382e4ab5"},"vehicle_type_id":"4","last_reported":1747138883,"current_range_meters":0,"station_id":"","pricing_plan_id":"cebpf4jnsgd1na2vs0mg"},{"bike_id":"d19ebaab-ef98-4efa-b952-7192b9b2f014","system_id":"levelo_inurba_marseille","lat":43.26145,"lon":5.392,"is_reserved":false,"is_disabled":true,"rental_uris":{"android":"levelo://app?vid=d19ebaab-ef98-4efa-b952-7192b9b2f014","ios":"levelo://app?vid=d19ebaab-ef98-4efa-b952-7192b9b2f014"},"vehicle_type_id":"4","last_reported":1747138883,"current_range_meters":0,"station_id":"","pricing_plan_id":"cebpf4jnsgd1na2vs0mg"},{"bike_id":"792567c6-0442-4011-aff0-9c05e25deb48","system_id":"levelo_inurba_marseille","lat":43.28095,"lon":5.44191,"is_reserved":false,"is_disabled":true,"rental_uris":{"android":"levelo://app?vid=792567c6-0442-4011-aff0-9c05e25deb48","ios":"levelo://app?vid=792567c6-0442-4011-aff0-9c05e25deb48"},"vehicle_type_id":"4","last_reported":1747138883,"current_range_meters":0,"station_id":"","pricing_plan_id":"cebpf4jnsgd1na2vs0mg"},{"bike_id":"a3137e38-73ae-4dbb-b36b-c2e5c4eb5ece","system_id":"levelo_inurba_marseille","lat":43.29295,"lon":5.37454,"is_reserved":false,"is_disabled":true,"rental_uris":{"android":"levelo://app?vid=a3137e38-73ae-4dbb-b36b-c2e5c4eb5ece","ios":"levelo://app?vid=a3137e38-73ae-4dbb-b36b-c2e5c4eb5ece"},"vehicle_type_id":"4","last_reported":1747138883,"current_range_meters":0,"station_id":"ce4bgi12rcd13ifvqb70","pricing_plan_id":"cebpf4jnsgd1na2vs0mg"},{"bike_id":"7c2f22ce-8b6d-4b95-8f9f-3432427ff6fb","system_id":"levelo_inurba_marseille","lat":43.28861,"lon":5.35864,"is_reserved":false,"is_disabled":true,"rental_uris":{"android":"levelo://app?vid=7c2f22ce-8b6d-4b95-8f9f-3432427ff6fb","ios":"levelo://app?vid=7c2f22ce-8b6d-4b95-8f9f-3432427ff6fb"},"vehicle_type_id":"4","last_reported":1747138883,"current_range_meters":0,"station_id":"ce4bhb12rcd13ifvqem0","pricing_plan_id":"cebpf4jnsgd1na2vs0mg"},{"bike_id":"d98623c0-cd1b-431b-a39e-a6ba12d00114","system_id":"levelo_inurba_marseille","lat":43.26683,"lon":5.38267,"is_reserved":false,"is_disabled":true,"rental_uris":{"android":"levelo://app?vid=d98623c0-cd1b-431b-a39e-a6ba12d00114","ios":"levelo://app?vid=d98623c0-cd1b-431b-a39e-a6ba12d00114"},"vehicle_type_id":"4","last_reported":1747138883,"current_range_meters":0,"station_id":"ce4bhg92rcd13ifvqf90","pricing_plan_id":"cebpf4jnsgd1na2vs0mg"},{"bike_id":"e1cb567f-3f65-4bbd-be58-de7578480099","system_id":"levelo_inurba_marseille","lat":43.23149,"lon":5.43723,"is_reserved":false,"is_disabled":true,"rental_uris":{"android":"levelo://app?vid=e1cb567f-3f65-4bbd-be58-de7578480099","ios":"levelo://app?vid=e1cb567f-3f65-4bbd-be58-de7578480099"},"vehicle_type_id":"4","last_reported":1747138883,"current_range_meters":0,"station_id":"ce4bhmp2rcd13ifvqgog","pricing_plan_id":"cebpf4jnsgd1na2vs0mg"},{"bike_id":"2943920b-6f8f-4ba1-acbb-63c8bc7c9eac","system_id":"levelo_inurba_marseille","lat":43.27497,"lon":5.4245,"is_reserved":false,"is_disabled":true,"rental_uris":{"android":"levelo://app?vid=2943920b-6f8f-4ba1-acbb-63c8bc7c9eac","ios":"levelo://app?vid=2943920b-6f8f-4ba1-acbb-63c8bc7c9eac"},"vehicle_type_id":"4","last_reported":1747138883,"current_range_meters":0,"station_id":"ce4bhn92rcd13ifvqgrg","pricing_plan_id":"cebpf4jnsgd1na2vs0mg"},{"bike_id":"6af03016-8529-41bf-a76c-959e0f94726e","system_id":"levelo_inurba_marseille","lat":43.268028,"lon":5.402728,"is_reserved":false,"is_disabled":true,"rental_uris":{"android":"levelo://app?vid=6af03016-8529-41bf-a76c-959e0f94726e","ios":"levelo://app?vid=6af03016-8529-41bf-a76c-959e0f94726e"},"vehicle_type_id":"4","last_reported":1747138883,"current_range_meters":0,"station_id":"ce501612rcd8frsf0b60","pricing_plan_id":"cebpf4jnsgd1na2vs0mg"},{"bike_id":"38862537-17ed-41e3-9832-3c2fa9e0b1aa","system_id":"levelo_inurba_marseille","lat":43.21747,"lon":5.34597,"is_reserved":false,"is_disabled":true,"rental_uris":{"android":"levelo://app?vid=38862537-17ed-41e3-9832-3c2fa9e0b1aa","ios":"levelo://app?vid=38862537-17ed-41e3-9832-3c2fa9e0b1aa"},"vehicle_type_id":"4","last_reported":1747138883,"current_range_meters":0,"station_id":"st_cvj6r9ubvosntc0bgbag","pricing_plan_id":"cebpf4jnsgd1na2vs0mg"},{"bike_id":"d766bd4c-57a9-4bf9-8a08-683992145429","system_id":"levelo_inurba_marseille","lat":43.29906,"lon":5.37469,"is_reserved":false,"is_disabled":true,"rental_uris":{"android":"levelo://app?vid=d766bd4c-57a9-4bf9-8a08-683992145429","ios":"levelo://app?vid=d766bd4c-57a9-4bf9-8a08-683992145429"},"vehicle_type_id":"4","last_reported":1747138883,"current_range_meters":400,"station_id":"ce4bgjh2rcd13ifvqbg0","pricing_plan_id":"cebpf4jnsgd1na2vs0mg"},{"bike_id":"b20108ad-6f83-4c0d-a76a-f3bd52ef71fe","system_id":"levelo_inurba_marseille","lat":43.28851,"lon":5.39307,"is_reserved":false,"is_disabled":true,"rental_uris":{"android":"levelo://app?vid=b20108ad-6f83-4c0d-a76a-f3bd52ef71fe","ios":"levelo://app?vid=b20108ad-6f83-4c0d-a76a-f3bd52ef71fe"},"vehicle_type_id":"4","last_reported":1747138883,"current_range_meters":400,"station_id":"ce4bh2p2rcd13ifvqdi0","pricing_plan_id":"cebpf4jnsgd1na2vs0mg"},{"bike_id":"0fedde00-40eb-40d2-8fc2-e61ecce46b7b","system_id":"levelo_inurba_marseille","lat":43.28303,"lon":5.43239,"is_reserved":false,"is_disabled":true,"rental_uris":{"android":"levelo://app?vid=0fedde00-40eb-40d2-8fc2-e61ecce46b7b","ios":"levelo://app?vid=0fedde00-40eb-40d2-8fc2-e61ecce46b7b"},"vehicle_type_id":"4","last_reported":1747138883,"current_range_meters":800,"station_id":"","pricing_plan_id":"cebpf4jnsgd1na2vs0mg"},{"bike_id":"f14f6188-ceda-4b90-a684-5fe338d3f366","system_id":"levelo_inurba_marseille","lat":43.30092,"lon":5.39072,"is_reserved":false,"is_disabled":true,"rental_uris":{"android":"levelo://app?vid=f14f6188-ceda-4b90-a684-5fe338d3f366","ios":"levelo://app?vid=f14f6188-ceda-4b90-a684-5fe338d3f366"},"vehicle_type_id":"4","last_reported":1747138883,"current_range_meters":800,"station_id":"ce4bh192rcd13ifvqdb0","pricing_plan_id":"cebpf4jnsgd1na2vs0mg"},{"bike_id":"9ede911c-f878-4f9b-8d75-b4cc562783bb","system_id":"levelo_inurba_marseille","lat":43.29038,"lon":5.38653,"is_reserved":false,"is_disabled":true,"rental_uris":{"android":"levelo://app?vid=9ede911c-f878-4f9b-8d75-b4cc562783bb","ios":"levelo://app?vid=9ede911c-f878-4f9b-8d75-b4cc562783bb"},"vehicle_type_id":"4","last_reported":1747138883,"current_range_meters":800,"station_id":"ce4bh4p2rcd13ifvqe0g","pricing_plan_id":"cebpf4jnsgd1na2vs0mg"},{"bike_id":"b6518310-337d-4af3-af77-0785a36d7c45","system_id":"levelo_inurba_marseille","lat":43.28411,"lon":5.34984,"is_reserved":false,"is_disabled":true,"rental_uris":{"android":"levelo://app?vid=b6518310-337d-4af3-af77-0785a36d7c45","ios":"levelo://app?vid=b6518310-337d-4af3-af77-0785a36d7c45"},"vehicle_type_id":"4","last_reported":1747138883,"current_range_meters":800,"station_id":"ce4bhbh2rcd13ifvqepg","pricing_plan_id":"cebpf4jnsgd1na2vs0mg"},{"bike_id":"fc2577e7-1497-425b-9d4f-ab8d7dc843c6","system_id":"levelo_inurba_marseille","lat":43.33771,"lon":5.37485,"is_reserved":false,"is_disabled":true,"rental_uris":{"android":"levelo://app?vid=fc2577e7-1497-425b-9d4f-ab8d7dc843c6","ios":"levelo://app?vid=fc2577e7-1497-425b-9d4f-ab8d7dc843c6"},"vehicle_type_id":"4","last_reported":1747138883,"current_range_meters":1200,"station_id":"","pricing_plan_id":"cebpf4jnsgd1na2vs0mg"},{"bike_id":"8903f9b7-0f47-4b6f-bbc9-9cbaae3b55b3","system_id":"levelo_inurba_marseille","lat":43.28489,"lon":5.38416,"is_reserved":false,"is_disabled":true,"rental_uris":{"android":"levelo://app?vid=8903f9b7-0f47-4b6f-bbc9-9cbaae3b55b3","ios":"levelo://app?vid=8903f9b7-0f47-4b6f-bbc9-9cbaae3b55b3"},"vehicle_type_id":"4","last_reported":1747138883,"current_range_meters":1200,"station_id":"ce4bh512rcd13ifvqe3g","pricing_plan_id":"cebpf4jnsgd1na2vs0mg"},{"bike_id":"d41a859a-8cf8-427c-8e78-43af9c62053b","system_id":"levelo_inurba_marseille","lat":43.23956,"lon":5.3664,"is_reserved":false,"is_disabled":true,"rental_uris":{"android":"levelo://app?vid=d41a859a-8cf8-427c-8e78-43af9c62053b","ios":"levelo://app?vid=d41a859a-8cf8-427c-8e78-43af9c62053b"},"vehicle_type_id":"4","last_reported":1747138883,"current_range_meters":1200,"station_id":"ce4bhi12rcd13ifvqfp0","pricing_plan_id":"cebpf4jnsgd1na2vs0mg"},{"bike_id":"cf4a326d-fe4e-46a8-b930-15329a40b384","system_id":"levelo_inurba_marseille","lat":43.284368,"lon":5.3853,"is_reserved":false,"is_disabled":true,"rental_uris":{"android":"levelo://app?vid=cf4a326d-fe4e-46a8-b930-15329a40b384","ios":"levelo://app?vid=cf4a326d-fe4e-46a8-b930-15329a40b384"},"vehicle_type_id":"4","last_reported":1747138883,"current_range_meters":2000,"station_id":"ce4bh8p2rcd13ifvqeb0","pricing_plan_id":"cebpf4jnsgd1na2vs0mg"},{"bike_id":"bbe81e9b-90e6-4104-af79-cc13f9d959d6","system_id":"levelo_inurba_marseille","lat":43.279504,"lon":5.410298,"is_reserved":false,"is_disabled":true,"rental_uris":{"android":"levelo://app?vid=bbe81e9b-90e6-4104-af79-cc13f9d959d6","ios":"levelo://app?vid=bbe81e9b-90e6-4104-af79-cc13f9d959d6"},"vehicle_type_id":"4","last_reported":1747138883,"current_range_meters":2000,"station_id":"ce4bhnp2rcd13ifvqh0g","pricing_plan_id":"cebpf4jnsgd1na2vs0mg"},{"bike_id":"a2700ebb-bf5a-40ca-a347-88d0a165d9da","system_id":"levelo_inurba_marseille","lat":43.34149,"lon":5.40891,"is_reserved":false,"is_disabled":true,"rental_uris":{"android":"levelo://app?vid=a2700ebb-bf5a-40ca-a347-88d0a165d9da","ios":"levelo://app?vid=a2700ebb-bf5a-40ca-a347-88d0a165d9da"},"vehicle_type_id":"4","last_reported":1747138883,"current_range_meters":2000,"station_id":"ce4bhqh2rcd13ifvqhlg","pricing_plan_id":"cebpf4jnsgd1na2vs0mg"},{"bike_id":"2dde6395-d1f6-4afb-840e-8c30381f782f","system_id":"levelo_inurba_marseille","lat":43.28266,"lon":5.35058,"is_reserved":false,"is_disabled":false,"rental_uris":{"android":"levelo://app?vid=2dde6395-d1f6-4afb-840e-8c30381f782f","ios":"levelo://app?vid=2dde6395-d1f6-4afb-840e-8c30381f782f"},"vehicle_type_id":"4","last_reported":1747138883,"current_range_meters":2800,"station_id":"","pricing_plan_id":"cebpf4jnsgd1na2vs0mg"},{"bike_id":"40bf7cfe-6379-4136-85b8-058579cd2abf","system_id":"levelo_inurba_marseille","lat":43.2737,"lon":5.3626,"is_reserved":false,"is_disabled":false,"rental_uris":{"android":"levelo://app?vid=40bf7cfe-6379-4136-85b8-058579cd2abf","ios":"levelo://app?vid=40bf7cfe-6379-4136-85b8-058579cd2abf"},"vehicle_type_id":"4","last_reported":1747138883,"current_range_meters":2800,"station_id":"ce4bhbh2rcd13ifvqeo0","pricing_plan_id":"cebpf4jnsgd1na2vs0mg"},{"bike_id":"0c73b47c-a6af-40c5-a86f-45e84872a7ba","system_id":"levelo_inurba_marseille","lat":43.29032,"lon":5.38641,"is_reserved":false,"is_disabled":false,"rental_uris":{"android":"levelo://app?vid=0c73b47c-a6af-40c5-a86f-45e84872a7ba","ios":"levelo://app?vid=0c73b47c-a6af-40c5-a86f-45e84872a7ba"},"vehicle_type_id":"4","last_reported":1747138883,"current_range_meters":3200,"station_id":"ce4bh4p2rcd13ifvqe0g","pricing_plan_id":"cebpf4jnsgd1na2vs0mg"},{"bike_id":"a02fcc6d-78ea-4b0f-a0a3-fb4a022bdc59","system_id":"levelo_inurba_marseille","lat":43.28419,"lon":5.34987,"is_reserved":false,"is_disabled":false,"rental_uris":{"android":"levelo://app?vid=a02fcc6d-78ea-4b0f-a0a3-fb4a022bdc59","ios":"levelo://app?vid=a02fcc6d-78ea-4b0f-a0a3-fb4a022bdc59"},"vehicle_type_id":"4","last_reported":1747138883,"current_range_meters":3200,"station_id":"ce4bhbh2rcd13ifvqepg","pricing_plan_id":"cebpf4jnsgd1na2vs0mg"},{"bike_id":"ff803671-7258-463a-beda-53a6c1d01120","system_id":"levelo_inurba_marseille","lat":43.24167,"lon":5.36393,"is_reserved":false,"is_disabled":false,"rental_uris":{"android":"levelo://app?vid=ff803671-7258-463a-beda-53a6c1d01120","ios":"levelo://app?vid=ff803671-7258-463a-beda-53a6c1d01120"},"vehicle_type_id":"4","last_reported":1747138883,"current_range_meters":3200,"station_id":"cpo36qri1sfpv3e86is0","pricing_plan_id":"cebpf4jnsgd1na2vs0mg"},{"bike_id":"70182f43-917e-4d13-bf72-4d1bc27c2bf3","system_id":"levelo_inurba_marseille","lat":43.28942,"lon":5.3963,"is_reserved":false,"is_disabled":false,"rental_uris":{"android":"levelo://app?vid=70182f43-917e-4d13-bf72-4d1bc27c2bf3","ios":"levelo://app?vid=70182f43-917e-4d13-bf72-4d1bc27c2bf3"},"vehicle_type_id":"4","last_reported":1747138883,"current_range_meters":4000,"station_id":"ce4bh3h2rcd13ifvqdn0","pricing_plan_id":"cebpf4jnsgd1na2vs0mg"},{"bike_id":"a8b2182a-5c9b-459a-95f3-a934e0bb0a59","system_id":"levelo_inurba_marseille","lat":43.30887,"lon":5.39658,"is_reserved":false,"is_disabled":false,"rental_uris":{"android":"levelo://app?vid=a8b2182a-5c9b-459a-95f3-a934e0bb0a59","ios":"levelo://app?vid=a8b2182a-5c9b-459a-95f3-a934e0bb0a59"},"vehicle_type_id":"4","last_reported":1747138883,"current_range_meters":4800,"station_id":"ce4bh012rcd13ifvqcv0","pricing_plan_id":"cebpf4jnsgd1na2vs0mg"},{"bike_id":"4c4ec8cd-9f2d-4382-8844-c7bfe94f1ec4","system_id":"levelo_inurba_marseille","lat":43.32486,"lon":5.36563,"is_reserved":false,"is_disabled":false,"rental_uris":{"android":"levelo://app?vid=4c4ec8cd-9f2d-4382-8844-c7bfe94f1ec4","ios":"levelo://app?vid=4c4ec8cd-9f2d-4382-8844-c7bfe94f1ec4"},"vehicle_type_id":"4","last_reported":1747138883,"current_range_meters":4800,"station_id":"ce4bhs12rcd13ifvqhvg","pricing_plan_id":"cebpf4jnsgd1na2vs0mg"},{"bike_id":"b0ac8040-90e0-41ee-a2e3-e5462910fefc","system_id":"levelo_inurba_marseille","lat":43.275417,"lon":5.412901,"is_reserved":false,"is_disabled":false,"rental_uris":{"android":"levelo://app?vid=b0ac8040-90e0-41ee-a2e3-e5462910fefc","ios":"levelo://app?vid=b0ac8040-90e0-41ee-a2e3-e5462910fefc"},"vehicle_type_id":"4","last_reported":1747138883,"current_range_meters":5600,"station_id":"","pricing_plan_id":"cebpf4jnsgd1na2vs0mg"},{"bike_id":"4b6986ae-8487-4332-8a02-e84a9b1081bf","system_id":"levelo_inurba_marseille","lat":43.23184,"lon":5.39985,"is_reserved":false,"is_disabled":false,"rental_uris":{"android":"levelo://app?vid=4b6986ae-8487-4332-8a02-e84a9b1081bf","ios":"levelo://app?vid=4b6986ae-8487-4332-8a02-e84a9b1081bf"},"vehicle_type_id":"4","last_reported":1747138883,"current_range_meters":5600,"station_id":"ce4bhn12rcd13ifvqgqg","pricing_plan_id":"cebpf4jnsgd1na2vs0mg"},{"bike_id":"5edaac88-7240-4b9c-bbf8-05da68cfe0c7","system_id":"levelo_inurba_marseille","lat":43.28475,"lon":5.38415,"is_reserved":false,"is_disabled":false,"rental_uris":{"android":"levelo://app?vid=5edaac88-7240-4b9c-bbf8-05da68cfe0c7","ios":"levelo://app?vid=5edaac88-7240-4b9c-bbf8-05da68cfe0c7"},"vehicle_type_id":"4","last_reported":1747138883,"current_range_meters":6000,"station_id":"","pricing_plan_id":"cebpf4jnsgd1na2vs0mg"},{"bike_id":"0a2cb71a-146c-41e7-9dd6-29dcb7568080","system_id":"levelo_inurba_marseille","lat":43.30909,"lon":5.36838,"is_reserved":false,"is_disabled":false,"rental_uris":{"android":"levelo://app?vid=0a2cb71a-146c-41e7-9dd6-29dcb7568080","ios":"levelo://app?vid=0a2cb71a-146c-41e7-9dd6-29dcb7568080"},"vehicle_type_id":"4","last_reported":1747138883,"current_range_meters":6000,"station_id":"ce4bgn92rcd13ifvqbvg","pricing_plan_id":"cebpf4jnsgd1na2vs0mg"},{"bike_id":"4732276a-4e1e-4a5a-b5ce-3bc74f19a9b2","system_id":"levelo_inurba_marseille","lat":43.30888,"lon":5.39655,"is_reserved":false,"is_disabled":false,"rental_uris":{"android":"levelo://app?vid=4732276a-4e1e-4a5a-b5ce-3bc74f19a9b2","ios":"levelo://app?vid=4732276a-4e1e-4a5a-b5ce-3bc74f19a9b2"},"vehicle_type_id":"4","last_reported":1747138883,"current_range_meters":6000,"station_id":"ce4bh012rcd13ifvqcv0","pricing_plan_id":"cebpf4jnsgd1na2vs0mg"},{"bike_id":"5ea6fdbb-604f-426a-9de5-ae0f75025771","system_id":"levelo_inurba_marseille","lat":43.28855,"lon":5.39311,"is_reserved":false,"is_disabled":false,"rental_uris":{"android":"levelo://app?vid=5ea6fdbb-604f-426a-9de5-ae0f75025771","ios":"levelo://app?vid=5ea6fdbb-604f-426a-9de5-ae0f75025771"},"vehicle_type_id":"4","last_reported":1747138883,"current_range_meters":6000,"station_id":"ce4bh2p2rcd13ifvqdi0","pricing_plan_id":"cebpf4jnsgd1na2vs0mg"},{"bike_id":"32ed3add-875c-4b3d-8ce8-1ec8b7ae49fa","system_id":"levelo_inurba_marseille","lat":43.28619,"lon":5.35092,"is_reserved":false,"is_disabled":false,"rental_uris":{"android":"levelo://app?vid=32ed3add-875c-4b3d-8ce8-1ec8b7ae49fa","ios":"levelo://app?vid=32ed3add-875c-4b3d-8ce8-1ec8b7ae49fa"},"vehicle_type_id":"4","last_reported":1747138883,"current_range_meters":6000,"station_id":"ce4bhch2rcd13ifvqeug","pricing_plan_id":"cebpf4jnsgd1na2vs0mg"},{"bike_id":"d355b3fb-de55-4241-a296-8c9dcea92a8d","system_id":"levelo_inurba_marseille","lat":43.2827,"lon":5.3506,"is_reserved":false,"is_disabled":false,"rental_uris":{"android":"levelo://app?vid=d355b3fb-de55-4241-a296-8c9dcea92a8d","ios":"levelo://app?vid=d355b3fb-de55-4241-a296-8c9dcea92a8d"},"vehicle_type_id":"4","last_reported":1747138883,"current_range_meters":6400,"station_id":"ce4bhbp2rcd13ifvqerg","pricing_plan_id":"cebpf4jnsgd1na2vs0mg"},{"bike_id":"3e9bc8f6-228d-45b7-baa2-81cdb2f3971d","system_id":"levelo_inurba_marseille","lat":43.27066,"lon":5.42272,"is_reserved":false,"is_disabled":false,"rental_uris":{"android":"levelo://app?vid=3e9bc8f6-228d-45b7-baa2-81cdb2f3971d","ios":"levelo://app?vid=3e9bc8f6-228d-45b7-baa2-81cdb2f3971d"},"vehicle_type_id":"4","last_reported":1747138883,"current_range_meters":6400,"station_id":"ce4bhk92rcd13ifvqgb0","pricing_plan_id":"cebpf4jnsgd1na2vs0mg"},{"bike_id":"15c3fdc0-4de4-48a5-98c3-8496c62ee5f4","system_id":"levelo_inurba_marseille","lat":43.29708,"lon":5.36611,"is_reserved":false,"is_disabled":false,"rental_uris":{"android":"levelo://app?vid=15c3fdc0-4de4-48a5-98c3-8496c62ee5f4","ios":"levelo://app?vid=15c3fdc0-4de4-48a5-98c3-8496c62ee5f4"},"vehicle_type_id":"4","last_reported":1747138883,"current_range_meters":6800,"station_id":"ce4bgn12rcd13ifvqbt0","pricing_plan_id":"cebpf4jnsgd1na2vs0mg"},{"bike_id":"831aa21e-7eed-48a7-8fee-11df5950f587","system_id":"levelo_inurba_marseille","lat":43.28416,"lon":5.34983,"is_reserved":false,"is_disabled":false,"rental_uris":{"android":"levelo://app?vid=831aa21e-7eed-48a7-8fee-11df5950f587","ios":"levelo://app?vid=831aa21e-7eed-48a7-8fee-11df5950f587"},"vehicle_type_id":"4","last_reported":1747138883,"current_range_meters":6800,"station_id":"ce4bhbh2rcd13ifvqepg","pricing_plan_id":"cebpf4jnsgd1na2vs0mg"},{"bike_id":"978dab67-af73-4c62-8022-ced875e4ffc1","system_id":"levelo_inurba_marseille","lat":43.28434,"lon":5.3497,"is_reserved":false,"is_disabled":false,"rental_uris":{"android":"levelo://app?vid=978dab67-af73-4c62-8022-ced875e4ffc1","ios":"levelo://app?vid=978dab67-af73-4c62-8022-ced875e4ffc1"},"vehicle_type_id":"4","last_reported":1747138883,"current_range_meters":6800,"station_id":"ce4bhbh2rcd13ifvqepg","pricing_plan_id":"cebpf4jnsgd1na2vs0mg"},{"bike_id":"cc87bfe3-f990-4195-949f-e7ffc1814bdf","system_id":"levelo_inurba_marseille","lat":43.28419,"lon":5.34996,"is_reserved":false,"is_disabled":false,"rental_uris":{"android":"levelo://app?vid=cc87bfe3-f990-4195-949f-e7ffc1814bdf","ios":"levelo://app?vid=cc87bfe3-f990-4195-949f-e7ffc1814bdf"},"vehicle_type_id":"4","last_reported":1747138883,"current_range_meters":6800,"station_id":"ce4bhbh2rcd13ifvqepg","pricing_plan_id":"cebpf4jnsgd1na2vs0mg"},{"bike_id":"6479adba-b410-4c6a-88d2-913406704150","system_id":"levelo_inurba_marseille","lat":43.28272,"lon":5.35057,"is_reserved":false,"is_disabled":false,"rental_uris":{"android":"levelo://app?vid=6479adba-b410-4c6a-88d2-913406704150","ios":"levelo://app?vid=6479adba-b410-4c6a-88d2-913406704150"},"vehicle_type_id":"4","last_reported":1747138883,"current_range_meters":6800,"station_id":"ce4bhbp2rcd13ifvqerg","pricing_plan_id":"cebpf4jnsgd1na2vs0mg"},{"bike_id":"7bf4822b-424c-439e-a7f3-607e50123082","system_id":"levelo_inurba_marseille","lat":43.24804,"lon":5.37452,"is_reserved":false,"is_disabled":false,"rental_uris":{"android":"levelo://app?vid=7bf4822b-424c-439e-a7f3-607e50123082","ios":"levelo://app?vid=7bf4822b-424c-439e-a7f3-607e50123082"},"vehicle_type_id":"4","last_reported":1747138883,"current_range_meters":6800,"station_id":"ce4bhgh2rcd13ifvqfb0","pricing_plan_id":"cebpf4jnsgd1na2vs0mg"},{"bike_id":"d5d188fd-f5d3-426c-8bcb-94c0bfbcb3af","system_id":"levelo_inurba_marseille","lat":43.28723,"lon":5.36097,"is_reserved":false,"is_disabled":false,"rental_uris":{"android":"levelo://app?vid=d5d188fd-f5d3-426c-8bcb-94c0bfbcb3af","ios":"levelo://app?vid=d5d188fd-f5d3-426c-8bcb-94c0bfbcb3af"},"vehicle_type_id":"4","last_reported":1747138883,"current_range_meters":6800,"station_id":"cki0cbj6b192h4jlfktg","pricing_plan_id":"cebpf4jnsgd1na2vs0mg"},{"bike_id":"f38a5056-1737-4a98-a7e8-99c29809f4a2","system_id":"levelo_inurba_marseille","lat":43.29872,"lon":5.39731,"is_reserved":false,"is_disabled":false,"rental_uris":{"android":"levelo://app?vid=f38a5056-1737-4a98-a7e8-99c29809f4a2","ios":"levelo://app?vid=f38a5056-1737-4a98-a7e8-99c29809f4a2"},"vehicle_type_id":"4","last_reported":1747138883,"current_range_meters":7200,"station_id":"ce4bh0h2rcd13ifvqd50","pricing_plan_id":"cebpf4jnsgd1na2vs0mg"},{"bike_id":"74795a7c-45fc-4b29-b5e3-e55edd562156","system_id":"levelo_inurba_marseille","lat":43.29592,"lon":5.37824,"is_reserved":false,"is_disabled":false,"rental_uris":{"android":"levelo://app?vid=74795a7c-45fc-4b29-b5e3-e55edd562156","ios":"levelo://app?vid=74795a7c-45fc-4b29-b5e3-e55edd562156"},"vehicle_type_id":"4","last_reported":1747138883,"current_range_meters":8000,"station_id":"","pricing_plan_id":"cebpf4jnsgd1na2vs0mg"},{"bike_id":"e81cd155-96d3-45fe-8ac0-7b18868fbcf7","system_id":"levelo_inurba_marseille","lat":43.29625,"lon":5.37174,"is_reserved":false,"is_disabled":false,"rental_uris":{"android":"levelo://app?vid=e81cd155-96d3-45fe-8ac0-7b18868fbcf7","ios":"levelo://app?vid=e81cd155-96d3-45fe-8ac0-7b18868fbcf7"},"vehicle_type_id":"4","last_reported":1747138883,"current_range_meters":8000,"station_id":"ce4bgnh2rcd13ifvqc0g","pricing_plan_id":"cebpf4jnsgd1na2vs0mg"},{"bike_id":"2a173a48-5a84-4593-95c6-5baf58934dbc","system_id":"levelo_inurba_marseille","lat":43.31731,"lon":5.40415,"is_reserved":false,"is_disabled":false,"rental_uris":{"android":"levelo://app?vid=2a173a48-5a84-4593-95c6-5baf58934dbc","ios":"levelo://app?vid=2a173a48-5a84-4593-95c6-5baf58934dbc"},"vehicle_type_id":"4","last_reported":1747138883,"current_range_meters":8000,"station_id":"ce4bh012rcd13ifvqd00","pricing_plan_id":"cebpf4jnsgd1na2vs0mg"},{"bike_id":"0b13ab95-da37-40a6-9135-e5450bfe8e3b","system_id":"levelo_inurba_marseille","lat":43.28418,"lon":5.34975,"is_reserved":false,"is_disabled":false,"rental_uris":{"android":"levelo://app?vid=0b13ab95-da37-40a6-9135-e5450bfe8e3b","ios":"levelo://app?vid=0b13ab95-da37-40a6-9135-e5450bfe8e3b"},"vehicle_type_id":"4","last_reported":1747138883,"current_range_meters":8000,"station_id":"ce4bhbh2rcd13ifvqepg","pricing_plan_id":"cebpf4jnsgd1na2vs0mg"},{"bike_id":"daedce05-5043-43e7-b830-2a8b80012f7b","system_id":"levelo_inurba_marseille","lat":43.28617,"lon":5.35103,"is_reserved":false,"is_disabled":false,"rental_uris":{"android":"levelo://app?vid=daedce05-5043-43e7-b830-2a8b80012f7b","ios":"levelo://app?vid=daedce05-5043-43e7-b830-2a8b80012f7b"},"vehicle_type_id":"4","last_reported":1747138883,"current_range_meters":8000,"station_id":"ce4bhch2rcd13ifvqeug","pricing_plan_id":"cebpf4jnsgd1na2vs0mg"},{"bike_id":"2ee4d910-0ee1-4bc5-86c8-c77afad12b4f","system_id":"levelo_inurba_marseille","lat":43.32099,"lon":5.36769,"is_reserved":false,"is_disabled":false,"rental_uris":{"android":"levelo://app?vid=2ee4d910-0ee1-4bc5-86c8-c77afad12b4f","ios":"levelo://app?vid=2ee4d910-0ee1-4bc5-86c8-c77afad12b4f"},"vehicle_type_id":"4","last_reported":1747138883,"current_range_meters":8000,"station_id":"ce4bhrh2rcd13ifvqhug","pricing_plan_id":"cebpf4jnsgd1na2vs0mg"},{"bike_id":"4a374593-b9df-4dd8-9d4a-eb0ec34ebe63","system_id":"levelo_inurba_marseille","lat":43.26684,"lon":5.38269,"is_reserved":false,"is_disabled":false,"rental_uris":{"android":"levelo://app?vid=4a374593-b9df-4dd8-9d4a-eb0ec34ebe63","ios":"levelo://app?vid=4a374593-b9df-4dd8-9d4a-eb0ec34ebe63"},"vehicle_type_id":"4","last_reported":1747138883,"current_range_meters":8400,"station_id":"ce4bhg92rcd13ifvqf90","pricing_plan_id":"cebpf4jnsgd1na2vs0mg"},{"bike_id":"095038c5-171b-47aa-b452-ea84e255eace","system_id":"levelo_inurba_marseille","lat":43.32463,"lon":5.36572,"is_reserved":false,"is_disabled":false,"rental_uris":{"android":"levelo://app?vid=095038c5-171b-47aa-b452-ea84e255eace","ios":"levelo://app?vid=095038c5-171b-47aa-b452-ea84e255eace"},"vehicle_type_id":"4","last_reported":1747138883,"current_range_meters":8400,"station_id":"ce4bhs12rcd13ifvqhvg","pricing_plan_id":"cebpf4jnsgd1na2vs0mg"},{"bike_id":"a10f85cb-b5bd-4f4e-8e84-4ba3e3a00407","system_id":"levelo_inurba_marseille","lat":43.28353,"lon":5.38107,"is_reserved":false,"is_disabled":false,"rental_uris":{"android":"levelo://app?vid=a10f85cb-b5bd-4f4e-8e84-4ba3e3a00407","ios":"levelo://app?vid=a10f85cb-b5bd-4f4e-8e84-4ba3e3a00407"},"vehicle_type_id":"4","last_reported":1747138883,"current_range_meters":8800,"station_id":"ce4bh412rcd13ifvqdr0","pricing_plan_id":"cebpf4jnsgd1na2vs0mg"},{"bike_id":"9e5e8f85-524f-42b4-937f-a6842f5d4898","system_id":"levelo_inurba_marseille","lat":43.25117,"lon":5.4032,"is_reserved":false,"is_disabled":false,"rental_uris":{"android":"levelo://app?vid=9e5e8f85-524f-42b4-937f-a6842f5d4898","ios":"levelo://app?vid=9e5e8f85-524f-42b4-937f-a6842f5d4898"},"vehicle_type_id":"4","last_reported":1747138883,"current_range_meters":8800,"station_id":"ce4bhlh2rcd13ifvqgig","pricing_plan_id":"cebpf4jnsgd1na2vs0mg"},{"bike_id":"c56cce72-c26b-4cbf-865e-16824353c279","system_id":"levelo_inurba_marseille","lat":43.28424,"lon":5.34985,"is_reserved":false,"is_disabled":false,"rental_uris":{"android":"levelo://app?vid=c56cce72-c26b-4cbf-865e-16824353c279","ios":"levelo://app?vid=c56cce72-c26b-4cbf-865e-16824353c279"},"vehicle_type_id":"4","last_reported":1747138883,"current_range_meters":9200,"station_id":"ce4bhbh2rcd13ifvqepg","pricing_plan_id":"cebpf4jnsgd1na2vs0mg"},{"bike_id":"af3a3e53-4d5a-45b9-9355-bc523c2ddd74","system_id":"levelo_inurba_marseille","lat":43.2794,"lon":5.38713,"is_reserved":false,"is_disabled":false,"rental_uris":{"android":"levelo://app?vid=af3a3e53-4d5a-45b9-9355-bc523c2ddd74","ios":"levelo://app?vid=af3a3e53-4d5a-45b9-9355-bc523c2ddd74"},"vehicle_type_id":"4","last_reported":1747138883,"current_range_meters":9200,"station_id":"ce4bhg12rcd13ifvqf80","pricing_plan_id":"cebpf4jnsgd1na2vs0mg"},{"bike_id":"9df488ec-a829-4c25-a919-b07a0b9f14c5","system_id":"levelo_inurba_marseille","lat":43.29857,"lon":5.36282,"is_reserved":false,"is_disabled":false,"rental_uris":{"android":"levelo://app?vid=9df488ec-a829-4c25-a919-b07a0b9f14c5","ios":"levelo://app?vid=9df488ec-a829-4c25-a919-b07a0b9f14c5"},"vehicle_type_id":"4","last_reported":1747138883,"current_range_meters":9600,"station_id":"ce4bgpp2rcd13ifvqc3g","pricing_plan_id":"cebpf4jnsgd1na2vs0mg"},{"bike_id":"00c9fd72-3865-4183-bcdc-99ff797e682c","system_id":"levelo_inurba_marseille","lat":43.302623,"lon":5.400793,"is_reserved":false,"is_disabled":false,"rental_uris":{"android":"levelo://app?vid=00c9fd72-3865-4183-bcdc-99ff797e682c","ios":"levelo://app?vid=00c9fd72-3865-4183-bcdc-99ff797e682c"},"vehicle_type_id":"4","last_reported":1747138883,"current_range_meters":9600,"station_id":"ce4bgvh2rcd13ifvqcs0","pricing_plan_id":"cebpf4jnsgd1na2vs0mg"},{"bike_id":"099bc6e0-df6f-4e9b-a9f5-a08df87dd418","system_id":"levelo_inurba_marseille","lat":43.28155,"lon":5.42644,"is_reserved":false,"is_disabled":false,"rental_uris":{"android":"levelo://app?vid=099bc6e0-df6f-4e9b-a9f5-a08df87dd418","ios":"levelo://app?vid=099bc6e0-df6f-4e9b-a9f5-a08df87dd418"},"vehicle_type_id":"4","last_reported":1747138883,"current_range_meters":9600,"station_id":"ce4bhnh2rcd13ifvqgug","pricing_plan_id":"cebpf4jnsgd1na2vs0mg"},{"bike_id":"9d4d3509-8f1f-4b0b-bf7c-bad5bafda1d7","system_id":"levelo_inurba_marseille","lat":43.30011,"lon":5.37186,"is_reserved":false,"is_disabled":false,"rental_uris":{"android":"levelo://app?vid=9d4d3509-8f1f-4b0b-bf7c-bad5bafda1d7","ios":"levelo://app?vid=9d4d3509-8f1f-4b0b-bf7c-bad5bafda1d7"},"vehicle_type_id":"4","last_reported":1747138883,"current_range_meters":10000,"station_id":"ce4bgnh2rcd13ifvqc0g","pricing_plan_id":"cebpf4jnsgd1na2vs0mg"},{"bike_id":"b196a7c2-ea26-4b9a-99fe-6e3562b7fc13","system_id":"levelo_inurba_marseille","lat":43.30546,"lon":5.36557,"is_reserved":false,"is_disabled":false,"rental_uris":{"android":"levelo://app?vid=b196a7c2-ea26-4b9a-99fe-6e3562b7fc13","ios":"levelo://app?vid=b196a7c2-ea26-4b9a-99fe-6e3562b7fc13"},"vehicle_type_id":"4","last_reported":1747138883,"current_range_meters":10000,"station_id":"ce4bgs12rcd13ifvqcag","pricing_plan_id":"cebpf4jnsgd1na2vs0mg"},{"bike_id":"0e89a721-196d-4572-b905-e39e1dafff7a","system_id":"levelo_inurba_marseille","lat":43.32106,"lon":5.36792,"is_reserved":false,"is_disabled":false,"rental_uris":{"android":"levelo://app?vid=0e89a721-196d-4572-b905-e39e1dafff7a","ios":"levelo://app?vid=0e89a721-196d-4572-b905-e39e1dafff7a"},"vehicle_type_id":"4","last_reported":1747138883,"current_range_meters":10000,"station_id":"ce4bhrh2rcd13ifvqhug","pricing_plan_id":"cebpf4jnsgd1na2vs0mg"},{"bike_id":"ec92e2a2-0c29-4d44-83eb-53a7232294c7","system_id":"levelo_inurba_marseille","lat":43.21726,"lon":5.34609,"is_reserved":false,"is_disabled":false,"rental_uris":{"android":"levelo://app?vid=ec92e2a2-0c29-4d44-83eb-53a7232294c7","ios":"levelo://app?vid=ec92e2a2-0c29-4d44-83eb-53a7232294c7"},"vehicle_type_id":"4","last_reported":1747138883,"current_range_meters":10000,"station_id":"st_cvj6r9ubvosntc0bgbag","pricing_plan_id":"cebpf4jnsgd1na2vs0mg"},{"bike_id":"fccfdb54-2cb6-40cc-b5a7-f98e3df885e5","system_id":"levelo_inurba_marseille","lat":43.29961,"lon":5.37169,"is_reserved":false,"is_disabled":false,"rental_uris":{"android":"levelo://app?vid=fccfdb54-2cb6-40cc-b5a7-f98e3df885e5","ios":"levelo://app?vid=fccfdb54-2cb6-40cc-b5a7-f98e3df885e5"},"vehicle_type_id":"4","last_reported":1747138883,"current_range_meters":10800,"station_id":"ce4bgr92rcd13ifvqc7g","pricing_plan_id":"cebpf4jnsgd1na2vs0mg"},{"bike_id":"27994014-45b8-4b29-9e0b-f874a482fc95","system_id":"levelo_inurba_marseille","lat":43.25584,"lon":5.3823,"is_reserved":false,"is_disabled":false,"rental_uris":{"android":"levelo://app?vid=27994014-45b8-4b29-9e0b-f874a482fc95","ios":"levelo://app?vid=27994014-45b8-4b29-9e0b-f874a482fc95"},"vehicle_type_id":"4","last_reported":1747138883,"current_range_meters":10800,"station_id":"ce4bhih2rcd13ifvqfs0","pricing_plan_id":"cebpf4jnsgd1na2vs0mg"},{"bike_id":"fef6a6ee-95aa-4f77-8b69-1720df2ce098","system_id":"levelo_inurba_marseille","lat":43.32106,"lon":5.3676,"is_reserved":false,"is_disabled":false,"rental_uris":{"android":"levelo://app?vid=fef6a6ee-95aa-4f77-8b69-1720df2ce098","ios":"levelo://app?vid=fef6a6ee-95aa-4f77-8b69-1720df2ce098"},"vehicle_type_id":"4","last_reported":1747138883,"current_range_meters":10800,"station_id":"ce4bhrh2rcd13ifvqhug","pricing_plan_id":"cebpf4jnsgd1na2vs0mg"},{"bike_id":"d19603e8-9f15-46c9-b40e-79700b8115bd","system_id":"levelo_inurba_marseille","lat":43.297152,"lon":5.366012,"is_reserved":false,"is_disabled":false,"rental_uris":{"android":"levelo://app?vid=d19603e8-9f15-46c9-b40e-79700b8115bd","ios":"levelo://app?vid=d19603e8-9f15-46c9-b40e-79700b8115bd"},"vehicle_type_id":"4","last_reported":1747138883,"current_range_meters":11200,"station_id":"ce4bgn12rcd13ifvqbt0","pricing_plan_id":"cebpf4jnsgd1na2vs0mg"},{"bike_id":"6641fc2e-4ffe-4284-bb4e-9fd5af5bc206","system_id":"levelo_inurba_marseille","lat":43.313434,"lon":5.367014,"is_reserved":false,"is_disabled":false,"rental_uris":{"android":"levelo://app?vid=6641fc2e-4ffe-4284-bb4e-9fd5af5bc206","ios":"levelo://app?vid=6641fc2e-4ffe-4284-bb4e-9fd5af5bc206"},"vehicle_type_id":"4","last_reported":1747138883,"current_range_meters":11200,"station_id":"ce4bgr92rcd13ifvqc6g","pricing_plan_id":"cebpf4jnsgd1na2vs0mg"},{"bike_id":"2fcfdd95-82bd-4bc0-8299-f1d57fd4486e","system_id":"levelo_inurba_marseille","lat":43.29627,"lon":5.37163,"is_reserved":false,"is_disabled":false,"rental_uris":{"android":"levelo://app?vid=2fcfdd95-82bd-4bc0-8299-f1d57fd4486e","ios":"levelo://app?vid=2fcfdd95-82bd-4bc0-8299-f1d57fd4486e"},"vehicle_type_id":"4","last_reported":1747138883,"current_range_meters":11600,"station_id":"ce4bgnh2rcd13ifvqc0g","pricing_plan_id":"cebpf4jnsgd1na2vs0mg"},{"bike_id":"678c91e1-5d9d-4d8d-acf2-25a762894b8b","system_id":"levelo_inurba_marseille","lat":43.27364,"lon":5.36251,"is_reserved":false,"is_disabled":false,"rental_uris":{"android":"levelo://app?vid=678c91e1-5d9d-4d8d-acf2-25a762894b8b","ios":"levelo://app?vid=678c91e1-5d9d-4d8d-acf2-25a762894b8b"},"vehicle_type_id":"4","last_reported":1747138883,"current_range_meters":11600,"station_id":"ce4bhbh2rcd13ifvqeo0","pricing_plan_id":"cebpf4jnsgd1na2vs0mg"},{"bike_id":"60495f57-6607-44c4-92eb-f27a0659ac5e","system_id":"levelo_inurba_marseille","lat":43.28269,"lon":5.35058,"is_reserved":false,"is_disabled":false,"rental_uris":{"android":"levelo://app?vid=60495f57-6607-44c4-92eb-f27a0659ac5e","ios":"levelo://app?vid=60495f57-6607-44c4-92eb-f27a0659ac5e"},"vehicle_type_id":"4","last_reported":1747138883,"current_range_meters":12000,"station_id":"","pricing_plan_id":"cebpf4jnsgd1na2vs0mg"},{"bike_id":"c6ab1dae-60d6-4a7c-bf29-25486859e5dd","system_id":"levelo_inurba_marseille","lat":43.30144,"lon":5.38769,"is_reserved":false,"is_disabled":false,"rental_uris":{"android":"levelo://app?vid=c6ab1dae-60d6-4a7c-bf29-25486859e5dd","ios":"levelo://app?vid=c6ab1dae-60d6-4a7c-bf29-25486859e5dd"},"vehicle_type_id":"4","last_reported":1747138883,"current_range_meters":12000,"station_id":"ce4bghh2rcd13ifvqb60","pricing_plan_id":"cebpf4jnsgd1na2vs0mg"},{"bike_id":"0318e503-3833-4fa6-9981-1b0e2773e48a","system_id":"levelo_inurba_marseille","lat":43.301855,"lon":5.366154,"is_reserved":false,"is_disabled":false,"rental_uris":{"android":"levelo://app?vid=0318e503-3833-4fa6-9981-1b0e2773e48a","ios":"levelo://app?vid=0318e503-3833-4fa6-9981-1b0e2773e48a"},"vehicle_type_id":"4","last_reported":1747138883,"current_range_meters":12000,"station_id":"ce4bgrh2rcd13ifvqc8g","pricing_plan_id":"cebpf4jnsgd1na2vs0mg"},{"bike_id":"233fcc44-eba3-43df-b7c2-6ef09c4617de","system_id":"levelo_inurba_marseille","lat":43.3054,"lon":5.36552,"is_reserved":false,"is_disabled":false,"rental_uris":{"android":"levelo://app?vid=233fcc44-eba3-43df-b7c2-6ef09c4617de","ios":"levelo://app?vid=233fcc44-eba3-43df-b7c2-6ef09c4617de"},"vehicle_type_id":"4","last_reported":1747138883,"current_range_meters":12000,"station_id":"ce4bgs12rcd13ifvqcag","pricing_plan_id":"cebpf4jnsgd1na2vs0mg"},{"bike_id":"72b4a7ad-67cb-4f67-84e3-e0acf22edba7","system_id":"levelo_inurba_marseille","lat":43.2872,"lon":5.37919,"is_reserved":false,"is_disabled":false,"rental_uris":{"android":"levelo://app?vid=72b4a7ad-67cb-4f67-84e3-e0acf22edba7","ios":"levelo://app?vid=72b4a7ad-67cb-4f67-84e3-e0acf22edba7"},"vehicle_type_id":"4","last_reported":1747138883,"current_range_meters":12000,"station_id":"ce4bh9p2rcd13ifvqec0","pricing_plan_id":"cebpf4jnsgd1na2vs0mg"},{"bike_id":"495fbd5e-93f9-42dc-9a89-06dccae80ac9","system_id":"levelo_inurba_marseille","lat":43.29918,"lon":5.3814,"is_reserved":false,"is_disabled":false,"rental_uris":{"android":"levelo://app?vid=495fbd5e-93f9-42dc-9a89-06dccae80ac9","ios":"levelo://app?vid=495fbd5e-93f9-42dc-9a89-06dccae80ac9"},"vehicle_type_id":"4","last_reported":1747138883,"current_range_meters":12400,"station_id":"ce4bgj12rcd13ifvqbc0","pricing_plan_id":"cebpf4jnsgd1na2vs0mg"},{"bike_id":"da2bb953-5912-4e68-873a-d16a2fa19290","system_id":"levelo_inurba_marseille","lat":43.31221,"lon":5.36864,"is_reserved":false,"is_disabled":false,"rental_uris":{"android":"levelo://app?vid=da2bb953-5912-4e68-873a-d16a2fa19290","ios":"levelo://app?vid=da2bb953-5912-4e68-873a-d16a2fa19290"},"vehicle_type_id":"4","last_reported":1747138883,"current_range_meters":12800,"station_id":"ce4bgl92rcd13ifvqbq0","pricing_plan_id":"cebpf4jnsgd1na2vs0mg"},{"bike_id":"45af09a6-9bd3-4528-a27e-80e7278d86e9","system_id":"levelo_inurba_marseille","lat":43.2843,"lon":5.37511,"is_reserved":false,"is_disabled":false,"rental_uris":{"android":"levelo://app?vid=45af09a6-9bd3-4528-a27e-80e7278d86e9","ios":"levelo://app?vid=45af09a6-9bd3-4528-a27e-80e7278d86e9"},"vehicle_type_id":"4","last_reported":1747138883,"current_range_meters":12800,"station_id":"ce4bh412rcd13ifvqds0","pricing_plan_id":"cebpf4jnsgd1na2vs0mg"},{"bike_id":"19c2ee55-64c2-417e-996a-961edb180d4f","system_id":"levelo_inurba_marseille","lat":43.24805,"lon":5.37451,"is_reserved":false,"is_disabled":false,"rental_uris":{"android":"levelo://app?vid=19c2ee55-64c2-417e-996a-961edb180d4f","ios":"levelo://app?vid=19c2ee55-64c2-417e-996a-961edb180d4f"},"vehicle_type_id":"4","last_reported":1747138883,"current_range_meters":12800,"station_id":"ce4bhgh2rcd13ifvqfb0","pricing_plan_id":"cebpf4jnsgd1na2vs0mg"},{"bike_id":"af482389-e24e-4d94-84c5-c14774258823","system_id":"levelo_inurba_marseille","lat":43.30544,"lon":5.36556,"is_reserved":false,"is_disabled":false,"rental_uris":{"android":"levelo://app?vid=af482389-e24e-4d94-84c5-c14774258823","ios":"levelo://app?vid=af482389-e24e-4d94-84c5-c14774258823"},"vehicle_type_id":"4","last_reported":1747138883,"current_range_meters":13600,"station_id":"ce4bgs12rcd13ifvqcag","pricing_plan_id":"cebpf4jnsgd1na2vs0mg"},{"bike_id":"d66bbfe3-bd5d-4166-8d69-7aa8120f4e59","system_id":"levelo_inurba_marseille","lat":43.21755,"lon":5.34597,"is_reserved":false,"is_disabled":false,"rental_uris":{"android":"levelo://app?vid=d66bbfe3-bd5d-4166-8d69-7aa8120f4e59","ios":"levelo://app?vid=d66bbfe3-bd5d-4166-8d69-7aa8120f4e59"},"vehicle_type_id":"4","last_reported":1747138883,"current_range_meters":13600,"station_id":"st_cvj6r9ubvosntc0bgbag","pricing_plan_id":"cebpf4jnsgd1na2vs0mg"},{"bike_id":"ae250f89-1731-46a8-9fce-9cd1ac30ac33","system_id":"levelo_inurba_marseille","lat":43.31726,"lon":5.4045,"is_reserved":false,"is_disabled":false,"rental_uris":{"android":"levelo://app?vid=ae250f89-1731-46a8-9fce-9cd1ac30ac33","ios":"levelo://app?vid=ae250f89-1731-46a8-9fce-9cd1ac30ac33"},"vehicle_type_id":"4","last_reported":1747138883,"current_range_meters":14000,"station_id":"ce4bh012rcd13ifvqd00","pricing_plan_id":"cebpf4jnsgd1na2vs0mg"},{"bike_id":"4f3f2eee-1301-4325-a4e9-190bef25b71c","system_id":"levelo_inurba_marseille","lat":43.29162,"lon":5.37161,"is_reserved":false,"is_disabled":false,"rental_uris":{"android":"levelo://app?vid=4f3f2eee-1301-4325-a4e9-190bef25b71c","ios":"levelo://app?vid=4f3f2eee-1301-4325-a4e9-190bef25b71c"},"vehicle_type_id":"4","last_reported":1747138883,"current_range_meters":14000,"station_id":"ce4bha92rcd13ifvqeh0","pricing_plan_id":"cebpf4jnsgd1na2vs0mg"},{"bike_id":"c1961e70-00b3-4374-a2c7-b83f0f2b0eec","system_id":"levelo_inurba_marseille","lat":43.27375,"lon":5.36259,"is_reserved":false,"is_disabled":false,"rental_uris":{"android":"levelo://app?vid=c1961e70-00b3-4374-a2c7-b83f0f2b0eec","ios":"levelo://app?vid=c1961e70-00b3-4374-a2c7-b83f0f2b0eec"},"vehicle_type_id":"4","last_reported":1747138883,"current_range_meters":14000,"station_id":"ce4bhbh2rcd13ifvqeo0","pricing_plan_id":"cebpf4jnsgd1na2vs0mg"},{"bike_id":"672e219c-1b2c-4ae6-9038-3fb4e8988d0a","system_id":"levelo_inurba_marseille","lat":43.25117,"lon":5.40316,"is_reserved":false,"is_disabled":false,"rental_uris":{"android":"levelo://app?vid=672e219c-1b2c-4ae6-9038-3fb4e8988d0a","ios":"levelo://app?vid=672e219c-1b2c-4ae6-9038-3fb4e8988d0a"},"vehicle_type_id":"4","last_reported":1747138883,"current_range_meters":14000,"station_id":"ce4bhlh2rcd13ifvqgig","pricing_plan_id":"cebpf4jnsgd1na2vs0mg"},{"bike_id":"61a8db73-9148-4968-8a75-eee2098adc1a","system_id":"levelo_inurba_marseille","lat":43.31758,"lon":5.39013,"is_reserved":false,"is_disabled":false,"rental_uris":{"android":"levelo://app?vid=61a8db73-9148-4968-8a75-eee2098adc1a","ios":"levelo://app?vid=61a8db73-9148-4968-8a75-eee2098adc1a"},"vehicle_type_id":"4","last_reported":1747138883,"current_range_meters":14400,"station_id":"ce4bhqp2rcd13ifvqhng","pricing_plan_id":"cebpf4jnsgd1na2vs0mg"},{"bike_id":"b6dbc91e-b39d-4bb9-8224-33f4ecf9c38d","system_id":"levelo_inurba_marseille","lat":43.28932,"lon":5.384,"is_reserved":false,"is_disabled":false,"rental_uris":{"android":"levelo://app?vid=b6dbc91e-b39d-4bb9-8224-33f4ecf9c38d","ios":"levelo://app?vid=b6dbc91e-b39d-4bb9-8224-33f4ecf9c38d"},"vehicle_type_id":"4","last_reported":1747138883,"current_range_meters":14800,"station_id":"ce4bh612rcd13ifvqe6g","pricing_plan_id":"cebpf4jnsgd1na2vs0mg"},{"bike_id":"6849816a-14a2-4736-aae2-e7373738bc80","system_id":"levelo_inurba_marseille","lat":43.25927,"lon":5.40883,"is_reserved":false,"is_disabled":false,"rental_uris":{"android":"levelo://app?vid=6849816a-14a2-4736-aae2-e7373738bc80","ios":"levelo://app?vid=6849816a-14a2-4736-aae2-e7373738bc80"},"vehicle_type_id":"4","last_reported":1747138883,"current_range_meters":14800,"station_id":"ce4bhm92rcd13ifvqglg","pricing_plan_id":"cebpf4jnsgd1na2vs0mg"},{"bike_id":"e1a13290-d6a0-4369-88a7-754f3ca86603","system_id":"levelo_inurba_marseille","lat":43.26228,"lon":5.40455,"is_reserved":false,"is_disabled":false,"rental_uris":{"android":"levelo://app?vid=e1a13290-d6a0-4369-88a7-754f3ca86603","ios":"levelo://app?vid=e1a13290-d6a0-4369-88a7-754f3ca86603"},"vehicle_type_id":"4","last_reported":1747138883,"current_range_meters":14800,"station_id":"ce4bhmh2rcd13ifvqgmg","pricing_plan_id":"cebpf4jnsgd1na2vs0mg"},{"bike_id":"ba514e44-6b68-46f5-98bc-d99c9a5ef0e7","system_id":"levelo_inurba_marseille","lat":43.24181,"lon":5.39727,"is_reserved":false,"is_disabled":false,"rental_uris":{"android":"levelo://app?vid=ba514e44-6b68-46f5-98bc-d99c9a5ef0e7","ios":"levelo://app?vid=ba514e44-6b68-46f5-98bc-d99c9a5ef0e7"},"vehicle_type_id":"4","last_reported":1747138883,"current_range_meters":14800,"station_id":"ce4bhn12rcd13ifvqgpg","pricing_plan_id":"cebpf4jnsgd1na2vs0mg"},{"bike_id":"10327911-5dca-4eed-bc09-827d95243918","system_id":"levelo_inurba_marseille","lat":43.23177,"lon":5.39989,"is_reserved":false,"is_disabled":false,"rental_uris":{"android":"levelo://app?vid=10327911-5dca-4eed-bc09-827d95243918","ios":"levelo://app?vid=10327911-5dca-4eed-bc09-827d95243918"},"vehicle_type_id":"4","last_reported":1747138883,"current_range_meters":14800,"station_id":"ce4bhn12rcd13ifvqgqg","pricing_plan_id":"cebpf4jnsgd1na2vs0mg"},{"bike_id":"9d352004-7b2c-43e3-9328-20e4f737c9c4","system_id":"levelo_inurba_marseille","lat":43.262294,"lon":5.404539,"is_reserved":false,"is_disabled":false,"rental_uris":{"android":"levelo://app?vid=9d352004-7b2c-43e3-9328-20e4f737c9c4","ios":"levelo://app?vid=9d352004-7b2c-43e3-9328-20e4f737c9c4"},"vehicle_type_id":"4","last_reported":1747138883,"current_range_meters":15200,"station_id":"","pricing_plan_id":"cebpf4jnsgd1na2vs0mg"},{"bike_id":"2859c980-67d9-4180-bdf4-cfc798b712d2","system_id":"levelo_inurba_marseille","lat":43.29272,"lon":5.38455,"is_reserved":false,"is_disabled":false,"rental_uris":{"android":"levelo://app?vid=2859c980-67d9-4180-bdf4-cfc798b712d2","ios":"levelo://app?vid=2859c980-67d9-4180-bdf4-cfc798b712d2"},"vehicle_type_id":"4","last_reported":1747138883,"current_range_meters":15200,"station_id":"ce4bh692rcd13ifvqea0","pricing_plan_id":"cebpf4jnsgd1na2vs0mg"},{"bike_id":"3dd0c74b-385c-407e-a1ce-89ddb3f05589","system_id":"levelo_inurba_marseille","lat":43.23965,"lon":5.3663,"is_reserved":false,"is_disabled":false,"rental_uris":{"android":"levelo://app?vid=3dd0c74b-385c-407e-a1ce-89ddb3f05589","ios":"levelo://app?vid=3dd0c74b-385c-407e-a1ce-89ddb3f05589"},"vehicle_type_id":"4","last_reported":1747138883,"current_range_meters":15200,"station_id":"ce4bhi12rcd13ifvqfp0","pricing_plan_id":"cebpf4jnsgd1na2vs0mg"},{"bike_id":"2dd9bc06-7943-48ff-8462-219fcfb156ba","system_id":"levelo_inurba_marseille","lat":43.27504,"lon":5.42444,"is_reserved":false,"is_disabled":false,"rental_uris":{"android":"levelo://app?vid=2dd9bc06-7943-48ff-8462-219fcfb156ba","ios":"levelo://app?vid=2dd9bc06-7943-48ff-8462-219fcfb156ba"},"vehicle_type_id":"4","last_reported":1747138883,"current_range_meters":15200,"station_id":"ce4bhn92rcd13ifvqgrg","pricing_plan_id":"cebpf4jnsgd1na2vs0mg"},{"bike_id":"c9d59b68-6e1c-45b3-ba92-a5319d62b5be","system_id":"levelo_inurba_marseille","lat":43.296016,"lon":5.371652,"is_reserved":false,"is_disabled":false,"rental_uris":{"android":"levelo://app?vid=c9d59b68-6e1c-45b3-ba92-a5319d62b5be","ios":"levelo://app?vid=c9d59b68-6e1c-45b3-ba92-a5319d62b5be"},"vehicle_type_id":"4","last_reported":1747138883,"current_range_meters":16000,"station_id":"ce4bgnh2rcd13ifvqc0g","pricing_plan_id":"cebpf4jnsgd1na2vs0mg"},{"bike_id":"61aed45b-7890-42f1-a2cf-dd0e3fcfa63c","system_id":"levelo_inurba_marseille","lat":43.31349,"lon":5.36714,"is_reserved":false,"is_disabled":false,"rental_uris":{"android":"levelo://app?vid=61aed45b-7890-42f1-a2cf-dd0e3fcfa63c","ios":"levelo://app?vid=61aed45b-7890-42f1-a2cf-dd0e3fcfa63c"},"vehicle_type_id":"4","last_reported":1747138883,"current_range_meters":16000,"station_id":"ce4bgr92rcd13ifvqc6g","pricing_plan_id":"cebpf4jnsgd1na2vs0mg"},{"bike_id":"fafe9230-73f3-4f82-9b35-135a8da5320c","system_id":"levelo_inurba_marseille","lat":43.305427,"lon":5.365563,"is_reserved":false,"is_disabled":false,"rental_uris":{"android":"levelo://app?vid=fafe9230-73f3-4f82-9b35-135a8da5320c","ios":"levelo://app?vid=fafe9230-73f3-4f82-9b35-135a8da5320c"},"vehicle_type_id":"4","last_reported":1747138883,"current_range_meters":16000,"station_id":"ce4bgs12rcd13ifvqcag","pricing_plan_id":"cebpf4jnsgd1na2vs0mg"},{"bike_id":"ee95d7b1-23aa-4ba2-8604-c3c7e16b2172","system_id":"levelo_inurba_marseille","lat":43.289105,"lon":5.366535,"is_reserved":false,"is_disabled":false,"rental_uris":{"android":"levelo://app?vid=ee95d7b1-23aa-4ba2-8604-c3c7e16b2172","ios":"levelo://app?vid=ee95d7b1-23aa-4ba2-8604-c3c7e16b2172"},"vehicle_type_id":"4","last_reported":1747138883,"current_range_meters":16000,"station_id":"ce4bhap2rcd13ifvqek0","pricing_plan_id":"cebpf4jnsgd1na2vs0mg"},{"bike_id":"bd95c050-5d0a-4c33-a0e2-115ae520ddd7","system_id":"levelo_inurba_marseille","lat":43.29007,"lon":5.35604,"is_reserved":false,"is_disabled":false,"rental_uris":{"android":"levelo://app?vid=bd95c050-5d0a-4c33-a0e2-115ae520ddd7","ios":"levelo://app?vid=bd95c050-5d0a-4c33-a0e2-115ae520ddd7"},"vehicle_type_id":"4","last_reported":1747138883,"current_range_meters":16000,"station_id":"ce4bhb92rcd13ifvqen0","pricing_plan_id":"cebpf4jnsgd1na2vs0mg"},{"bike_id":"89857dad-000e-4ee8-8730-8ff256ecef3d","system_id":"levelo_inurba_marseille","lat":43.27369,"lon":5.36253,"is_reserved":false,"is_disabled":false,"rental_uris":{"android":"levelo://app?vid=89857dad-000e-4ee8-8730-8ff256ecef3d","ios":"levelo://app?vid=89857dad-000e-4ee8-8730-8ff256ecef3d"},"vehicle_type_id":"4","last_reported":1747138883,"current_range_meters":16000,"station_id":"ce4bhbh2rcd13ifvqeo0","pricing_plan_id":"cebpf4jnsgd1na2vs0mg"},{"bike_id":"278eaf04-1401-48da-9d75-dfda5ad65b19","system_id":"levelo_inurba_marseille","lat":43.24389,"lon":5.37059,"is_reserved":false,"is_disabled":false,"rental_uris":{"android":"levelo://app?vid=278eaf04-1401-48da-9d75-dfda5ad65b19","ios":"levelo://app?vid=278eaf04-1401-48da-9d75-dfda5ad65b19"},"vehicle_type_id":"4","last_reported":1747138883,"current_range_meters":16000,"station_id":"ce4bhhh2rcd13ifvqfk0","pricing_plan_id":"cebpf4jnsgd1na2vs0mg"},{"bike_id":"db3606b5-fffc-4542-b660-4154de60e805","system_id":"levelo_inurba_marseille","lat":43.23964,"lon":5.36626,"is_reserved":false,"is_disabled":false,"rental_uris":{"android":"levelo://app?vid=db3606b5-fffc-4542-b660-4154de60e805","ios":"levelo://app?vid=db3606b5-fffc-4542-b660-4154de60e805"},"vehicle_type_id":"4","last_reported":1747138883,"current_range_meters":16000,"station_id":"ce4bhi12rcd13ifvqfp0","pricing_plan_id":"cebpf4jnsgd1na2vs0mg"},{"bike_id":"204a66ce-4522-4040-b4cd-3384252789fb","system_id":"levelo_inurba_marseille","lat":43.25821,"lon":5.39436,"is_reserved":false,"is_disabled":false,"rental_uris":{"android":"levelo://app?vid=204a66ce-4522-4040-b4cd-3384252789fb","ios":"levelo://app?vid=204a66ce-4522-4040-b4cd-3384252789fb"},"vehicle_type_id":"4","last_reported":1747138883,"current_range_meters":16000,"station_id":"ce4bhip2rcd13ifvqft0","pricing_plan_id":"cebpf4jnsgd1na2vs0mg"},{"bike_id":"c3321e0b-a48d-42e3-b7c8-6ed40df842cf","system_id":"levelo_inurba_marseille","lat":43.25934,"lon":5.40909,"is_reserved":false,"is_disabled":false,"rental_uris":{"android":"levelo://app?vid=c3321e0b-a48d-42e3-b7c8-6ed40df842cf","ios":"levelo://app?vid=c3321e0b-a48d-42e3-b7c8-6ed40df842cf"},"vehicle_type_id":"4","last_reported":1747138883,"current_range_meters":16000,"station_id":"ce4bhm92rcd13ifvqglg","pricing_plan_id":"cebpf4jnsgd1na2vs0mg"},{"bike_id":"d47e0ef5-128e-4c82-8e08-c07c79e20732","system_id":"levelo_inurba_marseille","lat":43.32478,"lon":5.36552,"is_reserved":false,"is_disabled":false,"rental_uris":{"android":"levelo://app?vid=d47e0ef5-128e-4c82-8e08-c07c79e20732","ios":"levelo://app?vid=d47e0ef5-128e-4c82-8e08-c07c79e20732"},"vehicle_type_id":"4","last_reported":1747138883,"current_range_meters":16000,"station_id":"ce4bhs12rcd13ifvqhvg","pricing_plan_id":"cebpf4jnsgd1na2vs0mg"},{"bike_id":"af7378f2-5574-4580-8919-9220d94ad1cc","system_id":"levelo_inurba_marseille","lat":43.23185,"lon":5.3554,"is_reserved":false,"is_disabled":false,"rental_uris":{"android":"levelo://app?vid=af7378f2-5574-4580-8919-9220d94ad1cc","ios":"levelo://app?vid=af7378f2-5574-4580-8919-9220d94ad1cc"},"vehicle_type_id":"4","last_reported":1747138883,"current_range_meters":16000,"station_id":"ce4bhu92rcd13ifvqi70","pricing_plan_id":"cebpf4jnsgd1na2vs0mg"},{"bike_id":"7f6895be-c975-43e2-bd64-db08213bb035","system_id":"levelo_inurba_marseille","lat":43.28709,"lon":5.379307,"is_reserved":false,"is_disabled":false,"rental_uris":{"android":"levelo://app?vid=7f6895be-c975-43e2-bd64-db08213bb035","ios":"levelo://app?vid=7f6895be-c975-43e2-bd64-db08213bb035"},"vehicle_type_id":"4","last_reported":1747138883,"current_range_meters":16400,"station_id":"ce4bh9p2rcd13ifvqec0","pricing_plan_id":"cebpf4jnsgd1na2vs0mg"},{"bike_id":"73c4d68c-0536-409c-acba-94a1392a1c77","system_id":"levelo_inurba_marseille","lat":43.24199,"lon":5.39708,"is_reserved":false,"is_disabled":false,"rental_uris":{"android":"levelo://app?vid=73c4d68c-0536-409c-acba-94a1392a1c77","ios":"levelo://app?vid=73c4d68c-0536-409c-acba-94a1392a1c77"},"vehicle_type_id":"4","last_reported":1747138883,"current_range_meters":16400,"station_id":"ce4bhn12rcd13ifvqgpg","pricing_plan_id":"cebpf4jnsgd1na2vs0mg"},{"bike_id":"e57a1df4-6c82-4a9b-85e1-f9849b9bcf8d","system_id":"levelo_inurba_marseille","lat":43.23195,"lon":5.35546,"is_reserved":false,"is_disabled":false,"rental_uris":{"android":"levelo://app?vid=e57a1df4-6c82-4a9b-85e1-f9849b9bcf8d","ios":"levelo://app?vid=e57a1df4-6c82-4a9b-85e1-f9849b9bcf8d"},"vehicle_type_id":"4","last_reported":1747138883,"current_range_meters":16400,"station_id":"ce4bhu92rcd13ifvqi70","pricing_plan_id":"cebpf4jnsgd1na2vs0mg"},{"bike_id":"9eb21047-dd37-4d69-8407-21f2b4cdfa3a","system_id":"levelo_inurba_marseille","lat":43.31732,"lon":5.40429,"is_reserved":false,"is_disabled":false,"rental_uris":{"android":"levelo://app?vid=9eb21047-dd37-4d69-8407-21f2b4cdfa3a","ios":"levelo://app?vid=9eb21047-dd37-4d69-8407-21f2b4cdfa3a"},"vehicle_type_id":"4","last_reported":1747138883,"current_range_meters":16800,"station_id":"","pricing_plan_id":"cebpf4jnsgd1na2vs0mg"},{"bike_id":"de020fd6-8e85-405c-9160-191943255801","system_id":"levelo_inurba_marseille","lat":43.23153,"lon":5.4371,"is_reserved":false,"is_disabled":false,"rental_uris":{"android":"levelo://app?vid=de020fd6-8e85-405c-9160-191943255801","ios":"levelo://app?vid=de020fd6-8e85-405c-9160-191943255801"},"vehicle_type_id":"4","last_reported":1747138883,"current_range_meters":16800,"station_id":"ce4bhmp2rcd13ifvqgog","pricing_plan_id":"cebpf4jnsgd1na2vs0mg"},{"bike_id":"c2e47ef0-6963-4d7a-9467-e26fd474c5c8","system_id":"levelo_inurba_marseille","lat":43.29933,"lon":5.36552,"is_reserved":false,"is_disabled":false,"rental_uris":{"android":"levelo://app?vid=c2e47ef0-6963-4d7a-9467-e26fd474c5c8","ios":"levelo://app?vid=c2e47ef0-6963-4d7a-9467-e26fd474c5c8"},"vehicle_type_id":"4","last_reported":1747138883,"current_range_meters":17200,"station_id":"ce4bgm92rcd13ifvqbr0","pricing_plan_id":"cebpf4jnsgd1na2vs0mg"},{"bike_id":"ac0a8f74-88f8-4dd6-869a-3324a4644220","system_id":"levelo_inurba_marseille","lat":43.30602,"lon":5.37236,"is_reserved":false,"is_disabled":false,"rental_uris":{"android":"levelo://app?vid=ac0a8f74-88f8-4dd6-869a-3324a4644220","ios":"levelo://app?vid=ac0a8f74-88f8-4dd6-869a-3324a4644220"},"vehicle_type_id":"4","last_reported":1747138883,"current_range_meters":17200,"station_id":"ce4bgqh2rcd13ifvqc4g","pricing_plan_id":"cebpf4jnsgd1na2vs0mg"},{"bike_id":"5f77d901-0e45-45b4-90a0-f6b39c1078b2","system_id":"levelo_inurba_marseille","lat":43.30235,"lon":5.40045,"is_reserved":false,"is_disabled":false,"rental_uris":{"android":"levelo://app?vid=5f77d901-0e45-45b4-90a0-f6b39c1078b2","ios":"levelo://app?vid=5f77d901-0e45-45b4-90a0-f6b39c1078b2"},"vehicle_type_id":"4","last_reported":1747138883,"current_range_meters":17200,"station_id":"ce4bgvh2rcd13ifvqcs0","pricing_plan_id":"cebpf4jnsgd1na2vs0mg"},{"bike_id":"49de28c3-17ef-4326-bda6-57ed5de4caf4","system_id":"levelo_inurba_marseille","lat":43.30416,"lon":5.39757,"is_reserved":false,"is_disabled":false,"rental_uris":{"android":"levelo://app?vid=49de28c3-17ef-4326-bda6-57ed5de4caf4","ios":"levelo://app?vid=49de28c3-17ef-4326-bda6-57ed5de4caf4"},"vehicle_type_id":"4","last_reported":1747138883,"current_range_meters":17200,"station_id":"ce4bh092rcd13ifvqd20","pricing_plan_id":"cebpf4jnsgd1na2vs0mg"},{"bike_id":"82e4009e-7b3e-45e4-b4bd-3bad4e0a8645","system_id":"levelo_inurba_marseille","lat":43.28354,"lon":5.38112,"is_reserved":false,"is_disabled":false,"rental_uris":{"android":"levelo://app?vid=82e4009e-7b3e-45e4-b4bd-3bad4e0a8645","ios":"levelo://app?vid=82e4009e-7b3e-45e4-b4bd-3bad4e0a8645"},"vehicle_type_id":"4","last_reported":1747138883,"current_range_meters":17200,"station_id":"ce4bh412rcd13ifvqdr0","pricing_plan_id":"cebpf4jnsgd1na2vs0mg"},{"bike_id":"a526779f-38d1-4304-8920-a2ea437ec315","system_id":"levelo_inurba_marseille","lat":43.284173,"lon":5.349823,"is_reserved":false,"is_disabled":false,"rental_uris":{"android":"levelo://app?vid=a526779f-38d1-4304-8920-a2ea437ec315","ios":"levelo://app?vid=a526779f-38d1-4304-8920-a2ea437ec315"},"vehicle_type_id":"4","last_reported":1747138883,"current_range_meters":17200,"station_id":"ce4bhbh2rcd13ifvqepg","pricing_plan_id":"cebpf4jnsgd1na2vs0mg"},{"bike_id":"dd07e3e0-ae84-499b-aec4-c483f7ba7a54","system_id":"levelo_inurba_marseille","lat":43.27496,"lon":5.42451,"is_reserved":false,"is_disabled":false,"rental_uris":{"android":"levelo://app?vid=dd07e3e0-ae84-499b-aec4-c483f7ba7a54","ios":"levelo://app?vid=dd07e3e0-ae84-499b-aec4-c483f7ba7a54"},"vehicle_type_id":"4","last_reported":1747138883,"current_range_meters":17200,"station_id":"ce4bhn92rcd13ifvqgrg","pricing_plan_id":"cebpf4jnsgd1na2vs0mg"},{"bike_id":"9d76660f-c284-49a2-8765-48337aa51471","system_id":"levelo_inurba_marseille","lat":43.32111,"lon":5.3678,"is_reserved":false,"is_disabled":false,"rental_uris":{"android":"levelo://app?vid=9d76660f-c284-49a2-8765-48337aa51471","ios":"levelo://app?vid=9d76660f-c284-49a2-8765-48337aa51471"},"vehicle_type_id":"4","last_reported":1747138883,"current_range_meters":17200,"station_id":"ce4bhrh2rcd13ifvqhug","pricing_plan_id":"cebpf4jnsgd1na2vs0mg"},{"bike_id":"0c893fb7-8626-4706-85bf-f404b871dea5","system_id":"levelo_inurba_marseille","lat":43.2813,"lon":5.44593,"is_reserved":false,"is_disabled":false,"rental_uris":{"android":"levelo://app?vid=0c893fb7-8626-4706-85bf-f404b871dea5","ios":"levelo://app?vid=0c893fb7-8626-4706-85bf-f404b871dea5"},"vehicle_type_id":"4","last_reported":1747138883,"current_range_meters":17600,"station_id":"","pricing_plan_id":"cebpf4jnsgd1na2vs0mg"},{"bike_id":"6fc5b750-f629-4e45-a5de-9f5eb17427fd","system_id":"levelo_inurba_marseille","lat":43.30204,"lon":5.36627,"is_reserved":false,"is_disabled":false,"rental_uris":{"android":"levelo://app?vid=6fc5b750-f629-4e45-a5de-9f5eb17427fd","ios":"levelo://app?vid=6fc5b750-f629-4e45-a5de-9f5eb17427fd"},"vehicle_type_id":"4","last_reported":1747138883,"current_range_meters":17600,"station_id":"ce4bgrh2rcd13ifvqc8g","pricing_plan_id":"cebpf4jnsgd1na2vs0mg"},{"bike_id":"75f8dca5-ebbb-4231-a4a7-da615667c2f2","system_id":"levelo_inurba_marseille","lat":43.305557,"lon":5.365479,"is_reserved":false,"is_disabled":false,"rental_uris":{"android":"levelo://app?vid=75f8dca5-ebbb-4231-a4a7-da615667c2f2","ios":"levelo://app?vid=75f8dca5-ebbb-4231-a4a7-da615667c2f2"},"vehicle_type_id":"4","last_reported":1747138883,"current_range_meters":17600,"station_id":"ce4bgs12rcd13ifvqcag","pricing_plan_id":"cebpf4jnsgd1na2vs0mg"},{"bike_id":"18412aec-e995-47c8-8bf9-fd17c00ac277","system_id":"levelo_inurba_marseille","lat":43.31068,"lon":5.38362,"is_reserved":false,"is_disabled":false,"rental_uris":{"android":"levelo://app?vid=18412aec-e995-47c8-8bf9-fd17c00ac277","ios":"levelo://app?vid=18412aec-e995-47c8-8bf9-fd17c00ac277"},"vehicle_type_id":"4","last_reported":1747138883,"current_range_meters":17600,"station_id":"ce4bgv92rcd13ifvqcr0","pricing_plan_id":"cebpf4jnsgd1na2vs0mg"},{"bike_id":"ac78e53f-8126-47fa-9227-454efc0421d4","system_id":"levelo_inurba_marseille","lat":43.29005,"lon":5.35604,"is_reserved":false,"is_disabled":false,"rental_uris":{"android":"levelo://app?vid=ac78e53f-8126-47fa-9227-454efc0421d4","ios":"levelo://app?vid=ac78e53f-8126-47fa-9227-454efc0421d4"},"vehicle_type_id":"4","last_reported":1747138883,"current_range_meters":17600,"station_id":"ce4bhb92rcd13ifvqen0","pricing_plan_id":"cebpf4jnsgd1na2vs0mg"},{"bike_id":"eeb882a8-fe36-4d5c-a964-fc0d0f965523","system_id":"levelo_inurba_marseille","lat":43.30657,"lon":5.36711,"is_reserved":false,"is_disabled":false,"rental_uris":{"android":"levelo://app?vid=eeb882a8-fe36-4d5c-a964-fc0d0f965523","ios":"levelo://app?vid=eeb882a8-fe36-4d5c-a964-fc0d0f965523"},"vehicle_type_id":"4","last_reported":1747138883,"current_range_meters":18000,"station_id":"","pricing_plan_id":"cebpf4jnsgd1na2vs0mg"},{"bike_id":"e1398d2e-b20a-4dd0-a762-35580e0632b4","system_id":"levelo_inurba_marseille","lat":43.31212,"lon":5.36844,"is_reserved":false,"is_disabled":false,"rental_uris":{"android":"levelo://app?vid=e1398d2e-b20a-4dd0-a762-35580e0632b4","ios":"levelo://app?vid=e1398d2e-b20a-4dd0-a762-35580e0632b4"},"vehicle_type_id":"4","last_reported":1747138883,"current_range_meters":18000,"station_id":"ce4bgl92rcd13ifvqbq0","pricing_plan_id":"cebpf4jnsgd1na2vs0mg"},{"bike_id":"754c46fc-30db-4356-b983-c4af0091079c","system_id":"levelo_inurba_marseille","lat":43.29262,"lon":5.38451,"is_reserved":false,"is_disabled":false,"rental_uris":{"android":"levelo://app?vid=754c46fc-30db-4356-b983-c4af0091079c","ios":"levelo://app?vid=754c46fc-30db-4356-b983-c4af0091079c"},"vehicle_type_id":"4","last_reported":1747138883,"current_range_meters":18000,"station_id":"ce4bh692rcd13ifvqea0","pricing_plan_id":"cebpf4jnsgd1na2vs0mg"},{"bike_id":"0e98889c-e9b4-454b-8aa8-9d80967e050f","system_id":"levelo_inurba_marseille","lat":43.23964,"lon":5.36635,"is_reserved":false,"is_disabled":false,"rental_uris":{"android":"levelo://app?vid=0e98889c-e9b4-454b-8aa8-9d80967e050f","ios":"levelo://app?vid=0e98889c-e9b4-454b-8aa8-9d80967e050f"},"vehicle_type_id":"4","last_reported":1747138883,"current_range_meters":18000,"station_id":"ce4bhi12rcd13ifvqfp0","pricing_plan_id":"cebpf4jnsgd1na2vs0mg"},{"bike_id":"7b49cde5-cc6f-4c45-9652-3a627569dfff","system_id":"levelo_inurba_marseille","lat":43.2466,"lon":5.38173,"is_reserved":false,"is_disabled":false,"rental_uris":{"android":"levelo://app?vid=7b49cde5-cc6f-4c45-9652-3a627569dfff","ios":"levelo://app?vid=7b49cde5-cc6f-4c45-9652-3a627569dfff"},"vehicle_type_id":"4","last_reported":1747138883,"current_range_meters":18000,"station_id":"ce4bhih2rcd13ifvqfr0","pricing_plan_id":"cebpf4jnsgd1na2vs0mg"},{"bike_id":"79e0aeb8-3869-47f5-9097-c3b3e3d1c0f1","system_id":"levelo_inurba_marseille","lat":43.24666,"lon":5.38172,"is_reserved":false,"is_disabled":false,"rental_uris":{"android":"levelo://app?vid=79e0aeb8-3869-47f5-9097-c3b3e3d1c0f1","ios":"levelo://app?vid=79e0aeb8-3869-47f5-9097-c3b3e3d1c0f1"},"vehicle_type_id":"4","last_reported":1747138883,"current_range_meters":18000,"station_id":"ce4bhih2rcd13ifvqfr0","pricing_plan_id":"cebpf4jnsgd1na2vs0mg"},{"bike_id":"1d6cbbe3-a988-4b72-89f3-a30e0e2c0cca","system_id":"levelo_inurba_marseille","lat":43.25583,"lon":5.38228,"is_reserved":false,"is_disabled":false,"rental_uris":{"android":"levelo://app?vid=1d6cbbe3-a988-4b72-89f3-a30e0e2c0cca","ios":"levelo://app?vid=1d6cbbe3-a988-4b72-89f3-a30e0e2c0cca"},"vehicle_type_id":"4","last_reported":1747138883,"current_range_meters":18000,"station_id":"ce4bhih2rcd13ifvqfs0","pricing_plan_id":"cebpf4jnsgd1na2vs0mg"},{"bike_id":"bd88d41b-f29d-44c2-8d5d-19a0735af1da","system_id":"levelo_inurba_marseille","lat":43.25923,"lon":5.40886,"is_reserved":false,"is_disabled":false,"rental_uris":{"android":"levelo://app?vid=bd88d41b-f29d-44c2-8d5d-19a0735af1da","ios":"levelo://app?vid=bd88d41b-f29d-44c2-8d5d-19a0735af1da"},"vehicle_type_id":"4","last_reported":1747138883,"current_range_meters":18000,"station_id":"ce4bhm92rcd13ifvqglg","pricing_plan_id":"cebpf4jnsgd1na2vs0mg"},{"bike_id":"581a76c6-406f-436c-80cf-424046378536","system_id":"levelo_inurba_marseille","lat":43.231447,"lon":5.437106,"is_reserved":false,"is_disabled":false,"rental_uris":{"android":"levelo://app?vid=581a76c6-406f-436c-80cf-424046378536","ios":"levelo://app?vid=581a76c6-406f-436c-80cf-424046378536"},"vehicle_type_id":"4","last_reported":1747138883,"current_range_meters":18000,"station_id":"ce4bhmp2rcd13ifvqgog","pricing_plan_id":"cebpf4jnsgd1na2vs0mg"},{"bike_id":"fc29c50c-107e-4b08-b1ab-803efe96480e","system_id":"levelo_inurba_marseille","lat":43.320457,"lon":5.415477,"is_reserved":false,"is_disabled":false,"rental_uris":{"android":"levelo://app?vid=fc29c50c-107e-4b08-b1ab-803efe96480e","ios":"levelo://app?vid=fc29c50c-107e-4b08-b1ab-803efe96480e"},"vehicle_type_id":"4","last_reported":1747138883,"current_range_meters":18000,"station_id":"ce4bhq92rcd13ifvqhkg","pricing_plan_id":"cebpf4jnsgd1na2vs0mg"},{"bike_id":"9e7ebd91-af82-4549-976b-c088b359c00b","system_id":"levelo_inurba_marseille","lat":43.32108,"lon":5.36775,"is_reserved":false,"is_disabled":false,"rental_uris":{"android":"levelo://app?vid=9e7ebd91-af82-4549-976b-c088b359c00b","ios":"levelo://app?vid=9e7ebd91-af82-4549-976b-c088b359c00b"},"vehicle_type_id":"4","last_reported":1747138883,"current_range_meters":18000,"station_id":"ce4bhrh2rcd13ifvqhug","pricing_plan_id":"cebpf4jnsgd1na2vs0mg"},{"bike_id":"1e297e0e-a907-489c-9a22-1dfb89bfb64f","system_id":"levelo_inurba_marseille","lat":43.292343,"lon":5.364205,"is_reserved":false,"is_disabled":false,"rental_uris":{"android":"levelo://app?vid=1e297e0e-a907-489c-9a22-1dfb89bfb64f","ios":"levelo://app?vid=1e297e0e-a907-489c-9a22-1dfb89bfb64f"},"vehicle_type_id":"4","last_reported":1747138883,"current_range_meters":18800,"station_id":"","pricing_plan_id":"cebpf4jnsgd1na2vs0mg"},{"bike_id":"e62a9eed-37ac-4c4c-a002-63f52ffb202f","system_id":"levelo_inurba_marseille","lat":43.29624,"lon":5.37726,"is_reserved":false,"is_disabled":false,"rental_uris":{"android":"levelo://app?vid=e62a9eed-37ac-4c4c-a002-63f52ffb202f","ios":"levelo://app?vid=e62a9eed-37ac-4c4c-a002-63f52ffb202f"},"vehicle_type_id":"4","last_reported":1747138883,"current_range_meters":18800,"station_id":"ce4bgi92rcd13ifvqb90","pricing_plan_id":"cebpf4jnsgd1na2vs0mg"},{"bike_id":"a452df37-0dcd-4560-a327-02cdfeecdf57","system_id":"levelo_inurba_marseille","lat":43.29802,"lon":5.38106,"is_reserved":false,"is_disabled":false,"rental_uris":{"android":"levelo://app?vid=a452df37-0dcd-4560-a327-02cdfeecdf57","ios":"levelo://app?vid=a452df37-0dcd-4560-a327-02cdfeecdf57"},"vehicle_type_id":"4","last_reported":1747138883,"current_range_meters":18800,"station_id":"ce4bgip2rcd13ifvqbb0","pricing_plan_id":"cebpf4jnsgd1na2vs0mg"},{"bike_id":"938530d7-96d4-452b-9d06-b3cf81060415","system_id":"levelo_inurba_marseille","lat":43.2998,"lon":5.37184,"is_reserved":false,"is_disabled":false,"rental_uris":{"android":"levelo://app?vid=938530d7-96d4-452b-9d06-b3cf81060415","ios":"levelo://app?vid=938530d7-96d4-452b-9d06-b3cf81060415"},"vehicle_type_id":"4","last_reported":1747138883,"current_range_meters":18800,"station_id":"ce4bgr92rcd13ifvqc7g","pricing_plan_id":"cebpf4jnsgd1na2vs0mg"},{"bike_id":"66d81ae3-bb73-42a9-ab33-d2f5a6606fb3","system_id":"levelo_inurba_marseille","lat":43.30203,"lon":5.36621,"is_reserved":false,"is_disabled":false,"rental_uris":{"android":"levelo://app?vid=66d81ae3-bb73-42a9-ab33-d2f5a6606fb3","ios":"levelo://app?vid=66d81ae3-bb73-42a9-ab33-d2f5a6606fb3"},"vehicle_type_id":"4","last_reported":1747138883,"current_range_meters":18800,"station_id":"ce4bgrh2rcd13ifvqc8g","pricing_plan_id":"cebpf4jnsgd1na2vs0mg"},{"bike_id":"b866d143-1ce8-4aaf-a492-8d74028214b6","system_id":"levelo_inurba_marseille","lat":43.24661,"lon":5.38159,"is_reserved":false,"is_disabled":false,"rental_uris":{"android":"levelo://app?vid=b866d143-1ce8-4aaf-a492-8d74028214b6","ios":"levelo://app?vid=b866d143-1ce8-4aaf-a492-8d74028214b6"},"vehicle_type_id":"4","last_reported":1747138883,"current_range_meters":18800,"station_id":"ce4bhih2rcd13ifvqfr0","pricing_plan_id":"cebpf4jnsgd1na2vs0mg"},{"bike_id":"937c51ae-1350-430e-bd9b-52a8a9abc39b","system_id":"levelo_inurba_marseille","lat":43.24664,"lon":5.38164,"is_reserved":false,"is_disabled":false,"rental_uris":{"android":"levelo://app?vid=937c51ae-1350-430e-bd9b-52a8a9abc39b","ios":"levelo://app?vid=937c51ae-1350-430e-bd9b-52a8a9abc39b"},"vehicle_type_id":"4","last_reported":1747138883,"current_range_meters":18800,"station_id":"ce4bhih2rcd13ifvqfr0","pricing_plan_id":"cebpf4jnsgd1na2vs0mg"},{"bike_id":"7b81b89e-d5e8-451b-b30a-91751793eec4","system_id":"levelo_inurba_marseille","lat":43.26232,"lon":5.40435,"is_reserved":false,"is_disabled":false,"rental_uris":{"android":"levelo://app?vid=7b81b89e-d5e8-451b-b30a-91751793eec4","ios":"levelo://app?vid=7b81b89e-d5e8-451b-b30a-91751793eec4"},"vehicle_type_id":"4","last_reported":1747138883,"current_range_meters":18800,"station_id":"ce4bhmh2rcd13ifvqgmg","pricing_plan_id":"cebpf4jnsgd1na2vs0mg"},{"bike_id":"e64ccb21-b07c-4dc1-a129-1e19c593a376","system_id":"levelo_inurba_marseille","lat":43.23156,"lon":5.43706,"is_reserved":false,"is_disabled":false,"rental_uris":{"android":"levelo://app?vid=e64ccb21-b07c-4dc1-a129-1e19c593a376","ios":"levelo://app?vid=e64ccb21-b07c-4dc1-a129-1e19c593a376"},"vehicle_type_id":"4","last_reported":1747138883,"current_range_meters":18800,"station_id":"ce4bhmp2rcd13ifvqgog","pricing_plan_id":"cebpf4jnsgd1na2vs0mg"},{"bike_id":"597d936c-c788-46da-adfc-6e5fc8b26306","system_id":"levelo_inurba_marseille","lat":43.23182,"lon":5.39984,"is_reserved":false,"is_disabled":false,"rental_uris":{"android":"levelo://app?vid=597d936c-c788-46da-adfc-6e5fc8b26306","ios":"levelo://app?vid=597d936c-c788-46da-adfc-6e5fc8b26306"},"vehicle_type_id":"4","last_reported":1747138883,"current_range_meters":18800,"station_id":"ce4bhn12rcd13ifvqgqg","pricing_plan_id":"cebpf4jnsgd1na2vs0mg"},{"bike_id":"a5e11739-9f4e-4a5c-a67a-316bdd3705d0","system_id":"levelo_inurba_marseille","lat":43.26794,"lon":5.40272,"is_reserved":false,"is_disabled":false,"rental_uris":{"android":"levelo://app?vid=a5e11739-9f4e-4a5c-a67a-316bdd3705d0","ios":"levelo://app?vid=a5e11739-9f4e-4a5c-a67a-316bdd3705d0"},"vehicle_type_id":"4","last_reported":1747138883,"current_range_meters":19200,"station_id":"ce501612rcd8frsf0b60","pricing_plan_id":"cebpf4jnsgd1na2vs0mg"},{"bike_id":"62df5991-2bba-4e40-be6a-3f7246a02c87","system_id":"levelo_inurba_marseille","lat":43.2836,"lon":5.38631,"is_reserved":false,"is_disabled":false,"rental_uris":{"android":"levelo://app?vid=62df5991-2bba-4e40-be6a-3f7246a02c87","ios":"levelo://app?vid=62df5991-2bba-4e40-be6a-3f7246a02c87"},"vehicle_type_id":"4","last_reported":1747138883,"current_range_meters":19600,"station_id":"ce4bh492rcd13ifvqdvg","pricing_plan_id":"cebpf4jnsgd1na2vs0mg"},{"bike_id":"9393544f-443c-46a7-9dc9-d33483408637","system_id":"levelo_inurba_marseille","lat":43.26198,"lon":5.37931,"is_reserved":false,"is_disabled":false,"rental_uris":{"android":"levelo://app?vid=9393544f-443c-46a7-9dc9-d33483408637","ios":"levelo://app?vid=9393544f-443c-46a7-9dc9-d33483408637"},"vehicle_type_id":"4","last_reported":1747138883,"current_range_meters":19600,"station_id":"ce4bhjp2rcd13ifvqg90","pricing_plan_id":"cebpf4jnsgd1na2vs0mg"},{"bike_id":"a9f02b19-c176-448d-bbd7-70872e29aab1","system_id":"levelo_inurba_marseille","lat":43.23133,"lon":5.43721,"is_reserved":false,"is_disabled":false,"rental_uris":{"android":"levelo://app?vid=a9f02b19-c176-448d-bbd7-70872e29aab1","ios":"levelo://app?vid=a9f02b19-c176-448d-bbd7-70872e29aab1"},"vehicle_type_id":"4","last_reported":1747138883,"current_range_meters":19600,"station_id":"ce4bhmp2rcd13ifvqgog","pricing_plan_id":"cebpf4jnsgd1na2vs0mg"},{"bike_id":"e5a6591a-521f-4799-abb5-e9d2f5431231","system_id":"levelo_inurba_marseille","lat":43.2418,"lon":5.39724,"is_reserved":false,"is_disabled":false,"rental_uris":{"android":"levelo://app?vid=e5a6591a-521f-4799-abb5-e9d2f5431231","ios":"levelo://app?vid=e5a6591a-521f-4799-abb5-e9d2f5431231"},"vehicle_type_id":"4","last_reported":1747138883,"current_range_meters":19600,"station_id":"ce4bhn12rcd13ifvqgpg","pricing_plan_id":"cebpf4jnsgd1na2vs0mg"},{"bike_id":"6e3094ae-584b-4b23-8747-809792d486b5","system_id":"levelo_inurba_marseille","lat":43.21191,"lon":5.35069,"is_reserved":false,"is_disabled":false,"rental_uris":{"android":"levelo://app?vid=6e3094ae-584b-4b23-8747-809792d486b5","ios":"levelo://app?vid=6e3094ae-584b-4b23-8747-809792d486b5"},"vehicle_type_id":"4","last_reported":1747138883,"current_range_meters":19600,"station_id":"st_cvj6sg6p6f1abm77japg","pricing_plan_id":"cebpf4jnsgd1na2vs0mg"},{"bike_id":"995b6502-9a4f-4150-822f-178690fca4ba","system_id":"levelo_inurba_marseille","lat":43.21194,"lon":5.35077,"is_reserved":false,"is_disabled":false,"rental_uris":{"android":"levelo://app?vid=995b6502-9a4f-4150-822f-178690fca4ba","ios":"levelo://app?vid=995b6502-9a4f-4150-822f-178690fca4ba"},"vehicle_type_id":"4","last_reported":1747138883,"current_range_meters":19600,"station_id":"st_cvj6sg6p6f1abm77japg","pricing_plan_id":"cebpf4jnsgd1na2vs0mg"},{"bike_id":"4b92ca58-eeb6-4d48-9f78-dcb400d41f22","system_id":"levelo_inurba_marseille","lat":43.29792,"lon":5.38091,"is_reserved":false,"is_disabled":false,"rental_uris":{"android":"levelo://app?vid=4b92ca58-eeb6-4d48-9f78-dcb400d41f22","ios":"levelo://app?vid=4b92ca58-eeb6-4d48-9f78-dcb400d41f22"},"vehicle_type_id":"4","last_reported":1747138883,"current_range_meters":20000,"station_id":"ce4bgip2rcd13ifvqbb0","pricing_plan_id":"cebpf4jnsgd1na2vs0mg"},{"bike_id":"692d01fc-aad4-4ac3-b834-7369ebb2b17e","system_id":"levelo_inurba_marseille","lat":43.2992,"lon":5.37461,"is_reserved":false,"is_disabled":false,"rental_uris":{"android":"levelo://app?vid=692d01fc-aad4-4ac3-b834-7369ebb2b17e","ios":"levelo://app?vid=692d01fc-aad4-4ac3-b834-7369ebb2b17e"},"vehicle_type_id":"4","last_reported":1747138883,"current_range_meters":20000,"station_id":"ce4bgjh2rcd13ifvqbg0","pricing_plan_id":"cebpf4jnsgd1na2vs0mg"},{"bike_id":"b91a8b92-38f4-4c90-a77e-ffcf970cf45b","system_id":"levelo_inurba_marseille","lat":43.311234,"lon":5.377833,"is_reserved":false,"is_disabled":false,"rental_uris":{"android":"levelo://app?vid=b91a8b92-38f4-4c90-a77e-ffcf970cf45b","ios":"levelo://app?vid=b91a8b92-38f4-4c90-a77e-ffcf970cf45b"},"vehicle_type_id":"4","last_reported":1747138883,"current_range_meters":20000,"station_id":"ce4bgt92rcd13ifvqcg0","pricing_plan_id":"cebpf4jnsgd1na2vs0mg"},{"bike_id":"1b6eff4c-1993-4072-8faf-704b8558fcd5","system_id":"levelo_inurba_marseille","lat":43.305915,"lon":5.393621,"is_reserved":false,"is_disabled":false,"rental_uris":{"android":"levelo://app?vid=1b6eff4c-1993-4072-8faf-704b8558fcd5","ios":"levelo://app?vid=1b6eff4c-1993-4072-8faf-704b8558fcd5"},"vehicle_type_id":"4","last_reported":1747138883,"current_range_meters":20000,"station_id":"ce4bh0p2rcd13ifvqd80","pricing_plan_id":"cebpf4jnsgd1na2vs0mg"},{"bike_id":"74133b99-beac-4f49-ade4-c6acd5d1a4f8","system_id":"levelo_inurba_marseille","lat":43.28488,"lon":5.38414,"is_reserved":false,"is_disabled":false,"rental_uris":{"android":"levelo://app?vid=74133b99-beac-4f49-ade4-c6acd5d1a4f8","ios":"levelo://app?vid=74133b99-beac-4f49-ade4-c6acd5d1a4f8"},"vehicle_type_id":"4","last_reported":1747138883,"current_range_meters":20000,"station_id":"ce4bh512rcd13ifvqe3g","pricing_plan_id":"cebpf4jnsgd1na2vs0mg"},{"bike_id":"9aef3c1f-4843-41c9-94b4-7278bbc4c004","system_id":"levelo_inurba_marseille","lat":43.23189,"lon":5.35571,"is_reserved":false,"is_disabled":false,"rental_uris":{"android":"levelo://app?vid=9aef3c1f-4843-41c9-94b4-7278bbc4c004","ios":"levelo://app?vid=9aef3c1f-4843-41c9-94b4-7278bbc4c004"},"vehicle_type_id":"4","last_reported":1747138883,"current_range_meters":20000,"station_id":"ce4bhu92rcd13ifvqi70","pricing_plan_id":"cebpf4jnsgd1na2vs0mg"},{"bike_id":"87292699-755c-455d-a269-ad0042d94c7b","system_id":"levelo_inurba_marseille","lat":43.21193,"lon":5.35063,"is_reserved":false,"is_disabled":false,"rental_uris":{"android":"levelo://app?vid=87292699-755c-455d-a269-ad0042d94c7b","ios":"levelo://app?vid=87292699-755c-455d-a269-ad0042d94c7b"},"vehicle_type_id":"4","last_reported":1747138883,"current_range_meters":20000,"station_id":"st_cvj6sg6p6f1abm77japg","pricing_plan_id":"cebpf4jnsgd1na2vs0mg"},{"bike_id":"76e8a9b3-aab4-42b8-a468-b9f389fbfda6","system_id":"levelo_inurba_marseille","lat":43.29917,"lon":5.3749,"is_reserved":false,"is_disabled":false,"rental_uris":{"android":"levelo://app?vid=76e8a9b3-aab4-42b8-a468-b9f389fbfda6","ios":"levelo://app?vid=76e8a9b3-aab4-42b8-a468-b9f389fbfda6"},"vehicle_type_id":"4","last_reported":1747138883,"current_range_meters":20400,"station_id":"ce4bgjh2rcd13ifvqbg0","pricing_plan_id":"cebpf4jnsgd1na2vs0mg"},{"bike_id":"05669342-cb45-4c08-a397-74c64938fdba","system_id":"levelo_inurba_marseille","lat":43.25927,"lon":5.40888,"is_reserved":false,"is_disabled":false,"rental_uris":{"android":"levelo://app?vid=05669342-cb45-4c08-a397-74c64938fdba","ios":"levelo://app?vid=05669342-cb45-4c08-a397-74c64938fdba"},"vehicle_type_id":"4","last_reported":1747138883,"current_range_meters":20400,"station_id":"ce4bhm92rcd13ifvqglg","pricing_plan_id":"cebpf4jnsgd1na2vs0mg"},{"bike_id":"b79e315d-39c4-4334-a30d-21d8851be75e","system_id":"levelo_inurba_marseille","lat":43.23148,"lon":5.43726,"is_reserved":false,"is_disabled":false,"rental_uris":{"android":"levelo://app?vid=b79e315d-39c4-4334-a30d-21d8851be75e","ios":"levelo://app?vid=b79e315d-39c4-4334-a30d-21d8851be75e"},"vehicle_type_id":"4","last_reported":1747138883,"current_range_meters":20400,"station_id":"ce4bhmp2rcd13ifvqgog","pricing_plan_id":"cebpf4jnsgd1na2vs0mg"},{"bike_id":"c5a6038e-e242-4c42-a6da-186787771b16","system_id":"levelo_inurba_marseille","lat":43.21769,"lon":5.34607,"is_reserved":false,"is_disabled":false,"rental_uris":{"android":"levelo://app?vid=c5a6038e-e242-4c42-a6da-186787771b16","ios":"levelo://app?vid=c5a6038e-e242-4c42-a6da-186787771b16"},"vehicle_type_id":"4","last_reported":1747138883,"current_range_meters":20400,"station_id":"st_cvj6r9ubvosntc0bgbag","pricing_plan_id":"cebpf4jnsgd1na2vs0mg"},{"bike_id":"980f6414-8321-4f04-8e15-944e41071d5d","system_id":"levelo_inurba_marseille","lat":43.29785,"lon":5.38102,"is_reserved":false,"is_disabled":false,"rental_uris":{"android":"levelo://app?vid=980f6414-8321-4f04-8e15-944e41071d5d","ios":"levelo://app?vid=980f6414-8321-4f04-8e15-944e41071d5d"},"vehicle_type_id":"4","last_reported":1747138883,"current_range_meters":20800,"station_id":"ce4bgip2rcd13ifvqbb0","pricing_plan_id":"cebpf4jnsgd1na2vs0mg"},{"bike_id":"c307ebc7-b456-4feb-9971-346bfb40d3a8","system_id":"levelo_inurba_marseille","lat":43.31702,"lon":5.40465,"is_reserved":false,"is_disabled":false,"rental_uris":{"android":"levelo://app?vid=c307ebc7-b456-4feb-9971-346bfb40d3a8","ios":"levelo://app?vid=c307ebc7-b456-4feb-9971-346bfb40d3a8"},"vehicle_type_id":"4","last_reported":1747138883,"current_range_meters":20800,"station_id":"ce4bh012rcd13ifvqd00","pricing_plan_id":"cebpf4jnsgd1na2vs0mg"},{"bike_id":"12e6380d-b20a-4abd-9195-fa1f02d103d3","system_id":"levelo_inurba_marseille","lat":43.27368,"lon":5.36258,"is_reserved":false,"is_disabled":false,"rental_uris":{"android":"levelo://app?vid=12e6380d-b20a-4abd-9195-fa1f02d103d3","ios":"levelo://app?vid=12e6380d-b20a-4abd-9195-fa1f02d103d3"},"vehicle_type_id":"4","last_reported":1747138883,"current_range_meters":20800,"station_id":"ce4bhbh2rcd13ifvqeo0","pricing_plan_id":"cebpf4jnsgd1na2vs0mg"},{"bike_id":"606cf80e-9181-4e0d-8a52-7343c415edac","system_id":"levelo_inurba_marseille","lat":43.25109,"lon":5.4032,"is_reserved":false,"is_disabled":false,"rental_uris":{"android":"levelo://app?vid=606cf80e-9181-4e0d-8a52-7343c415edac","ios":"levelo://app?vid=606cf80e-9181-4e0d-8a52-7343c415edac"},"vehicle_type_id":"4","last_reported":1747138883,"current_range_meters":20800,"station_id":"ce4bhlh2rcd13ifvqgig","pricing_plan_id":"cebpf4jnsgd1na2vs0mg"},{"bike_id":"e7af1165-ecb2-42eb-afbb-bf7044d0251d","system_id":"levelo_inurba_marseille","lat":43.28155,"lon":5.42641,"is_reserved":false,"is_disabled":false,"rental_uris":{"android":"levelo://app?vid=e7af1165-ecb2-42eb-afbb-bf7044d0251d","ios":"levelo://app?vid=e7af1165-ecb2-42eb-afbb-bf7044d0251d"},"vehicle_type_id":"4","last_reported":1747138883,"current_range_meters":20800,"station_id":"ce4bhnh2rcd13ifvqgug","pricing_plan_id":"cebpf4jnsgd1na2vs0mg"},{"bike_id":"bfb0ba93-f4cc-4494-b5cc-6824644415cf","system_id":"levelo_inurba_marseille","lat":43.30919,"lon":5.36844,"is_reserved":false,"is_disabled":false,"rental_uris":{"android":"levelo://app?vid=bfb0ba93-f4cc-4494-b5cc-6824644415cf","ios":"levelo://app?vid=bfb0ba93-f4cc-4494-b5cc-6824644415cf"},"vehicle_type_id":"4","last_reported":1747138883,"current_range_meters":21600,"station_id":"ce4bgn92rcd13ifvqbvg","pricing_plan_id":"cebpf4jnsgd1na2vs0mg"},{"bike_id":"f3406307-d878-4f09-a45e-2bf9b4e44286","system_id":"levelo_inurba_marseille","lat":43.295172,"lon":5.37448,"is_reserved":false,"is_disabled":false,"rental_uris":{"android":"levelo://app?vid=f3406307-d878-4f09-a45e-2bf9b4e44286","ios":"levelo://app?vid=f3406307-d878-4f09-a45e-2bf9b4e44286"},"vehicle_type_id":"4","last_reported":1747138883,"current_range_meters":22000,"station_id":"ce4bgkh2rcd13ifvqbl0","pricing_plan_id":"cebpf4jnsgd1na2vs0mg"},{"bike_id":"f0b7661d-1daa-4444-9592-dd023e4940dd","system_id":"levelo_inurba_marseille","lat":43.29851,"lon":5.36281,"is_reserved":false,"is_disabled":false,"rental_uris":{"android":"levelo://app?vid=f0b7661d-1daa-4444-9592-dd023e4940dd","ios":"levelo://app?vid=f0b7661d-1daa-4444-9592-dd023e4940dd"},"vehicle_type_id":"4","last_reported":1747138883,"current_range_meters":22000,"station_id":"ce4bgpp2rcd13ifvqc3g","pricing_plan_id":"cebpf4jnsgd1na2vs0mg"},{"bike_id":"239e5ea1-3b89-4511-9b5e-26c7d14965d2","system_id":"levelo_inurba_marseille","lat":43.30182,"lon":5.36629,"is_reserved":false,"is_disabled":false,"rental_uris":{"android":"levelo://app?vid=239e5ea1-3b89-4511-9b5e-26c7d14965d2","ios":"levelo://app?vid=239e5ea1-3b89-4511-9b5e-26c7d14965d2"},"vehicle_type_id":"4","last_reported":1747138883,"current_range_meters":22000,"station_id":"ce4bgrh2rcd13ifvqc8g","pricing_plan_id":"cebpf4jnsgd1na2vs0mg"},{"bike_id":"4879d1fa-022d-4549-8fdc-833bf8bf53ad","system_id":"levelo_inurba_marseille","lat":43.31498,"lon":5.373,"is_reserved":false,"is_disabled":false,"rental_uris":{"android":"levelo://app?vid=4879d1fa-022d-4549-8fdc-833bf8bf53ad","ios":"levelo://app?vid=4879d1fa-022d-4549-8fdc-833bf8bf53ad"},"vehicle_type_id":"4","last_reported":1747138883,"current_range_meters":22000,"station_id":"ce4bgt12rcd13ifvqcd0","pricing_plan_id":"cebpf4jnsgd1na2vs0mg"},{"bike_id":"98902a9d-78d9-4820-aaae-03b366a2b153","system_id":"levelo_inurba_marseille","lat":43.28941,"lon":5.36635,"is_reserved":false,"is_disabled":false,"rental_uris":{"android":"levelo://app?vid=98902a9d-78d9-4820-aaae-03b366a2b153","ios":"levelo://app?vid=98902a9d-78d9-4820-aaae-03b366a2b153"},"vehicle_type_id":"4","last_reported":1747138883,"current_range_meters":22000,"station_id":"ce4bhap2rcd13ifvqek0","pricing_plan_id":"cebpf4jnsgd1na2vs0mg"},{"bike_id":"5647a91f-31a6-41fb-82bb-83893a94fc73","system_id":"levelo_inurba_marseille","lat":43.21193,"lon":5.35069,"is_reserved":false,"is_disabled":false,"rental_uris":{"android":"levelo://app?vid=5647a91f-31a6-41fb-82bb-83893a94fc73","ios":"levelo://app?vid=5647a91f-31a6-41fb-82bb-83893a94fc73"},"vehicle_type_id":"4","last_reported":1747138883,"current_range_meters":22000,"station_id":"st_cvj6sg6p6f1abm77japg","pricing_plan_id":"cebpf4jnsgd1na2vs0mg"},{"bike_id":"3b27af8e-3de7-4902-811f-02064f444eb6","system_id":"levelo_inurba_marseille","lat":43.27608,"lon":5.36117,"is_reserved":false,"is_disabled":false,"rental_uris":{"android":"levelo://app?vid=3b27af8e-3de7-4902-811f-02064f444eb6","ios":"levelo://app?vid=3b27af8e-3de7-4902-811f-02064f444eb6"},"vehicle_type_id":"4","last_reported":1747138883,"current_range_meters":22400,"station_id":"ce4bgj92rcd13ifvqbe0","pricing_plan_id":"cebpf4jnsgd1na2vs0mg"},{"bike_id":"4bb0ef56-ffe4-438f-9d24-71dbbd92f542","system_id":"levelo_inurba_marseille","lat":43.29918,"lon":5.37478,"is_reserved":false,"is_disabled":false,"rental_uris":{"android":"levelo://app?vid=4bb0ef56-ffe4-438f-9d24-71dbbd92f542","ios":"levelo://app?vid=4bb0ef56-ffe4-438f-9d24-71dbbd92f542"},"vehicle_type_id":"4","last_reported":1747138883,"current_range_meters":22400,"station_id":"ce4bgjh2rcd13ifvqbg0","pricing_plan_id":"cebpf4jnsgd1na2vs0mg"},{"bike_id":"5a4ad2eb-c072-4829-a687-6020d3fc0572","system_id":"levelo_inurba_marseille","lat":43.30909,"lon":5.36844,"is_reserved":false,"is_disabled":false,"rental_uris":{"android":"levelo://app?vid=5a4ad2eb-c072-4829-a687-6020d3fc0572","ios":"levelo://app?vid=5a4ad2eb-c072-4829-a687-6020d3fc0572"},"vehicle_type_id":"4","last_reported":1747138883,"current_range_meters":22400,"station_id":"ce4bgn92rcd13ifvqbvg","pricing_plan_id":"cebpf4jnsgd1na2vs0mg"},{"bike_id":"8517cb9f-4ae6-4277-8f79-c43367a42220","system_id":"levelo_inurba_marseille","lat":43.30601,"lon":5.37229,"is_reserved":false,"is_disabled":false,"rental_uris":{"android":"levelo://app?vid=8517cb9f-4ae6-4277-8f79-c43367a42220","ios":"levelo://app?vid=8517cb9f-4ae6-4277-8f79-c43367a42220"},"vehicle_type_id":"4","last_reported":1747138883,"current_range_meters":22400,"station_id":"ce4bgqh2rcd13ifvqc4g","pricing_plan_id":"cebpf4jnsgd1na2vs0mg"},{"bike_id":"019f2739-cfe5-4931-8052-cc144b007b5e","system_id":"levelo_inurba_marseille","lat":43.26567,"lon":5.39007,"is_reserved":false,"is_disabled":false,"rental_uris":{"android":"levelo://app?vid=019f2739-cfe5-4931-8052-cc144b007b5e","ios":"levelo://app?vid=019f2739-cfe5-4931-8052-cc144b007b5e"},"vehicle_type_id":"4","last_reported":1747138883,"current_range_meters":22400,"station_id":"ce4bhe12rcd13ifvqf30","pricing_plan_id":"cebpf4jnsgd1na2vs0mg"},{"bike_id":"832d130e-a2a9-46ad-a5dd-4a207bfeeb9f","system_id":"levelo_inurba_marseille","lat":43.292139,"lon":5.390596,"is_reserved":false,"is_disabled":false,"rental_uris":{"android":"levelo://app?vid=832d130e-a2a9-46ad-a5dd-4a207bfeeb9f","ios":"levelo://app?vid=832d130e-a2a9-46ad-a5dd-4a207bfeeb9f"},"vehicle_type_id":"4","last_reported":1747138883,"current_range_meters":22800,"station_id":"","pricing_plan_id":"cebpf4jnsgd1na2vs0mg"},{"bike_id":"4eb0ae0c-6c55-4b92-9773-95f83ec4d26f","system_id":"levelo_inurba_marseille","lat":43.30797,"lon":5.3765,"is_reserved":false,"is_disabled":false,"rental_uris":{"android":"levelo://app?vid=4eb0ae0c-6c55-4b92-9773-95f83ec4d26f","ios":"levelo://app?vid=4eb0ae0c-6c55-4b92-9773-95f83ec4d26f"},"vehicle_type_id":"4","last_reported":1747138883,"current_range_meters":22800,"station_id":"ce4bgv92rcd13ifvqcq0","pricing_plan_id":"cebpf4jnsgd1na2vs0mg"},{"bike_id":"3aa28d9a-5532-49f3-bfe4-0ef3416e839e","system_id":"levelo_inurba_marseille","lat":43.30793,"lon":5.37642,"is_reserved":false,"is_disabled":false,"rental_uris":{"android":"levelo://app?vid=3aa28d9a-5532-49f3-bfe4-0ef3416e839e","ios":"levelo://app?vid=3aa28d9a-5532-49f3-bfe4-0ef3416e839e"},"vehicle_type_id":"4","last_reported":1747138883,"current_range_meters":22800,"station_id":"ce4bgv92rcd13ifvqcq0","pricing_plan_id":"cebpf4jnsgd1na2vs0mg"},{"bike_id":"ef7a66df-538f-4337-92d5-8313898baf3d","system_id":"levelo_inurba_marseille","lat":43.29005,"lon":5.35614,"is_reserved":false,"is_disabled":false,"rental_uris":{"android":"levelo://app?vid=ef7a66df-538f-4337-92d5-8313898baf3d","ios":"levelo://app?vid=ef7a66df-538f-4337-92d5-8313898baf3d"},"vehicle_type_id":"4","last_reported":1747138883,"current_range_meters":22800,"station_id":"ce4bhb92rcd13ifvqen0","pricing_plan_id":"cebpf4jnsgd1na2vs0mg"},{"bike_id":"5efbd9a6-1eca-419d-8e88-e9a30f561a98","system_id":"levelo_inurba_marseille","lat":43.2842,"lon":5.34983,"is_reserved":false,"is_disabled":false,"rental_uris":{"android":"levelo://app?vid=5efbd9a6-1eca-419d-8e88-e9a30f561a98","ios":"levelo://app?vid=5efbd9a6-1eca-419d-8e88-e9a30f561a98"},"vehicle_type_id":"4","last_reported":1747138883,"current_range_meters":22800,"station_id":"ce4bhbh2rcd13ifvqepg","pricing_plan_id":"cebpf4jnsgd1na2vs0mg"},{"bike_id":"f550e717-637a-4343-9eec-e1f978970a1a","system_id":"levelo_inurba_marseille","lat":43.24669,"lon":5.38159,"is_reserved":false,"is_disabled":false,"rental_uris":{"android":"levelo://app?vid=f550e717-637a-4343-9eec-e1f978970a1a","ios":"levelo://app?vid=f550e717-637a-4343-9eec-e1f978970a1a"},"vehicle_type_id":"4","last_reported":1747138883,"current_range_meters":22800,"station_id":"ce4bhih2rcd13ifvqfr0","pricing_plan_id":"cebpf4jnsgd1na2vs0mg"},{"bike_id":"40a1c000-90a0-4865-a7e7-3a2a723ed018","system_id":"levelo_inurba_marseille","lat":43.25938,"lon":5.40906,"is_reserved":false,"is_disabled":false,"rental_uris":{"android":"levelo://app?vid=40a1c000-90a0-4865-a7e7-3a2a723ed018","ios":"levelo://app?vid=40a1c000-90a0-4865-a7e7-3a2a723ed018"},"vehicle_type_id":"4","last_reported":1747138883,"current_range_meters":22800,"station_id":"ce4bhm92rcd13ifvqglg","pricing_plan_id":"cebpf4jnsgd1na2vs0mg"},{"bike_id":"6e2d0476-d065-4cb0-b9a8-f781bb5b8516","system_id":"levelo_inurba_marseille","lat":43.32286,"lon":5.38276,"is_reserved":false,"is_disabled":false,"rental_uris":{"android":"levelo://app?vid=6e2d0476-d065-4cb0-b9a8-f781bb5b8516","ios":"levelo://app?vid=6e2d0476-d065-4cb0-b9a8-f781bb5b8516"},"vehicle_type_id":"4","last_reported":1747138883,"current_range_meters":22800,"station_id":"ce4bhr12rcd13ifvqhqg","pricing_plan_id":"cebpf4jnsgd1na2vs0mg"},{"bike_id":"1311b7be-7448-4e46-8540-0cecbf3a9518","system_id":"levelo_inurba_marseille","lat":43.32107,"lon":5.36762,"is_reserved":false,"is_disabled":false,"rental_uris":{"android":"levelo://app?vid=1311b7be-7448-4e46-8540-0cecbf3a9518","ios":"levelo://app?vid=1311b7be-7448-4e46-8540-0cecbf3a9518"},"vehicle_type_id":"4","last_reported":1747138883,"current_range_meters":22800,"station_id":"ce4bhrh2rcd13ifvqhug","pricing_plan_id":"cebpf4jnsgd1na2vs0mg"},{"bike_id":"ac0112c9-313e-422c-910b-a3523b05b0c9","system_id":"levelo_inurba_marseille","lat":43.23053,"lon":5.35487,"is_reserved":false,"is_disabled":false,"rental_uris":{"android":"levelo://app?vid=ac0112c9-313e-422c-910b-a3523b05b0c9","ios":"levelo://app?vid=ac0112c9-313e-422c-910b-a3523b05b0c9"},"vehicle_type_id":"4","last_reported":1747138883,"current_range_meters":22800,"station_id":"cpo3342slgdg3j2ifvpg","pricing_plan_id":"cebpf4jnsgd1na2vs0mg"},{"bike_id":"a7840b6e-a459-421f-b0a0-d87619a97279","system_id":"levelo_inurba_marseille","lat":43.29582,"lon":5.36743,"is_reserved":false,"is_disabled":false,"rental_uris":{"android":"levelo://app?vid=a7840b6e-a459-421f-b0a0-d87619a97279","ios":"levelo://app?vid=a7840b6e-a459-421f-b0a0-d87619a97279"},"vehicle_type_id":"4","last_reported":1747138883,"current_range_meters":23200,"station_id":"ce4bgph2rcd13ifvqc2g","pricing_plan_id":"cebpf4jnsgd1na2vs0mg"},{"bike_id":"a26d050a-47ae-47a9-a317-35d5dd53ae8a","system_id":"levelo_inurba_marseille","lat":43.282825,"lon":5.350616,"is_reserved":false,"is_disabled":false,"rental_uris":{"android":"levelo://app?vid=a26d050a-47ae-47a9-a317-35d5dd53ae8a","ios":"levelo://app?vid=a26d050a-47ae-47a9-a317-35d5dd53ae8a"},"vehicle_type_id":"4","last_reported":1747138883,"current_range_meters":23200,"station_id":"ce4bhbp2rcd13ifvqerg","pricing_plan_id":"cebpf4jnsgd1na2vs0mg"},{"bike_id":"c553784e-2637-45b2-b7ea-444ec3d04d46","system_id":"levelo_inurba_marseille","lat":43.265594,"lon":5.372822,"is_reserved":false,"is_disabled":false,"rental_uris":{"android":"levelo://app?vid=c553784e-2637-45b2-b7ea-444ec3d04d46","ios":"levelo://app?vid=c553784e-2637-45b2-b7ea-444ec3d04d46"},"vehicle_type_id":"4","last_reported":1747138883,"current_range_meters":23200,"station_id":"ce4bhg12rcd13ifvqf70","pricing_plan_id":"cebpf4jnsgd1na2vs0mg"},{"bike_id":"b044b041-fe46-44c4-9924-c2321867ee36","system_id":"levelo_inurba_marseille","lat":43.23157,"lon":5.43714,"is_reserved":false,"is_disabled":false,"rental_uris":{"android":"levelo://app?vid=b044b041-fe46-44c4-9924-c2321867ee36","ios":"levelo://app?vid=b044b041-fe46-44c4-9924-c2321867ee36"},"vehicle_type_id":"4","last_reported":1747138883,"current_range_meters":23200,"station_id":"ce4bhmp2rcd13ifvqgog","pricing_plan_id":"cebpf4jnsgd1na2vs0mg"},{"bike_id":"2031f3ee-aad0-4d1a-a25f-e0368c470705","system_id":"levelo_inurba_marseille","lat":43.2408,"lon":5.37749,"is_reserved":false,"is_disabled":false,"rental_uris":{"android":"levelo://app?vid=2031f3ee-aad0-4d1a-a25f-e0368c470705","ios":"levelo://app?vid=2031f3ee-aad0-4d1a-a25f-e0368c470705"},"vehicle_type_id":"4","last_reported":1747138883,"current_range_meters":23200,"station_id":"ce4bhnp2rcd13ifvqgvg","pricing_plan_id":"cebpf4jnsgd1na2vs0mg"},{"bike_id":"72685bc2-a139-4921-91aa-353af2f7beea","system_id":"levelo_inurba_marseille","lat":43.28002,"lon":5.40017,"is_reserved":false,"is_disabled":false,"rental_uris":{"android":"levelo://app?vid=72685bc2-a139-4921-91aa-353af2f7beea","ios":"levelo://app?vid=72685bc2-a139-4921-91aa-353af2f7beea"},"vehicle_type_id":"4","last_reported":1747138883,"current_range_meters":23200,"station_id":"ce4bho92rcd13ifvqh4g","pricing_plan_id":"cebpf4jnsgd1na2vs0mg"},{"bike_id":"419dfcfb-1f58-4cee-80b9-215cab685d51","system_id":"levelo_inurba_marseille","lat":43.31763,"lon":5.39009,"is_reserved":false,"is_disabled":false,"rental_uris":{"android":"levelo://app?vid=419dfcfb-1f58-4cee-80b9-215cab685d51","ios":"levelo://app?vid=419dfcfb-1f58-4cee-80b9-215cab685d51"},"vehicle_type_id":"4","last_reported":1747138883,"current_range_meters":23200,"station_id":"ce4bhqp2rcd13ifvqhng","pricing_plan_id":"cebpf4jnsgd1na2vs0mg"},{"bike_id":"b0a88558-462a-45f7-9fd1-dd814a9d32f3","system_id":"levelo_inurba_marseille","lat":43.21195,"lon":5.35065,"is_reserved":false,"is_disabled":false,"rental_uris":{"android":"levelo://app?vid=b0a88558-462a-45f7-9fd1-dd814a9d32f3","ios":"levelo://app?vid=b0a88558-462a-45f7-9fd1-dd814a9d32f3"},"vehicle_type_id":"4","last_reported":1747138883,"current_range_meters":23200,"station_id":"st_cvj6sg6p6f1abm77japg","pricing_plan_id":"cebpf4jnsgd1na2vs0mg"},{"bike_id":"1c7f6792-cc6c-4358-878d-ab0737dd6dd9","system_id":"levelo_inurba_marseille","lat":43.29265,"lon":5.37628,"is_reserved":false,"is_disabled":false,"rental_uris":{"android":"levelo://app?vid=1c7f6792-cc6c-4358-878d-ab0737dd6dd9","ios":"levelo://app?vid=1c7f6792-cc6c-4358-878d-ab0737dd6dd9"},"vehicle_type_id":"4","last_reported":1747138883,"current_range_meters":24000,"station_id":"ce4bgi12rcd13ifvqb80","pricing_plan_id":"cebpf4jnsgd1na2vs0mg"},{"bike_id":"e44ba6a0-8a10-4517-af54-b94092ed08fd","system_id":"levelo_inurba_marseille","lat":43.3022,"lon":5.39468,"is_reserved":false,"is_disabled":false,"rental_uris":{"android":"levelo://app?vid=e44ba6a0-8a10-4517-af54-b94092ed08fd","ios":"levelo://app?vid=e44ba6a0-8a10-4517-af54-b94092ed08fd"},"vehicle_type_id":"4","last_reported":1747138883,"current_range_meters":24000,"station_id":"ce4bh0p2rcd13ifvqd70","pricing_plan_id":"cebpf4jnsgd1na2vs0mg"},{"bike_id":"55c7379a-00cf-49ad-a1d0-34948596ca88","system_id":"levelo_inurba_marseille","lat":43.28418,"lon":5.375138,"is_reserved":false,"is_disabled":false,"rental_uris":{"android":"levelo://app?vid=55c7379a-00cf-49ad-a1d0-34948596ca88","ios":"levelo://app?vid=55c7379a-00cf-49ad-a1d0-34948596ca88"},"vehicle_type_id":"4","last_reported":1747138883,"current_range_meters":24000,"station_id":"ce4bh412rcd13ifvqds0","pricing_plan_id":"cebpf4jnsgd1na2vs0mg"},{"bike_id":"1cb731f7-2827-4081-b599-6540e8c254aa","system_id":"levelo_inurba_marseille","lat":43.282674,"lon":5.350625,"is_reserved":false,"is_disabled":false,"rental_uris":{"android":"levelo://app?vid=1cb731f7-2827-4081-b599-6540e8c254aa","ios":"levelo://app?vid=1cb731f7-2827-4081-b599-6540e8c254aa"},"vehicle_type_id":"4","last_reported":1747138883,"current_range_meters":24000,"station_id":"ce4bhbp2rcd13ifvqerg","pricing_plan_id":"cebpf4jnsgd1na2vs0mg"},{"bike_id":"047d67da-c236-4bed-ab37-7f5e38d10cc6","system_id":"levelo_inurba_marseille","lat":43.24668,"lon":5.38163,"is_reserved":false,"is_disabled":false,"rental_uris":{"android":"levelo://app?vid=047d67da-c236-4bed-ab37-7f5e38d10cc6","ios":"levelo://app?vid=047d67da-c236-4bed-ab37-7f5e38d10cc6"},"vehicle_type_id":"4","last_reported":1747138883,"current_range_meters":24000,"station_id":"ce4bhih2rcd13ifvqfr0","pricing_plan_id":"cebpf4jnsgd1na2vs0mg"},{"bike_id":"08d95423-56bc-4ee8-94fa-19dfe042fdab","system_id":"levelo_inurba_marseille","lat":43.25097,"lon":5.40325,"is_reserved":false,"is_disabled":false,"rental_uris":{"android":"levelo://app?vid=08d95423-56bc-4ee8-94fa-19dfe042fdab","ios":"levelo://app?vid=08d95423-56bc-4ee8-94fa-19dfe042fdab"},"vehicle_type_id":"4","last_reported":1747138883,"current_range_meters":24000,"station_id":"ce4bhlh2rcd13ifvqgig","pricing_plan_id":"cebpf4jnsgd1na2vs0mg"},{"bike_id":"e9c4473d-4bf1-48d7-be7b-f01cb07478b3","system_id":"levelo_inurba_marseille","lat":43.25943,"lon":5.40909,"is_reserved":false,"is_disabled":false,"rental_uris":{"android":"levelo://app?vid=e9c4473d-4bf1-48d7-be7b-f01cb07478b3","ios":"levelo://app?vid=e9c4473d-4bf1-48d7-be7b-f01cb07478b3"},"vehicle_type_id":"4","last_reported":1747138883,"current_range_meters":24000,"station_id":"ce4bhm92rcd13ifvqglg","pricing_plan_id":"cebpf4jnsgd1na2vs0mg"},{"bike_id":"45f4457a-2c5a-44e5-aa87-39106030b236","system_id":"levelo_inurba_marseille","lat":43.25938,"lon":5.40906,"is_reserved":false,"is_disabled":false,"rental_uris":{"android":"levelo://app?vid=45f4457a-2c5a-44e5-aa87-39106030b236","ios":"levelo://app?vid=45f4457a-2c5a-44e5-aa87-39106030b236"},"vehicle_type_id":"4","last_reported":1747138883,"current_range_meters":24000,"station_id":"ce4bhm92rcd13ifvqglg","pricing_plan_id":"cebpf4jnsgd1na2vs0mg"},{"bike_id":"ec7c4865-753f-453e-85ef-0a7ffec5c882","system_id":"levelo_inurba_marseille","lat":43.2418,"lon":5.39728,"is_reserved":false,"is_disabled":false,"rental_uris":{"android":"levelo://app?vid=ec7c4865-753f-453e-85ef-0a7ffec5c882","ios":"levelo://app?vid=ec7c4865-753f-453e-85ef-0a7ffec5c882"},"vehicle_type_id":"4","last_reported":1747138883,"current_range_meters":24000,"station_id":"ce4bhn12rcd13ifvqgpg","pricing_plan_id":"cebpf4jnsgd1na2vs0mg"},{"bike_id":"18556955-6e5e-44de-8de6-34b971734618","system_id":"levelo_inurba_marseille","lat":43.32101,"lon":5.36788,"is_reserved":false,"is_disabled":false,"rental_uris":{"android":"levelo://app?vid=18556955-6e5e-44de-8de6-34b971734618","ios":"levelo://app?vid=18556955-6e5e-44de-8de6-34b971734618"},"vehicle_type_id":"4","last_reported":1747138883,"current_range_meters":24000,"station_id":"ce4bhrh2rcd13ifvqhug","pricing_plan_id":"cebpf4jnsgd1na2vs0mg"},{"bike_id":"9670f60b-d981-469e-87fd-010a1d3c3a6e","system_id":"levelo_inurba_marseille","lat":43.32114,"lon":5.36776,"is_reserved":false,"is_disabled":false,"rental_uris":{"android":"levelo://app?vid=9670f60b-d981-469e-87fd-010a1d3c3a6e","ios":"levelo://app?vid=9670f60b-d981-469e-87fd-010a1d3c3a6e"},"vehicle_type_id":"4","last_reported":1747138883,"current_range_meters":24000,"station_id":"ce4bhrh2rcd13ifvqhug","pricing_plan_id":"cebpf4jnsgd1na2vs0mg"},{"bike_id":"08a93b84-f9e2-4480-b23a-2ee7a592645e","system_id":"levelo_inurba_marseille","lat":43.21753,"lon":5.34602,"is_reserved":false,"is_disabled":false,"rental_uris":{"android":"levelo://app?vid=08a93b84-f9e2-4480-b23a-2ee7a592645e","ios":"levelo://app?vid=08a93b84-f9e2-4480-b23a-2ee7a592645e"},"vehicle_type_id":"4","last_reported":1747138883,"current_range_meters":24000,"station_id":"st_cvj6r9ubvosntc0bgbag","pricing_plan_id":"cebpf4jnsgd1na2vs0mg"},{"bike_id":"dbd7c968-7567-43da-9a77-d1a18b8d37f6","system_id":"levelo_inurba_marseille","lat":43.28739,"lon":5.37905,"is_reserved":false,"is_disabled":false,"rental_uris":{"android":"levelo://app?vid=dbd7c968-7567-43da-9a77-d1a18b8d37f6","ios":"levelo://app?vid=dbd7c968-7567-43da-9a77-d1a18b8d37f6"},"vehicle_type_id":"4","last_reported":1747138883,"current_range_meters":24400,"station_id":"ce4bh9p2rcd13ifvqec0","pricing_plan_id":"cebpf4jnsgd1na2vs0mg"},{"bike_id":"bb0f4c78-b438-44d2-a0e5-e8aa1e48cf9e","system_id":"levelo_inurba_marseille","lat":43.25932,"lon":5.40904,"is_reserved":false,"is_disabled":false,"rental_uris":{"android":"levelo://app?vid=bb0f4c78-b438-44d2-a0e5-e8aa1e48cf9e","ios":"levelo://app?vid=bb0f4c78-b438-44d2-a0e5-e8aa1e48cf9e"},"vehicle_type_id":"4","last_reported":1747138883,"current_range_meters":24400,"station_id":"ce4bhm92rcd13ifvqglg","pricing_plan_id":"cebpf4jnsgd1na2vs0mg"},{"bike_id":"e20c0ab0-90ea-460e-bcc0-e5fa98547380","system_id":"levelo_inurba_marseille","lat":43.31713,"lon":5.43698,"is_reserved":false,"is_disabled":false,"rental_uris":{"android":"levelo://app?vid=e20c0ab0-90ea-460e-bcc0-e5fa98547380","ios":"levelo://app?vid=e20c0ab0-90ea-460e-bcc0-e5fa98547380"},"vehicle_type_id":"4","last_reported":1747138883,"current_range_meters":24400,"station_id":"ce4bhp92rcd13ifvqhcg","pricing_plan_id":"cebpf4jnsgd1na2vs0mg"},