{"last_updated":1734282450,"ttl":60,"version":"2.2","data":{"bikes":[{"bike_id":"6cb06d5b-b9ac-4325-ba0a-17357eb9ec74","system_id":"levelo_inurba_marseille","lat":43.28278,"lon":5.35098,"is_reserved":false,"is_disabled":true,"rental_uris":{"android":"levelo://app?vid=6cb06d5b-b9ac-4325-ba0a-17357eb9ec74","ios":"levelo://app?vid=6cb06d5b-b9ac-4325-ba0a-17357eb9ec74"},"vehicle_type_id":"4","last_reported":1734282450,"current_range_meters":800,"station_id":"ce4bhbp2rcd13ifvqerg","pricing_plan_id":"cebpf4jnsgd1na2vs0mg"},{"bike_id":"61d772b3-e172-4f5d-8778-5fb43be913c2","system_id":"levelo_inurba_marseille","lat":43.27071,"lon":5.42279,"is_reserved":false,"is_disabled":true,"rental_uris":{"android":"levelo://app?vid=61d772b3-e172-4f5d-8778-5fb43be913c2","ios":"levelo://app?vid=61d772b3-e172-4f5d-8778-5fb43be913c2"},"vehicle_type_id":"4","last_reported":1734282450,"current_range_meters":1200,"station_id":"ce4bhk92rcd13ifvqgb0","pricing_plan_id":"cebpf4jnsgd1na2vs0mg"},{"bike_id":"c65e74a9-72c4-4578-b145-23859ece1cc9","system_id":"levelo_inurba_marseille","lat":43.25575,"lon":5.38224,"is_reserved":false,"is_disabled":false,"rental_uris":{"android":"levelo://app?vid=c65e74a9-72c4-4578-b145-23859ece1cc9","ios":"levelo://app?vid=c65e74a9-72c4-4578-b145-23859ece1cc9"},"vehicle_type_id":"4","last_reported":1734282450,"current_range_meters":31200,"station_id":"ce4bhih2rcd13ifvqfs0","pricing_plan_id":"cebpf4jnsgd1na2vs0mg"},{"bike_id":"49735576-98af-4537-b127-26ad7906beaf","system_id":"levelo_inurba_marseille","lat":43.26055,"lon":5.39393,"is_reserved":false,"is_disabled":false,"rental_uris":{"android":"levelo://app?vid=49735576-98af-4537-b127-26ad7906beaf","ios":"levelo://app?vid=49735576-98af-4537-b127-26ad7906beaf"},"vehicle_type_id":"4","last_reported":1734282450,"current_range_meters":25200,"station_id":"ce4bhh92rcd13ifvqfj0","pricing_plan_id":"cebpf4jnsgd1na2vs0mg"},{"bike_id":"ed9edba7-d3f1-4e95-8555-1252dbf70dce","system_id":"levelo_inurba_marseille","lat":43.27548,"lon":5.38441,"is_reserved":false,"is_disabled":true,"rental_uris":{"android":"levelo://app?vid=ed9edba7-d3f1-4e95-8555-1252dbf70dce","ios":"levelo://app?vid=ed9edba7-d3f1-4e95-8555-1252dbf70dce"},"vehicle_type_id":"4","last_reported":1734282450,"current_range_meters":35200,"station_id":"ce4bhh92rcd13ifvqfi0","pricing_plan_id":"cebpf4jnsgd1na2vs0mg"},{"bike_id":"b9909b1b-7dc0-43e0-9eac-af3c1c280ed0","system_id":"levelo_inurba_marseille","lat":43.29084,"lon":5.3575,"is_reserved":false,"is_disabled":false,"rental_uris":{"android":"levelo://app?vid=b9909b1b-7dc0-43e0-9eac-af3c1c280ed0","ios":"levelo://app?vid=b9909b1b-7dc0-43e0-9eac-af3c1c280ed0"},"vehicle_type_id":"4","last_reported":1734282450,"current_range_meters":7200,"station_id":"","pricing_plan_id":"cebpf4jnsgd1na2vs0mg"},{"bike_id":"9e369b33-6c96-4e90-ba7c-c3f89e77f881","system_id":"levelo_inurba_marseille","lat":43.30532,"lon":5.36542,"is_reserved":false,"is_disabled":false,"rental_uris":{"android":"levelo://app?vid=9e369b33-6c96-4e90-ba7c-c3f89e77f881","ios":"levelo://app?vid=9e369b33-6c96-4e90-ba7c-c3f89e77f881"},"vehicle_type_id":"4","last_reported":1734282450,"current_range_meters":37600,"station_id":"ce4bgs12rcd13ifvqcag","pricing_plan_id":"cebpf4jnsgd1na2vs0mg"},{"bike_id":"659e7223-8158-4b91-81d5-9356230c0348","system_id":"levelo_inurba_marseille","lat":43.28696,"lon":5.3998,"is_reserved":false,"is_disabled":false,"rental_uris":{"android":"levelo://app?vid=659e7223-8158-4b91-81d5-9356230c0348","ios":"levelo://app?vid=659e7223-8158-4b91-81d5-9356230c0348"},"vehicle_type_id":"4","last_reported":1734282450,"current_range_meters":34000,"station_id":"ce4bho92rcd13ifvqh3g","pricing_plan_id":"cebpf4jnsgd1na2vs0mg"},{"bike_id":"68318da2-404d-4277-bcad-71c1cc0f38c8","system_id":"levelo_inurba_marseille","lat":43.27206,"lon":5.39198,"is_reserved":false,"is_disabled":true,"rental_uris":{"android":"levelo://app?vid=68318da2-404d-4277-bcad-71c1cc0f38c8","ios":"levelo://app?vid=68318da2-404d-4277-bcad-71c1cc0f38c8"},"vehicle_type_id":"4","last_reported":1734282450,"current_range_meters":21600,"station_id":"ce4bhhp2rcd13ifvqfm0","pricing_plan_id":"cebpf4jnsgd1na2vs0mg"},{"bike_id":"8fa988a2-a9df-4b39-a2d2-a1cd7d8ffa18","system_id":"levelo_inurba_marseille","lat":43.2841,"lon":5.37504,"is_reserved":false,"is_disabled":false,"rental_uris":{"android":"levelo://app?vid=8fa988a2-a9df-4b39-a2d2-a1cd7d8ffa18","ios":"levelo://app?vid=8fa988a2-a9df-4b39-a2d2-a1cd7d8ffa18"},"vehicle_type_id":"4","last_reported":1734282450,"current_range_meters":4800,"station_id":"ce4bh412rcd13ifvqds0","pricing_plan_id":"cebpf4jnsgd1na2vs0mg"},{"bike_id":"2aabb9e3-ae45-4b17-b10d-af50e235d80a","system_id":"levelo_inurba_marseille","lat":43.2679,"lon":5.39928,"is_reserved":false,"is_disabled":true,"rental_uris":{"android":"levelo://app?vid=2aabb9e3-ae45-4b17-b10d-af50e235d80a","ios":"levelo://app?vid=2aabb9e3-ae45-4b17-b10d-af50e235d80a"},"vehicle_type_id":"4","last_reported":1734282450,"current_range_meters":0,"station_id":"","pricing_plan_id":"cebpf4jnsgd1na2vs0mg"},{"bike_id":"3595e955-9243-4ebf-a4ff-5df2907e8d74","system_id":"levelo_inurba_marseille","lat":43.32287,"lon":5.38286,"is_reserved":false,"is_disabled":false,"rental_uris":{"android":"levelo://app?vid=3595e955-9243-4ebf-a4ff-5df2907e8d74","ios":"levelo://app?vid=3595e955-9243-4ebf-a4ff-5df2907e8d74"},"vehicle_type_id":"4","last_reported":1734282450,"current_range_meters":39200,"station_id":"ce4bhr12rcd13ifvqhqg","pricing_plan_id":"cebpf4jnsgd1na2vs0mg"},{"bike_id":"ee536d3d-c5e3-49d7-869c-14900cd17d7a","system_id":"levelo_inurba_marseille","lat":43.32007,"lon":5.38161,"is_reserved":false,"is_disabled":false,"rental_uris":{"android":"levelo://app?vid=ee536d3d-c5e3-49d7-869c-14900cd17d7a","ios":"levelo://app?vid=ee536d3d-c5e3-49d7-869c-14900cd17d7a"},"vehicle_type_id":"4","last_reported":1734282450,"current_range_meters":28000,"station_id":"ce4bhr12rcd13ifvqhpg","pricing_plan_id":"cebpf4jnsgd1na2vs0mg"},{"bike_id":"7a40c7c1-8a20-4e16-b3cc-eed59d07be05","system_id":"levelo_inurba_marseille","lat":43.2991,"lon":5.38128,"is_reserved":false,"is_disabled":true,"rental_uris":{"android":"levelo://app?vid=7a40c7c1-8a20-4e16-b3cc-eed59d07be05","ios":"levelo://app?vid=7a40c7c1-8a20-4e16-b3cc-eed59d07be05"},"vehicle_type_id":"4","last_reported":1734282450,"current_range_meters":9600,"station_id":"ce4bgj12rcd13ifvqbc0","pricing_plan_id":"cebpf4jnsgd1na2vs0mg"},{"bike_id":"7aed96c9-8f5c-43e6-8afd-aad0bf9522d7","system_id":"levelo_inurba_marseille","lat":43.30552,"lon":5.36541,"is_reserved":false,"is_disabled":false,"rental_uris":{"android":"levelo://app?vid=7aed96c9-8f5c-43e6-8afd-aad0bf9522d7","ios":"levelo://app?vid=7aed96c9-8f5c-43e6-8afd-aad0bf9522d7"},"vehicle_type_id":"4","last_reported":1734282450,"current_range_meters":28000,"station_id":"ce4bgs12rcd13ifvqcag","pricing_plan_id":"cebpf4jnsgd1na2vs0mg"},{"bike_id":"089561b2-37a9-497d-a768-4313f9dd42c1","system_id":"levelo_inurba_marseille","lat":43.28146,"lon":5.42657,"is_reserved":false,"is_disabled":false,"rental_uris":{"android":"levelo://app?vid=089561b2-37a9-497d-a768-4313f9dd42c1","ios":"levelo://app?vid=089561b2-37a9-497d-a768-4313f9dd42c1"},"vehicle_type_id":"4","last_reported":1734282450,"current_range_meters":8800,"station_id":"ce4bhnh2rcd13ifvqgug","pricing_plan_id":"cebpf4jnsgd1na2vs0mg"},{"bike_id":"cad7719d-6bdb-48ae-8920-e62428891cbb","system_id":"levelo_inurba_marseille","lat":43.28017,"lon":5.44115,"is_reserved":false,"is_disabled":true,"rental_uris":{"android":"levelo://app?vid=cad7719d-6bdb-48ae-8920-e62428891cbb","ios":"levelo://app?vid=cad7719d-6bdb-48ae-8920-e62428891cbb"},"vehicle_type_id":"4","last_reported":1734282450,"current_range_meters":1600,"station_id":"","pricing_plan_id":"cebpf4jnsgd1na2vs0mg"},{"bike_id":"756759df-30bb-4fc0-b7b8-d22004f554c8","system_id":"levelo_inurba_marseille","lat":43.324304,"lon":5.406925,"is_reserved":false,"is_disabled":false,"rental_uris":{"android":"levelo://app?vid=756759df-30bb-4fc0-b7b8-d22004f554c8","ios":"levelo://app?vid=756759df-30bb-4fc0-b7b8-d22004f554c8"},"vehicle_type_id":"4","last_reported":1734282450,"current_range_meters":8000,"station_id":"","pricing_plan_id":"cebpf4jnsgd1na2vs0mg"},{"bike_id":"0136ded0-9000-4cf9-8475-f42d9301d47b","system_id":"levelo_inurba_marseille","lat":43.308,"lon":5.42574,"is_reserved":false,"is_disabled":false,"rental_uris":{"android":"levelo://app?vid=0136ded0-9000-4cf9-8475-f42d9301d47b","ios":"levelo://app?vid=0136ded0-9000-4cf9-8475-f42d9301d47b"},"vehicle_type_id":"4","last_reported":1734282450,"current_range_meters":6000,"station_id":"ce4bhph2rcd13ifvqheg","pricing_plan_id":"cebpf4jnsgd1na2vs0mg"},{"bike_id":"4deb15ef-079e-44d5-9289-1d9084b509a7","system_id":"levelo_inurba_marseille","lat":43.31306,"lon":5.36957,"is_reserved":false,"is_disabled":true,"rental_uris":{"android":"levelo://app?vid=4deb15ef-079e-44d5-9289-1d9084b509a7","ios":"levelo://app?vid=4deb15ef-079e-44d5-9289-1d9084b509a7"},"vehicle_type_id":"4","last_reported":1734282450,"current_range_meters":0,"station_id":"","pricing_plan_id":"cebpf4jnsgd1na2vs0mg"},{"bike_id":"d5c89c1f-3bad-4af2-9449-e04c277a4696","system_id":"levelo_inurba_marseille","lat":43.29964,"lon":5.41308,"is_reserved":false,"is_disabled":true,"rental_uris":{"android":"levelo://app?vid=d5c89c1f-3bad-4af2-9449-e04c277a4696","ios":"levelo://app?vid=d5c89c1f-3bad-4af2-9449-e04c277a4696"},"vehicle_type_id":"4","last_reported":1734282450,"current_range_meters":37600,"station_id":"ce4bhp12rcd13ifvqh9g","pricing_plan_id":"cebpf4jnsgd1na2vs0mg"},{"bike_id":"a7f8d360-2b54-4312-b5c2-53f7fd8152a9","system_id":"levelo_inurba_marseille","lat":43.2979,"lon":5.38091,"is_reserved":false,"is_disabled":false,"rental_uris":{"android":"levelo://app?vid=a7f8d360-2b54-4312-b5c2-53f7fd8152a9","ios":"levelo://app?vid=a7f8d360-2b54-4312-b5c2-53f7fd8152a9"},"vehicle_type_id":"4","last_reported":1734282450,"current_range_meters":8000,"station_id":"ce4bgip2rcd13ifvqbb0","pricing_plan_id":"cebpf4jnsgd1na2vs0mg"},{"bike_id":"708bbf88-a6ba-42b2-b546-09e858c6c7e9","system_id":"levelo_inurba_marseille","lat":43.3089,"lon":5.39643,"is_reserved":false,"is_disabled":false,"rental_uris":{"android":"levelo://app?vid=708bbf88-a6ba-42b2-b546-09e858c6c7e9","ios":"levelo://app?vid=708bbf88-a6ba-42b2-b546-09e858c6c7e9"},"vehicle_type_id":"4","last_reported":1734282450,"current_range_meters":24800,"station_id":"ce4bh012rcd13ifvqcv0","pricing_plan_id":"cebpf4jnsgd1na2vs0mg"},{"bike_id":"00470025-0594-4fc8-bb13-03b023b393ad","system_id":"levelo_inurba_marseille","lat":43.23061,"lon":5.35498,"is_reserved":false,"is_disabled":false,"rental_uris":{"android":"levelo://app?vid=00470025-0594-4fc8-bb13-03b023b393ad","ios":"levelo://app?vid=00470025-0594-4fc8-bb13-03b023b393ad"},"vehicle_type_id":"4","last_reported":1734282450,"current_range_meters":31200,"station_id":"cpo3342slgdg3j2ifvpg","pricing_plan_id":"cebpf4jnsgd1na2vs0mg"},{"bike_id":"aadece46-8a4c-47ae-87ba-f8996f538b8a","system_id":"levelo_inurba_marseille","lat":43.24669,"lon":5.3817,"is_reserved":false,"is_disabled":false,"rental_uris":{"android":"levelo://app?vid=aadece46-8a4c-47ae-87ba-f8996f538b8a","ios":"levelo://app?vid=aadece46-8a4c-47ae-87ba-f8996f538b8a"},"vehicle_type_id":"4","last_reported":1734282450,"current_range_meters":14400,"station_id":"ce4bhih2rcd13ifvqfr0","pricing_plan_id":"cebpf4jnsgd1na2vs0mg"},{"bike_id":"4e51e4ad-187d-443d-8aa8-5677c60510d4","system_id":"levelo_inurba_marseille","lat":43.30426,"lon":5.38888,"is_reserved":false,"is_disabled":false,"rental_uris":{"android":"levelo://app?vid=4e51e4ad-187d-443d-8aa8-5677c60510d4","ios":"levelo://app?vid=4e51e4ad-187d-443d-8aa8-5677c60510d4"},"vehicle_type_id":"4","last_reported":1734282450,"current_range_meters":2800,"station_id":"ce4bgk12rcd13ifvqbi0","pricing_plan_id":"cebpf4jnsgd1na2vs0mg"},{"bike_id":"be15b9e1-574c-45f1-b914-fc0b9a33b109","system_id":"levelo_inurba_marseille","lat":43.25036,"lon":5.41675,"is_reserved":false,"is_disabled":false,"rental_uris":{"android":"levelo://app?vid=be15b9e1-574c-45f1-b914-fc0b9a33b109","ios":"levelo://app?vid=be15b9e1-574c-45f1-b914-fc0b9a33b109"},"vehicle_type_id":"4","last_reported":1734282450,"current_range_meters":11200,"station_id":"","pricing_plan_id":"cebpf4jnsgd1na2vs0mg"},{"bike_id":"faeeed3d-e1ea-42b2-8154-c03c65ca9361","system_id":"levelo_inurba_marseille","lat":43.26221,"lon":5.37222,"is_reserved":false,"is_disabled":true,"rental_uris":{"android":"levelo://app?vid=faeeed3d-e1ea-42b2-8154-c03c65ca9361","ios":"levelo://app?vid=faeeed3d-e1ea-42b2-8154-c03c65ca9361"},"vehicle_type_id":"4","last_reported":1734282450,"current_range_meters":0,"station_id":"","pricing_plan_id":"cebpf4jnsgd1na2vs0mg"},{"bike_id":"4b241c9d-5589-45b9-b6c0-48b4eab39e73","system_id":"levelo_inurba_marseille","lat":43.26849,"lon":5.40942,"is_reserved":false,"is_disabled":false,"rental_uris":{"android":"levelo://app?vid=4b241c9d-5589-45b9-b6c0-48b4eab39e73","ios":"levelo://app?vid=4b241c9d-5589-45b9-b6c0-48b4eab39e73"},"vehicle_type_id":"4","last_reported":1734282450,"current_range_meters":17600,"station_id":"","pricing_plan_id":"cebpf4jnsgd1na2vs0mg"},{"bike_id":"6d5b3284-e98d-49e9-8d13-b4de924073e0","system_id":"levelo_inurba_marseille","lat":43.24809,"lon":5.37456,"is_reserved":false,"is_disabled":false,"rental_uris":{"android":"levelo://app?vid=6d5b3284-e98d-49e9-8d13-b4de924073e0","ios":"levelo://app?vid=6d5b3284-e98d-49e9-8d13-b4de924073e0"},"vehicle_type_id":"4","last_reported":1734282450,"current_range_meters":38800,"station_id":"ce4bhgh2rcd13ifvqfb0","pricing_plan_id":"cebpf4jnsgd1na2vs0mg"},{"bike_id":"5744c5bb-5613-4b1d-86cf-ebce1248867b","system_id":"levelo_inurba_marseille","lat":43.25124,"lon":5.40315,"is_reserved":false,"is_disabled":false,"rental_uris":{"android":"levelo://app?vid=5744c5bb-5613-4b1d-86cf-ebce1248867b","ios":"levelo://app?vid=5744c5bb-5613-4b1d-86cf-ebce1248867b"},"vehicle_type_id":"4","last_reported":1734282450,"current_range_meters":31200,"station_id":"ce4bhlh2rcd13ifvqgig","pricing_plan_id":"cebpf4jnsgd1na2vs0mg"},{"bike_id":"e3ce1f04-3f88-431a-ab9f-947d6e2f270c","system_id":"levelo_inurba_marseille","lat":43.33735,"lon":5.39184,"is_reserved":false,"is_disabled":false,"rental_uris":{"android":"levelo://app?vid=e3ce1f04-3f88-431a-ab9f-947d6e2f270c","ios":"levelo://app?vid=e3ce1f04-3f88-431a-ab9f-947d6e2f270c"},"vehicle_type_id":"4","last_reported":1734282450,"current_range_meters":38800,"station_id":"ce4bhr92rcd13ifvqhsg","pricing_plan_id":"cebpf4jnsgd1na2vs0mg"},{"bike_id":"d6a19e7d-5ce7-42bd-8925-b63bd17e64b5","system_id":"levelo_inurba_marseille","lat":43.31997,"lon":5.38147,"is_reserved":false,"is_disabled":false,"rental_uris":{"android":"levelo://app?vid=d6a19e7d-5ce7-42bd-8925-b63bd17e64b5","ios":"levelo://app?vid=d6a19e7d-5ce7-42bd-8925-b63bd17e64b5"},"vehicle_type_id":"4","last_reported":1734282450,"current_range_meters":35600,"station_id":"ce4bhr12rcd13ifvqhpg","pricing_plan_id":"cebpf4jnsgd1na2vs0mg"},{"bike_id":"845a53c4-d634-452e-b9a7-cae6539585f7","system_id":"levelo_inurba_marseille","lat":43.25501,"lon":5.37631,"is_reserved":false,"is_disabled":false,"rental_uris":{"android":"levelo://app?vid=845a53c4-d634-452e-b9a7-cae6539585f7","ios":"levelo://app?vid=845a53c4-d634-452e-b9a7-cae6539585f7"},"vehicle_type_id":"4","last_reported":1734282450,"current_range_meters":36800,"station_id":"ce4bhh12rcd13ifvqff0","pricing_plan_id":"cebpf4jnsgd1na2vs0mg"},{"bike_id":"e1f14668-b3cd-4486-857f-047dd0525de8","system_id":"levelo_inurba_marseille","lat":43.28941,"lon":5.36634,"is_reserved":false,"is_disabled":true,"rental_uris":{"android":"levelo://app?vid=e1f14668-b3cd-4486-857f-047dd0525de8","ios":"levelo://app?vid=e1f14668-b3cd-4486-857f-047dd0525de8"},"vehicle_type_id":"4","last_reported":1734282450,"current_range_meters":25200,"station_id":"ce4bhap2rcd13ifvqek0","pricing_plan_id":"cebpf4jnsgd1na2vs0mg"},{"bike_id":"2256d0c9-fd6c-49ff-b42c-53026216c040","system_id":"levelo_inurba_marseille","lat":43.29881,"lon":5.38351,"is_reserved":false,"is_disabled":true,"rental_uris":{"android":"levelo://app?vid=2256d0c9-fd6c-49ff-b42c-53026216c040","ios":"levelo://app?vid=2256d0c9-fd6c-49ff-b42c-53026216c040"},"vehicle_type_id":"4","last_reported":1734282450,"current_range_meters":27200,"station_id":"","pricing_plan_id":"cebpf4jnsgd1na2vs0mg"},{"bike_id":"edaea664-24e0-4d6c-aa7a-497f5c5f88f6","system_id":"levelo_inurba_marseille","lat":43.27017,"lon":5.39142,"is_reserved":false,"is_disabled":true,"rental_uris":{"android":"levelo://app?vid=edaea664-24e0-4d6c-aa7a-497f5c5f88f6","ios":"levelo://app?vid=edaea664-24e0-4d6c-aa7a-497f5c5f88f6"},"vehicle_type_id":"4","last_reported":1734282450,"current_range_meters":0,"station_id":"","pricing_plan_id":"cebpf4jnsgd1na2vs0mg"},{"bike_id":"80be0e0c-ccfe-43e3-af81-6448c3fe4093","system_id":"levelo_inurba_marseille","lat":43.27203,"lon":5.39171,"is_reserved":false,"is_disabled":false,"rental_uris":{"android":"levelo://app?vid=80be0e0c-ccfe-43e3-af81-6448c3fe4093","ios":"levelo://app?vid=80be0e0c-ccfe-43e3-af81-6448c3fe4093"},"vehicle_type_id":"4","last_reported":1734282450,"current_range_meters":35600,"station_id":"ce4bhhp2rcd13ifvqfm0","pricing_plan_id":"cebpf4jnsgd1na2vs0mg"},{"bike_id":"699ad19d-1780-4c00-9754-eb0737b27b7c","system_id":"levelo_inurba_marseille","lat":43.29553,"lon":5.42288,"is_reserved":false,"is_disabled":false,"rental_uris":{"android":"levelo://app?vid=699ad19d-1780-4c00-9754-eb0737b27b7c","ios":"levelo://app?vid=699ad19d-1780-4c00-9754-eb0737b27b7c"},"vehicle_type_id":"4","last_reported":1734282450,"current_range_meters":36000,"station_id":"ce4bhph2rcd13ifvqhdg","pricing_plan_id":"cebpf4jnsgd1na2vs0mg"},{"bike_id":"7637acf7-0b93-47cd-b144-88a76506f895","system_id":"levelo_inurba_marseille","lat":43.28671,"lon":5.38662,"is_reserved":false,"is_disabled":false,"rental_uris":{"android":"levelo://app?vid=7637acf7-0b93-47cd-b144-88a76506f895","ios":"levelo://app?vid=7637acf7-0b93-47cd-b144-88a76506f895"},"vehicle_type_id":"4","last_reported":1734282450,"current_range_meters":32400,"station_id":"ce4bh492rcd13ifvqdug","pricing_plan_id":"cebpf4jnsgd1na2vs0mg"},{"bike_id":"6d195895-22f6-4ac0-942e-cdc4a1deed67","system_id":"levelo_inurba_marseille","lat":43.2804,"lon":5.36951,"is_reserved":false,"is_disabled":false,"rental_uris":{"android":"levelo://app?vid=6d195895-22f6-4ac0-942e-cdc4a1deed67","ios":"levelo://app?vid=6d195895-22f6-4ac0-942e-cdc4a1deed67"},"vehicle_type_id":"4","last_reported":1734282450,"current_range_meters":38000,"station_id":"ce4bha12rcd13ifvqef0","pricing_plan_id":"cebpf4jnsgd1na2vs0mg"},{"bike_id":"5424b849-efe9-41ca-a5bb-60034b566fc7","system_id":"levelo_inurba_marseille","lat":43.24665,"lon":5.38158,"is_reserved":false,"is_disabled":false,"rental_uris":{"android":"levelo://app?vid=5424b849-efe9-41ca-a5bb-60034b566fc7","ios":"levelo://app?vid=5424b849-efe9-41ca-a5bb-60034b566fc7"},"vehicle_type_id":"4","last_reported":1734282450,"current_range_meters":39200,"station_id":"ce4bhih2rcd13ifvqfr0","pricing_plan_id":"cebpf4jnsgd1na2vs0mg"},{"bike_id":"3e0b635f-0f39-4d65-8ba4-8b23163d31ff","system_id":"levelo_inurba_marseille","lat":43.30352,"lon":5.41869,"is_reserved":false,"is_disabled":false,"rental_uris":{"android":"levelo://app?vid=3e0b635f-0f39-4d65-8ba4-8b23163d31ff","ios":"levelo://app?vid=3e0b635f-0f39-4d65-8ba4-8b23163d31ff"},"vehicle_type_id":"4","last_reported":1734282450,"current_range_meters":10000,"station_id":"ce4bhop2rcd13ifvqh7g","pricing_plan_id":"cebpf4jnsgd1na2vs0mg"},{"bike_id":"5be78cc2-d386-42ea-a601-8ec47460ad21","system_id":"levelo_inurba_marseille","lat":43.24081,"lon":5.37733,"is_reserved":false,"is_disabled":false,"rental_uris":{"android":"levelo://app?vid=5be78cc2-d386-42ea-a601-8ec47460ad21","ios":"levelo://app?vid=5be78cc2-d386-42ea-a601-8ec47460ad21"},"vehicle_type_id":"4","last_reported":1734282450,"current_range_meters":36800,"station_id":"ce4bhnp2rcd13ifvqgvg","pricing_plan_id":"cebpf4jnsgd1na2vs0mg"},{"bike_id":"c5058238-5aba-4663-bea8-d083085b068b","system_id":"levelo_inurba_marseille","lat":43.27066,"lon":5.42278,"is_reserved":false,"is_disabled":false,"rental_uris":{"android":"levelo://app?vid=c5058238-5aba-4663-bea8-d083085b068b","ios":"levelo://app?vid=c5058238-5aba-4663-bea8-d083085b068b"},"vehicle_type_id":"4","last_reported":1734282450,"current_range_meters":24000,"station_id":"ce4bhk92rcd13ifvqgb0","pricing_plan_id":"cebpf4jnsgd1na2vs0mg"},{"bike_id":"5cfbeb8c-9be7-400b-9057-bbab2f2391bf","system_id":"levelo_inurba_marseille","lat":43.290407,"lon":5.399612,"is_reserved":false,"is_disabled":false,"rental_uris":{"android":"levelo://app?vid=5cfbeb8c-9be7-400b-9057-bbab2f2391bf","ios":"levelo://app?vid=5cfbeb8c-9be7-400b-9057-bbab2f2391bf"},"vehicle_type_id":"4","last_reported":1734282450,"current_range_meters":25200,"station_id":"ce4bh392rcd13ifvqdm0","pricing_plan_id":"cebpf4jnsgd1na2vs0mg"},{"bike_id":"acbcde12-a713-467d-b7cd-6fb02320f61f","system_id":"levelo_inurba_marseille","lat":43.28493,"lon":5.38416,"is_reserved":false,"is_disabled":true,"rental_uris":{"android":"levelo://app?vid=acbcde12-a713-467d-b7cd-6fb02320f61f","ios":"levelo://app?vid=acbcde12-a713-467d-b7cd-6fb02320f61f"},"vehicle_type_id":"4","last_reported":1734282450,"current_range_meters":38800,"station_id":"ce4bh512rcd13ifvqe3g","pricing_plan_id":"cebpf4jnsgd1na2vs0mg"},{"bike_id":"6d8fccea-6a81-46a5-9710-130776032170","system_id":"levelo_inurba_marseille","lat":43.25825,"lon":5.39434,"is_reserved":false,"is_disabled":false,"rental_uris":{"android":"levelo://app?vid=6d8fccea-6a81-46a5-9710-130776032170","ios":"levelo://app?vid=6d8fccea-6a81-46a5-9710-130776032170"},"vehicle_type_id":"4","last_reported":1734282450,"current_range_meters":39200,"station_id":"ce4bhip2rcd13ifvqft0","pricing_plan_id":"cebpf4jnsgd1na2vs0mg"},{"bike_id":"7a871054-271c-4cab-9028-aa5641a1a37f","system_id":"levelo_inurba_marseille","lat":43.28471,"lon":5.38419,"is_reserved":false,"is_disabled":false,"rental_uris":{"android":"levelo://app?vid=7a871054-271c-4cab-9028-aa5641a1a37f","ios":"levelo://app?vid=7a871054-271c-4cab-9028-aa5641a1a37f"},"vehicle_type_id":"4","last_reported":1734282450,"current_range_meters":16800,"station_id":"ce4bh512rcd13ifvqe3g","pricing_plan_id":"cebpf4jnsgd1na2vs0mg"},{"bike_id":"0f00fec0-51e4-42ff-b97a-4467872117ab","system_id":"levelo_inurba_marseille","lat":43.29974,"lon":5.38486,"is_reserved":false,"is_disabled":false,"rental_uris":{"android":"levelo://app?vid=0f00fec0-51e4-42ff-b97a-4467872117ab","ios":"levelo://app?vid=0f00fec0-51e4-42ff-b97a-4467872117ab"},"vehicle_type_id":"4","last_reported":1734282450,"current_range_meters":32000,"station_id":"ce4bgj92rcd13ifvqbd0","pricing_plan_id":"cebpf4jnsgd1na2vs0mg"},{"bike_id":"7482f887-7952-4f02-a5dc-546e954acfc6","system_id":"levelo_inurba_marseille","lat":43.29417,"lon":5.38638,"is_reserved":false,"is_disabled":true,"rental_uris":{"android":"levelo://app?vid=7482f887-7952-4f02-a5dc-546e954acfc6","ios":"levelo://app?vid=7482f887-7952-4f02-a5dc-546e954acfc6"},"vehicle_type_id":"4","last_reported":1734282450,"current_range_meters":3600,"station_id":"ce4bh2h2rcd13ifvqdh0","pricing_plan_id":"cebpf4jnsgd1na2vs0mg"},{"bike_id":"e819ae6a-d2ca-4fed-a607-5b91827a0819","system_id":"levelo_inurba_marseille","lat":43.23198,"lon":5.35554,"is_reserved":false,"is_disabled":false,"rental_uris":{"android":"levelo://app?vid=e819ae6a-d2ca-4fed-a607-5b91827a0819","ios":"levelo://app?vid=e819ae6a-d2ca-4fed-a607-5b91827a0819"},"vehicle_type_id":"4","last_reported":1734282450,"current_range_meters":30000,"station_id":"ce4bhu92rcd13ifvqi70","pricing_plan_id":"cebpf4jnsgd1na2vs0mg"},{"bike_id":"c3bfecdf-9615-4d7f-833b-6813e072b57c","system_id":"levelo_inurba_marseille","lat":43.26203,"lon":5.37932,"is_reserved":false,"is_disabled":false,"rental_uris":{"android":"levelo://app?vid=c3bfecdf-9615-4d7f-833b-6813e072b57c","ios":"levelo://app?vid=c3bfecdf-9615-4d7f-833b-6813e072b57c"},"vehicle_type_id":"4","last_reported":1734282450,"current_range_meters":27200,"station_id":"ce4bhjp2rcd13ifvqg90","pricing_plan_id":"cebpf4jnsgd1na2vs0mg"},{"bike_id":"81fc7ef2-09fd-414c-a467-687759091c37","system_id":"levelo_inurba_marseille","lat":43.31261,"lon":5.4017,"is_reserved":false,"is_disabled":false,"rental_uris":{"android":"levelo://app?vid=81fc7ef2-09fd-414c-a467-687759091c37","ios":"levelo://app?vid=81fc7ef2-09fd-414c-a467-687759091c37"},"vehicle_type_id":"4","last_reported":1734282450,"current_range_meters":38800,"station_id":"ce4bh092rcd13ifvqd30","pricing_plan_id":"cebpf4jnsgd1na2vs0mg"},{"bike_id":"9f2df41e-ff3f-43e8-a2d7-014b68a85aca","system_id":"levelo_inurba_marseille","lat":43.24071,"lon":5.37766,"is_reserved":false,"is_disabled":false,"rental_uris":{"android":"levelo://app?vid=9f2df41e-ff3f-43e8-a2d7-014b68a85aca","ios":"levelo://app?vid=9f2df41e-ff3f-43e8-a2d7-014b68a85aca"},"vehicle_type_id":"4","last_reported":1734282450,"current_range_meters":34000,"station_id":"ce4bhnp2rcd13ifvqgvg","pricing_plan_id":"cebpf4jnsgd1na2vs0mg"},{"bike_id":"c402b514-cf61-4470-a920-1dd2d2efc6ff","system_id":"levelo_inurba_marseille","lat":43.28935,"lon":5.36635,"is_reserved":false,"is_disabled":true,"rental_uris":{"android":"levelo://app?vid=c402b514-cf61-4470-a920-1dd2d2efc6ff","ios":"levelo://app?vid=c402b514-cf61-4470-a920-1dd2d2efc6ff"},"vehicle_type_id":"4","last_reported":1734282450,"current_range_meters":0,"station_id":"ce4bhap2rcd13ifvqek0","pricing_plan_id":"cebpf4jnsgd1na2vs0mg"},{"bike_id":"d58161b7-508b-47a2-a502-cdcb24d81fd4","system_id":"levelo_inurba_marseille","lat":43.25493,"lon":5.37651,"is_reserved":false,"is_disabled":false,"rental_uris":{"android":"levelo://app?vid=d58161b7-508b-47a2-a502-cdcb24d81fd4","ios":"levelo://app?vid=d58161b7-508b-47a2-a502-cdcb24d81fd4"},"vehicle_type_id":"4","last_reported":1734282450,"current_range_meters":39200,"station_id":"ce4bhh12rcd13ifvqff0","pricing_plan_id":"cebpf4jnsgd1na2vs0mg"},{"bike_id":"329067ff-7143-4b85-be46-dd220dfa9097","system_id":"levelo_inurba_marseille","lat":43.29622,"lon":5.37168,"is_reserved":false,"is_disabled":false,"rental_uris":{"android":"levelo://app?vid=329067ff-7143-4b85-be46-dd220dfa9097","ios":"levelo://app?vid=329067ff-7143-4b85-be46-dd220dfa9097"},"vehicle_type_id":"4","last_reported":1734282450,"current_range_meters":16400,"station_id":"ce4bgnh2rcd13ifvqc0g","pricing_plan_id":"cebpf4jnsgd1na2vs0mg"},{"bike_id":"994bbbdd-28a3-4783-933e-04628d6b9262","system_id":"levelo_inurba_marseille","lat":43.28852,"lon":5.39318,"is_reserved":false,"is_disabled":true,"rental_uris":{"android":"levelo://app?vid=994bbbdd-28a3-4783-933e-04628d6b9262","ios":"levelo://app?vid=994bbbdd-28a3-4783-933e-04628d6b9262"},"vehicle_type_id":"4","last_reported":1734282450,"current_range_meters":34800,"station_id":"ce4bh2p2rcd13ifvqdi0","pricing_plan_id":"cebpf4jnsgd1na2vs0mg"},{"bike_id":"ae0bdd7b-187c-409c-b2b3-37aac32d4db3","system_id":"levelo_inurba_marseille","lat":43.32362,"lon":5.36757,"is_reserved":false,"is_disabled":false,"rental_uris":{"android":"levelo://app?vid=ae0bdd7b-187c-409c-b2b3-37aac32d4db3","ios":"levelo://app?vid=ae0bdd7b-187c-409c-b2b3-37aac32d4db3"},"vehicle_type_id":"4","last_reported":1734282450,"current_range_meters":35600,"station_id":"ce4bhsh2rcd13ifvqi2g","pricing_plan_id":"cebpf4jnsgd1na2vs0mg"},{"bike_id":"59b259af-328b-4a37-b1cb-eeec53772a2b","system_id":"levelo_inurba_marseille","lat":43.30572,"lon":5.36713,"is_reserved":false,"is_disabled":false,"rental_uris":{"android":"levelo://app?vid=59b259af-328b-4a37-b1cb-eeec53772a2b","ios":"levelo://app?vid=59b259af-328b-4a37-b1cb-eeec53772a2b"},"vehicle_type_id":"4","last_reported":1734282450,"current_range_meters":38800,"station_id":"ce4bgrp2rcd13ifvqc9g","pricing_plan_id":"cebpf4jnsgd1na2vs0mg"},{"bike_id":"01656e9c-ea19-4459-b537-6eebd45a1f80","system_id":"levelo_inurba_marseille","lat":43.28853,"lon":5.35854,"is_reserved":false,"is_disabled":false,"rental_uris":{"android":"levelo://app?vid=01656e9c-ea19-4459-b537-6eebd45a1f80","ios":"levelo://app?vid=01656e9c-ea19-4459-b537-6eebd45a1f80"},"vehicle_type_id":"4","last_reported":1734282450,"current_range_meters":34000,"station_id":"ce4bhb12rcd13ifvqem0","pricing_plan_id":"cebpf4jnsgd1na2vs0mg"},{"bike_id":"9ad311dd-c450-4f09-933a-ef53d4559dc3","system_id":"levelo_inurba_marseille","lat":43.26984,"lon":5.39871,"is_reserved":false,"is_disabled":false,"rental_uris":{"android":"levelo://app?vid=9ad311dd-c450-4f09-933a-ef53d4559dc3","ios":"levelo://app?vid=9ad311dd-c450-4f09-933a-ef53d4559dc3"},"vehicle_type_id":"4","last_reported":1734282450,"current_range_meters":22000,"station_id":"","pricing_plan_id":"cebpf4jnsgd1na2vs0mg"},{"bike_id":"37456efc-92e9-4863-91c7-bd4d94a41119","system_id":"levelo_inurba_marseille","lat":43.28493,"lon":5.4018,"is_reserved":false,"is_disabled":false,"rental_uris":{"android":"levelo://app?vid=37456efc-92e9-4863-91c7-bd4d94a41119","ios":"levelo://app?vid=37456efc-92e9-4863-91c7-bd4d94a41119"},"vehicle_type_id":"4","last_reported":1734282450,"current_range_meters":8400,"station_id":"","pricing_plan_id":"cebpf4jnsgd1na2vs0mg"},{"bike_id":"3b25d107-763f-452c-bff7-9c41a7a92142","system_id":"levelo_inurba_marseille","lat":43.29895,"lon":5.43666,"is_reserved":false,"is_disabled":false,"rental_uris":{"android":"levelo://app?vid=3b25d107-763f-452c-bff7-9c41a7a92142","ios":"levelo://app?vid=3b25d107-763f-452c-bff7-9c41a7a92142"},"vehicle_type_id":"4","last_reported":1734282450,"current_range_meters":14000,"station_id":"ce4bhpp2rcd13ifvqhfg","pricing_plan_id":"cebpf4jnsgd1na2vs0mg"},{"bike_id":"a4882267-7a1c-49bb-b90f-a27da215529b","system_id":"levelo_inurba_marseille","lat":43.29267,"lon":5.38454,"is_reserved":false,"is_disabled":false,"rental_uris":{"android":"levelo://app?vid=a4882267-7a1c-49bb-b90f-a27da215529b","ios":"levelo://app?vid=a4882267-7a1c-49bb-b90f-a27da215529b"},"vehicle_type_id":"4","last_reported":1734282450,"current_range_meters":6400,"station_id":"ce4bh692rcd13ifvqea0","pricing_plan_id":"cebpf4jnsgd1na2vs0mg"},{"bike_id":"4e65a034-df43-445b-b411-96d0c9702f35","system_id":"levelo_inurba_marseille","lat":43.2558,"lon":5.38255,"is_reserved":false,"is_disabled":false,"rental_uris":{"android":"levelo://app?vid=4e65a034-df43-445b-b411-96d0c9702f35","ios":"levelo://app?vid=4e65a034-df43-445b-b411-96d0c9702f35"},"vehicle_type_id":"4","last_reported":1734282450,"current_range_meters":10000,"station_id":"ce4bhih2rcd13ifvqfs0","pricing_plan_id":"cebpf4jnsgd1na2vs0mg"},{"bike_id":"af67ac53-ba21-4ff0-8334-95679e9ff2cc","system_id":"levelo_inurba_marseille","lat":43.278805,"lon":5.388003,"is_reserved":false,"is_disabled":true,"rental_uris":{"android":"levelo://app?vid=af67ac53-ba21-4ff0-8334-95679e9ff2cc","ios":"levelo://app?vid=af67ac53-ba21-4ff0-8334-95679e9ff2cc"},"vehicle_type_id":"4","last_reported":1734282450,"current_range_meters":0,"station_id":"","pricing_plan_id":"cebpf4jnsgd1na2vs0mg"},{"bike_id":"b06ba60e-8ae5-4afa-9596-3b4b008791ef","system_id":"levelo_inurba_marseille","lat":43.26501,"lon":5.39543,"is_reserved":false,"is_disabled":false,"rental_uris":{"android":"levelo://app?vid=b06ba60e-8ae5-4afa-9596-3b4b008791ef","ios":"levelo://app?vid=b06ba60e-8ae5-4afa-9596-3b4b008791ef"},"vehicle_type_id":"4","last_reported":1734282450,"current_range_meters":39200,"station_id":"ce4bhi12rcd13ifvqfq0","pricing_plan_id":"cebpf4jnsgd1na2vs0mg"},{"bike_id":"13ebb993-6744-40db-8467-9b18914a41be","system_id":"levelo_inurba_marseille","lat":43.29634,"lon":5.40597,"is_reserved":false,"is_disabled":false,"rental_uris":{"android":"levelo://app?vid=13ebb993-6744-40db-8467-9b18914a41be","ios":"levelo://app?vid=13ebb993-6744-40db-8467-9b18914a41be"},"vehicle_type_id":"4","last_reported":1734282450,"current_range_meters":15200,"station_id":"ce4bh0h2rcd13ifvqd60","pricing_plan_id":"cebpf4jnsgd1na2vs0mg"},{"bike_id":"2ee47aba-edd0-4d53-a17e-e6f65b10c35f","system_id":"levelo_inurba_marseille","lat":43.3009,"lon":5.39087,"is_reserved":false,"is_disabled":true,"rental_uris":{"android":"levelo://app?vid=2ee47aba-edd0-4d53-a17e-e6f65b10c35f","ios":"levelo://app?vid=2ee47aba-edd0-4d53-a17e-e6f65b10c35f"},"vehicle_type_id":"4","last_reported":1734282450,"current_range_meters":16800,"station_id":"ce4bh192rcd13ifvqdb0","pricing_plan_id":"cebpf4jnsgd1na2vs0mg"},{"bike_id":"5d695760-1f8b-4169-a0fb-9ff431a72fbd","system_id":"levelo_inurba_marseille","lat":43.29958,"lon":5.37176,"is_reserved":false,"is_disabled":false,"rental_uris":{"android":"levelo://app?vid=5d695760-1f8b-4169-a0fb-9ff431a72fbd","ios":"levelo://app?vid=5d695760-1f8b-4169-a0fb-9ff431a72fbd"},"vehicle_type_id":"4","last_reported":1734282450,"current_range_meters":39200,"station_id":"ce4bgr92rcd13ifvqc7g","pricing_plan_id":"cebpf4jnsgd1na2vs0mg"},{"bike_id":"939ec63f-8bec-4c1d-8f8b-bf651815de68","system_id":"levelo_inurba_marseille","lat":43.24808,"lon":5.37458,"is_reserved":false,"is_disabled":false,"rental_uris":{"android":"levelo://app?vid=939ec63f-8bec-4c1d-8f8b-bf651815de68","ios":"levelo://app?vid=939ec63f-8bec-4c1d-8f8b-bf651815de68"},"vehicle_type_id":"4","last_reported":1734282450,"current_range_meters":38800,"station_id":"ce4bhgh2rcd13ifvqfb0","pricing_plan_id":"cebpf4jnsgd1na2vs0mg"},{"bike_id":"b9b3604f-8c05-4f36-b45c-ad47a9085f1f","system_id":"levelo_inurba_marseille","lat":43.27074,"lon":5.42279,"is_reserved":false,"is_disabled":false,"rental_uris":{"android":"levelo://app?vid=b9b3604f-8c05-4f36-b45c-ad47a9085f1f","ios":"levelo://app?vid=b9b3604f-8c05-4f36-b45c-ad47a9085f1f"},"vehicle_type_id":"4","last_reported":1734282450,"current_range_meters":32000,"station_id":"ce4bhk92rcd13ifvqgb0","pricing_plan_id":"cebpf4jnsgd1na2vs0mg"},{"bike_id":"ad9e0e56-b232-4761-8766-3140462fc53b","system_id":"levelo_inurba_marseille","lat":43.26553,"lon":5.3731,"is_reserved":false,"is_disabled":true,"rental_uris":{"android":"levelo://app?vid=ad9e0e56-b232-4761-8766-3140462fc53b","ios":"levelo://app?vid=ad9e0e56-b232-4761-8766-3140462fc53b"},"vehicle_type_id":"4","last_reported":1734282450,"current_range_meters":26000,"station_id":"ce4bhg12rcd13ifvqf70","pricing_plan_id":"cebpf4jnsgd1na2vs0mg"},{"bike_id":"d65fcea9-51ba-41f0-86fd-e798dfdd6f09","system_id":"levelo_inurba_marseille","lat":43.28726,"lon":5.38285,"is_reserved":false,"is_disabled":true,"rental_uris":{"android":"levelo://app?vid=d65fcea9-51ba-41f0-86fd-e798dfdd6f09","ios":"levelo://app?vid=d65fcea9-51ba-41f0-86fd-e798dfdd6f09"},"vehicle_type_id":"4","last_reported":1734282450,"current_range_meters":0,"station_id":"","pricing_plan_id":"cebpf4jnsgd1na2vs0mg"},{"bike_id":"656d8740-9b85-4a93-86ce-9d32a0e761f7","system_id":"levelo_inurba_marseille","lat":43.31064,"lon":5.38347,"is_reserved":false,"is_disabled":true,"rental_uris":{"android":"levelo://app?vid=656d8740-9b85-4a93-86ce-9d32a0e761f7","ios":"levelo://app?vid=656d8740-9b85-4a93-86ce-9d32a0e761f7"},"vehicle_type_id":"4","last_reported":1734282450,"current_range_meters":25200,"station_id":"ce4bgv92rcd13ifvqcr0","pricing_plan_id":"cebpf4jnsgd1na2vs0mg"},{"bike_id":"30b09c14-5db6-4bdd-8ec0-8d8fd355bef3","system_id":"levelo_inurba_marseille","lat":43.29891,"lon":5.39749,"is_reserved":false,"is_disabled":true,"rental_uris":{"android":"levelo://app?vid=30b09c14-5db6-4bdd-8ec0-8d8fd355bef3","ios":"levelo://app?vid=30b09c14-5db6-4bdd-8ec0-8d8fd355bef3"},"vehicle_type_id":"4","last_reported":1734282450,"current_range_meters":1200,"station_id":"ce4bh0h2rcd13ifvqd50","pricing_plan_id":"cebpf4jnsgd1na2vs0mg"},{"bike_id":"f08c808c-af08-40b8-81c3-97739c995b77","system_id":"levelo_inurba_marseille","lat":43.3014,"lon":5.39873,"is_reserved":false,"is_disabled":true,"rental_uris":{"android":"levelo://app?vid=f08c808c-af08-40b8-81c3-97739c995b77","ios":"levelo://app?vid=f08c808c-af08-40b8-81c3-97739c995b77"},"vehicle_type_id":"4","last_reported":1734282450,"current_range_meters":28000,"station_id":"ce4bh0h2rcd13ifvqd40","pricing_plan_id":"cebpf4jnsgd1na2vs0mg"},{"bike_id":"86970bbe-b814-43c9-89a2-85f507f309fa","system_id":"levelo_inurba_marseille","lat":43.305489,"lon":5.384349,"is_reserved":false,"is_disabled":true,"rental_uris":{"android":"levelo://app?vid=86970bbe-b814-43c9-89a2-85f507f309fa","ios":"levelo://app?vid=86970bbe-b814-43c9-89a2-85f507f309fa"},"vehicle_type_id":"4","last_reported":1734282450,"current_range_meters":3600,"station_id":"ce4bgg92rcd13ifvqb30","pricing_plan_id":"cebpf4jnsgd1na2vs0mg"},{"bike_id":"96969163-05be-4d1c-a728-67794615bdfc","system_id":"levelo_inurba_marseille","lat":43.29019,"lon":5.3901,"is_reserved":false,"is_disabled":false,"rental_uris":{"android":"levelo://app?vid=96969163-05be-4d1c-a728-67794615bdfc","ios":"levelo://app?vid=96969163-05be-4d1c-a728-67794615bdfc"},"vehicle_type_id":"4","last_reported":1734282450,"current_range_meters":15200,"station_id":"","pricing_plan_id":"cebpf4jnsgd1na2vs0mg"},{"bike_id":"64203de9-e72b-4d66-9a84-7a315c7ed37f","system_id":"levelo_inurba_marseille","lat":43.294492,"lon":5.373996,"is_reserved":false,"is_disabled":true,"rental_uris":{"android":"levelo://app?vid=64203de9-e72b-4d66-9a84-7a315c7ed37f","ios":"levelo://app?vid=64203de9-e72b-4d66-9a84-7a315c7ed37f"},"vehicle_type_id":"4","last_reported":1734282450,"current_range_meters":0,"station_id":"","pricing_plan_id":"cebpf4jnsgd1na2vs0mg"},{"bike_id":"43a2fa1d-314c-4a4d-b7c9-aa2f198eb73b","system_id":"levelo_inurba_marseille","lat":43.301346,"lon":5.387824,"is_reserved":false,"is_disabled":true,"rental_uris":{"android":"levelo://app?vid=43a2fa1d-314c-4a4d-b7c9-aa2f198eb73b","ios":"levelo://app?vid=43a2fa1d-314c-4a4d-b7c9-aa2f198eb73b"},"vehicle_type_id":"4","last_reported":1734282450,"current_range_meters":29600,"station_id":"ce4bghh2rcd13ifvqb60","pricing_plan_id":"cebpf4jnsgd1na2vs0mg"},{"bike_id":"515c04cd-8708-4283-8c15-7d6f7e4a4290","system_id":"levelo_inurba_marseille","lat":43.28664,"lon":5.38663,"is_reserved":false,"is_disabled":true,"rental_uris":{"android":"levelo://app?vid=515c04cd-8708-4283-8c15-7d6f7e4a4290","ios":"levelo://app?vid=515c04cd-8708-4283-8c15-7d6f7e4a4290"},"vehicle_type_id":"4","last_reported":1734282450,"current_range_meters":37600,"station_id":"ce4bh492rcd13ifvqdug","pricing_plan_id":"cebpf4jnsgd1na2vs0mg"},{"bike_id":"87ba82eb-975a-468d-bd22-fb9252256bb3","system_id":"levelo_inurba_marseille","lat":43.30145,"lon":5.3742,"is_reserved":false,"is_disabled":false,"rental_uris":{"android":"levelo://app?vid=87ba82eb-975a-468d-bd22-fb9252256bb3","ios":"levelo://app?vid=87ba82eb-975a-468d-bd22-fb9252256bb3"},"vehicle_type_id":"4","last_reported":1734282450,"current_range_meters":38000,"station_id":"ce4bgs92rcd13ifvqcc0","pricing_plan_id":"cebpf4jnsgd1na2vs0mg"},{"bike_id":"1fa182b8-4c39-460e-8936-26ece98473d2","system_id":"levelo_inurba_marseille","lat":43.29068,"lon":5.371666,"is_reserved":false,"is_disabled":false,"rental_uris":{"android":"levelo://app?vid=1fa182b8-4c39-460e-8936-26ece98473d2","ios":"levelo://app?vid=1fa182b8-4c39-460e-8936-26ece98473d2"},"vehicle_type_id":"4","last_reported":1734282450,"current_range_meters":17600,"station_id":"ce4bh5p2rcd13ifvqe4g","pricing_plan_id":"cebpf4jnsgd1na2vs0mg"},{"bike_id":"70c673d5-6066-4faf-b215-c0e7165e8d28","system_id":"levelo_inurba_marseille","lat":43.260571,"lon":5.393986,"is_reserved":false,"is_disabled":false,"rental_uris":{"android":"levelo://app?vid=70c673d5-6066-4faf-b215-c0e7165e8d28","ios":"levelo://app?vid=70c673d5-6066-4faf-b215-c0e7165e8d28"},"vehicle_type_id":"4","last_reported":1734282450,"current_range_meters":38800,"station_id":"ce4bhh92rcd13ifvqfj0","pricing_plan_id":"cebpf4jnsgd1na2vs0mg"},{"bike_id":"0810675e-0ec1-421a-b95a-82de5ccce9b2","system_id":"levelo_inurba_marseille","lat":43.24172,"lon":5.39683,"is_reserved":false,"is_disabled":true,"rental_uris":{"android":"levelo://app?vid=0810675e-0ec1-421a-b95a-82de5ccce9b2","ios":"levelo://app?vid=0810675e-0ec1-421a-b95a-82de5ccce9b2"},"vehicle_type_id":"4","last_reported":1734282450,"current_range_meters":22800,"station_id":"ce4bhn12rcd13ifvqgpg","pricing_plan_id":"cebpf4jnsgd1na2vs0mg"},{"bike_id":"31d197ca-d8da-477a-801a-99809b060246","system_id":"levelo_inurba_marseille","lat":43.289473,"lon":5.378473,"is_reserved":false,"is_disabled":false,"rental_uris":{"android":"levelo://app?vid=31d197ca-d8da-477a-801a-99809b060246","ios":"levelo://app?vid=31d197ca-d8da-477a-801a-99809b060246"},"vehicle_type_id":"4","last_reported":1734282450,"current_range_meters":4800,"station_id":"ce4bhf92rcd13ifvqf50","pricing_plan_id":"cebpf4jnsgd1na2vs0mg"},{"bike_id":"bb33583f-ff85-4110-9c23-b58a92124b59","system_id":"levelo_inurba_marseille","lat":43.30541,"lon":5.36556,"is_reserved":false,"is_disabled":false,"rental_uris":{"android":"levelo://app?vid=bb33583f-ff85-4110-9c23-b58a92124b59","ios":"levelo://app?vid=bb33583f-ff85-4110-9c23-b58a92124b59"},"vehicle_type_id":"4","last_reported":1734282450,"current_range_meters":35600,"station_id":"ce4bgs12rcd13ifvqcag","pricing_plan_id":"cebpf4jnsgd1na2vs0mg"},{"bike_id":"a2554ed6-8b42-4938-a58c-2f7a6998af04","system_id":"levelo_inurba_marseille","lat":43.25576,"lon":5.38265,"is_reserved":false,"is_disabled":false,"rental_uris":{"android":"levelo://app?vid=a2554ed6-8b42-4938-a58c-2f7a6998af04","ios":"levelo://app?vid=a2554ed6-8b42-4938-a58c-2f7a6998af04"},"vehicle_type_id":"4","last_reported":1734282450,"current_range_meters":30000,"station_id":"ce4bhih2rcd13ifvqfs0","pricing_plan_id":"cebpf4jnsgd1na2vs0mg"},{"bike_id":"c9169d90-4952-4442-b216-225cffd88fbb","system_id":"levelo_inurba_marseille","lat":43.28715,"lon":5.4,"is_reserved":false,"is_disabled":true,"rental_uris":{"android":"levelo://app?vid=c9169d90-4952-4442-b216-225cffd88fbb","ios":"levelo://app?vid=c9169d90-4952-4442-b216-225cffd88fbb"},"vehicle_type_id":"4","last_reported":1734282450,"current_range_meters":0,"station_id":"ce4bho92rcd13ifvqh3g","pricing_plan_id":"cebpf4jnsgd1na2vs0mg"},{"bike_id":"dfc48967-0e75-46cb-b088-e686423d10bf","system_id":"levelo_inurba_marseille","lat":43.28412,"lon":5.37519,"is_reserved":false,"is_disabled":false,"rental_uris":{"android":"levelo://app?vid=dfc48967-0e75-46cb-b088-e686423d10bf","ios":"levelo://app?vid=dfc48967-0e75-46cb-b088-e686423d10bf"},"vehicle_type_id":"4","last_reported":1734282450,"current_range_meters":30400,"station_id":"ce4bh412rcd13ifvqds0","pricing_plan_id":"cebpf4jnsgd1na2vs0mg"},{"bike_id":"02f133f3-8d7e-4335-91d4-58629ff49800","system_id":"levelo_inurba_marseille","lat":43.28462,"lon":5.35892,"is_reserved":false,"is_disabled":false,"rental_uris":{"android":"levelo://app?vid=02f133f3-8d7e-4335-91d4-58629ff49800","ios":"levelo://app?vid=02f133f3-8d7e-4335-91d4-58629ff49800"},"vehicle_type_id":"4","last_reported":1734282450,"current_range_meters":32800,"station_id":"ce4bhah2rcd13ifvqei0","pricing_plan_id":"cebpf4jnsgd1na2vs0mg"},{"bike_id":"ca829bff-8ff4-40c2-8ca2-a8fdf411fd7c","system_id":"levelo_inurba_marseille","lat":43.29309,"lon":5.37166,"is_reserved":false,"is_disabled":false,"rental_uris":{"android":"levelo://app?vid=ca829bff-8ff4-40c2-8ca2-a8fdf411fd7c","ios":"levelo://app?vid=ca829bff-8ff4-40c2-8ca2-a8fdf411fd7c"},"vehicle_type_id":"4","last_reported":1734282450,"current_range_meters":38400,"station_id":"ce4bgh92rcd13ifvqb40","pricing_plan_id":"cebpf4jnsgd1na2vs0mg"},{"bike_id":"b2362398-c818-4ea1-b498-398ed72481a3","system_id":"levelo_inurba_marseille","lat":43.2835,"lon":5.38099,"is_reserved":false,"is_disabled":false,"rental_uris":{"android":"levelo://app?vid=b2362398-c818-4ea1-b498-398ed72481a3","ios":"levelo://app?vid=b2362398-c818-4ea1-b498-398ed72481a3"},"vehicle_type_id":"4","last_reported":1734282450,"current_range_meters":39200,"station_id":"ce4bh412rcd13ifvqdr0","pricing_plan_id":"cebpf4jnsgd1na2vs0mg"},{"bike_id":"37b36342-e045-4f12-a155-b73a9fc23ece","system_id":"levelo_inurba_marseille","lat":43.28423,"lon":5.37513,"is_reserved":false,"is_disabled":false,"rental_uris":{"android":"levelo://app?vid=37b36342-e045-4f12-a155-b73a9fc23ece","ios":"levelo://app?vid=37b36342-e045-4f12-a155-b73a9fc23ece"},"vehicle_type_id":"4","last_reported":1734282450,"current_range_meters":38800,"station_id":"ce4bh412rcd13ifvqds0","pricing_plan_id":"cebpf4jnsgd1na2vs0mg"},{"bike_id":"0e7a815a-4b20-4cf1-8449-abaaf062f32b","system_id":"levelo_inurba_marseille","lat":43.26799,"lon":5.40271,"is_reserved":false,"is_disabled":false,"rental_uris":{"android":"levelo://app?vid=0e7a815a-4b20-4cf1-8449-abaaf062f32b","ios":"levelo://app?vid=0e7a815a-4b20-4cf1-8449-abaaf062f32b"},"vehicle_type_id":"4","last_reported":1734282450,"current_range_meters":37600,"station_id":"ce501612rcd8frsf0b60","pricing_plan_id":"cebpf4jnsgd1na2vs0mg"},{"bike_id":"22b68899-8b56-4d5b-a525-250826f94187","system_id":"levelo_inurba_marseille","lat":43.30564,"lon":5.36697,"is_reserved":false,"is_disabled":true,"rental_uris":{"android":"levelo://app?vid=22b68899-8b56-4d5b-a525-250826f94187","ios":"levelo://app?vid=22b68899-8b56-4d5b-a525-250826f94187"},"vehicle_type_id":"4","last_reported":1734282450,"current_range_meters":27600,"station_id":"ce4bgrp2rcd13ifvqc9g","pricing_plan_id":"cebpf4jnsgd1na2vs0mg"},{"bike_id":"67c1c6cd-c912-4b7f-84ea-55625e0b14f6","system_id":"levelo_inurba_marseille","lat":43.2574,"lon":5.41099,"is_reserved":false,"is_disabled":false,"rental_uris":{"android":"levelo://app?vid=67c1c6cd-c912-4b7f-84ea-55625e0b14f6","ios":"levelo://app?vid=67c1c6cd-c912-4b7f-84ea-55625e0b14f6"},"vehicle_type_id":"4","last_reported":1734282450,"current_range_meters":4000,"station_id":"ce4bhkp2rcd13ifvqgd0","pricing_plan_id":"cebpf4jnsgd1na2vs0mg"},{"bike_id":"83e5b1f9-e512-4755-8dfd-f85222a054ac","system_id":"levelo_inurba_marseille","lat":43.26829,"lon":5.39649,"is_reserved":false,"is_disabled":false,"rental_uris":{"android":"levelo://app?vid=83e5b1f9-e512-4755-8dfd-f85222a054ac","ios":"levelo://app?vid=83e5b1f9-e512-4755-8dfd-f85222a054ac"},"vehicle_type_id":"4","last_reported":1734282450,"current_range_meters":16400,"station_id":"","pricing_plan_id":"cebpf4jnsgd1na2vs0mg"},{"bike_id":"483537f0-0a97-4bc9-b6b9-3700316f5817","system_id":"levelo_inurba_marseille","lat":43.2952,"lon":5.38546,"is_reserved":false,"is_disabled":true,"rental_uris":{"android":"levelo://app?vid=483537f0-0a97-4bc9-b6b9-3700316f5817","ios":"levelo://app?vid=483537f0-0a97-4bc9-b6b9-3700316f5817"},"vehicle_type_id":"4","last_reported":1734282450,"current_range_meters":33200,"station_id":"ce4bgih2rcd13ifvqba0","pricing_plan_id":"cebpf4jnsgd1na2vs0mg"},{"bike_id":"60a2d848-fba2-45da-b4f3-14f2064ff8a0","system_id":"levelo_inurba_marseille","lat":43.26561,"lon":5.37311,"is_reserved":false,"is_disabled":false,"rental_uris":{"android":"levelo://app?vid=60a2d848-fba2-45da-b4f3-14f2064ff8a0","ios":"levelo://app?vid=60a2d848-fba2-45da-b4f3-14f2064ff8a0"},"vehicle_type_id":"4","last_reported":1734282450,"current_range_meters":29600,"station_id":"ce4bhg12rcd13ifvqf70","pricing_plan_id":"cebpf4jnsgd1na2vs0mg"},{"bike_id":"90c24d82-0e4f-442c-949d-e09d88b716fa","system_id":"levelo_inurba_marseille","lat":43.28612,"lon":5.35099,"is_reserved":false,"is_disabled":true,"rental_uris":{"android":"levelo://app?vid=90c24d82-0e4f-442c-949d-e09d88b716fa","ios":"levelo://app?vid=90c24d82-0e4f-442c-949d-e09d88b716fa"},"vehicle_type_id":"4","last_reported":1734282450,"current_range_meters":29600,"station_id":"ce4bhch2rcd13ifvqeug","pricing_plan_id":"cebpf4jnsgd1na2vs0mg"},{"bike_id":"a1e87f39-a169-437c-996c-14d84743b37e","system_id":"levelo_inurba_marseille","lat":43.23062,"lon":5.35491,"is_reserved":false,"is_disabled":false,"rental_uris":{"android":"levelo://app?vid=a1e87f39-a169-437c-996c-14d84743b37e","ios":"levelo://app?vid=a1e87f39-a169-437c-996c-14d84743b37e"},"vehicle_type_id":"4","last_reported":1734282450,"current_range_meters":38800,"station_id":"cpo3342slgdg3j2ifvpg","pricing_plan_id":"cebpf4jnsgd1na2vs0mg"},{"bike_id":"3c19f9ba-495e-4a25-bd01-4bbe0eb62651","system_id":"levelo_inurba_marseille","lat":43.28709,"lon":5.37928,"is_reserved":false,"is_disabled":false,"rental_uris":{"android":"levelo://app?vid=3c19f9ba-495e-4a25-bd01-4bbe0eb62651","ios":"levelo://app?vid=3c19f9ba-495e-4a25-bd01-4bbe0eb62651"},"vehicle_type_id":"4","last_reported":1734282450,"current_range_meters":27200,"station_id":"ce4bh9p2rcd13ifvqec0","pricing_plan_id":"cebpf4jnsgd1na2vs0mg"},{"bike_id":"961cc290-4e97-401d-88be-28fbb20f2f17","system_id":"levelo_inurba_marseille","lat":43.28707,"lon":5.3739,"is_reserved":false,"is_disabled":false,"rental_uris":{"android":"levelo://app?vid=961cc290-4e97-401d-88be-28fbb20f2f17","ios":"levelo://app?vid=961cc290-4e97-401d-88be-28fbb20f2f17"},"vehicle_type_id":"4","last_reported":1734282450,"current_range_meters":38800,"station_id":"ce4bh3p2rcd13ifvqdq0","pricing_plan_id":"cebpf4jnsgd1na2vs0mg"},{"bike_id":"c976cc60-0ee0-42e8-9f75-425d602f30ed","system_id":"levelo_inurba_marseille","lat":43.29753,"lon":5.39382,"is_reserved":false,"is_disabled":false,"rental_uris":{"android":"levelo://app?vid=c976cc60-0ee0-42e8-9f75-425d602f30ed","ios":"levelo://app?vid=c976cc60-0ee0-42e8-9f75-425d602f30ed"},"vehicle_type_id":"4","last_reported":1734282450,"current_range_meters":32000,"station_id":"chh1huq6cuj3fo74tm60","pricing_plan_id":"cebpf4jnsgd1na2vs0mg"},{"bike_id":"a34223f5-c6be-48ba-acdb-c689c88a699e","system_id":"levelo_inurba_marseille","lat":43.26193,"lon":5.37461,"is_reserved":false,"is_disabled":true,"rental_uris":{"android":"levelo://app?vid=a34223f5-c6be-48ba-acdb-c689c88a699e","ios":"levelo://app?vid=a34223f5-c6be-48ba-acdb-c689c88a699e"},"vehicle_type_id":"4","last_reported":1734282450,"current_range_meters":12400,"station_id":"ce4bhgp2rcd13ifvqfc0","pricing_plan_id":"cebpf4jnsgd1na2vs0mg"},{"bike_id":"fb75c4ba-469f-42b4-9241-bb8348b4b4dd","system_id":"levelo_inurba_marseille","lat":43.26204,"lon":5.37924,"is_reserved":false,"is_disabled":false,"rental_uris":{"android":"levelo://app?vid=fb75c4ba-469f-42b4-9241-bb8348b4b4dd","ios":"levelo://app?vid=fb75c4ba-469f-42b4-9241-bb8348b4b4dd"},"vehicle_type_id":"4","last_reported":1734282450,"current_range_meters":16000,"station_id":"ce4bhjp2rcd13ifvqg90","pricing_plan_id":"cebpf4jnsgd1na2vs0mg"},{"bike_id":"418176fc-9612-4956-8ca9-9916bd2da767","system_id":"levelo_inurba_marseille","lat":43.33025,"lon":5.39035,"is_reserved":false,"is_disabled":false,"rental_uris":{"android":"levelo://app?vid=418176fc-9612-4956-8ca9-9916bd2da767","ios":"levelo://app?vid=418176fc-9612-4956-8ca9-9916bd2da767"},"vehicle_type_id":"4","last_reported":1734282450,"current_range_meters":19600,"station_id":"ce4bhr92rcd13ifvqhrg","pricing_plan_id":"cebpf4jnsgd1na2vs0mg"},{"bike_id":"b4f28572-e9c3-4d89-a9c6-b22627fb6aff","system_id":"levelo_inurba_marseille","lat":43.32543,"lon":5.4146,"is_reserved":false,"is_disabled":false,"rental_uris":{"android":"levelo://app?vid=b4f28572-e9c3-4d89-a9c6-b22627fb6aff","ios":"levelo://app?vid=b4f28572-e9c3-4d89-a9c6-b22627fb6aff"},"vehicle_type_id":"4","last_reported":1734282450,"current_range_meters":18000,"station_id":"ce4bhq12rcd13ifvqhhg","pricing_plan_id":"cebpf4jnsgd1na2vs0mg"},{"bike_id":"fbbba54f-c894-4c4f-a34c-17fa354571c1","system_id":"levelo_inurba_marseille","lat":43.26559,"lon":5.39001,"is_reserved":false,"is_disabled":false,"rental_uris":{"android":"levelo://app?vid=fbbba54f-c894-4c4f-a34c-17fa354571c1","ios":"levelo://app?vid=fbbba54f-c894-4c4f-a34c-17fa354571c1"},"vehicle_type_id":"4","last_reported":1734282450,"current_range_meters":36400,"station_id":"ce4bhe12rcd13ifvqf30","pricing_plan_id":"cebpf4jnsgd1na2vs0mg"},{"bike_id":"85d73f46-091b-41ad-a6cf-eb9132331ccb","system_id":"levelo_inurba_marseille","lat":43.2841,"lon":5.37505,"is_reserved":false,"is_disabled":false,"rental_uris":{"android":"levelo://app?vid=85d73f46-091b-41ad-a6cf-eb9132331ccb","ios":"levelo://app?vid=85d73f46-091b-41ad-a6cf-eb9132331ccb"},"vehicle_type_id":"4","last_reported":1734282450,"current_range_meters":8800,"station_id":"ce4bh412rcd13ifvqds0","pricing_plan_id":"cebpf4jnsgd1na2vs0mg"},{"bike_id":"e76f2873-e6fb-47c1-a122-e676819dd4bf","system_id":"levelo_inurba_marseille","lat":43.24179,"lon":5.39737,"is_reserved":false,"is_disabled":true,"rental_uris":{"android":"levelo://app?vid=e76f2873-e6fb-47c1-a122-e676819dd4bf","ios":"levelo://app?vid=e76f2873-e6fb-47c1-a122-e676819dd4bf"},"vehicle_type_id":"4","last_reported":1734282450,"current_range_meters":0,"station_id":"ce4bhn12rcd13ifvqgpg","pricing_plan_id":"cebpf4jnsgd1na2vs0mg"},{"bike_id":"3ceb8620-8a84-4dff-8047-301dc3087867","system_id":"levelo_inurba_marseille","lat":43.276744,"lon":5.389095,"is_reserved":false,"is_disabled":true,"rental_uris":{"android":"levelo://app?vid=3ceb8620-8a84-4dff-8047-301dc3087867","ios":"levelo://app?vid=3ceb8620-8a84-4dff-8047-301dc3087867"},"vehicle_type_id":"4","last_reported":1734282450,"current_range_meters":38000,"station_id":"ce4bhi12rcd13ifvqfo0","pricing_plan_id":"cebpf4jnsgd1na2vs0mg"},{"bike_id":"4e3eebec-f009-4887-809b-5f30495d5092","system_id":"levelo_inurba_marseille","lat":43.28702,"lon":5.37404,"is_reserved":false,"is_disabled":true,"rental_uris":{"android":"levelo://app?vid=4e3eebec-f009-4887-809b-5f30495d5092","ios":"levelo://app?vid=4e3eebec-f009-4887-809b-5f30495d5092"},"vehicle_type_id":"4","last_reported":1734282450,"current_range_meters":18000,"station_id":"ce4bh3p2rcd13ifvqdq0","pricing_plan_id":"cebpf4jnsgd1na2vs0mg"},{"bike_id":"eb1496f4-67ed-47fd-8660-60023378367f","system_id":"levelo_inurba_marseille","lat":43.294212,"lon":5.374322,"is_reserved":false,"is_disabled":true,"rental_uris":{"android":"levelo://app?vid=eb1496f4-67ed-47fd-8660-60023378367f","ios":"levelo://app?vid=eb1496f4-67ed-47fd-8660-60023378367f"},"vehicle_type_id":"4","last_reported":1734282450,"current_range_meters":0,"station_id":"","pricing_plan_id":"cebpf4jnsgd1na2vs0mg"},{"bike_id":"71adf873-8534-4b4c-88ad-a35b28cb9554","system_id":"levelo_inurba_marseille","lat":43.24729,"lon":5.41152,"is_reserved":false,"is_disabled":false,"rental_uris":{"android":"levelo://app?vid=71adf873-8534-4b4c-88ad-a35b28cb9554","ios":"levelo://app?vid=71adf873-8534-4b4c-88ad-a35b28cb9554"},"vehicle_type_id":"4","last_reported":1734282450,"current_range_meters":21600,"station_id":"","pricing_plan_id":"cebpf4jnsgd1na2vs0mg"},{"bike_id":"c0c3fc51-3be3-4932-a397-78224f09cbb8","system_id":"levelo_inurba_marseille","lat":43.3122,"lon":5.368557,"is_reserved":false,"is_disabled":false,"rental_uris":{"android":"levelo://app?vid=c0c3fc51-3be3-4932-a397-78224f09cbb8","ios":"levelo://app?vid=c0c3fc51-3be3-4932-a397-78224f09cbb8"},"vehicle_type_id":"4","last_reported":1734282450,"current_range_meters":28000,"station_id":"ce4bgl92rcd13ifvqbq0","pricing_plan_id":"cebpf4jnsgd1na2vs0mg"},{"bike_id":"5e06fb08-3576-4226-a01d-9b2bc146e3e9","system_id":"levelo_inurba_marseille","lat":43.31416,"lon":5.37245,"is_reserved":false,"is_disabled":false,"rental_uris":{"android":"levelo://app?vid=5e06fb08-3576-4226-a01d-9b2bc146e3e9","ios":"levelo://app?vid=5e06fb08-3576-4226-a01d-9b2bc146e3e9"},"vehicle_type_id":"4","last_reported":1734282450,"current_range_meters":4400,"station_id":"","pricing_plan_id":"cebpf4jnsgd1na2vs0mg"},{"bike_id":"0529cc07-86e7-4b65-a2bc-ae8758c4e460","system_id":"levelo_inurba_marseille","lat":43.30539,"lon":5.36551,"is_reserved":false,"is_disabled":false,"rental_uris":{"android":"levelo://app?vid=0529cc07-86e7-4b65-a2bc-ae8758c4e460","ios":"levelo://app?vid=0529cc07-86e7-4b65-a2bc-ae8758c4e460"},"vehicle_type_id":"4","last_reported":1734282450,"current_range_meters":10000,"station_id":"ce4bgs12rcd13ifvqcag","pricing_plan_id":"cebpf4jnsgd1na2vs0mg"},{"bike_id":"e417af0d-29ea-459e-9bdd-15daa8ff17e0","system_id":"levelo_inurba_marseille","lat":43.29522,"lon":5.38531,"is_reserved":false,"is_disabled":true,"rental_uris":{"android":"levelo://app?vid=e417af0d-29ea-459e-9bdd-15daa8ff17e0","ios":"levelo://app?vid=e417af0d-29ea-459e-9bdd-15daa8ff17e0"},"vehicle_type_id":"4","last_reported":1734282450,"current_range_meters":37600,"station_id":"ce4bgih2rcd13ifvqba0","pricing_plan_id":"cebpf4jnsgd1na2vs0mg"},{"bike_id":"0a2adcfa-cbfd-49da-b009-7c02104a2588","system_id":"levelo_inurba_marseille","lat":43.27074,"lon":5.42281,"is_reserved":false,"is_disabled":true,"rental_uris":{"android":"levelo://app?vid=0a2adcfa-cbfd-49da-b009-7c02104a2588","ios":"levelo://app?vid=0a2adcfa-cbfd-49da-b009-7c02104a2588"},"vehicle_type_id":"4","last_reported":1734282450,"current_range_meters":0,"station_id":"ce4bhk92rcd13ifvqgb0","pricing_plan_id":"cebpf4jnsgd1na2vs0mg"},{"bike_id":"0df249be-7d40-48ad-8915-752593b717dd","system_id":"levelo_inurba_marseille","lat":43.23198,"lon":5.35566,"is_reserved":false,"is_disabled":false,"rental_uris":{"android":"levelo://app?vid=0df249be-7d40-48ad-8915-752593b717dd","ios":"levelo://app?vid=0df249be-7d40-48ad-8915-752593b717dd"},"vehicle_type_id":"4","last_reported":1734282450,"current_range_meters":28800,"station_id":"ce4bhu92rcd13ifvqi70","pricing_plan_id":"cebpf4jnsgd1na2vs0mg"},{"bike_id":"27b815d9-0eb7-4138-a695-96dc433b9f10","system_id":"levelo_inurba_marseille","lat":43.2781,"lon":5.40702,"is_reserved":false,"is_disabled":false,"rental_uris":{"android":"levelo://app?vid=27b815d9-0eb7-4138-a695-96dc433b9f10","ios":"levelo://app?vid=27b815d9-0eb7-4138-a695-96dc433b9f10"},"vehicle_type_id":"4","last_reported":1734282450,"current_range_meters":14400,"station_id":"ce4bhnh2rcd13ifvqgtg","pricing_plan_id":"cebpf4jnsgd1na2vs0mg"},{"bike_id":"abdf81ec-e98d-4dee-9e25-ca8f28442f23","system_id":"levelo_inurba_marseille","lat":43.2971,"lon":5.40708,"is_reserved":false,"is_disabled":true,"rental_uris":{"android":"levelo://app?vid=abdf81ec-e98d-4dee-9e25-ca8f28442f23","ios":"levelo://app?vid=abdf81ec-e98d-4dee-9e25-ca8f28442f23"},"vehicle_type_id":"4","last_reported":1734282450,"current_range_meters":0,"station_id":"","pricing_plan_id":"cebpf4jnsgd1na2vs0mg"},{"bike_id":"c68db57d-783a-4064-a144-068182cc62b5","system_id":"levelo_inurba_marseille","lat":43.30274,"lon":5.37698,"is_reserved":false,"is_disabled":false,"rental_uris":{"android":"levelo://app?vid=c68db57d-783a-4064-a144-068182cc62b5","ios":"levelo://app?vid=c68db57d-783a-4064-a144-068182cc62b5"},"vehicle_type_id":"4","last_reported":1734282450,"current_range_meters":11200,"station_id":"ce4bguh2rcd13ifvqcj0","pricing_plan_id":"cebpf4jnsgd1na2vs0mg"},{"bike_id":"4a1bc0db-6a2c-4623-8864-d2d18510681f","system_id":"levelo_inurba_marseille","lat":43.23206,"lon":5.35553,"is_reserved":false,"is_disabled":false,"rental_uris":{"android":"levelo://app?vid=4a1bc0db-6a2c-4623-8864-d2d18510681f","ios":"levelo://app?vid=4a1bc0db-6a2c-4623-8864-d2d18510681f"},"vehicle_type_id":"4","last_reported":1734282450,"current_range_meters":16000,"station_id":"ce4bhu92rcd13ifvqi70","pricing_plan_id":"cebpf4jnsgd1na2vs0mg"},{"bike_id":"985678ab-a54a-4810-85fd-7002e1f852b3","system_id":"levelo_inurba_marseille","lat":43.29512,"lon":5.39044,"is_reserved":false,"is_disabled":false,"rental_uris":{"android":"levelo://app?vid=985678ab-a54a-4810-85fd-7002e1f852b3","ios":"levelo://app?vid=985678ab-a54a-4810-85fd-7002e1f852b3"},"vehicle_type_id":"4","last_reported":1734282450,"current_range_meters":19200,"station_id":"ce4bh3p2rcd13ifvqdp0","pricing_plan_id":"cebpf4jnsgd1na2vs0mg"},{"bike_id":"93716f1c-bdfa-41f3-87fa-554caf5359e2","system_id":"levelo_inurba_marseille","lat":43.31687,"lon":5.40488,"is_reserved":false,"is_disabled":false,"rental_uris":{"android":"levelo://app?vid=93716f1c-bdfa-41f3-87fa-554caf5359e2","ios":"levelo://app?vid=93716f1c-bdfa-41f3-87fa-554caf5359e2"},"vehicle_type_id":"4","last_reported":1734282450,"current_range_meters":38800,"station_id":"ce4bh012rcd13ifvqd00","pricing_plan_id":"cebpf4jnsgd1na2vs0mg"},{"bike_id":"2bca41b2-d9da-4194-ae27-579572647078","system_id":"levelo_inurba_marseille","lat":43.30539,"lon":5.36546,"is_reserved":false,"is_disabled":false,"rental_uris":{"android":"levelo://app?vid=2bca41b2-d9da-4194-ae27-579572647078","ios":"levelo://app?vid=2bca41b2-d9da-4194-ae27-579572647078"},"vehicle_type_id":"4","last_reported":1734282450,"current_range_meters":38800,"station_id":"ce4bgs12rcd13ifvqcag","pricing_plan_id":"cebpf4jnsgd1na2vs0mg"},{"bike_id":"ecbfcd56-e2e9-411a-916b-327a5fa7e43b","system_id":"levelo_inurba_marseille","lat":43.30014,"lon":5.37357,"is_reserved":false,"is_disabled":false,"rental_uris":{"android":"levelo://app?vid=ecbfcd56-e2e9-411a-916b-327a5fa7e43b","ios":"levelo://app?vid=ecbfcd56-e2e9-411a-916b-327a5fa7e43b"},"vehicle_type_id":"4","last_reported":1734282450,"current_range_meters":24400,"station_id":"","pricing_plan_id":"cebpf4jnsgd1na2vs0mg"},{"bike_id":"1d0a4562-571e-4699-ad38-08a09b60c1bd","system_id":"levelo_inurba_marseille","lat":43.28946,"lon":5.39638,"is_reserved":false,"is_disabled":false,"rental_uris":{"android":"levelo://app?vid=1d0a4562-571e-4699-ad38-08a09b60c1bd","ios":"levelo://app?vid=1d0a4562-571e-4699-ad38-08a09b60c1bd"},"vehicle_type_id":"4","last_reported":1734282450,"current_range_meters":27600,"station_id":"ce4bh3h2rcd13ifvqdn0","pricing_plan_id":"cebpf4jnsgd1na2vs0mg"},{"bike_id":"f9058d8c-0917-4d9f-a0ce-f51dfd2def06","system_id":"levelo_inurba_marseille","lat":43.26806,"lon":5.40259,"is_reserved":false,"is_disabled":false,"rental_uris":{"android":"levelo://app?vid=f9058d8c-0917-4d9f-a0ce-f51dfd2def06","ios":"levelo://app?vid=f9058d8c-0917-4d9f-a0ce-f51dfd2def06"},"vehicle_type_id":"4","last_reported":1734282450,"current_range_meters":38000,"station_id":"ce501612rcd8frsf0b60","pricing_plan_id":"cebpf4jnsgd1na2vs0mg"},{"bike_id":"5bcc5591-d2fa-4ac9-8567-a16912fdb6e7","system_id":"levelo_inurba_marseille","lat":43.292572,"lon":5.384398,"is_reserved":false,"is_disabled":false,"rental_uris":{"android":"levelo://app?vid=5bcc5591-d2fa-4ac9-8567-a16912fdb6e7","ios":"levelo://app?vid=5bcc5591-d2fa-4ac9-8567-a16912fdb6e7"},"vehicle_type_id":"4","last_reported":1734282450,"current_range_meters":11600,"station_id":"ce4bh692rcd13ifvqea0","pricing_plan_id":"cebpf4jnsgd1na2vs0mg"},{"bike_id":"a170ba40-17b7-4bf6-90f8-c07a5cf55709","system_id":"levelo_inurba_marseille","lat":43.24673,"lon":5.38897,"is_reserved":false,"is_disabled":true,"rental_uris":{"android":"levelo://app?vid=a170ba40-17b7-4bf6-90f8-c07a5cf55709","ios":"levelo://app?vid=a170ba40-17b7-4bf6-90f8-c07a5cf55709"},"vehicle_type_id":"4","last_reported":1734282450,"current_range_meters":37600,"station_id":"ce4bhg12rcd13ifvqf60","pricing_plan_id":"cebpf4jnsgd1na2vs0mg"},{"bike_id":"3d1c7f8e-ebf2-4282-beaa-c7deda919e1b","system_id":"levelo_inurba_marseille","lat":43.30561,"lon":5.36525,"is_reserved":false,"is_disabled":false,"rental_uris":{"android":"levelo://app?vid=3d1c7f8e-ebf2-4282-beaa-c7deda919e1b","ios":"levelo://app?vid=3d1c7f8e-ebf2-4282-beaa-c7deda919e1b"},"vehicle_type_id":"4","last_reported":1734282450,"current_range_meters":25600,"station_id":"ce4bgs12rcd13ifvqcag","pricing_plan_id":"cebpf4jnsgd1na2vs0mg"},{"bike_id":"27b317b7-ef3e-4fab-a731-0cb4771be0aa","system_id":"levelo_inurba_marseille","lat":43.2319,"lon":5.35545,"is_reserved":false,"is_disabled":false,"rental_uris":{"android":"levelo://app?vid=27b317b7-ef3e-4fab-a731-0cb4771be0aa","ios":"levelo://app?vid=27b317b7-ef3e-4fab-a731-0cb4771be0aa"},"vehicle_type_id":"4","last_reported":1734282450,"current_range_meters":28000,"station_id":"ce4bhu92rcd13ifvqi70","pricing_plan_id":"cebpf4jnsgd1na2vs0mg"},{"bike_id":"e13e4253-485c-4d31-a7a9-5639edcb4b94","system_id":"levelo_inurba_marseille","lat":43.280845,"lon":5.396772,"is_reserved":false,"is_disabled":false,"rental_uris":{"android":"levelo://app?vid=e13e4253-485c-4d31-a7a9-5639edcb4b94","ios":"levelo://app?vid=e13e4253-485c-4d31-a7a9-5639edcb4b94"},"vehicle_type_id":"4","last_reported":1734282450,"current_range_meters":26000,"station_id":"ce4bho12rcd13ifvqh2g","pricing_plan_id":"cebpf4jnsgd1na2vs0mg"},{"bike_id":"fd2cf2d5-69d8-41fc-899a-646667a8a8e0","system_id":"levelo_inurba_marseille","lat":43.29309,"lon":5.3745,"is_reserved":false,"is_disabled":false,"rental_uris":{"android":"levelo://app?vid=fd2cf2d5-69d8-41fc-899a-646667a8a8e0","ios":"levelo://app?vid=fd2cf2d5-69d8-41fc-899a-646667a8a8e0"},"vehicle_type_id":"4","last_reported":1734282450,"current_range_meters":24800,"station_id":"ce4bgi12rcd13ifvqb70","pricing_plan_id":"cebpf4jnsgd1na2vs0mg"},{"bike_id":"aea35cb5-36a3-48f8-a7ed-6dd686133651","system_id":"levelo_inurba_marseille","lat":43.24803,"lon":5.37451,"is_reserved":false,"is_disabled":false,"rental_uris":{"android":"levelo://app?vid=aea35cb5-36a3-48f8-a7ed-6dd686133651","ios":"levelo://app?vid=aea35cb5-36a3-48f8-a7ed-6dd686133651"},"vehicle_type_id":"4","last_reported":1734282450,"current_range_meters":36000,"station_id":"ce4bhgh2rcd13ifvqfb0","pricing_plan_id":"cebpf4jnsgd1na2vs0mg"},{"bike_id":"9ad87fa5-7284-4982-92ca-a4c086fda30d","system_id":"levelo_inurba_marseille","lat":43.30122,"lon":5.38783,"is_reserved":false,"is_disabled":true,"rental_uris":{"android":"levelo://app?vid=9ad87fa5-7284-4982-92ca-a4c086fda30d","ios":"levelo://app?vid=9ad87fa5-7284-4982-92ca-a4c086fda30d"},"vehicle_type_id":"4","last_reported":1734282450,"current_range_meters":800,"station_id":"ce4bghh2rcd13ifvqb60","pricing_plan_id":"cebpf4jnsgd1na2vs0mg"},{"bike_id":"2add9805-6fe1-496b-95ec-c3450a7c4a57","system_id":"levelo_inurba_marseille","lat":43.30036,"lon":5.37424,"is_reserved":false,"is_disabled":true,"rental_uris":{"android":"levelo://app?vid=2add9805-6fe1-496b-95ec-c3450a7c4a57","ios":"levelo://app?vid=2add9805-6fe1-496b-95ec-c3450a7c4a57"},"vehicle_type_id":"4","last_reported":1734282450,"current_range_meters":0,"station_id":"","pricing_plan_id":"cebpf4jnsgd1na2vs0mg"},{"bike_id":"476d2ecc-fff7-4616-a98f-5e7b653dbf36","system_id":"levelo_inurba_marseille","lat":43.30465,"lon":5.37909,"is_reserved":false,"is_disabled":false,"rental_uris":{"android":"levelo://app?vid=476d2ecc-fff7-4616-a98f-5e7b653dbf36","ios":"levelo://app?vid=476d2ecc-fff7-4616-a98f-5e7b653dbf36"},"vehicle_type_id":"4","last_reported":1734282450,"current_range_meters":36400,"station_id":"ce4bgup2rcd13ifvqcn0","pricing_plan_id":"cebpf4jnsgd1na2vs0mg"},{"bike_id":"c58821f9-7843-4f2b-8e11-dffb0b46d8fe","system_id":"levelo_inurba_marseille","lat":43.29771,"lon":5.371,"is_reserved":false,"is_disabled":false,"rental_uris":{"android":"levelo://app?vid=c58821f9-7843-4f2b-8e11-dffb0b46d8fe","ios":"levelo://app?vid=c58821f9-7843-4f2b-8e11-dffb0b46d8fe"},"vehicle_type_id":"4","last_reported":1734282450,"current_range_meters":31200,"station_id":"ce4bgop2rcd13ifvqc1g","pricing_plan_id":"cebpf4jnsgd1na2vs0mg"},{"bike_id":"c8493f73-a2f9-43cd-9579-2d1e8b3a3c6a","system_id":"levelo_inurba_marseille","lat":43.29706,"lon":5.37697,"is_reserved":false,"is_disabled":false,"rental_uris":{"android":"levelo://app?vid=c8493f73-a2f9-43cd-9579-2d1e8b3a3c6a","ios":"levelo://app?vid=c8493f73-a2f9-43cd-9579-2d1e8b3a3c6a"},"vehicle_type_id":"4","last_reported":1734282450,"current_range_meters":7200,"station_id":"ce4bgkh2rcd13ifvqbl0","pricing_plan_id":"cebpf4jnsgd1na2vs0mg"},{"bike_id":"c9479a05-3697-40a1-808b-271dba411884","system_id":"levelo_inurba_marseille","lat":43.27899,"lon":5.38004,"is_reserved":false,"is_disabled":false,"rental_uris":{"android":"levelo://app?vid=c9479a05-3697-40a1-808b-271dba411884","ios":"levelo://app?vid=c9479a05-3697-40a1-808b-271dba411884"},"vehicle_type_id":"4","last_reported":1734282450,"current_range_meters":26000,"station_id":"ce4bhf92rcd13ifvqf50","pricing_plan_id":"cebpf4jnsgd1na2vs0mg"},{"bike_id":"fe09b4f2-e69c-4010-8f4d-948ab8176526","system_id":"levelo_inurba_marseille","lat":43.28361,"lon":5.38101,"is_reserved":false,"is_disabled":false,"rental_uris":{"android":"levelo://app?vid=fe09b4f2-e69c-4010-8f4d-948ab8176526","ios":"levelo://app?vid=fe09b4f2-e69c-4010-8f4d-948ab8176526"},"vehicle_type_id":"4","last_reported":1734282450,"current_range_meters":38800,"station_id":"ce4bh412rcd13ifvqdr0","pricing_plan_id":"cebpf4jnsgd1na2vs0mg"},{"bike_id":"bdc0fd90-c388-45af-923d-3dd9bba28e38","system_id":"levelo_inurba_marseille","lat":43.30547,"lon":5.36569,"is_reserved":false,"is_disabled":false,"rental_uris":{"android":"levelo://app?vid=bdc0fd90-c388-45af-923d-3dd9bba28e38","ios":"levelo://app?vid=bdc0fd90-c388-45af-923d-3dd9bba28e38"},"vehicle_type_id":"4","last_reported":1734282450,"current_range_meters":19600,"station_id":"ce4bgs12rcd13ifvqcag","pricing_plan_id":"cebpf4jnsgd1na2vs0mg"},{"bike_id":"63eaffe0-9361-4ff6-ab19-8007100ee7ae","system_id":"levelo_inurba_marseille","lat":43.2418,"lon":5.39712,"is_reserved":false,"is_disabled":false,"rental_uris":{"android":"levelo://app?vid=63eaffe0-9361-4ff6-ab19-8007100ee7ae","ios":"levelo://app?vid=63eaffe0-9361-4ff6-ab19-8007100ee7ae"},"vehicle_type_id":"4","last_reported":1734282450,"current_range_meters":36400,"station_id":"ce4bhn12rcd13ifvqgpg","pricing_plan_id":"cebpf4jnsgd1na2vs0mg"},{"bike_id":"604f4c53-7126-4c38-a496-1deeabae457e","system_id":"levelo_inurba_marseille","lat":43.24071,"lon":5.37762,"is_reserved":false,"is_disabled":false,"rental_uris":{"android":"levelo://app?vid=604f4c53-7126-4c38-a496-1deeabae457e","ios":"levelo://app?vid=604f4c53-7126-4c38-a496-1deeabae457e"},"vehicle_type_id":"4","last_reported":1734282450,"current_range_meters":36800,"station_id":"ce4bhnp2rcd13ifvqgvg","pricing_plan_id":"cebpf4jnsgd1na2vs0mg"},{"bike_id":"9134430e-f002-4d84-96cb-0e93ff2cf3ee","system_id":"levelo_inurba_marseille","lat":43.27549,"lon":5.38413,"is_reserved":false,"is_disabled":false,"rental_uris":{"android":"levelo://app?vid=9134430e-f002-4d84-96cb-0e93ff2cf3ee","ios":"levelo://app?vid=9134430e-f002-4d84-96cb-0e93ff2cf3ee"},"vehicle_type_id":"4","last_reported":1734282450,"current_range_meters":34000,"station_id":"ce4bhh92rcd13ifvqfi0","pricing_plan_id":"cebpf4jnsgd1na2vs0mg"},{"bike_id":"6b8e2440-0d2c-43d7-a25e-899852a72a30","system_id":"levelo_inurba_marseille","lat":43.298465,"lon":5.384334,"is_reserved":false,"is_disabled":false,"rental_uris":{"android":"levelo://app?vid=6b8e2440-0d2c-43d7-a25e-899852a72a30","ios":"levelo://app?vid=6b8e2440-0d2c-43d7-a25e-899852a72a30"},"vehicle_type_id":"4","last_reported":1734282450,"current_range_meters":6400,"station_id":"ce4bgj92rcd13ifvqbd0","pricing_plan_id":"cebpf4jnsgd1na2vs0mg"},{"bike_id":"61b53a76-fc03-4e14-873f-6cf7ef9c6dac","system_id":"levelo_inurba_marseille","lat":43.29788,"lon":5.38093,"is_reserved":false,"is_disabled":false,"rental_uris":{"android":"levelo://app?vid=61b53a76-fc03-4e14-873f-6cf7ef9c6dac","ios":"levelo://app?vid=61b53a76-fc03-4e14-873f-6cf7ef9c6dac"},"vehicle_type_id":"4","last_reported":1734282450,"current_range_meters":38800,"station_id":"ce4bgip2rcd13ifvqbb0","pricing_plan_id":"cebpf4jnsgd1na2vs0mg"},{"bike_id":"af5005fc-d058-4152-a2f0-a599ec2fe143","system_id":"levelo_inurba_marseille","lat":43.32289,"lon":5.38278,"is_reserved":false,"is_disabled":false,"rental_uris":{"android":"levelo://app?vid=af5005fc-d058-4152-a2f0-a599ec2fe143","ios":"levelo://app?vid=af5005fc-d058-4152-a2f0-a599ec2fe143"},"vehicle_type_id":"4","last_reported":1734282450,"current_range_meters":39200,"station_id":"ce4bhr12rcd13ifvqhqg","pricing_plan_id":"cebpf4jnsgd1na2vs0mg"},{"bike_id":"3650d84c-d2fd-4728-abeb-b9accdfa7210","system_id":"levelo_inurba_marseille","lat":43.30235,"lon":5.40071,"is_reserved":false,"is_disabled":true,"rental_uris":{"android":"levelo://app?vid=3650d84c-d2fd-4728-abeb-b9accdfa7210","ios":"levelo://app?vid=3650d84c-d2fd-4728-abeb-b9accdfa7210"},"vehicle_type_id":"4","last_reported":1734282450,"current_range_meters":20800,"station_id":"ce4bgvh2rcd13ifvqcs0","pricing_plan_id":"cebpf4jnsgd1na2vs0mg"},{"bike_id":"a439a4b3-a28c-4ed5-a18f-0df99657d08a","system_id":"levelo_inurba_marseille","lat":43.30799,"lon":5.38146,"is_reserved":false,"is_disabled":false,"rental_uris":{"android":"levelo://app?vid=a439a4b3-a28c-4ed5-a18f-0df99657d08a","ios":"levelo://app?vid=a439a4b3-a28c-4ed5-a18f-0df99657d08a"},"vehicle_type_id":"4","last_reported":1734282450,"current_range_meters":38800,"station_id":"ce4bgt12rcd13ifvqce0","pricing_plan_id":"cebpf4jnsgd1na2vs0mg"},{"bike_id":"b78abdd0-5f07-43ee-acb2-0dd6a958058f","system_id":"levelo_inurba_marseille","lat":43.29971,"lon":5.37178,"is_reserved":false,"is_disabled":true,"rental_uris":{"android":"levelo://app?vid=b78abdd0-5f07-43ee-acb2-0dd6a958058f","ios":"levelo://app?vid=b78abdd0-5f07-43ee-acb2-0dd6a958058f"},"vehicle_type_id":"4","last_reported":1734282450,"current_range_meters":20800,"station_id":"ce4bgr92rcd13ifvqc7g","pricing_plan_id":"cebpf4jnsgd1na2vs0mg"},{"bike_id":"9c372dd8-2c47-4527-9a94-3bc151213369","system_id":"levelo_inurba_marseille","lat":43.29267,"lon":5.38437,"is_reserved":false,"is_disabled":false,"rental_uris":{"android":"levelo://app?vid=9c372dd8-2c47-4527-9a94-3bc151213369","ios":"levelo://app?vid=9c372dd8-2c47-4527-9a94-3bc151213369"},"vehicle_type_id":"4","last_reported":1734282450,"current_range_meters":30400,"station_id":"ce4bh692rcd13ifvqea0","pricing_plan_id":"cebpf4jnsgd1na2vs0mg"},{"bike_id":"76805181-b86b-42c5-9eb1-0613fe81a89e","system_id":"levelo_inurba_marseille","lat":43.23218,"lon":5.35549,"is_reserved":false,"is_disabled":false,"rental_uris":{"android":"levelo://app?vid=76805181-b86b-42c5-9eb1-0613fe81a89e","ios":"levelo://app?vid=76805181-b86b-42c5-9eb1-0613fe81a89e"},"vehicle_type_id":"4","last_reported":1734282450,"current_range_meters":38800,"station_id":"ce4bhu92rcd13ifvqi70","pricing_plan_id":"cebpf4jnsgd1na2vs0mg"},{"bike_id":"239f2f95-a83c-4c26-951f-5467bf111fba","system_id":"levelo_inurba_marseille","lat":43.29533,"lon":5.39033,"is_reserved":false,"is_disabled":false,"rental_uris":{"android":"levelo://app?vid=239f2f95-a83c-4c26-951f-5467bf111fba","ios":"levelo://app?vid=239f2f95-a83c-4c26-951f-5467bf111fba"},"vehicle_type_id":"4","last_reported":1734282450,"current_range_meters":38800,"station_id":"ce4bh3p2rcd13ifvqdp0","pricing_plan_id":"cebpf4jnsgd1na2vs0mg"},{"bike_id":"6069fe6f-3d12-436c-ba1a-a6e9607abbd3","system_id":"levelo_inurba_marseille","lat":43.325461,"lon":5.414428,"is_reserved":false,"is_disabled":false,"rental_uris":{"android":"levelo://app?vid=6069fe6f-3d12-436c-ba1a-a6e9607abbd3","ios":"levelo://app?vid=6069fe6f-3d12-436c-ba1a-a6e9607abbd3"},"vehicle_type_id":"4","last_reported":1734282450,"current_range_meters":27200,"station_id":"ce4bhq12rcd13ifvqhhg","pricing_plan_id":"cebpf4jnsgd1na2vs0mg"},{"bike_id":"4dde4536-a634-4fce-914b-7e8523c98a91","system_id":"levelo_inurba_marseille","lat":43.28933,"lon":5.36634,"is_reserved":false,"is_disabled":false,"rental_uris":{"android":"levelo://app?vid=4dde4536-a634-4fce-914b-7e8523c98a91","ios":"levelo://app?vid=4dde4536-a634-4fce-914b-7e8523c98a91"},"vehicle_type_id":"4","last_reported":1734282450,"current_range_meters":24400,"station_id":"ce4bhap2rcd13ifvqek0","pricing_plan_id":"cebpf4jnsgd1na2vs0mg"},{"bike_id":"6cb5f94f-eade-4b7c-b995-84c805be74f9","system_id":"levelo_inurba_marseille","lat":43.33779,"lon":5.37414,"is_reserved":false,"is_disabled":false,"rental_uris":{"android":"levelo://app?vid=6cb5f94f-eade-4b7c-b995-84c805be74f9","ios":"levelo://app?vid=6cb5f94f-eade-4b7c-b995-84c805be74f9"},"vehicle_type_id":"4","last_reported":1734282450,"current_range_meters":34000,"station_id":"","pricing_plan_id":"cebpf4jnsgd1na2vs0mg"},{"bike_id":"5cded315-570b-4c0b-b015-bac53bb71581","system_id":"levelo_inurba_marseille","lat":43.28562,"lon":5.38994,"is_reserved":false,"is_disabled":true,"rental_uris":{"android":"levelo://app?vid=5cded315-570b-4c0b-b015-bac53bb71581","ios":"levelo://app?vid=5cded315-570b-4c0b-b015-bac53bb71581"},"vehicle_type_id":"4","last_reported":1734282450,"current_range_meters":0,"station_id":"","pricing_plan_id":"cebpf4jnsgd1na2vs0mg"},{"bike_id":"c21a5a53-a433-4bb5-8ec6-5269f62fa0a0","system_id":"levelo_inurba_marseille","lat":43.287,"lon":5.37387,"is_reserved":false,"is_disabled":false,"rental_uris":{"android":"levelo://app?vid=c21a5a53-a433-4bb5-8ec6-5269f62fa0a0","ios":"levelo://app?vid=c21a5a53-a433-4bb5-8ec6-5269f62fa0a0"},"vehicle_type_id":"4","last_reported":1734282450,"current_range_meters":34800,"station_id":"ce4bh3p2rcd13ifvqdq0","pricing_plan_id":"cebpf4jnsgd1na2vs0mg"},{"bike_id":"4d8793f3-8042-4e9b-bd45-f3ef42d1aed7","system_id":"levelo_inurba_marseille","lat":43.27175,"lon":5.40987,"is_reserved":false,"is_disabled":false,"rental_uris":{"android":"levelo://app?vid=4d8793f3-8042-4e9b-bd45-f3ef42d1aed7","ios":"levelo://app?vid=4d8793f3-8042-4e9b-bd45-f3ef42d1aed7"},"vehicle_type_id":"4","last_reported":1734282450,"current_range_meters":37600,"station_id":"ce4bhl12rcd13ifvqgf0","pricing_plan_id":"cebpf4jnsgd1na2vs0mg"},{"bike_id":"61059a51-39d7-4f0a-a098-bfd36e6d1bf2","system_id":"levelo_inurba_marseille","lat":43.31744,"lon":5.39016,"is_reserved":false,"is_disabled":false,"rental_uris":{"android":"levelo://app?vid=61059a51-39d7-4f0a-a098-bfd36e6d1bf2","ios":"levelo://app?vid=61059a51-39d7-4f0a-a098-bfd36e6d1bf2"},"vehicle_type_id":"4","last_reported":1734282450,"current_range_meters":36400,"station_id":"ce4bhqp2rcd13ifvqhng","pricing_plan_id":"cebpf4jnsgd1na2vs0mg"},{"bike_id":"45d18041-cc95-4639-8d26-2878c79664ca","system_id":"levelo_inurba_marseille","lat":43.28848,"lon":5.35859,"is_reserved":false,"is_disabled":false,"rental_uris":{"android":"levelo://app?vid=45d18041-cc95-4639-8d26-2878c79664ca","ios":"levelo://app?vid=45d18041-cc95-4639-8d26-2878c79664ca"},"vehicle_type_id":"4","last_reported":1734282450,"current_range_meters":38000,"station_id":"ce4bhb12rcd13ifvqem0","pricing_plan_id":"cebpf4jnsgd1na2vs0mg"},{"bike_id":"ca59d865-1951-4846-a717-a349b9e50e7c","system_id":"levelo_inurba_marseille","lat":43.27606,"lon":5.36106,"is_reserved":false,"is_disabled":true,"rental_uris":{"android":"levelo://app?vid=ca59d865-1951-4846-a717-a349b9e50e7c","ios":"levelo://app?vid=ca59d865-1951-4846-a717-a349b9e50e7c"},"vehicle_type_id":"4","last_reported":1734282450,"current_range_meters":30800,"station_id":"ce4bgj92rcd13ifvqbe0","pricing_plan_id":"cebpf4jnsgd1na2vs0mg"},{"bike_id":"b9fd1ec1-c8e7-4f0e-affb-f503d2a58475","system_id":"levelo_inurba_marseille","lat":43.27378,"lon":5.36242,"is_reserved":false,"is_disabled":false,"rental_uris":{"android":"levelo://app?vid=b9fd1ec1-c8e7-4f0e-affb-f503d2a58475","ios":"levelo://app?vid=b9fd1ec1-c8e7-4f0e-affb-f503d2a58475"},"vehicle_type_id":"4","last_reported":1734282450,"current_range_meters":38800,"station_id":"ce4bhbh2rcd13ifvqeo0","pricing_plan_id":"cebpf4jnsgd1na2vs0mg"},{"bike_id":"8ebea079-6423-4cc5-b268-ad736f634e52","system_id":"levelo_inurba_marseille","lat":43.3018,"lon":5.36606,"is_reserved":false,"is_disabled":false,"rental_uris":{"android":"levelo://app?vid=8ebea079-6423-4cc5-b268-ad736f634e52","ios":"levelo://app?vid=8ebea079-6423-4cc5-b268-ad736f634e52"},"vehicle_type_id":"4","last_reported":1734282450,"current_range_meters":38000,"station_id":"ce4bgrh2rcd13ifvqc8g","pricing_plan_id":"cebpf4jnsgd1na2vs0mg"},{"bike_id":"283ec910-2b59-4ffd-bbff-9867d116f826","system_id":"levelo_inurba_marseille","lat":43.337444,"lon":5.374475,"is_reserved":false,"is_disabled":true,"rental_uris":{"android":"levelo://app?vid=283ec910-2b59-4ffd-bbff-9867d116f826","ios":"levelo://app?vid=283ec910-2b59-4ffd-bbff-9867d116f826"},"vehicle_type_id":"4","last_reported":1734282450,"current_range_meters":0,"station_id":"","pricing_plan_id":"cebpf4jnsgd1na2vs0mg"},{"bike_id":"44bb1ee1-6608-426b-ad9e-5efdc1a7eac0","system_id":"levelo_inurba_marseille","lat":43.33786,"lon":5.37453,"is_reserved":false,"is_disabled":false,"rental_uris":{"android":"levelo://app?vid=44bb1ee1-6608-426b-ad9e-5efdc1a7eac0","ios":"levelo://app?vid=44bb1ee1-6608-426b-ad9e-5efdc1a7eac0"},"vehicle_type_id":"4","last_reported":1734282450,"current_range_meters":20400,"station_id":"","pricing_plan_id":"cebpf4jnsgd1na2vs0mg"},{"bike_id":"bbffd889-750b-4762-ae94-78458d50ea91","system_id":"levelo_inurba_marseille","lat":43.33728,"lon":5.39184,"is_reserved":false,"is_disabled":false,"rental_uris":{"android":"levelo://app?vid=bbffd889-750b-4762-ae94-78458d50ea91","ios":"levelo://app?vid=bbffd889-750b-4762-ae94-78458d50ea91"},"vehicle_type_id":"4","last_reported":1734282450,"current_range_meters":38800,"station_id":"ce4bhr92rcd13ifvqhsg","pricing_plan_id":"cebpf4jnsgd1na2vs0mg"},{"bike_id":"e5558546-9cf8-4566-8cc9-f72e6acf1f0b","system_id":"levelo_inurba_marseille","lat":43.30531,"lon":5.36544,"is_reserved":false,"is_disabled":false,"rental_uris":{"android":"levelo://app?vid=e5558546-9cf8-4566-8cc9-f72e6acf1f0b","ios":"levelo://app?vid=e5558546-9cf8-4566-8cc9-f72e6acf1f0b"},"vehicle_type_id":"4","last_reported":1734282450,"current_range_meters":39200,"station_id":"ce4bgs12rcd13ifvqcag","pricing_plan_id":"cebpf4jnsgd1na2vs0mg"},{"bike_id":"6af93c5c-2369-4249-9874-540f27f0edd3","system_id":"levelo_inurba_marseille","lat":43.3373,"lon":5.3918,"is_reserved":false,"is_disabled":false,"rental_uris":{"android":"levelo://app?vid=6af93c5c-2369-4249-9874-540f27f0edd3","ios":"levelo://app?vid=6af93c5c-2369-4249-9874-540f27f0edd3"},"vehicle_type_id":"4","last_reported":1734282450,"current_range_meters":8400,"station_id":"ce4bhr92rcd13ifvqhsg","pricing_plan_id":"cebpf4jnsgd1na2vs0mg"},{"bike_id":"4e99bf0b-18b5-4848-80f1-0b0419a2900d","system_id":"levelo_inurba_marseille","lat":43.24169,"lon":5.3971,"is_reserved":false,"is_disabled":false,"rental_uris":{"android":"levelo://app?vid=4e99bf0b-18b5-4848-80f1-0b0419a2900d","ios":"levelo://app?vid=4e99bf0b-18b5-4848-80f1-0b0419a2900d"},"vehicle_type_id":"4","last_reported":1734282450,"current_range_meters":19200,"station_id":"ce4bhn12rcd13ifvqgpg","pricing_plan_id":"cebpf4jnsgd1na2vs0mg"},{"bike_id":"7a6fbafa-c405-41ec-babd-da89473cb281","system_id":"levelo_inurba_marseille","lat":43.27503,"lon":5.4247,"is_reserved":false,"is_disabled":false,"rental_uris":{"android":"levelo://app?vid=7a6fbafa-c405-41ec-babd-da89473cb281","ios":"levelo://app?vid=7a6fbafa-c405-41ec-babd-da89473cb281"},"vehicle_type_id":"4","last_reported":1734282450,"current_range_meters":38800,"station_id":"ce4bhn92rcd13ifvqgrg","pricing_plan_id":"cebpf4jnsgd1na2vs0mg"},{"bike_id":"6e6a004b-462d-4b03-aeaa-2611256f0d89","system_id":"levelo_inurba_marseille","lat":43.28123,"lon":5.38934,"is_reserved":false,"is_disabled":true,"rental_uris":{"android":"levelo://app?vid=6e6a004b-462d-4b03-aeaa-2611256f0d89","ios":"levelo://app?vid=6e6a004b-462d-4b03-aeaa-2611256f0d89"},"vehicle_type_id":"4","last_reported":1734282450,"current_range_meters":0,"station_id":"","pricing_plan_id":"cebpf4jnsgd1na2vs0mg"},{"bike_id":"9fcc8d04-4bbb-4c91-8f22-6cfefd37673c","system_id":"levelo_inurba_marseille","lat":43.31759,"lon":5.39006,"is_reserved":false,"is_disabled":false,"rental_uris":{"android":"levelo://app?vid=9fcc8d04-4bbb-4c91-8f22-6cfefd37673c","ios":"levelo://app?vid=9fcc8d04-4bbb-4c91-8f22-6cfefd37673c"},"vehicle_type_id":"4","last_reported":1734282450,"current_range_meters":38800,"station_id":"ce4bhqp2rcd13ifvqhng","pricing_plan_id":"cebpf4jnsgd1na2vs0mg"},{"bike_id":"188d243c-71fc-4dde-99f6-e63166352cef","system_id":"levelo_inurba_marseille","lat":43.25865,"lon":5.39894,"is_reserved":false,"is_disabled":true,"rental_uris":{"android":"levelo://app?vid=188d243c-71fc-4dde-99f6-e63166352cef","ios":"levelo://app?vid=188d243c-71fc-4dde-99f6-e63166352cef"},"vehicle_type_id":"4","last_reported":1734282450,"current_range_meters":0,"station_id":"ce4bhl92rcd13ifvqghg","pricing_plan_id":"cebpf4jnsgd1na2vs0mg"},{"bike_id":"6e6f4587-edae-4313-a8bf-9edd860a59c1","system_id":"levelo_inurba_marseille","lat":43.30533,"lon":5.36711,"is_reserved":false,"is_disabled":false,"rental_uris":{"android":"levelo://app?vid=6e6f4587-edae-4313-a8bf-9edd860a59c1","ios":"levelo://app?vid=6e6f4587-edae-4313-a8bf-9edd860a59c1"},"vehicle_type_id":"4","last_reported":1734282450,"current_range_meters":32000,"station_id":"ce4bgrp2rcd13ifvqc9g","pricing_plan_id":"cebpf4jnsgd1na2vs0mg"},{"bike_id":"6011c616-b2da-4542-8172-f135e3f29a75","system_id":"levelo_inurba_marseille","lat":43.27981,"lon":5.40006,"is_reserved":false,"is_disabled":false,"rental_uris":{"android":"levelo://app?vid=6011c616-b2da-4542-8172-f135e3f29a75","ios":"levelo://app?vid=6011c616-b2da-4542-8172-f135e3f29a75"},"vehicle_type_id":"4","last_reported":1734282450,"current_range_meters":38000,"station_id":"ce4bho92rcd13ifvqh4g","pricing_plan_id":"cebpf4jnsgd1na2vs0mg"},{"bike_id":"9616fd55-4c98-45a6-93ed-8f123bfe36c6","system_id":"levelo_inurba_marseille","lat":43.25827,"lon":5.3942,"is_reserved":false,"is_disabled":true,"rental_uris":{"android":"levelo://app?vid=9616fd55-4c98-45a6-93ed-8f123bfe36c6","ios":"levelo://app?vid=9616fd55-4c98-45a6-93ed-8f123bfe36c6"},"vehicle_type_id":"4","last_reported":1734282450,"current_range_meters":0,"station_id":"ce4bhip2rcd13ifvqft0","pricing_plan_id":"cebpf4jnsgd1na2vs0mg"},{"bike_id":"31c3e16a-43dd-4a95-b119-7415d417a36b","system_id":"levelo_inurba_marseille","lat":43.29879,"lon":5.389,"is_reserved":false,"is_disabled":false,"rental_uris":{"android":"levelo://app?vid=31c3e16a-43dd-4a95-b119-7415d417a36b","ios":"levelo://app?vid=31c3e16a-43dd-4a95-b119-7415d417a36b"},"vehicle_type_id":"4","last_reported":1734282450,"current_range_meters":20000,"station_id":"ce4bh392rcd13ifvqdl0","pricing_plan_id":"cebpf4jnsgd1na2vs0mg"},{"bike_id":"64ada842-a804-4c74-8175-763c6716c405","system_id":"levelo_inurba_marseille","lat":43.25086,"lon":5.39514,"is_reserved":false,"is_disabled":false,"rental_uris":{"android":"levelo://app?vid=64ada842-a804-4c74-8175-763c6716c405","ios":"levelo://app?vid=64ada842-a804-4c74-8175-763c6716c405"},"vehicle_type_id":"4","last_reported":1734282450,"current_range_meters":24000,"station_id":"ce4bhm12rcd13ifvqgkg","pricing_plan_id":"cebpf4jnsgd1na2vs0mg"},{"bike_id":"8fa27199-c6ac-4024-96cf-b08f739ca067","system_id":"levelo_inurba_marseille","lat":43.26819,"lon":5.40257,"is_reserved":false,"is_disabled":false,"rental_uris":{"android":"levelo://app?vid=8fa27199-c6ac-4024-96cf-b08f739ca067","ios":"levelo://app?vid=8fa27199-c6ac-4024-96cf-b08f739ca067"},"vehicle_type_id":"4","last_reported":1734282450,"current_range_meters":38800,"station_id":"ce501612rcd8frsf0b60","pricing_plan_id":"cebpf4jnsgd1na2vs0mg"},{"bike_id":"b702a21c-f678-4385-b220-8531e5e77391","system_id":"levelo_inurba_marseille","lat":43.32548,"lon":5.41483,"is_reserved":false,"is_disabled":false,"rental_uris":{"android":"levelo://app?vid=b702a21c-f678-4385-b220-8531e5e77391","ios":"levelo://app?vid=b702a21c-f678-4385-b220-8531e5e77391"},"vehicle_type_id":"4","last_reported":1734282450,"current_range_meters":19600,"station_id":"ce4bhq12rcd13ifvqhhg","pricing_plan_id":"cebpf4jnsgd1na2vs0mg"},{"bike_id":"fc068487-74a4-42ca-8b38-11374be9b1cf","system_id":"levelo_inurba_marseille","lat":43.26553,"lon":5.39005,"is_reserved":false,"is_disabled":false,"rental_uris":{"android":"levelo://app?vid=fc068487-74a4-42ca-8b38-11374be9b1cf","ios":"levelo://app?vid=fc068487-74a4-42ca-8b38-11374be9b1cf"},"vehicle_type_id":"4","last_reported":1734282450,"current_range_meters":16400,"station_id":"ce4bhe12rcd13ifvqf30","pricing_plan_id":"cebpf4jnsgd1na2vs0mg"},{"bike_id":"2e1726d5-ee4a-4573-b6df-0c5b1f003763","system_id":"levelo_inurba_marseille","lat":43.30534,"lon":5.36538,"is_reserved":false,"is_disabled":false,"rental_uris":{"android":"levelo://app?vid=2e1726d5-ee4a-4573-b6df-0c5b1f003763","ios":"levelo://app?vid=2e1726d5-ee4a-4573-b6df-0c5b1f003763"},"vehicle_type_id":"4","last_reported":1734282450,"current_range_meters":24800,"station_id":"ce4bgs12rcd13ifvqcag","pricing_plan_id":"cebpf4jnsgd1na2vs0mg"},{"bike_id":"197e4aea-5140-46d3-8844-4fc5f5740ab9","system_id":"levelo_inurba_marseille","lat":43.23959,"lon":5.36629,"is_reserved":false,"is_disabled":false,"rental_uris":{"android":"levelo://app?vid=197e4aea-5140-46d3-8844-4fc5f5740ab9","ios":"levelo://app?vid=197e4aea-5140-46d3-8844-4fc5f5740ab9"},"vehicle_type_id":"4","last_reported":1734282450,"current_range_meters":28800,"station_id":"ce4bhi12rcd13ifvqfp0","pricing_plan_id":"cebpf4jnsgd1na2vs0mg"},{"bike_id":"fb2e4c77-1d13-4c3b-8f76-1774a110898d","system_id":"levelo_inurba_marseille","lat":43.24803,"lon":5.37458,"is_reserved":false,"is_disabled":false,"rental_uris":{"android":"levelo://app?vid=fb2e4c77-1d13-4c3b-8f76-1774a110898d","ios":"levelo://app?vid=fb2e4c77-1d13-4c3b-8f76-1774a110898d"},"vehicle_type_id":"4","last_reported":1734282450,"current_range_meters":38800,"station_id":"ce4bhgh2rcd13ifvqfb0","pricing_plan_id":"cebpf4jnsgd1na2vs0mg"},{"bike_id":"64106575-9d92-43f6-8e65-ecaf186aea91","system_id":"levelo_inurba_marseille","lat":43.24646,"lon":5.389101,"is_reserved":false,"is_disabled":false,"rental_uris":{"android":"levelo://app?vid=64106575-9d92-43f6-8e65-ecaf186aea91","ios":"levelo://app?vid=64106575-9d92-43f6-8e65-ecaf186aea91"},"vehicle_type_id":"4","last_reported":1734282450,"current_range_meters":32400,"station_id":"ce4bhg12rcd13ifvqf60","pricing_plan_id":"cebpf4jnsgd1na2vs0mg"},{"bike_id":"b1b540ca-acd2-4526-b318-dc755109f68f","system_id":"levelo_inurba_marseille","lat":43.24177,"lon":5.39714,"is_reserved":false,"is_disabled":false,"rental_uris":{"android":"levelo://app?vid=b1b540ca-acd2-4526-b318-dc755109f68f","ios":"levelo://app?vid=b1b540ca-acd2-4526-b318-dc755109f68f"},"vehicle_type_id":"4","last_reported":1734282450,"current_range_meters":25200,"station_id":"ce4bhn12rcd13ifvqgpg","pricing_plan_id":"cebpf4jnsgd1na2vs0mg"},{"bike_id":"191861ab-d1bf-437c-9b29-c60057a7eda0","system_id":"levelo_inurba_marseille","lat":43.25107,"lon":5.40319,"is_reserved":false,"is_disabled":false,"rental_uris":{"android":"levelo://app?vid=191861ab-d1bf-437c-9b29-c60057a7eda0","ios":"levelo://app?vid=191861ab-d1bf-437c-9b29-c60057a7eda0"},"vehicle_type_id":"4","last_reported":1734282450,"current_range_meters":31200,"station_id":"ce4bhlh2rcd13ifvqgig","pricing_plan_id":"cebpf4jnsgd1na2vs0mg"},{"bike_id":"0d865c5e-1155-470e-826e-fd4bc1c0a9f7","system_id":"levelo_inurba_marseille","lat":43.30156,"lon":5.38071,"is_reserved":false,"is_disabled":true,"rental_uris":{"android":"levelo://app?vid=0d865c5e-1155-470e-826e-fd4bc1c0a9f7","ios":"levelo://app?vid=0d865c5e-1155-470e-826e-fd4bc1c0a9f7"},"vehicle_type_id":"4","last_reported":1734282450,"current_range_meters":1600,"station_id":"ce4bgjp2rcd13ifvqbh0","pricing_plan_id":"cebpf4jnsgd1na2vs0mg"},{"bike_id":"78d4ffb5-23dc-4a58-b928-22c4131e43e9","system_id":"levelo_inurba_marseille","lat":43.29774,"lon":5.37097,"is_reserved":false,"is_disabled":false,"rental_uris":{"android":"levelo://app?vid=78d4ffb5-23dc-4a58-b928-22c4131e43e9","ios":"levelo://app?vid=78d4ffb5-23dc-4a58-b928-22c4131e43e9"},"vehicle_type_id":"4","last_reported":1734282450,"current_range_meters":38000,"station_id":"ce4bgop2rcd13ifvqc1g","pricing_plan_id":"cebpf4jnsgd1na2vs0mg"},{"bike_id":"36a7f188-9772-41cf-9d33-f77706270768","system_id":"levelo_inurba_marseille","lat":43.29575,"lon":5.39984,"is_reserved":false,"is_disabled":false,"rental_uris":{"android":"levelo://app?vid=36a7f188-9772-41cf-9d33-f77706270768","ios":"levelo://app?vid=36a7f188-9772-41cf-9d33-f77706270768"},"vehicle_type_id":"4","last_reported":1734282450,"current_range_meters":6000,"station_id":"ce4bh312rcd13ifvqdj0","pricing_plan_id":"cebpf4jnsgd1na2vs0mg"},{"bike_id":"aec2fe58-c5c3-4970-82a1-e928aac3f534","system_id":"levelo_inurba_marseille","lat":43.292007,"lon":5.39321,"is_reserved":false,"is_disabled":false,"rental_uris":{"android":"levelo://app?vid=aec2fe58-c5c3-4970-82a1-e928aac3f534","ios":"levelo://app?vid=aec2fe58-c5c3-4970-82a1-e928aac3f534"},"vehicle_type_id":"4","last_reported":1734282450,"current_range_meters":14000,"station_id":"ce4bh192rcd13ifvqdd0","pricing_plan_id":"cebpf4jnsgd1na2vs0mg"},{"bike_id":"0a162d1d-6fc8-4065-8327-a8ef918c4e33","system_id":"levelo_inurba_marseille","lat":43.29359,"lon":5.37854,"is_reserved":false,"is_disabled":true,"rental_uris":{"android":"levelo://app?vid=0a162d1d-6fc8-4065-8327-a8ef918c4e33","ios":"levelo://app?vid=0a162d1d-6fc8-4065-8327-a8ef918c4e33"},"vehicle_type_id":"4","last_reported":1734282450,"current_range_meters":38800,"station_id":"ce4bgjh2rcd13ifvqbf0","pricing_plan_id":"cebpf4jnsgd1na2vs0mg"},{"bike_id":"2c66e731-c044-4057-ba99-38aa63e029be","system_id":"levelo_inurba_marseille","lat":43.27969,"lon":5.396,"is_reserved":false,"is_disabled":false,"rental_uris":{"android":"levelo://app?vid=2c66e731-c044-4057-ba99-38aa63e029be","ios":"levelo://app?vid=2c66e731-c044-4057-ba99-38aa63e029be"},"vehicle_type_id":"4","last_reported":1734282450,"current_range_meters":14000,"station_id":"","pricing_plan_id":"cebpf4jnsgd1na2vs0mg"},{"bike_id":"8328b537-dfaa-4425-8227-cc200eea039c","system_id":"levelo_inurba_marseille","lat":43.29976,"lon":5.38488,"is_reserved":false,"is_disabled":false,"rental_uris":{"android":"levelo://app?vid=8328b537-dfaa-4425-8227-cc200eea039c","ios":"levelo://app?vid=8328b537-dfaa-4425-8227-cc200eea039c"},"vehicle_type_id":"4","last_reported":1734282450,"current_range_meters":24400,"station_id":"ce4bgj92rcd13ifvqbd0","pricing_plan_id":"cebpf4jnsgd1na2vs0mg"},{"bike_id":"fa20c4ef-750e-413e-b5e4-7e4c88477cd4","system_id":"levelo_inurba_marseille","lat":43.30596,"lon":5.39375,"is_reserved":false,"is_disabled":false,"rental_uris":{"android":"levelo://app?vid=fa20c4ef-750e-413e-b5e4-7e4c88477cd4","ios":"levelo://app?vid=fa20c4ef-750e-413e-b5e4-7e4c88477cd4"},"vehicle_type_id":"4","last_reported":1734282450,"current_range_meters":21600,"station_id":"ce4bh0p2rcd13ifvqd80","pricing_plan_id":"cebpf4jnsgd1na2vs0mg"},{"bike_id":"97d93b14-172e-49c6-87ff-8c9721c86cdb","system_id":"levelo_inurba_marseille","lat":43.30303,"lon":5.39202,"is_reserved":false,"is_disabled":false,"rental_uris":{"android":"levelo://app?vid=97d93b14-172e-49c6-87ff-8c9721c86cdb","ios":"levelo://app?vid=97d93b14-172e-49c6-87ff-8c9721c86cdb"},"vehicle_type_id":"4","last_reported":1734282450,"current_range_meters":14000,"station_id":"ce4bgkh2rcd13ifvqbk0","pricing_plan_id":"cebpf4jnsgd1na2vs0mg"},{"bike_id":"a04f9cd4-f0fe-4ae5-9f2d-366e3c9b7de2","system_id":"levelo_inurba_marseille","lat":43.27837,"lon":5.39208,"is_reserved":false,"is_disabled":false,"rental_uris":{"android":"levelo://app?vid=a04f9cd4-f0fe-4ae5-9f2d-366e3c9b7de2","ios":"levelo://app?vid=a04f9cd4-f0fe-4ae5-9f2d-366e3c9b7de2"},"vehicle_type_id":"4","last_reported":1734282450,"current_range_meters":12400,"station_id":"ce4bhjp2rcd13ifvqga0","pricing_plan_id":"cebpf4jnsgd1na2vs0mg"},{"bike_id":"ca3bf6a0-806c-4046-b219-bbea4c2ba646","system_id":"levelo_inurba_marseille","lat":43.23188,"lon":5.35539,"is_reserved":false,"is_disabled":false,"rental_uris":{"android":"levelo://app?vid=ca3bf6a0-806c-4046-b219-bbea4c2ba646","ios":"levelo://app?vid=ca3bf6a0-806c-4046-b219-bbea4c2ba646"},"vehicle_type_id":"4","last_reported":1734282450,"current_range_meters":39200,"station_id":"ce4bhu92rcd13ifvqi70","pricing_plan_id":"cebpf4jnsgd1na2vs0mg"},{"bike_id":"dddf63e6-a212-44b1-b146-e873e3f0725a","system_id":"levelo_inurba_marseille","lat":43.29254,"lon":5.38428,"is_reserved":false,"is_disabled":true,"rental_uris":{"android":"levelo://app?vid=dddf63e6-a212-44b1-b146-e873e3f0725a","ios":"levelo://app?vid=dddf63e6-a212-44b1-b146-e873e3f0725a"},"vehicle_type_id":"4","last_reported":1734282450,"current_range_meters":16400,"station_id":"ce4bh692rcd13ifvqea0","pricing_plan_id":"cebpf4jnsgd1na2vs0mg"},{"bike_id":"f899fe25-c462-4e5f-90d6-dc9402b06a1d","system_id":"levelo_inurba_marseille","lat":43.23965,"lon":5.36619,"is_reserved":false,"is_disabled":true,"rental_uris":{"android":"levelo://app?vid=f899fe25-c462-4e5f-90d6-dc9402b06a1d","ios":"levelo://app?vid=f899fe25-c462-4e5f-90d6-dc9402b06a1d"},"vehicle_type_id":"4","last_reported":1734282450,"current_range_meters":0,"station_id":"ce4bhi12rcd13ifvqfp0","pricing_plan_id":"cebpf4jnsgd1na2vs0mg"},{"bike_id":"46b2fdec-0870-4ae2-84dc-b1f57512351e","system_id":"levelo_inurba_marseille","lat":43.337444,"lon":5.374475,"is_reserved":false,"is_disabled":true,"rental_uris":{"android":"levelo://app?vid=46b2fdec-0870-4ae2-84dc-b1f57512351e","ios":"levelo://app?vid=46b2fdec-0870-4ae2-84dc-b1f57512351e"},"vehicle_type_id":"4","last_reported":1734282450,"current_range_meters":0,"station_id":"","pricing_plan_id":"cebpf4jnsgd1na2vs0mg"},{"bike_id":"e07f8927-8121-4133-911c-f4fdbcb240cf","system_id":"levelo_inurba_marseille","lat":43.33772,"lon":5.37438,"is_reserved":false,"is_disabled":true,"rental_uris":{"android":"levelo://app?vid=e07f8927-8121-4133-911c-f4fdbcb240cf","ios":"levelo://app?vid=e07f8927-8121-4133-911c-f4fdbcb240cf"},"vehicle_type_id":"4","last_reported":1734282450,"current_range_meters":0,"station_id":"","pricing_plan_id":"cebpf4jnsgd1na2vs0mg"},{"bike_id":"aa2e760a-eef2-4f58-8e26-2ebf842b9bd1","system_id":"levelo_inurba_marseille","lat":43.32487,"lon":5.36567,"is_reserved":false,"is_disabled":false,"rental_uris":{"android":"levelo://app?vid=aa2e760a-eef2-4f58-8e26-2ebf842b9bd1","ios":"levelo://app?vid=aa2e760a-eef2-4f58-8e26-2ebf842b9bd1"},"vehicle_type_id":"4","last_reported":1734282450,"current_range_meters":30800,"station_id":"ce4bhs12rcd13ifvqhvg","pricing_plan_id":"cebpf4jnsgd1na2vs0mg"},{"bike_id":"7a085569-7d10-4d67-9292-769b0d26aca9","system_id":"levelo_inurba_marseille","lat":43.27575,"lon":5.38417,"is_reserved":false,"is_disabled":false,"rental_uris":{"android":"levelo://app?vid=7a085569-7d10-4d67-9292-769b0d26aca9","ios":"levelo://app?vid=7a085569-7d10-4d67-9292-769b0d26aca9"},"vehicle_type_id":"4","last_reported":1734282450,"current_range_meters":17600,"station_id":"ce4bhh92rcd13ifvqfi0","pricing_plan_id":"cebpf4jnsgd1na2vs0mg"},{"bike_id":"e372c74b-60e2-4e9d-aab2-c98a566e944e","system_id":"levelo_inurba_marseille","lat":43.29213,"lon":5.37784,"is_reserved":false,"is_disabled":false,"rental_uris":{"android":"levelo://app?vid=e372c74b-60e2-4e9d-aab2-c98a566e944e","ios":"levelo://app?vid=e372c74b-60e2-4e9d-aab2-c98a566e944e"},"vehicle_type_id":"4","last_reported":1734282450,"current_range_meters":35200,"station_id":"","pricing_plan_id":"cebpf4jnsgd1na2vs0mg"},{"bike_id":"c43a4bbd-449a-4a7b-970a-32e611f6f689","system_id":"levelo_inurba_marseille","lat":43.29578,"lon":5.4,"is_reserved":false,"is_disabled":true,"rental_uris":{"android":"levelo://app?vid=c43a4bbd-449a-4a7b-970a-32e611f6f689","ios":"levelo://app?vid=c43a4bbd-449a-4a7b-970a-32e611f6f689"},"vehicle_type_id":"4","last_reported":1734282450,"current_range_meters":0,"station_id":"ce4bh312rcd13ifvqdj0","pricing_plan_id":"cebpf4jnsgd1na2vs0mg"},{"bike_id":"db67cb62-d627-40aa-936f-abecf0e36e49","system_id":"levelo_inurba_marseille","lat":43.30003,"lon":5.37359,"is_reserved":false,"is_disabled":false,"rental_uris":{"android":"levelo://app?vid=db67cb62-d627-40aa-936f-abecf0e36e49","ios":"levelo://app?vid=db67cb62-d627-40aa-936f-abecf0e36e49"},"vehicle_type_id":"4","last_reported":1734282450,"current_range_meters":9200,"station_id":"","pricing_plan_id":"cebpf4jnsgd1na2vs0mg"},{"bike_id":"e2953e25-2d6b-47e1-a6b3-18e2e46d801f","system_id":"levelo_inurba_marseille","lat":43.29708,"lon":5.36614,"is_reserved":false,"is_disabled":false,"rental_uris":{"android":"levelo://app?vid=e2953e25-2d6b-47e1-a6b3-18e2e46d801f","ios":"levelo://app?vid=e2953e25-2d6b-47e1-a6b3-18e2e46d801f"},"vehicle_type_id":"4","last_reported":1734282450,"current_range_meters":26000,"station_id":"ce4bgn12rcd13ifvqbt0","pricing_plan_id":"cebpf4jnsgd1na2vs0mg"},{"bike_id":"5dc9d6ce-c95c-4828-a188-0827680e1f2b","system_id":"levelo_inurba_marseille","lat":43.3086,"lon":5.43544,"is_reserved":false,"is_disabled":false,"rental_uris":{"android":"levelo://app?vid=5dc9d6ce-c95c-4828-a188-0827680e1f2b","ios":"levelo://app?vid=5dc9d6ce-c95c-4828-a188-0827680e1f2b"},"vehicle_type_id":"4","last_reported":1734282450,"current_range_meters":8400,"station_id":"ce4bhph2rcd13ifvqheg","pricing_plan_id":"cebpf4jnsgd1na2vs0mg"},{"bike_id":"c3fe700f-5ffd-415d-9b64-9ccc5c8660bc","system_id":"levelo_inurba_marseille","lat":43.27989,"lon":5.41085,"is_reserved":false,"is_disabled":true,"rental_uris":{"android":"levelo://app?vid=c3fe700f-5ffd-415d-9b64-9ccc5c8660bc","ios":"levelo://app?vid=c3fe700f-5ffd-415d-9b64-9ccc5c8660bc"},"vehicle_type_id":"4","last_reported":1734282450,"current_range_meters":37600,"station_id":"ce4bhnp2rcd13ifvqh0g","pricing_plan_id":"cebpf4jnsgd1na2vs0mg"},