{"last_updated":1743800912,"ttl":60,"version":"2.2","data":{"bikes":[{"bike_id":"def02aca-3531-4366-b533-bf48bf766008","system_id":"levelo_inurba_marseille","lat":43.25107,"lon":5.40321,"is_reserved":false,"is_disabled":true,"rental_uris":{"android":"levelo://app?vid=def02aca-3531-4366-b533-bf48bf766008","ios":"levelo://app?vid=def02aca-3531-4366-b533-bf48bf766008"},"vehicle_type_id":"4","last_reported":1743800912,"current_range_meters":2800,"station_id":"ce4bhlh2rcd13ifvqgig","pricing_plan_id":"cebpf4jnsgd1na2vs0mg"},{"bike_id":"ec291039-958f-42a5-b524-987cefc1c12c","system_id":"levelo_inurba_marseille","lat":43.32106,"lon":5.36768,"is_reserved":false,"is_disabled":false,"rental_uris":{"android":"levelo://app?vid=ec291039-958f-42a5-b524-987cefc1c12c","ios":"levelo://app?vid=ec291039-958f-42a5-b524-987cefc1c12c"},"vehicle_type_id":"4","last_reported":1743800912,"current_range_meters":2800,"station_id":"ce4bhrh2rcd13ifvqhug","pricing_plan_id":"cebpf4jnsgd1na2vs0mg"},{"bike_id":"61cac26c-62d7-419b-b778-ba2a4be6fb05","system_id":"levelo_inurba_marseille","lat":43.33123,"lon":5.39228,"is_reserved":false,"is_disabled":false,"rental_uris":{"android":"levelo://app?vid=61cac26c-62d7-419b-b778-ba2a4be6fb05","ios":"levelo://app?vid=61cac26c-62d7-419b-b778-ba2a4be6fb05"},"vehicle_type_id":"4","last_reported":1743800912,"current_range_meters":3200,"station_id":"","pricing_plan_id":"cebpf4jnsgd1na2vs0mg"},{"bike_id":"010da739-2aa2-4f13-bc01-37ee668aae26","system_id":"levelo_inurba_marseille","lat":43.28154,"lon":5.42648,"is_reserved":false,"is_disabled":true,"rental_uris":{"android":"levelo://app?vid=010da739-2aa2-4f13-bc01-37ee668aae26","ios":"levelo://app?vid=010da739-2aa2-4f13-bc01-37ee668aae26"},"vehicle_type_id":"4","last_reported":1743800912,"current_range_meters":3200,"station_id":"ce4bhnh2rcd13ifvqgug","pricing_plan_id":"cebpf4jnsgd1na2vs0mg"},{"bike_id":"72211047-1029-41ad-a478-6f5ab1004e04","system_id":"levelo_inurba_marseille","lat":43.3148,"lon":5.37285,"is_reserved":false,"is_disabled":false,"rental_uris":{"android":"levelo://app?vid=72211047-1029-41ad-a478-6f5ab1004e04","ios":"levelo://app?vid=72211047-1029-41ad-a478-6f5ab1004e04"},"vehicle_type_id":"4","last_reported":1743800912,"current_range_meters":3600,"station_id":"ce4bgt12rcd13ifvqcd0","pricing_plan_id":"cebpf4jnsgd1na2vs0mg"},{"bike_id":"daa3cb4a-7e43-467e-b4ac-55f94a8c9cc3","system_id":"levelo_inurba_marseille","lat":43.308933,"lon":5.382,"is_reserved":false,"is_disabled":false,"rental_uris":{"android":"levelo://app?vid=daa3cb4a-7e43-467e-b4ac-55f94a8c9cc3","ios":"levelo://app?vid=daa3cb4a-7e43-467e-b4ac-55f94a8c9cc3"},"vehicle_type_id":"4","last_reported":1743800912,"current_range_meters":3600,"station_id":"ce4bgt12rcd13ifvqce0","pricing_plan_id":"cebpf4jnsgd1na2vs0mg"},{"bike_id":"5056df64-e3ba-472c-9c97-478822a150da","system_id":"levelo_inurba_marseille","lat":43.29427,"lon":5.3862,"is_reserved":false,"is_disabled":false,"rental_uris":{"android":"levelo://app?vid=5056df64-e3ba-472c-9c97-478822a150da","ios":"levelo://app?vid=5056df64-e3ba-472c-9c97-478822a150da"},"vehicle_type_id":"4","last_reported":1743800912,"current_range_meters":3600,"station_id":"ce4bh2h2rcd13ifvqdh0","pricing_plan_id":"cebpf4jnsgd1na2vs0mg"},{"bike_id":"cd83c8ac-ed09-4369-9279-b6f36f2bbd3c","system_id":"levelo_inurba_marseille","lat":43.30837,"lon":5.38172,"is_reserved":false,"is_disabled":false,"rental_uris":{"android":"levelo://app?vid=cd83c8ac-ed09-4369-9279-b6f36f2bbd3c","ios":"levelo://app?vid=cd83c8ac-ed09-4369-9279-b6f36f2bbd3c"},"vehicle_type_id":"4","last_reported":1743800912,"current_range_meters":3600,"station_id":"ce4bgt12rcd13ifvqce0","pricing_plan_id":"cebpf4jnsgd1na2vs0mg"},{"bike_id":"3e6f4005-5c84-4eeb-bcad-7b887ae8b38a","system_id":"levelo_inurba_marseille","lat":43.29784,"lon":5.3935,"is_reserved":false,"is_disabled":false,"rental_uris":{"android":"levelo://app?vid=3e6f4005-5c84-4eeb-bcad-7b887ae8b38a","ios":"levelo://app?vid=3e6f4005-5c84-4eeb-bcad-7b887ae8b38a"},"vehicle_type_id":"4","last_reported":1743800912,"current_range_meters":4000,"station_id":"chh1huq6cuj3fo74tm60","pricing_plan_id":"cebpf4jnsgd1na2vs0mg"},{"bike_id":"a848eab8-c216-49d4-a987-409d915ffa16","system_id":"levelo_inurba_marseille","lat":43.29262,"lon":5.36841,"is_reserved":false,"is_disabled":false,"rental_uris":{"android":"levelo://app?vid=a848eab8-c216-49d4-a987-409d915ffa16","ios":"levelo://app?vid=a848eab8-c216-49d4-a987-409d915ffa16"},"vehicle_type_id":"4","last_reported":1743800912,"current_range_meters":4000,"station_id":"ce4bhbp2rcd13ifvqesg","pricing_plan_id":"cebpf4jnsgd1na2vs0mg"},{"bike_id":"bde1f1b3-81ad-425f-9927-85aafa72ea01","system_id":"levelo_inurba_marseille","lat":43.30295,"lon":5.36913,"is_reserved":false,"is_disabled":false,"rental_uris":{"android":"levelo://app?vid=bde1f1b3-81ad-425f-9927-85aafa72ea01","ios":"levelo://app?vid=bde1f1b3-81ad-425f-9927-85aafa72ea01"},"vehicle_type_id":"4","last_reported":1743800912,"current_range_meters":4000,"station_id":"ce4bgqh2rcd13ifvqc5g","pricing_plan_id":"cebpf4jnsgd1na2vs0mg"},{"bike_id":"36d63c9b-5025-4d40-ae5b-ee39a1a41ec7","system_id":"levelo_inurba_marseille","lat":43.29895,"lon":5.38141,"is_reserved":false,"is_disabled":false,"rental_uris":{"android":"levelo://app?vid=36d63c9b-5025-4d40-ae5b-ee39a1a41ec7","ios":"levelo://app?vid=36d63c9b-5025-4d40-ae5b-ee39a1a41ec7"},"vehicle_type_id":"4","last_reported":1743800912,"current_range_meters":4000,"station_id":"ce4bgj12rcd13ifvqbc0","pricing_plan_id":"cebpf4jnsgd1na2vs0mg"},{"bike_id":"e60af452-0309-47e8-b65e-6870176f60fa","system_id":"levelo_inurba_marseille","lat":43.30878,"lon":5.39654,"is_reserved":false,"is_disabled":false,"rental_uris":{"android":"levelo://app?vid=e60af452-0309-47e8-b65e-6870176f60fa","ios":"levelo://app?vid=e60af452-0309-47e8-b65e-6870176f60fa"},"vehicle_type_id":"4","last_reported":1743800912,"current_range_meters":4000,"station_id":"ce4bh012rcd13ifvqcv0","pricing_plan_id":"cebpf4jnsgd1na2vs0mg"},{"bike_id":"036f3044-256d-4aaa-b72b-30b226e18e41","system_id":"levelo_inurba_marseille","lat":43.28115,"lon":5.39901,"is_reserved":false,"is_disabled":false,"rental_uris":{"android":"levelo://app?vid=036f3044-256d-4aaa-b72b-30b226e18e41","ios":"levelo://app?vid=036f3044-256d-4aaa-b72b-30b226e18e41"},"vehicle_type_id":"4","last_reported":1743800912,"current_range_meters":4400,"station_id":"","pricing_plan_id":"cebpf4jnsgd1na2vs0mg"},{"bike_id":"6b311584-09b9-4ac0-83c1-0b9f076ffe33","system_id":"levelo_inurba_marseille","lat":43.29018,"lon":5.3813,"is_reserved":false,"is_disabled":false,"rental_uris":{"android":"levelo://app?vid=6b311584-09b9-4ac0-83c1-0b9f076ffe33","ios":"levelo://app?vid=6b311584-09b9-4ac0-83c1-0b9f076ffe33"},"vehicle_type_id":"4","last_reported":1743800912,"current_range_meters":4800,"station_id":"ce4bh4p2rcd13ifvqe1g","pricing_plan_id":"cebpf4jnsgd1na2vs0mg"},{"bike_id":"702bb251-80e8-4ecd-b65e-603fa6910b57","system_id":"levelo_inurba_marseille","lat":43.30944,"lon":5.39014,"is_reserved":false,"is_disabled":false,"rental_uris":{"android":"levelo://app?vid=702bb251-80e8-4ecd-b65e-603fa6910b57","ios":"levelo://app?vid=702bb251-80e8-4ecd-b65e-603fa6910b57"},"vehicle_type_id":"4","last_reported":1743800912,"current_range_meters":4800,"station_id":"ce4bgup2rcd13ifvqco0","pricing_plan_id":"cebpf4jnsgd1na2vs0mg"},{"bike_id":"37fe0771-4408-4241-8319-53a56336168f","system_id":"levelo_inurba_marseille","lat":43.28657,"lon":5.36345,"is_reserved":false,"is_disabled":false,"rental_uris":{"android":"levelo://app?vid=37fe0771-4408-4241-8319-53a56336168f","ios":"levelo://app?vid=37fe0771-4408-4241-8319-53a56336168f"},"vehicle_type_id":"4","last_reported":1743800912,"current_range_meters":4800,"station_id":"ce4bhah2rcd13ifvqej0","pricing_plan_id":"cebpf4jnsgd1na2vs0mg"},{"bike_id":"9b33541f-e853-4f9d-bbc2-c1f6b0a10edc","system_id":"levelo_inurba_marseille","lat":43.32097,"lon":5.36766,"is_reserved":false,"is_disabled":false,"rental_uris":{"android":"levelo://app?vid=9b33541f-e853-4f9d-bbc2-c1f6b0a10edc","ios":"levelo://app?vid=9b33541f-e853-4f9d-bbc2-c1f6b0a10edc"},"vehicle_type_id":"4","last_reported":1743800912,"current_range_meters":4800,"station_id":"ce4bhrh2rcd13ifvqhug","pricing_plan_id":"cebpf4jnsgd1na2vs0mg"},{"bike_id":"f23d08a4-1422-42d4-826d-3093477300ba","system_id":"levelo_inurba_marseille","lat":43.27993,"lon":5.41661,"is_reserved":false,"is_disabled":true,"rental_uris":{"android":"levelo://app?vid=f23d08a4-1422-42d4-826d-3093477300ba","ios":"levelo://app?vid=f23d08a4-1422-42d4-826d-3093477300ba"},"vehicle_type_id":"4","last_reported":1743800912,"current_range_meters":4800,"station_id":"ce4bho12rcd13ifvqh1g","pricing_plan_id":"cebpf4jnsgd1na2vs0mg"},{"bike_id":"4f7ffa28-ce7b-411b-8614-81efc44cd686","system_id":"levelo_inurba_marseille","lat":43.2894,"lon":5.36645,"is_reserved":false,"is_disabled":false,"rental_uris":{"android":"levelo://app?vid=4f7ffa28-ce7b-411b-8614-81efc44cd686","ios":"levelo://app?vid=4f7ffa28-ce7b-411b-8614-81efc44cd686"},"vehicle_type_id":"4","last_reported":1743800912,"current_range_meters":5600,"station_id":"ce4bhap2rcd13ifvqek0","pricing_plan_id":"cebpf4jnsgd1na2vs0mg"},{"bike_id":"16aa3ad7-bf85-4d4b-ad5b-a965d4038764","system_id":"levelo_inurba_marseille","lat":43.31241,"lon":5.37463,"is_reserved":false,"is_disabled":false,"rental_uris":{"android":"levelo://app?vid=16aa3ad7-bf85-4d4b-ad5b-a965d4038764","ios":"levelo://app?vid=16aa3ad7-bf85-4d4b-ad5b-a965d4038764"},"vehicle_type_id":"4","last_reported":1743800912,"current_range_meters":5600,"station_id":"","pricing_plan_id":"cebpf4jnsgd1na2vs0mg"},{"bike_id":"c13336a2-47ce-488c-b5b6-77c01a3ac1d1","system_id":"levelo_inurba_marseille","lat":43.318964,"lon":5.40738,"is_reserved":false,"is_disabled":true,"rental_uris":{"android":"levelo://app?vid=c13336a2-47ce-488c-b5b6-77c01a3ac1d1","ios":"levelo://app?vid=c13336a2-47ce-488c-b5b6-77c01a3ac1d1"},"vehicle_type_id":"4","last_reported":1743800912,"current_range_meters":5600,"station_id":"ce4bhq12rcd13ifvqhig","pricing_plan_id":"cebpf4jnsgd1na2vs0mg"},{"bike_id":"715eff50-001a-413a-8e2d-3344911b1ca7","system_id":"levelo_inurba_marseille","lat":43.33332,"lon":5.3986,"is_reserved":false,"is_disabled":false,"rental_uris":{"android":"levelo://app?vid=715eff50-001a-413a-8e2d-3344911b1ca7","ios":"levelo://app?vid=715eff50-001a-413a-8e2d-3344911b1ca7"},"vehicle_type_id":"4","last_reported":1743800912,"current_range_meters":5600,"station_id":"","pricing_plan_id":"cebpf4jnsgd1na2vs0mg"},{"bike_id":"b7cad2ff-382b-4685-81ce-34d0d43d7617","system_id":"levelo_inurba_marseille","lat":43.30375,"lon":5.42487,"is_reserved":false,"is_disabled":false,"rental_uris":{"android":"levelo://app?vid=b7cad2ff-382b-4685-81ce-34d0d43d7617","ios":"levelo://app?vid=b7cad2ff-382b-4685-81ce-34d0d43d7617"},"vehicle_type_id":"4","last_reported":1743800912,"current_range_meters":6000,"station_id":"ce4bhoh2rcd13ifvqh6g","pricing_plan_id":"cebpf4jnsgd1na2vs0mg"},{"bike_id":"e3a29d38-a611-4b12-87ef-2fb8a21c41d5","system_id":"levelo_inurba_marseille","lat":43.22928,"lon":5.3537,"is_reserved":false,"is_disabled":false,"rental_uris":{"android":"levelo://app?vid=e3a29d38-a611-4b12-87ef-2fb8a21c41d5","ios":"levelo://app?vid=e3a29d38-a611-4b12-87ef-2fb8a21c41d5"},"vehicle_type_id":"4","last_reported":1743800912,"current_range_meters":6000,"station_id":"cpo3532slgdg3j2ikp40","pricing_plan_id":"cebpf4jnsgd1na2vs0mg"},{"bike_id":"417bc43e-857a-4681-ae12-00136b423cf0","system_id":"levelo_inurba_marseille","lat":43.26678,"lon":5.38264,"is_reserved":false,"is_disabled":false,"rental_uris":{"android":"levelo://app?vid=417bc43e-857a-4681-ae12-00136b423cf0","ios":"levelo://app?vid=417bc43e-857a-4681-ae12-00136b423cf0"},"vehicle_type_id":"4","last_reported":1743800912,"current_range_meters":6000,"station_id":"ce4bhg92rcd13ifvqf90","pricing_plan_id":"cebpf4jnsgd1na2vs0mg"},{"bike_id":"0358690e-9923-4fe2-af3a-7ab4c22bc07b","system_id":"levelo_inurba_marseille","lat":43.301356,"lon":5.398713,"is_reserved":false,"is_disabled":false,"rental_uris":{"android":"levelo://app?vid=0358690e-9923-4fe2-af3a-7ab4c22bc07b","ios":"levelo://app?vid=0358690e-9923-4fe2-af3a-7ab4c22bc07b"},"vehicle_type_id":"4","last_reported":1743800912,"current_range_meters":6000,"station_id":"ce4bh0h2rcd13ifvqd40","pricing_plan_id":"cebpf4jnsgd1na2vs0mg"},{"bike_id":"b7a31e78-bd06-4fd4-b042-99934a7c4aa4","system_id":"levelo_inurba_marseille","lat":43.2902,"lon":5.3757,"is_reserved":false,"is_disabled":false,"rental_uris":{"android":"levelo://app?vid=b7a31e78-bd06-4fd4-b042-99934a7c4aa4","ios":"levelo://app?vid=b7a31e78-bd06-4fd4-b042-99934a7c4aa4"},"vehicle_type_id":"4","last_reported":1743800912,"current_range_meters":6000,"station_id":"ce4bh692rcd13ifvqe90","pricing_plan_id":"cebpf4jnsgd1na2vs0mg"},{"bike_id":"00c4f5f4-d226-4082-a738-5a8022e9f20f","system_id":"levelo_inurba_marseille","lat":43.28932,"lon":5.36618,"is_reserved":false,"is_disabled":false,"rental_uris":{"android":"levelo://app?vid=00c4f5f4-d226-4082-a738-5a8022e9f20f","ios":"levelo://app?vid=00c4f5f4-d226-4082-a738-5a8022e9f20f"},"vehicle_type_id":"4","last_reported":1743800912,"current_range_meters":6400,"station_id":"ce4bhap2rcd13ifvqek0","pricing_plan_id":"cebpf4jnsgd1na2vs0mg"},{"bike_id":"d43eadae-2d8d-434c-bb04-4ef14e40a738","system_id":"levelo_inurba_marseille","lat":43.29027,"lon":5.38146,"is_reserved":false,"is_disabled":false,"rental_uris":{"android":"levelo://app?vid=d43eadae-2d8d-434c-bb04-4ef14e40a738","ios":"levelo://app?vid=d43eadae-2d8d-434c-bb04-4ef14e40a738"},"vehicle_type_id":"4","last_reported":1743800912,"current_range_meters":6400,"station_id":"ce4bh4p2rcd13ifvqe1g","pricing_plan_id":"cebpf4jnsgd1na2vs0mg"},{"bike_id":"fdf6d740-6479-448d-a70e-c06d4116cf05","system_id":"levelo_inurba_marseille","lat":43.29874,"lon":5.39734,"is_reserved":false,"is_disabled":false,"rental_uris":{"android":"levelo://app?vid=fdf6d740-6479-448d-a70e-c06d4116cf05","ios":"levelo://app?vid=fdf6d740-6479-448d-a70e-c06d4116cf05"},"vehicle_type_id":"4","last_reported":1743800912,"current_range_meters":6400,"station_id":"ce4bh0h2rcd13ifvqd50","pricing_plan_id":"cebpf4jnsgd1na2vs0mg"},{"bike_id":"4f4c25df-6626-421d-848c-02d788477ef3","system_id":"levelo_inurba_marseille","lat":43.31491,"lon":5.37302,"is_reserved":false,"is_disabled":false,"rental_uris":{"android":"levelo://app?vid=4f4c25df-6626-421d-848c-02d788477ef3","ios":"levelo://app?vid=4f4c25df-6626-421d-848c-02d788477ef3"},"vehicle_type_id":"4","last_reported":1743800912,"current_range_meters":6800,"station_id":"ce4bgt12rcd13ifvqcd0","pricing_plan_id":"cebpf4jnsgd1na2vs0mg"},{"bike_id":"84e7ffb4-cb25-4d17-8c82-94cc06383329","system_id":"levelo_inurba_marseille","lat":43.29298,"lon":5.37441,"is_reserved":false,"is_disabled":false,"rental_uris":{"android":"levelo://app?vid=84e7ffb4-cb25-4d17-8c82-94cc06383329","ios":"levelo://app?vid=84e7ffb4-cb25-4d17-8c82-94cc06383329"},"vehicle_type_id":"4","last_reported":1743800912,"current_range_meters":6800,"station_id":"ce4bgi12rcd13ifvqb70","pricing_plan_id":"cebpf4jnsgd1na2vs0mg"},{"bike_id":"0e88f134-2423-4b08-bc3c-5f7a38937552","system_id":"levelo_inurba_marseille","lat":43.23179,"lon":5.39978,"is_reserved":false,"is_disabled":false,"rental_uris":{"android":"levelo://app?vid=0e88f134-2423-4b08-bc3c-5f7a38937552","ios":"levelo://app?vid=0e88f134-2423-4b08-bc3c-5f7a38937552"},"vehicle_type_id":"4","last_reported":1743800912,"current_range_meters":6800,"station_id":"ce4bhn12rcd13ifvqgqg","pricing_plan_id":"cebpf4jnsgd1na2vs0mg"},{"bike_id":"d85e8c92-9f3e-4649-b522-3bd939159139","system_id":"levelo_inurba_marseille","lat":43.29416,"lon":5.38626,"is_reserved":false,"is_disabled":false,"rental_uris":{"android":"levelo://app?vid=d85e8c92-9f3e-4649-b522-3bd939159139","ios":"levelo://app?vid=d85e8c92-9f3e-4649-b522-3bd939159139"},"vehicle_type_id":"4","last_reported":1743800912,"current_range_meters":6800,"station_id":"ce4bh2h2rcd13ifvqdh0","pricing_plan_id":"cebpf4jnsgd1na2vs0mg"},{"bike_id":"e83cf00d-33f5-4474-93e7-8c3d7a9fe7b6","system_id":"levelo_inurba_marseille","lat":43.29425,"lon":5.3864,"is_reserved":false,"is_disabled":false,"rental_uris":{"android":"levelo://app?vid=e83cf00d-33f5-4474-93e7-8c3d7a9fe7b6","ios":"levelo://app?vid=e83cf00d-33f5-4474-93e7-8c3d7a9fe7b6"},"vehicle_type_id":"4","last_reported":1743800912,"current_range_meters":6800,"station_id":"ce4bh2h2rcd13ifvqdh0","pricing_plan_id":"cebpf4jnsgd1na2vs0mg"},{"bike_id":"213cdce6-52c0-4000-a278-3951345bad4c","system_id":"levelo_inurba_marseille","lat":43.2925,"lon":5.38431,"is_reserved":false,"is_disabled":false,"rental_uris":{"android":"levelo://app?vid=213cdce6-52c0-4000-a278-3951345bad4c","ios":"levelo://app?vid=213cdce6-52c0-4000-a278-3951345bad4c"},"vehicle_type_id":"4","last_reported":1743800912,"current_range_meters":6800,"station_id":"ce4bh692rcd13ifvqea0","pricing_plan_id":"cebpf4jnsgd1na2vs0mg"},{"bike_id":"d76832c4-3604-4de9-b7a5-182f7c6e995c","system_id":"levelo_inurba_marseille","lat":43.31379,"lon":5.38492,"is_reserved":false,"is_disabled":true,"rental_uris":{"android":"levelo://app?vid=d76832c4-3604-4de9-b7a5-182f7c6e995c","ios":"levelo://app?vid=d76832c4-3604-4de9-b7a5-182f7c6e995c"},"vehicle_type_id":"4","last_reported":1743800912,"current_range_meters":6800,"station_id":"ce4bgt92rcd13ifvqcf0","pricing_plan_id":"cebpf4jnsgd1na2vs0mg"},{"bike_id":"6d0c6b41-3878-4fe4-8958-b1a2252283e9","system_id":"levelo_inurba_marseille","lat":43.25818,"lon":5.39436,"is_reserved":false,"is_disabled":false,"rental_uris":{"android":"levelo://app?vid=6d0c6b41-3878-4fe4-8958-b1a2252283e9","ios":"levelo://app?vid=6d0c6b41-3878-4fe4-8958-b1a2252283e9"},"vehicle_type_id":"4","last_reported":1743800912,"current_range_meters":6800,"station_id":"ce4bhip2rcd13ifvqft0","pricing_plan_id":"cebpf4jnsgd1na2vs0mg"},{"bike_id":"6e7e8bd0-971a-4bf5-a521-0d1053f36753","system_id":"levelo_inurba_marseille","lat":43.31076,"lon":5.42442,"is_reserved":false,"is_disabled":true,"rental_uris":{"android":"levelo://app?vid=6e7e8bd0-971a-4bf5-a521-0d1053f36753","ios":"levelo://app?vid=6e7e8bd0-971a-4bf5-a521-0d1053f36753"},"vehicle_type_id":"4","last_reported":1743800912,"current_range_meters":6800,"station_id":"ce4bhp92rcd13ifvqhag","pricing_plan_id":"cebpf4jnsgd1na2vs0mg"},{"bike_id":"26a9400e-71cd-45c6-9211-9781e64f8fa6","system_id":"levelo_inurba_marseille","lat":43.286,"lon":5.37062,"is_reserved":false,"is_disabled":false,"rental_uris":{"android":"levelo://app?vid=26a9400e-71cd-45c6-9211-9781e64f8fa6","ios":"levelo://app?vid=26a9400e-71cd-45c6-9211-9781e64f8fa6"},"vehicle_type_id":"4","last_reported":1743800912,"current_range_meters":7200,"station_id":"ce4bht12rcd13ifvqi60","pricing_plan_id":"cebpf4jnsgd1na2vs0mg"},{"bike_id":"1049ba71-fb41-4dc5-8c5a-67fbc6fe8421","system_id":"levelo_inurba_marseille","lat":43.25488,"lon":5.37673,"is_reserved":false,"is_disabled":true,"rental_uris":{"android":"levelo://app?vid=1049ba71-fb41-4dc5-8c5a-67fbc6fe8421","ios":"levelo://app?vid=1049ba71-fb41-4dc5-8c5a-67fbc6fe8421"},"vehicle_type_id":"4","last_reported":1743800912,"current_range_meters":7200,"station_id":"ce4bhh12rcd13ifvqff0","pricing_plan_id":"cebpf4jnsgd1na2vs0mg"},{"bike_id":"908b5a48-c991-459d-8edc-39a6ce48f51f","system_id":"levelo_inurba_marseille","lat":43.32097,"lon":5.36779,"is_reserved":false,"is_disabled":false,"rental_uris":{"android":"levelo://app?vid=908b5a48-c991-459d-8edc-39a6ce48f51f","ios":"levelo://app?vid=908b5a48-c991-459d-8edc-39a6ce48f51f"},"vehicle_type_id":"4","last_reported":1743800912,"current_range_meters":7200,"station_id":"ce4bhrh2rcd13ifvqhug","pricing_plan_id":"cebpf4jnsgd1na2vs0mg"},{"bike_id":"2e32be2c-9558-4a51-9c65-01dcf333a88b","system_id":"levelo_inurba_marseille","lat":43.29127,"lon":5.37765,"is_reserved":false,"is_disabled":false,"rental_uris":{"android":"levelo://app?vid=2e32be2c-9558-4a51-9c65-01dcf333a88b","ios":"levelo://app?vid=2e32be2c-9558-4a51-9c65-01dcf333a88b"},"vehicle_type_id":"4","last_reported":1743800912,"current_range_meters":7200,"station_id":"ce4bhi12rcd13ifvqfp0","pricing_plan_id":"cebpf4jnsgd1na2vs0mg"},{"bike_id":"8000b6f1-7cfd-4691-b56c-a9d74cd98f38","system_id":"levelo_inurba_marseille","lat":43.292786,"lon":5.368439,"is_reserved":false,"is_disabled":false,"rental_uris":{"android":"levelo://app?vid=8000b6f1-7cfd-4691-b56c-a9d74cd98f38","ios":"levelo://app?vid=8000b6f1-7cfd-4691-b56c-a9d74cd98f38"},"vehicle_type_id":"4","last_reported":1743800912,"current_range_meters":7200,"station_id":"ce4bhbp2rcd13ifvqesg","pricing_plan_id":"cebpf4jnsgd1na2vs0mg"},{"bike_id":"1314e27e-2011-45ad-b8e0-a3faba718da1","system_id":"levelo_inurba_marseille","lat":43.33304,"lon":5.39753,"is_reserved":false,"is_disabled":false,"rental_uris":{"android":"levelo://app?vid=1314e27e-2011-45ad-b8e0-a3faba718da1","ios":"levelo://app?vid=1314e27e-2011-45ad-b8e0-a3faba718da1"},"vehicle_type_id":"4","last_reported":1743800912,"current_range_meters":7200,"station_id":"","pricing_plan_id":"cebpf4jnsgd1na2vs0mg"},{"bike_id":"5f46717b-05d1-4f34-a220-8087932d755b","system_id":"levelo_inurba_marseille","lat":43.3009,"lon":5.36916,"is_reserved":false,"is_disabled":false,"rental_uris":{"android":"levelo://app?vid=5f46717b-05d1-4f34-a220-8087932d755b","ios":"levelo://app?vid=5f46717b-05d1-4f34-a220-8087932d755b"},"vehicle_type_id":"4","last_reported":1743800912,"current_range_meters":7200,"station_id":"","pricing_plan_id":"cebpf4jnsgd1na2vs0mg"},{"bike_id":"8a6c6f3e-a0ca-426b-926a-9bac537f3981","system_id":"levelo_inurba_marseille","lat":43.31497,"lon":5.37271,"is_reserved":false,"is_disabled":false,"rental_uris":{"android":"levelo://app?vid=8a6c6f3e-a0ca-426b-926a-9bac537f3981","ios":"levelo://app?vid=8a6c6f3e-a0ca-426b-926a-9bac537f3981"},"vehicle_type_id":"4","last_reported":1743800912,"current_range_meters":8000,"station_id":"ce4bgt12rcd13ifvqcd0","pricing_plan_id":"cebpf4jnsgd1na2vs0mg"},{"bike_id":"75f1cf7a-3a29-4a97-a809-c38df5c46323","system_id":"levelo_inurba_marseille","lat":43.29246,"lon":5.38433,"is_reserved":false,"is_disabled":false,"rental_uris":{"android":"levelo://app?vid=75f1cf7a-3a29-4a97-a809-c38df5c46323","ios":"levelo://app?vid=75f1cf7a-3a29-4a97-a809-c38df5c46323"},"vehicle_type_id":"4","last_reported":1743800912,"current_range_meters":8000,"station_id":"ce4bh692rcd13ifvqea0","pricing_plan_id":"cebpf4jnsgd1na2vs0mg"},{"bike_id":"69c0db05-6ded-4dc6-9720-2452c83c1020","system_id":"levelo_inurba_marseille","lat":43.22947,"lon":5.35398,"is_reserved":false,"is_disabled":false,"rental_uris":{"android":"levelo://app?vid=69c0db05-6ded-4dc6-9720-2452c83c1020","ios":"levelo://app?vid=69c0db05-6ded-4dc6-9720-2452c83c1020"},"vehicle_type_id":"4","last_reported":1743800912,"current_range_meters":8000,"station_id":"cpo3532slgdg3j2ikp40","pricing_plan_id":"cebpf4jnsgd1na2vs0mg"},{"bike_id":"99b2888b-2638-45cd-b867-4be41ddf6edd","system_id":"levelo_inurba_marseille","lat":43.299289,"lon":5.381544,"is_reserved":false,"is_disabled":false,"rental_uris":{"android":"levelo://app?vid=99b2888b-2638-45cd-b867-4be41ddf6edd","ios":"levelo://app?vid=99b2888b-2638-45cd-b867-4be41ddf6edd"},"vehicle_type_id":"4","last_reported":1743800912,"current_range_meters":8000,"station_id":"ce4bgj92rcd13ifvqbe0","pricing_plan_id":"cebpf4jnsgd1na2vs0mg"},{"bike_id":"8a526347-100b-49fd-a458-e9e10b3c7fc4","system_id":"levelo_inurba_marseille","lat":43.30791,"lon":5.43532,"is_reserved":false,"is_disabled":false,"rental_uris":{"android":"levelo://app?vid=8a526347-100b-49fd-a458-e9e10b3c7fc4","ios":"levelo://app?vid=8a526347-100b-49fd-a458-e9e10b3c7fc4"},"vehicle_type_id":"4","last_reported":1743800912,"current_range_meters":8000,"station_id":"ce4bhph2rcd13ifvqheg","pricing_plan_id":"cebpf4jnsgd1na2vs0mg"},{"bike_id":"68349669-008b-4219-8bbb-def8fae77ab0","system_id":"levelo_inurba_marseille","lat":43.2842,"lon":5.37518,"is_reserved":false,"is_disabled":false,"rental_uris":{"android":"levelo://app?vid=68349669-008b-4219-8bbb-def8fae77ab0","ios":"levelo://app?vid=68349669-008b-4219-8bbb-def8fae77ab0"},"vehicle_type_id":"4","last_reported":1743800912,"current_range_meters":8000,"station_id":"ce4bh412rcd13ifvqds0","pricing_plan_id":"cebpf4jnsgd1na2vs0mg"},{"bike_id":"9f13255d-e430-4fd6-9d57-af7fd541e55b","system_id":"levelo_inurba_marseille","lat":43.2762,"lon":5.361,"is_reserved":false,"is_disabled":false,"rental_uris":{"android":"levelo://app?vid=9f13255d-e430-4fd6-9d57-af7fd541e55b","ios":"levelo://app?vid=9f13255d-e430-4fd6-9d57-af7fd541e55b"},"vehicle_type_id":"4","last_reported":1743800912,"current_range_meters":8000,"station_id":"ce4bgj92rcd13ifvqbe0","pricing_plan_id":"cebpf4jnsgd1na2vs0mg"},{"bike_id":"36d996d1-147d-4367-84e7-9ff54765b37a","system_id":"levelo_inurba_marseille","lat":43.23184,"lon":5.35566,"is_reserved":false,"is_disabled":false,"rental_uris":{"android":"levelo://app?vid=36d996d1-147d-4367-84e7-9ff54765b37a","ios":"levelo://app?vid=36d996d1-147d-4367-84e7-9ff54765b37a"},"vehicle_type_id":"4","last_reported":1743800912,"current_range_meters":8400,"station_id":"ce4bhu92rcd13ifvqi70","pricing_plan_id":"cebpf4jnsgd1na2vs0mg"},{"bike_id":"9f008113-c519-463e-81e0-58cacf7a74a9","system_id":"levelo_inurba_marseille","lat":43.29273,"lon":5.38439,"is_reserved":false,"is_disabled":false,"rental_uris":{"android":"levelo://app?vid=9f008113-c519-463e-81e0-58cacf7a74a9","ios":"levelo://app?vid=9f008113-c519-463e-81e0-58cacf7a74a9"},"vehicle_type_id":"4","last_reported":1743800912,"current_range_meters":8400,"station_id":"ce4bh692rcd13ifvqea0","pricing_plan_id":"cebpf4jnsgd1na2vs0mg"},{"bike_id":"58d24f42-17aa-40a2-ac62-60f84e384385","system_id":"levelo_inurba_marseille","lat":43.24821,"lon":5.37451,"is_reserved":false,"is_disabled":false,"rental_uris":{"android":"levelo://app?vid=58d24f42-17aa-40a2-ac62-60f84e384385","ios":"levelo://app?vid=58d24f42-17aa-40a2-ac62-60f84e384385"},"vehicle_type_id":"4","last_reported":1743800912,"current_range_meters":8400,"station_id":"ce4bhgh2rcd13ifvqfb0","pricing_plan_id":"cebpf4jnsgd1na2vs0mg"},{"bike_id":"820c1965-ecb8-4574-8ddb-2df09330c1da","system_id":"levelo_inurba_marseille","lat":43.2703,"lon":5.39105,"is_reserved":false,"is_disabled":false,"rental_uris":{"android":"levelo://app?vid=820c1965-ecb8-4574-8ddb-2df09330c1da","ios":"levelo://app?vid=820c1965-ecb8-4574-8ddb-2df09330c1da"},"vehicle_type_id":"4","last_reported":1743800912,"current_range_meters":8400,"station_id":"","pricing_plan_id":"cebpf4jnsgd1na2vs0mg"},{"bike_id":"0d9cbb90-603c-4d0b-9a7a-90e2b8b328ae","system_id":"levelo_inurba_marseille","lat":43.29218,"lon":5.38461,"is_reserved":false,"is_disabled":false,"rental_uris":{"android":"levelo://app?vid=0d9cbb90-603c-4d0b-9a7a-90e2b8b328ae","ios":"levelo://app?vid=0d9cbb90-603c-4d0b-9a7a-90e2b8b328ae"},"vehicle_type_id":"4","last_reported":1743800912,"current_range_meters":8400,"station_id":"","pricing_plan_id":"cebpf4jnsgd1na2vs0mg"},{"bike_id":"758c2355-846a-4f3d-bcd8-eac4b3145cd6","system_id":"levelo_inurba_marseille","lat":43.231901,"lon":5.355621,"is_reserved":false,"is_disabled":false,"rental_uris":{"android":"levelo://app?vid=758c2355-846a-4f3d-bcd8-eac4b3145cd6","ios":"levelo://app?vid=758c2355-846a-4f3d-bcd8-eac4b3145cd6"},"vehicle_type_id":"4","last_reported":1743800912,"current_range_meters":8400,"station_id":"ce4bhu92rcd13ifvqi70","pricing_plan_id":"cebpf4jnsgd1na2vs0mg"},{"bike_id":"ed034283-1492-4da7-9409-35bdead80f30","system_id":"levelo_inurba_marseille","lat":43.3015,"lon":5.38795,"is_reserved":false,"is_disabled":true,"rental_uris":{"android":"levelo://app?vid=ed034283-1492-4da7-9409-35bdead80f30","ios":"levelo://app?vid=ed034283-1492-4da7-9409-35bdead80f30"},"vehicle_type_id":"4","last_reported":1743800912,"current_range_meters":8400,"station_id":"ce4bghh2rcd13ifvqb60","pricing_plan_id":"cebpf4jnsgd1na2vs0mg"},{"bike_id":"cdb7e4b1-8ea1-4a1d-91f3-73a8b3b493a5","system_id":"levelo_inurba_marseille","lat":43.31085,"lon":5.42424,"is_reserved":false,"is_disabled":false,"rental_uris":{"android":"levelo://app?vid=cdb7e4b1-8ea1-4a1d-91f3-73a8b3b493a5","ios":"levelo://app?vid=cdb7e4b1-8ea1-4a1d-91f3-73a8b3b493a5"},"vehicle_type_id":"4","last_reported":1743800912,"current_range_meters":8400,"station_id":"ce4bhp92rcd13ifvqhag","pricing_plan_id":"cebpf4jnsgd1na2vs0mg"},{"bike_id":"d0d83fc2-1e42-4d50-8b76-8e513f433b89","system_id":"levelo_inurba_marseille","lat":43.293059,"lon":5.371809,"is_reserved":false,"is_disabled":false,"rental_uris":{"android":"levelo://app?vid=d0d83fc2-1e42-4d50-8b76-8e513f433b89","ios":"levelo://app?vid=d0d83fc2-1e42-4d50-8b76-8e513f433b89"},"vehicle_type_id":"4","last_reported":1743800912,"current_range_meters":8800,"station_id":"ce4bgh92rcd13ifvqb40","pricing_plan_id":"cebpf4jnsgd1na2vs0mg"},{"bike_id":"b5f78918-561f-4c07-9bb4-6c89db4fbd73","system_id":"levelo_inurba_marseille","lat":43.29327,"lon":5.37188,"is_reserved":false,"is_disabled":false,"rental_uris":{"android":"levelo://app?vid=b5f78918-561f-4c07-9bb4-6c89db4fbd73","ios":"levelo://app?vid=b5f78918-561f-4c07-9bb4-6c89db4fbd73"},"vehicle_type_id":"4","last_reported":1743800912,"current_range_meters":8800,"station_id":"ce4bgh92rcd13ifvqb40","pricing_plan_id":"cebpf4jnsgd1na2vs0mg"},{"bike_id":"50297066-959d-45c5-a71e-b062cc3724ec","system_id":"levelo_inurba_marseille","lat":43.30804,"lon":5.372986,"is_reserved":false,"is_disabled":false,"rental_uris":{"android":"levelo://app?vid=50297066-959d-45c5-a71e-b062cc3724ec","ios":"levelo://app?vid=50297066-959d-45c5-a71e-b062cc3724ec"},"vehicle_type_id":"4","last_reported":1743800912,"current_range_meters":8800,"station_id":"","pricing_plan_id":"cebpf4jnsgd1na2vs0mg"},{"bike_id":"bbcef256-bece-4fea-90f6-28307987b318","system_id":"levelo_inurba_marseille","lat":43.29865,"lon":5.38903,"is_reserved":false,"is_disabled":false,"rental_uris":{"android":"levelo://app?vid=bbcef256-bece-4fea-90f6-28307987b318","ios":"levelo://app?vid=bbcef256-bece-4fea-90f6-28307987b318"},"vehicle_type_id":"4","last_reported":1743800912,"current_range_meters":8800,"station_id":"ce4bh392rcd13ifvqdl0","pricing_plan_id":"cebpf4jnsgd1na2vs0mg"},{"bike_id":"74a13a18-430a-4f50-ba26-e7dfbad23482","system_id":"levelo_inurba_marseille","lat":43.23071,"lon":5.35496,"is_reserved":false,"is_disabled":false,"rental_uris":{"android":"levelo://app?vid=74a13a18-430a-4f50-ba26-e7dfbad23482","ios":"levelo://app?vid=74a13a18-430a-4f50-ba26-e7dfbad23482"},"vehicle_type_id":"4","last_reported":1743800912,"current_range_meters":8800,"station_id":"cpo3342slgdg3j2ifvpg","pricing_plan_id":"cebpf4jnsgd1na2vs0mg"},{"bike_id":"36a207c1-12d8-479b-900c-01221303b430","system_id":"levelo_inurba_marseille","lat":43.3149,"lon":5.37263,"is_reserved":false,"is_disabled":false,"rental_uris":{"android":"levelo://app?vid=36a207c1-12d8-479b-900c-01221303b430","ios":"levelo://app?vid=36a207c1-12d8-479b-900c-01221303b430"},"vehicle_type_id":"4","last_reported":1743800912,"current_range_meters":9200,"station_id":"ce4bgt12rcd13ifvqcd0","pricing_plan_id":"cebpf4jnsgd1na2vs0mg"},{"bike_id":"47ff4aaa-453c-4512-a68d-d9ead304718d","system_id":"levelo_inurba_marseille","lat":43.27968,"lon":5.38742,"is_reserved":false,"is_disabled":false,"rental_uris":{"android":"levelo://app?vid=47ff4aaa-453c-4512-a68d-d9ead304718d","ios":"levelo://app?vid=47ff4aaa-453c-4512-a68d-d9ead304718d"},"vehicle_type_id":"4","last_reported":1743800912,"current_range_meters":9200,"station_id":"ce4bhg12rcd13ifvqf80","pricing_plan_id":"cebpf4jnsgd1na2vs0mg"},{"bike_id":"f3e47ec8-5455-4076-a2e3-6479a7e329fd","system_id":"levelo_inurba_marseille","lat":43.29419,"lon":5.38631,"is_reserved":false,"is_disabled":false,"rental_uris":{"android":"levelo://app?vid=f3e47ec8-5455-4076-a2e3-6479a7e329fd","ios":"levelo://app?vid=f3e47ec8-5455-4076-a2e3-6479a7e329fd"},"vehicle_type_id":"4","last_reported":1743800912,"current_range_meters":9200,"station_id":"ce4bh2h2rcd13ifvqdh0","pricing_plan_id":"cebpf4jnsgd1na2vs0mg"},{"bike_id":"d3443719-3a9c-4123-8d01-e6b25294168d","system_id":"levelo_inurba_marseille","lat":43.29653,"lon":5.40612,"is_reserved":false,"is_disabled":false,"rental_uris":{"android":"levelo://app?vid=d3443719-3a9c-4123-8d01-e6b25294168d","ios":"levelo://app?vid=d3443719-3a9c-4123-8d01-e6b25294168d"},"vehicle_type_id":"4","last_reported":1743800912,"current_range_meters":9200,"station_id":"ce4bh0h2rcd13ifvqd60","pricing_plan_id":"cebpf4jnsgd1na2vs0mg"},{"bike_id":"9b02f742-f038-4739-9c1b-418a3e5904eb","system_id":"levelo_inurba_marseille","lat":43.31378,"lon":5.36673,"is_reserved":false,"is_disabled":true,"rental_uris":{"android":"levelo://app?vid=9b02f742-f038-4739-9c1b-418a3e5904eb","ios":"levelo://app?vid=9b02f742-f038-4739-9c1b-418a3e5904eb"},"vehicle_type_id":"4","last_reported":1743800912,"current_range_meters":9200,"station_id":"","pricing_plan_id":"cebpf4jnsgd1na2vs0mg"},{"bike_id":"b842d57a-d2b3-4641-9644-002110d3198e","system_id":"levelo_inurba_marseille","lat":43.2846,"lon":5.35885,"is_reserved":false,"is_disabled":false,"rental_uris":{"android":"levelo://app?vid=b842d57a-d2b3-4641-9644-002110d3198e","ios":"levelo://app?vid=b842d57a-d2b3-4641-9644-002110d3198e"},"vehicle_type_id":"4","last_reported":1743800912,"current_range_meters":9200,"station_id":"ce4bhah2rcd13ifvqei0","pricing_plan_id":"cebpf4jnsgd1na2vs0mg"},{"bike_id":"0aa3549d-68f2-4f17-bf6e-41fe71d74d64","system_id":"levelo_inurba_marseille","lat":43.29259,"lon":5.38434,"is_reserved":false,"is_disabled":false,"rental_uris":{"android":"levelo://app?vid=0aa3549d-68f2-4f17-bf6e-41fe71d74d64","ios":"levelo://app?vid=0aa3549d-68f2-4f17-bf6e-41fe71d74d64"},"vehicle_type_id":"4","last_reported":1743800912,"current_range_meters":9200,"station_id":"ce4bh692rcd13ifvqea0","pricing_plan_id":"cebpf4jnsgd1na2vs0mg"},{"bike_id":"3a673a01-13fc-4ed6-b9b1-08a0faf2fd75","system_id":"levelo_inurba_marseille","lat":43.23188,"lon":5.39973,"is_reserved":false,"is_disabled":false,"rental_uris":{"android":"levelo://app?vid=3a673a01-13fc-4ed6-b9b1-08a0faf2fd75","ios":"levelo://app?vid=3a673a01-13fc-4ed6-b9b1-08a0faf2fd75"},"vehicle_type_id":"4","last_reported":1743800912,"current_range_meters":9200,"station_id":"ce4bhn12rcd13ifvqgqg","pricing_plan_id":"cebpf4jnsgd1na2vs0mg"},{"bike_id":"41a95b86-7e86-4485-95f0-5338f824b27f","system_id":"levelo_inurba_marseille","lat":43.30795,"lon":5.38159,"is_reserved":false,"is_disabled":false,"rental_uris":{"android":"levelo://app?vid=41a95b86-7e86-4485-95f0-5338f824b27f","ios":"levelo://app?vid=41a95b86-7e86-4485-95f0-5338f824b27f"},"vehicle_type_id":"4","last_reported":1743800912,"current_range_meters":9200,"station_id":"ce4bgt12rcd13ifvqce0","pricing_plan_id":"cebpf4jnsgd1na2vs0mg"},{"bike_id":"ad707a01-b942-4cbb-8387-1610aa262357","system_id":"levelo_inurba_marseille","lat":43.24805,"lon":5.37442,"is_reserved":false,"is_disabled":false,"rental_uris":{"android":"levelo://app?vid=ad707a01-b942-4cbb-8387-1610aa262357","ios":"levelo://app?vid=ad707a01-b942-4cbb-8387-1610aa262357"},"vehicle_type_id":"4","last_reported":1743800912,"current_range_meters":9600,"station_id":"ce4bhgh2rcd13ifvqfb0","pricing_plan_id":"cebpf4jnsgd1na2vs0mg"},{"bike_id":"afa71022-a7ad-44fe-91c3-bc7a42f710cf","system_id":"levelo_inurba_marseille","lat":43.294203,"lon":5.38608,"is_reserved":false,"is_disabled":false,"rental_uris":{"android":"levelo://app?vid=afa71022-a7ad-44fe-91c3-bc7a42f710cf","ios":"levelo://app?vid=afa71022-a7ad-44fe-91c3-bc7a42f710cf"},"vehicle_type_id":"4","last_reported":1743800912,"current_range_meters":9600,"station_id":"ce4bh2h2rcd13ifvqdh0","pricing_plan_id":"cebpf4jnsgd1na2vs0mg"},{"bike_id":"d5a3cef5-472c-4e1e-8fc2-f818276798de","system_id":"levelo_inurba_marseille","lat":43.25573,"lon":5.3824,"is_reserved":false,"is_disabled":false,"rental_uris":{"android":"levelo://app?vid=d5a3cef5-472c-4e1e-8fc2-f818276798de","ios":"levelo://app?vid=d5a3cef5-472c-4e1e-8fc2-f818276798de"},"vehicle_type_id":"4","last_reported":1743800912,"current_range_meters":9600,"station_id":"ce4bhih2rcd13ifvqfs0","pricing_plan_id":"cebpf4jnsgd1na2vs0mg"},{"bike_id":"a5e15fc0-995d-46a2-aed4-c90c15c414bf","system_id":"levelo_inurba_marseille","lat":43.29299,"lon":5.38416,"is_reserved":false,"is_disabled":false,"rental_uris":{"android":"levelo://app?vid=a5e15fc0-995d-46a2-aed4-c90c15c414bf","ios":"levelo://app?vid=a5e15fc0-995d-46a2-aed4-c90c15c414bf"},"vehicle_type_id":"4","last_reported":1743800912,"current_range_meters":9600,"station_id":"ce4bh692rcd13ifvqea0","pricing_plan_id":"cebpf4jnsgd1na2vs0mg"},{"bike_id":"fb348b09-6abb-47a4-a266-91f2eeaee291","system_id":"levelo_inurba_marseille","lat":43.32078,"lon":5.36761,"is_reserved":false,"is_disabled":false,"rental_uris":{"android":"levelo://app?vid=fb348b09-6abb-47a4-a266-91f2eeaee291","ios":"levelo://app?vid=fb348b09-6abb-47a4-a266-91f2eeaee291"},"vehicle_type_id":"4","last_reported":1743800912,"current_range_meters":9600,"station_id":"ce4bhrh2rcd13ifvqhug","pricing_plan_id":"cebpf4jnsgd1na2vs0mg"},{"bike_id":"a59c88b4-0eb9-4083-a0ac-55350562e34c","system_id":"levelo_inurba_marseille","lat":43.29541,"lon":5.38542,"is_reserved":false,"is_disabled":false,"rental_uris":{"android":"levelo://app?vid=a59c88b4-0eb9-4083-a0ac-55350562e34c","ios":"levelo://app?vid=a59c88b4-0eb9-4083-a0ac-55350562e34c"},"vehicle_type_id":"4","last_reported":1743800912,"current_range_meters":9600,"station_id":"ce4bgih2rcd13ifvqba0","pricing_plan_id":"cebpf4jnsgd1na2vs0mg"},{"bike_id":"ed562682-b9c4-45a5-a5d9-628992c2c17c","system_id":"levelo_inurba_marseille","lat":43.33028,"lon":5.3903,"is_reserved":false,"is_disabled":false,"rental_uris":{"android":"levelo://app?vid=ed562682-b9c4-45a5-a5d9-628992c2c17c","ios":"levelo://app?vid=ed562682-b9c4-45a5-a5d9-628992c2c17c"},"vehicle_type_id":"4","last_reported":1743800912,"current_range_meters":9600,"station_id":"ce4bhr92rcd13ifvqhrg","pricing_plan_id":"cebpf4jnsgd1na2vs0mg"},{"bike_id":"4f5f3b82-dc6b-4d71-9425-8bd28e0259fc","system_id":"levelo_inurba_marseille","lat":43.29294,"lon":5.37172,"is_reserved":false,"is_disabled":false,"rental_uris":{"android":"levelo://app?vid=4f5f3b82-dc6b-4d71-9425-8bd28e0259fc","ios":"levelo://app?vid=4f5f3b82-dc6b-4d71-9425-8bd28e0259fc"},"vehicle_type_id":"4","last_reported":1743800912,"current_range_meters":9600,"station_id":"ce4bgh92rcd13ifvqb40","pricing_plan_id":"cebpf4jnsgd1na2vs0mg"},{"bike_id":"86dc6f3a-86d6-47c1-9cfe-c709f294369d","system_id":"levelo_inurba_marseille","lat":43.29535,"lon":5.38538,"is_reserved":false,"is_disabled":false,"rental_uris":{"android":"levelo://app?vid=86dc6f3a-86d6-47c1-9cfe-c709f294369d","ios":"levelo://app?vid=86dc6f3a-86d6-47c1-9cfe-c709f294369d"},"vehicle_type_id":"4","last_reported":1743800912,"current_range_meters":9200,"station_id":"ce4bgih2rcd13ifvqba0","pricing_plan_id":"cebpf4jnsgd1na2vs0mg"},{"bike_id":"f820121a-6527-4fda-8df2-ff2b3162f49f","system_id":"levelo_inurba_marseille","lat":43.28938,"lon":5.36626,"is_reserved":false,"is_disabled":false,"rental_uris":{"android":"levelo://app?vid=f820121a-6527-4fda-8df2-ff2b3162f49f","ios":"levelo://app?vid=f820121a-6527-4fda-8df2-ff2b3162f49f"},"vehicle_type_id":"4","last_reported":1743800912,"current_range_meters":9600,"station_id":"ce4bhap2rcd13ifvqek0","pricing_plan_id":"cebpf4jnsgd1na2vs0mg"},{"bike_id":"2ee3a78d-3d43-4848-a90f-dec1781d5c45","system_id":"levelo_inurba_marseille","lat":43.29043,"lon":5.37185,"is_reserved":false,"is_disabled":false,"rental_uris":{"android":"levelo://app?vid=2ee3a78d-3d43-4848-a90f-dec1781d5c45","ios":"levelo://app?vid=2ee3a78d-3d43-4848-a90f-dec1781d5c45"},"vehicle_type_id":"4","last_reported":1743800912,"current_range_meters":9600,"station_id":"ce4bh5p2rcd13ifvqe4g","pricing_plan_id":"cebpf4jnsgd1na2vs0mg"},{"bike_id":"bd59c2c3-8b0b-42de-b49c-20b981410335","system_id":"levelo_inurba_marseille","lat":43.2941,"lon":5.38618,"is_reserved":false,"is_disabled":false,"rental_uris":{"android":"levelo://app?vid=bd59c2c3-8b0b-42de-b49c-20b981410335","ios":"levelo://app?vid=bd59c2c3-8b0b-42de-b49c-20b981410335"},"vehicle_type_id":"4","last_reported":1743800912,"current_range_meters":9600,"station_id":"ce4bh2h2rcd13ifvqdh0","pricing_plan_id":"cebpf4jnsgd1na2vs0mg"},{"bike_id":"db526bca-5447-4ac0-922d-45ecb017eb78","system_id":"levelo_inurba_marseille","lat":43.30793,"lon":5.43515,"is_reserved":false,"is_disabled":false,"rental_uris":{"android":"levelo://app?vid=db526bca-5447-4ac0-922d-45ecb017eb78","ios":"levelo://app?vid=db526bca-5447-4ac0-922d-45ecb017eb78"},"vehicle_type_id":"4","last_reported":1743800912,"current_range_meters":9600,"station_id":"ce4bhph2rcd13ifvqheg","pricing_plan_id":"cebpf4jnsgd1na2vs0mg"},{"bike_id":"ef076cc9-b478-41aa-802a-ed7212300556","system_id":"levelo_inurba_marseille","lat":43.22941,"lon":5.35362,"is_reserved":false,"is_disabled":false,"rental_uris":{"android":"levelo://app?vid=ef076cc9-b478-41aa-802a-ed7212300556","ios":"levelo://app?vid=ef076cc9-b478-41aa-802a-ed7212300556"},"vehicle_type_id":"4","last_reported":1743800912,"current_range_meters":10000,"station_id":"cpo3532slgdg3j2ikp40","pricing_plan_id":"cebpf4jnsgd1na2vs0mg"},{"bike_id":"1d325aec-cc2d-42c0-86c5-0141fcc8ca9b","system_id":"levelo_inurba_marseille","lat":43.26489,"lon":5.39543,"is_reserved":false,"is_disabled":false,"rental_uris":{"android":"levelo://app?vid=1d325aec-cc2d-42c0-86c5-0141fcc8ca9b","ios":"levelo://app?vid=1d325aec-cc2d-42c0-86c5-0141fcc8ca9b"},"vehicle_type_id":"4","last_reported":1743800912,"current_range_meters":9600,"station_id":"ce4bhi12rcd13ifvqfq0","pricing_plan_id":"cebpf4jnsgd1na2vs0mg"},{"bike_id":"53d75380-8638-4768-85b6-f042881abee1","system_id":"levelo_inurba_marseille","lat":43.30928,"lon":5.40149,"is_reserved":false,"is_disabled":false,"rental_uris":{"android":"levelo://app?vid=53d75380-8638-4768-85b6-f042881abee1","ios":"levelo://app?vid=53d75380-8638-4768-85b6-f042881abee1"},"vehicle_type_id":"4","last_reported":1743800912,"current_range_meters":10000,"station_id":"ce4bgvp2rcd13ifvqct0","pricing_plan_id":"cebpf4jnsgd1na2vs0mg"},{"bike_id":"38bde2b7-cff5-42ea-abf9-3317f4e19d17","system_id":"levelo_inurba_marseille","lat":43.27914,"lon":5.39573,"is_reserved":false,"is_disabled":false,"rental_uris":{"android":"levelo://app?vid=38bde2b7-cff5-42ea-abf9-3317f4e19d17","ios":"levelo://app?vid=38bde2b7-cff5-42ea-abf9-3317f4e19d17"},"vehicle_type_id":"4","last_reported":1743800912,"current_range_meters":10000,"station_id":"ce4bhf92rcd13ifvqf40","pricing_plan_id":"cebpf4jnsgd1na2vs0mg"},{"bike_id":"2f9de47d-5d8b-434f-a349-907871768984","system_id":"levelo_inurba_marseille","lat":43.29244,"lon":5.38435,"is_reserved":false,"is_disabled":false,"rental_uris":{"android":"levelo://app?vid=2f9de47d-5d8b-434f-a349-907871768984","ios":"levelo://app?vid=2f9de47d-5d8b-434f-a349-907871768984"},"vehicle_type_id":"4","last_reported":1743800912,"current_range_meters":10000,"station_id":"ce4bh692rcd13ifvqea0","pricing_plan_id":"cebpf4jnsgd1na2vs0mg"},{"bike_id":"1b4ebc9a-7fa1-4e8d-b0f8-d88cac3ee274","system_id":"levelo_inurba_marseille","lat":43.28464,"lon":5.35883,"is_reserved":false,"is_disabled":false,"rental_uris":{"android":"levelo://app?vid=1b4ebc9a-7fa1-4e8d-b0f8-d88cac3ee274","ios":"levelo://app?vid=1b4ebc9a-7fa1-4e8d-b0f8-d88cac3ee274"},"vehicle_type_id":"4","last_reported":1743800912,"current_range_meters":10000,"station_id":"ce4bhah2rcd13ifvqei0","pricing_plan_id":"cebpf4jnsgd1na2vs0mg"},{"bike_id":"908c0033-ebf3-400a-acb3-0a621b83539f","system_id":"levelo_inurba_marseille","lat":43.23191,"lon":5.39981,"is_reserved":false,"is_disabled":false,"rental_uris":{"android":"levelo://app?vid=908c0033-ebf3-400a-acb3-0a621b83539f","ios":"levelo://app?vid=908c0033-ebf3-400a-acb3-0a621b83539f"},"vehicle_type_id":"4","last_reported":1743800912,"current_range_meters":10000,"station_id":"ce4bhn12rcd13ifvqgqg","pricing_plan_id":"cebpf4jnsgd1na2vs0mg"},{"bike_id":"1961be9d-0e70-4dda-b71e-57b125473577","system_id":"levelo_inurba_marseille","lat":43.2978,"lon":5.39352,"is_reserved":false,"is_disabled":false,"rental_uris":{"android":"levelo://app?vid=1961be9d-0e70-4dda-b71e-57b125473577","ios":"levelo://app?vid=1961be9d-0e70-4dda-b71e-57b125473577"},"vehicle_type_id":"4","last_reported":1743800912,"current_range_meters":10000,"station_id":"chh1huq6cuj3fo74tm60","pricing_plan_id":"cebpf4jnsgd1na2vs0mg"},{"bike_id":"f1c94e73-6d75-46c1-a24a-f82d52996508","system_id":"levelo_inurba_marseille","lat":43.30935,"lon":5.40127,"is_reserved":false,"is_disabled":false,"rental_uris":{"android":"levelo://app?vid=f1c94e73-6d75-46c1-a24a-f82d52996508","ios":"levelo://app?vid=f1c94e73-6d75-46c1-a24a-f82d52996508"},"vehicle_type_id":"4","last_reported":1743800912,"current_range_meters":10000,"station_id":"ce4bgvp2rcd13ifvqct0","pricing_plan_id":"cebpf4jnsgd1na2vs0mg"},{"bike_id":"baf93972-2e98-41bb-a128-7a5aab20aa31","system_id":"levelo_inurba_marseille","lat":43.30607,"lon":5.37225,"is_reserved":false,"is_disabled":false,"rental_uris":{"android":"levelo://app?vid=baf93972-2e98-41bb-a128-7a5aab20aa31","ios":"levelo://app?vid=baf93972-2e98-41bb-a128-7a5aab20aa31"},"vehicle_type_id":"4","last_reported":1743800912,"current_range_meters":10000,"station_id":"ce4bgqh2rcd13ifvqc4g","pricing_plan_id":"cebpf4jnsgd1na2vs0mg"},{"bike_id":"9b4e5b3d-6f7d-4e3a-ae6c-3ea7a308685d","system_id":"levelo_inurba_marseille","lat":43.29532,"lon":5.38552,"is_reserved":false,"is_disabled":false,"rental_uris":{"android":"levelo://app?vid=9b4e5b3d-6f7d-4e3a-ae6c-3ea7a308685d","ios":"levelo://app?vid=9b4e5b3d-6f7d-4e3a-ae6c-3ea7a308685d"},"vehicle_type_id":"4","last_reported":1743800912,"current_range_meters":10800,"station_id":"ce4bgih2rcd13ifvqba0","pricing_plan_id":"cebpf4jnsgd1na2vs0mg"},{"bike_id":"69765911-a657-4873-ab71-1b6674378393","system_id":"levelo_inurba_marseille","lat":43.29293,"lon":5.37455,"is_reserved":false,"is_disabled":true,"rental_uris":{"android":"levelo://app?vid=69765911-a657-4873-ab71-1b6674378393","ios":"levelo://app?vid=69765911-a657-4873-ab71-1b6674378393"},"vehicle_type_id":"4","last_reported":1743800912,"current_range_meters":10800,"station_id":"ce4bgi12rcd13ifvqb70","pricing_plan_id":"cebpf4jnsgd1na2vs0mg"},{"bike_id":"c91a6301-d46d-458e-a0a6-5762e813d6dd","system_id":"levelo_inurba_marseille","lat":43.29542,"lon":5.38547,"is_reserved":false,"is_disabled":true,"rental_uris":{"android":"levelo://app?vid=c91a6301-d46d-458e-a0a6-5762e813d6dd","ios":"levelo://app?vid=c91a6301-d46d-458e-a0a6-5762e813d6dd"},"vehicle_type_id":"4","last_reported":1743800912,"current_range_meters":10800,"station_id":"ce4bgih2rcd13ifvqba0","pricing_plan_id":"cebpf4jnsgd1na2vs0mg"},{"bike_id":"ead8fb85-2ed4-4b6a-bfa6-b10b2549cc84","system_id":"levelo_inurba_marseille","lat":43.26204,"lon":5.40453,"is_reserved":false,"is_disabled":false,"rental_uris":{"android":"levelo://app?vid=ead8fb85-2ed4-4b6a-bfa6-b10b2549cc84","ios":"levelo://app?vid=ead8fb85-2ed4-4b6a-bfa6-b10b2549cc84"},"vehicle_type_id":"4","last_reported":1743800912,"current_range_meters":10800,"station_id":"ce4bhmh2rcd13ifvqgmg","pricing_plan_id":"cebpf4jnsgd1na2vs0mg"},{"bike_id":"f40fc4e8-cfdd-40aa-8507-3bd8857476a8","system_id":"levelo_inurba_marseille","lat":43.30231,"lon":5.39984,"is_reserved":false,"is_disabled":true,"rental_uris":{"android":"levelo://app?vid=f40fc4e8-cfdd-40aa-8507-3bd8857476a8","ios":"levelo://app?vid=f40fc4e8-cfdd-40aa-8507-3bd8857476a8"},"vehicle_type_id":"4","last_reported":1743800912,"current_range_meters":10800,"station_id":"","pricing_plan_id":"cebpf4jnsgd1na2vs0mg"},{"bike_id":"c9ab5bfd-fa91-4b45-8fa2-52813c43fa45","system_id":"levelo_inurba_marseille","lat":43.23064,"lon":5.35487,"is_reserved":false,"is_disabled":false,"rental_uris":{"android":"levelo://app?vid=c9ab5bfd-fa91-4b45-8fa2-52813c43fa45","ios":"levelo://app?vid=c9ab5bfd-fa91-4b45-8fa2-52813c43fa45"},"vehicle_type_id":"4","last_reported":1743800912,"current_range_meters":10800,"station_id":"cpo3342slgdg3j2ifvpg","pricing_plan_id":"cebpf4jnsgd1na2vs0mg"},{"bike_id":"a1cc8429-7f5d-4c98-838c-0dbc6d7c247e","system_id":"levelo_inurba_marseille","lat":43.28163,"lon":5.42641,"is_reserved":false,"is_disabled":false,"rental_uris":{"android":"levelo://app?vid=a1cc8429-7f5d-4c98-838c-0dbc6d7c247e","ios":"levelo://app?vid=a1cc8429-7f5d-4c98-838c-0dbc6d7c247e"},"vehicle_type_id":"4","last_reported":1743800912,"current_range_meters":10800,"station_id":"ce4bhnh2rcd13ifvqgug","pricing_plan_id":"cebpf4jnsgd1na2vs0mg"},{"bike_id":"3d3487a6-30e9-47ae-b56a-cff02ca0eb8a","system_id":"levelo_inurba_marseille","lat":43.27681,"lon":5.38885,"is_reserved":false,"is_disabled":false,"rental_uris":{"android":"levelo://app?vid=3d3487a6-30e9-47ae-b56a-cff02ca0eb8a","ios":"levelo://app?vid=3d3487a6-30e9-47ae-b56a-cff02ca0eb8a"},"vehicle_type_id":"4","last_reported":1743800912,"current_range_meters":10800,"station_id":"ce4bhi12rcd13ifvqfo0","pricing_plan_id":"cebpf4jnsgd1na2vs0mg"},{"bike_id":"3dfa9b05-e2cb-4a98-8e54-9f957e7f8bb3","system_id":"levelo_inurba_marseille","lat":43.30801,"lon":5.38164,"is_reserved":false,"is_disabled":false,"rental_uris":{"android":"levelo://app?vid=3dfa9b05-e2cb-4a98-8e54-9f957e7f8bb3","ios":"levelo://app?vid=3dfa9b05-e2cb-4a98-8e54-9f957e7f8bb3"},"vehicle_type_id":"4","last_reported":1743800912,"current_range_meters":10800,"station_id":"ce4bgt12rcd13ifvqce0","pricing_plan_id":"cebpf4jnsgd1na2vs0mg"},{"bike_id":"25eaff9f-aa99-4e9f-af3f-e276bc0ca894","system_id":"levelo_inurba_marseille","lat":43.260783,"lon":5.375276,"is_reserved":false,"is_disabled":false,"rental_uris":{"android":"levelo://app?vid=25eaff9f-aa99-4e9f-af3f-e276bc0ca894","ios":"levelo://app?vid=25eaff9f-aa99-4e9f-af3f-e276bc0ca894"},"vehicle_type_id":"4","last_reported":1743800912,"current_range_meters":14400,"station_id":"ce4bhi12rcd13ifvqfp0","pricing_plan_id":"cebpf4jnsgd1na2vs0mg"},{"bike_id":"a81dd14d-b9ff-468d-abbb-f6836f23a0fe","system_id":"levelo_inurba_marseille","lat":43.29062,"lon":5.3716,"is_reserved":false,"is_disabled":false,"rental_uris":{"android":"levelo://app?vid=a81dd14d-b9ff-468d-abbb-f6836f23a0fe","ios":"levelo://app?vid=a81dd14d-b9ff-468d-abbb-f6836f23a0fe"},"vehicle_type_id":"4","last_reported":1743800912,"current_range_meters":10000,"station_id":"ce4bh5p2rcd13ifvqe4g","pricing_plan_id":"cebpf4jnsgd1na2vs0mg"},{"bike_id":"ec1efc42-6b50-45b4-9b36-065198ebc403","system_id":"levelo_inurba_marseille","lat":43.29238,"lon":5.38423,"is_reserved":false,"is_disabled":false,"rental_uris":{"android":"levelo://app?vid=ec1efc42-6b50-45b4-9b36-065198ebc403","ios":"levelo://app?vid=ec1efc42-6b50-45b4-9b36-065198ebc403"},"vehicle_type_id":"4","last_reported":1743800912,"current_range_meters":10800,"station_id":"ce4bh692rcd13ifvqea0","pricing_plan_id":"cebpf4jnsgd1na2vs0mg"},{"bike_id":"b243a966-3110-4899-b82f-3313e11f599d","system_id":"levelo_inurba_marseille","lat":43.29308,"lon":5.36848,"is_reserved":false,"is_disabled":false,"rental_uris":{"android":"levelo://app?vid=b243a966-3110-4899-b82f-3313e11f599d","ios":"levelo://app?vid=b243a966-3110-4899-b82f-3313e11f599d"},"vehicle_type_id":"4","last_reported":1743800912,"current_range_meters":10800,"station_id":"ce4bhbp2rcd13ifvqesg","pricing_plan_id":"cebpf4jnsgd1na2vs0mg"},{"bike_id":"495a5936-22f2-451e-ab15-52e9d0402042","system_id":"levelo_inurba_marseille","lat":43.29422,"lon":5.38623,"is_reserved":false,"is_disabled":false,"rental_uris":{"android":"levelo://app?vid=495a5936-22f2-451e-ab15-52e9d0402042","ios":"levelo://app?vid=495a5936-22f2-451e-ab15-52e9d0402042"},"vehicle_type_id":"4","last_reported":1743800912,"current_range_meters":10800,"station_id":"ce4bh2h2rcd13ifvqdh0","pricing_plan_id":"cebpf4jnsgd1na2vs0mg"},{"bike_id":"6e1c9c66-c456-4a0c-9f32-8624123a9ee0","system_id":"levelo_inurba_marseille","lat":43.29223,"lon":5.42511,"is_reserved":false,"is_disabled":false,"rental_uris":{"android":"levelo://app?vid=6e1c9c66-c456-4a0c-9f32-8624123a9ee0","ios":"levelo://app?vid=6e1c9c66-c456-4a0c-9f32-8624123a9ee0"},"vehicle_type_id":"4","last_reported":1743800912,"current_range_meters":11200,"station_id":"","pricing_plan_id":"cebpf4jnsgd1na2vs0mg"},{"bike_id":"78632750-4df5-480e-bca7-58d4c5e5808f","system_id":"levelo_inurba_marseille","lat":43.30939,"lon":5.40147,"is_reserved":false,"is_disabled":false,"rental_uris":{"android":"levelo://app?vid=78632750-4df5-480e-bca7-58d4c5e5808f","ios":"levelo://app?vid=78632750-4df5-480e-bca7-58d4c5e5808f"},"vehicle_type_id":"4","last_reported":1743800912,"current_range_meters":10800,"station_id":"ce4bgvp2rcd13ifvqct0","pricing_plan_id":"cebpf4jnsgd1na2vs0mg"},{"bike_id":"a471e867-2175-4213-89d8-c78848e6bb1c","system_id":"levelo_inurba_marseille","lat":43.24548,"lon":5.39531,"is_reserved":false,"is_disabled":false,"rental_uris":{"android":"levelo://app?vid=a471e867-2175-4213-89d8-c78848e6bb1c","ios":"levelo://app?vid=a471e867-2175-4213-89d8-c78848e6bb1c"},"vehicle_type_id":"4","last_reported":1743800912,"current_range_meters":10800,"station_id":"ce4bhlp2rcd13ifvqgjg","pricing_plan_id":"cebpf4jnsgd1na2vs0mg"},{"bike_id":"1edc9b8f-069c-4a73-b056-332d912ad4c7","system_id":"levelo_inurba_marseille","lat":43.29428,"lon":5.38617,"is_reserved":false,"is_disabled":false,"rental_uris":{"android":"levelo://app?vid=1edc9b8f-069c-4a73-b056-332d912ad4c7","ios":"levelo://app?vid=1edc9b8f-069c-4a73-b056-332d912ad4c7"},"vehicle_type_id":"4","last_reported":1743800912,"current_range_meters":11200,"station_id":"ce4bh2h2rcd13ifvqdh0","pricing_plan_id":"cebpf4jnsgd1na2vs0mg"},{"bike_id":"4528e452-a771-4801-8206-5b5306f28d8d","system_id":"levelo_inurba_marseille","lat":43.29518,"lon":5.39035,"is_reserved":false,"is_disabled":false,"rental_uris":{"android":"levelo://app?vid=4528e452-a771-4801-8206-5b5306f28d8d","ios":"levelo://app?vid=4528e452-a771-4801-8206-5b5306f28d8d"},"vehicle_type_id":"4","last_reported":1743800912,"current_range_meters":11200,"station_id":"ce4bh3p2rcd13ifvqdp0","pricing_plan_id":"cebpf4jnsgd1na2vs0mg"},{"bike_id":"3b4ad8c6-6244-4378-90d7-dac703d1508d","system_id":"levelo_inurba_marseille","lat":43.23206,"lon":5.35546,"is_reserved":false,"is_disabled":false,"rental_uris":{"android":"levelo://app?vid=3b4ad8c6-6244-4378-90d7-dac703d1508d","ios":"levelo://app?vid=3b4ad8c6-6244-4378-90d7-dac703d1508d"},"vehicle_type_id":"4","last_reported":1743800912,"current_range_meters":11200,"station_id":"ce4bhu92rcd13ifvqi70","pricing_plan_id":"cebpf4jnsgd1na2vs0mg"},{"bike_id":"cb2aad6d-61e8-4de9-9f75-4e440e9fa1e5","system_id":"levelo_inurba_marseille","lat":43.293,"lon":5.37139,"is_reserved":false,"is_disabled":false,"rental_uris":{"android":"levelo://app?vid=cb2aad6d-61e8-4de9-9f75-4e440e9fa1e5","ios":"levelo://app?vid=cb2aad6d-61e8-4de9-9f75-4e440e9fa1e5"},"vehicle_type_id":"4","last_reported":1743800912,"current_range_meters":11200,"station_id":"ce4bgh92rcd13ifvqb40","pricing_plan_id":"cebpf4jnsgd1na2vs0mg"},{"bike_id":"783ef245-163c-4c81-b038-df23059b7c57","system_id":"levelo_inurba_marseille","lat":43.310755,"lon":5.383546,"is_reserved":false,"is_disabled":false,"rental_uris":{"android":"levelo://app?vid=783ef245-163c-4c81-b038-df23059b7c57","ios":"levelo://app?vid=783ef245-163c-4c81-b038-df23059b7c57"},"vehicle_type_id":"4","last_reported":1743800912,"current_range_meters":11200,"station_id":"","pricing_plan_id":"cebpf4jnsgd1na2vs0mg"},{"bike_id":"c23f780e-c0d9-4344-bb6a-639dd6231fcf","system_id":"levelo_inurba_marseille","lat":43.29271,"lon":5.37601,"is_reserved":false,"is_disabled":false,"rental_uris":{"android":"levelo://app?vid=c23f780e-c0d9-4344-bb6a-639dd6231fcf","ios":"levelo://app?vid=c23f780e-c0d9-4344-bb6a-639dd6231fcf"},"vehicle_type_id":"4","last_reported":1743800912,"current_range_meters":11200,"station_id":"ce4bgi12rcd13ifvqb80","pricing_plan_id":"cebpf4jnsgd1na2vs0mg"},{"bike_id":"829acafc-221e-41d2-b87e-1eaa511b3313","system_id":"levelo_inurba_marseille","lat":43.29043,"lon":5.39992,"is_reserved":false,"is_disabled":true,"rental_uris":{"android":"levelo://app?vid=829acafc-221e-41d2-b87e-1eaa511b3313","ios":"levelo://app?vid=829acafc-221e-41d2-b87e-1eaa511b3313"},"vehicle_type_id":"4","last_reported":1743800912,"current_range_meters":11200,"station_id":"ce4bh392rcd13ifvqdm0","pricing_plan_id":"cebpf4jnsgd1na2vs0mg"},{"bike_id":"ccbaad60-ee1e-4837-a1f8-1af8e79dfa40","system_id":"levelo_inurba_marseille","lat":43.30598,"lon":5.39375,"is_reserved":false,"is_disabled":true,"rental_uris":{"android":"levelo://app?vid=ccbaad60-ee1e-4837-a1f8-1af8e79dfa40","ios":"levelo://app?vid=ccbaad60-ee1e-4837-a1f8-1af8e79dfa40"},"vehicle_type_id":"4","last_reported":1743800912,"current_range_meters":11200,"station_id":"ce4bh0p2rcd13ifvqd80","pricing_plan_id":"cebpf4jnsgd1na2vs0mg"},{"bike_id":"706fc506-2aa0-4db5-833c-3cdac573bb9a","system_id":"levelo_inurba_marseille","lat":43.29018,"lon":5.38632,"is_reserved":false,"is_disabled":true,"rental_uris":{"android":"levelo://app?vid=706fc506-2aa0-4db5-833c-3cdac573bb9a","ios":"levelo://app?vid=706fc506-2aa0-4db5-833c-3cdac573bb9a"},"vehicle_type_id":"4","last_reported":1743800912,"current_range_meters":11200,"station_id":"ce4bh4p2rcd13ifvqe0g","pricing_plan_id":"cebpf4jnsgd1na2vs0mg"},{"bike_id":"ae85a7a4-7c38-4e25-9e50-a9a925b58789","system_id":"levelo_inurba_marseille","lat":43.31076,"lon":5.42457,"is_reserved":false,"is_disabled":false,"rental_uris":{"android":"levelo://app?vid=ae85a7a4-7c38-4e25-9e50-a9a925b58789","ios":"levelo://app?vid=ae85a7a4-7c38-4e25-9e50-a9a925b58789"},"vehicle_type_id":"4","last_reported":1743800912,"current_range_meters":11200,"station_id":"ce4bhp92rcd13ifvqhag","pricing_plan_id":"cebpf4jnsgd1na2vs0mg"},{"bike_id":"b2b03e5d-3e2f-45b1-8744-075dca8e435a","system_id":"levelo_inurba_marseille","lat":43.284512,"lon":5.392024,"is_reserved":false,"is_disabled":false,"rental_uris":{"android":"levelo://app?vid=b2b03e5d-3e2f-45b1-8744-075dca8e435a","ios":"levelo://app?vid=b2b03e5d-3e2f-45b1-8744-075dca8e435a"},"vehicle_type_id":"4","last_reported":1743800912,"current_range_meters":11200,"station_id":"ce4bhoh2rcd13ifvqh5g","pricing_plan_id":"cebpf4jnsgd1na2vs0mg"},{"bike_id":"a07480da-f5a9-4597-b3e6-cc405effeae7","system_id":"levelo_inurba_marseille","lat":43.28948,"lon":5.39653,"is_reserved":false,"is_disabled":true,"rental_uris":{"android":"levelo://app?vid=a07480da-f5a9-4597-b3e6-cc405effeae7","ios":"levelo://app?vid=a07480da-f5a9-4597-b3e6-cc405effeae7"},"vehicle_type_id":"4","last_reported":1743800912,"current_range_meters":11600,"station_id":"ce4bh3h2rcd13ifvqdn0","pricing_plan_id":"cebpf4jnsgd1na2vs0mg"},{"bike_id":"203176fb-52f7-45ec-88b4-caa4115f7b7b","system_id":"levelo_inurba_marseille","lat":43.29605,"lon":5.40015,"is_reserved":false,"is_disabled":false,"rental_uris":{"android":"levelo://app?vid=203176fb-52f7-45ec-88b4-caa4115f7b7b","ios":"levelo://app?vid=203176fb-52f7-45ec-88b4-caa4115f7b7b"},"vehicle_type_id":"4","last_reported":1743800912,"current_range_meters":11600,"station_id":"","pricing_plan_id":"cebpf4jnsgd1na2vs0mg"},{"bike_id":"568811bf-100a-4ff7-9269-761359d59687","system_id":"levelo_inurba_marseille","lat":43.29427,"lon":5.38635,"is_reserved":false,"is_disabled":false,"rental_uris":{"android":"levelo://app?vid=568811bf-100a-4ff7-9269-761359d59687","ios":"levelo://app?vid=568811bf-100a-4ff7-9269-761359d59687"},"vehicle_type_id":"4","last_reported":1743800912,"current_range_meters":11600,"station_id":"ce4bh2h2rcd13ifvqdh0","pricing_plan_id":"cebpf4jnsgd1na2vs0mg"},{"bike_id":"6b8df6c6-e69f-416d-869f-6c58b572d426","system_id":"levelo_inurba_marseille","lat":43.23182,"lon":5.39978,"is_reserved":false,"is_disabled":false,"rental_uris":{"android":"levelo://app?vid=6b8df6c6-e69f-416d-869f-6c58b572d426","ios":"levelo://app?vid=6b8df6c6-e69f-416d-869f-6c58b572d426"},"vehicle_type_id":"4","last_reported":1743800912,"current_range_meters":11600,"station_id":"ce4bhn12rcd13ifvqgqg","pricing_plan_id":"cebpf4jnsgd1na2vs0mg"},{"bike_id":"33b053d7-cc9a-48a0-a9c2-94ca01a7d17d","system_id":"levelo_inurba_marseille","lat":43.24802,"lon":5.37452,"is_reserved":false,"is_disabled":false,"rental_uris":{"android":"levelo://app?vid=33b053d7-cc9a-48a0-a9c2-94ca01a7d17d","ios":"levelo://app?vid=33b053d7-cc9a-48a0-a9c2-94ca01a7d17d"},"vehicle_type_id":"4","last_reported":1743800912,"current_range_meters":11600,"station_id":"ce4bhgh2rcd13ifvqfb0","pricing_plan_id":"cebpf4jnsgd1na2vs0mg"},{"bike_id":"82094fca-82b5-45b4-81a5-df2e6ffd6728","system_id":"levelo_inurba_marseille","lat":43.32327,"lon":5.40621,"is_reserved":false,"is_disabled":false,"rental_uris":{"android":"levelo://app?vid=82094fca-82b5-45b4-81a5-df2e6ffd6728","ios":"levelo://app?vid=82094fca-82b5-45b4-81a5-df2e6ffd6728"},"vehicle_type_id":"4","last_reported":1743800912,"current_range_meters":11600,"station_id":"ce4bhq92rcd13ifvqhjg","pricing_plan_id":"cebpf4jnsgd1na2vs0mg"},{"bike_id":"0eb30f16-826e-404e-9494-cbd59d704ab7","system_id":"levelo_inurba_marseille","lat":43.29003,"lon":5.38642,"is_reserved":false,"is_disabled":true,"rental_uris":{"android":"levelo://app?vid=0eb30f16-826e-404e-9494-cbd59d704ab7","ios":"levelo://app?vid=0eb30f16-826e-404e-9494-cbd59d704ab7"},"vehicle_type_id":"4","last_reported":1743800912,"current_range_meters":11600,"station_id":"ce4bh4p2rcd13ifvqe0g","pricing_plan_id":"cebpf4jnsgd1na2vs0mg"},{"bike_id":"c2055a2a-1cff-4f19-a52d-9b52baeaa63f","system_id":"levelo_inurba_marseille","lat":43.3203,"lon":5.38047,"is_reserved":false,"is_disabled":true,"rental_uris":{"android":"levelo://app?vid=c2055a2a-1cff-4f19-a52d-9b52baeaa63f","ios":"levelo://app?vid=c2055a2a-1cff-4f19-a52d-9b52baeaa63f"},"vehicle_type_id":"4","last_reported":1743800912,"current_range_meters":11600,"station_id":"","pricing_plan_id":"cebpf4jnsgd1na2vs0mg"},{"bike_id":"4ac978b8-637b-4053-959f-c5f647210ff9","system_id":"levelo_inurba_marseille","lat":43.232,"lon":5.39974,"is_reserved":false,"is_disabled":false,"rental_uris":{"android":"levelo://app?vid=4ac978b8-637b-4053-959f-c5f647210ff9","ios":"levelo://app?vid=4ac978b8-637b-4053-959f-c5f647210ff9"},"vehicle_type_id":"4","last_reported":1743800912,"current_range_meters":12000,"station_id":"ce4bhn12rcd13ifvqgqg","pricing_plan_id":"cebpf4jnsgd1na2vs0mg"},{"bike_id":"9a75cc6a-a7fd-40a9-971e-a445f22b1875","system_id":"levelo_inurba_marseille","lat":43.29424,"lon":5.38617,"is_reserved":false,"is_disabled":false,"rental_uris":{"android":"levelo://app?vid=9a75cc6a-a7fd-40a9-971e-a445f22b1875","ios":"levelo://app?vid=9a75cc6a-a7fd-40a9-971e-a445f22b1875"},"vehicle_type_id":"4","last_reported":1743800912,"current_range_meters":12000,"station_id":"ce4bh2h2rcd13ifvqdh0","pricing_plan_id":"cebpf4jnsgd1na2vs0mg"},{"bike_id":"2ac6a623-063c-4fc4-8bde-f17112b0788e","system_id":"levelo_inurba_marseille","lat":43.23409,"lon":5.40602,"is_reserved":false,"is_disabled":false,"rental_uris":{"android":"levelo://app?vid=2ac6a623-063c-4fc4-8bde-f17112b0788e","ios":"levelo://app?vid=2ac6a623-063c-4fc4-8bde-f17112b0788e"},"vehicle_type_id":"4","last_reported":1743800912,"current_range_meters":12000,"station_id":"","pricing_plan_id":"cebpf4jnsgd1na2vs0mg"},{"bike_id":"fb0d4993-67fa-4314-9525-ef2ba9197c72","system_id":"levelo_inurba_marseille","lat":43.30264,"lon":5.4063,"is_reserved":false,"is_disabled":false,"rental_uris":{"android":"levelo://app?vid=fb0d4993-67fa-4314-9525-ef2ba9197c72","ios":"levelo://app?vid=fb0d4993-67fa-4314-9525-ef2ba9197c72"},"vehicle_type_id":"4","last_reported":1743800912,"current_range_meters":12000,"station_id":"","pricing_plan_id":"cebpf4jnsgd1na2vs0mg"},{"bike_id":"48ec1fe3-fdf4-49a5-977a-526829b4e2e3","system_id":"levelo_inurba_marseille","lat":43.23067,"lon":5.355,"is_reserved":false,"is_disabled":false,"rental_uris":{"android":"levelo://app?vid=48ec1fe3-fdf4-49a5-977a-526829b4e2e3","ios":"levelo://app?vid=48ec1fe3-fdf4-49a5-977a-526829b4e2e3"},"vehicle_type_id":"4","last_reported":1743800912,"current_range_meters":12000,"station_id":"cpo3342slgdg3j2ifvpg","pricing_plan_id":"cebpf4jnsgd1na2vs0mg"},{"bike_id":"d68bb49e-ae67-46b9-9113-2f1b9eefff70","system_id":"levelo_inurba_marseille","lat":43.31995,"lon":5.38167,"is_reserved":false,"is_disabled":true,"rental_uris":{"android":"levelo://app?vid=d68bb49e-ae67-46b9-9113-2f1b9eefff70","ios":"levelo://app?vid=d68bb49e-ae67-46b9-9113-2f1b9eefff70"},"vehicle_type_id":"4","last_reported":1743800912,"current_range_meters":12000,"station_id":"ce4bhr12rcd13ifvqhpg","pricing_plan_id":"cebpf4jnsgd1na2vs0mg"},{"bike_id":"1d5ef6d0-a413-45b3-8100-7222d11689f2","system_id":"levelo_inurba_marseille","lat":43.28906,"lon":5.38399,"is_reserved":false,"is_disabled":true,"rental_uris":{"android":"levelo://app?vid=1d5ef6d0-a413-45b3-8100-7222d11689f2","ios":"levelo://app?vid=1d5ef6d0-a413-45b3-8100-7222d11689f2"},"vehicle_type_id":"4","last_reported":1743800912,"current_range_meters":12000,"station_id":"ce4bh612rcd13ifvqe6g","pricing_plan_id":"cebpf4jnsgd1na2vs0mg"},{"bike_id":"b6deb992-40ce-41ce-ad93-ced41216adcc","system_id":"levelo_inurba_marseille","lat":43.2905,"lon":5.3591,"is_reserved":false,"is_disabled":false,"rental_uris":{"android":"levelo://app?vid=b6deb992-40ce-41ce-ad93-ced41216adcc","ios":"levelo://app?vid=b6deb992-40ce-41ce-ad93-ced41216adcc"},"vehicle_type_id":"4","last_reported":1743800912,"current_range_meters":12400,"station_id":"ce4bha92rcd13ifvqeg0","pricing_plan_id":"cebpf4jnsgd1na2vs0mg"},{"bike_id":"c3b3e413-d119-44f1-b3c2-d3f1281e4d19","system_id":"levelo_inurba_marseille","lat":43.261799,"lon":5.374523,"is_reserved":false,"is_disabled":false,"rental_uris":{"android":"levelo://app?vid=c3b3e413-d119-44f1-b3c2-d3f1281e4d19","ios":"levelo://app?vid=c3b3e413-d119-44f1-b3c2-d3f1281e4d19"},"vehicle_type_id":"4","last_reported":1743800912,"current_range_meters":12400,"station_id":"ce4bhi12rcd13ifvqfq0","pricing_plan_id":"cebpf4jnsgd1na2vs0mg"},{"bike_id":"331db363-f7e4-4b55-b4fe-73dbfbc303f6","system_id":"levelo_inurba_marseille","lat":43.26062,"lon":5.39392,"is_reserved":false,"is_disabled":false,"rental_uris":{"android":"levelo://app?vid=331db363-f7e4-4b55-b4fe-73dbfbc303f6","ios":"levelo://app?vid=331db363-f7e4-4b55-b4fe-73dbfbc303f6"},"vehicle_type_id":"4","last_reported":1743800912,"current_range_meters":12000,"station_id":"ce4bhh92rcd13ifvqfj0","pricing_plan_id":"cebpf4jnsgd1na2vs0mg"},{"bike_id":"9ab8b16b-9f71-4abb-a498-fbf5542b0810","system_id":"levelo_inurba_marseille","lat":43.28067,"lon":5.39655,"is_reserved":false,"is_disabled":true,"rental_uris":{"android":"levelo://app?vid=9ab8b16b-9f71-4abb-a498-fbf5542b0810","ios":"levelo://app?vid=9ab8b16b-9f71-4abb-a498-fbf5542b0810"},"vehicle_type_id":"4","last_reported":1743800912,"current_range_meters":12400,"station_id":"ce4bho12rcd13ifvqh2g","pricing_plan_id":"cebpf4jnsgd1na2vs0mg"},{"bike_id":"0030b574-680c-425b-8e09-a16d46745da3","system_id":"levelo_inurba_marseille","lat":43.29443,"lon":5.38607,"is_reserved":false,"is_disabled":false,"rental_uris":{"android":"levelo://app?vid=0030b574-680c-425b-8e09-a16d46745da3","ios":"levelo://app?vid=0030b574-680c-425b-8e09-a16d46745da3"},"vehicle_type_id":"4","last_reported":1743800912,"current_range_meters":12400,"station_id":"ce4bh2h2rcd13ifvqdh0","pricing_plan_id":"cebpf4jnsgd1na2vs0mg"},{"bike_id":"fdad6e5e-1467-4616-9d72-68b29d343e00","system_id":"levelo_inurba_marseille","lat":43.32284,"lon":5.38291,"is_reserved":false,"is_disabled":false,"rental_uris":{"android":"levelo://app?vid=fdad6e5e-1467-4616-9d72-68b29d343e00","ios":"levelo://app?vid=fdad6e5e-1467-4616-9d72-68b29d343e00"},"vehicle_type_id":"4","last_reported":1743800912,"current_range_meters":12400,"station_id":"ce4bhr12rcd13ifvqhqg","pricing_plan_id":"cebpf4jnsgd1na2vs0mg"},{"bike_id":"95df1b46-4651-4e01-99a6-3ccb43dd586c","system_id":"levelo_inurba_marseille","lat":43.28936,"lon":5.39636,"is_reserved":false,"is_disabled":false,"rental_uris":{"android":"levelo://app?vid=95df1b46-4651-4e01-99a6-3ccb43dd586c","ios":"levelo://app?vid=95df1b46-4651-4e01-99a6-3ccb43dd586c"},"vehicle_type_id":"4","last_reported":1743800912,"current_range_meters":12400,"station_id":"ce4bh3h2rcd13ifvqdn0","pricing_plan_id":"cebpf4jnsgd1na2vs0mg"},{"bike_id":"41296888-352e-4ce3-b582-026d48019870","system_id":"levelo_inurba_marseille","lat":43.291365,"lon":5.379385,"is_reserved":false,"is_disabled":false,"rental_uris":{"android":"levelo://app?vid=41296888-352e-4ce3-b582-026d48019870","ios":"levelo://app?vid=41296888-352e-4ce3-b582-026d48019870"},"vehicle_type_id":"4","last_reported":1743800912,"current_range_meters":12400,"station_id":"","pricing_plan_id":"cebpf4jnsgd1na2vs0mg"},{"bike_id":"41f837aa-ae05-485a-87f5-fa3987815f2d","system_id":"levelo_inurba_marseille","lat":43.283533,"lon":5.381045,"is_reserved":false,"is_disabled":false,"rental_uris":{"android":"levelo://app?vid=41f837aa-ae05-485a-87f5-fa3987815f2d","ios":"levelo://app?vid=41f837aa-ae05-485a-87f5-fa3987815f2d"},"vehicle_type_id":"4","last_reported":1743800912,"current_range_meters":12400,"station_id":"ce4bh412rcd13ifvqdr0","pricing_plan_id":"cebpf4jnsgd1na2vs0mg"},{"bike_id":"7cac22a9-4e8a-48d4-bc8a-aee2fceac01c","system_id":"levelo_inurba_marseille","lat":43.30323,"lon":5.40428,"is_reserved":false,"is_disabled":false,"rental_uris":{"android":"levelo://app?vid=7cac22a9-4e8a-48d4-bc8a-aee2fceac01c","ios":"levelo://app?vid=7cac22a9-4e8a-48d4-bc8a-aee2fceac01c"},"vehicle_type_id":"4","last_reported":1743800912,"current_range_meters":12400,"station_id":"ce4bh012rcd13ifvqd10","pricing_plan_id":"cebpf4jnsgd1na2vs0mg"},{"bike_id":"d1861e96-ac55-410d-812d-13a6a7ea8feb","system_id":"levelo_inurba_marseille","lat":43.29416,"lon":5.38639,"is_reserved":false,"is_disabled":false,"rental_uris":{"android":"levelo://app?vid=d1861e96-ac55-410d-812d-13a6a7ea8feb","ios":"levelo://app?vid=d1861e96-ac55-410d-812d-13a6a7ea8feb"},"vehicle_type_id":"4","last_reported":1743800912,"current_range_meters":12400,"station_id":"ce4bh2h2rcd13ifvqdh0","pricing_plan_id":"cebpf4jnsgd1na2vs0mg"},{"bike_id":"b2dd4286-e2a1-4bf6-9558-757f944c9aeb","system_id":"levelo_inurba_marseille","lat":43.29249,"lon":5.38444,"is_reserved":false,"is_disabled":false,"rental_uris":{"android":"levelo://app?vid=b2dd4286-e2a1-4bf6-9558-757f944c9aeb","ios":"levelo://app?vid=b2dd4286-e2a1-4bf6-9558-757f944c9aeb"},"vehicle_type_id":"4","last_reported":1743800912,"current_range_meters":12400,"station_id":"ce4bh692rcd13ifvqea0","pricing_plan_id":"cebpf4jnsgd1na2vs0mg"},{"bike_id":"117b0aaa-036f-4697-86f7-78f2952778ea","system_id":"levelo_inurba_marseille","lat":43.30905,"lon":5.36845,"is_reserved":false,"is_disabled":false,"rental_uris":{"android":"levelo://app?vid=117b0aaa-036f-4697-86f7-78f2952778ea","ios":"levelo://app?vid=117b0aaa-036f-4697-86f7-78f2952778ea"},"vehicle_type_id":"4","last_reported":1743800912,"current_range_meters":12400,"station_id":"ce4bgn92rcd13ifvqbvg","pricing_plan_id":"cebpf4jnsgd1na2vs0mg"},{"bike_id":"3ea37935-2e62-4920-9b65-f76bf7e43ee5","system_id":"levelo_inurba_marseille","lat":43.31902,"lon":5.40714,"is_reserved":false,"is_disabled":false,"rental_uris":{"android":"levelo://app?vid=3ea37935-2e62-4920-9b65-f76bf7e43ee5","ios":"levelo://app?vid=3ea37935-2e62-4920-9b65-f76bf7e43ee5"},"vehicle_type_id":"4","last_reported":1743800912,"current_range_meters":12400,"station_id":"ce4bhq12rcd13ifvqhig","pricing_plan_id":"cebpf4jnsgd1na2vs0mg"},{"bike_id":"6d9715e6-045f-417b-844a-144b6e5c1132","system_id":"levelo_inurba_marseille","lat":43.29243,"lon":5.3577,"is_reserved":false,"is_disabled":false,"rental_uris":{"android":"levelo://app?vid=6d9715e6-045f-417b-844a-144b6e5c1132","ios":"levelo://app?vid=6d9715e6-045f-417b-844a-144b6e5c1132"},"vehicle_type_id":"4","last_reported":1743800912,"current_range_meters":12400,"station_id":"","pricing_plan_id":"cebpf4jnsgd1na2vs0mg"},{"bike_id":"63081022-824b-4b5a-b713-5936340173df","system_id":"levelo_inurba_marseille","lat":43.29412,"lon":5.38626,"is_reserved":false,"is_disabled":false,"rental_uris":{"android":"levelo://app?vid=63081022-824b-4b5a-b713-5936340173df","ios":"levelo://app?vid=63081022-824b-4b5a-b713-5936340173df"},"vehicle_type_id":"4","last_reported":1743800912,"current_range_meters":12400,"station_id":"ce4bh2h2rcd13ifvqdh0","pricing_plan_id":"cebpf4jnsgd1na2vs0mg"},{"bike_id":"eb46d7a7-3d9c-407d-9732-2556b6755a79","system_id":"levelo_inurba_marseille","lat":43.31356,"lon":5.38486,"is_reserved":false,"is_disabled":false,"rental_uris":{"android":"levelo://app?vid=eb46d7a7-3d9c-407d-9732-2556b6755a79","ios":"levelo://app?vid=eb46d7a7-3d9c-407d-9732-2556b6755a79"},"vehicle_type_id":"4","last_reported":1743800912,"current_range_meters":12800,"station_id":"ce4bgt92rcd13ifvqcf0","pricing_plan_id":"cebpf4jnsgd1na2vs0mg"},{"bike_id":"eb79d1f9-7c91-4ea2-b5f8-796189743e1a","system_id":"levelo_inurba_marseille","lat":43.33743,"lon":5.3916,"is_reserved":false,"is_disabled":false,"rental_uris":{"android":"levelo://app?vid=eb79d1f9-7c91-4ea2-b5f8-796189743e1a","ios":"levelo://app?vid=eb79d1f9-7c91-4ea2-b5f8-796189743e1a"},"vehicle_type_id":"4","last_reported":1743800912,"current_range_meters":12800,"station_id":"ce4bhr92rcd13ifvqhsg","pricing_plan_id":"cebpf4jnsgd1na2vs0mg"},{"bike_id":"dafb0e47-46be-4d27-baed-b7490a64e9e2","system_id":"levelo_inurba_marseille","lat":43.3232,"lon":5.40614,"is_reserved":false,"is_disabled":false,"rental_uris":{"android":"levelo://app?vid=dafb0e47-46be-4d27-baed-b7490a64e9e2","ios":"levelo://app?vid=dafb0e47-46be-4d27-baed-b7490a64e9e2"},"vehicle_type_id":"4","last_reported":1743800912,"current_range_meters":12800,"station_id":"ce4bhq92rcd13ifvqhjg","pricing_plan_id":"cebpf4jnsgd1na2vs0mg"},{"bike_id":"d89bb348-a2b2-475f-b66f-22fe74c882fd","system_id":"levelo_inurba_marseille","lat":43.23171,"lon":5.39967,"is_reserved":false,"is_disabled":false,"rental_uris":{"android":"levelo://app?vid=d89bb348-a2b2-475f-b66f-22fe74c882fd","ios":"levelo://app?vid=d89bb348-a2b2-475f-b66f-22fe74c882fd"},"vehicle_type_id":"4","last_reported":1743800912,"current_range_meters":12800,"station_id":"ce4bhn12rcd13ifvqgqg","pricing_plan_id":"cebpf4jnsgd1na2vs0mg"},{"bike_id":"16a8cb59-d388-403f-89fe-102dea8f4aff","system_id":"levelo_inurba_marseille","lat":43.31163,"lon":5.38723,"is_reserved":false,"is_disabled":false,"rental_uris":{"android":"levelo://app?vid=16a8cb59-d388-403f-89fe-102dea8f4aff","ios":"levelo://app?vid=16a8cb59-d388-403f-89fe-102dea8f4aff"},"vehicle_type_id":"4","last_reported":1743800912,"current_range_meters":12800,"station_id":"ce4bgv12rcd13ifvqcp0","pricing_plan_id":"cebpf4jnsgd1na2vs0mg"},{"bike_id":"eecfad31-5f8c-4f49-9147-e69fe7eacaf4","system_id":"levelo_inurba_marseille","lat":43.29527,"lon":5.38542,"is_reserved":false,"is_disabled":false,"rental_uris":{"android":"levelo://app?vid=eecfad31-5f8c-4f49-9147-e69fe7eacaf4","ios":"levelo://app?vid=eecfad31-5f8c-4f49-9147-e69fe7eacaf4"},"vehicle_type_id":"4","last_reported":1743800912,"current_range_meters":12800,"station_id":"ce4bgih2rcd13ifvqba0","pricing_plan_id":"cebpf4jnsgd1na2vs0mg"},{"bike_id":"3c589fd6-6f67-410e-974c-13bf786ee9e6","system_id":"levelo_inurba_marseille","lat":43.29293,"lon":5.37454,"is_reserved":false,"is_disabled":false,"rental_uris":{"android":"levelo://app?vid=3c589fd6-6f67-410e-974c-13bf786ee9e6","ios":"levelo://app?vid=3c589fd6-6f67-410e-974c-13bf786ee9e6"},"vehicle_type_id":"4","last_reported":1743800912,"current_range_meters":12800,"station_id":"ce4bgi12rcd13ifvqb70","pricing_plan_id":"cebpf4jnsgd1na2vs0mg"},{"bike_id":"6fba5829-4652-4b53-b689-437d3d3459b3","system_id":"levelo_inurba_marseille","lat":43.32326,"lon":5.40605,"is_reserved":false,"is_disabled":false,"rental_uris":{"android":"levelo://app?vid=6fba5829-4652-4b53-b689-437d3d3459b3","ios":"levelo://app?vid=6fba5829-4652-4b53-b689-437d3d3459b3"},"vehicle_type_id":"4","last_reported":1743800912,"current_range_meters":12800,"station_id":"ce4bhq92rcd13ifvqhjg","pricing_plan_id":"cebpf4jnsgd1na2vs0mg"},{"bike_id":"3719d63c-6535-40a3-9206-8644906174c4","system_id":"levelo_inurba_marseille","lat":43.29877,"lon":5.43661,"is_reserved":false,"is_disabled":false,"rental_uris":{"android":"levelo://app?vid=3719d63c-6535-40a3-9206-8644906174c4","ios":"levelo://app?vid=3719d63c-6535-40a3-9206-8644906174c4"},"vehicle_type_id":"4","last_reported":1743800912,"current_range_meters":13600,"station_id":"ce4bhpp2rcd13ifvqhfg","pricing_plan_id":"cebpf4jnsgd1na2vs0mg"},{"bike_id":"5c2a52c1-02d7-449f-a62f-9d7bfe729bbb","system_id":"levelo_inurba_marseille","lat":43.28469,"lon":5.35876,"is_reserved":false,"is_disabled":false,"rental_uris":{"android":"levelo://app?vid=5c2a52c1-02d7-449f-a62f-9d7bfe729bbb","ios":"levelo://app?vid=5c2a52c1-02d7-449f-a62f-9d7bfe729bbb"},"vehicle_type_id":"4","last_reported":1743800912,"current_range_meters":13600,"station_id":"ce4bhah2rcd13ifvqei0","pricing_plan_id":"cebpf4jnsgd1na2vs0mg"},{"bike_id":"13d93137-58cb-413b-b1ac-02c77de37c46","system_id":"levelo_inurba_marseille","lat":43.27821,"lon":5.39218,"is_reserved":false,"is_disabled":false,"rental_uris":{"android":"levelo://app?vid=13d93137-58cb-413b-b1ac-02c77de37c46","ios":"levelo://app?vid=13d93137-58cb-413b-b1ac-02c77de37c46"},"vehicle_type_id":"4","last_reported":1743800912,"current_range_meters":13600,"station_id":"ce4bhjp2rcd13ifvqga0","pricing_plan_id":"cebpf4jnsgd1na2vs0mg"},{"bike_id":"682f7ec8-5529-42b7-a265-aaa70f95d362","system_id":"levelo_inurba_marseille","lat":43.31347,"lon":5.38497,"is_reserved":false,"is_disabled":false,"rental_uris":{"android":"levelo://app?vid=682f7ec8-5529-42b7-a265-aaa70f95d362","ios":"levelo://app?vid=682f7ec8-5529-42b7-a265-aaa70f95d362"},"vehicle_type_id":"4","last_reported":1743800912,"current_range_meters":13600,"station_id":"ce4bgt92rcd13ifvqcf0","pricing_plan_id":"cebpf4jnsgd1na2vs0mg"},{"bike_id":"771f8f1e-cd87-4047-b3ff-87a86b8218fe","system_id":"levelo_inurba_marseille","lat":43.30458,"lon":5.37901,"is_reserved":false,"is_disabled":false,"rental_uris":{"android":"levelo://app?vid=771f8f1e-cd87-4047-b3ff-87a86b8218fe","ios":"levelo://app?vid=771f8f1e-cd87-4047-b3ff-87a86b8218fe"},"vehicle_type_id":"4","last_reported":1743800912,"current_range_meters":14000,"station_id":"ce4bgt12rcd13ifvqce0","pricing_plan_id":"cebpf4jnsgd1na2vs0mg"},{"bike_id":"34b6ebfe-f789-4046-a263-d4eae47d47b0","system_id":"levelo_inurba_marseille","lat":43.28941,"lon":5.39635,"is_reserved":false,"is_disabled":false,"rental_uris":{"android":"levelo://app?vid=34b6ebfe-f789-4046-a263-d4eae47d47b0","ios":"levelo://app?vid=34b6ebfe-f789-4046-a263-d4eae47d47b0"},"vehicle_type_id":"4","last_reported":1743800912,"current_range_meters":14000,"station_id":"ce4bh3h2rcd13ifvqdn0","pricing_plan_id":"cebpf4jnsgd1na2vs0mg"},{"bike_id":"8279a7a7-2de0-4889-bf3b-29550ed42f15","system_id":"levelo_inurba_marseille","lat":43.30891,"lon":5.3963,"is_reserved":false,"is_disabled":false,"rental_uris":{"android":"levelo://app?vid=8279a7a7-2de0-4889-bf3b-29550ed42f15","ios":"levelo://app?vid=8279a7a7-2de0-4889-bf3b-29550ed42f15"},"vehicle_type_id":"4","last_reported":1743800912,"current_range_meters":14000,"station_id":"ce4bh012rcd13ifvqcv0","pricing_plan_id":"cebpf4jnsgd1na2vs0mg"},{"bike_id":"921ba7f4-82a5-49c2-b0c0-a5e606ce0136","system_id":"levelo_inurba_marseille","lat":43.29248,"lon":5.38439,"is_reserved":false,"is_disabled":false,"rental_uris":{"android":"levelo://app?vid=921ba7f4-82a5-49c2-b0c0-a5e606ce0136","ios":"levelo://app?vid=921ba7f4-82a5-49c2-b0c0-a5e606ce0136"},"vehicle_type_id":"4","last_reported":1743800912,"current_range_meters":14000,"station_id":"ce4bh692rcd13ifvqea0","pricing_plan_id":"cebpf4jnsgd1na2vs0mg"},{"bike_id":"85569c5e-792a-4809-8948-6b3410ae7c98","system_id":"levelo_inurba_marseille","lat":43.24689,"lon":5.41188,"is_reserved":false,"is_disabled":false,"rental_uris":{"android":"levelo://app?vid=85569c5e-792a-4809-8948-6b3410ae7c98","ios":"levelo://app?vid=85569c5e-792a-4809-8948-6b3410ae7c98"},"vehicle_type_id":"4","last_reported":1743800912,"current_range_meters":14000,"station_id":"","pricing_plan_id":"cebpf4jnsgd1na2vs0mg"},{"bike_id":"b9790f2e-e609-4b90-bdd4-834e62f66ac2","system_id":"levelo_inurba_marseille","lat":43.29522,"lon":5.38538,"is_reserved":false,"is_disabled":false,"rental_uris":{"android":"levelo://app?vid=b9790f2e-e609-4b90-bdd4-834e62f66ac2","ios":"levelo://app?vid=b9790f2e-e609-4b90-bdd4-834e62f66ac2"},"vehicle_type_id":"4","last_reported":1743800912,"current_range_meters":14000,"station_id":"ce4bgih2rcd13ifvqba0","pricing_plan_id":"cebpf4jnsgd1na2vs0mg"},{"bike_id":"e0025ce5-fe29-4293-8000-c88ee2bac657","system_id":"levelo_inurba_marseille","lat":43.314622,"lon":5.392046,"is_reserved":false,"is_disabled":false,"rental_uris":{"android":"levelo://app?vid=e0025ce5-fe29-4293-8000-c88ee2bac657","ios":"levelo://app?vid=e0025ce5-fe29-4293-8000-c88ee2bac657"},"vehicle_type_id":"4","last_reported":1743800912,"current_range_meters":14000,"station_id":"","pricing_plan_id":"cebpf4jnsgd1na2vs0mg"},{"bike_id":"eaf859a6-ff3d-4281-be3e-7de787fa533a","system_id":"levelo_inurba_marseille","lat":43.30323,"lon":5.39175,"is_reserved":false,"is_disabled":true,"rental_uris":{"android":"levelo://app?vid=eaf859a6-ff3d-4281-be3e-7de787fa533a","ios":"levelo://app?vid=eaf859a6-ff3d-4281-be3e-7de787fa533a"},"vehicle_type_id":"4","last_reported":1743800912,"current_range_meters":14400,"station_id":"ce4bgkh2rcd13ifvqbk0","pricing_plan_id":"cebpf4jnsgd1na2vs0mg"},{"bike_id":"7a05c36a-d459-4d51-b1ce-6f0763ebf5fe","system_id":"levelo_inurba_marseille","lat":43.29258,"lon":5.38409,"is_reserved":false,"is_disabled":false,"rental_uris":{"android":"levelo://app?vid=7a05c36a-d459-4d51-b1ce-6f0763ebf5fe","ios":"levelo://app?vid=7a05c36a-d459-4d51-b1ce-6f0763ebf5fe"},"vehicle_type_id":"4","last_reported":1743800912,"current_range_meters":14400,"station_id":"ce4bh692rcd13ifvqea0","pricing_plan_id":"cebpf4jnsgd1na2vs0mg"},{"bike_id":"496d9c3e-d4cc-4d91-b2f9-1e3766be7e3f","system_id":"levelo_inurba_marseille","lat":43.30645,"lon":5.40065,"is_reserved":false,"is_disabled":false,"rental_uris":{"android":"levelo://app?vid=496d9c3e-d4cc-4d91-b2f9-1e3766be7e3f","ios":"levelo://app?vid=496d9c3e-d4cc-4d91-b2f9-1e3766be7e3f"},"vehicle_type_id":"4","last_reported":1743800912,"current_range_meters":14400,"station_id":"ce4bh112rcd13ifvqda0","pricing_plan_id":"cebpf4jnsgd1na2vs0mg"},{"bike_id":"78102cec-eda3-44b7-a321-0b4f630a9ef8","system_id":"levelo_inurba_marseille","lat":43.29162,"lon":5.37163,"is_reserved":false,"is_disabled":false,"rental_uris":{"android":"levelo://app?vid=78102cec-eda3-44b7-a321-0b4f630a9ef8","ios":"levelo://app?vid=78102cec-eda3-44b7-a321-0b4f630a9ef8"},"vehicle_type_id":"4","last_reported":1743800912,"current_range_meters":14400,"station_id":"ce4bha92rcd13ifvqeh0","pricing_plan_id":"cebpf4jnsgd1na2vs0mg"},{"bike_id":"d7a77506-e751-4787-901c-2ab08ae031f7","system_id":"levelo_inurba_marseille","lat":43.31168,"lon":5.38724,"is_reserved":false,"is_disabled":false,"rental_uris":{"android":"levelo://app?vid=d7a77506-e751-4787-901c-2ab08ae031f7","ios":"levelo://app?vid=d7a77506-e751-4787-901c-2ab08ae031f7"},"vehicle_type_id":"4","last_reported":1743800912,"current_range_meters":14400,"station_id":"ce4bgv12rcd13ifvqcp0","pricing_plan_id":"cebpf4jnsgd1na2vs0mg"},{"bike_id":"82778390-358f-4de6-a4e2-11344a2d5d87","system_id":"levelo_inurba_marseille","lat":43.29085,"lon":5.38115,"is_reserved":false,"is_disabled":false,"rental_uris":{"android":"levelo://app?vid=82778390-358f-4de6-a4e2-11344a2d5d87","ios":"levelo://app?vid=82778390-358f-4de6-a4e2-11344a2d5d87"},"vehicle_type_id":"4","last_reported":1743800912,"current_range_meters":14400,"station_id":"ce4bh512rcd13ifvqe2g","pricing_plan_id":"cebpf4jnsgd1na2vs0mg"},{"bike_id":"30b57730-cb66-4122-bd93-7dabcaba84e7","system_id":"levelo_inurba_marseille","lat":43.24913,"lon":5.40672,"is_reserved":false,"is_disabled":false,"rental_uris":{"android":"levelo://app?vid=30b57730-cb66-4122-bd93-7dabcaba84e7","ios":"levelo://app?vid=30b57730-cb66-4122-bd93-7dabcaba84e7"},"vehicle_type_id":"4","last_reported":1743800912,"current_range_meters":14400,"station_id":"","pricing_plan_id":"cebpf4jnsgd1na2vs0mg"},{"bike_id":"4c364a14-a14f-4fad-ae4a-d1fa8696b548","system_id":"levelo_inurba_marseille","lat":43.25112,"lon":5.40308,"is_reserved":false,"is_disabled":true,"rental_uris":{"android":"levelo://app?vid=4c364a14-a14f-4fad-ae4a-d1fa8696b548","ios":"levelo://app?vid=4c364a14-a14f-4fad-ae4a-d1fa8696b548"},"vehicle_type_id":"4","last_reported":1743800912,"current_range_meters":14400,"station_id":"ce4bhlh2rcd13ifvqgig","pricing_plan_id":"cebpf4jnsgd1na2vs0mg"},{"bike_id":"abc0d9cc-15a3-4a05-9806-c20dab42b17b","system_id":"levelo_inurba_marseille","lat":43.2749,"lon":5.42447,"is_reserved":false,"is_disabled":false,"rental_uris":{"android":"levelo://app?vid=abc0d9cc-15a3-4a05-9806-c20dab42b17b","ios":"levelo://app?vid=abc0d9cc-15a3-4a05-9806-c20dab42b17b"},"vehicle_type_id":"4","last_reported":1743800912,"current_range_meters":14400,"station_id":"ce4bhn92rcd13ifvqgrg","pricing_plan_id":"cebpf4jnsgd1na2vs0mg"},{"bike_id":"54a9c35d-1779-42e3-8045-1a7ede8cd295","system_id":"levelo_inurba_marseille","lat":43.28929,"lon":5.38393,"is_reserved":false,"is_disabled":false,"rental_uris":{"android":"levelo://app?vid=54a9c35d-1779-42e3-8045-1a7ede8cd295","ios":"levelo://app?vid=54a9c35d-1779-42e3-8045-1a7ede8cd295"},"vehicle_type_id":"4","last_reported":1743800912,"current_range_meters":14800,"station_id":"ce4bh612rcd13ifvqe6g","pricing_plan_id":"cebpf4jnsgd1na2vs0mg"},{"bike_id":"88122bdf-e454-4295-87eb-4f2b4f98db61","system_id":"levelo_inurba_marseille","lat":43.3107,"lon":5.38352,"is_reserved":false,"is_disabled":false,"rental_uris":{"android":"levelo://app?vid=88122bdf-e454-4295-87eb-4f2b4f98db61","ios":"levelo://app?vid=88122bdf-e454-4295-87eb-4f2b4f98db61"},"vehicle_type_id":"4","last_reported":1743800912,"current_range_meters":14800,"station_id":"ce4bgv92rcd13ifvqcr0","pricing_plan_id":"cebpf4jnsgd1na2vs0mg"},{"bike_id":"eb445ca1-9662-440d-86db-cf6b64f7a0c4","system_id":"levelo_inurba_marseille","lat":43.29419,"lon":5.38625,"is_reserved":false,"is_disabled":false,"rental_uris":{"android":"levelo://app?vid=eb445ca1-9662-440d-86db-cf6b64f7a0c4","ios":"levelo://app?vid=eb445ca1-9662-440d-86db-cf6b64f7a0c4"},"vehicle_type_id":"4","last_reported":1743800912,"current_range_meters":14800,"station_id":"ce4bh2h2rcd13ifvqdh0","pricing_plan_id":"cebpf4jnsgd1na2vs0mg"},{"bike_id":"07309b52-58d3-4582-98cf-bec6e886957b","system_id":"levelo_inurba_marseille","lat":43.30796,"lon":5.3817,"is_reserved":false,"is_disabled":false,"rental_uris":{"android":"levelo://app?vid=07309b52-58d3-4582-98cf-bec6e886957b","ios":"levelo://app?vid=07309b52-58d3-4582-98cf-bec6e886957b"},"vehicle_type_id":"4","last_reported":1743800912,"current_range_meters":14800,"station_id":"ce4bgt12rcd13ifvqce0","pricing_plan_id":"cebpf4jnsgd1na2vs0mg"},{"bike_id":"c42a3924-022b-479c-aa4e-2288b000212e","system_id":"levelo_inurba_marseille","lat":43.30306,"lon":5.36897,"is_reserved":false,"is_disabled":false,"rental_uris":{"android":"levelo://app?vid=c42a3924-022b-479c-aa4e-2288b000212e","ios":"levelo://app?vid=c42a3924-022b-479c-aa4e-2288b000212e"},"vehicle_type_id":"4","last_reported":1743800912,"current_range_meters":15200,"station_id":"ce4bgqh2rcd13ifvqc5g","pricing_plan_id":"cebpf4jnsgd1na2vs0mg"},{"bike_id":"251d636f-3ef3-48ab-b44e-563cb9477ac3","system_id":"levelo_inurba_marseille","lat":43.2795,"lon":5.41647,"is_reserved":false,"is_disabled":false,"rental_uris":{"android":"levelo://app?vid=251d636f-3ef3-48ab-b44e-563cb9477ac3","ios":"levelo://app?vid=251d636f-3ef3-48ab-b44e-563cb9477ac3"},"vehicle_type_id":"4","last_reported":1743800912,"current_range_meters":15200,"station_id":"ce4bho12rcd13ifvqh1g","pricing_plan_id":"cebpf4jnsgd1na2vs0mg"},{"bike_id":"4a772168-9ca5-48d4-a381-d0d984a984d8","system_id":"levelo_inurba_marseille","lat":43.28699,"lon":5.39984,"is_reserved":false,"is_disabled":false,"rental_uris":{"android":"levelo://app?vid=4a772168-9ca5-48d4-a381-d0d984a984d8","ios":"levelo://app?vid=4a772168-9ca5-48d4-a381-d0d984a984d8"},"vehicle_type_id":"4","last_reported":1743800912,"current_range_meters":15200,"station_id":"ce4bho92rcd13ifvqh3g","pricing_plan_id":"cebpf4jnsgd1na2vs0mg"},{"bike_id":"da576ef3-aa62-4e87-89dc-c76d2b779fd8","system_id":"levelo_inurba_marseille","lat":43.29036,"lon":5.38657,"is_reserved":false,"is_disabled":false,"rental_uris":{"android":"levelo://app?vid=da576ef3-aa62-4e87-89dc-c76d2b779fd8","ios":"levelo://app?vid=da576ef3-aa62-4e87-89dc-c76d2b779fd8"},"vehicle_type_id":"4","last_reported":1743800912,"current_range_meters":15200,"station_id":"ce4bh4p2rcd13ifvqe0g","pricing_plan_id":"cebpf4jnsgd1na2vs0mg"},{"bike_id":"efb52c62-ce6b-4329-aab4-d2130f242a54","system_id":"levelo_inurba_marseille","lat":43.2903,"lon":5.38624,"is_reserved":false,"is_disabled":false,"rental_uris":{"android":"levelo://app?vid=efb52c62-ce6b-4329-aab4-d2130f242a54","ios":"levelo://app?vid=efb52c62-ce6b-4329-aab4-d2130f242a54"},"vehicle_type_id":"4","last_reported":1743800912,"current_range_meters":15200,"station_id":"ce4bh4p2rcd13ifvqe0g","pricing_plan_id":"cebpf4jnsgd1na2vs0mg"},{"bike_id":"7a3cd935-e309-44d8-a3c4-a75980111808","system_id":"levelo_inurba_marseille","lat":43.2936,"lon":5.37852,"is_reserved":false,"is_disabled":true,"rental_uris":{"android":"levelo://app?vid=7a3cd935-e309-44d8-a3c4-a75980111808","ios":"levelo://app?vid=7a3cd935-e309-44d8-a3c4-a75980111808"},"vehicle_type_id":"4","last_reported":1743800912,"current_range_meters":15200,"station_id":"ce4bgjh2rcd13ifvqbf0","pricing_plan_id":"cebpf4jnsgd1na2vs0mg"},{"bike_id":"4f63fbd4-fb65-4aa3-aeae-ee0cf7416bdb","system_id":"levelo_inurba_marseille","lat":43.29906,"lon":5.37482,"is_reserved":false,"is_disabled":false,"rental_uris":{"android":"levelo://app?vid=4f63fbd4-fb65-4aa3-aeae-ee0cf7416bdb","ios":"levelo://app?vid=4f63fbd4-fb65-4aa3-aeae-ee0cf7416bdb"},"vehicle_type_id":"4","last_reported":1743800912,"current_range_meters":15200,"station_id":"ce4bgjh2rcd13ifvqbg0","pricing_plan_id":"cebpf4jnsgd1na2vs0mg"},{"bike_id":"b646ace8-08b7-485e-abcd-2b6b162d14dc","system_id":"levelo_inurba_marseille","lat":43.29904,"lon":5.43655,"is_reserved":false,"is_disabled":false,"rental_uris":{"android":"levelo://app?vid=b646ace8-08b7-485e-abcd-2b6b162d14dc","ios":"levelo://app?vid=b646ace8-08b7-485e-abcd-2b6b162d14dc"},"vehicle_type_id":"4","last_reported":1743800912,"current_range_meters":15200,"station_id":"ce4bhpp2rcd13ifvqhfg","pricing_plan_id":"cebpf4jnsgd1na2vs0mg"},{"bike_id":"a058f5d4-511f-4c92-a3e5-742831067ae0","system_id":"levelo_inurba_marseille","lat":43.30134,"lon":5.37629,"is_reserved":false,"is_disabled":false,"rental_uris":{"android":"levelo://app?vid=a058f5d4-511f-4c92-a3e5-742831067ae0","ios":"levelo://app?vid=a058f5d4-511f-4c92-a3e5-742831067ae0"},"vehicle_type_id":"4","last_reported":1743800912,"current_range_meters":16000,"station_id":"","pricing_plan_id":"cebpf4jnsgd1na2vs0mg"},{"bike_id":"852ae433-cc4e-4f80-9afa-60b2796b15fb","system_id":"levelo_inurba_marseille","lat":43.32374,"lon":5.39298,"is_reserved":false,"is_disabled":false,"rental_uris":{"android":"levelo://app?vid=852ae433-cc4e-4f80-9afa-60b2796b15fb","ios":"levelo://app?vid=852ae433-cc4e-4f80-9afa-60b2796b15fb"},"vehicle_type_id":"4","last_reported":1743800912,"current_range_meters":16000,"station_id":"","pricing_plan_id":"cebpf4jnsgd1na2vs0mg"},{"bike_id":"ade0c60d-5c86-4c26-a865-da759b0300d3","system_id":"levelo_inurba_marseille","lat":43.2925,"lon":5.38436,"is_reserved":false,"is_disabled":false,"rental_uris":{"android":"levelo://app?vid=ade0c60d-5c86-4c26-a865-da759b0300d3","ios":"levelo://app?vid=ade0c60d-5c86-4c26-a865-da759b0300d3"},"vehicle_type_id":"4","last_reported":1743800912,"current_range_meters":16000,"station_id":"ce4bh692rcd13ifvqea0","pricing_plan_id":"cebpf4jnsgd1na2vs0mg"},{"bike_id":"a45393b3-6b7b-4fca-b601-50b1af1dbd9d","system_id":"levelo_inurba_marseille","lat":43.31996,"lon":5.38177,"is_reserved":false,"is_disabled":true,"rental_uris":{"android":"levelo://app?vid=a45393b3-6b7b-4fca-b601-50b1af1dbd9d","ios":"levelo://app?vid=a45393b3-6b7b-4fca-b601-50b1af1dbd9d"},"vehicle_type_id":"4","last_reported":1743800912,"current_range_meters":16000,"station_id":"ce4bhr12rcd13ifvqhpg","pricing_plan_id":"cebpf4jnsgd1na2vs0mg"},{"bike_id":"5827acd2-19b0-45a4-977e-251b81b3da50","system_id":"levelo_inurba_marseille","lat":43.29424,"lon":5.38649,"is_reserved":false,"is_disabled":false,"rental_uris":{"android":"levelo://app?vid=5827acd2-19b0-45a4-977e-251b81b3da50","ios":"levelo://app?vid=5827acd2-19b0-45a4-977e-251b81b3da50"},"vehicle_type_id":"4","last_reported":1743800912,"current_range_meters":16000,"station_id":"ce4bh2h2rcd13ifvqdh0","pricing_plan_id":"cebpf4jnsgd1na2vs0mg"},{"bike_id":"37113a9e-4281-4c46-8e06-a223354b452a","system_id":"levelo_inurba_marseille","lat":43.28453,"lon":5.39183,"is_reserved":false,"is_disabled":false,"rental_uris":{"android":"levelo://app?vid=37113a9e-4281-4c46-8e06-a223354b452a","ios":"levelo://app?vid=37113a9e-4281-4c46-8e06-a223354b452a"},"vehicle_type_id":"4","last_reported":1743800912,"current_range_meters":16000,"station_id":"ce4bhoh2rcd13ifvqh5g","pricing_plan_id":"cebpf4jnsgd1na2vs0mg"},{"bike_id":"a21072e2-0771-485a-9b6c-0e29718f4745","system_id":"levelo_inurba_marseille","lat":43.27978,"lon":5.38739,"is_reserved":false,"is_disabled":false,"rental_uris":{"android":"levelo://app?vid=a21072e2-0771-485a-9b6c-0e29718f4745","ios":"levelo://app?vid=a21072e2-0771-485a-9b6c-0e29718f4745"},"vehicle_type_id":"4","last_reported":1743800912,"current_range_meters":16000,"station_id":"ce4bhg12rcd13ifvqf80","pricing_plan_id":"cebpf4jnsgd1na2vs0mg"},{"bike_id":"f129fc7e-67ec-4def-a1cf-7ee95c999c89","system_id":"levelo_inurba_marseille","lat":43.2927,"lon":5.38444,"is_reserved":false,"is_disabled":false,"rental_uris":{"android":"levelo://app?vid=f129fc7e-67ec-4def-a1cf-7ee95c999c89","ios":"levelo://app?vid=f129fc7e-67ec-4def-a1cf-7ee95c999c89"},"vehicle_type_id":"4","last_reported":1743800912,"current_range_meters":16400,"station_id":"ce4bh692rcd13ifvqea0","pricing_plan_id":"cebpf4jnsgd1na2vs0mg"},{"bike_id":"d5e984d3-343e-4e16-bd54-bc3ebbd48639","system_id":"levelo_inurba_marseille","lat":43.30138,"lon":5.387758,"is_reserved":false,"is_disabled":true,"rental_uris":{"android":"levelo://app?vid=d5e984d3-343e-4e16-bd54-bc3ebbd48639","ios":"levelo://app?vid=d5e984d3-343e-4e16-bd54-bc3ebbd48639"},"vehicle_type_id":"4","last_reported":1743800912,"current_range_meters":16400,"station_id":"ce4bghh2rcd13ifvqb60","pricing_plan_id":"cebpf4jnsgd1na2vs0mg"},{"bike_id":"4b6f99ff-89fe-492f-a6a5-392fad15b431","system_id":"levelo_inurba_marseille","lat":43.29415,"lon":5.38628,"is_reserved":false,"is_disabled":false,"rental_uris":{"android":"levelo://app?vid=4b6f99ff-89fe-492f-a6a5-392fad15b431","ios":"levelo://app?vid=4b6f99ff-89fe-492f-a6a5-392fad15b431"},"vehicle_type_id":"4","last_reported":1743800912,"current_range_meters":16400,"station_id":"ce4bh2h2rcd13ifvqdh0","pricing_plan_id":"cebpf4jnsgd1na2vs0mg"},{"bike_id":"ed81289f-b9f3-4d86-9f8f-d8896cd8f07f","system_id":"levelo_inurba_marseille","lat":43.30411,"lon":5.39771,"is_reserved":false,"is_disabled":true,"rental_uris":{"android":"levelo://app?vid=ed81289f-b9f3-4d86-9f8f-d8896cd8f07f","ios":"levelo://app?vid=ed81289f-b9f3-4d86-9f8f-d8896cd8f07f"},"vehicle_type_id":"4","last_reported":1743800912,"current_range_meters":16400,"station_id":"ce4bh092rcd13ifvqd20","pricing_plan_id":"cebpf4jnsgd1na2vs0mg"},{"bike_id":"883b5c19-b9c3-441b-a6c9-b48bb59fef42","system_id":"levelo_inurba_marseille","lat":43.3093,"lon":5.40148,"is_reserved":false,"is_disabled":false,"rental_uris":{"android":"levelo://app?vid=883b5c19-b9c3-441b-a6c9-b48bb59fef42","ios":"levelo://app?vid=883b5c19-b9c3-441b-a6c9-b48bb59fef42"},"vehicle_type_id":"4","last_reported":1743800912,"current_range_meters":16400,"station_id":"ce4bgvp2rcd13ifvqct0","pricing_plan_id":"cebpf4jnsgd1na2vs0mg"},{"bike_id":"b0b014ad-5ede-4af3-86b6-2dd480528f10","system_id":"levelo_inurba_marseille","lat":43.31676,"lon":5.40455,"is_reserved":false,"is_disabled":false,"rental_uris":{"android":"levelo://app?vid=b0b014ad-5ede-4af3-86b6-2dd480528f10","ios":"levelo://app?vid=b0b014ad-5ede-4af3-86b6-2dd480528f10"},"vehicle_type_id":"4","last_reported":1743800912,"current_range_meters":16400,"station_id":"ce4bh012rcd13ifvqd00","pricing_plan_id":"cebpf4jnsgd1na2vs0mg"},{"bike_id":"e5810712-bd0d-4fa0-92e7-ccc6dbcabeaf","system_id":"levelo_inurba_marseille","lat":43.29021,"lon":5.38639,"is_reserved":false,"is_disabled":false,"rental_uris":{"android":"levelo://app?vid=e5810712-bd0d-4fa0-92e7-ccc6dbcabeaf","ios":"levelo://app?vid=e5810712-bd0d-4fa0-92e7-ccc6dbcabeaf"},"vehicle_type_id":"4","last_reported":1743800912,"current_range_meters":16400,"station_id":"ce4bh4p2rcd13ifvqe0g","pricing_plan_id":"cebpf4jnsgd1na2vs0mg"},{"bike_id":"8c2e966c-cc59-4f5b-a049-98fb7a2e021a","system_id":"levelo_inurba_marseille","lat":43.29269,"lon":5.38445,"is_reserved":false,"is_disabled":false,"rental_uris":{"android":"levelo://app?vid=8c2e966c-cc59-4f5b-a049-98fb7a2e021a","ios":"levelo://app?vid=8c2e966c-cc59-4f5b-a049-98fb7a2e021a"},"vehicle_type_id":"4","last_reported":1743800912,"current_range_meters":16400,"station_id":"ce4bh692rcd13ifvqea0","pricing_plan_id":"cebpf4jnsgd1na2vs0mg"},{"bike_id":"7b68e5ef-135e-4c6b-a9de-8c7d136ebc75","system_id":"levelo_inurba_marseille","lat":43.29414,"lon":5.38639,"is_reserved":false,"is_disabled":false,"rental_uris":{"android":"levelo://app?vid=7b68e5ef-135e-4c6b-a9de-8c7d136ebc75","ios":"levelo://app?vid=7b68e5ef-135e-4c6b-a9de-8c7d136ebc75"},"vehicle_type_id":"4","last_reported":1743800912,"current_range_meters":16400,"station_id":"ce4bh2h2rcd13ifvqdh0","pricing_plan_id":"cebpf4jnsgd1na2vs0mg"},{"bike_id":"c6713aa0-6eb6-4827-bbe9-0243563aac9d","system_id":"levelo_inurba_marseille","lat":43.31363,"lon":5.38484,"is_reserved":false,"is_disabled":false,"rental_uris":{"android":"levelo://app?vid=c6713aa0-6eb6-4827-bbe9-0243563aac9d","ios":"levelo://app?vid=c6713aa0-6eb6-4827-bbe9-0243563aac9d"},"vehicle_type_id":"4","last_reported":1743800912,"current_range_meters":16400,"station_id":"ce4bgt92rcd13ifvqcf0","pricing_plan_id":"cebpf4jnsgd1na2vs0mg"},{"bike_id":"93a5f900-5195-446b-87b9-61c9ad7dedd0","system_id":"levelo_inurba_marseille","lat":43.29412,"lon":5.38625,"is_reserved":false,"is_disabled":false,"rental_uris":{"android":"levelo://app?vid=93a5f900-5195-446b-87b9-61c9ad7dedd0","ios":"levelo://app?vid=93a5f900-5195-446b-87b9-61c9ad7dedd0"},"vehicle_type_id":"4","last_reported":1743800912,"current_range_meters":16400,"station_id":"ce4bh2h2rcd13ifvqdh0","pricing_plan_id":"cebpf4jnsgd1na2vs0mg"},{"bike_id":"7e6652f3-45e3-4a67-98b5-ae31f2ff939f","system_id":"levelo_inurba_marseille","lat":43.28909,"lon":5.36665,"is_reserved":false,"is_disabled":false,"rental_uris":{"android":"levelo://app?vid=7e6652f3-45e3-4a67-98b5-ae31f2ff939f","ios":"levelo://app?vid=7e6652f3-45e3-4a67-98b5-ae31f2ff939f"},"vehicle_type_id":"4","last_reported":1743800912,"current_range_meters":16800,"station_id":"ce4bhap2rcd13ifvqek0","pricing_plan_id":"cebpf4jnsgd1na2vs0mg"},{"bike_id":"d2a07d60-57ab-498a-9a05-2527f7931b4d","system_id":"levelo_inurba_marseille","lat":43.23058,"lon":5.35488,"is_reserved":false,"is_disabled":false,"rental_uris":{"android":"levelo://app?vid=d2a07d60-57ab-498a-9a05-2527f7931b4d","ios":"levelo://app?vid=d2a07d60-57ab-498a-9a05-2527f7931b4d"},"vehicle_type_id":"4","last_reported":1743800912,"current_range_meters":16800,"station_id":"cpo3342slgdg3j2ifvpg","pricing_plan_id":"cebpf4jnsgd1na2vs0mg"},{"bike_id":"1d7dbbc1-3973-4046-af12-51811b6ebbb8","system_id":"levelo_inurba_marseille","lat":43.2944,"lon":5.39744,"is_reserved":false,"is_disabled":false,"rental_uris":{"android":"levelo://app?vid=1d7dbbc1-3973-4046-af12-51811b6ebbb8","ios":"levelo://app?vid=1d7dbbc1-3973-4046-af12-51811b6ebbb8"},"vehicle_type_id":"4","last_reported":1743800912,"current_range_meters":16800,"station_id":"ce4bh3h2rcd13ifvqdo0","pricing_plan_id":"cebpf4jnsgd1na2vs0mg"},{"bike_id":"c1e7edcd-ef39-4a27-acf1-7537827f1daf","system_id":"levelo_inurba_marseille","lat":43.27987,"lon":5.41648,"is_reserved":false,"is_disabled":false,"rental_uris":{"android":"levelo://app?vid=c1e7edcd-ef39-4a27-acf1-7537827f1daf","ios":"levelo://app?vid=c1e7edcd-ef39-4a27-acf1-7537827f1daf"},"vehicle_type_id":"4","last_reported":1743800912,"current_range_meters":16800,"station_id":"ce4bho12rcd13ifvqh1g","pricing_plan_id":"cebpf4jnsgd1na2vs0mg"},