{"last_updated":1743041914,"ttl":60,"version":"2.2","data":{"bikes":[{"bike_id":"d9513bf5-f255-462a-a7d5-c6e6b011af31","system_id":"levelo_inurba_marseille","lat":43.27822,"lon":5.407,"is_reserved":false,"is_disabled":true,"rental_uris":{"android":"levelo://app?vid=d9513bf5-f255-462a-a7d5-c6e6b011af31","ios":"levelo://app?vid=d9513bf5-f255-462a-a7d5-c6e6b011af31"},"vehicle_type_id":"4","last_reported":1743041914,"current_range_meters":2800,"station_id":"ce4bhnh2rcd13ifvqgtg","pricing_plan_id":"cebpf4jnsgd1na2vs0mg"},{"bike_id":"84b78e48-9c1d-4993-9dbc-715a97798d47","system_id":"levelo_inurba_marseille","lat":43.30665,"lon":5.40061,"is_reserved":false,"is_disabled":false,"rental_uris":{"android":"levelo://app?vid=84b78e48-9c1d-4993-9dbc-715a97798d47","ios":"levelo://app?vid=84b78e48-9c1d-4993-9dbc-715a97798d47"},"vehicle_type_id":"4","last_reported":1743041914,"current_range_meters":3200,"station_id":"ce4bh112rcd13ifvqda0","pricing_plan_id":"cebpf4jnsgd1na2vs0mg"},{"bike_id":"07eafe05-e601-47a0-9efb-2a554adf99af","system_id":"levelo_inurba_marseille","lat":43.29063,"lon":5.36951,"is_reserved":false,"is_disabled":false,"rental_uris":{"android":"levelo://app?vid=07eafe05-e601-47a0-9efb-2a554adf99af","ios":"levelo://app?vid=07eafe05-e601-47a0-9efb-2a554adf99af"},"vehicle_type_id":"4","last_reported":1743041914,"current_range_meters":3200,"station_id":"","pricing_plan_id":"cebpf4jnsgd1na2vs0mg"},{"bike_id":"cd20d16a-032a-4ea7-a430-255e9d8a59c5","system_id":"levelo_inurba_marseille","lat":43.31521,"lon":5.37443,"is_reserved":false,"is_disabled":false,"rental_uris":{"android":"levelo://app?vid=cd20d16a-032a-4ea7-a430-255e9d8a59c5","ios":"levelo://app?vid=cd20d16a-032a-4ea7-a430-255e9d8a59c5"},"vehicle_type_id":"4","last_reported":1743041914,"current_range_meters":3600,"station_id":"","pricing_plan_id":"cebpf4jnsgd1na2vs0mg"},{"bike_id":"4621f39e-ea2e-480f-bc78-72aa4a0322d1","system_id":"levelo_inurba_marseille","lat":43.25118,"lon":5.40333,"is_reserved":false,"is_disabled":false,"rental_uris":{"android":"levelo://app?vid=4621f39e-ea2e-480f-bc78-72aa4a0322d1","ios":"levelo://app?vid=4621f39e-ea2e-480f-bc78-72aa4a0322d1"},"vehicle_type_id":"4","last_reported":1743041914,"current_range_meters":3600,"station_id":"ce4bhlh2rcd13ifvqgig","pricing_plan_id":"cebpf4jnsgd1na2vs0mg"},{"bike_id":"885d99e2-17a6-4538-a4be-5c3403f78714","system_id":"levelo_inurba_marseille","lat":43.28619,"lon":5.35099,"is_reserved":false,"is_disabled":false,"rental_uris":{"android":"levelo://app?vid=885d99e2-17a6-4538-a4be-5c3403f78714","ios":"levelo://app?vid=885d99e2-17a6-4538-a4be-5c3403f78714"},"vehicle_type_id":"4","last_reported":1743041914,"current_range_meters":3600,"station_id":"ce4bhch2rcd13ifvqeug","pricing_plan_id":"cebpf4jnsgd1na2vs0mg"},{"bike_id":"a9c99d83-0759-483c-a6a3-bf37c98df50d","system_id":"levelo_inurba_marseille","lat":43.28474,"lon":5.35974,"is_reserved":false,"is_disabled":false,"rental_uris":{"android":"levelo://app?vid=a9c99d83-0759-483c-a6a3-bf37c98df50d","ios":"levelo://app?vid=a9c99d83-0759-483c-a6a3-bf37c98df50d"},"vehicle_type_id":"4","last_reported":1743041914,"current_range_meters":4000,"station_id":"ce4bhah2rcd13ifvqei0","pricing_plan_id":"cebpf4jnsgd1na2vs0mg"},{"bike_id":"054613ea-f6f8-4bc5-9db6-662a488460db","system_id":"levelo_inurba_marseille","lat":43.302118,"lon":5.394654,"is_reserved":false,"is_disabled":false,"rental_uris":{"android":"levelo://app?vid=054613ea-f6f8-4bc5-9db6-662a488460db","ios":"levelo://app?vid=054613ea-f6f8-4bc5-9db6-662a488460db"},"vehicle_type_id":"4","last_reported":1743041914,"current_range_meters":4000,"station_id":"ce4bh0p2rcd13ifvqd70","pricing_plan_id":"cebpf4jnsgd1na2vs0mg"},{"bike_id":"ea058543-5b6a-48af-855d-c8588b5d0075","system_id":"levelo_inurba_marseille","lat":43.28164,"lon":5.42656,"is_reserved":false,"is_disabled":false,"rental_uris":{"android":"levelo://app?vid=ea058543-5b6a-48af-855d-c8588b5d0075","ios":"levelo://app?vid=ea058543-5b6a-48af-855d-c8588b5d0075"},"vehicle_type_id":"4","last_reported":1743041914,"current_range_meters":4000,"station_id":"ce4bhnh2rcd13ifvqgug","pricing_plan_id":"cebpf4jnsgd1na2vs0mg"},{"bike_id":"77823725-c761-49bc-902c-64c32b686ae7","system_id":"levelo_inurba_marseille","lat":43.23067,"lon":5.35487,"is_reserved":false,"is_disabled":false,"rental_uris":{"android":"levelo://app?vid=77823725-c761-49bc-902c-64c32b686ae7","ios":"levelo://app?vid=77823725-c761-49bc-902c-64c32b686ae7"},"vehicle_type_id":"4","last_reported":1743041914,"current_range_meters":4000,"station_id":"cpo3342slgdg3j2ifvpg","pricing_plan_id":"cebpf4jnsgd1na2vs0mg"},{"bike_id":"1166a390-5ee0-4599-b63d-b09cb15c0001","system_id":"levelo_inurba_marseille","lat":43.24074,"lon":5.37751,"is_reserved":false,"is_disabled":false,"rental_uris":{"android":"levelo://app?vid=1166a390-5ee0-4599-b63d-b09cb15c0001","ios":"levelo://app?vid=1166a390-5ee0-4599-b63d-b09cb15c0001"},"vehicle_type_id":"4","last_reported":1743041914,"current_range_meters":4400,"station_id":"ce4bhnp2rcd13ifvqgvg","pricing_plan_id":"cebpf4jnsgd1na2vs0mg"},{"bike_id":"3cd9b5bc-fba0-4545-94d0-e86f3d302f0f","system_id":"levelo_inurba_marseille","lat":43.28153,"lon":5.42643,"is_reserved":false,"is_disabled":false,"rental_uris":{"android":"levelo://app?vid=3cd9b5bc-fba0-4545-94d0-e86f3d302f0f","ios":"levelo://app?vid=3cd9b5bc-fba0-4545-94d0-e86f3d302f0f"},"vehicle_type_id":"4","last_reported":1743041914,"current_range_meters":4400,"station_id":"ce4bhnh2rcd13ifvqgug","pricing_plan_id":"cebpf4jnsgd1na2vs0mg"},{"bike_id":"02ad8c22-e081-411e-88d5-20a7dac6d9a6","system_id":"levelo_inurba_marseille","lat":43.29934,"lon":5.3648,"is_reserved":false,"is_disabled":false,"rental_uris":{"android":"levelo://app?vid=02ad8c22-e081-411e-88d5-20a7dac6d9a6","ios":"levelo://app?vid=02ad8c22-e081-411e-88d5-20a7dac6d9a6"},"vehicle_type_id":"4","last_reported":1743041914,"current_range_meters":4400,"station_id":"ce4bgm92rcd13ifvqbr0","pricing_plan_id":"cebpf4jnsgd1na2vs0mg"},{"bike_id":"5aaac380-ba77-4ed5-aced-d797d5b86f53","system_id":"levelo_inurba_marseille","lat":43.30868,"lon":5.37762,"is_reserved":false,"is_disabled":false,"rental_uris":{"android":"levelo://app?vid=5aaac380-ba77-4ed5-aced-d797d5b86f53","ios":"levelo://app?vid=5aaac380-ba77-4ed5-aced-d797d5b86f53"},"vehicle_type_id":"4","last_reported":1743041914,"current_range_meters":4400,"station_id":"","pricing_plan_id":"cebpf4jnsgd1na2vs0mg"},{"bike_id":"ac16162e-9eb6-40a2-ae8b-a763f64ec361","system_id":"levelo_inurba_marseille","lat":43.29002,"lon":5.35629,"is_reserved":false,"is_disabled":true,"rental_uris":{"android":"levelo://app?vid=ac16162e-9eb6-40a2-ae8b-a763f64ec361","ios":"levelo://app?vid=ac16162e-9eb6-40a2-ae8b-a763f64ec361"},"vehicle_type_id":"4","last_reported":1743041914,"current_range_meters":4800,"station_id":"ce4bhb92rcd13ifvqen0","pricing_plan_id":"cebpf4jnsgd1na2vs0mg"},{"bike_id":"589f1146-20bc-4a88-9ab7-60ee275b3000","system_id":"levelo_inurba_marseille","lat":43.2971,"lon":5.37979,"is_reserved":false,"is_disabled":false,"rental_uris":{"android":"levelo://app?vid=589f1146-20bc-4a88-9ab7-60ee275b3000","ios":"levelo://app?vid=589f1146-20bc-4a88-9ab7-60ee275b3000"},"vehicle_type_id":"4","last_reported":1743041914,"current_range_meters":4800,"station_id":"","pricing_plan_id":"cebpf4jnsgd1na2vs0mg"},{"bike_id":"33d12302-ab8b-4f13-924f-dac00f82faa1","system_id":"levelo_inurba_marseille","lat":43.288421,"lon":5.393138,"is_reserved":false,"is_disabled":false,"rental_uris":{"android":"levelo://app?vid=33d12302-ab8b-4f13-924f-dac00f82faa1","ios":"levelo://app?vid=33d12302-ab8b-4f13-924f-dac00f82faa1"},"vehicle_type_id":"4","last_reported":1743041914,"current_range_meters":4800,"station_id":"","pricing_plan_id":"cebpf4jnsgd1na2vs0mg"},{"bike_id":"48822a6e-9863-438b-b433-8ccb3f8db96d","system_id":"levelo_inurba_marseille","lat":43.31699,"lon":5.37652,"is_reserved":false,"is_disabled":true,"rental_uris":{"android":"levelo://app?vid=48822a6e-9863-438b-b433-8ccb3f8db96d","ios":"levelo://app?vid=48822a6e-9863-438b-b433-8ccb3f8db96d"},"vehicle_type_id":"4","last_reported":1743041914,"current_range_meters":4800,"station_id":"","pricing_plan_id":"cebpf4jnsgd1na2vs0mg"},{"bike_id":"9601d59f-89ef-43d4-96ab-0586b4d92927","system_id":"levelo_inurba_marseille","lat":43.27817,"lon":5.4073,"is_reserved":false,"is_disabled":false,"rental_uris":{"android":"levelo://app?vid=9601d59f-89ef-43d4-96ab-0586b4d92927","ios":"levelo://app?vid=9601d59f-89ef-43d4-96ab-0586b4d92927"},"vehicle_type_id":"4","last_reported":1743041914,"current_range_meters":5600,"station_id":"ce4bhnh2rcd13ifvqgtg","pricing_plan_id":"cebpf4jnsgd1na2vs0mg"},{"bike_id":"a6460627-511d-44ea-a912-da2085b0a119","system_id":"levelo_inurba_marseille","lat":43.2942,"lon":5.3861,"is_reserved":false,"is_disabled":true,"rental_uris":{"android":"levelo://app?vid=a6460627-511d-44ea-a912-da2085b0a119","ios":"levelo://app?vid=a6460627-511d-44ea-a912-da2085b0a119"},"vehicle_type_id":"4","last_reported":1743041914,"current_range_meters":6000,"station_id":"ce4bh2h2rcd13ifvqdh0","pricing_plan_id":"cebpf4jnsgd1na2vs0mg"},{"bike_id":"d5804ad3-33e7-454e-b7d4-322b214049f7","system_id":"levelo_inurba_marseille","lat":43.24658,"lon":5.38163,"is_reserved":false,"is_disabled":false,"rental_uris":{"android":"levelo://app?vid=d5804ad3-33e7-454e-b7d4-322b214049f7","ios":"levelo://app?vid=d5804ad3-33e7-454e-b7d4-322b214049f7"},"vehicle_type_id":"4","last_reported":1743041914,"current_range_meters":6000,"station_id":"ce4bhih2rcd13ifvqfr0","pricing_plan_id":"cebpf4jnsgd1na2vs0mg"},{"bike_id":"8b0643ce-934f-49d4-aae3-32dc3ec1ff83","system_id":"levelo_inurba_marseille","lat":43.28156,"lon":5.42634,"is_reserved":false,"is_disabled":false,"rental_uris":{"android":"levelo://app?vid=8b0643ce-934f-49d4-aae3-32dc3ec1ff83","ios":"levelo://app?vid=8b0643ce-934f-49d4-aae3-32dc3ec1ff83"},"vehicle_type_id":"4","last_reported":1743041914,"current_range_meters":6000,"station_id":"ce4bhnh2rcd13ifvqgug","pricing_plan_id":"cebpf4jnsgd1na2vs0mg"},{"bike_id":"27c78005-df22-4fed-9cf5-134473a4c838","system_id":"levelo_inurba_marseille","lat":43.28273,"lon":5.35064,"is_reserved":false,"is_disabled":false,"rental_uris":{"android":"levelo://app?vid=27c78005-df22-4fed-9cf5-134473a4c838","ios":"levelo://app?vid=27c78005-df22-4fed-9cf5-134473a4c838"},"vehicle_type_id":"4","last_reported":1743041914,"current_range_meters":6000,"station_id":"ce4bhbp2rcd13ifvqerg","pricing_plan_id":"cebpf4jnsgd1na2vs0mg"},{"bike_id":"35f1432b-c929-4f89-82cf-51b4fa739eb0","system_id":"levelo_inurba_marseille","lat":43.280317,"lon":5.369376,"is_reserved":false,"is_disabled":false,"rental_uris":{"android":"levelo://app?vid=35f1432b-c929-4f89-82cf-51b4fa739eb0","ios":"levelo://app?vid=35f1432b-c929-4f89-82cf-51b4fa739eb0"},"vehicle_type_id":"4","last_reported":1743041914,"current_range_meters":6000,"station_id":"ce4bha12rcd13ifvqef0","pricing_plan_id":"cebpf4jnsgd1na2vs0mg"},{"bike_id":"3caf9297-9162-427d-b86d-54632f9b80d9","system_id":"levelo_inurba_marseille","lat":43.27813,"lon":5.407161,"is_reserved":false,"is_disabled":false,"rental_uris":{"android":"levelo://app?vid=3caf9297-9162-427d-b86d-54632f9b80d9","ios":"levelo://app?vid=3caf9297-9162-427d-b86d-54632f9b80d9"},"vehicle_type_id":"4","last_reported":1743041914,"current_range_meters":6000,"station_id":"ce4bhnh2rcd13ifvqgtg","pricing_plan_id":"cebpf4jnsgd1na2vs0mg"},{"bike_id":"4620f6f4-c1df-4d73-856f-ec59b843bc14","system_id":"levelo_inurba_marseille","lat":43.291927,"lon":5.357956,"is_reserved":false,"is_disabled":false,"rental_uris":{"android":"levelo://app?vid=4620f6f4-c1df-4d73-856f-ec59b843bc14","ios":"levelo://app?vid=4620f6f4-c1df-4d73-856f-ec59b843bc14"},"vehicle_type_id":"4","last_reported":1743041914,"current_range_meters":6000,"station_id":"ce4bhb12rcd13ifvqel0","pricing_plan_id":"cebpf4jnsgd1na2vs0mg"},{"bike_id":"9e414f59-5d13-4847-984b-695d5e36104b","system_id":"levelo_inurba_marseille","lat":43.278713,"lon":5.412039,"is_reserved":false,"is_disabled":false,"rental_uris":{"android":"levelo://app?vid=9e414f59-5d13-4847-984b-695d5e36104b","ios":"levelo://app?vid=9e414f59-5d13-4847-984b-695d5e36104b"},"vehicle_type_id":"4","last_reported":1743041914,"current_range_meters":6400,"station_id":"","pricing_plan_id":"cebpf4jnsgd1na2vs0mg"},{"bike_id":"ead8f017-caa8-45b4-af35-a8f9330451ca","system_id":"levelo_inurba_marseille","lat":43.311168,"lon":5.37764,"is_reserved":false,"is_disabled":false,"rental_uris":{"android":"levelo://app?vid=ead8f017-caa8-45b4-af35-a8f9330451ca","ios":"levelo://app?vid=ead8f017-caa8-45b4-af35-a8f9330451ca"},"vehicle_type_id":"4","last_reported":1743041914,"current_range_meters":6400,"station_id":"ce4bgt92rcd13ifvqcg0","pricing_plan_id":"cebpf4jnsgd1na2vs0mg"},{"bike_id":"44156654-a4cf-4f20-b992-8a27bbcc69ed","system_id":"levelo_inurba_marseille","lat":43.232,"lon":5.39985,"is_reserved":false,"is_disabled":true,"rental_uris":{"android":"levelo://app?vid=44156654-a4cf-4f20-b992-8a27bbcc69ed","ios":"levelo://app?vid=44156654-a4cf-4f20-b992-8a27bbcc69ed"},"vehicle_type_id":"4","last_reported":1743041914,"current_range_meters":6400,"station_id":"ce4bhn12rcd13ifvqgqg","pricing_plan_id":"cebpf4jnsgd1na2vs0mg"},{"bike_id":"01bcb2f5-8344-46f6-b91e-61d5c61b0275","system_id":"levelo_inurba_marseille","lat":43.27921,"lon":5.39585,"is_reserved":false,"is_disabled":false,"rental_uris":{"android":"levelo://app?vid=01bcb2f5-8344-46f6-b91e-61d5c61b0275","ios":"levelo://app?vid=01bcb2f5-8344-46f6-b91e-61d5c61b0275"},"vehicle_type_id":"4","last_reported":1743041914,"current_range_meters":6400,"station_id":"ce4bhf92rcd13ifvqf40","pricing_plan_id":"cebpf4jnsgd1na2vs0mg"},{"bike_id":"fc2186a3-9143-4ddc-a7af-47ab8ad9a861","system_id":"levelo_inurba_marseille","lat":43.31119,"lon":5.37757,"is_reserved":false,"is_disabled":false,"rental_uris":{"android":"levelo://app?vid=fc2186a3-9143-4ddc-a7af-47ab8ad9a861","ios":"levelo://app?vid=fc2186a3-9143-4ddc-a7af-47ab8ad9a861"},"vehicle_type_id":"4","last_reported":1743041914,"current_range_meters":6400,"station_id":"ce4bgt92rcd13ifvqcg0","pricing_plan_id":"cebpf4jnsgd1na2vs0mg"},{"bike_id":"067247e0-a27c-4e52-9052-c6b9eea5c7f4","system_id":"levelo_inurba_marseille","lat":43.314129,"lon":5.374555,"is_reserved":false,"is_disabled":false,"rental_uris":{"android":"levelo://app?vid=067247e0-a27c-4e52-9052-c6b9eea5c7f4","ios":"levelo://app?vid=067247e0-a27c-4e52-9052-c6b9eea5c7f4"},"vehicle_type_id":"4","last_reported":1743041914,"current_range_meters":6400,"station_id":"","pricing_plan_id":"cebpf4jnsgd1na2vs0mg"},{"bike_id":"3789873a-1dd9-4f31-847a-52f0d7019a2f","system_id":"levelo_inurba_marseille","lat":43.239622,"lon":5.366435,"is_reserved":false,"is_disabled":false,"rental_uris":{"android":"levelo://app?vid=3789873a-1dd9-4f31-847a-52f0d7019a2f","ios":"levelo://app?vid=3789873a-1dd9-4f31-847a-52f0d7019a2f"},"vehicle_type_id":"4","last_reported":1743041914,"current_range_meters":6400,"station_id":"ce4bhi12rcd13ifvqfp0","pricing_plan_id":"cebpf4jnsgd1na2vs0mg"},{"bike_id":"308ec19f-b75d-4169-9e70-bb5e6ffe4a06","system_id":"levelo_inurba_marseille","lat":43.28498,"lon":5.39514,"is_reserved":false,"is_disabled":false,"rental_uris":{"android":"levelo://app?vid=308ec19f-b75d-4169-9e70-bb5e6ffe4a06","ios":"levelo://app?vid=308ec19f-b75d-4169-9e70-bb5e6ffe4a06"},"vehicle_type_id":"4","last_reported":1743041914,"current_range_meters":6400,"station_id":"","pricing_plan_id":"cebpf4jnsgd1na2vs0mg"},{"bike_id":"65f9cfce-b990-48f0-8801-f8ca0f9be0d4","system_id":"levelo_inurba_marseille","lat":43.31278,"lon":5.4018,"is_reserved":false,"is_disabled":false,"rental_uris":{"android":"levelo://app?vid=65f9cfce-b990-48f0-8801-f8ca0f9be0d4","ios":"levelo://app?vid=65f9cfce-b990-48f0-8801-f8ca0f9be0d4"},"vehicle_type_id":"4","last_reported":1743041914,"current_range_meters":6400,"station_id":"ce4bh092rcd13ifvqd30","pricing_plan_id":"cebpf4jnsgd1na2vs0mg"},{"bike_id":"ecfbe1b6-91a4-4967-b2f4-1915901f3187","system_id":"levelo_inurba_marseille","lat":43.31756,"lon":5.39,"is_reserved":false,"is_disabled":false,"rental_uris":{"android":"levelo://app?vid=ecfbe1b6-91a4-4967-b2f4-1915901f3187","ios":"levelo://app?vid=ecfbe1b6-91a4-4967-b2f4-1915901f3187"},"vehicle_type_id":"4","last_reported":1743041914,"current_range_meters":6800,"station_id":"ce4bhqp2rcd13ifvqhng","pricing_plan_id":"cebpf4jnsgd1na2vs0mg"},{"bike_id":"430c3b2f-ce28-466f-bf46-972a037d9be1","system_id":"levelo_inurba_marseille","lat":43.25825,"lon":5.39415,"is_reserved":false,"is_disabled":false,"rental_uris":{"android":"levelo://app?vid=430c3b2f-ce28-466f-bf46-972a037d9be1","ios":"levelo://app?vid=430c3b2f-ce28-466f-bf46-972a037d9be1"},"vehicle_type_id":"4","last_reported":1743041914,"current_range_meters":6800,"station_id":"ce4bhip2rcd13ifvqft0","pricing_plan_id":"cebpf4jnsgd1na2vs0mg"},{"bike_id":"a5fb06d1-c469-4515-9522-548b956fd2b3","system_id":"levelo_inurba_marseille","lat":43.31766,"lon":5.39021,"is_reserved":false,"is_disabled":false,"rental_uris":{"android":"levelo://app?vid=a5fb06d1-c469-4515-9522-548b956fd2b3","ios":"levelo://app?vid=a5fb06d1-c469-4515-9522-548b956fd2b3"},"vehicle_type_id":"4","last_reported":1743041914,"current_range_meters":6800,"station_id":"ce4bhqp2rcd13ifvqhng","pricing_plan_id":"cebpf4jnsgd1na2vs0mg"},{"bike_id":"4f715ae9-6c61-4ea7-84e2-ec21588066d3","system_id":"levelo_inurba_marseille","lat":43.26799,"lon":5.40274,"is_reserved":false,"is_disabled":false,"rental_uris":{"android":"levelo://app?vid=4f715ae9-6c61-4ea7-84e2-ec21588066d3","ios":"levelo://app?vid=4f715ae9-6c61-4ea7-84e2-ec21588066d3"},"vehicle_type_id":"4","last_reported":1743041914,"current_range_meters":6800,"station_id":"ce501612rcd8frsf0b60","pricing_plan_id":"cebpf4jnsgd1na2vs0mg"},{"bike_id":"bf24ded8-23e1-417c-b5d8-5c062c9776ae","system_id":"levelo_inurba_marseille","lat":43.23196,"lon":5.40002,"is_reserved":false,"is_disabled":false,"rental_uris":{"android":"levelo://app?vid=bf24ded8-23e1-417c-b5d8-5c062c9776ae","ios":"levelo://app?vid=bf24ded8-23e1-417c-b5d8-5c062c9776ae"},"vehicle_type_id":"4","last_reported":1743041914,"current_range_meters":6800,"station_id":"ce4bhn12rcd13ifvqgqg","pricing_plan_id":"cebpf4jnsgd1na2vs0mg"},{"bike_id":"2b7cb951-03a2-4661-9ae4-4caf1591ddb1","system_id":"levelo_inurba_marseille","lat":43.26248,"lon":5.40452,"is_reserved":false,"is_disabled":false,"rental_uris":{"android":"levelo://app?vid=2b7cb951-03a2-4661-9ae4-4caf1591ddb1","ios":"levelo://app?vid=2b7cb951-03a2-4661-9ae4-4caf1591ddb1"},"vehicle_type_id":"4","last_reported":1743041914,"current_range_meters":6800,"station_id":"ce4bhmh2rcd13ifvqgmg","pricing_plan_id":"cebpf4jnsgd1na2vs0mg"},{"bike_id":"d021d68d-8ae6-4775-8ae8-b202fe9ee83d","system_id":"levelo_inurba_marseille","lat":43.28546,"lon":5.39997,"is_reserved":false,"is_disabled":false,"rental_uris":{"android":"levelo://app?vid=d021d68d-8ae6-4775-8ae8-b202fe9ee83d","ios":"levelo://app?vid=d021d68d-8ae6-4775-8ae8-b202fe9ee83d"},"vehicle_type_id":"4","last_reported":1743041914,"current_range_meters":6800,"station_id":"","pricing_plan_id":"cebpf4jnsgd1na2vs0mg"},{"bike_id":"ee28380f-2566-499f-8ab8-5a75cb1ed72f","system_id":"levelo_inurba_marseille","lat":43.288329,"lon":5.393258,"is_reserved":false,"is_disabled":true,"rental_uris":{"android":"levelo://app?vid=ee28380f-2566-499f-8ab8-5a75cb1ed72f","ios":"levelo://app?vid=ee28380f-2566-499f-8ab8-5a75cb1ed72f"},"vehicle_type_id":"4","last_reported":1743041914,"current_range_meters":6800,"station_id":"","pricing_plan_id":"cebpf4jnsgd1na2vs0mg"},{"bike_id":"494edb5c-8886-472a-b4b2-0033adc0ccbd","system_id":"levelo_inurba_marseille","lat":43.23201,"lon":5.39972,"is_reserved":false,"is_disabled":false,"rental_uris":{"android":"levelo://app?vid=494edb5c-8886-472a-b4b2-0033adc0ccbd","ios":"levelo://app?vid=494edb5c-8886-472a-b4b2-0033adc0ccbd"},"vehicle_type_id":"4","last_reported":1743041914,"current_range_meters":6800,"station_id":"ce4bhn12rcd13ifvqgqg","pricing_plan_id":"cebpf4jnsgd1na2vs0mg"},{"bike_id":"71a2a3e4-736d-4eb5-b31f-32762bd6b8c3","system_id":"levelo_inurba_marseille","lat":43.290012,"lon":5.356121,"is_reserved":false,"is_disabled":false,"rental_uris":{"android":"levelo://app?vid=71a2a3e4-736d-4eb5-b31f-32762bd6b8c3","ios":"levelo://app?vid=71a2a3e4-736d-4eb5-b31f-32762bd6b8c3"},"vehicle_type_id":"4","last_reported":1743041914,"current_range_meters":6800,"station_id":"ce4bhb92rcd13ifvqen0","pricing_plan_id":"cebpf4jnsgd1na2vs0mg"},{"bike_id":"e40ca3db-9cd3-4e7c-a6c9-9922c73b5079","system_id":"levelo_inurba_marseille","lat":43.303772,"lon":5.42486,"is_reserved":false,"is_disabled":false,"rental_uris":{"android":"levelo://app?vid=e40ca3db-9cd3-4e7c-a6c9-9922c73b5079","ios":"levelo://app?vid=e40ca3db-9cd3-4e7c-a6c9-9922c73b5079"},"vehicle_type_id":"4","last_reported":1743041914,"current_range_meters":7200,"station_id":"ce4bhoh2rcd13ifvqh6g","pricing_plan_id":"cebpf4jnsgd1na2vs0mg"},{"bike_id":"4d6d8a3e-5cdb-4d7b-bbad-abcfee7897a7","system_id":"levelo_inurba_marseille","lat":43.28042,"lon":5.36956,"is_reserved":false,"is_disabled":false,"rental_uris":{"android":"levelo://app?vid=4d6d8a3e-5cdb-4d7b-bbad-abcfee7897a7","ios":"levelo://app?vid=4d6d8a3e-5cdb-4d7b-bbad-abcfee7897a7"},"vehicle_type_id":"4","last_reported":1743041914,"current_range_meters":7200,"station_id":"ce4bha12rcd13ifvqef0","pricing_plan_id":"cebpf4jnsgd1na2vs0mg"},{"bike_id":"ba928e2c-172e-4d95-afa4-8dab7a73bb9a","system_id":"levelo_inurba_marseille","lat":43.30958,"lon":5.39607,"is_reserved":false,"is_disabled":false,"rental_uris":{"android":"levelo://app?vid=ba928e2c-172e-4d95-afa4-8dab7a73bb9a","ios":"levelo://app?vid=ba928e2c-172e-4d95-afa4-8dab7a73bb9a"},"vehicle_type_id":"4","last_reported":1743041914,"current_range_meters":7200,"station_id":"","pricing_plan_id":"cebpf4jnsgd1na2vs0mg"},{"bike_id":"f331f4a0-921f-47e2-bc64-3b6ed88b17e3","system_id":"levelo_inurba_marseille","lat":43.27177,"lon":5.40983,"is_reserved":false,"is_disabled":false,"rental_uris":{"android":"levelo://app?vid=f331f4a0-921f-47e2-bc64-3b6ed88b17e3","ios":"levelo://app?vid=f331f4a0-921f-47e2-bc64-3b6ed88b17e3"},"vehicle_type_id":"4","last_reported":1743041914,"current_range_meters":7200,"station_id":"ce4bhl12rcd13ifvqgf0","pricing_plan_id":"cebpf4jnsgd1na2vs0mg"},{"bike_id":"45473374-eabb-4db3-bd6c-f156d2935509","system_id":"levelo_inurba_marseille","lat":43.268135,"lon":5.402591,"is_reserved":false,"is_disabled":false,"rental_uris":{"android":"levelo://app?vid=45473374-eabb-4db3-bd6c-f156d2935509","ios":"levelo://app?vid=45473374-eabb-4db3-bd6c-f156d2935509"},"vehicle_type_id":"4","last_reported":1743041914,"current_range_meters":7200,"station_id":"ce501612rcd8frsf0b60","pricing_plan_id":"cebpf4jnsgd1na2vs0mg"},{"bike_id":"98c7ca61-6b4e-4129-ad44-4943fd2074d6","system_id":"levelo_inurba_marseille","lat":43.229311,"lon":5.353772,"is_reserved":false,"is_disabled":false,"rental_uris":{"android":"levelo://app?vid=98c7ca61-6b4e-4129-ad44-4943fd2074d6","ios":"levelo://app?vid=98c7ca61-6b4e-4129-ad44-4943fd2074d6"},"vehicle_type_id":"4","last_reported":1743041914,"current_range_meters":7200,"station_id":"cpo3532slgdg3j2ikp40","pricing_plan_id":"cebpf4jnsgd1na2vs0mg"},{"bike_id":"cbb04385-b733-4245-8069-e7d5530c1471","system_id":"levelo_inurba_marseille","lat":43.31123,"lon":5.37758,"is_reserved":false,"is_disabled":false,"rental_uris":{"android":"levelo://app?vid=cbb04385-b733-4245-8069-e7d5530c1471","ios":"levelo://app?vid=cbb04385-b733-4245-8069-e7d5530c1471"},"vehicle_type_id":"4","last_reported":1743041914,"current_range_meters":7200,"station_id":"ce4bgt92rcd13ifvqcg0","pricing_plan_id":"cebpf4jnsgd1na2vs0mg"},{"bike_id":"9c66cc15-0096-423b-bdc5-f6e3c74078ab","system_id":"levelo_inurba_marseille","lat":43.311962,"lon":5.378487,"is_reserved":false,"is_disabled":false,"rental_uris":{"android":"levelo://app?vid=9c66cc15-0096-423b-bdc5-f6e3c74078ab","ios":"levelo://app?vid=9c66cc15-0096-423b-bdc5-f6e3c74078ab"},"vehicle_type_id":"4","last_reported":1743041914,"current_range_meters":7200,"station_id":"","pricing_plan_id":"cebpf4jnsgd1na2vs0mg"},{"bike_id":"63014678-39e4-40a2-9cd0-6c6c95631cbc","system_id":"levelo_inurba_marseille","lat":43.31716,"lon":5.40462,"is_reserved":false,"is_disabled":false,"rental_uris":{"android":"levelo://app?vid=63014678-39e4-40a2-9cd0-6c6c95631cbc","ios":"levelo://app?vid=63014678-39e4-40a2-9cd0-6c6c95631cbc"},"vehicle_type_id":"4","last_reported":1743041914,"current_range_meters":7200,"station_id":"ce4bh012rcd13ifvqd00","pricing_plan_id":"cebpf4jnsgd1na2vs0mg"},{"bike_id":"88753d84-9812-452a-aaa2-0098815422ab","system_id":"levelo_inurba_marseille","lat":43.308782,"lon":5.371933,"is_reserved":false,"is_disabled":false,"rental_uris":{"android":"levelo://app?vid=88753d84-9812-452a-aaa2-0098815422ab","ios":"levelo://app?vid=88753d84-9812-452a-aaa2-0098815422ab"},"vehicle_type_id":"4","last_reported":1743041914,"current_range_meters":7200,"station_id":"ce4bguh2rcd13ifvqckg","pricing_plan_id":"cebpf4jnsgd1na2vs0mg"},{"bike_id":"a1dcf5bc-54fc-45f7-9928-5cf9485d7c58","system_id":"levelo_inurba_marseille","lat":43.2317,"lon":5.39952,"is_reserved":false,"is_disabled":false,"rental_uris":{"android":"levelo://app?vid=a1dcf5bc-54fc-45f7-9928-5cf9485d7c58","ios":"levelo://app?vid=a1dcf5bc-54fc-45f7-9928-5cf9485d7c58"},"vehicle_type_id":"4","last_reported":1743041914,"current_range_meters":7200,"station_id":"ce4bhn12rcd13ifvqgqg","pricing_plan_id":"cebpf4jnsgd1na2vs0mg"},{"bike_id":"41e5f267-ce12-4d49-85f8-a37604430f8e","system_id":"levelo_inurba_marseille","lat":43.22937,"lon":5.35362,"is_reserved":false,"is_disabled":false,"rental_uris":{"android":"levelo://app?vid=41e5f267-ce12-4d49-85f8-a37604430f8e","ios":"levelo://app?vid=41e5f267-ce12-4d49-85f8-a37604430f8e"},"vehicle_type_id":"4","last_reported":1743041914,"current_range_meters":7200,"station_id":"cpo3532slgdg3j2ikp40","pricing_plan_id":"cebpf4jnsgd1na2vs0mg"},{"bike_id":"a01a2189-8b32-4968-87fa-f3888542280a","system_id":"levelo_inurba_marseille","lat":43.28701,"lon":5.37379,"is_reserved":false,"is_disabled":false,"rental_uris":{"android":"levelo://app?vid=a01a2189-8b32-4968-87fa-f3888542280a","ios":"levelo://app?vid=a01a2189-8b32-4968-87fa-f3888542280a"},"vehicle_type_id":"4","last_reported":1743041914,"current_range_meters":8000,"station_id":"ce4bh3p2rcd13ifvqdq0","pricing_plan_id":"cebpf4jnsgd1na2vs0mg"},{"bike_id":"da3d6c27-2c27-4041-b2d5-91965cb51916","system_id":"levelo_inurba_marseille","lat":43.26217,"lon":5.4045,"is_reserved":false,"is_disabled":false,"rental_uris":{"android":"levelo://app?vid=da3d6c27-2c27-4041-b2d5-91965cb51916","ios":"levelo://app?vid=da3d6c27-2c27-4041-b2d5-91965cb51916"},"vehicle_type_id":"4","last_reported":1743041914,"current_range_meters":8000,"station_id":"ce4bhmh2rcd13ifvqgmg","pricing_plan_id":"cebpf4jnsgd1na2vs0mg"},{"bike_id":"8a9602e7-e6f2-4dac-845f-cea224e49dd5","system_id":"levelo_inurba_marseille","lat":43.23068,"lon":5.35495,"is_reserved":false,"is_disabled":false,"rental_uris":{"android":"levelo://app?vid=8a9602e7-e6f2-4dac-845f-cea224e49dd5","ios":"levelo://app?vid=8a9602e7-e6f2-4dac-845f-cea224e49dd5"},"vehicle_type_id":"4","last_reported":1743041914,"current_range_meters":8000,"station_id":"cpo3342slgdg3j2ifvpg","pricing_plan_id":"cebpf4jnsgd1na2vs0mg"},{"bike_id":"500ae4ba-0f8b-4234-ad47-d0f7e3ee77fd","system_id":"levelo_inurba_marseille","lat":43.29099,"lon":5.38138,"is_reserved":false,"is_disabled":true,"rental_uris":{"android":"levelo://app?vid=500ae4ba-0f8b-4234-ad47-d0f7e3ee77fd","ios":"levelo://app?vid=500ae4ba-0f8b-4234-ad47-d0f7e3ee77fd"},"vehicle_type_id":"4","last_reported":1743041914,"current_range_meters":8000,"station_id":"ce4bho12rcd13ifvqh1g","pricing_plan_id":"cebpf4jnsgd1na2vs0mg"},{"bike_id":"01cbffb0-3fb0-4769-96f8-4c2dd20b8277","system_id":"levelo_inurba_marseille","lat":43.28544,"lon":5.40579,"is_reserved":false,"is_disabled":false,"rental_uris":{"android":"levelo://app?vid=01cbffb0-3fb0-4769-96f8-4c2dd20b8277","ios":"levelo://app?vid=01cbffb0-3fb0-4769-96f8-4c2dd20b8277"},"vehicle_type_id":"4","last_reported":1743041914,"current_range_meters":8000,"station_id":"","pricing_plan_id":"cebpf4jnsgd1na2vs0mg"},{"bike_id":"50af4947-5470-4b40-b235-f9b0aa5d4603","system_id":"levelo_inurba_marseille","lat":43.30927,"lon":5.40134,"is_reserved":false,"is_disabled":false,"rental_uris":{"android":"levelo://app?vid=50af4947-5470-4b40-b235-f9b0aa5d4603","ios":"levelo://app?vid=50af4947-5470-4b40-b235-f9b0aa5d4603"},"vehicle_type_id":"4","last_reported":1743041914,"current_range_meters":8000,"station_id":"ce4bgvp2rcd13ifvqct0","pricing_plan_id":"cebpf4jnsgd1na2vs0mg"},{"bike_id":"01f4262b-bc44-4c46-ba8c-e293e5d3d64c","system_id":"levelo_inurba_marseille","lat":43.28613,"lon":5.35102,"is_reserved":false,"is_disabled":false,"rental_uris":{"android":"levelo://app?vid=01f4262b-bc44-4c46-ba8c-e293e5d3d64c","ios":"levelo://app?vid=01f4262b-bc44-4c46-ba8c-e293e5d3d64c"},"vehicle_type_id":"4","last_reported":1743041914,"current_range_meters":8000,"station_id":"ce4bhch2rcd13ifvqeug","pricing_plan_id":"cebpf4jnsgd1na2vs0mg"},{"bike_id":"04625c9d-cff0-4933-b436-bad46b8d8eb9","system_id":"levelo_inurba_marseille","lat":43.30251,"lon":5.40097,"is_reserved":false,"is_disabled":false,"rental_uris":{"android":"levelo://app?vid=04625c9d-cff0-4933-b436-bad46b8d8eb9","ios":"levelo://app?vid=04625c9d-cff0-4933-b436-bad46b8d8eb9"},"vehicle_type_id":"4","last_reported":1743041914,"current_range_meters":8000,"station_id":"ce4bgvh2rcd13ifvqcs0","pricing_plan_id":"cebpf4jnsgd1na2vs0mg"},{"bike_id":"b30d442b-7284-44ac-87ce-821b5a0ec057","system_id":"levelo_inurba_marseille","lat":43.32562,"lon":5.36581,"is_reserved":false,"is_disabled":false,"rental_uris":{"android":"levelo://app?vid=b30d442b-7284-44ac-87ce-821b5a0ec057","ios":"levelo://app?vid=b30d442b-7284-44ac-87ce-821b5a0ec057"},"vehicle_type_id":"4","last_reported":1743041914,"current_range_meters":8400,"station_id":"","pricing_plan_id":"cebpf4jnsgd1na2vs0mg"},{"bike_id":"296040a5-83d3-401f-bb56-905b6b06c03d","system_id":"levelo_inurba_marseille","lat":43.25825,"lon":5.39428,"is_reserved":false,"is_disabled":false,"rental_uris":{"android":"levelo://app?vid=296040a5-83d3-401f-bb56-905b6b06c03d","ios":"levelo://app?vid=296040a5-83d3-401f-bb56-905b6b06c03d"},"vehicle_type_id":"4","last_reported":1743041914,"current_range_meters":8400,"station_id":"ce4bhip2rcd13ifvqft0","pricing_plan_id":"cebpf4jnsgd1na2vs0mg"},{"bike_id":"ac227b8d-11e6-4a65-9136-f9cbd67e61e3","system_id":"levelo_inurba_marseille","lat":43.310628,"lon":5.38352,"is_reserved":false,"is_disabled":false,"rental_uris":{"android":"levelo://app?vid=ac227b8d-11e6-4a65-9136-f9cbd67e61e3","ios":"levelo://app?vid=ac227b8d-11e6-4a65-9136-f9cbd67e61e3"},"vehicle_type_id":"4","last_reported":1743041914,"current_range_meters":8400,"station_id":"ce4bgv92rcd13ifvqcr0","pricing_plan_id":"cebpf4jnsgd1na2vs0mg"},{"bike_id":"9d869c67-8c82-4d15-bfb3-083d377aa760","system_id":"levelo_inurba_marseille","lat":43.28417,"lon":5.34992,"is_reserved":false,"is_disabled":false,"rental_uris":{"android":"levelo://app?vid=9d869c67-8c82-4d15-bfb3-083d377aa760","ios":"levelo://app?vid=9d869c67-8c82-4d15-bfb3-083d377aa760"},"vehicle_type_id":"4","last_reported":1743041914,"current_range_meters":8400,"station_id":"ce4bhbh2rcd13ifvqepg","pricing_plan_id":"cebpf4jnsgd1na2vs0mg"},{"bike_id":"c80aa782-5a1c-49dc-82a9-5a6684179a01","system_id":"levelo_inurba_marseille","lat":43.28112,"lon":5.37837,"is_reserved":false,"is_disabled":false,"rental_uris":{"android":"levelo://app?vid=c80aa782-5a1c-49dc-82a9-5a6684179a01","ios":"levelo://app?vid=c80aa782-5a1c-49dc-82a9-5a6684179a01"},"vehicle_type_id":"4","last_reported":1743041914,"current_range_meters":8400,"station_id":"ce4bha12rcd13ifvqee0","pricing_plan_id":"cebpf4jnsgd1na2vs0mg"},{"bike_id":"887a7784-c70b-46f8-9882-d03745b5c9eb","system_id":"levelo_inurba_marseille","lat":43.31116,"lon":5.37757,"is_reserved":false,"is_disabled":false,"rental_uris":{"android":"levelo://app?vid=887a7784-c70b-46f8-9882-d03745b5c9eb","ios":"levelo://app?vid=887a7784-c70b-46f8-9882-d03745b5c9eb"},"vehicle_type_id":"4","last_reported":1743041914,"current_range_meters":8400,"station_id":"ce4bgt92rcd13ifvqcg0","pricing_plan_id":"cebpf4jnsgd1na2vs0mg"},{"bike_id":"647509f8-3a99-48f1-afd6-7320b001ee43","system_id":"levelo_inurba_marseille","lat":43.28619,"lon":5.35105,"is_reserved":false,"is_disabled":false,"rental_uris":{"android":"levelo://app?vid=647509f8-3a99-48f1-afd6-7320b001ee43","ios":"levelo://app?vid=647509f8-3a99-48f1-afd6-7320b001ee43"},"vehicle_type_id":"4","last_reported":1743041914,"current_range_meters":8400,"station_id":"ce4bhch2rcd13ifvqeug","pricing_plan_id":"cebpf4jnsgd1na2vs0mg"},{"bike_id":"0a6002c5-2e94-419c-9846-07e4397e2530","system_id":"levelo_inurba_marseille","lat":43.2582,"lon":5.39429,"is_reserved":false,"is_disabled":false,"rental_uris":{"android":"levelo://app?vid=0a6002c5-2e94-419c-9846-07e4397e2530","ios":"levelo://app?vid=0a6002c5-2e94-419c-9846-07e4397e2530"},"vehicle_type_id":"4","last_reported":1743041914,"current_range_meters":8400,"station_id":"ce4bhip2rcd13ifvqft0","pricing_plan_id":"cebpf4jnsgd1na2vs0mg"},{"bike_id":"da155e19-5157-4f97-8747-0c15b0609608","system_id":"levelo_inurba_marseille","lat":43.25725,"lon":5.41116,"is_reserved":false,"is_disabled":false,"rental_uris":{"android":"levelo://app?vid=da155e19-5157-4f97-8747-0c15b0609608","ios":"levelo://app?vid=da155e19-5157-4f97-8747-0c15b0609608"},"vehicle_type_id":"4","last_reported":1743041914,"current_range_meters":8400,"station_id":"ce4bhkp2rcd13ifvqgd0","pricing_plan_id":"cebpf4jnsgd1na2vs0mg"},{"bike_id":"974f5876-effd-44d0-911c-76ea7a107a8c","system_id":"levelo_inurba_marseille","lat":43.33362,"lon":5.35979,"is_reserved":false,"is_disabled":false,"rental_uris":{"android":"levelo://app?vid=974f5876-effd-44d0-911c-76ea7a107a8c","ios":"levelo://app?vid=974f5876-effd-44d0-911c-76ea7a107a8c"},"vehicle_type_id":"4","last_reported":1743041914,"current_range_meters":8400,"station_id":"","pricing_plan_id":"cebpf4jnsgd1na2vs0mg"},{"bike_id":"26c95be6-8955-419b-b506-8f03b71ec17d","system_id":"levelo_inurba_marseille","lat":43.32664,"lon":5.409916,"is_reserved":false,"is_disabled":false,"rental_uris":{"android":"levelo://app?vid=26c95be6-8955-419b-b506-8f03b71ec17d","ios":"levelo://app?vid=26c95be6-8955-419b-b506-8f03b71ec17d"},"vehicle_type_id":"4","last_reported":1743041914,"current_range_meters":8400,"station_id":"ce4bhpp2rcd13ifvqhgg","pricing_plan_id":"cebpf4jnsgd1na2vs0mg"},{"bike_id":"1925ac1a-e266-4b70-bcd4-8f623f9c5dbf","system_id":"levelo_inurba_marseille","lat":43.28342,"lon":5.381,"is_reserved":false,"is_disabled":false,"rental_uris":{"android":"levelo://app?vid=1925ac1a-e266-4b70-bcd4-8f623f9c5dbf","ios":"levelo://app?vid=1925ac1a-e266-4b70-bcd4-8f623f9c5dbf"},"vehicle_type_id":"4","last_reported":1743041914,"current_range_meters":8400,"station_id":"ce4bh412rcd13ifvqdr0","pricing_plan_id":"cebpf4jnsgd1na2vs0mg"},{"bike_id":"434c3a2c-ae70-4bc5-828d-d60fb5859f24","system_id":"levelo_inurba_marseille","lat":43.31077,"lon":5.38347,"is_reserved":false,"is_disabled":false,"rental_uris":{"android":"levelo://app?vid=434c3a2c-ae70-4bc5-828d-d60fb5859f24","ios":"levelo://app?vid=434c3a2c-ae70-4bc5-828d-d60fb5859f24"},"vehicle_type_id":"4","last_reported":1743041914,"current_range_meters":8400,"station_id":"ce4bgv92rcd13ifvqcr0","pricing_plan_id":"cebpf4jnsgd1na2vs0mg"},{"bike_id":"f35517ac-eefa-426f-a0d4-2d08f2ce4ebf","system_id":"levelo_inurba_marseille","lat":43.292712,"lon":5.376136,"is_reserved":false,"is_disabled":true,"rental_uris":{"android":"levelo://app?vid=f35517ac-eefa-426f-a0d4-2d08f2ce4ebf","ios":"levelo://app?vid=f35517ac-eefa-426f-a0d4-2d08f2ce4ebf"},"vehicle_type_id":"4","last_reported":1743041914,"current_range_meters":8800,"station_id":"ce4bgi12rcd13ifvqb80","pricing_plan_id":"cebpf4jnsgd1na2vs0mg"},{"bike_id":"34e390d6-6118-4f00-8ddc-7ba657684840","system_id":"levelo_inurba_marseille","lat":43.30916,"lon":5.40154,"is_reserved":false,"is_disabled":false,"rental_uris":{"android":"levelo://app?vid=34e390d6-6118-4f00-8ddc-7ba657684840","ios":"levelo://app?vid=34e390d6-6118-4f00-8ddc-7ba657684840"},"vehicle_type_id":"4","last_reported":1743041914,"current_range_meters":8800,"station_id":"ce4bgvp2rcd13ifvqct0","pricing_plan_id":"cebpf4jnsgd1na2vs0mg"},{"bike_id":"d45a2f6c-957b-46cd-bd89-ee8e58d1536e","system_id":"levelo_inurba_marseille","lat":43.27721,"lon":5.40796,"is_reserved":false,"is_disabled":false,"rental_uris":{"android":"levelo://app?vid=d45a2f6c-957b-46cd-bd89-ee8e58d1536e","ios":"levelo://app?vid=d45a2f6c-957b-46cd-bd89-ee8e58d1536e"},"vehicle_type_id":"4","last_reported":1743041914,"current_range_meters":8800,"station_id":"","pricing_plan_id":"cebpf4jnsgd1na2vs0mg"},{"bike_id":"84a7a785-5392-42bc-8088-fb903bcc7f5c","system_id":"levelo_inurba_marseille","lat":43.23055,"lon":5.35462,"is_reserved":false,"is_disabled":false,"rental_uris":{"android":"levelo://app?vid=84a7a785-5392-42bc-8088-fb903bcc7f5c","ios":"levelo://app?vid=84a7a785-5392-42bc-8088-fb903bcc7f5c"},"vehicle_type_id":"4","last_reported":1743041914,"current_range_meters":8800,"station_id":"cpo3342slgdg3j2ifvpg","pricing_plan_id":"cebpf4jnsgd1na2vs0mg"},{"bike_id":"a7150205-6278-4307-bb02-21fb2d260fa8","system_id":"levelo_inurba_marseille","lat":43.28706,"lon":5.39966,"is_reserved":false,"is_disabled":false,"rental_uris":{"android":"levelo://app?vid=a7150205-6278-4307-bb02-21fb2d260fa8","ios":"levelo://app?vid=a7150205-6278-4307-bb02-21fb2d260fa8"},"vehicle_type_id":"4","last_reported":1743041914,"current_range_meters":8800,"station_id":"ce4bho92rcd13ifvqh3g","pricing_plan_id":"cebpf4jnsgd1na2vs0mg"},{"bike_id":"90a8d9f9-2ffb-4c0e-951b-d5a6ab42ab0e","system_id":"levelo_inurba_marseille","lat":43.29256,"lon":5.40917,"is_reserved":false,"is_disabled":false,"rental_uris":{"android":"levelo://app?vid=90a8d9f9-2ffb-4c0e-951b-d5a6ab42ab0e","ios":"levelo://app?vid=90a8d9f9-2ffb-4c0e-951b-d5a6ab42ab0e"},"vehicle_type_id":"4","last_reported":1743041914,"current_range_meters":8800,"station_id":"ce4bh192rcd13ifvqdc0","pricing_plan_id":"cebpf4jnsgd1na2vs0mg"},{"bike_id":"60375bff-42db-45a2-9977-2e2dec7a17ad","system_id":"levelo_inurba_marseille","lat":43.28679,"lon":5.38663,"is_reserved":false,"is_disabled":false,"rental_uris":{"android":"levelo://app?vid=60375bff-42db-45a2-9977-2e2dec7a17ad","ios":"levelo://app?vid=60375bff-42db-45a2-9977-2e2dec7a17ad"},"vehicle_type_id":"4","last_reported":1743041914,"current_range_meters":8800,"station_id":"ce4bh492rcd13ifvqdug","pricing_plan_id":"cebpf4jnsgd1na2vs0mg"},{"bike_id":"3ebcb0b0-3bd6-455e-9b12-2091542e2b7d","system_id":"levelo_inurba_marseille","lat":43.3146,"lon":5.37371,"is_reserved":false,"is_disabled":false,"rental_uris":{"android":"levelo://app?vid=3ebcb0b0-3bd6-455e-9b12-2091542e2b7d","ios":"levelo://app?vid=3ebcb0b0-3bd6-455e-9b12-2091542e2b7d"},"vehicle_type_id":"4","last_reported":1743041914,"current_range_meters":8800,"station_id":"","pricing_plan_id":"cebpf4jnsgd1na2vs0mg"},{"bike_id":"6493a410-ba38-4b48-997d-2b0a0413cba6","system_id":"levelo_inurba_marseille","lat":43.30897,"lon":5.39664,"is_reserved":false,"is_disabled":false,"rental_uris":{"android":"levelo://app?vid=6493a410-ba38-4b48-997d-2b0a0413cba6","ios":"levelo://app?vid=6493a410-ba38-4b48-997d-2b0a0413cba6"},"vehicle_type_id":"4","last_reported":1743041914,"current_range_meters":8800,"station_id":"ce4bh012rcd13ifvqcv0","pricing_plan_id":"cebpf4jnsgd1na2vs0mg"},{"bike_id":"ccdfac36-22da-4f2d-bd50-7bf147cc0fff","system_id":"levelo_inurba_marseille","lat":43.29906,"lon":5.43664,"is_reserved":false,"is_disabled":false,"rental_uris":{"android":"levelo://app?vid=ccdfac36-22da-4f2d-bd50-7bf147cc0fff","ios":"levelo://app?vid=ccdfac36-22da-4f2d-bd50-7bf147cc0fff"},"vehicle_type_id":"4","last_reported":1743041914,"current_range_meters":9200,"station_id":"ce4bhpp2rcd13ifvqhfg","pricing_plan_id":"cebpf4jnsgd1na2vs0mg"},{"bike_id":"c6760871-6fc1-4414-8469-9dedd0326558","system_id":"levelo_inurba_marseille","lat":43.2894,"lon":5.36393,"is_reserved":false,"is_disabled":false,"rental_uris":{"android":"levelo://app?vid=c6760871-6fc1-4414-8469-9dedd0326558","ios":"levelo://app?vid=c6760871-6fc1-4414-8469-9dedd0326558"},"vehicle_type_id":"4","last_reported":1743041914,"current_range_meters":9200,"station_id":"ce4bhc92rcd13ifvqetg","pricing_plan_id":"cebpf4jnsgd1na2vs0mg"},{"bike_id":"b5faf136-f27b-45e3-95d7-3f66d590d87b","system_id":"levelo_inurba_marseille","lat":43.27925,"lon":5.39628,"is_reserved":false,"is_disabled":false,"rental_uris":{"android":"levelo://app?vid=b5faf136-f27b-45e3-95d7-3f66d590d87b","ios":"levelo://app?vid=b5faf136-f27b-45e3-95d7-3f66d590d87b"},"vehicle_type_id":"4","last_reported":1743041914,"current_range_meters":9200,"station_id":"ce4bhf92rcd13ifvqf40","pricing_plan_id":"cebpf4jnsgd1na2vs0mg"},{"bike_id":"83490f64-aa62-4240-91b0-0dc5e05f1bcb","system_id":"levelo_inurba_marseille","lat":43.31121,"lon":5.37754,"is_reserved":false,"is_disabled":false,"rental_uris":{"android":"levelo://app?vid=83490f64-aa62-4240-91b0-0dc5e05f1bcb","ios":"levelo://app?vid=83490f64-aa62-4240-91b0-0dc5e05f1bcb"},"vehicle_type_id":"4","last_reported":1743041914,"current_range_meters":9200,"station_id":"ce4bgt92rcd13ifvqcg0","pricing_plan_id":"cebpf4jnsgd1na2vs0mg"},{"bike_id":"818cfe2a-3205-453a-a960-4ebf1f298656","system_id":"levelo_inurba_marseille","lat":43.266898,"lon":5.38265,"is_reserved":false,"is_disabled":true,"rental_uris":{"android":"levelo://app?vid=818cfe2a-3205-453a-a960-4ebf1f298656","ios":"levelo://app?vid=818cfe2a-3205-453a-a960-4ebf1f298656"},"vehicle_type_id":"4","last_reported":1743041914,"current_range_meters":9200,"station_id":"ce4bhg92rcd13ifvqf90","pricing_plan_id":"cebpf4jnsgd1na2vs0mg"},{"bike_id":"0dcafc33-413c-4c3d-a435-5640f82af9f4","system_id":"levelo_inurba_marseille","lat":43.30892,"lon":5.39647,"is_reserved":false,"is_disabled":false,"rental_uris":{"android":"levelo://app?vid=0dcafc33-413c-4c3d-a435-5640f82af9f4","ios":"levelo://app?vid=0dcafc33-413c-4c3d-a435-5640f82af9f4"},"vehicle_type_id":"4","last_reported":1743041914,"current_range_meters":9200,"station_id":"ce4bh012rcd13ifvqcv0","pricing_plan_id":"cebpf4jnsgd1na2vs0mg"},{"bike_id":"1f832459-222b-42fa-b88e-b9eccf46e63a","system_id":"levelo_inurba_marseille","lat":43.28852,"lon":5.35845,"is_reserved":false,"is_disabled":false,"rental_uris":{"android":"levelo://app?vid=1f832459-222b-42fa-b88e-b9eccf46e63a","ios":"levelo://app?vid=1f832459-222b-42fa-b88e-b9eccf46e63a"},"vehicle_type_id":"4","last_reported":1743041914,"current_range_meters":9200,"station_id":"ce4bhb12rcd13ifvqem0","pricing_plan_id":"cebpf4jnsgd1na2vs0mg"},{"bike_id":"a65c5da7-0c9b-479b-826c-d4220a256dce","system_id":"levelo_inurba_marseille","lat":43.3063,"lon":5.37201,"is_reserved":false,"is_disabled":false,"rental_uris":{"android":"levelo://app?vid=a65c5da7-0c9b-479b-826c-d4220a256dce","ios":"levelo://app?vid=a65c5da7-0c9b-479b-826c-d4220a256dce"},"vehicle_type_id":"4","last_reported":1743041914,"current_range_meters":9200,"station_id":"ce4bgqh2rcd13ifvqc4g","pricing_plan_id":"cebpf4jnsgd1na2vs0mg"},{"bike_id":"629dc58e-f1fa-4c78-b496-582f20ae1d69","system_id":"levelo_inurba_marseille","lat":43.23151,"lon":5.43711,"is_reserved":false,"is_disabled":false,"rental_uris":{"android":"levelo://app?vid=629dc58e-f1fa-4c78-b496-582f20ae1d69","ios":"levelo://app?vid=629dc58e-f1fa-4c78-b496-582f20ae1d69"},"vehicle_type_id":"4","last_reported":1743041914,"current_range_meters":9200,"station_id":"ce4bhmp2rcd13ifvqgog","pricing_plan_id":"cebpf4jnsgd1na2vs0mg"},{"bike_id":"f408b4d4-0f69-4a55-bf3a-3c3c8e1647f7","system_id":"levelo_inurba_marseille","lat":43.23181,"lon":5.40001,"is_reserved":false,"is_disabled":false,"rental_uris":{"android":"levelo://app?vid=f408b4d4-0f69-4a55-bf3a-3c3c8e1647f7","ios":"levelo://app?vid=f408b4d4-0f69-4a55-bf3a-3c3c8e1647f7"},"vehicle_type_id":"4","last_reported":1743041914,"current_range_meters":9200,"station_id":"ce4bhn12rcd13ifvqgqg","pricing_plan_id":"cebpf4jnsgd1na2vs0mg"},{"bike_id":"86324cd8-b57b-4bda-9920-4357e556a2ed","system_id":"levelo_inurba_marseille","lat":43.26569,"lon":5.3898,"is_reserved":false,"is_disabled":false,"rental_uris":{"android":"levelo://app?vid=86324cd8-b57b-4bda-9920-4357e556a2ed","ios":"levelo://app?vid=86324cd8-b57b-4bda-9920-4357e556a2ed"},"vehicle_type_id":"4","last_reported":1743041914,"current_range_meters":9600,"station_id":"ce4bhe12rcd13ifvqf30","pricing_plan_id":"cebpf4jnsgd1na2vs0mg"},{"bike_id":"c9ca11e0-31fe-4de3-9a06-a47672bcdf83","system_id":"levelo_inurba_marseille","lat":43.25123,"lon":5.40317,"is_reserved":false,"is_disabled":false,"rental_uris":{"android":"levelo://app?vid=c9ca11e0-31fe-4de3-9a06-a47672bcdf83","ios":"levelo://app?vid=c9ca11e0-31fe-4de3-9a06-a47672bcdf83"},"vehicle_type_id":"4","last_reported":1743041914,"current_range_meters":9600,"station_id":"ce4bhlh2rcd13ifvqgig","pricing_plan_id":"cebpf4jnsgd1na2vs0mg"},{"bike_id":"59a81975-3ccd-45d3-b034-018afc9fe0c6","system_id":"levelo_inurba_marseille","lat":43.27996,"lon":5.40027,"is_reserved":false,"is_disabled":false,"rental_uris":{"android":"levelo://app?vid=59a81975-3ccd-45d3-b034-018afc9fe0c6","ios":"levelo://app?vid=59a81975-3ccd-45d3-b034-018afc9fe0c6"},"vehicle_type_id":"4","last_reported":1743041914,"current_range_meters":9600,"station_id":"ce4bho92rcd13ifvqh4g","pricing_plan_id":"cebpf4jnsgd1na2vs0mg"},{"bike_id":"85d0fa0c-b5b9-41cd-ba43-951901672dab","system_id":"levelo_inurba_marseille","lat":43.25584,"lon":5.38987,"is_reserved":false,"is_disabled":false,"rental_uris":{"android":"levelo://app?vid=85d0fa0c-b5b9-41cd-ba43-951901672dab","ios":"levelo://app?vid=85d0fa0c-b5b9-41cd-ba43-951901672dab"},"vehicle_type_id":"4","last_reported":1743041914,"current_range_meters":9600,"station_id":"","pricing_plan_id":"cebpf4jnsgd1na2vs0mg"},{"bike_id":"dc8ccdc9-a018-4504-b0a9-676297905591","system_id":"levelo_inurba_marseille","lat":43.29299,"lon":5.36969,"is_reserved":false,"is_disabled":false,"rental_uris":{"android":"levelo://app?vid=dc8ccdc9-a018-4504-b0a9-676297905591","ios":"levelo://app?vid=dc8ccdc9-a018-4504-b0a9-676297905591"},"vehicle_type_id":"4","last_reported":1743041914,"current_range_meters":9600,"station_id":"","pricing_plan_id":"cebpf4jnsgd1na2vs0mg"},{"bike_id":"545812e7-3882-4d12-8395-ca516c30e2b7","system_id":"levelo_inurba_marseille","lat":43.30254,"lon":5.4004,"is_reserved":false,"is_disabled":false,"rental_uris":{"android":"levelo://app?vid=545812e7-3882-4d12-8395-ca516c30e2b7","ios":"levelo://app?vid=545812e7-3882-4d12-8395-ca516c30e2b7"},"vehicle_type_id":"4","last_reported":1743041914,"current_range_meters":9600,"station_id":"ce4bgvh2rcd13ifvqcs0","pricing_plan_id":"cebpf4jnsgd1na2vs0mg"},{"bike_id":"402cc30d-39ca-4056-ad42-effd69fbd9c9","system_id":"levelo_inurba_marseille","lat":43.24096,"lon":5.37714,"is_reserved":false,"is_disabled":false,"rental_uris":{"android":"levelo://app?vid=402cc30d-39ca-4056-ad42-effd69fbd9c9","ios":"levelo://app?vid=402cc30d-39ca-4056-ad42-effd69fbd9c9"},"vehicle_type_id":"4","last_reported":1743041914,"current_range_meters":9600,"station_id":"ce4bhnp2rcd13ifvqgvg","pricing_plan_id":"cebpf4jnsgd1na2vs0mg"},{"bike_id":"c06478ed-7318-40b2-8459-0a3e5a6c5127","system_id":"levelo_inurba_marseille","lat":43.30217,"lon":5.39469,"is_reserved":false,"is_disabled":false,"rental_uris":{"android":"levelo://app?vid=c06478ed-7318-40b2-8459-0a3e5a6c5127","ios":"levelo://app?vid=c06478ed-7318-40b2-8459-0a3e5a6c5127"},"vehicle_type_id":"4","last_reported":1743041914,"current_range_meters":9600,"station_id":"ce4bh0p2rcd13ifvqd70","pricing_plan_id":"cebpf4jnsgd1na2vs0mg"},{"bike_id":"dd171651-cf19-4821-89cf-8fe2350fa345","system_id":"levelo_inurba_marseille","lat":43.2886,"lon":5.39302,"is_reserved":false,"is_disabled":false,"rental_uris":{"android":"levelo://app?vid=dd171651-cf19-4821-89cf-8fe2350fa345","ios":"levelo://app?vid=dd171651-cf19-4821-89cf-8fe2350fa345"},"vehicle_type_id":"4","last_reported":1743041914,"current_range_meters":9600,"station_id":"ce4bh2p2rcd13ifvqdi0","pricing_plan_id":"cebpf4jnsgd1na2vs0mg"},{"bike_id":"6ab6b099-574d-454a-84a7-96bb5f8025c5","system_id":"levelo_inurba_marseille","lat":43.31174,"lon":5.38689,"is_reserved":false,"is_disabled":false,"rental_uris":{"android":"levelo://app?vid=6ab6b099-574d-454a-84a7-96bb5f8025c5","ios":"levelo://app?vid=6ab6b099-574d-454a-84a7-96bb5f8025c5"},"vehicle_type_id":"4","last_reported":1743041914,"current_range_meters":10000,"station_id":"ce4bgv12rcd13ifvqcp0","pricing_plan_id":"cebpf4jnsgd1na2vs0mg"},{"bike_id":"40046afd-c6aa-43ea-88bd-183a4d2ec61c","system_id":"levelo_inurba_marseille","lat":43.31605,"lon":5.41666,"is_reserved":false,"is_disabled":false,"rental_uris":{"android":"levelo://app?vid=40046afd-c6aa-43ea-88bd-183a4d2ec61c","ios":"levelo://app?vid=40046afd-c6aa-43ea-88bd-183a4d2ec61c"},"vehicle_type_id":"4","last_reported":1743041914,"current_range_meters":10000,"station_id":"","pricing_plan_id":"cebpf4jnsgd1na2vs0mg"},{"bike_id":"9f590b40-24ae-445e-8068-dc8ceebb8738","system_id":"levelo_inurba_marseille","lat":43.23965,"lon":5.36637,"is_reserved":false,"is_disabled":false,"rental_uris":{"android":"levelo://app?vid=9f590b40-24ae-445e-8068-dc8ceebb8738","ios":"levelo://app?vid=9f590b40-24ae-445e-8068-dc8ceebb8738"},"vehicle_type_id":"4","last_reported":1743041914,"current_range_meters":10000,"station_id":"ce4bhi12rcd13ifvqfp0","pricing_plan_id":"cebpf4jnsgd1na2vs0mg"},{"bike_id":"ad3a09d6-8194-4bae-a5b1-51b443e279f8","system_id":"levelo_inurba_marseille","lat":43.22962,"lon":5.35371,"is_reserved":false,"is_disabled":false,"rental_uris":{"android":"levelo://app?vid=ad3a09d6-8194-4bae-a5b1-51b443e279f8","ios":"levelo://app?vid=ad3a09d6-8194-4bae-a5b1-51b443e279f8"},"vehicle_type_id":"4","last_reported":1743041914,"current_range_meters":10000,"station_id":"cpo3532slgdg3j2ikp40","pricing_plan_id":"cebpf4jnsgd1na2vs0mg"},{"bike_id":"4e9b5af3-e87b-4dd4-8126-31fc6ff4e2f5","system_id":"levelo_inurba_marseille","lat":43.28829,"lon":5.35884,"is_reserved":false,"is_disabled":false,"rental_uris":{"android":"levelo://app?vid=4e9b5af3-e87b-4dd4-8126-31fc6ff4e2f5","ios":"levelo://app?vid=4e9b5af3-e87b-4dd4-8126-31fc6ff4e2f5"},"vehicle_type_id":"4","last_reported":1743041914,"current_range_meters":10000,"station_id":"ce4bhb12rcd13ifvqem0","pricing_plan_id":"cebpf4jnsgd1na2vs0mg"},{"bike_id":"72ff2873-eb3d-4526-97dc-a6ed38586447","system_id":"levelo_inurba_marseille","lat":43.278179,"lon":5.407174,"is_reserved":false,"is_disabled":false,"rental_uris":{"android":"levelo://app?vid=72ff2873-eb3d-4526-97dc-a6ed38586447","ios":"levelo://app?vid=72ff2873-eb3d-4526-97dc-a6ed38586447"},"vehicle_type_id":"4","last_reported":1743041914,"current_range_meters":10000,"station_id":"ce4bhnh2rcd13ifvqgtg","pricing_plan_id":"cebpf4jnsgd1na2vs0mg"},{"bike_id":"ee527ed9-d26c-4e8d-b008-038b46dba415","system_id":"levelo_inurba_marseille","lat":43.31991,"lon":5.3814,"is_reserved":false,"is_disabled":false,"rental_uris":{"android":"levelo://app?vid=ee527ed9-d26c-4e8d-b008-038b46dba415","ios":"levelo://app?vid=ee527ed9-d26c-4e8d-b008-038b46dba415"},"vehicle_type_id":"4","last_reported":1743041914,"current_range_meters":10000,"station_id":"ce4bhr12rcd13ifvqhpg","pricing_plan_id":"cebpf4jnsgd1na2vs0mg"},{"bike_id":"00ccdc21-1544-425b-979c-c904f6636454","system_id":"levelo_inurba_marseille","lat":43.30536,"lon":5.38457,"is_reserved":false,"is_disabled":true,"rental_uris":{"android":"levelo://app?vid=00ccdc21-1544-425b-979c-c904f6636454","ios":"levelo://app?vid=00ccdc21-1544-425b-979c-c904f6636454"},"vehicle_type_id":"4","last_reported":1743041914,"current_range_meters":10000,"station_id":"ce4bgg92rcd13ifvqb30","pricing_plan_id":"cebpf4jnsgd1na2vs0mg"},{"bike_id":"6f20daa5-8131-4025-91ee-5a46a3adc95e","system_id":"levelo_inurba_marseille","lat":43.3139,"lon":5.38514,"is_reserved":false,"is_disabled":false,"rental_uris":{"android":"levelo://app?vid=6f20daa5-8131-4025-91ee-5a46a3adc95e","ios":"levelo://app?vid=6f20daa5-8131-4025-91ee-5a46a3adc95e"},"vehicle_type_id":"4","last_reported":1743041914,"current_range_meters":10000,"station_id":"ce4bgt92rcd13ifvqcf0","pricing_plan_id":"cebpf4jnsgd1na2vs0mg"},{"bike_id":"46bc7627-5963-437b-83ed-b3f9497370e8","system_id":"levelo_inurba_marseille","lat":43.29908,"lon":5.43673,"is_reserved":false,"is_disabled":false,"rental_uris":{"android":"levelo://app?vid=46bc7627-5963-437b-83ed-b3f9497370e8","ios":"levelo://app?vid=46bc7627-5963-437b-83ed-b3f9497370e8"},"vehicle_type_id":"4","last_reported":1743041914,"current_range_meters":10000,"station_id":"ce4bhpp2rcd13ifvqhfg","pricing_plan_id":"cebpf4jnsgd1na2vs0mg"},{"bike_id":"51812073-3de2-4905-a6fe-d16858cfd436","system_id":"levelo_inurba_marseille","lat":43.29796,"lon":5.39352,"is_reserved":false,"is_disabled":false,"rental_uris":{"android":"levelo://app?vid=51812073-3de2-4905-a6fe-d16858cfd436","ios":"levelo://app?vid=51812073-3de2-4905-a6fe-d16858cfd436"},"vehicle_type_id":"4","last_reported":1743041914,"current_range_meters":10000,"station_id":"chh1huq6cuj3fo74tm60","pricing_plan_id":"cebpf4jnsgd1na2vs0mg"},{"bike_id":"da02046a-e8be-4732-a814-bea47c0457a4","system_id":"levelo_inurba_marseille","lat":43.31081,"lon":5.38361,"is_reserved":false,"is_disabled":true,"rental_uris":{"android":"levelo://app?vid=da02046a-e8be-4732-a814-bea47c0457a4","ios":"levelo://app?vid=da02046a-e8be-4732-a814-bea47c0457a4"},"vehicle_type_id":"4","last_reported":1743041914,"current_range_meters":10000,"station_id":"ce4bgv92rcd13ifvqcr0","pricing_plan_id":"cebpf4jnsgd1na2vs0mg"},{"bike_id":"2f69c259-678f-4dc6-9847-fd43204ee42a","system_id":"levelo_inurba_marseille","lat":43.25088,"lon":5.39511,"is_reserved":false,"is_disabled":false,"rental_uris":{"android":"levelo://app?vid=2f69c259-678f-4dc6-9847-fd43204ee42a","ios":"levelo://app?vid=2f69c259-678f-4dc6-9847-fd43204ee42a"},"vehicle_type_id":"4","last_reported":1743041914,"current_range_meters":10000,"station_id":"ce4bhm12rcd13ifvqgkg","pricing_plan_id":"cebpf4jnsgd1na2vs0mg"},{"bike_id":"04146b82-3b61-4336-b474-7fb27e97d80e","system_id":"levelo_inurba_marseille","lat":43.28035,"lon":5.36944,"is_reserved":false,"is_disabled":false,"rental_uris":{"android":"levelo://app?vid=04146b82-3b61-4336-b474-7fb27e97d80e","ios":"levelo://app?vid=04146b82-3b61-4336-b474-7fb27e97d80e"},"vehicle_type_id":"4","last_reported":1743041914,"current_range_meters":10800,"station_id":"ce4bha12rcd13ifvqef0","pricing_plan_id":"cebpf4jnsgd1na2vs0mg"},{"bike_id":"0efa9a85-a950-471a-88a8-073f5726d25d","system_id":"levelo_inurba_marseille","lat":43.29268,"lon":5.3843,"is_reserved":false,"is_disabled":true,"rental_uris":{"android":"levelo://app?vid=0efa9a85-a950-471a-88a8-073f5726d25d","ios":"levelo://app?vid=0efa9a85-a950-471a-88a8-073f5726d25d"},"vehicle_type_id":"4","last_reported":1743041914,"current_range_meters":10800,"station_id":"ce4bh692rcd13ifvqea0","pricing_plan_id":"cebpf4jnsgd1na2vs0mg"},{"bike_id":"7ecdf1eb-1860-4582-8c16-fac7ab531f07","system_id":"levelo_inurba_marseille","lat":43.31314,"lon":5.39683,"is_reserved":false,"is_disabled":false,"rental_uris":{"android":"levelo://app?vid=7ecdf1eb-1860-4582-8c16-fac7ab531f07","ios":"levelo://app?vid=7ecdf1eb-1860-4582-8c16-fac7ab531f07"},"vehicle_type_id":"4","last_reported":1743041914,"current_range_meters":10800,"station_id":"ce4bgvp2rcd13ifvqcu0","pricing_plan_id":"cebpf4jnsgd1na2vs0mg"},{"bike_id":"36fba024-c9eb-4ff6-a35c-b55c3c0dda63","system_id":"levelo_inurba_marseille","lat":43.24668,"lon":5.38156,"is_reserved":false,"is_disabled":false,"rental_uris":{"android":"levelo://app?vid=36fba024-c9eb-4ff6-a35c-b55c3c0dda63","ios":"levelo://app?vid=36fba024-c9eb-4ff6-a35c-b55c3c0dda63"},"vehicle_type_id":"4","last_reported":1743041914,"current_range_meters":10800,"station_id":"ce4bhih2rcd13ifvqfr0","pricing_plan_id":"cebpf4jnsgd1na2vs0mg"},{"bike_id":"4052a4fe-cdb6-44df-ab96-b92919aad8f9","system_id":"levelo_inurba_marseille","lat":43.28404,"lon":5.37506,"is_reserved":false,"is_disabled":false,"rental_uris":{"android":"levelo://app?vid=4052a4fe-cdb6-44df-ab96-b92919aad8f9","ios":"levelo://app?vid=4052a4fe-cdb6-44df-ab96-b92919aad8f9"},"vehicle_type_id":"4","last_reported":1743041914,"current_range_meters":10800,"station_id":"ce4bh412rcd13ifvqds0","pricing_plan_id":"cebpf4jnsgd1na2vs0mg"},{"bike_id":"88d6965b-35b9-4a77-bbe7-48f3936aa54f","system_id":"levelo_inurba_marseille","lat":43.271798,"lon":5.409949,"is_reserved":false,"is_disabled":false,"rental_uris":{"android":"levelo://app?vid=88d6965b-35b9-4a77-bbe7-48f3936aa54f","ios":"levelo://app?vid=88d6965b-35b9-4a77-bbe7-48f3936aa54f"},"vehicle_type_id":"4","last_reported":1743041914,"current_range_meters":10800,"station_id":"ce4bhl12rcd13ifvqgf0","pricing_plan_id":"cebpf4jnsgd1na2vs0mg"},{"bike_id":"46abc687-cc63-467d-9328-afe177712ecf","system_id":"levelo_inurba_marseille","lat":43.30891,"lon":5.3964,"is_reserved":false,"is_disabled":false,"rental_uris":{"android":"levelo://app?vid=46abc687-cc63-467d-9328-afe177712ecf","ios":"levelo://app?vid=46abc687-cc63-467d-9328-afe177712ecf"},"vehicle_type_id":"4","last_reported":1743041914,"current_range_meters":10800,"station_id":"ce4bh012rcd13ifvqcv0","pricing_plan_id":"cebpf4jnsgd1na2vs0mg"},{"bike_id":"cff8994d-77fb-4983-95ec-41addf895282","system_id":"levelo_inurba_marseille","lat":43.2904,"lon":5.39944,"is_reserved":false,"is_disabled":false,"rental_uris":{"android":"levelo://app?vid=cff8994d-77fb-4983-95ec-41addf895282","ios":"levelo://app?vid=cff8994d-77fb-4983-95ec-41addf895282"},"vehicle_type_id":"4","last_reported":1743041914,"current_range_meters":10800,"station_id":"ce4bh392rcd13ifvqdm0","pricing_plan_id":"cebpf4jnsgd1na2vs0mg"},{"bike_id":"92ebc5a6-0d9f-45da-9a83-4dce7e1f76a7","system_id":"levelo_inurba_marseille","lat":43.31153,"lon":5.3873,"is_reserved":false,"is_disabled":false,"rental_uris":{"android":"levelo://app?vid=92ebc5a6-0d9f-45da-9a83-4dce7e1f76a7","ios":"levelo://app?vid=92ebc5a6-0d9f-45da-9a83-4dce7e1f76a7"},"vehicle_type_id":"4","last_reported":1743041914,"current_range_meters":10800,"station_id":"ce4bgv12rcd13ifvqcp0","pricing_plan_id":"cebpf4jnsgd1na2vs0mg"},{"bike_id":"81f38ba2-245e-46e2-a32a-b658925f22e6","system_id":"levelo_inurba_marseille","lat":43.31337,"lon":5.39745,"is_reserved":false,"is_disabled":false,"rental_uris":{"android":"levelo://app?vid=81f38ba2-245e-46e2-a32a-b658925f22e6","ios":"levelo://app?vid=81f38ba2-245e-46e2-a32a-b658925f22e6"},"vehicle_type_id":"4","last_reported":1743041914,"current_range_meters":10800,"station_id":"ce4bgvp2rcd13ifvqcu0","pricing_plan_id":"cebpf4jnsgd1na2vs0mg"},{"bike_id":"eadcf468-9c9a-4414-a6d7-6609dd96d017","system_id":"levelo_inurba_marseille","lat":43.28916,"lon":5.36404,"is_reserved":false,"is_disabled":false,"rental_uris":{"android":"levelo://app?vid=eadcf468-9c9a-4414-a6d7-6609dd96d017","ios":"levelo://app?vid=eadcf468-9c9a-4414-a6d7-6609dd96d017"},"vehicle_type_id":"4","last_reported":1743041914,"current_range_meters":10800,"station_id":"ce4bhc92rcd13ifvqetg","pricing_plan_id":"cebpf4jnsgd1na2vs0mg"},{"bike_id":"8e6e3bce-7dca-4d93-b80d-7989d287a91c","system_id":"levelo_inurba_marseille","lat":43.25006,"lon":5.38912,"is_reserved":false,"is_disabled":false,"rental_uris":{"android":"levelo://app?vid=8e6e3bce-7dca-4d93-b80d-7989d287a91c","ios":"levelo://app?vid=8e6e3bce-7dca-4d93-b80d-7989d287a91c"},"vehicle_type_id":"4","last_reported":1743041914,"current_range_meters":10800,"station_id":"ce4bhgp2rcd13ifvqfd0","pricing_plan_id":"cebpf4jnsgd1na2vs0mg"},{"bike_id":"5e5beadf-3d90-4b18-a356-b701517b2c62","system_id":"levelo_inurba_marseille","lat":43.30256,"lon":5.40095,"is_reserved":false,"is_disabled":false,"rental_uris":{"android":"levelo://app?vid=5e5beadf-3d90-4b18-a356-b701517b2c62","ios":"levelo://app?vid=5e5beadf-3d90-4b18-a356-b701517b2c62"},"vehicle_type_id":"4","last_reported":1743041914,"current_range_meters":11200,"station_id":"ce4bgvh2rcd13ifvqcs0","pricing_plan_id":"cebpf4jnsgd1na2vs0mg"},{"bike_id":"78e8f626-0a9f-4882-bad8-878b14e48f92","system_id":"levelo_inurba_marseille","lat":43.28466,"lon":5.35879,"is_reserved":false,"is_disabled":false,"rental_uris":{"android":"levelo://app?vid=78e8f626-0a9f-4882-bad8-878b14e48f92","ios":"levelo://app?vid=78e8f626-0a9f-4882-bad8-878b14e48f92"},"vehicle_type_id":"4","last_reported":1743041914,"current_range_meters":11200,"station_id":"ce4bhah2rcd13ifvqei0","pricing_plan_id":"cebpf4jnsgd1na2vs0mg"},{"bike_id":"c78da9a2-101e-42b9-8412-e94531de750c","system_id":"levelo_inurba_marseille","lat":43.30266,"lon":5.40089,"is_reserved":false,"is_disabled":false,"rental_uris":{"android":"levelo://app?vid=c78da9a2-101e-42b9-8412-e94531de750c","ios":"levelo://app?vid=c78da9a2-101e-42b9-8412-e94531de750c"},"vehicle_type_id":"4","last_reported":1743041914,"current_range_meters":11200,"station_id":"ce4bgvh2rcd13ifvqcs0","pricing_plan_id":"cebpf4jnsgd1na2vs0mg"},{"bike_id":"5d97e6db-29aa-4dc3-a913-dd5ff76e3f8c","system_id":"levelo_inurba_marseille","lat":43.294196,"lon":5.386103,"is_reserved":false,"is_disabled":true,"rental_uris":{"android":"levelo://app?vid=5d97e6db-29aa-4dc3-a913-dd5ff76e3f8c","ios":"levelo://app?vid=5d97e6db-29aa-4dc3-a913-dd5ff76e3f8c"},"vehicle_type_id":"4","last_reported":1743041914,"current_range_meters":11600,"station_id":"ce4bh2h2rcd13ifvqdh0","pricing_plan_id":"cebpf4jnsgd1na2vs0mg"},{"bike_id":"c18155db-65c7-4d5a-8c5b-923eb75c675d","system_id":"levelo_inurba_marseille","lat":43.32124,"lon":5.36819,"is_reserved":false,"is_disabled":false,"rental_uris":{"android":"levelo://app?vid=c18155db-65c7-4d5a-8c5b-923eb75c675d","ios":"levelo://app?vid=c18155db-65c7-4d5a-8c5b-923eb75c675d"},"vehicle_type_id":"4","last_reported":1743041914,"current_range_meters":11600,"station_id":"","pricing_plan_id":"cebpf4jnsgd1na2vs0mg"},{"bike_id":"5ca9ac81-53c9-444a-ab66-71f3af25a779","system_id":"levelo_inurba_marseille","lat":43.28013,"lon":5.40017,"is_reserved":false,"is_disabled":false,"rental_uris":{"android":"levelo://app?vid=5ca9ac81-53c9-444a-ab66-71f3af25a779","ios":"levelo://app?vid=5ca9ac81-53c9-444a-ab66-71f3af25a779"},"vehicle_type_id":"4","last_reported":1743041914,"current_range_meters":11600,"station_id":"ce4bho92rcd13ifvqh4g","pricing_plan_id":"cebpf4jnsgd1na2vs0mg"},{"bike_id":"6f1a4c35-2f00-4faa-b039-6440525bf2e4","system_id":"levelo_inurba_marseille","lat":43.298,"lon":5.40399,"is_reserved":false,"is_disabled":false,"rental_uris":{"android":"levelo://app?vid=6f1a4c35-2f00-4faa-b039-6440525bf2e4","ios":"levelo://app?vid=6f1a4c35-2f00-4faa-b039-6440525bf2e4"},"vehicle_type_id":"4","last_reported":1743041914,"current_range_meters":11600,"station_id":"ce4bh112rcd13ifvqd90","pricing_plan_id":"cebpf4jnsgd1na2vs0mg"},{"bike_id":"56986a0e-2950-47f8-8cb0-732f2c87953c","system_id":"levelo_inurba_marseille","lat":43.267,"lon":5.38243,"is_reserved":false,"is_disabled":false,"rental_uris":{"android":"levelo://app?vid=56986a0e-2950-47f8-8cb0-732f2c87953c","ios":"levelo://app?vid=56986a0e-2950-47f8-8cb0-732f2c87953c"},"vehicle_type_id":"4","last_reported":1743041914,"current_range_meters":12000,"station_id":"ce4bhg92rcd13ifvqf90","pricing_plan_id":"cebpf4jnsgd1na2vs0mg"},{"bike_id":"0ac88cdf-dd3a-494f-aaa5-2b24d1ce393f","system_id":"levelo_inurba_marseille","lat":43.23187,"lon":5.3556,"is_reserved":false,"is_disabled":false,"rental_uris":{"android":"levelo://app?vid=0ac88cdf-dd3a-494f-aaa5-2b24d1ce393f","ios":"levelo://app?vid=0ac88cdf-dd3a-494f-aaa5-2b24d1ce393f"},"vehicle_type_id":"4","last_reported":1743041914,"current_range_meters":12000,"station_id":"ce4bhu92rcd13ifvqi70","pricing_plan_id":"cebpf4jnsgd1na2vs0mg"},{"bike_id":"af7f26d5-d01f-4be5-9949-83b0d976cb8f","system_id":"levelo_inurba_marseille","lat":43.30931,"lon":5.40152,"is_reserved":false,"is_disabled":false,"rental_uris":{"android":"levelo://app?vid=af7f26d5-d01f-4be5-9949-83b0d976cb8f","ios":"levelo://app?vid=af7f26d5-d01f-4be5-9949-83b0d976cb8f"},"vehicle_type_id":"4","last_reported":1743041914,"current_range_meters":12000,"station_id":"ce4bgvp2rcd13ifvqct0","pricing_plan_id":"cebpf4jnsgd1na2vs0mg"},{"bike_id":"8ace7717-c45a-48f1-9668-531396bc867c","system_id":"levelo_inurba_marseille","lat":43.27809,"lon":5.40712,"is_reserved":false,"is_disabled":false,"rental_uris":{"android":"levelo://app?vid=8ace7717-c45a-48f1-9668-531396bc867c","ios":"levelo://app?vid=8ace7717-c45a-48f1-9668-531396bc867c"},"vehicle_type_id":"4","last_reported":1743041914,"current_range_meters":12000,"station_id":"ce4bhnh2rcd13ifvqgtg","pricing_plan_id":"cebpf4jnsgd1na2vs0mg"},{"bike_id":"176f7174-a1bf-478d-ba37-7252254242c0","system_id":"levelo_inurba_marseille","lat":43.29257,"lon":5.409,"is_reserved":false,"is_disabled":false,"rental_uris":{"android":"levelo://app?vid=176f7174-a1bf-478d-ba37-7252254242c0","ios":"levelo://app?vid=176f7174-a1bf-478d-ba37-7252254242c0"},"vehicle_type_id":"4","last_reported":1743041914,"current_range_meters":12400,"station_id":"ce4bh192rcd13ifvqdc0","pricing_plan_id":"cebpf4jnsgd1na2vs0mg"},{"bike_id":"6e208957-05d3-430b-8247-5e3338f51f57","system_id":"levelo_inurba_marseille","lat":43.29896,"lon":5.38129,"is_reserved":false,"is_disabled":true,"rental_uris":{"android":"levelo://app?vid=6e208957-05d3-430b-8247-5e3338f51f57","ios":"levelo://app?vid=6e208957-05d3-430b-8247-5e3338f51f57"},"vehicle_type_id":"4","last_reported":1743041914,"current_range_meters":12400,"station_id":"ce4bgj12rcd13ifvqbc0","pricing_plan_id":"cebpf4jnsgd1na2vs0mg"},{"bike_id":"ae1cb044-1267-46d3-955d-17f27576ac8f","system_id":"levelo_inurba_marseille","lat":43.28697,"lon":5.37401,"is_reserved":false,"is_disabled":false,"rental_uris":{"android":"levelo://app?vid=ae1cb044-1267-46d3-955d-17f27576ac8f","ios":"levelo://app?vid=ae1cb044-1267-46d3-955d-17f27576ac8f"},"vehicle_type_id":"4","last_reported":1743041914,"current_range_meters":12400,"station_id":"ce4bh3p2rcd13ifvqdq0","pricing_plan_id":"cebpf4jnsgd1na2vs0mg"},{"bike_id":"66e58a5f-3028-4234-b1e9-9dba949dad9d","system_id":"levelo_inurba_marseille","lat":43.31176,"lon":5.38706,"is_reserved":false,"is_disabled":false,"rental_uris":{"android":"levelo://app?vid=66e58a5f-3028-4234-b1e9-9dba949dad9d","ios":"levelo://app?vid=66e58a5f-3028-4234-b1e9-9dba949dad9d"},"vehicle_type_id":"4","last_reported":1743041914,"current_range_meters":12400,"station_id":"ce4bgv12rcd13ifvqcp0","pricing_plan_id":"cebpf4jnsgd1na2vs0mg"},{"bike_id":"75c7187b-7cb5-4136-b180-795a32bcbe1d","system_id":"levelo_inurba_marseille","lat":43.27974,"lon":5.38589,"is_reserved":false,"is_disabled":true,"rental_uris":{"android":"levelo://app?vid=75c7187b-7cb5-4136-b180-795a32bcbe1d","ios":"levelo://app?vid=75c7187b-7cb5-4136-b180-795a32bcbe1d"},"vehicle_type_id":"4","last_reported":1743041914,"current_range_meters":12400,"station_id":"","pricing_plan_id":"cebpf4jnsgd1na2vs0mg"},{"bike_id":"181b29e9-16fe-4559-9b24-eb1130bfc90a","system_id":"levelo_inurba_marseille","lat":43.28349,"lon":5.38101,"is_reserved":false,"is_disabled":false,"rental_uris":{"android":"levelo://app?vid=181b29e9-16fe-4559-9b24-eb1130bfc90a","ios":"levelo://app?vid=181b29e9-16fe-4559-9b24-eb1130bfc90a"},"vehicle_type_id":"4","last_reported":1743041914,"current_range_meters":12400,"station_id":"ce4bh412rcd13ifvqdr0","pricing_plan_id":"cebpf4jnsgd1na2vs0mg"},{"bike_id":"32795fc3-ec78-4606-95f5-d0cd85ee4c4f","system_id":"levelo_inurba_marseille","lat":43.308824,"lon":5.396509,"is_reserved":false,"is_disabled":false,"rental_uris":{"android":"levelo://app?vid=32795fc3-ec78-4606-95f5-d0cd85ee4c4f","ios":"levelo://app?vid=32795fc3-ec78-4606-95f5-d0cd85ee4c4f"},"vehicle_type_id":"4","last_reported":1743041914,"current_range_meters":12400,"station_id":"ce4bh012rcd13ifvqcv0","pricing_plan_id":"cebpf4jnsgd1na2vs0mg"},{"bike_id":"65115fdd-1593-40c0-a495-94b3eedd57f8","system_id":"levelo_inurba_marseille","lat":43.241807,"lon":5.39722,"is_reserved":false,"is_disabled":false,"rental_uris":{"android":"levelo://app?vid=65115fdd-1593-40c0-a495-94b3eedd57f8","ios":"levelo://app?vid=65115fdd-1593-40c0-a495-94b3eedd57f8"},"vehicle_type_id":"4","last_reported":1743041914,"current_range_meters":12400,"station_id":"ce4bhn12rcd13ifvqgpg","pricing_plan_id":"cebpf4jnsgd1na2vs0mg"},{"bike_id":"f5578a6b-f8ce-4488-a444-ff78957bf9e5","system_id":"levelo_inurba_marseille","lat":43.29626,"lon":5.40591,"is_reserved":false,"is_disabled":false,"rental_uris":{"android":"levelo://app?vid=f5578a6b-f8ce-4488-a444-ff78957bf9e5","ios":"levelo://app?vid=f5578a6b-f8ce-4488-a444-ff78957bf9e5"},"vehicle_type_id":"4","last_reported":1743041914,"current_range_meters":12800,"station_id":"ce4bh0h2rcd13ifvqd60","pricing_plan_id":"cebpf4jnsgd1na2vs0mg"},{"bike_id":"f27f4e2d-79ee-4ac0-a91a-21e079f77825","system_id":"levelo_inurba_marseille","lat":43.32009,"lon":5.3816,"is_reserved":false,"is_disabled":false,"rental_uris":{"android":"levelo://app?vid=f27f4e2d-79ee-4ac0-a91a-21e079f77825","ios":"levelo://app?vid=f27f4e2d-79ee-4ac0-a91a-21e079f77825"},"vehicle_type_id":"4","last_reported":1743041914,"current_range_meters":12800,"station_id":"ce4bhr12rcd13ifvqhpg","pricing_plan_id":"cebpf4jnsgd1na2vs0mg"},{"bike_id":"379879bf-1f7f-45f5-9cac-b09d574b3620","system_id":"levelo_inurba_marseille","lat":43.27822,"lon":5.40706,"is_reserved":false,"is_disabled":false,"rental_uris":{"android":"levelo://app?vid=379879bf-1f7f-45f5-9cac-b09d574b3620","ios":"levelo://app?vid=379879bf-1f7f-45f5-9cac-b09d574b3620"},"vehicle_type_id":"4","last_reported":1743041914,"current_range_meters":12800,"station_id":"ce4bhnh2rcd13ifvqgtg","pricing_plan_id":"cebpf4jnsgd1na2vs0mg"},{"bike_id":"1b036368-9f49-48a1-b87f-7e268d514fd1","system_id":"levelo_inurba_marseille","lat":43.28954,"lon":5.36409,"is_reserved":false,"is_disabled":false,"rental_uris":{"android":"levelo://app?vid=1b036368-9f49-48a1-b87f-7e268d514fd1","ios":"levelo://app?vid=1b036368-9f49-48a1-b87f-7e268d514fd1"},"vehicle_type_id":"4","last_reported":1743041914,"current_range_meters":12800,"station_id":"ce4bhc92rcd13ifvqetg","pricing_plan_id":"cebpf4jnsgd1na2vs0mg"},{"bike_id":"989f23ec-1920-4dd4-8ba0-ab5d8c8f7aa2","system_id":"levelo_inurba_marseille","lat":43.28461,"lon":5.35871,"is_reserved":false,"is_disabled":false,"rental_uris":{"android":"levelo://app?vid=989f23ec-1920-4dd4-8ba0-ab5d8c8f7aa2","ios":"levelo://app?vid=989f23ec-1920-4dd4-8ba0-ab5d8c8f7aa2"},"vehicle_type_id":"4","last_reported":1743041914,"current_range_meters":12800,"station_id":"ce4bhah2rcd13ifvqei0","pricing_plan_id":"cebpf4jnsgd1na2vs0mg"},{"bike_id":"fc8e8371-f4e9-4721-bc19-563801e389dc","system_id":"levelo_inurba_marseille","lat":43.337444,"lon":5.374475,"is_reserved":false,"is_disabled":false,"rental_uris":{"android":"levelo://app?vid=fc8e8371-f4e9-4721-bc19-563801e389dc","ios":"levelo://app?vid=fc8e8371-f4e9-4721-bc19-563801e389dc"},"vehicle_type_id":"4","last_reported":1743041914,"current_range_meters":12800,"station_id":"","pricing_plan_id":"cebpf4jnsgd1na2vs0mg"},{"bike_id":"aa9dc8df-3090-4056-948f-064e1997efa8","system_id":"levelo_inurba_marseille","lat":43.2963,"lon":5.40598,"is_reserved":false,"is_disabled":false,"rental_uris":{"android":"levelo://app?vid=aa9dc8df-3090-4056-948f-064e1997efa8","ios":"levelo://app?vid=aa9dc8df-3090-4056-948f-064e1997efa8"},"vehicle_type_id":"4","last_reported":1743041914,"current_range_meters":13600,"station_id":"ce4bh0h2rcd13ifvqd60","pricing_plan_id":"cebpf4jnsgd1na2vs0mg"},{"bike_id":"688f11bd-1c2b-44dc-a361-c45ea1323bb7","system_id":"levelo_inurba_marseille","lat":43.298843,"lon":5.389075,"is_reserved":false,"is_disabled":false,"rental_uris":{"android":"levelo://app?vid=688f11bd-1c2b-44dc-a361-c45ea1323bb7","ios":"levelo://app?vid=688f11bd-1c2b-44dc-a361-c45ea1323bb7"},"vehicle_type_id":"4","last_reported":1743041914,"current_range_meters":13600,"station_id":"ce4bh392rcd13ifvqdl0","pricing_plan_id":"cebpf4jnsgd1na2vs0mg"},{"bike_id":"25c93242-72e6-4525-aea7-7d96e2cd1825","system_id":"levelo_inurba_marseille","lat":43.33074,"lon":5.4085,"is_reserved":false,"is_disabled":false,"rental_uris":{"android":"levelo://app?vid=25c93242-72e6-4525-aea7-7d96e2cd1825","ios":"levelo://app?vid=25c93242-72e6-4525-aea7-7d96e2cd1825"},"vehicle_type_id":"4","last_reported":1743041914,"current_range_meters":13600,"station_id":"","pricing_plan_id":"cebpf4jnsgd1na2vs0mg"},{"bike_id":"80766474-85c0-44c4-a66d-af0f869abe8a","system_id":"levelo_inurba_marseille","lat":43.281,"lon":5.37827,"is_reserved":false,"is_disabled":false,"rental_uris":{"android":"levelo://app?vid=80766474-85c0-44c4-a66d-af0f869abe8a","ios":"levelo://app?vid=80766474-85c0-44c4-a66d-af0f869abe8a"},"vehicle_type_id":"4","last_reported":1743041914,"current_range_meters":13600,"station_id":"ce4bha12rcd13ifvqee0","pricing_plan_id":"cebpf4jnsgd1na2vs0mg"},{"bike_id":"7ba5792e-647f-465a-8d91-c9d3a80d61e2","system_id":"levelo_inurba_marseille","lat":43.2925,"lon":5.40905,"is_reserved":false,"is_disabled":false,"rental_uris":{"android":"levelo://app?vid=7ba5792e-647f-465a-8d91-c9d3a80d61e2","ios":"levelo://app?vid=7ba5792e-647f-465a-8d91-c9d3a80d61e2"},"vehicle_type_id":"4","last_reported":1743041914,"current_range_meters":13600,"station_id":"ce4bh192rcd13ifvqdc0","pricing_plan_id":"cebpf4jnsgd1na2vs0mg"},{"bike_id":"64f0ea86-1180-4755-95e1-3cbc9c8d4cf5","system_id":"levelo_inurba_marseille","lat":43.32999,"lon":5.43848,"is_reserved":false,"is_disabled":true,"rental_uris":{"android":"levelo://app?vid=64f0ea86-1180-4755-95e1-3cbc9c8d4cf5","ios":"levelo://app?vid=64f0ea86-1180-4755-95e1-3cbc9c8d4cf5"},"vehicle_type_id":"4","last_reported":1743041914,"current_range_meters":13600,"station_id":"","pricing_plan_id":"cebpf4jnsgd1na2vs0mg"},{"bike_id":"5018a59b-b386-4e99-b26c-192a8f1ed783","system_id":"levelo_inurba_marseille","lat":43.33334,"lon":5.35887,"is_reserved":false,"is_disabled":false,"rental_uris":{"android":"levelo://app?vid=5018a59b-b386-4e99-b26c-192a8f1ed783","ios":"levelo://app?vid=5018a59b-b386-4e99-b26c-192a8f1ed783"},"vehicle_type_id":"4","last_reported":1743041914,"current_range_meters":13600,"station_id":"","pricing_plan_id":"cebpf4jnsgd1na2vs0mg"},{"bike_id":"a775bff2-22ab-4135-bf19-be293c4a554e","system_id":"levelo_inurba_marseille","lat":43.2782,"lon":5.40695,"is_reserved":false,"is_disabled":false,"rental_uris":{"android":"levelo://app?vid=a775bff2-22ab-4135-bf19-be293c4a554e","ios":"levelo://app?vid=a775bff2-22ab-4135-bf19-be293c4a554e"},"vehicle_type_id":"4","last_reported":1743041914,"current_range_meters":13600,"station_id":"ce4bhnh2rcd13ifvqgtg","pricing_plan_id":"cebpf4jnsgd1na2vs0mg"},{"bike_id":"0f234e82-6eca-409d-9cb7-b29704ec3547","system_id":"levelo_inurba_marseille","lat":43.28732,"lon":5.36091,"is_reserved":false,"is_disabled":false,"rental_uris":{"android":"levelo://app?vid=0f234e82-6eca-409d-9cb7-b29704ec3547","ios":"levelo://app?vid=0f234e82-6eca-409d-9cb7-b29704ec3547"},"vehicle_type_id":"4","last_reported":1743041914,"current_range_meters":13600,"station_id":"cki0cbj6b192h4jlfktg","pricing_plan_id":"cebpf4jnsgd1na2vs0mg"},{"bike_id":"f408f3ed-0fd5-4cd6-9bae-7da3a4cf8142","system_id":"levelo_inurba_marseille","lat":43.29702,"lon":5.36592,"is_reserved":false,"is_disabled":false,"rental_uris":{"android":"levelo://app?vid=f408f3ed-0fd5-4cd6-9bae-7da3a4cf8142","ios":"levelo://app?vid=f408f3ed-0fd5-4cd6-9bae-7da3a4cf8142"},"vehicle_type_id":"4","last_reported":1743041914,"current_range_meters":14000,"station_id":"ce4bgn12rcd13ifvqbt0","pricing_plan_id":"cebpf4jnsgd1na2vs0mg"},{"bike_id":"03fcd15e-64d1-4236-82cf-6968047d6073","system_id":"levelo_inurba_marseille","lat":43.3081,"lon":5.38167,"is_reserved":false,"is_disabled":false,"rental_uris":{"android":"levelo://app?vid=03fcd15e-64d1-4236-82cf-6968047d6073","ios":"levelo://app?vid=03fcd15e-64d1-4236-82cf-6968047d6073"},"vehicle_type_id":"4","last_reported":1743041914,"current_range_meters":14000,"station_id":"ce4bgt12rcd13ifvqce0","pricing_plan_id":"cebpf4jnsgd1na2vs0mg"},{"bike_id":"cdd4299d-7666-4580-9d2b-ea5987058994","system_id":"levelo_inurba_marseille","lat":43.30932,"lon":5.40146,"is_reserved":false,"is_disabled":false,"rental_uris":{"android":"levelo://app?vid=cdd4299d-7666-4580-9d2b-ea5987058994","ios":"levelo://app?vid=cdd4299d-7666-4580-9d2b-ea5987058994"},"vehicle_type_id":"4","last_reported":1743041914,"current_range_meters":14000,"station_id":"ce4bgvp2rcd13ifvqct0","pricing_plan_id":"cebpf4jnsgd1na2vs0mg"},{"bike_id":"2fe546b8-fa69-42c4-ae8f-4b3f4b863d6b","system_id":"levelo_inurba_marseille","lat":43.28153,"lon":5.42642,"is_reserved":false,"is_disabled":false,"rental_uris":{"android":"levelo://app?vid=2fe546b8-fa69-42c4-ae8f-4b3f4b863d6b","ios":"levelo://app?vid=2fe546b8-fa69-42c4-ae8f-4b3f4b863d6b"},"vehicle_type_id":"4","last_reported":1743041914,"current_range_meters":14000,"station_id":"ce4bhnh2rcd13ifvqgug","pricing_plan_id":"cebpf4jnsgd1na2vs0mg"},{"bike_id":"7491f29d-7a35-4112-bdb3-81a7450b8ffa","system_id":"levelo_inurba_marseille","lat":43.30316,"lon":5.40429,"is_reserved":false,"is_disabled":false,"rental_uris":{"android":"levelo://app?vid=7491f29d-7a35-4112-bdb3-81a7450b8ffa","ios":"levelo://app?vid=7491f29d-7a35-4112-bdb3-81a7450b8ffa"},"vehicle_type_id":"4","last_reported":1743041914,"current_range_meters":14000,"station_id":"ce4bh012rcd13ifvqd10","pricing_plan_id":"cebpf4jnsgd1na2vs0mg"},{"bike_id":"12de2a5d-af1a-406f-ae29-1792c23b418c","system_id":"levelo_inurba_marseille","lat":43.28424,"lon":5.34969,"is_reserved":false,"is_disabled":true,"rental_uris":{"android":"levelo://app?vid=12de2a5d-af1a-406f-ae29-1792c23b418c","ios":"levelo://app?vid=12de2a5d-af1a-406f-ae29-1792c23b418c"},"vehicle_type_id":"4","last_reported":1743041914,"current_range_meters":14400,"station_id":"ce4bhbh2rcd13ifvqepg","pricing_plan_id":"cebpf4jnsgd1na2vs0mg"},{"bike_id":"3db941ec-b056-48c9-99db-c4785bb67972","system_id":"levelo_inurba_marseille","lat":43.28714,"lon":5.39953,"is_reserved":false,"is_disabled":false,"rental_uris":{"android":"levelo://app?vid=3db941ec-b056-48c9-99db-c4785bb67972","ios":"levelo://app?vid=3db941ec-b056-48c9-99db-c4785bb67972"},"vehicle_type_id":"4","last_reported":1743041914,"current_range_meters":14400,"station_id":"ce4bho92rcd13ifvqh3g","pricing_plan_id":"cebpf4jnsgd1na2vs0mg"},{"bike_id":"3794eee4-f755-48a0-8699-76dca7fff8ee","system_id":"levelo_inurba_marseille","lat":43.2127,"lon":5.35395,"is_reserved":false,"is_disabled":false,"rental_uris":{"android":"levelo://app?vid=3794eee4-f755-48a0-8699-76dca7fff8ee","ios":"levelo://app?vid=3794eee4-f755-48a0-8699-76dca7fff8ee"},"vehicle_type_id":"4","last_reported":1743041914,"current_range_meters":14400,"station_id":"","pricing_plan_id":"cebpf4jnsgd1na2vs0mg"},{"bike_id":"776cf818-eef5-4096-9df3-aa572959673c","system_id":"levelo_inurba_marseille","lat":43.28028,"lon":5.36954,"is_reserved":false,"is_disabled":false,"rental_uris":{"android":"levelo://app?vid=776cf818-eef5-4096-9df3-aa572959673c","ios":"levelo://app?vid=776cf818-eef5-4096-9df3-aa572959673c"},"vehicle_type_id":"4","last_reported":1743041914,"current_range_meters":14400,"station_id":"ce4bha12rcd13ifvqef0","pricing_plan_id":"cebpf4jnsgd1na2vs0mg"},{"bike_id":"46bc710b-ba5b-4a06-b139-1452387f1098","system_id":"levelo_inurba_marseille","lat":43.23149,"lon":5.43727,"is_reserved":false,"is_disabled":false,"rental_uris":{"android":"levelo://app?vid=46bc710b-ba5b-4a06-b139-1452387f1098","ios":"levelo://app?vid=46bc710b-ba5b-4a06-b139-1452387f1098"},"vehicle_type_id":"4","last_reported":1743041914,"current_range_meters":14400,"station_id":"ce4bhmp2rcd13ifvqgog","pricing_plan_id":"cebpf4jnsgd1na2vs0mg"},{"bike_id":"4bc6d656-cec5-4197-b8aa-2089609b81be","system_id":"levelo_inurba_marseille","lat":43.30812,"lon":5.38184,"is_reserved":false,"is_disabled":false,"rental_uris":{"android":"levelo://app?vid=4bc6d656-cec5-4197-b8aa-2089609b81be","ios":"levelo://app?vid=4bc6d656-cec5-4197-b8aa-2089609b81be"},"vehicle_type_id":"4","last_reported":1743041914,"current_range_meters":14400,"station_id":"ce4bgt12rcd13ifvqce0","pricing_plan_id":"cebpf4jnsgd1na2vs0mg"},{"bike_id":"2079e143-15fb-4fca-b428-1dcdbd2da2aa","system_id":"levelo_inurba_marseille","lat":43.27806,"lon":5.40702,"is_reserved":false,"is_disabled":false,"rental_uris":{"android":"levelo://app?vid=2079e143-15fb-4fca-b428-1dcdbd2da2aa","ios":"levelo://app?vid=2079e143-15fb-4fca-b428-1dcdbd2da2aa"},"vehicle_type_id":"4","last_reported":1743041914,"current_range_meters":14400,"station_id":"ce4bhnh2rcd13ifvqgtg","pricing_plan_id":"cebpf4jnsgd1na2vs0mg"},{"bike_id":"7c0e5242-d040-4261-99f3-fb7fecf35329","system_id":"levelo_inurba_marseille","lat":43.28353,"lon":5.38074,"is_reserved":false,"is_disabled":false,"rental_uris":{"android":"levelo://app?vid=7c0e5242-d040-4261-99f3-fb7fecf35329","ios":"levelo://app?vid=7c0e5242-d040-4261-99f3-fb7fecf35329"},"vehicle_type_id":"4","last_reported":1743041914,"current_range_meters":14400,"station_id":"ce4bh412rcd13ifvqdr0","pricing_plan_id":"cebpf4jnsgd1na2vs0mg"},{"bike_id":"19221227-42ec-4f4b-8f04-42a0818e22f5","system_id":"levelo_inurba_marseille","lat":43.321091,"lon":5.367807,"is_reserved":false,"is_disabled":false,"rental_uris":{"android":"levelo://app?vid=19221227-42ec-4f4b-8f04-42a0818e22f5","ios":"levelo://app?vid=19221227-42ec-4f4b-8f04-42a0818e22f5"},"vehicle_type_id":"4","last_reported":1743041914,"current_range_meters":14400,"station_id":"ce4bhrh2rcd13ifvqhug","pricing_plan_id":"cebpf4jnsgd1na2vs0mg"},{"bike_id":"f00e0bf1-e77c-4752-8f1b-63a2e565cf51","system_id":"levelo_inurba_marseille","lat":43.27966,"lon":5.38747,"is_reserved":false,"is_disabled":true,"rental_uris":{"android":"levelo://app?vid=f00e0bf1-e77c-4752-8f1b-63a2e565cf51","ios":"levelo://app?vid=f00e0bf1-e77c-4752-8f1b-63a2e565cf51"},"vehicle_type_id":"4","last_reported":1743041914,"current_range_meters":14800,"station_id":"ce4bhg12rcd13ifvqf80","pricing_plan_id":"cebpf4jnsgd1na2vs0mg"},{"bike_id":"46b47c1c-82d2-41b5-906b-0ef08dcc5da4","system_id":"levelo_inurba_marseille","lat":43.28457,"lon":5.35885,"is_reserved":false,"is_disabled":false,"rental_uris":{"android":"levelo://app?vid=46b47c1c-82d2-41b5-906b-0ef08dcc5da4","ios":"levelo://app?vid=46b47c1c-82d2-41b5-906b-0ef08dcc5da4"},"vehicle_type_id":"4","last_reported":1743041914,"current_range_meters":14800,"station_id":"ce4bhah2rcd13ifvqei0","pricing_plan_id":"cebpf4jnsgd1na2vs0mg"},{"bike_id":"a9e24147-abcf-40d5-89e4-44742210fa24","system_id":"levelo_inurba_marseille","lat":43.28662,"lon":5.3633,"is_reserved":false,"is_disabled":false,"rental_uris":{"android":"levelo://app?vid=a9e24147-abcf-40d5-89e4-44742210fa24","ios":"levelo://app?vid=a9e24147-abcf-40d5-89e4-44742210fa24"},"vehicle_type_id":"4","last_reported":1743041914,"current_range_meters":14400,"station_id":"ce4bhah2rcd13ifvqej0","pricing_plan_id":"cebpf4jnsgd1na2vs0mg"},{"bike_id":"b92531f3-1086-4aff-8df8-9ccdf666ba85","system_id":"levelo_inurba_marseille","lat":43.29575,"lon":5.37786,"is_reserved":false,"is_disabled":true,"rental_uris":{"android":"levelo://app?vid=b92531f3-1086-4aff-8df8-9ccdf666ba85","ios":"levelo://app?vid=b92531f3-1086-4aff-8df8-9ccdf666ba85"},"vehicle_type_id":"4","last_reported":1743041914,"current_range_meters":14800,"station_id":"","pricing_plan_id":"cebpf4jnsgd1na2vs0mg"},{"bike_id":"24360c01-9d6b-43f7-a3ae-0bc2a86ec47d","system_id":"levelo_inurba_marseille","lat":43.28105,"lon":5.37837,"is_reserved":false,"is_disabled":false,"rental_uris":{"android":"levelo://app?vid=24360c01-9d6b-43f7-a3ae-0bc2a86ec47d","ios":"levelo://app?vid=24360c01-9d6b-43f7-a3ae-0bc2a86ec47d"},"vehicle_type_id":"4","last_reported":1743041914,"current_range_meters":14800,"station_id":"ce4bha12rcd13ifvqee0","pricing_plan_id":"cebpf4jnsgd1na2vs0mg"},{"bike_id":"de968d99-3956-4cb9-a0ec-5d685c63a3cb","system_id":"levelo_inurba_marseille","lat":43.27812,"lon":5.40682,"is_reserved":false,"is_disabled":false,"rental_uris":{"android":"levelo://app?vid=de968d99-3956-4cb9-a0ec-5d685c63a3cb","ios":"levelo://app?vid=de968d99-3956-4cb9-a0ec-5d685c63a3cb"},"vehicle_type_id":"4","last_reported":1743041914,"current_range_meters":14800,"station_id":"ce4bhnh2rcd13ifvqgtg","pricing_plan_id":"cebpf4jnsgd1na2vs0mg"},{"bike_id":"ba7f6640-0bf7-4795-8cba-4be9ce0b47f5","system_id":"levelo_inurba_marseille","lat":43.32368,"lon":5.38884,"is_reserved":false,"is_disabled":false,"rental_uris":{"android":"levelo://app?vid=ba7f6640-0bf7-4795-8cba-4be9ce0b47f5","ios":"levelo://app?vid=ba7f6640-0bf7-4795-8cba-4be9ce0b47f5"},"vehicle_type_id":"4","last_reported":1743041914,"current_range_meters":14800,"station_id":"ce4bhqp2rcd13ifvqhog","pricing_plan_id":"cebpf4jnsgd1na2vs0mg"},{"bike_id":"02fd761b-cdbf-40b3-b5c9-3660b06bbfb0","system_id":"levelo_inurba_marseille","lat":43.289452,"lon":5.364123,"is_reserved":false,"is_disabled":true,"rental_uris":{"android":"levelo://app?vid=02fd761b-cdbf-40b3-b5c9-3660b06bbfb0","ios":"levelo://app?vid=02fd761b-cdbf-40b3-b5c9-3660b06bbfb0"},"vehicle_type_id":"4","last_reported":1743041914,"current_range_meters":14800,"station_id":"ce4bhc92rcd13ifvqetg","pricing_plan_id":"cebpf4jnsgd1na2vs0mg"},{"bike_id":"6ad510bf-71ba-402f-95c5-31252b36837e","system_id":"levelo_inurba_marseille","lat":43.24167,"lon":5.397311,"is_reserved":false,"is_disabled":false,"rental_uris":{"android":"levelo://app?vid=6ad510bf-71ba-402f-95c5-31252b36837e","ios":"levelo://app?vid=6ad510bf-71ba-402f-95c5-31252b36837e"},"vehicle_type_id":"4","last_reported":1743041914,"current_range_meters":14800,"station_id":"ce4bhn12rcd13ifvqgpg","pricing_plan_id":"cebpf4jnsgd1na2vs0mg"},{"bike_id":"d42dd391-4cd2-4308-8c57-800648546c51","system_id":"levelo_inurba_marseille","lat":43.31694,"lon":5.40463,"is_reserved":false,"is_disabled":false,"rental_uris":{"android":"levelo://app?vid=d42dd391-4cd2-4308-8c57-800648546c51","ios":"levelo://app?vid=d42dd391-4cd2-4308-8c57-800648546c51"},"vehicle_type_id":"4","last_reported":1743041914,"current_range_meters":15200,"station_id":"ce4bh012rcd13ifvqd00","pricing_plan_id":"cebpf4jnsgd1na2vs0mg"},{"bike_id":"8199b049-5a68-453e-8538-95ada1351080","system_id":"levelo_inurba_marseille","lat":43.287026,"lon":5.373898,"is_reserved":false,"is_disabled":false,"rental_uris":{"android":"levelo://app?vid=8199b049-5a68-453e-8538-95ada1351080","ios":"levelo://app?vid=8199b049-5a68-453e-8538-95ada1351080"},"vehicle_type_id":"4","last_reported":1743041914,"current_range_meters":15200,"station_id":"ce4bh3p2rcd13ifvqdq0","pricing_plan_id":"cebpf4jnsgd1na2vs0mg"},{"bike_id":"d9e7397d-dd8f-4702-b11d-f6d00c351be1","system_id":"levelo_inurba_marseille","lat":43.28458,"lon":5.35888,"is_reserved":false,"is_disabled":false,"rental_uris":{"android":"levelo://app?vid=d9e7397d-dd8f-4702-b11d-f6d00c351be1","ios":"levelo://app?vid=d9e7397d-dd8f-4702-b11d-f6d00c351be1"},"vehicle_type_id":"4","last_reported":1743041914,"current_range_meters":15200,"station_id":"ce4bhah2rcd13ifvqei0","pricing_plan_id":"cebpf4jnsgd1na2vs0mg"},{"bike_id":"d64b59a9-10fc-4824-bbde-c373b87ba364","system_id":"levelo_inurba_marseille","lat":43.24812,"lon":5.3746,"is_reserved":false,"is_disabled":false,"rental_uris":{"android":"levelo://app?vid=d64b59a9-10fc-4824-bbde-c373b87ba364","ios":"levelo://app?vid=d64b59a9-10fc-4824-bbde-c373b87ba364"},"vehicle_type_id":"4","last_reported":1743041914,"current_range_meters":15200,"station_id":"ce4bhgh2rcd13ifvqfb0","pricing_plan_id":"cebpf4jnsgd1na2vs0mg"},{"bike_id":"30cd612a-8cb0-4fab-9e3a-cd08e9fc22b5","system_id":"levelo_inurba_marseille","lat":43.29515,"lon":5.39387,"is_reserved":false,"is_disabled":true,"rental_uris":{"android":"levelo://app?vid=30cd612a-8cb0-4fab-9e3a-cd08e9fc22b5","ios":"levelo://app?vid=30cd612a-8cb0-4fab-9e3a-cd08e9fc22b5"},"vehicle_type_id":"4","last_reported":1743041914,"current_range_meters":15200,"station_id":"ce4bh292rcd13ifvqdf0","pricing_plan_id":"cebpf4jnsgd1na2vs0mg"},{"bike_id":"ce40b5c6-5d18-4cb5-99a7-211bf3243a49","system_id":"levelo_inurba_marseille","lat":43.31994,"lon":5.38149,"is_reserved":false,"is_disabled":false,"rental_uris":{"android":"levelo://app?vid=ce40b5c6-5d18-4cb5-99a7-211bf3243a49","ios":"levelo://app?vid=ce40b5c6-5d18-4cb5-99a7-211bf3243a49"},"vehicle_type_id":"4","last_reported":1743041914,"current_range_meters":15200,"station_id":"ce4bhr12rcd13ifvqhpg","pricing_plan_id":"cebpf4jnsgd1na2vs0mg"},{"bike_id":"a3a0f99e-d38a-4667-8cd4-08aaa4694863","system_id":"levelo_inurba_marseille","lat":43.2903,"lon":5.3999,"is_reserved":false,"is_disabled":false,"rental_uris":{"android":"levelo://app?vid=a3a0f99e-d38a-4667-8cd4-08aaa4694863","ios":"levelo://app?vid=a3a0f99e-d38a-4667-8cd4-08aaa4694863"},"vehicle_type_id":"4","last_reported":1743041914,"current_range_meters":15200,"station_id":"ce4bh392rcd13ifvqdm0","pricing_plan_id":"cebpf4jnsgd1na2vs0mg"},{"bike_id":"4605e24d-65b2-4424-9d4d-b88f889f4b8e","system_id":"levelo_inurba_marseille","lat":43.28116,"lon":5.398587,"is_reserved":false,"is_disabled":false,"rental_uris":{"android":"levelo://app?vid=4605e24d-65b2-4424-9d4d-b88f889f4b8e","ios":"levelo://app?vid=4605e24d-65b2-4424-9d4d-b88f889f4b8e"},"vehicle_type_id":"4","last_reported":1743041914,"current_range_meters":15200,"station_id":"","pricing_plan_id":"cebpf4jnsgd1na2vs0mg"},{"bike_id":"633757c0-a330-4c8a-8b45-f500ed63c7df","system_id":"levelo_inurba_marseille","lat":43.28456,"lon":5.35871,"is_reserved":false,"is_disabled":false,"rental_uris":{"android":"levelo://app?vid=633757c0-a330-4c8a-8b45-f500ed63c7df","ios":"levelo://app?vid=633757c0-a330-4c8a-8b45-f500ed63c7df"},"vehicle_type_id":"4","last_reported":1743041914,"current_range_meters":16000,"station_id":"ce4bhah2rcd13ifvqei0","pricing_plan_id":"cebpf4jnsgd1na2vs0mg"},{"bike_id":"c4b5cd96-4cca-4a4b-8680-be5cbd90a6f3","system_id":"levelo_inurba_marseille","lat":43.27802,"lon":5.40714,"is_reserved":false,"is_disabled":false,"rental_uris":{"android":"levelo://app?vid=c4b5cd96-4cca-4a4b-8680-be5cbd90a6f3","ios":"levelo://app?vid=c4b5cd96-4cca-4a4b-8680-be5cbd90a6f3"},"vehicle_type_id":"4","last_reported":1743041914,"current_range_meters":16000,"station_id":"ce4bhnh2rcd13ifvqgtg","pricing_plan_id":"cebpf4jnsgd1na2vs0mg"},{"bike_id":"af79bb15-7779-418e-92cc-320d64196b2e","system_id":"levelo_inurba_marseille","lat":43.268125,"lon":5.402655,"is_reserved":false,"is_disabled":false,"rental_uris":{"android":"levelo://app?vid=af79bb15-7779-418e-92cc-320d64196b2e","ios":"levelo://app?vid=af79bb15-7779-418e-92cc-320d64196b2e"},"vehicle_type_id":"4","last_reported":1743041914,"current_range_meters":16000,"station_id":"ce501612rcd8frsf0b60","pricing_plan_id":"cebpf4jnsgd1na2vs0mg"},{"bike_id":"64768fd3-ecfe-4dac-8974-c584abe2318f","system_id":"levelo_inurba_marseille","lat":43.28468,"lon":5.35862,"is_reserved":false,"is_disabled":false,"rental_uris":{"android":"levelo://app?vid=64768fd3-ecfe-4dac-8974-c584abe2318f","ios":"levelo://app?vid=64768fd3-ecfe-4dac-8974-c584abe2318f"},"vehicle_type_id":"4","last_reported":1743041914,"current_range_meters":16000,"station_id":"ce4bhah2rcd13ifvqei0","pricing_plan_id":"cebpf4jnsgd1na2vs0mg"},{"bike_id":"02d7fb4f-89cd-496e-94ad-5ab301088a2d","system_id":"levelo_inurba_marseille","lat":43.323683,"lon":5.388786,"is_reserved":false,"is_disabled":false,"rental_uris":{"android":"levelo://app?vid=02d7fb4f-89cd-496e-94ad-5ab301088a2d","ios":"levelo://app?vid=02d7fb4f-89cd-496e-94ad-5ab301088a2d"},"vehicle_type_id":"4","last_reported":1743041914,"current_range_meters":16000,"station_id":"ce4bhqp2rcd13ifvqhog","pricing_plan_id":"cebpf4jnsgd1na2vs0mg"},{"bike_id":"4bf382b5-aace-4bd2-bacb-5b7a58f988d4","system_id":"levelo_inurba_marseille","lat":43.29538,"lon":5.38545,"is_reserved":false,"is_disabled":true,"rental_uris":{"android":"levelo://app?vid=4bf382b5-aace-4bd2-bacb-5b7a58f988d4","ios":"levelo://app?vid=4bf382b5-aace-4bd2-bacb-5b7a58f988d4"},"vehicle_type_id":"4","last_reported":1743041914,"current_range_meters":16000,"station_id":"ce4bgih2rcd13ifvqba0","pricing_plan_id":"cebpf4jnsgd1na2vs0mg"},{"bike_id":"08ef3c39-a955-492d-9136-62f42eeb93c8","system_id":"levelo_inurba_marseille","lat":43.27909,"lon":5.39585,"is_reserved":false,"is_disabled":false,"rental_uris":{"android":"levelo://app?vid=08ef3c39-a955-492d-9136-62f42eeb93c8","ios":"levelo://app?vid=08ef3c39-a955-492d-9136-62f42eeb93c8"},"vehicle_type_id":"4","last_reported":1743041914,"current_range_meters":16000,"station_id":"ce4bhf92rcd13ifvqf40","pricing_plan_id":"cebpf4jnsgd1na2vs0mg"},{"bike_id":"c9d25743-68ae-4479-9c17-59c34dbbf7e8","system_id":"levelo_inurba_marseille","lat":43.278691,"lon":5.412065,"is_reserved":false,"is_disabled":false,"rental_uris":{"android":"levelo://app?vid=c9d25743-68ae-4479-9c17-59c34dbbf7e8","ios":"levelo://app?vid=c9d25743-68ae-4479-9c17-59c34dbbf7e8"},"vehicle_type_id":"4","last_reported":1743041914,"current_range_meters":16000,"station_id":"","pricing_plan_id":"cebpf4jnsgd1na2vs0mg"},{"bike_id":"c6698331-3105-4f03-a329-57f6084a9745","system_id":"levelo_inurba_marseille","lat":43.294013,"lon":5.3855,"is_reserved":false,"is_disabled":false,"rental_uris":{"android":"levelo://app?vid=c6698331-3105-4f03-a329-57f6084a9745","ios":"levelo://app?vid=c6698331-3105-4f03-a329-57f6084a9745"},"vehicle_type_id":"4","last_reported":1743041914,"current_range_meters":16000,"station_id":"","pricing_plan_id":"cebpf4jnsgd1na2vs0mg"},{"bike_id":"7407108b-a37d-4a0b-b99a-4435ab43b46d","system_id":"levelo_inurba_marseille","lat":43.27812,"lon":5.40717,"is_reserved":false,"is_disabled":false,"rental_uris":{"android":"levelo://app?vid=7407108b-a37d-4a0b-b99a-4435ab43b46d","ios":"levelo://app?vid=7407108b-a37d-4a0b-b99a-4435ab43b46d"},"vehicle_type_id":"4","last_reported":1743041914,"current_range_meters":16000,"station_id":"ce4bhnh2rcd13ifvqgtg","pricing_plan_id":"cebpf4jnsgd1na2vs0mg"},{"bike_id":"51f32f03-7a5a-4f78-a1b1-cdbc83512524","system_id":"levelo_inurba_marseille","lat":43.24671,"lon":5.38123,"is_reserved":false,"is_disabled":false,"rental_uris":{"android":"levelo://app?vid=51f32f03-7a5a-4f78-a1b1-cdbc83512524","ios":"levelo://app?vid=51f32f03-7a5a-4f78-a1b1-cdbc83512524"},"vehicle_type_id":"4","last_reported":1743041914,"current_range_meters":16000,"station_id":"ce4bhih2rcd13ifvqfr0","pricing_plan_id":"cebpf4jnsgd1na2vs0mg"},{"bike_id":"3e7f7846-5e5b-4038-a56b-6897a6a204b7","system_id":"levelo_inurba_marseille","lat":43.2971,"lon":5.36625,"is_reserved":false,"is_disabled":false,"rental_uris":{"android":"levelo://app?vid=3e7f7846-5e5b-4038-a56b-6897a6a204b7","ios":"levelo://app?vid=3e7f7846-5e5b-4038-a56b-6897a6a204b7"},"vehicle_type_id":"4","last_reported":1743041914,"current_range_meters":16000,"station_id":"ce4bgn12rcd13ifvqbt0","pricing_plan_id":"cebpf4jnsgd1na2vs0mg"},{"bike_id":"e0f854e6-2375-437d-a78b-6d5bf2ead237","system_id":"levelo_inurba_marseille","lat":43.33422,"lon":5.40057,"is_reserved":false,"is_disabled":false,"rental_uris":{"android":"levelo://app?vid=e0f854e6-2375-437d-a78b-6d5bf2ead237","ios":"levelo://app?vid=e0f854e6-2375-437d-a78b-6d5bf2ead237"},"vehicle_type_id":"4","last_reported":1743041914,"current_range_meters":16000,"station_id":"","pricing_plan_id":"cebpf4jnsgd1na2vs0mg"},{"bike_id":"e9fbcc8c-5ca5-47a7-a7cb-1b67ca13e267","system_id":"levelo_inurba_marseille","lat":43.30213,"lon":5.39477,"is_reserved":false,"is_disabled":false,"rental_uris":{"android":"levelo://app?vid=e9fbcc8c-5ca5-47a7-a7cb-1b67ca13e267","ios":"levelo://app?vid=e9fbcc8c-5ca5-47a7-a7cb-1b67ca13e267"},"vehicle_type_id":"4","last_reported":1743041914,"current_range_meters":16000,"station_id":"ce4bh0p2rcd13ifvqd70","pricing_plan_id":"cebpf4jnsgd1na2vs0mg"},{"bike_id":"6cc3da8a-67d7-44a3-a6f4-779afd310d16","system_id":"levelo_inurba_marseille","lat":43.288504,"lon":5.39322,"is_reserved":false,"is_disabled":false,"rental_uris":{"android":"levelo://app?vid=6cc3da8a-67d7-44a3-a6f4-779afd310d16","ios":"levelo://app?vid=6cc3da8a-67d7-44a3-a6f4-779afd310d16"},"vehicle_type_id":"4","last_reported":1743041914,"current_range_meters":16000,"station_id":"ce4bh2p2rcd13ifvqdi0","pricing_plan_id":"cebpf4jnsgd1na2vs0mg"},{"bike_id":"e70f4190-15d7-4731-8181-781931044394","system_id":"levelo_inurba_marseille","lat":43.25112,"lon":5.40337,"is_reserved":false,"is_disabled":false,"rental_uris":{"android":"levelo://app?vid=e70f4190-15d7-4731-8181-781931044394","ios":"levelo://app?vid=e70f4190-15d7-4731-8181-781931044394"},"vehicle_type_id":"4","last_reported":1743041914,"current_range_meters":16000,"station_id":"ce4bhlh2rcd13ifvqgig","pricing_plan_id":"cebpf4jnsgd1na2vs0mg"},{"bike_id":"ef34c5df-04ac-43f5-b064-e6bc9741740d","system_id":"levelo_inurba_marseille","lat":43.32366,"lon":5.36754,"is_reserved":false,"is_disabled":false,"rental_uris":{"android":"levelo://app?vid=ef34c5df-04ac-43f5-b064-e6bc9741740d","ios":"levelo://app?vid=ef34c5df-04ac-43f5-b064-e6bc9741740d"},"vehicle_type_id":"4","last_reported":1743041914,"current_range_meters":16000,"station_id":"ce4bhsh2rcd13ifvqi2g","pricing_plan_id":"cebpf4jnsgd1na2vs0mg"},{"bike_id":"287d8bcc-a090-410c-965e-4f5825c45b79","system_id":"levelo_inurba_marseille","lat":43.28855,"lon":5.39321,"is_reserved":false,"is_disabled":false,"rental_uris":{"android":"levelo://app?vid=287d8bcc-a090-410c-965e-4f5825c45b79","ios":"levelo://app?vid=287d8bcc-a090-410c-965e-4f5825c45b79"},"vehicle_type_id":"4","last_reported":1743041914,"current_range_meters":16400,"station_id":"ce4bh2p2rcd13ifvqdi0","pricing_plan_id":"cebpf4jnsgd1na2vs0mg"},{"bike_id":"348db705-8b00-4e26-be81-8c797fe16393","system_id":"levelo_inurba_marseille","lat":43.28457,"lon":5.35879,"is_reserved":false,"is_disabled":false,"rental_uris":{"android":"levelo://app?vid=348db705-8b00-4e26-be81-8c797fe16393","ios":"levelo://app?vid=348db705-8b00-4e26-be81-8c797fe16393"},"vehicle_type_id":"4","last_reported":1743041914,"current_range_meters":16400,"station_id":"ce4bhah2rcd13ifvqei0","pricing_plan_id":"cebpf4jnsgd1na2vs0mg"},{"bike_id":"d5bd38d8-cbf0-4dd0-8754-1d073acc725e","system_id":"levelo_inurba_marseille","lat":43.246613,"lon":5.381618,"is_reserved":false,"is_disabled":false,"rental_uris":{"android":"levelo://app?vid=d5bd38d8-cbf0-4dd0-8754-1d073acc725e","ios":"levelo://app?vid=d5bd38d8-cbf0-4dd0-8754-1d073acc725e"},"vehicle_type_id":"4","last_reported":1743041914,"current_range_meters":16400,"station_id":"ce4bhnp2rcd13ifvqgvg","pricing_plan_id":"cebpf4jnsgd1na2vs0mg"},{"bike_id":"49748645-26a7-4869-b630-119c5a0defb9","system_id":"levelo_inurba_marseille","lat":43.30787,"lon":5.38154,"is_reserved":false,"is_disabled":false,"rental_uris":{"android":"levelo://app?vid=49748645-26a7-4869-b630-119c5a0defb9","ios":"levelo://app?vid=49748645-26a7-4869-b630-119c5a0defb9"},"vehicle_type_id":"4","last_reported":1743041914,"current_range_meters":16400,"station_id":"ce4bgt12rcd13ifvqce0","pricing_plan_id":"cebpf4jnsgd1na2vs0mg"},{"bike_id":"7eb893fb-4a56-49c0-8a37-a513cbfc8ffd","system_id":"levelo_inurba_marseille","lat":43.308026,"lon":5.381466,"is_reserved":false,"is_disabled":false,"rental_uris":{"android":"levelo://app?vid=7eb893fb-4a56-49c0-8a37-a513cbfc8ffd","ios":"levelo://app?vid=7eb893fb-4a56-49c0-8a37-a513cbfc8ffd"},"vehicle_type_id":"4","last_reported":1743041914,"current_range_meters":16400,"station_id":"ce4bgt12rcd13ifvqce0","pricing_plan_id":"cebpf4jnsgd1na2vs0mg"},{"bike_id":"619ed508-c276-4e80-a771-793db72f7999","system_id":"levelo_inurba_marseille","lat":43.29709,"lon":5.36616,"is_reserved":false,"is_disabled":false,"rental_uris":{"android":"levelo://app?vid=619ed508-c276-4e80-a771-793db72f7999","ios":"levelo://app?vid=619ed508-c276-4e80-a771-793db72f7999"},"vehicle_type_id":"4","last_reported":1743041914,"current_range_meters":16400,"station_id":"ce4bgn12rcd13ifvqbt0","pricing_plan_id":"cebpf4jnsgd1na2vs0mg"},{"bike_id":"3a0c3c70-f897-42ea-adff-ea251c315b1a","system_id":"levelo_inurba_marseille","lat":43.31362,"lon":5.38507,"is_reserved":false,"is_disabled":false,"rental_uris":{"android":"levelo://app?vid=3a0c3c70-f897-42ea-adff-ea251c315b1a","ios":"levelo://app?vid=3a0c3c70-f897-42ea-adff-ea251c315b1a"},"vehicle_type_id":"4","last_reported":1743041914,"current_range_meters":16400,"station_id":"ce4bgt92rcd13ifvqcf0","pricing_plan_id":"cebpf4jnsgd1na2vs0mg"},