{"last_updated":1743254158,"ttl":60,"version":"2.2","data":{"bikes":[{"bike_id":"bf6d3711-68f5-4721-8ea8-2d0601182f38","system_id":"levelo_inurba_marseille","lat":43.33746,"lon":5.3745,"is_reserved":false,"is_disabled":true,"rental_uris":{"android":"levelo://app?vid=bf6d3711-68f5-4721-8ea8-2d0601182f38","ios":"levelo://app?vid=bf6d3711-68f5-4721-8ea8-2d0601182f38"},"vehicle_type_id":"4","last_reported":1743254158,"current_range_meters":0,"station_id":"","pricing_plan_id":"cebpf4jnsgd1na2vs0mg"},{"bike_id":"fc8e8371-f4e9-4721-bc19-563801e389dc","system_id":"levelo_inurba_marseille","lat":43.337444,"lon":5.374475,"is_reserved":false,"is_disabled":true,"rental_uris":{"android":"levelo://app?vid=fc8e8371-f4e9-4721-bc19-563801e389dc","ios":"levelo://app?vid=fc8e8371-f4e9-4721-bc19-563801e389dc"},"vehicle_type_id":"4","last_reported":1743254158,"current_range_meters":2000,"station_id":"","pricing_plan_id":"cebpf4jnsgd1na2vs0mg"},{"bike_id":"029b6517-a1cb-49e9-9d5e-5fb3081f61d6","system_id":"levelo_inurba_marseille","lat":43.243837,"lon":5.370589,"is_reserved":false,"is_disabled":true,"rental_uris":{"android":"levelo://app?vid=029b6517-a1cb-49e9-9d5e-5fb3081f61d6","ios":"levelo://app?vid=029b6517-a1cb-49e9-9d5e-5fb3081f61d6"},"vehicle_type_id":"4","last_reported":1743254158,"current_range_meters":0,"station_id":"","pricing_plan_id":"cebpf4jnsgd1na2vs0mg"},{"bike_id":"be6725c0-5c09-4663-99b8-0b7371d27e21","system_id":"levelo_inurba_marseille","lat":43.25493,"lon":5.375,"is_reserved":false,"is_disabled":true,"rental_uris":{"android":"levelo://app?vid=be6725c0-5c09-4663-99b8-0b7371d27e21","ios":"levelo://app?vid=be6725c0-5c09-4663-99b8-0b7371d27e21"},"vehicle_type_id":"4","last_reported":1743254158,"current_range_meters":0,"station_id":"","pricing_plan_id":"cebpf4jnsgd1na2vs0mg"},{"bike_id":"6671e489-a811-41a6-9fb9-08aafb887727","system_id":"levelo_inurba_marseille","lat":43.31946,"lon":5.39393,"is_reserved":false,"is_disabled":true,"rental_uris":{"android":"levelo://app?vid=6671e489-a811-41a6-9fb9-08aafb887727","ios":"levelo://app?vid=6671e489-a811-41a6-9fb9-08aafb887727"},"vehicle_type_id":"4","last_reported":1743254158,"current_range_meters":0,"station_id":"","pricing_plan_id":"cebpf4jnsgd1na2vs0mg"},{"bike_id":"5671a0d9-d932-4a82-9996-cef3f7d76f37","system_id":"levelo_inurba_marseille","lat":43.31995,"lon":5.37649,"is_reserved":false,"is_disabled":true,"rental_uris":{"android":"levelo://app?vid=5671a0d9-d932-4a82-9996-cef3f7d76f37","ios":"levelo://app?vid=5671a0d9-d932-4a82-9996-cef3f7d76f37"},"vehicle_type_id":"4","last_reported":1743254158,"current_range_meters":0,"station_id":"ce4bgvp2rcd13ifvqcu0","pricing_plan_id":"cebpf4jnsgd1na2vs0mg"},{"bike_id":"c3e8c533-725d-42fe-a72e-bb648a2dfc5f","system_id":"levelo_inurba_marseille","lat":43.32665,"lon":5.4099,"is_reserved":false,"is_disabled":true,"rental_uris":{"android":"levelo://app?vid=c3e8c533-725d-42fe-a72e-bb648a2dfc5f","ios":"levelo://app?vid=c3e8c533-725d-42fe-a72e-bb648a2dfc5f"},"vehicle_type_id":"4","last_reported":1743254158,"current_range_meters":0,"station_id":"ce4bhpp2rcd13ifvqhgg","pricing_plan_id":"cebpf4jnsgd1na2vs0mg"},{"bike_id":"e98342ec-f17c-4e21-99b4-98cdd7436fb1","system_id":"levelo_inurba_marseille","lat":43.32668,"lon":5.41022,"is_reserved":false,"is_disabled":true,"rental_uris":{"android":"levelo://app?vid=e98342ec-f17c-4e21-99b4-98cdd7436fb1","ios":"levelo://app?vid=e98342ec-f17c-4e21-99b4-98cdd7436fb1"},"vehicle_type_id":"4","last_reported":1743254158,"current_range_meters":0,"station_id":"ce4bhpp2rcd13ifvqhgg","pricing_plan_id":"cebpf4jnsgd1na2vs0mg"},{"bike_id":"bfe670a5-c0ca-4262-91be-8ad275c6539b","system_id":"levelo_inurba_marseille","lat":43.33758,"lon":5.39167,"is_reserved":false,"is_disabled":true,"rental_uris":{"android":"levelo://app?vid=bfe670a5-c0ca-4262-91be-8ad275c6539b","ios":"levelo://app?vid=bfe670a5-c0ca-4262-91be-8ad275c6539b"},"vehicle_type_id":"4","last_reported":1743254158,"current_range_meters":0,"station_id":"ce4bhr92rcd13ifvqhsg","pricing_plan_id":"cebpf4jnsgd1na2vs0mg"},{"bike_id":"ea22a3f2-0c85-4cba-be41-2989319e1381","system_id":"levelo_inurba_marseille","lat":43.29669,"lon":5.37955,"is_reserved":false,"is_disabled":true,"rental_uris":{"android":"levelo://app?vid=ea22a3f2-0c85-4cba-be41-2989319e1381","ios":"levelo://app?vid=ea22a3f2-0c85-4cba-be41-2989319e1381"},"vehicle_type_id":"4","last_reported":1743254158,"current_range_meters":400,"station_id":"","pricing_plan_id":"cebpf4jnsgd1na2vs0mg"},{"bike_id":"f46eea1f-108d-4507-b3e2-89b39c0d15e7","system_id":"levelo_inurba_marseille","lat":43.32363,"lon":5.40661,"is_reserved":false,"is_disabled":true,"rental_uris":{"android":"levelo://app?vid=f46eea1f-108d-4507-b3e2-89b39c0d15e7","ios":"levelo://app?vid=f46eea1f-108d-4507-b3e2-89b39c0d15e7"},"vehicle_type_id":"4","last_reported":1743254158,"current_range_meters":400,"station_id":"ce4bhq92rcd13ifvqhjg","pricing_plan_id":"cebpf4jnsgd1na2vs0mg"},{"bike_id":"e0bd8552-eaef-4342-bdcd-1df755c00099","system_id":"levelo_inurba_marseille","lat":43.261859,"lon":5.420743,"is_reserved":false,"is_disabled":true,"rental_uris":{"android":"levelo://app?vid=e0bd8552-eaef-4342-bdcd-1df755c00099","ios":"levelo://app?vid=e0bd8552-eaef-4342-bdcd-1df755c00099"},"vehicle_type_id":"4","last_reported":1743254158,"current_range_meters":800,"station_id":"","pricing_plan_id":"cebpf4jnsgd1na2vs0mg"},{"bike_id":"f418d0e3-0dce-4361-b17a-974648d586fa","system_id":"levelo_inurba_marseille","lat":43.32694,"lon":5.37629,"is_reserved":false,"is_disabled":true,"rental_uris":{"android":"levelo://app?vid=f418d0e3-0dce-4361-b17a-974648d586fa","ios":"levelo://app?vid=f418d0e3-0dce-4361-b17a-974648d586fa"},"vehicle_type_id":"4","last_reported":1743254158,"current_range_meters":800,"station_id":"","pricing_plan_id":"cebpf4jnsgd1na2vs0mg"},{"bike_id":"122e2119-e8fa-4afd-83d0-7ab865b8a2df","system_id":"levelo_inurba_marseille","lat":43.30148,"lon":5.38075,"is_reserved":false,"is_disabled":true,"rental_uris":{"android":"levelo://app?vid=122e2119-e8fa-4afd-83d0-7ab865b8a2df","ios":"levelo://app?vid=122e2119-e8fa-4afd-83d0-7ab865b8a2df"},"vehicle_type_id":"4","last_reported":1743254158,"current_range_meters":800,"station_id":"ce4bgjp2rcd13ifvqbh0","pricing_plan_id":"cebpf4jnsgd1na2vs0mg"},{"bike_id":"09043635-3f7c-4219-ad1e-d9cbb7da0147","system_id":"levelo_inurba_marseille","lat":43.29245,"lon":5.40434,"is_reserved":false,"is_disabled":true,"rental_uris":{"android":"levelo://app?vid=09043635-3f7c-4219-ad1e-d9cbb7da0147","ios":"levelo://app?vid=09043635-3f7c-4219-ad1e-d9cbb7da0147"},"vehicle_type_id":"4","last_reported":1743254158,"current_range_meters":1200,"station_id":"","pricing_plan_id":"cebpf4jnsgd1na2vs0mg"},{"bike_id":"b5f60ca2-712e-4d3d-99f0-e03f20d7dffa","system_id":"levelo_inurba_marseille","lat":43.29027,"lon":5.38649,"is_reserved":false,"is_disabled":true,"rental_uris":{"android":"levelo://app?vid=b5f60ca2-712e-4d3d-99f0-e03f20d7dffa","ios":"levelo://app?vid=b5f60ca2-712e-4d3d-99f0-e03f20d7dffa"},"vehicle_type_id":"4","last_reported":1743254158,"current_range_meters":1200,"station_id":"ce4bh4p2rcd13ifvqe0g","pricing_plan_id":"cebpf4jnsgd1na2vs0mg"},{"bike_id":"b86647b8-f0a9-4513-b3e1-cd88706a9ca0","system_id":"levelo_inurba_marseille","lat":43.29268,"lon":5.38434,"is_reserved":false,"is_disabled":true,"rental_uris":{"android":"levelo://app?vid=b86647b8-f0a9-4513-b3e1-cd88706a9ca0","ios":"levelo://app?vid=b86647b8-f0a9-4513-b3e1-cd88706a9ca0"},"vehicle_type_id":"4","last_reported":1743254158,"current_range_meters":1200,"station_id":"ce4bh692rcd13ifvqea0","pricing_plan_id":"cebpf4jnsgd1na2vs0mg"},{"bike_id":"2a054e5f-400f-4239-a54c-944a4d9dc7f7","system_id":"levelo_inurba_marseille","lat":43.29363,"lon":5.37842,"is_reserved":false,"is_disabled":true,"rental_uris":{"android":"levelo://app?vid=2a054e5f-400f-4239-a54c-944a4d9dc7f7","ios":"levelo://app?vid=2a054e5f-400f-4239-a54c-944a4d9dc7f7"},"vehicle_type_id":"4","last_reported":1743254158,"current_range_meters":1600,"station_id":"ce4bgjh2rcd13ifvqbf0","pricing_plan_id":"cebpf4jnsgd1na2vs0mg"},{"bike_id":"3a0d0c54-8a62-4e0e-a154-de04c00edf17","system_id":"levelo_inurba_marseille","lat":43.29721,"lon":5.37684,"is_reserved":false,"is_disabled":false,"rental_uris":{"android":"levelo://app?vid=3a0d0c54-8a62-4e0e-a154-de04c00edf17","ios":"levelo://app?vid=3a0d0c54-8a62-4e0e-a154-de04c00edf17"},"vehicle_type_id":"4","last_reported":1743254158,"current_range_meters":2800,"station_id":"ce4bgkh2rcd13ifvqbl0","pricing_plan_id":"cebpf4jnsgd1na2vs0mg"},{"bike_id":"bcc0f889-1da5-42d2-b400-e7d995ddf58f","system_id":"levelo_inurba_marseille","lat":43.29625,"lon":5.37146,"is_reserved":false,"is_disabled":false,"rental_uris":{"android":"levelo://app?vid=bcc0f889-1da5-42d2-b400-e7d995ddf58f","ios":"levelo://app?vid=bcc0f889-1da5-42d2-b400-e7d995ddf58f"},"vehicle_type_id":"4","last_reported":1743254158,"current_range_meters":2800,"station_id":"ce4bgnh2rcd13ifvqc0g","pricing_plan_id":"cebpf4jnsgd1na2vs0mg"},{"bike_id":"466ff169-e70f-454f-9fdd-9a4004399643","system_id":"levelo_inurba_marseille","lat":43.29727,"lon":5.37691,"is_reserved":false,"is_disabled":false,"rental_uris":{"android":"levelo://app?vid=466ff169-e70f-454f-9fdd-9a4004399643","ios":"levelo://app?vid=466ff169-e70f-454f-9fdd-9a4004399643"},"vehicle_type_id":"4","last_reported":1743254158,"current_range_meters":3600,"station_id":"ce4bgkh2rcd13ifvqbl0","pricing_plan_id":"cebpf4jnsgd1na2vs0mg"},{"bike_id":"ee2588a0-8a3d-4c56-88e3-6823a90de92d","system_id":"levelo_inurba_marseille","lat":43.28103,"lon":5.38573,"is_reserved":false,"is_disabled":false,"rental_uris":{"android":"levelo://app?vid=ee2588a0-8a3d-4c56-88e3-6823a90de92d","ios":"levelo://app?vid=ee2588a0-8a3d-4c56-88e3-6823a90de92d"},"vehicle_type_id":"4","last_reported":1743254158,"current_range_meters":4400,"station_id":"","pricing_plan_id":"cebpf4jnsgd1na2vs0mg"},{"bike_id":"14b5d4e4-9eaa-4e87-a5ac-8cf1899621e5","system_id":"levelo_inurba_marseille","lat":43.29303,"lon":5.37463,"is_reserved":false,"is_disabled":false,"rental_uris":{"android":"levelo://app?vid=14b5d4e4-9eaa-4e87-a5ac-8cf1899621e5","ios":"levelo://app?vid=14b5d4e4-9eaa-4e87-a5ac-8cf1899621e5"},"vehicle_type_id":"4","last_reported":1743254158,"current_range_meters":4800,"station_id":"ce4bgi12rcd13ifvqb70","pricing_plan_id":"cebpf4jnsgd1na2vs0mg"},{"bike_id":"006b8a28-0cd8-4576-993e-7ba8820c16bc","system_id":"levelo_inurba_marseille","lat":43.25122,"lon":5.40319,"is_reserved":false,"is_disabled":false,"rental_uris":{"android":"levelo://app?vid=006b8a28-0cd8-4576-993e-7ba8820c16bc","ios":"levelo://app?vid=006b8a28-0cd8-4576-993e-7ba8820c16bc"},"vehicle_type_id":"4","last_reported":1743254158,"current_range_meters":4800,"station_id":"ce4bhlh2rcd13ifvqgig","pricing_plan_id":"cebpf4jnsgd1na2vs0mg"},{"bike_id":"1deeec2e-47a4-4f06-9316-1d0987be07b8","system_id":"levelo_inurba_marseille","lat":43.27508,"lon":5.42472,"is_reserved":false,"is_disabled":false,"rental_uris":{"android":"levelo://app?vid=1deeec2e-47a4-4f06-9316-1d0987be07b8","ios":"levelo://app?vid=1deeec2e-47a4-4f06-9316-1d0987be07b8"},"vehicle_type_id":"4","last_reported":1743254158,"current_range_meters":4800,"station_id":"ce4bhn92rcd13ifvqgrg","pricing_plan_id":"cebpf4jnsgd1na2vs0mg"},{"bike_id":"cefbc506-9244-4dff-ad49-5eb81fb9c319","system_id":"levelo_inurba_marseille","lat":43.288478,"lon":5.393246,"is_reserved":false,"is_disabled":false,"rental_uris":{"android":"levelo://app?vid=cefbc506-9244-4dff-ad49-5eb81fb9c319","ios":"levelo://app?vid=cefbc506-9244-4dff-ad49-5eb81fb9c319"},"vehicle_type_id":"4","last_reported":1743254158,"current_range_meters":5600,"station_id":"ce4bh2p2rcd13ifvqdi0","pricing_plan_id":"cebpf4jnsgd1na2vs0mg"},{"bike_id":"ca88e3bb-aa9d-4c58-9c32-9871ff82e0e1","system_id":"levelo_inurba_marseille","lat":43.266806,"lon":5.382746,"is_reserved":false,"is_disabled":false,"rental_uris":{"android":"levelo://app?vid=ca88e3bb-aa9d-4c58-9c32-9871ff82e0e1","ios":"levelo://app?vid=ca88e3bb-aa9d-4c58-9c32-9871ff82e0e1"},"vehicle_type_id":"4","last_reported":1743254158,"current_range_meters":5600,"station_id":"ce4bhgh2rcd13ifvqfb0","pricing_plan_id":"cebpf4jnsgd1na2vs0mg"},{"bike_id":"1fa16eec-f2ff-4886-9724-4ae66f3f59a1","system_id":"levelo_inurba_marseille","lat":43.30255,"lon":5.40076,"is_reserved":false,"is_disabled":false,"rental_uris":{"android":"levelo://app?vid=1fa16eec-f2ff-4886-9724-4ae66f3f59a1","ios":"levelo://app?vid=1fa16eec-f2ff-4886-9724-4ae66f3f59a1"},"vehicle_type_id":"4","last_reported":1743254158,"current_range_meters":6400,"station_id":"ce4bgvh2rcd13ifvqcs0","pricing_plan_id":"cebpf4jnsgd1na2vs0mg"},{"bike_id":"6b1380ca-3870-41ea-a65c-7edad3270360","system_id":"levelo_inurba_marseille","lat":43.29085,"lon":5.3814,"is_reserved":false,"is_disabled":false,"rental_uris":{"android":"levelo://app?vid=6b1380ca-3870-41ea-a65c-7edad3270360","ios":"levelo://app?vid=6b1380ca-3870-41ea-a65c-7edad3270360"},"vehicle_type_id":"4","last_reported":1743254158,"current_range_meters":6400,"station_id":"ce4bh512rcd13ifvqe2g","pricing_plan_id":"cebpf4jnsgd1na2vs0mg"},{"bike_id":"861ae205-c318-4688-ac53-947993e1b65f","system_id":"levelo_inurba_marseille","lat":43.241707,"lon":5.36384,"is_reserved":false,"is_disabled":false,"rental_uris":{"android":"levelo://app?vid=861ae205-c318-4688-ac53-947993e1b65f","ios":"levelo://app?vid=861ae205-c318-4688-ac53-947993e1b65f"},"vehicle_type_id":"4","last_reported":1743254158,"current_range_meters":6400,"station_id":"cpo36qri1sfpv3e86is0","pricing_plan_id":"cebpf4jnsgd1na2vs0mg"},{"bike_id":"d69481b5-6468-4365-900f-8b069b129d36","system_id":"levelo_inurba_marseille","lat":43.30464,"lon":5.37908,"is_reserved":false,"is_disabled":false,"rental_uris":{"android":"levelo://app?vid=d69481b5-6468-4365-900f-8b069b129d36","ios":"levelo://app?vid=d69481b5-6468-4365-900f-8b069b129d36"},"vehicle_type_id":"4","last_reported":1743254158,"current_range_meters":6800,"station_id":"ce4bgup2rcd13ifvqcn0","pricing_plan_id":"cebpf4jnsgd1na2vs0mg"},{"bike_id":"9d413904-69b8-4c60-9ddc-e0489e565f70","system_id":"levelo_inurba_marseille","lat":43.28949,"lon":5.36407,"is_reserved":false,"is_disabled":false,"rental_uris":{"android":"levelo://app?vid=9d413904-69b8-4c60-9ddc-e0489e565f70","ios":"levelo://app?vid=9d413904-69b8-4c60-9ddc-e0489e565f70"},"vehicle_type_id":"4","last_reported":1743254158,"current_range_meters":6800,"station_id":"ce4bhc92rcd13ifvqetg","pricing_plan_id":"cebpf4jnsgd1na2vs0mg"},{"bike_id":"c6b682a7-e903-4363-967f-d69957e8f7ed","system_id":"levelo_inurba_marseille","lat":43.28635,"lon":5.35113,"is_reserved":false,"is_disabled":false,"rental_uris":{"android":"levelo://app?vid=c6b682a7-e903-4363-967f-d69957e8f7ed","ios":"levelo://app?vid=c6b682a7-e903-4363-967f-d69957e8f7ed"},"vehicle_type_id":"4","last_reported":1743254158,"current_range_meters":6800,"station_id":"ce4bhch2rcd13ifvqeug","pricing_plan_id":"cebpf4jnsgd1na2vs0mg"},{"bike_id":"87ce5af9-2c3f-4b34-8106-a0bd98c8708b","system_id":"levelo_inurba_marseille","lat":43.27995,"lon":5.40014,"is_reserved":false,"is_disabled":false,"rental_uris":{"android":"levelo://app?vid=87ce5af9-2c3f-4b34-8106-a0bd98c8708b","ios":"levelo://app?vid=87ce5af9-2c3f-4b34-8106-a0bd98c8708b"},"vehicle_type_id":"4","last_reported":1743254158,"current_range_meters":6800,"station_id":"ce4bho92rcd13ifvqh4g","pricing_plan_id":"cebpf4jnsgd1na2vs0mg"},{"bike_id":"827e85c1-a7d5-4df8-a0d4-3cfc0c57b58e","system_id":"levelo_inurba_marseille","lat":43.29432,"lon":5.373027,"is_reserved":false,"is_disabled":false,"rental_uris":{"android":"levelo://app?vid=827e85c1-a7d5-4df8-a0d4-3cfc0c57b58e","ios":"levelo://app?vid=827e85c1-a7d5-4df8-a0d4-3cfc0c57b58e"},"vehicle_type_id":"4","last_reported":1743254158,"current_range_meters":7200,"station_id":"ce4bgs92rcd13ifvqcc0","pricing_plan_id":"cebpf4jnsgd1na2vs0mg"},{"bike_id":"90df0f14-f996-423e-b605-53c2c708242e","system_id":"levelo_inurba_marseille","lat":43.31704,"lon":5.40511,"is_reserved":false,"is_disabled":false,"rental_uris":{"android":"levelo://app?vid=90df0f14-f996-423e-b605-53c2c708242e","ios":"levelo://app?vid=90df0f14-f996-423e-b605-53c2c708242e"},"vehicle_type_id":"4","last_reported":1743254158,"current_range_meters":7200,"station_id":"ce4bh012rcd13ifvqd00","pricing_plan_id":"cebpf4jnsgd1na2vs0mg"},{"bike_id":"7e3f21a9-a66f-452c-a43c-3918e8061997","system_id":"levelo_inurba_marseille","lat":43.321,"lon":5.36773,"is_reserved":false,"is_disabled":false,"rental_uris":{"android":"levelo://app?vid=7e3f21a9-a66f-452c-a43c-3918e8061997","ios":"levelo://app?vid=7e3f21a9-a66f-452c-a43c-3918e8061997"},"vehicle_type_id":"4","last_reported":1743254158,"current_range_meters":7200,"station_id":"ce4bhrh2rcd13ifvqhug","pricing_plan_id":"cebpf4jnsgd1na2vs0mg"},{"bike_id":"f7a85822-1a00-4a2d-b719-d679eb4b535b","system_id":"levelo_inurba_marseille","lat":43.2885,"lon":5.39333,"is_reserved":false,"is_disabled":false,"rental_uris":{"android":"levelo://app?vid=f7a85822-1a00-4a2d-b719-d679eb4b535b","ios":"levelo://app?vid=f7a85822-1a00-4a2d-b719-d679eb4b535b"},"vehicle_type_id":"4","last_reported":1743254158,"current_range_meters":8000,"station_id":"ce4bh2p2rcd13ifvqdi0","pricing_plan_id":"cebpf4jnsgd1na2vs0mg"},{"bike_id":"d5ffff0a-47db-470d-a1ce-99a37bfcd090","system_id":"levelo_inurba_marseille","lat":43.28635,"lon":5.35114,"is_reserved":false,"is_disabled":false,"rental_uris":{"android":"levelo://app?vid=d5ffff0a-47db-470d-a1ce-99a37bfcd090","ios":"levelo://app?vid=d5ffff0a-47db-470d-a1ce-99a37bfcd090"},"vehicle_type_id":"4","last_reported":1743254158,"current_range_meters":8000,"station_id":"ce4bhch2rcd13ifvqeug","pricing_plan_id":"cebpf4jnsgd1na2vs0mg"},{"bike_id":"0c2c42d7-2aac-49ae-9dbc-5b6502731f7e","system_id":"levelo_inurba_marseille","lat":43.25498,"lon":5.37653,"is_reserved":false,"is_disabled":false,"rental_uris":{"android":"levelo://app?vid=0c2c42d7-2aac-49ae-9dbc-5b6502731f7e","ios":"levelo://app?vid=0c2c42d7-2aac-49ae-9dbc-5b6502731f7e"},"vehicle_type_id":"4","last_reported":1743254158,"current_range_meters":8000,"station_id":"ce4bhh12rcd13ifvqff0","pricing_plan_id":"cebpf4jnsgd1na2vs0mg"},{"bike_id":"4cc2417c-0d66-42cc-a800-c7c2b9e37f65","system_id":"levelo_inurba_marseille","lat":43.26521,"lon":5.3954,"is_reserved":false,"is_disabled":false,"rental_uris":{"android":"levelo://app?vid=4cc2417c-0d66-42cc-a800-c7c2b9e37f65","ios":"levelo://app?vid=4cc2417c-0d66-42cc-a800-c7c2b9e37f65"},"vehicle_type_id":"4","last_reported":1743254158,"current_range_meters":8000,"station_id":"ce4bhi12rcd13ifvqfq0","pricing_plan_id":"cebpf4jnsgd1na2vs0mg"},{"bike_id":"f47eba55-a588-4033-a3dc-992c836c995d","system_id":"levelo_inurba_marseille","lat":43.31721,"lon":5.40506,"is_reserved":false,"is_disabled":false,"rental_uris":{"android":"levelo://app?vid=f47eba55-a588-4033-a3dc-992c836c995d","ios":"levelo://app?vid=f47eba55-a588-4033-a3dc-992c836c995d"},"vehicle_type_id":"4","last_reported":1743254158,"current_range_meters":8400,"station_id":"","pricing_plan_id":"cebpf4jnsgd1na2vs0mg"},{"bike_id":"de7934c3-c694-4b9e-8edb-b6e9cce0c411","system_id":"levelo_inurba_marseille","lat":43.29847,"lon":5.36286,"is_reserved":false,"is_disabled":false,"rental_uris":{"android":"levelo://app?vid=de7934c3-c694-4b9e-8edb-b6e9cce0c411","ios":"levelo://app?vid=de7934c3-c694-4b9e-8edb-b6e9cce0c411"},"vehicle_type_id":"4","last_reported":1743254158,"current_range_meters":8400,"station_id":"ce4bgpp2rcd13ifvqc3g","pricing_plan_id":"cebpf4jnsgd1na2vs0mg"},{"bike_id":"b63bee20-71b5-45ac-921e-b915796e8804","system_id":"levelo_inurba_marseille","lat":43.288533,"lon":5.393172,"is_reserved":false,"is_disabled":false,"rental_uris":{"android":"levelo://app?vid=b63bee20-71b5-45ac-921e-b915796e8804","ios":"levelo://app?vid=b63bee20-71b5-45ac-921e-b915796e8804"},"vehicle_type_id":"4","last_reported":1743254158,"current_range_meters":8400,"station_id":"ce4bh2p2rcd13ifvqdi0","pricing_plan_id":"cebpf4jnsgd1na2vs0mg"},{"bike_id":"04e9496c-0d30-43d5-970d-6e99af861447","system_id":"levelo_inurba_marseille","lat":43.29264,"lon":5.38444,"is_reserved":false,"is_disabled":false,"rental_uris":{"android":"levelo://app?vid=04e9496c-0d30-43d5-970d-6e99af861447","ios":"levelo://app?vid=04e9496c-0d30-43d5-970d-6e99af861447"},"vehicle_type_id":"4","last_reported":1743254158,"current_range_meters":8400,"station_id":"ce4bh692rcd13ifvqea0","pricing_plan_id":"cebpf4jnsgd1na2vs0mg"},{"bike_id":"8a981a57-5df0-4e4d-940a-b867c9a469d8","system_id":"levelo_inurba_marseille","lat":43.26557,"lon":5.39025,"is_reserved":false,"is_disabled":false,"rental_uris":{"android":"levelo://app?vid=8a981a57-5df0-4e4d-940a-b867c9a469d8","ios":"levelo://app?vid=8a981a57-5df0-4e4d-940a-b867c9a469d8"},"vehicle_type_id":"4","last_reported":1743254158,"current_range_meters":8400,"station_id":"ce4bhe12rcd13ifvqf30","pricing_plan_id":"cebpf4jnsgd1na2vs0mg"},{"bike_id":"bcba6ad8-dd89-4005-9499-e24f88c2f14c","system_id":"levelo_inurba_marseille","lat":43.27324,"lon":5.39105,"is_reserved":false,"is_disabled":false,"rental_uris":{"android":"levelo://app?vid=bcba6ad8-dd89-4005-9499-e24f88c2f14c","ios":"levelo://app?vid=bcba6ad8-dd89-4005-9499-e24f88c2f14c"},"vehicle_type_id":"4","last_reported":1743254158,"current_range_meters":8400,"station_id":"ce4bhgp2rcd13ifvqfe0","pricing_plan_id":"cebpf4jnsgd1na2vs0mg"},{"bike_id":"bb238aab-ecce-4d51-ba90-677f93725c94","system_id":"levelo_inurba_marseille","lat":43.34157,"lon":5.4091,"is_reserved":false,"is_disabled":false,"rental_uris":{"android":"levelo://app?vid=bb238aab-ecce-4d51-ba90-677f93725c94","ios":"levelo://app?vid=bb238aab-ecce-4d51-ba90-677f93725c94"},"vehicle_type_id":"4","last_reported":1743254158,"current_range_meters":8400,"station_id":"ce4bhqh2rcd13ifvqhlg","pricing_plan_id":"cebpf4jnsgd1na2vs0mg"},{"bike_id":"78879d72-d868-43c9-a743-a6ab48dd9b11","system_id":"levelo_inurba_marseille","lat":43.28728,"lon":5.36104,"is_reserved":false,"is_disabled":false,"rental_uris":{"android":"levelo://app?vid=78879d72-d868-43c9-a743-a6ab48dd9b11","ios":"levelo://app?vid=78879d72-d868-43c9-a743-a6ab48dd9b11"},"vehicle_type_id":"4","last_reported":1743254158,"current_range_meters":8400,"station_id":"cki0cbj6b192h4jlfktg","pricing_plan_id":"cebpf4jnsgd1na2vs0mg"},{"bike_id":"cf72e3b6-2c7c-47a5-b098-027316102e31","system_id":"levelo_inurba_marseille","lat":43.28858,"lon":5.39324,"is_reserved":false,"is_disabled":false,"rental_uris":{"android":"levelo://app?vid=cf72e3b6-2c7c-47a5-b098-027316102e31","ios":"levelo://app?vid=cf72e3b6-2c7c-47a5-b098-027316102e31"},"vehicle_type_id":"4","last_reported":1743254158,"current_range_meters":8800,"station_id":"ce4bh2p2rcd13ifvqdi0","pricing_plan_id":"cebpf4jnsgd1na2vs0mg"},{"bike_id":"d110ea9c-afe8-47f1-b008-e66bc6e44a55","system_id":"levelo_inurba_marseille","lat":43.28424,"lon":5.34989,"is_reserved":false,"is_disabled":false,"rental_uris":{"android":"levelo://app?vid=d110ea9c-afe8-47f1-b008-e66bc6e44a55","ios":"levelo://app?vid=d110ea9c-afe8-47f1-b008-e66bc6e44a55"},"vehicle_type_id":"4","last_reported":1743254158,"current_range_meters":8800,"station_id":"ce4bhbh2rcd13ifvqepg","pricing_plan_id":"cebpf4jnsgd1na2vs0mg"},{"bike_id":"7b83de3a-2ab5-4183-9971-aacc5a921e10","system_id":"levelo_inurba_marseille","lat":43.2827,"lon":5.35067,"is_reserved":false,"is_disabled":false,"rental_uris":{"android":"levelo://app?vid=7b83de3a-2ab5-4183-9971-aacc5a921e10","ios":"levelo://app?vid=7b83de3a-2ab5-4183-9971-aacc5a921e10"},"vehicle_type_id":"4","last_reported":1743254158,"current_range_meters":8800,"station_id":"ce4bhbp2rcd13ifvqerg","pricing_plan_id":"cebpf4jnsgd1na2vs0mg"},{"bike_id":"5dedb5c1-4a59-48e3-a827-47497826029c","system_id":"levelo_inurba_marseille","lat":43.24388,"lon":5.37062,"is_reserved":false,"is_disabled":false,"rental_uris":{"android":"levelo://app?vid=5dedb5c1-4a59-48e3-a827-47497826029c","ios":"levelo://app?vid=5dedb5c1-4a59-48e3-a827-47497826029c"},"vehicle_type_id":"4","last_reported":1743254158,"current_range_meters":8800,"station_id":"ce4bhhh2rcd13ifvqfk0","pricing_plan_id":"cebpf4jnsgd1na2vs0mg"},{"bike_id":"6f85d16b-6791-421f-9655-2cbde3f9e73b","system_id":"levelo_inurba_marseille","lat":43.27497,"lon":5.42452,"is_reserved":false,"is_disabled":false,"rental_uris":{"android":"levelo://app?vid=6f85d16b-6791-421f-9655-2cbde3f9e73b","ios":"levelo://app?vid=6f85d16b-6791-421f-9655-2cbde3f9e73b"},"vehicle_type_id":"4","last_reported":1743254158,"current_range_meters":8800,"station_id":"ce4bhn92rcd13ifvqgrg","pricing_plan_id":"cebpf4jnsgd1na2vs0mg"},{"bike_id":"22a50f37-dcc2-444b-9450-789973746878","system_id":"levelo_inurba_marseille","lat":43.3042,"lon":5.41329,"is_reserved":false,"is_disabled":false,"rental_uris":{"android":"levelo://app?vid=22a50f37-dcc2-444b-9450-789973746878","ios":"levelo://app?vid=22a50f37-dcc2-444b-9450-789973746878"},"vehicle_type_id":"4","last_reported":1743254158,"current_range_meters":8800,"station_id":"ce4bhop2rcd13ifvqh8g","pricing_plan_id":"cebpf4jnsgd1na2vs0mg"},{"bike_id":"1b4e5c48-f3b8-4ca5-9244-3815d3918bd4","system_id":"levelo_inurba_marseille","lat":43.32368,"lon":5.38896,"is_reserved":false,"is_disabled":false,"rental_uris":{"android":"levelo://app?vid=1b4e5c48-f3b8-4ca5-9244-3815d3918bd4","ios":"levelo://app?vid=1b4e5c48-f3b8-4ca5-9244-3815d3918bd4"},"vehicle_type_id":"4","last_reported":1743254158,"current_range_meters":8800,"station_id":"ce4bhqp2rcd13ifvqhog","pricing_plan_id":"cebpf4jnsgd1na2vs0mg"},{"bike_id":"676aa410-285a-48fa-832f-41d35fee7288","system_id":"levelo_inurba_marseille","lat":43.28647,"lon":5.37076,"is_reserved":false,"is_disabled":false,"rental_uris":{"android":"levelo://app?vid=676aa410-285a-48fa-832f-41d35fee7288","ios":"levelo://app?vid=676aa410-285a-48fa-832f-41d35fee7288"},"vehicle_type_id":"4","last_reported":1743254158,"current_range_meters":8800,"station_id":"ce4bht12rcd13ifvqi60","pricing_plan_id":"cebpf4jnsgd1na2vs0mg"},{"bike_id":"3a2e35ff-67f7-42a4-b09b-1fe3ef6e95d8","system_id":"levelo_inurba_marseille","lat":43.22935,"lon":5.35387,"is_reserved":false,"is_disabled":false,"rental_uris":{"android":"levelo://app?vid=3a2e35ff-67f7-42a4-b09b-1fe3ef6e95d8","ios":"levelo://app?vid=3a2e35ff-67f7-42a4-b09b-1fe3ef6e95d8"},"vehicle_type_id":"4","last_reported":1743254158,"current_range_meters":8800,"station_id":"cpo3532slgdg3j2ikp40","pricing_plan_id":"cebpf4jnsgd1na2vs0mg"},{"bike_id":"983c4c9f-ee1a-4d13-8ce7-bfd36c479f46","system_id":"levelo_inurba_marseille","lat":43.241691,"lon":5.364036,"is_reserved":false,"is_disabled":false,"rental_uris":{"android":"levelo://app?vid=983c4c9f-ee1a-4d13-8ce7-bfd36c479f46","ios":"levelo://app?vid=983c4c9f-ee1a-4d13-8ce7-bfd36c479f46"},"vehicle_type_id":"4","last_reported":1743254158,"current_range_meters":8800,"station_id":"cpo36qri1sfpv3e86is0","pricing_plan_id":"cebpf4jnsgd1na2vs0mg"},{"bike_id":"ecb7ede7-77b9-414d-b45a-e1d195c7745a","system_id":"levelo_inurba_marseille","lat":43.29274,"lon":5.3843,"is_reserved":false,"is_disabled":false,"rental_uris":{"android":"levelo://app?vid=ecb7ede7-77b9-414d-b45a-e1d195c7745a","ios":"levelo://app?vid=ecb7ede7-77b9-414d-b45a-e1d195c7745a"},"vehicle_type_id":"4","last_reported":1743254158,"current_range_meters":9200,"station_id":"ce4bh692rcd13ifvqea0","pricing_plan_id":"cebpf4jnsgd1na2vs0mg"},{"bike_id":"3f95773c-5714-403e-b7e4-ca8def34a69d","system_id":"levelo_inurba_marseille","lat":43.28416,"lon":5.34983,"is_reserved":false,"is_disabled":false,"rental_uris":{"android":"levelo://app?vid=3f95773c-5714-403e-b7e4-ca8def34a69d","ios":"levelo://app?vid=3f95773c-5714-403e-b7e4-ca8def34a69d"},"vehicle_type_id":"4","last_reported":1743254158,"current_range_meters":9200,"station_id":"ce4bhbh2rcd13ifvqepg","pricing_plan_id":"cebpf4jnsgd1na2vs0mg"},{"bike_id":"86402da5-f9ef-43b6-a281-06ce7c4c3160","system_id":"levelo_inurba_marseille","lat":43.28618,"lon":5.35107,"is_reserved":false,"is_disabled":false,"rental_uris":{"android":"levelo://app?vid=86402da5-f9ef-43b6-a281-06ce7c4c3160","ios":"levelo://app?vid=86402da5-f9ef-43b6-a281-06ce7c4c3160"},"vehicle_type_id":"4","last_reported":1743254158,"current_range_meters":9200,"station_id":"ce4bhch2rcd13ifvqeug","pricing_plan_id":"cebpf4jnsgd1na2vs0mg"},{"bike_id":"b1ecd358-38ec-4753-8af1-9b87454b444a","system_id":"levelo_inurba_marseille","lat":43.28618,"lon":5.35103,"is_reserved":false,"is_disabled":false,"rental_uris":{"android":"levelo://app?vid=b1ecd358-38ec-4753-8af1-9b87454b444a","ios":"levelo://app?vid=b1ecd358-38ec-4753-8af1-9b87454b444a"},"vehicle_type_id":"4","last_reported":1743254158,"current_range_meters":9200,"station_id":"ce4bhch2rcd13ifvqeug","pricing_plan_id":"cebpf4jnsgd1na2vs0mg"},{"bike_id":"980b1b8d-c114-4f00-88f8-a0ddccb8fb71","system_id":"levelo_inurba_marseille","lat":43.28623,"lon":5.35125,"is_reserved":false,"is_disabled":false,"rental_uris":{"android":"levelo://app?vid=980b1b8d-c114-4f00-88f8-a0ddccb8fb71","ios":"levelo://app?vid=980b1b8d-c114-4f00-88f8-a0ddccb8fb71"},"vehicle_type_id":"4","last_reported":1743254158,"current_range_meters":9200,"station_id":"ce4bhch2rcd13ifvqeug","pricing_plan_id":"cebpf4jnsgd1na2vs0mg"},{"bike_id":"d14cdd1e-f0b3-48a5-be5e-77128af69a2d","system_id":"levelo_inurba_marseille","lat":43.28631,"lon":5.35113,"is_reserved":false,"is_disabled":false,"rental_uris":{"android":"levelo://app?vid=d14cdd1e-f0b3-48a5-be5e-77128af69a2d","ios":"levelo://app?vid=d14cdd1e-f0b3-48a5-be5e-77128af69a2d"},"vehicle_type_id":"4","last_reported":1743254158,"current_range_meters":9200,"station_id":"ce4bhch2rcd13ifvqeug","pricing_plan_id":"cebpf4jnsgd1na2vs0mg"},{"bike_id":"fe6f6b56-2f97-48e9-9d40-a73fbe720651","system_id":"levelo_inurba_marseille","lat":43.25505,"lon":5.37647,"is_reserved":false,"is_disabled":false,"rental_uris":{"android":"levelo://app?vid=fe6f6b56-2f97-48e9-9d40-a73fbe720651","ios":"levelo://app?vid=fe6f6b56-2f97-48e9-9d40-a73fbe720651"},"vehicle_type_id":"4","last_reported":1743254158,"current_range_meters":9200,"station_id":"ce4bhh12rcd13ifvqff0","pricing_plan_id":"cebpf4jnsgd1na2vs0mg"},{"bike_id":"1a8ec8fe-cd0f-44f4-9a76-dfc354a60ccc","system_id":"levelo_inurba_marseille","lat":43.2397,"lon":5.36661,"is_reserved":false,"is_disabled":false,"rental_uris":{"android":"levelo://app?vid=1a8ec8fe-cd0f-44f4-9a76-dfc354a60ccc","ios":"levelo://app?vid=1a8ec8fe-cd0f-44f4-9a76-dfc354a60ccc"},"vehicle_type_id":"4","last_reported":1743254158,"current_range_meters":9200,"station_id":"ce4bhi12rcd13ifvqfp0","pricing_plan_id":"cebpf4jnsgd1na2vs0mg"},{"bike_id":"9bd349ae-e847-4d86-a3a7-4656a1832a5d","system_id":"levelo_inurba_marseille","lat":43.29264,"lon":5.37617,"is_reserved":false,"is_disabled":false,"rental_uris":{"android":"levelo://app?vid=9bd349ae-e847-4d86-a3a7-4656a1832a5d","ios":"levelo://app?vid=9bd349ae-e847-4d86-a3a7-4656a1832a5d"},"vehicle_type_id":"4","last_reported":1743254158,"current_range_meters":9600,"station_id":"ce4bgi12rcd13ifvqb80","pricing_plan_id":"cebpf4jnsgd1na2vs0mg"},{"bike_id":"849009e1-ea6d-4a96-aa13-da6141e8e91f","system_id":"levelo_inurba_marseille","lat":43.2952,"lon":5.39045,"is_reserved":false,"is_disabled":false,"rental_uris":{"android":"levelo://app?vid=849009e1-ea6d-4a96-aa13-da6141e8e91f","ios":"levelo://app?vid=849009e1-ea6d-4a96-aa13-da6141e8e91f"},"vehicle_type_id":"4","last_reported":1743254158,"current_range_meters":9600,"station_id":"ce4bh3p2rcd13ifvqdp0","pricing_plan_id":"cebpf4jnsgd1na2vs0mg"},{"bike_id":"93db089e-52c4-40f1-81d4-68647eb55b6b","system_id":"levelo_inurba_marseille","lat":43.29093,"lon":5.38131,"is_reserved":false,"is_disabled":false,"rental_uris":{"android":"levelo://app?vid=93db089e-52c4-40f1-81d4-68647eb55b6b","ios":"levelo://app?vid=93db089e-52c4-40f1-81d4-68647eb55b6b"},"vehicle_type_id":"4","last_reported":1743254158,"current_range_meters":9600,"station_id":"ce4bh512rcd13ifvqe2g","pricing_plan_id":"cebpf4jnsgd1na2vs0mg"},{"bike_id":"a2dd611d-97f8-4a80-9052-0416216c6368","system_id":"levelo_inurba_marseille","lat":43.29226,"lon":5.36068,"is_reserved":false,"is_disabled":false,"rental_uris":{"android":"levelo://app?vid=a2dd611d-97f8-4a80-9052-0416216c6368","ios":"levelo://app?vid=a2dd611d-97f8-4a80-9052-0416216c6368"},"vehicle_type_id":"4","last_reported":1743254158,"current_range_meters":9600,"station_id":"ce4bhbh2rcd13ifvqeqg","pricing_plan_id":"cebpf4jnsgd1na2vs0mg"},{"bike_id":"a3d4e98b-b7e6-46b0-82cf-911de77a0cff","system_id":"levelo_inurba_marseille","lat":43.26063,"lon":5.39408,"is_reserved":false,"is_disabled":false,"rental_uris":{"android":"levelo://app?vid=a3d4e98b-b7e6-46b0-82cf-911de77a0cff","ios":"levelo://app?vid=a3d4e98b-b7e6-46b0-82cf-911de77a0cff"},"vehicle_type_id":"4","last_reported":1743254158,"current_range_meters":9600,"station_id":"ce4bhh92rcd13ifvqfj0","pricing_plan_id":"cebpf4jnsgd1na2vs0mg"},{"bike_id":"4d375b6e-8b58-4236-8a66-ee2e2d5877ab","system_id":"levelo_inurba_marseille","lat":43.23982,"lon":5.36627,"is_reserved":false,"is_disabled":false,"rental_uris":{"android":"levelo://app?vid=4d375b6e-8b58-4236-8a66-ee2e2d5877ab","ios":"levelo://app?vid=4d375b6e-8b58-4236-8a66-ee2e2d5877ab"},"vehicle_type_id":"4","last_reported":1743254158,"current_range_meters":9600,"station_id":"ce4bhi12rcd13ifvqfp0","pricing_plan_id":"cebpf4jnsgd1na2vs0mg"},{"bike_id":"aa2a2b57-8ad0-4e69-9156-9bb10fd5d03a","system_id":"levelo_inurba_marseille","lat":43.280029,"lon":5.40009,"is_reserved":false,"is_disabled":false,"rental_uris":{"android":"levelo://app?vid=aa2a2b57-8ad0-4e69-9156-9bb10fd5d03a","ios":"levelo://app?vid=aa2a2b57-8ad0-4e69-9156-9bb10fd5d03a"},"vehicle_type_id":"4","last_reported":1743254158,"current_range_meters":9600,"station_id":"ce4bho92rcd13ifvqh4g","pricing_plan_id":"cebpf4jnsgd1na2vs0mg"},{"bike_id":"96fa1290-e699-40b9-9109-379d3b77c6fb","system_id":"levelo_inurba_marseille","lat":43.3375,"lon":5.39204,"is_reserved":false,"is_disabled":false,"rental_uris":{"android":"levelo://app?vid=96fa1290-e699-40b9-9109-379d3b77c6fb","ios":"levelo://app?vid=96fa1290-e699-40b9-9109-379d3b77c6fb"},"vehicle_type_id":"4","last_reported":1743254158,"current_range_meters":9600,"station_id":"ce4bhr92rcd13ifvqhsg","pricing_plan_id":"cebpf4jnsgd1na2vs0mg"},{"bike_id":"4586e23a-2d77-446c-8e8c-a15b6ae5de02","system_id":"levelo_inurba_marseille","lat":43.28595,"lon":5.38129,"is_reserved":false,"is_disabled":false,"rental_uris":{"android":"levelo://app?vid=4586e23a-2d77-446c-8e8c-a15b6ae5de02","ios":"levelo://app?vid=4586e23a-2d77-446c-8e8c-a15b6ae5de02"},"vehicle_type_id":"4","last_reported":1743254158,"current_range_meters":10000,"station_id":"","pricing_plan_id":"cebpf4jnsgd1na2vs0mg"},{"bike_id":"42734d74-78e3-4255-9e64-fa4ef712b287","system_id":"levelo_inurba_marseille","lat":43.29576,"lon":5.37514,"is_reserved":false,"is_disabled":false,"rental_uris":{"android":"levelo://app?vid=42734d74-78e3-4255-9e64-fa4ef712b287","ios":"levelo://app?vid=42734d74-78e3-4255-9e64-fa4ef712b287"},"vehicle_type_id":"4","last_reported":1743254158,"current_range_meters":10000,"station_id":"ce4bgh92rcd13ifvqb50","pricing_plan_id":"cebpf4jnsgd1na2vs0mg"},{"bike_id":"3554961e-fd7d-4e4a-b39f-d13b2cd74872","system_id":"levelo_inurba_marseille","lat":43.29599,"lon":5.38108,"is_reserved":false,"is_disabled":false,"rental_uris":{"android":"levelo://app?vid=3554961e-fd7d-4e4a-b39f-d13b2cd74872","ios":"levelo://app?vid=3554961e-fd7d-4e4a-b39f-d13b2cd74872"},"vehicle_type_id":"4","last_reported":1743254158,"current_range_meters":10000,"station_id":"ce4bgl12rcd13ifvqbo0","pricing_plan_id":"cebpf4jnsgd1na2vs0mg"},{"bike_id":"d154d47b-67f0-4b4d-ac79-fe2322575bfd","system_id":"levelo_inurba_marseille","lat":43.31363,"lon":5.38491,"is_reserved":false,"is_disabled":false,"rental_uris":{"android":"levelo://app?vid=d154d47b-67f0-4b4d-ac79-fe2322575bfd","ios":"levelo://app?vid=d154d47b-67f0-4b4d-ac79-fe2322575bfd"},"vehicle_type_id":"4","last_reported":1743254158,"current_range_meters":10000,"station_id":"ce4bgt92rcd13ifvqcf0","pricing_plan_id":"cebpf4jnsgd1na2vs0mg"},{"bike_id":"eaddfac1-0bf4-4f61-8016-0c16cda63728","system_id":"levelo_inurba_marseille","lat":43.29231,"lon":5.36075,"is_reserved":false,"is_disabled":false,"rental_uris":{"android":"levelo://app?vid=eaddfac1-0bf4-4f61-8016-0c16cda63728","ios":"levelo://app?vid=eaddfac1-0bf4-4f61-8016-0c16cda63728"},"vehicle_type_id":"4","last_reported":1743254158,"current_range_meters":10000,"station_id":"ce4bhbh2rcd13ifvqeqg","pricing_plan_id":"cebpf4jnsgd1na2vs0mg"},{"bike_id":"70433af2-6271-46f3-aeb9-8f296d9cd356","system_id":"levelo_inurba_marseille","lat":43.26579,"lon":5.39006,"is_reserved":false,"is_disabled":false,"rental_uris":{"android":"levelo://app?vid=70433af2-6271-46f3-aeb9-8f296d9cd356","ios":"levelo://app?vid=70433af2-6271-46f3-aeb9-8f296d9cd356"},"vehicle_type_id":"4","last_reported":1743254158,"current_range_meters":10000,"station_id":"ce4bhe12rcd13ifvqf30","pricing_plan_id":"cebpf4jnsgd1na2vs0mg"},{"bike_id":"c5941df3-dd83-49ee-930d-970623a5d625","system_id":"levelo_inurba_marseille","lat":43.28612,"lon":5.37057,"is_reserved":false,"is_disabled":false,"rental_uris":{"android":"levelo://app?vid=c5941df3-dd83-49ee-930d-970623a5d625","ios":"levelo://app?vid=c5941df3-dd83-49ee-930d-970623a5d625"},"vehicle_type_id":"4","last_reported":1743254158,"current_range_meters":10000,"station_id":"ce4bht12rcd13ifvqi60","pricing_plan_id":"cebpf4jnsgd1na2vs0mg"},{"bike_id":"177b2871-9975-4bbc-adb8-5ad74e324568","system_id":"levelo_inurba_marseille","lat":43.29795,"lon":5.3802,"is_reserved":false,"is_disabled":false,"rental_uris":{"android":"levelo://app?vid=177b2871-9975-4bbc-adb8-5ad74e324568","ios":"levelo://app?vid=177b2871-9975-4bbc-adb8-5ad74e324568"},"vehicle_type_id":"4","last_reported":1743254158,"current_range_meters":10800,"station_id":"","pricing_plan_id":"cebpf4jnsgd1na2vs0mg"},{"bike_id":"76a67849-e5ed-4fcc-83e7-ffe7c454b000","system_id":"levelo_inurba_marseille","lat":43.29268,"lon":5.38449,"is_reserved":false,"is_disabled":false,"rental_uris":{"android":"levelo://app?vid=76a67849-e5ed-4fcc-83e7-ffe7c454b000","ios":"levelo://app?vid=76a67849-e5ed-4fcc-83e7-ffe7c454b000"},"vehicle_type_id":"4","last_reported":1743254158,"current_range_meters":10800,"station_id":"ce4bh692rcd13ifvqea0","pricing_plan_id":"cebpf4jnsgd1na2vs0mg"},{"bike_id":"18a7459a-9de6-4413-bb5e-bd445e06b1f8","system_id":"levelo_inurba_marseille","lat":43.29205,"lon":5.3581,"is_reserved":false,"is_disabled":false,"rental_uris":{"android":"levelo://app?vid=18a7459a-9de6-4413-bb5e-bd445e06b1f8","ios":"levelo://app?vid=18a7459a-9de6-4413-bb5e-bd445e06b1f8"},"vehicle_type_id":"4","last_reported":1743254158,"current_range_meters":10800,"station_id":"ce4bhb12rcd13ifvqel0","pricing_plan_id":"cebpf4jnsgd1na2vs0mg"},{"bike_id":"24565657-e482-4932-93db-e35fe49c2025","system_id":"levelo_inurba_marseille","lat":43.26687,"lon":5.38274,"is_reserved":false,"is_disabled":false,"rental_uris":{"android":"levelo://app?vid=24565657-e482-4932-93db-e35fe49c2025","ios":"levelo://app?vid=24565657-e482-4932-93db-e35fe49c2025"},"vehicle_type_id":"4","last_reported":1743254158,"current_range_meters":10800,"station_id":"ce4bhg92rcd13ifvqf90","pricing_plan_id":"cebpf4jnsgd1na2vs0mg"},{"bike_id":"9f9f2d8f-ab8b-4dec-9781-2abfcd506482","system_id":"levelo_inurba_marseille","lat":43.23183,"lon":5.39985,"is_reserved":false,"is_disabled":false,"rental_uris":{"android":"levelo://app?vid=9f9f2d8f-ab8b-4dec-9781-2abfcd506482","ios":"levelo://app?vid=9f9f2d8f-ab8b-4dec-9781-2abfcd506482"},"vehicle_type_id":"4","last_reported":1743254158,"current_range_meters":10800,"station_id":"ce4bhn12rcd13ifvqgqg","pricing_plan_id":"cebpf4jnsgd1na2vs0mg"},{"bike_id":"6938d0ce-f954-4fff-b95b-2d698d38a5d7","system_id":"levelo_inurba_marseille","lat":43.27938,"lon":5.41042,"is_reserved":false,"is_disabled":false,"rental_uris":{"android":"levelo://app?vid=6938d0ce-f954-4fff-b95b-2d698d38a5d7","ios":"levelo://app?vid=6938d0ce-f954-4fff-b95b-2d698d38a5d7"},"vehicle_type_id":"4","last_reported":1743254158,"current_range_meters":10800,"station_id":"ce4bhnp2rcd13ifvqh0g","pricing_plan_id":"cebpf4jnsgd1na2vs0mg"},{"bike_id":"1d615296-593c-4f67-8161-ad67c09b0a05","system_id":"levelo_inurba_marseille","lat":43.31227,"lon":5.36873,"is_reserved":false,"is_disabled":false,"rental_uris":{"android":"levelo://app?vid=1d615296-593c-4f67-8161-ad67c09b0a05","ios":"levelo://app?vid=1d615296-593c-4f67-8161-ad67c09b0a05"},"vehicle_type_id":"4","last_reported":1743254158,"current_range_meters":11200,"station_id":"ce4bgl92rcd13ifvqbq0","pricing_plan_id":"cebpf4jnsgd1na2vs0mg"},{"bike_id":"7ae61bf1-0000-4ae0-bd5e-92fc51be5c2e","system_id":"levelo_inurba_marseille","lat":43.29627,"lon":5.37172,"is_reserved":false,"is_disabled":false,"rental_uris":{"android":"levelo://app?vid=7ae61bf1-0000-4ae0-bd5e-92fc51be5c2e","ios":"levelo://app?vid=7ae61bf1-0000-4ae0-bd5e-92fc51be5c2e"},"vehicle_type_id":"4","last_reported":1743254158,"current_range_meters":11200,"station_id":"ce4bgnh2rcd13ifvqc0g","pricing_plan_id":"cebpf4jnsgd1na2vs0mg"},{"bike_id":"d5f4be02-baa3-42aa-8e16-6f4a155d08e4","system_id":"levelo_inurba_marseille","lat":43.23183,"lon":5.39996,"is_reserved":false,"is_disabled":false,"rental_uris":{"android":"levelo://app?vid=d5f4be02-baa3-42aa-8e16-6f4a155d08e4","ios":"levelo://app?vid=d5f4be02-baa3-42aa-8e16-6f4a155d08e4"},"vehicle_type_id":"4","last_reported":1743254158,"current_range_meters":11200,"station_id":"ce4bhn12rcd13ifvqgqg","pricing_plan_id":"cebpf4jnsgd1na2vs0mg"},{"bike_id":"6ca33d69-353c-4e08-9b40-9c79b72e7ee1","system_id":"levelo_inurba_marseille","lat":43.24079,"lon":5.3776,"is_reserved":false,"is_disabled":false,"rental_uris":{"android":"levelo://app?vid=6ca33d69-353c-4e08-9b40-9c79b72e7ee1","ios":"levelo://app?vid=6ca33d69-353c-4e08-9b40-9c79b72e7ee1"},"vehicle_type_id":"4","last_reported":1743254158,"current_range_meters":11200,"station_id":"ce4bhnp2rcd13ifvqgvg","pricing_plan_id":"cebpf4jnsgd1na2vs0mg"},{"bike_id":"950b1160-9e2a-44c0-828c-05309f8d3f86","system_id":"levelo_inurba_marseille","lat":43.23066,"lon":5.35492,"is_reserved":false,"is_disabled":false,"rental_uris":{"android":"levelo://app?vid=950b1160-9e2a-44c0-828c-05309f8d3f86","ios":"levelo://app?vid=950b1160-9e2a-44c0-828c-05309f8d3f86"},"vehicle_type_id":"4","last_reported":1743254158,"current_range_meters":11200,"station_id":"cpo3342slgdg3j2ifvpg","pricing_plan_id":"cebpf4jnsgd1na2vs0mg"},{"bike_id":"96ac20e8-5840-4579-b371-184ec6253952","system_id":"levelo_inurba_marseille","lat":43.274989,"lon":5.411393,"is_reserved":false,"is_disabled":false,"rental_uris":{"android":"levelo://app?vid=96ac20e8-5840-4579-b371-184ec6253952","ios":"levelo://app?vid=96ac20e8-5840-4579-b371-184ec6253952"},"vehicle_type_id":"4","last_reported":1743254158,"current_range_meters":11600,"station_id":"","pricing_plan_id":"cebpf4jnsgd1na2vs0mg"},{"bike_id":"f1262444-f46f-4eb7-ba07-475ed67c9a17","system_id":"levelo_inurba_marseille","lat":43.29801,"lon":5.38101,"is_reserved":false,"is_disabled":false,"rental_uris":{"android":"levelo://app?vid=f1262444-f46f-4eb7-ba07-475ed67c9a17","ios":"levelo://app?vid=f1262444-f46f-4eb7-ba07-475ed67c9a17"},"vehicle_type_id":"4","last_reported":1743254158,"current_range_meters":11600,"station_id":"ce4bgip2rcd13ifvqbb0","pricing_plan_id":"cebpf4jnsgd1na2vs0mg"},{"bike_id":"d6a6c961-8719-4b97-bee5-436f88fec816","system_id":"levelo_inurba_marseille","lat":43.28838,"lon":5.39314,"is_reserved":false,"is_disabled":false,"rental_uris":{"android":"levelo://app?vid=d6a6c961-8719-4b97-bee5-436f88fec816","ios":"levelo://app?vid=d6a6c961-8719-4b97-bee5-436f88fec816"},"vehicle_type_id":"4","last_reported":1743254158,"current_range_meters":11600,"station_id":"ce4bh2p2rcd13ifvqdi0","pricing_plan_id":"cebpf4jnsgd1na2vs0mg"},{"bike_id":"7f9e733c-fa89-49ab-8010-8acb21ac5585","system_id":"levelo_inurba_marseille","lat":43.23146,"lon":5.43718,"is_reserved":false,"is_disabled":false,"rental_uris":{"android":"levelo://app?vid=7f9e733c-fa89-49ab-8010-8acb21ac5585","ios":"levelo://app?vid=7f9e733c-fa89-49ab-8010-8acb21ac5585"},"vehicle_type_id":"4","last_reported":1743254158,"current_range_meters":11600,"station_id":"ce4bhmp2rcd13ifvqgog","pricing_plan_id":"cebpf4jnsgd1na2vs0mg"},{"bike_id":"72f3c087-5a62-45d0-a670-d5ef8e734cb3","system_id":"levelo_inurba_marseille","lat":43.23228,"lon":5.40025,"is_reserved":false,"is_disabled":false,"rental_uris":{"android":"levelo://app?vid=72f3c087-5a62-45d0-a670-d5ef8e734cb3","ios":"levelo://app?vid=72f3c087-5a62-45d0-a670-d5ef8e734cb3"},"vehicle_type_id":"4","last_reported":1743254158,"current_range_meters":11600,"station_id":"ce4bhn12rcd13ifvqgqg","pricing_plan_id":"cebpf4jnsgd1na2vs0mg"},{"bike_id":"0812eafb-00ce-4139-b184-a26f5799de21","system_id":"levelo_inurba_marseille","lat":43.28001,"lon":5.40007,"is_reserved":false,"is_disabled":false,"rental_uris":{"android":"levelo://app?vid=0812eafb-00ce-4139-b184-a26f5799de21","ios":"levelo://app?vid=0812eafb-00ce-4139-b184-a26f5799de21"},"vehicle_type_id":"4","last_reported":1743254158,"current_range_meters":11600,"station_id":"ce4bho92rcd13ifvqh4g","pricing_plan_id":"cebpf4jnsgd1na2vs0mg"},{"bike_id":"497ce44a-eda7-4df7-824b-4be485d19c94","system_id":"levelo_inurba_marseille","lat":43.32114,"lon":5.41637,"is_reserved":false,"is_disabled":false,"rental_uris":{"android":"levelo://app?vid=497ce44a-eda7-4df7-824b-4be485d19c94","ios":"levelo://app?vid=497ce44a-eda7-4df7-824b-4be485d19c94"},"vehicle_type_id":"4","last_reported":1743254158,"current_range_meters":11600,"station_id":"ce4bhq92rcd13ifvqhkg","pricing_plan_id":"cebpf4jnsgd1na2vs0mg"},{"bike_id":"8964994f-01e2-49e5-90d2-1dd7115283f3","system_id":"levelo_inurba_marseille","lat":43.23077,"lon":5.35499,"is_reserved":false,"is_disabled":false,"rental_uris":{"android":"levelo://app?vid=8964994f-01e2-49e5-90d2-1dd7115283f3","ios":"levelo://app?vid=8964994f-01e2-49e5-90d2-1dd7115283f3"},"vehicle_type_id":"4","last_reported":1743254158,"current_range_meters":11600,"station_id":"cpo3342slgdg3j2ifvpg","pricing_plan_id":"cebpf4jnsgd1na2vs0mg"},{"bike_id":"ead84735-1991-4501-b506-2229ced7058a","system_id":"levelo_inurba_marseille","lat":43.23064,"lon":5.3549,"is_reserved":false,"is_disabled":false,"rental_uris":{"android":"levelo://app?vid=ead84735-1991-4501-b506-2229ced7058a","ios":"levelo://app?vid=ead84735-1991-4501-b506-2229ced7058a"},"vehicle_type_id":"4","last_reported":1743254158,"current_range_meters":11600,"station_id":"cpo3342slgdg3j2ifvpg","pricing_plan_id":"cebpf4jnsgd1na2vs0mg"},{"bike_id":"acf1e1c3-a629-4c7b-a838-cba3f3b54603","system_id":"levelo_inurba_marseille","lat":43.31877,"lon":5.37656,"is_reserved":false,"is_disabled":false,"rental_uris":{"android":"levelo://app?vid=acf1e1c3-a629-4c7b-a838-cba3f3b54603","ios":"levelo://app?vid=acf1e1c3-a629-4c7b-a838-cba3f3b54603"},"vehicle_type_id":"4","last_reported":1743254158,"current_range_meters":12000,"station_id":"","pricing_plan_id":"cebpf4jnsgd1na2vs0mg"},{"bike_id":"3f2bcfca-c616-4059-a95b-b1ee7948eb41","system_id":"levelo_inurba_marseille","lat":43.29871,"lon":5.39743,"is_reserved":false,"is_disabled":false,"rental_uris":{"android":"levelo://app?vid=3f2bcfca-c616-4059-a95b-b1ee7948eb41","ios":"levelo://app?vid=3f2bcfca-c616-4059-a95b-b1ee7948eb41"},"vehicle_type_id":"4","last_reported":1743254158,"current_range_meters":12000,"station_id":"ce4bh0h2rcd13ifvqd50","pricing_plan_id":"cebpf4jnsgd1na2vs0mg"},{"bike_id":"ffa581ae-d027-40ca-b822-72613b2513ab","system_id":"levelo_inurba_marseille","lat":43.29021,"lon":5.3863,"is_reserved":false,"is_disabled":false,"rental_uris":{"android":"levelo://app?vid=ffa581ae-d027-40ca-b822-72613b2513ab","ios":"levelo://app?vid=ffa581ae-d027-40ca-b822-72613b2513ab"},"vehicle_type_id":"4","last_reported":1743254158,"current_range_meters":12000,"station_id":"ce4bh4p2rcd13ifvqe0g","pricing_plan_id":"cebpf4jnsgd1na2vs0mg"},{"bike_id":"5c07f615-e81b-4dd8-b9fe-4714c0453676","system_id":"levelo_inurba_marseille","lat":43.29014,"lon":5.38122,"is_reserved":false,"is_disabled":false,"rental_uris":{"android":"levelo://app?vid=5c07f615-e81b-4dd8-b9fe-4714c0453676","ios":"levelo://app?vid=5c07f615-e81b-4dd8-b9fe-4714c0453676"},"vehicle_type_id":"4","last_reported":1743254158,"current_range_meters":12000,"station_id":"ce4bh4p2rcd13ifvqe1g","pricing_plan_id":"cebpf4jnsgd1na2vs0mg"},{"bike_id":"699cb6a9-80bb-4d7b-8f84-b25847471872","system_id":"levelo_inurba_marseille","lat":43.2895,"lon":5.36393,"is_reserved":false,"is_disabled":false,"rental_uris":{"android":"levelo://app?vid=699cb6a9-80bb-4d7b-8f84-b25847471872","ios":"levelo://app?vid=699cb6a9-80bb-4d7b-8f84-b25847471872"},"vehicle_type_id":"4","last_reported":1743254158,"current_range_meters":12000,"station_id":"ce4bhc92rcd13ifvqetg","pricing_plan_id":"cebpf4jnsgd1na2vs0mg"},{"bike_id":"7226a7c6-9ace-432a-aa0a-2f34aaac8ab0","system_id":"levelo_inurba_marseille","lat":43.30164,"lon":5.38095,"is_reserved":false,"is_disabled":false,"rental_uris":{"android":"levelo://app?vid=7226a7c6-9ace-432a-aa0a-2f34aaac8ab0","ios":"levelo://app?vid=7226a7c6-9ace-432a-aa0a-2f34aaac8ab0"},"vehicle_type_id":"4","last_reported":1743254158,"current_range_meters":12400,"station_id":"ce4bgjp2rcd13ifvqbh0","pricing_plan_id":"cebpf4jnsgd1na2vs0mg"},{"bike_id":"516eec70-9871-443d-bcef-31d65d51e4f5","system_id":"levelo_inurba_marseille","lat":43.3028,"lon":5.37688,"is_reserved":false,"is_disabled":false,"rental_uris":{"android":"levelo://app?vid=516eec70-9871-443d-bcef-31d65d51e4f5","ios":"levelo://app?vid=516eec70-9871-443d-bcef-31d65d51e4f5"},"vehicle_type_id":"4","last_reported":1743254158,"current_range_meters":12400,"station_id":"ce4bguh2rcd13ifvqcj0","pricing_plan_id":"cebpf4jnsgd1na2vs0mg"},{"bike_id":"5f437b8a-0c51-4d79-bb3a-458d3e8aac4b","system_id":"levelo_inurba_marseille","lat":43.28472,"lon":5.38424,"is_reserved":false,"is_disabled":false,"rental_uris":{"android":"levelo://app?vid=5f437b8a-0c51-4d79-bb3a-458d3e8aac4b","ios":"levelo://app?vid=5f437b8a-0c51-4d79-bb3a-458d3e8aac4b"},"vehicle_type_id":"4","last_reported":1743254158,"current_range_meters":12400,"station_id":"ce4bh512rcd13ifvqe3g","pricing_plan_id":"cebpf4jnsgd1na2vs0mg"},{"bike_id":"abd3241e-325c-4afb-bdb7-08c1b88e1658","system_id":"levelo_inurba_marseille","lat":43.28869,"lon":5.3586,"is_reserved":false,"is_disabled":false,"rental_uris":{"android":"levelo://app?vid=abd3241e-325c-4afb-bdb7-08c1b88e1658","ios":"levelo://app?vid=abd3241e-325c-4afb-bdb7-08c1b88e1658"},"vehicle_type_id":"4","last_reported":1743254158,"current_range_meters":12400,"station_id":"ce4bhb12rcd13ifvqem0","pricing_plan_id":"cebpf4jnsgd1na2vs0mg"},{"bike_id":"22eed9b5-cf9f-41d9-a493-eaf2149df395","system_id":"levelo_inurba_marseille","lat":43.22929,"lon":5.35375,"is_reserved":false,"is_disabled":false,"rental_uris":{"android":"levelo://app?vid=22eed9b5-cf9f-41d9-a493-eaf2149df395","ios":"levelo://app?vid=22eed9b5-cf9f-41d9-a493-eaf2149df395"},"vehicle_type_id":"4","last_reported":1743254158,"current_range_meters":12400,"station_id":"cpo3532slgdg3j2ikp40","pricing_plan_id":"cebpf4jnsgd1na2vs0mg"},{"bike_id":"25bb5fbc-8229-4010-b703-31f5ee6ac141","system_id":"levelo_inurba_marseille","lat":43.30609,"lon":5.36564,"is_reserved":false,"is_disabled":false,"rental_uris":{"android":"levelo://app?vid=25bb5fbc-8229-4010-b703-31f5ee6ac141","ios":"levelo://app?vid=25bb5fbc-8229-4010-b703-31f5ee6ac141"},"vehicle_type_id":"4","last_reported":1743254158,"current_range_meters":12800,"station_id":"","pricing_plan_id":"cebpf4jnsgd1na2vs0mg"},{"bike_id":"906b540e-e920-417f-92b5-0ef35349f644","system_id":"levelo_inurba_marseille","lat":43.31539,"lon":5.39708,"is_reserved":false,"is_disabled":false,"rental_uris":{"android":"levelo://app?vid=906b540e-e920-417f-92b5-0ef35349f644","ios":"levelo://app?vid=906b540e-e920-417f-92b5-0ef35349f644"},"vehicle_type_id":"4","last_reported":1743254158,"current_range_meters":12800,"station_id":"","pricing_plan_id":"cebpf4jnsgd1na2vs0mg"},{"bike_id":"1bf928b2-7ac9-41a7-adcc-77e0f5608510","system_id":"levelo_inurba_marseille","lat":43.32448,"lon":5.36392,"is_reserved":false,"is_disabled":false,"rental_uris":{"android":"levelo://app?vid=1bf928b2-7ac9-41a7-adcc-77e0f5608510","ios":"levelo://app?vid=1bf928b2-7ac9-41a7-adcc-77e0f5608510"},"vehicle_type_id":"4","last_reported":1743254158,"current_range_meters":12800,"station_id":"","pricing_plan_id":"cebpf4jnsgd1na2vs0mg"},{"bike_id":"d14b071d-6484-4998-9049-6481b9ce52e8","system_id":"levelo_inurba_marseille","lat":43.2852,"lon":5.38522,"is_reserved":false,"is_disabled":false,"rental_uris":{"android":"levelo://app?vid=d14b071d-6484-4998-9049-6481b9ce52e8","ios":"levelo://app?vid=d14b071d-6484-4998-9049-6481b9ce52e8"},"vehicle_type_id":"4","last_reported":1743254158,"current_range_meters":12800,"station_id":"ce4bh8p2rcd13ifvqeb0","pricing_plan_id":"cebpf4jnsgd1na2vs0mg"},{"bike_id":"16114874-1624-4cbf-ab92-592fde16a956","system_id":"levelo_inurba_marseille","lat":43.292,"lon":5.35811,"is_reserved":false,"is_disabled":false,"rental_uris":{"android":"levelo://app?vid=16114874-1624-4cbf-ab92-592fde16a956","ios":"levelo://app?vid=16114874-1624-4cbf-ab92-592fde16a956"},"vehicle_type_id":"4","last_reported":1743254158,"current_range_meters":12800,"station_id":"ce4bhb12rcd13ifvqel0","pricing_plan_id":"cebpf4jnsgd1na2vs0mg"},{"bike_id":"3a4039b0-b362-4541-bc70-84ba06c55379","system_id":"levelo_inurba_marseille","lat":43.32361,"lon":5.38894,"is_reserved":false,"is_disabled":false,"rental_uris":{"android":"levelo://app?vid=3a4039b0-b362-4541-bc70-84ba06c55379","ios":"levelo://app?vid=3a4039b0-b362-4541-bc70-84ba06c55379"},"vehicle_type_id":"4","last_reported":1743254158,"current_range_meters":12800,"station_id":"ce4bhqp2rcd13ifvqhog","pricing_plan_id":"cebpf4jnsgd1na2vs0mg"},{"bike_id":"9f50066e-01fa-4519-9f61-8109fe65f5d9","system_id":"levelo_inurba_marseille","lat":43.29494,"lon":5.37411,"is_reserved":false,"is_disabled":false,"rental_uris":{"android":"levelo://app?vid=9f50066e-01fa-4519-9f61-8109fe65f5d9","ios":"levelo://app?vid=9f50066e-01fa-4519-9f61-8109fe65f5d9"},"vehicle_type_id":"4","last_reported":1743254158,"current_range_meters":13600,"station_id":"","pricing_plan_id":"cebpf4jnsgd1na2vs0mg"},{"bike_id":"32eafb53-64fd-4e61-a378-eb2a63bb13ac","system_id":"levelo_inurba_marseille","lat":43.29614,"lon":5.37724,"is_reserved":false,"is_disabled":false,"rental_uris":{"android":"levelo://app?vid=32eafb53-64fd-4e61-a378-eb2a63bb13ac","ios":"levelo://app?vid=32eafb53-64fd-4e61-a378-eb2a63bb13ac"},"vehicle_type_id":"4","last_reported":1743254158,"current_range_meters":13600,"station_id":"ce4bgi92rcd13ifvqb90","pricing_plan_id":"cebpf4jnsgd1na2vs0mg"},{"bike_id":"5a53d0ae-485c-4888-8827-1e6d992be149","system_id":"levelo_inurba_marseille","lat":43.30671,"lon":5.40106,"is_reserved":false,"is_disabled":false,"rental_uris":{"android":"levelo://app?vid=5a53d0ae-485c-4888-8827-1e6d992be149","ios":"levelo://app?vid=5a53d0ae-485c-4888-8827-1e6d992be149"},"vehicle_type_id":"4","last_reported":1743254158,"current_range_meters":13600,"station_id":"ce4bh112rcd13ifvqda0","pricing_plan_id":"cebpf4jnsgd1na2vs0mg"},{"bike_id":"f80bdad8-c86c-4683-90b6-26f666f2ddd0","system_id":"levelo_inurba_marseille","lat":43.28945,"lon":5.36639,"is_reserved":false,"is_disabled":false,"rental_uris":{"android":"levelo://app?vid=f80bdad8-c86c-4683-90b6-26f666f2ddd0","ios":"levelo://app?vid=f80bdad8-c86c-4683-90b6-26f666f2ddd0"},"vehicle_type_id":"4","last_reported":1743254158,"current_range_meters":13600,"station_id":"ce4bhap2rcd13ifvqek0","pricing_plan_id":"cebpf4jnsgd1na2vs0mg"},{"bike_id":"e6967797-29d0-4947-88e5-61bc42de65df","system_id":"levelo_inurba_marseille","lat":43.28623,"lon":5.35112,"is_reserved":false,"is_disabled":false,"rental_uris":{"android":"levelo://app?vid=e6967797-29d0-4947-88e5-61bc42de65df","ios":"levelo://app?vid=e6967797-29d0-4947-88e5-61bc42de65df"},"vehicle_type_id":"4","last_reported":1743254158,"current_range_meters":13600,"station_id":"ce4bhch2rcd13ifvqeug","pricing_plan_id":"cebpf4jnsgd1na2vs0mg"},{"bike_id":"381534e8-0436-4b07-890e-267177a9e6cf","system_id":"levelo_inurba_marseille","lat":43.254559,"lon":5.375857,"is_reserved":false,"is_disabled":false,"rental_uris":{"android":"levelo://app?vid=381534e8-0436-4b07-890e-267177a9e6cf","ios":"levelo://app?vid=381534e8-0436-4b07-890e-267177a9e6cf"},"vehicle_type_id":"4","last_reported":1743254158,"current_range_meters":13600,"station_id":"ce4bhh12rcd13ifvqff0","pricing_plan_id":"cebpf4jnsgd1na2vs0mg"},{"bike_id":"b1e5ad4c-0944-4754-bb31-77d984fa0591","system_id":"levelo_inurba_marseille","lat":43.231105,"lon":5.35454,"is_reserved":false,"is_disabled":false,"rental_uris":{"android":"levelo://app?vid=b1e5ad4c-0944-4754-bb31-77d984fa0591","ios":"levelo://app?vid=b1e5ad4c-0944-4754-bb31-77d984fa0591"},"vehicle_type_id":"4","last_reported":1743254158,"current_range_meters":13600,"station_id":"cpo3532slgdg3j2ikp40","pricing_plan_id":"cebpf4jnsgd1na2vs0mg"},{"bike_id":"223d2c57-bff4-4a8e-9764-6b83fed7b36e","system_id":"levelo_inurba_marseille","lat":43.288484,"lon":5.393079,"is_reserved":false,"is_disabled":false,"rental_uris":{"android":"levelo://app?vid=223d2c57-bff4-4a8e-9764-6b83fed7b36e","ios":"levelo://app?vid=223d2c57-bff4-4a8e-9764-6b83fed7b36e"},"vehicle_type_id":"4","last_reported":1743254158,"current_range_meters":14000,"station_id":"ce4bh2p2rcd13ifvqdi0","pricing_plan_id":"cebpf4jnsgd1na2vs0mg"},{"bike_id":"653ea6de-a177-4007-9cfa-5f3f77e975f6","system_id":"levelo_inurba_marseille","lat":43.2481,"lon":5.37458,"is_reserved":false,"is_disabled":false,"rental_uris":{"android":"levelo://app?vid=653ea6de-a177-4007-9cfa-5f3f77e975f6","ios":"levelo://app?vid=653ea6de-a177-4007-9cfa-5f3f77e975f6"},"vehicle_type_id":"4","last_reported":1743254158,"current_range_meters":14000,"station_id":"ce4bhgh2rcd13ifvqfb0","pricing_plan_id":"cebpf4jnsgd1na2vs0mg"},{"bike_id":"c3763ebd-bdd4-42bc-b901-83a71aa84d51","system_id":"levelo_inurba_marseille","lat":43.25491,"lon":5.37647,"is_reserved":false,"is_disabled":false,"rental_uris":{"android":"levelo://app?vid=c3763ebd-bdd4-42bc-b901-83a71aa84d51","ios":"levelo://app?vid=c3763ebd-bdd4-42bc-b901-83a71aa84d51"},"vehicle_type_id":"4","last_reported":1743254158,"current_range_meters":14000,"station_id":"ce4bhh12rcd13ifvqff0","pricing_plan_id":"cebpf4jnsgd1na2vs0mg"},{"bike_id":"2e61c302-024f-4f90-b886-9834de9d366a","system_id":"levelo_inurba_marseille","lat":43.24391,"lon":5.37064,"is_reserved":false,"is_disabled":false,"rental_uris":{"android":"levelo://app?vid=2e61c302-024f-4f90-b886-9834de9d366a","ios":"levelo://app?vid=2e61c302-024f-4f90-b886-9834de9d366a"},"vehicle_type_id":"4","last_reported":1743254158,"current_range_meters":14000,"station_id":"ce4bhhh2rcd13ifvqfk0","pricing_plan_id":"cebpf4jnsgd1na2vs0mg"},{"bike_id":"4854182c-5e3b-4312-b39b-614ebdd62b8d","system_id":"levelo_inurba_marseille","lat":43.25929,"lon":5.4089,"is_reserved":false,"is_disabled":false,"rental_uris":{"android":"levelo://app?vid=4854182c-5e3b-4312-b39b-614ebdd62b8d","ios":"levelo://app?vid=4854182c-5e3b-4312-b39b-614ebdd62b8d"},"vehicle_type_id":"4","last_reported":1743254158,"current_range_meters":14000,"station_id":"ce4bhm92rcd13ifvqglg","pricing_plan_id":"cebpf4jnsgd1na2vs0mg"},{"bike_id":"939fef5b-bbd4-4de2-b4fc-b103e449f9b5","system_id":"levelo_inurba_marseille","lat":43.25388,"lon":5.41841,"is_reserved":false,"is_disabled":false,"rental_uris":{"android":"levelo://app?vid=939fef5b-bbd4-4de2-b4fc-b103e449f9b5","ios":"levelo://app?vid=939fef5b-bbd4-4de2-b4fc-b103e449f9b5"},"vehicle_type_id":"4","last_reported":1743254158,"current_range_meters":14400,"station_id":"","pricing_plan_id":"cebpf4jnsgd1na2vs0mg"},{"bike_id":"7e72d777-b148-4843-8822-9ac55d5cb826","system_id":"levelo_inurba_marseille","lat":43.28476,"lon":5.38421,"is_reserved":false,"is_disabled":false,"rental_uris":{"android":"levelo://app?vid=7e72d777-b148-4843-8822-9ac55d5cb826","ios":"levelo://app?vid=7e72d777-b148-4843-8822-9ac55d5cb826"},"vehicle_type_id":"4","last_reported":1743254158,"current_range_meters":14400,"station_id":"ce4bh512rcd13ifvqe3g","pricing_plan_id":"cebpf4jnsgd1na2vs0mg"},{"bike_id":"fa4d484d-4764-4995-a75f-a17e986668fc","system_id":"levelo_inurba_marseille","lat":43.27565,"lon":5.38426,"is_reserved":false,"is_disabled":false,"rental_uris":{"android":"levelo://app?vid=fa4d484d-4764-4995-a75f-a17e986668fc","ios":"levelo://app?vid=fa4d484d-4764-4995-a75f-a17e986668fc"},"vehicle_type_id":"4","last_reported":1743254158,"current_range_meters":14400,"station_id":"ce4bhh92rcd13ifvqfi0","pricing_plan_id":"cebpf4jnsgd1na2vs0mg"},{"bike_id":"89db3064-dfe4-431d-a7a1-5248dd02796c","system_id":"levelo_inurba_marseille","lat":43.29809,"lon":5.38097,"is_reserved":false,"is_disabled":false,"rental_uris":{"android":"levelo://app?vid=89db3064-dfe4-431d-a7a1-5248dd02796c","ios":"levelo://app?vid=89db3064-dfe4-431d-a7a1-5248dd02796c"},"vehicle_type_id":"4","last_reported":1743254158,"current_range_meters":14800,"station_id":"ce4bgip2rcd13ifvqbb0","pricing_plan_id":"cebpf4jnsgd1na2vs0mg"},{"bike_id":"8c7345b4-596d-4c21-b647-cc600e64157d","system_id":"levelo_inurba_marseille","lat":43.30142,"lon":5.37423,"is_reserved":false,"is_disabled":false,"rental_uris":{"android":"levelo://app?vid=8c7345b4-596d-4c21-b647-cc600e64157d","ios":"levelo://app?vid=8c7345b4-596d-4c21-b647-cc600e64157d"},"vehicle_type_id":"4","last_reported":1743254158,"current_range_meters":14800,"station_id":"ce4bgs92rcd13ifvqcc0","pricing_plan_id":"cebpf4jnsgd1na2vs0mg"},{"bike_id":"a2f35cd6-4761-4189-a711-c67f4ebc02df","system_id":"levelo_inurba_marseille","lat":43.28853,"lon":5.39319,"is_reserved":false,"is_disabled":false,"rental_uris":{"android":"levelo://app?vid=a2f35cd6-4761-4189-a711-c67f4ebc02df","ios":"levelo://app?vid=a2f35cd6-4761-4189-a711-c67f4ebc02df"},"vehicle_type_id":"4","last_reported":1743254158,"current_range_meters":14800,"station_id":"ce4bh2p2rcd13ifvqdi0","pricing_plan_id":"cebpf4jnsgd1na2vs0mg"},{"bike_id":"e3dddefa-9a90-402c-a1ed-56d53ccd09d1","system_id":"levelo_inurba_marseille","lat":43.29218,"lon":5.35826,"is_reserved":false,"is_disabled":false,"rental_uris":{"android":"levelo://app?vid=e3dddefa-9a90-402c-a1ed-56d53ccd09d1","ios":"levelo://app?vid=e3dddefa-9a90-402c-a1ed-56d53ccd09d1"},"vehicle_type_id":"4","last_reported":1743254158,"current_range_meters":14800,"station_id":"ce4bhb12rcd13ifvqel0","pricing_plan_id":"cebpf4jnsgd1na2vs0mg"},{"bike_id":"c5032665-d52e-42f9-bd4d-92be124cdcfc","system_id":"levelo_inurba_marseille","lat":43.26685,"lon":5.38266,"is_reserved":false,"is_disabled":false,"rental_uris":{"android":"levelo://app?vid=c5032665-d52e-42f9-bd4d-92be124cdcfc","ios":"levelo://app?vid=c5032665-d52e-42f9-bd4d-92be124cdcfc"},"vehicle_type_id":"4","last_reported":1743254158,"current_range_meters":14800,"station_id":"ce4bhg92rcd13ifvqf90","pricing_plan_id":"cebpf4jnsgd1na2vs0mg"},{"bike_id":"c7202a36-dcf4-42c9-81fd-93a9ffadf8b5","system_id":"levelo_inurba_marseille","lat":43.27072,"lon":5.42278,"is_reserved":false,"is_disabled":false,"rental_uris":{"android":"levelo://app?vid=c7202a36-dcf4-42c9-81fd-93a9ffadf8b5","ios":"levelo://app?vid=c7202a36-dcf4-42c9-81fd-93a9ffadf8b5"},"vehicle_type_id":"4","last_reported":1743254158,"current_range_meters":14800,"station_id":"ce4bhk92rcd13ifvqgb0","pricing_plan_id":"cebpf4jnsgd1na2vs0mg"},{"bike_id":"1194d893-debc-41d7-b347-816267570776","system_id":"levelo_inurba_marseille","lat":43.33737,"lon":5.39215,"is_reserved":false,"is_disabled":false,"rental_uris":{"android":"levelo://app?vid=1194d893-debc-41d7-b347-816267570776","ios":"levelo://app?vid=1194d893-debc-41d7-b347-816267570776"},"vehicle_type_id":"4","last_reported":1743254158,"current_range_meters":14800,"station_id":"ce4bhr92rcd13ifvqhsg","pricing_plan_id":"cebpf4jnsgd1na2vs0mg"},{"bike_id":"9f8ac332-33d8-4099-9134-b77103186608","system_id":"levelo_inurba_marseille","lat":43.28614,"lon":5.37084,"is_reserved":false,"is_disabled":false,"rental_uris":{"android":"levelo://app?vid=9f8ac332-33d8-4099-9134-b77103186608","ios":"levelo://app?vid=9f8ac332-33d8-4099-9134-b77103186608"},"vehicle_type_id":"4","last_reported":1743254158,"current_range_meters":14800,"station_id":"ce4bht12rcd13ifvqi60","pricing_plan_id":"cebpf4jnsgd1na2vs0mg"},{"bike_id":"a104ab6c-23d2-4bc9-8525-a85c5320e4d9","system_id":"levelo_inurba_marseille","lat":43.2953,"lon":5.3751,"is_reserved":false,"is_disabled":false,"rental_uris":{"android":"levelo://app?vid=a104ab6c-23d2-4bc9-8525-a85c5320e4d9","ios":"levelo://app?vid=a104ab6c-23d2-4bc9-8525-a85c5320e4d9"},"vehicle_type_id":"4","last_reported":1743254158,"current_range_meters":15200,"station_id":"ce4bgkp2rcd13ifvqbmg","pricing_plan_id":"cebpf4jnsgd1na2vs0mg"},{"bike_id":"c8918ffe-f1f5-474a-8196-7707a21d00ba","system_id":"levelo_inurba_marseille","lat":43.29864,"lon":5.3629,"is_reserved":false,"is_disabled":false,"rental_uris":{"android":"levelo://app?vid=c8918ffe-f1f5-474a-8196-7707a21d00ba","ios":"levelo://app?vid=c8918ffe-f1f5-474a-8196-7707a21d00ba"},"vehicle_type_id":"4","last_reported":1743254158,"current_range_meters":15200,"station_id":"ce4bgpp2rcd13ifvqc3g","pricing_plan_id":"cebpf4jnsgd1na2vs0mg"},{"bike_id":"bd90bf75-9c99-4619-93c2-7a5fd83388b5","system_id":"levelo_inurba_marseille","lat":43.313603,"lon":5.388284,"is_reserved":false,"is_disabled":false,"rental_uris":{"android":"levelo://app?vid=bd90bf75-9c99-4619-93c2-7a5fd83388b5","ios":"levelo://app?vid=bd90bf75-9c99-4619-93c2-7a5fd83388b5"},"vehicle_type_id":"4","last_reported":1743254158,"current_range_meters":15200,"station_id":"ce4bgt92rcd13ifvqcf0","pricing_plan_id":"cebpf4jnsgd1na2vs0mg"},{"bike_id":"559dea5e-b1d1-478a-8513-c23ea1a741c1","system_id":"levelo_inurba_marseille","lat":43.28372,"lon":5.38646,"is_reserved":false,"is_disabled":false,"rental_uris":{"android":"levelo://app?vid=559dea5e-b1d1-478a-8513-c23ea1a741c1","ios":"levelo://app?vid=559dea5e-b1d1-478a-8513-c23ea1a741c1"},"vehicle_type_id":"4","last_reported":1743254158,"current_range_meters":15200,"station_id":"ce4bh492rcd13ifvqdvg","pricing_plan_id":"cebpf4jnsgd1na2vs0mg"},{"bike_id":"3724abe8-c4a0-4424-ad4b-da8f686e091b","system_id":"levelo_inurba_marseille","lat":43.28465,"lon":5.38413,"is_reserved":false,"is_disabled":false,"rental_uris":{"android":"levelo://app?vid=3724abe8-c4a0-4424-ad4b-da8f686e091b","ios":"levelo://app?vid=3724abe8-c4a0-4424-ad4b-da8f686e091b"},"vehicle_type_id":"4","last_reported":1743254158,"current_range_meters":15200,"station_id":"ce4bh512rcd13ifvqe3g","pricing_plan_id":"cebpf4jnsgd1na2vs0mg"},{"bike_id":"848938d0-75a9-44fa-ba52-f43592effb4b","system_id":"levelo_inurba_marseille","lat":43.28112,"lon":5.37829,"is_reserved":false,"is_disabled":false,"rental_uris":{"android":"levelo://app?vid=848938d0-75a9-44fa-ba52-f43592effb4b","ios":"levelo://app?vid=848938d0-75a9-44fa-ba52-f43592effb4b"},"vehicle_type_id":"4","last_reported":1743254158,"current_range_meters":15200,"station_id":"ce4bha12rcd13ifvqee0","pricing_plan_id":"cebpf4jnsgd1na2vs0mg"},{"bike_id":"5b5cd7ce-2853-455d-babd-bcdb551a3f87","system_id":"levelo_inurba_marseille","lat":43.248055,"lon":5.374572,"is_reserved":false,"is_disabled":false,"rental_uris":{"android":"levelo://app?vid=5b5cd7ce-2853-455d-babd-bcdb551a3f87","ios":"levelo://app?vid=5b5cd7ce-2853-455d-babd-bcdb551a3f87"},"vehicle_type_id":"4","last_reported":1743254158,"current_range_meters":15200,"station_id":"ce4bhh12rcd13ifvqff0","pricing_plan_id":"cebpf4jnsgd1na2vs0mg"},{"bike_id":"5248ceee-c0bb-4629-a3ea-17ec819bc745","system_id":"levelo_inurba_marseille","lat":43.24388,"lon":5.37061,"is_reserved":false,"is_disabled":false,"rental_uris":{"android":"levelo://app?vid=5248ceee-c0bb-4629-a3ea-17ec819bc745","ios":"levelo://app?vid=5248ceee-c0bb-4629-a3ea-17ec819bc745"},"vehicle_type_id":"4","last_reported":1743254158,"current_range_meters":15200,"station_id":"ce4bhhh2rcd13ifvqfk0","pricing_plan_id":"cebpf4jnsgd1na2vs0mg"},{"bike_id":"ea212a2c-ebda-4fd3-87a5-afdf194e9b39","system_id":"levelo_inurba_marseille","lat":43.31582,"lon":5.38931,"is_reserved":false,"is_disabled":false,"rental_uris":{"android":"levelo://app?vid=ea212a2c-ebda-4fd3-87a5-afdf194e9b39","ios":"levelo://app?vid=ea212a2c-ebda-4fd3-87a5-afdf194e9b39"},"vehicle_type_id":"4","last_reported":1743254158,"current_range_meters":16000,"station_id":"","pricing_plan_id":"cebpf4jnsgd1na2vs0mg"},{"bike_id":"e461c282-058d-4d0e-a7d7-55427b9828bb","system_id":"levelo_inurba_marseille","lat":43.29579,"lon":5.37515,"is_reserved":false,"is_disabled":false,"rental_uris":{"android":"levelo://app?vid=e461c282-058d-4d0e-a7d7-55427b9828bb","ios":"levelo://app?vid=e461c282-058d-4d0e-a7d7-55427b9828bb"},"vehicle_type_id":"4","last_reported":1743254158,"current_range_meters":16000,"station_id":"ce4bgh92rcd13ifvqb50","pricing_plan_id":"cebpf4jnsgd1na2vs0mg"},{"bike_id":"01b30980-6fea-409c-a5b2-22ab52e85a66","system_id":"levelo_inurba_marseille","lat":43.29264,"lon":5.37612,"is_reserved":false,"is_disabled":false,"rental_uris":{"android":"levelo://app?vid=01b30980-6fea-409c-a5b2-22ab52e85a66","ios":"levelo://app?vid=01b30980-6fea-409c-a5b2-22ab52e85a66"},"vehicle_type_id":"4","last_reported":1743254158,"current_range_meters":16000,"station_id":"ce4bgi12rcd13ifvqb80","pricing_plan_id":"cebpf4jnsgd1na2vs0mg"},{"bike_id":"769f648a-3348-41c6-bcad-cfd5080a8737","system_id":"levelo_inurba_marseille","lat":43.30304,"lon":5.39215,"is_reserved":false,"is_disabled":false,"rental_uris":{"android":"levelo://app?vid=769f648a-3348-41c6-bcad-cfd5080a8737","ios":"levelo://app?vid=769f648a-3348-41c6-bcad-cfd5080a8737"},"vehicle_type_id":"4","last_reported":1743254158,"current_range_meters":16000,"station_id":"ce4bgkh2rcd13ifvqbk0","pricing_plan_id":"cebpf4jnsgd1na2vs0mg"},{"bike_id":"82be5020-df29-4bb6-b821-10f31b9ed89a","system_id":"levelo_inurba_marseille","lat":43.28419,"lon":5.34987,"is_reserved":false,"is_disabled":false,"rental_uris":{"android":"levelo://app?vid=82be5020-df29-4bb6-b821-10f31b9ed89a","ios":"levelo://app?vid=82be5020-df29-4bb6-b821-10f31b9ed89a"},"vehicle_type_id":"4","last_reported":1743254158,"current_range_meters":16000,"station_id":"ce4bhbh2rcd13ifvqepg","pricing_plan_id":"cebpf4jnsgd1na2vs0mg"},{"bike_id":"0e9d92a7-df29-43d8-906d-2a51c6561f7d","system_id":"levelo_inurba_marseille","lat":43.28428,"lon":5.34978,"is_reserved":false,"is_disabled":false,"rental_uris":{"android":"levelo://app?vid=0e9d92a7-df29-43d8-906d-2a51c6561f7d","ios":"levelo://app?vid=0e9d92a7-df29-43d8-906d-2a51c6561f7d"},"vehicle_type_id":"4","last_reported":1743254158,"current_range_meters":16000,"station_id":"ce4bhbh2rcd13ifvqepg","pricing_plan_id":"cebpf4jnsgd1na2vs0mg"},{"bike_id":"2a651215-29ff-4da6-821d-6aba547eb86b","system_id":"levelo_inurba_marseille","lat":43.29221,"lon":5.36059,"is_reserved":false,"is_disabled":false,"rental_uris":{"android":"levelo://app?vid=2a651215-29ff-4da6-821d-6aba547eb86b","ios":"levelo://app?vid=2a651215-29ff-4da6-821d-6aba547eb86b"},"vehicle_type_id":"4","last_reported":1743254158,"current_range_meters":16000,"station_id":"ce4bhbh2rcd13ifvqeqg","pricing_plan_id":"cebpf4jnsgd1na2vs0mg"},{"bike_id":"0a9ec2eb-1e79-43a5-ae4d-326ab3ba938e","system_id":"levelo_inurba_marseille","lat":43.28618,"lon":5.35096,"is_reserved":false,"is_disabled":false,"rental_uris":{"android":"levelo://app?vid=0a9ec2eb-1e79-43a5-ae4d-326ab3ba938e","ios":"levelo://app?vid=0a9ec2eb-1e79-43a5-ae4d-326ab3ba938e"},"vehicle_type_id":"4","last_reported":1743254158,"current_range_meters":16000,"station_id":"ce4bhch2rcd13ifvqeug","pricing_plan_id":"cebpf4jnsgd1na2vs0mg"},{"bike_id":"351cd52a-4b1a-4807-aaf9-193f86636669","system_id":"levelo_inurba_marseille","lat":43.24819,"lon":5.37457,"is_reserved":false,"is_disabled":false,"rental_uris":{"android":"levelo://app?vid=351cd52a-4b1a-4807-aaf9-193f86636669","ios":"levelo://app?vid=351cd52a-4b1a-4807-aaf9-193f86636669"},"vehicle_type_id":"4","last_reported":1743254158,"current_range_meters":16000,"station_id":"ce4bhgh2rcd13ifvqfb0","pricing_plan_id":"cebpf4jnsgd1na2vs0mg"},{"bike_id":"c4fb15b2-b6c9-4294-89c0-c7e0702ce2ad","system_id":"levelo_inurba_marseille","lat":43.27067,"lon":5.40261,"is_reserved":false,"is_disabled":false,"rental_uris":{"android":"levelo://app?vid=c4fb15b2-b6c9-4294-89c0-c7e0702ce2ad","ios":"levelo://app?vid=c4fb15b2-b6c9-4294-89c0-c7e0702ce2ad"},"vehicle_type_id":"4","last_reported":1743254158,"current_range_meters":16000,"station_id":"ce4bhk92rcd13ifvqgc0","pricing_plan_id":"cebpf4jnsgd1na2vs0mg"},{"bike_id":"8bcc045e-f28b-442a-a0af-38457b26197c","system_id":"levelo_inurba_marseille","lat":43.24155,"lon":5.36432,"is_reserved":false,"is_disabled":false,"rental_uris":{"android":"levelo://app?vid=8bcc045e-f28b-442a-a0af-38457b26197c","ios":"levelo://app?vid=8bcc045e-f28b-442a-a0af-38457b26197c"},"vehicle_type_id":"4","last_reported":1743254158,"current_range_meters":16000,"station_id":"cpo36qri1sfpv3e86is0","pricing_plan_id":"cebpf4jnsgd1na2vs0mg"},{"bike_id":"4407a7ef-8d9d-4391-aeca-0f5c9a4938de","system_id":"levelo_inurba_marseille","lat":43.29307,"lon":5.3746,"is_reserved":false,"is_disabled":false,"rental_uris":{"android":"levelo://app?vid=4407a7ef-8d9d-4391-aeca-0f5c9a4938de","ios":"levelo://app?vid=4407a7ef-8d9d-4391-aeca-0f5c9a4938de"},"vehicle_type_id":"4","last_reported":1743254158,"current_range_meters":16400,"station_id":"ce4bgi12rcd13ifvqb70","pricing_plan_id":"cebpf4jnsgd1na2vs0mg"},{"bike_id":"3d34203d-749c-4a0f-b5dc-98ad39fe85c8","system_id":"levelo_inurba_marseille","lat":43.27975,"lon":5.38743,"is_reserved":false,"is_disabled":false,"rental_uris":{"android":"levelo://app?vid=3d34203d-749c-4a0f-b5dc-98ad39fe85c8","ios":"levelo://app?vid=3d34203d-749c-4a0f-b5dc-98ad39fe85c8"},"vehicle_type_id":"4","last_reported":1743254158,"current_range_meters":16400,"station_id":"ce4bhg12rcd13ifvqf80","pricing_plan_id":"cebpf4jnsgd1na2vs0mg"},{"bike_id":"b495a96e-3e6f-453c-8052-b683e21f1048","system_id":"levelo_inurba_marseille","lat":43.25874,"lon":5.39914,"is_reserved":false,"is_disabled":false,"rental_uris":{"android":"levelo://app?vid=b495a96e-3e6f-453c-8052-b683e21f1048","ios":"levelo://app?vid=b495a96e-3e6f-453c-8052-b683e21f1048"},"vehicle_type_id":"4","last_reported":1743254158,"current_range_meters":16400,"station_id":"ce4bhl92rcd13ifvqghg","pricing_plan_id":"cebpf4jnsgd1na2vs0mg"},{"bike_id":"8c118e09-a3e9-4d1d-9b5c-29a21ba96c6d","system_id":"levelo_inurba_marseille","lat":43.32372,"lon":5.38881,"is_reserved":false,"is_disabled":false,"rental_uris":{"android":"levelo://app?vid=8c118e09-a3e9-4d1d-9b5c-29a21ba96c6d","ios":"levelo://app?vid=8c118e09-a3e9-4d1d-9b5c-29a21ba96c6d"},"vehicle_type_id":"4","last_reported":1743254158,"current_range_meters":16400,"station_id":"ce4bhqp2rcd13ifvqhog","pricing_plan_id":"cebpf4jnsgd1na2vs0mg"},{"bike_id":"6ef18dd7-1cb9-4ef6-bfdd-052cde57f183","system_id":"levelo_inurba_marseille","lat":43.3211,"lon":5.36778,"is_reserved":false,"is_disabled":false,"rental_uris":{"android":"levelo://app?vid=6ef18dd7-1cb9-4ef6-bfdd-052cde57f183","ios":"levelo://app?vid=6ef18dd7-1cb9-4ef6-bfdd-052cde57f183"},"vehicle_type_id":"4","last_reported":1743254158,"current_range_meters":16400,"station_id":"ce4bhrh2rcd13ifvqhug","pricing_plan_id":"cebpf4jnsgd1na2vs0mg"},{"bike_id":"0a054900-ac8c-4b77-a7f1-aac9c1d65319","system_id":"levelo_inurba_marseille","lat":43.22938,"lon":5.35382,"is_reserved":false,"is_disabled":false,"rental_uris":{"android":"levelo://app?vid=0a054900-ac8c-4b77-a7f1-aac9c1d65319","ios":"levelo://app?vid=0a054900-ac8c-4b77-a7f1-aac9c1d65319"},"vehicle_type_id":"4","last_reported":1743254158,"current_range_meters":16400,"station_id":"cpo3532slgdg3j2ikp40","pricing_plan_id":"cebpf4jnsgd1na2vs0mg"},{"bike_id":"8f670802-309d-48c2-b230-df4e76db70bf","system_id":"levelo_inurba_marseille","lat":43.29795,"lon":5.38089,"is_reserved":false,"is_disabled":false,"rental_uris":{"android":"levelo://app?vid=8f670802-309d-48c2-b230-df4e76db70bf","ios":"levelo://app?vid=8f670802-309d-48c2-b230-df4e76db70bf"},"vehicle_type_id":"4","last_reported":1743254158,"current_range_meters":16800,"station_id":"ce4bgip2rcd13ifvqbb0","pricing_plan_id":"cebpf4jnsgd1na2vs0mg"},{"bike_id":"dfbb6260-c784-4592-a1df-1e39e98bfefa","system_id":"levelo_inurba_marseille","lat":43.2842,"lon":5.34983,"is_reserved":false,"is_disabled":false,"rental_uris":{"android":"levelo://app?vid=dfbb6260-c784-4592-a1df-1e39e98bfefa","ios":"levelo://app?vid=dfbb6260-c784-4592-a1df-1e39e98bfefa"},"vehicle_type_id":"4","last_reported":1743254158,"current_range_meters":16800,"station_id":"ce4bhbh2rcd13ifvqepg","pricing_plan_id":"cebpf4jnsgd1na2vs0mg"},{"bike_id":"59359988-faf5-47a1-b5f8-d319a6e1abfa","system_id":"levelo_inurba_marseille","lat":43.2842,"lon":5.35,"is_reserved":false,"is_disabled":false,"rental_uris":{"android":"levelo://app?vid=59359988-faf5-47a1-b5f8-d319a6e1abfa","ios":"levelo://app?vid=59359988-faf5-47a1-b5f8-d319a6e1abfa"},"vehicle_type_id":"4","last_reported":1743254158,"current_range_meters":16800,"station_id":"ce4bhbh2rcd13ifvqepg","pricing_plan_id":"cebpf4jnsgd1na2vs0mg"},{"bike_id":"0f14b852-1aa6-42d4-8a90-13f9355e8f15","system_id":"levelo_inurba_marseille","lat":43.32369,"lon":5.38889,"is_reserved":false,"is_disabled":false,"rental_uris":{"android":"levelo://app?vid=0f14b852-1aa6-42d4-8a90-13f9355e8f15","ios":"levelo://app?vid=0f14b852-1aa6-42d4-8a90-13f9355e8f15"},"vehicle_type_id":"4","last_reported":1743254158,"current_range_meters":16800,"station_id":"ce4bhqp2rcd13ifvqhog","pricing_plan_id":"cebpf4jnsgd1na2vs0mg"},{"bike_id":"275bc6b6-1772-4183-a522-de0f246b39c2","system_id":"levelo_inurba_marseille","lat":43.31546,"lon":5.38815,"is_reserved":false,"is_disabled":false,"rental_uris":{"android":"levelo://app?vid=275bc6b6-1772-4183-a522-de0f246b39c2","ios":"levelo://app?vid=275bc6b6-1772-4183-a522-de0f246b39c2"},"vehicle_type_id":"4","last_reported":1743254158,"current_range_meters":17200,"station_id":"","pricing_plan_id":"cebpf4jnsgd1na2vs0mg"},{"bike_id":"33a3b4bf-5b9b-4b1e-a7e6-5faacf7c6f5b","system_id":"levelo_inurba_marseille","lat":43.29576,"lon":5.37508,"is_reserved":false,"is_disabled":false,"rental_uris":{"android":"levelo://app?vid=33a3b4bf-5b9b-4b1e-a7e6-5faacf7c6f5b","ios":"levelo://app?vid=33a3b4bf-5b9b-4b1e-a7e6-5faacf7c6f5b"},"vehicle_type_id":"4","last_reported":1743254158,"current_range_meters":17200,"station_id":"ce4bgh92rcd13ifvqb50","pricing_plan_id":"cebpf4jnsgd1na2vs0mg"},{"bike_id":"9805d1d8-e29e-42a0-9d63-f8bc2aea07c1","system_id":"levelo_inurba_marseille","lat":43.29235,"lon":5.36092,"is_reserved":false,"is_disabled":false,"rental_uris":{"android":"levelo://app?vid=9805d1d8-e29e-42a0-9d63-f8bc2aea07c1","ios":"levelo://app?vid=9805d1d8-e29e-42a0-9d63-f8bc2aea07c1"},"vehicle_type_id":"4","last_reported":1743254158,"current_range_meters":17200,"station_id":"ce4bhbh2rcd13ifvqeqg","pricing_plan_id":"cebpf4jnsgd1na2vs0mg"},{"bike_id":"fdeed6db-0560-4019-8cb5-1d3f4b61cfb0","system_id":"levelo_inurba_marseille","lat":43.27833,"lon":5.39206,"is_reserved":false,"is_disabled":false,"rental_uris":{"android":"levelo://app?vid=fdeed6db-0560-4019-8cb5-1d3f4b61cfb0","ios":"levelo://app?vid=fdeed6db-0560-4019-8cb5-1d3f4b61cfb0"},"vehicle_type_id":"4","last_reported":1743254158,"current_range_meters":17200,"station_id":"ce4bhjp2rcd13ifvqga0","pricing_plan_id":"cebpf4jnsgd1na2vs0mg"},{"bike_id":"df71da29-834c-4f21-8956-2a04ad82c5b2","system_id":"levelo_inurba_marseille","lat":43.29979,"lon":5.37183,"is_reserved":false,"is_disabled":false,"rental_uris":{"android":"levelo://app?vid=df71da29-834c-4f21-8956-2a04ad82c5b2","ios":"levelo://app?vid=df71da29-834c-4f21-8956-2a04ad82c5b2"},"vehicle_type_id":"4","last_reported":1743254158,"current_range_meters":17600,"station_id":"ce4bgr92rcd13ifvqc7g","pricing_plan_id":"cebpf4jnsgd1na2vs0mg"},{"bike_id":"4f21869f-c892-4ee0-8773-aaa43dd7dbf3","system_id":"levelo_inurba_marseille","lat":43.29032,"lon":5.39979,"is_reserved":false,"is_disabled":false,"rental_uris":{"android":"levelo://app?vid=4f21869f-c892-4ee0-8773-aaa43dd7dbf3","ios":"levelo://app?vid=4f21869f-c892-4ee0-8773-aaa43dd7dbf3"},"vehicle_type_id":"4","last_reported":1743254158,"current_range_meters":17600,"station_id":"ce4bh392rcd13ifvqdm0","pricing_plan_id":"cebpf4jnsgd1na2vs0mg"},{"bike_id":"ae3dba68-4ce8-426f-971e-86592f0daefc","system_id":"levelo_inurba_marseille","lat":43.28493,"lon":5.38418,"is_reserved":false,"is_disabled":false,"rental_uris":{"android":"levelo://app?vid=ae3dba68-4ce8-426f-971e-86592f0daefc","ios":"levelo://app?vid=ae3dba68-4ce8-426f-971e-86592f0daefc"},"vehicle_type_id":"4","last_reported":1743254158,"current_range_meters":17600,"station_id":"ce4bh512rcd13ifvqe3g","pricing_plan_id":"cebpf4jnsgd1na2vs0mg"},{"bike_id":"e5466320-8acb-4332-86b8-324583fe3bc2","system_id":"levelo_inurba_marseille","lat":43.292,"lon":5.3606,"is_reserved":false,"is_disabled":false,"rental_uris":{"android":"levelo://app?vid=e5466320-8acb-4332-86b8-324583fe3bc2","ios":"levelo://app?vid=e5466320-8acb-4332-86b8-324583fe3bc2"},"vehicle_type_id":"4","last_reported":1743254158,"current_range_meters":17600,"station_id":"ce4bhbh2rcd13ifvqeqg","pricing_plan_id":"cebpf4jnsgd1na2vs0mg"},{"bike_id":"d8f58a2a-3c84-4b3a-83fe-90a870a3a96e","system_id":"levelo_inurba_marseille","lat":43.27051,"lon":5.40289,"is_reserved":false,"is_disabled":false,"rental_uris":{"android":"levelo://app?vid=d8f58a2a-3c84-4b3a-83fe-90a870a3a96e","ios":"levelo://app?vid=d8f58a2a-3c84-4b3a-83fe-90a870a3a96e"},"vehicle_type_id":"4","last_reported":1743254158,"current_range_meters":17600,"station_id":"ce4bhk92rcd13ifvqgc0","pricing_plan_id":"cebpf4jnsgd1na2vs0mg"},{"bike_id":"8800990b-0588-4701-9f9b-d00ff201f1bf","system_id":"levelo_inurba_marseille","lat":43.31772,"lon":5.39002,"is_reserved":false,"is_disabled":false,"rental_uris":{"android":"levelo://app?vid=8800990b-0588-4701-9f9b-d00ff201f1bf","ios":"levelo://app?vid=8800990b-0588-4701-9f9b-d00ff201f1bf"},"vehicle_type_id":"4","last_reported":1743254158,"current_range_meters":17600,"station_id":"ce4bhqp2rcd13ifvqhng","pricing_plan_id":"cebpf4jnsgd1na2vs0mg"},{"bike_id":"76859129-4009-4843-90a4-dc4d2b65271a","system_id":"levelo_inurba_marseille","lat":43.24182,"lon":5.36395,"is_reserved":false,"is_disabled":false,"rental_uris":{"android":"levelo://app?vid=76859129-4009-4843-90a4-dc4d2b65271a","ios":"levelo://app?vid=76859129-4009-4843-90a4-dc4d2b65271a"},"vehicle_type_id":"4","last_reported":1743254158,"current_range_meters":17600,"station_id":"cpo36qri1sfpv3e86is0","pricing_plan_id":"cebpf4jnsgd1na2vs0mg"},{"bike_id":"5a33820a-c85e-49aa-bdc2-2267c5302469","system_id":"levelo_inurba_marseille","lat":43.29789,"lon":5.38102,"is_reserved":false,"is_disabled":false,"rental_uris":{"android":"levelo://app?vid=5a33820a-c85e-49aa-bdc2-2267c5302469","ios":"levelo://app?vid=5a33820a-c85e-49aa-bdc2-2267c5302469"},"vehicle_type_id":"4","last_reported":1743254158,"current_range_meters":18000,"station_id":"ce4bgip2rcd13ifvqbb0","pricing_plan_id":"cebpf4jnsgd1na2vs0mg"},{"bike_id":"3f039d29-9e9f-4853-9819-ce889faa55db","system_id":"levelo_inurba_marseille","lat":43.30892,"lon":5.37197,"is_reserved":false,"is_disabled":false,"rental_uris":{"android":"levelo://app?vid=3f039d29-9e9f-4853-9819-ce889faa55db","ios":"levelo://app?vid=3f039d29-9e9f-4853-9819-ce889faa55db"},"vehicle_type_id":"4","last_reported":1743254158,"current_range_meters":18000,"station_id":"ce4bguh2rcd13ifvqckg","pricing_plan_id":"cebpf4jnsgd1na2vs0mg"},{"bike_id":"8f3ba88f-fa34-4b04-bb1d-265aa01df6be","system_id":"levelo_inurba_marseille","lat":43.30487,"lon":5.37904,"is_reserved":false,"is_disabled":false,"rental_uris":{"android":"levelo://app?vid=8f3ba88f-fa34-4b04-bb1d-265aa01df6be","ios":"levelo://app?vid=8f3ba88f-fa34-4b04-bb1d-265aa01df6be"},"vehicle_type_id":"4","last_reported":1743254158,"current_range_meters":18000,"station_id":"ce4bgup2rcd13ifvqcn0","pricing_plan_id":"cebpf4jnsgd1na2vs0mg"},{"bike_id":"61153975-f249-41d7-8683-18f2d9def3e2","system_id":"levelo_inurba_marseille","lat":43.25495,"lon":5.37653,"is_reserved":false,"is_disabled":false,"rental_uris":{"android":"levelo://app?vid=61153975-f249-41d7-8683-18f2d9def3e2","ios":"levelo://app?vid=61153975-f249-41d7-8683-18f2d9def3e2"},"vehicle_type_id":"4","last_reported":1743254158,"current_range_meters":18000,"station_id":"ce4bhh12rcd13ifvqff0","pricing_plan_id":"cebpf4jnsgd1na2vs0mg"},{"bike_id":"3ec698cd-de7e-43e4-abfe-9cb6c63c0b7b","system_id":"levelo_inurba_marseille","lat":43.23962,"lon":5.36627,"is_reserved":false,"is_disabled":false,"rental_uris":{"android":"levelo://app?vid=3ec698cd-de7e-43e4-abfe-9cb6c63c0b7b","ios":"levelo://app?vid=3ec698cd-de7e-43e4-abfe-9cb6c63c0b7b"},"vehicle_type_id":"4","last_reported":1743254158,"current_range_meters":18000,"station_id":"ce4bhi12rcd13ifvqfp0","pricing_plan_id":"cebpf4jnsgd1na2vs0mg"},{"bike_id":"6a040e00-38eb-4674-af0c-55c7b09b4515","system_id":"levelo_inurba_marseille","lat":43.34145,"lon":5.40917,"is_reserved":false,"is_disabled":false,"rental_uris":{"android":"levelo://app?vid=6a040e00-38eb-4674-af0c-55c7b09b4515","ios":"levelo://app?vid=6a040e00-38eb-4674-af0c-55c7b09b4515"},"vehicle_type_id":"4","last_reported":1743254158,"current_range_meters":18000,"station_id":"ce4bhqh2rcd13ifvqhlg","pricing_plan_id":"cebpf4jnsgd1na2vs0mg"},{"bike_id":"c2e94277-389b-4482-ae7e-0f90e44fa1e2","system_id":"levelo_inurba_marseille","lat":43.32124,"lon":5.36791,"is_reserved":false,"is_disabled":false,"rental_uris":{"android":"levelo://app?vid=c2e94277-389b-4482-ae7e-0f90e44fa1e2","ios":"levelo://app?vid=c2e94277-389b-4482-ae7e-0f90e44fa1e2"},"vehicle_type_id":"4","last_reported":1743254158,"current_range_meters":18000,"station_id":"ce4bhrh2rcd13ifvqhug","pricing_plan_id":"cebpf4jnsgd1na2vs0mg"},{"bike_id":"694926d4-d5ca-4c63-b9c9-6c12742a2ce2","system_id":"levelo_inurba_marseille","lat":43.32115,"lon":5.36779,"is_reserved":false,"is_disabled":false,"rental_uris":{"android":"levelo://app?vid=694926d4-d5ca-4c63-b9c9-6c12742a2ce2","ios":"levelo://app?vid=694926d4-d5ca-4c63-b9c9-6c12742a2ce2"},"vehicle_type_id":"4","last_reported":1743254158,"current_range_meters":18000,"station_id":"ce4bhrh2rcd13ifvqhug","pricing_plan_id":"cebpf4jnsgd1na2vs0mg"},{"bike_id":"1959cc84-d2d5-4b16-bac3-c017c27eb3d7","system_id":"levelo_inurba_marseille","lat":43.32357,"lon":5.36767,"is_reserved":false,"is_disabled":false,"rental_uris":{"android":"levelo://app?vid=1959cc84-d2d5-4b16-bac3-c017c27eb3d7","ios":"levelo://app?vid=1959cc84-d2d5-4b16-bac3-c017c27eb3d7"},"vehicle_type_id":"4","last_reported":1743254158,"current_range_meters":18000,"station_id":"ce4bhsh2rcd13ifvqi2g","pricing_plan_id":"cebpf4jnsgd1na2vs0mg"},{"bike_id":"9d51dcfb-46be-429e-9029-37b10c1b056f","system_id":"levelo_inurba_marseille","lat":43.28736,"lon":5.3608,"is_reserved":false,"is_disabled":false,"rental_uris":{"android":"levelo://app?vid=9d51dcfb-46be-429e-9029-37b10c1b056f","ios":"levelo://app?vid=9d51dcfb-46be-429e-9029-37b10c1b056f"},"vehicle_type_id":"4","last_reported":1743254158,"current_range_meters":18000,"station_id":"cki0cbj6b192h4jlfktg","pricing_plan_id":"cebpf4jnsgd1na2vs0mg"},{"bike_id":"31711933-4ed0-4ce7-bdb4-4bdcf01490e5","system_id":"levelo_inurba_marseille","lat":43.29569,"lon":5.37521,"is_reserved":false,"is_disabled":false,"rental_uris":{"android":"levelo://app?vid=31711933-4ed0-4ce7-bdb4-4bdcf01490e5","ios":"levelo://app?vid=31711933-4ed0-4ce7-bdb4-4bdcf01490e5"},"vehicle_type_id":"4","last_reported":1743254158,"current_range_meters":18800,"station_id":"ce4bgh92rcd13ifvqb50","pricing_plan_id":"cebpf4jnsgd1na2vs0mg"},{"bike_id":"c9700666-f238-44ca-9d9a-9df7bf9eab1a","system_id":"levelo_inurba_marseille","lat":43.29261,"lon":5.37634,"is_reserved":false,"is_disabled":false,"rental_uris":{"android":"levelo://app?vid=c9700666-f238-44ca-9d9a-9df7bf9eab1a","ios":"levelo://app?vid=c9700666-f238-44ca-9d9a-9df7bf9eab1a"},"vehicle_type_id":"4","last_reported":1743254158,"current_range_meters":18800,"station_id":"ce4bgi12rcd13ifvqb80","pricing_plan_id":"cebpf4jnsgd1na2vs0mg"},{"bike_id":"b90ea539-cd4c-4e2f-8708-ffa01e215a77","system_id":"levelo_inurba_marseille","lat":43.29705,"lon":5.3661,"is_reserved":false,"is_disabled":false,"rental_uris":{"android":"levelo://app?vid=b90ea539-cd4c-4e2f-8708-ffa01e215a77","ios":"levelo://app?vid=b90ea539-cd4c-4e2f-8708-ffa01e215a77"},"vehicle_type_id":"4","last_reported":1743254158,"current_range_meters":18800,"station_id":"ce4bgn12rcd13ifvqbt0","pricing_plan_id":"cebpf4jnsgd1na2vs0mg"},{"bike_id":"06701f9f-7f3e-464a-aa75-f1eec58ebc8b","system_id":"levelo_inurba_marseille","lat":43.29618,"lon":5.37189,"is_reserved":false,"is_disabled":false,"rental_uris":{"android":"levelo://app?vid=06701f9f-7f3e-464a-aa75-f1eec58ebc8b","ios":"levelo://app?vid=06701f9f-7f3e-464a-aa75-f1eec58ebc8b"},"vehicle_type_id":"4","last_reported":1743254158,"current_range_meters":18800,"station_id":"ce4bgnh2rcd13ifvqc0g","pricing_plan_id":"cebpf4jnsgd1na2vs0mg"},{"bike_id":"2bc85d29-2c0c-444a-8d94-687c0950b612","system_id":"levelo_inurba_marseille","lat":43.286697,"lon":5.386693,"is_reserved":false,"is_disabled":false,"rental_uris":{"android":"levelo://app?vid=2bc85d29-2c0c-444a-8d94-687c0950b612","ios":"levelo://app?vid=2bc85d29-2c0c-444a-8d94-687c0950b612"},"vehicle_type_id":"4","last_reported":1743254158,"current_range_meters":18800,"station_id":"ce4bhbp2rcd13ifvqerg","pricing_plan_id":"cebpf4jnsgd1na2vs0mg"},{"bike_id":"d2bdab8d-508c-4617-a487-d6f2ad6bec6a","system_id":"levelo_inurba_marseille","lat":43.28632,"lon":5.35088,"is_reserved":false,"is_disabled":false,"rental_uris":{"android":"levelo://app?vid=d2bdab8d-508c-4617-a487-d6f2ad6bec6a","ios":"levelo://app?vid=d2bdab8d-508c-4617-a487-d6f2ad6bec6a"},"vehicle_type_id":"4","last_reported":1743254158,"current_range_meters":18800,"station_id":"ce4bhch2rcd13ifvqeug","pricing_plan_id":"cebpf4jnsgd1na2vs0mg"},{"bike_id":"7bcef57b-2b32-4033-b8b4-6fd7fe51a930","system_id":"levelo_inurba_marseille","lat":43.2862,"lon":5.35108,"is_reserved":false,"is_disabled":false,"rental_uris":{"android":"levelo://app?vid=7bcef57b-2b32-4033-b8b4-6fd7fe51a930","ios":"levelo://app?vid=7bcef57b-2b32-4033-b8b4-6fd7fe51a930"},"vehicle_type_id":"4","last_reported":1743254158,"current_range_meters":18800,"station_id":"ce4bhch2rcd13ifvqeug","pricing_plan_id":"cebpf4jnsgd1na2vs0mg"},{"bike_id":"e5e87896-fc79-4739-9748-f5cd1d13e44f","system_id":"levelo_inurba_marseille","lat":43.28621,"lon":5.35101,"is_reserved":false,"is_disabled":false,"rental_uris":{"android":"levelo://app?vid=e5e87896-fc79-4739-9748-f5cd1d13e44f","ios":"levelo://app?vid=e5e87896-fc79-4739-9748-f5cd1d13e44f"},"vehicle_type_id":"4","last_reported":1743254158,"current_range_meters":18800,"station_id":"ce4bhch2rcd13ifvqeug","pricing_plan_id":"cebpf4jnsgd1na2vs0mg"},{"bike_id":"e8de58a3-6afa-4840-a370-eac97854e008","system_id":"levelo_inurba_marseille","lat":43.275677,"lon":5.384166,"is_reserved":false,"is_disabled":false,"rental_uris":{"android":"levelo://app?vid=e8de58a3-6afa-4840-a370-eac97854e008","ios":"levelo://app?vid=e8de58a3-6afa-4840-a370-eac97854e008"},"vehicle_type_id":"4","last_reported":1743254158,"current_range_meters":18800,"station_id":"ce4bhh92rcd13ifvqfi0","pricing_plan_id":"cebpf4jnsgd1na2vs0mg"},{"bike_id":"4f56fdeb-39bf-4f19-a5a9-41ea1f05f69a","system_id":"levelo_inurba_marseille","lat":43.23973,"lon":5.36626,"is_reserved":false,"is_disabled":false,"rental_uris":{"android":"levelo://app?vid=4f56fdeb-39bf-4f19-a5a9-41ea1f05f69a","ios":"levelo://app?vid=4f56fdeb-39bf-4f19-a5a9-41ea1f05f69a"},"vehicle_type_id":"4","last_reported":1743254158,"current_range_meters":18800,"station_id":"ce4bhi12rcd13ifvqfp0","pricing_plan_id":"cebpf4jnsgd1na2vs0mg"},{"bike_id":"7a070eb5-8e7b-4360-9797-f23d50f0edd9","system_id":"levelo_inurba_marseille","lat":43.255805,"lon":5.382548,"is_reserved":false,"is_disabled":false,"rental_uris":{"android":"levelo://app?vid=7a070eb5-8e7b-4360-9797-f23d50f0edd9","ios":"levelo://app?vid=7a070eb5-8e7b-4360-9797-f23d50f0edd9"},"vehicle_type_id":"4","last_reported":1743254158,"current_range_meters":18800,"station_id":"ce4bhih2rcd13ifvqfs0","pricing_plan_id":"cebpf4jnsgd1na2vs0mg"},{"bike_id":"12901520-4ca0-4bec-90a1-c5dc7842ac08","system_id":"levelo_inurba_marseille","lat":43.262,"lon":5.37926,"is_reserved":false,"is_disabled":false,"rental_uris":{"android":"levelo://app?vid=12901520-4ca0-4bec-90a1-c5dc7842ac08","ios":"levelo://app?vid=12901520-4ca0-4bec-90a1-c5dc7842ac08"},"vehicle_type_id":"4","last_reported":1743254158,"current_range_meters":18800,"station_id":"ce4bhjp2rcd13ifvqg90","pricing_plan_id":"cebpf4jnsgd1na2vs0mg"},{"bike_id":"a29c3221-37c4-4f9f-adba-e2e894ba8816","system_id":"levelo_inurba_marseille","lat":43.3036,"lon":5.41897,"is_reserved":false,"is_disabled":false,"rental_uris":{"android":"levelo://app?vid=a29c3221-37c4-4f9f-adba-e2e894ba8816","ios":"levelo://app?vid=a29c3221-37c4-4f9f-adba-e2e894ba8816"},"vehicle_type_id":"4","last_reported":1743254158,"current_range_meters":18800,"station_id":"ce4bhop2rcd13ifvqh7g","pricing_plan_id":"cebpf4jnsgd1na2vs0mg"},{"bike_id":"4f2689ca-f17f-471e-b639-2f7ebd16078d","system_id":"levelo_inurba_marseille","lat":43.29773,"lon":5.37648,"is_reserved":false,"is_disabled":false,"rental_uris":{"android":"levelo://app?vid=4f2689ca-f17f-471e-b639-2f7ebd16078d","ios":"levelo://app?vid=4f2689ca-f17f-471e-b639-2f7ebd16078d"},"vehicle_type_id":"4","last_reported":1743254158,"current_range_meters":19200,"station_id":"","pricing_plan_id":"cebpf4jnsgd1na2vs0mg"},{"bike_id":"66315497-0de9-4e58-a2b9-12473a30aefa","system_id":"levelo_inurba_marseille","lat":43.2961,"lon":5.3774,"is_reserved":false,"is_disabled":false,"rental_uris":{"android":"levelo://app?vid=66315497-0de9-4e58-a2b9-12473a30aefa","ios":"levelo://app?vid=66315497-0de9-4e58-a2b9-12473a30aefa"},"vehicle_type_id":"4","last_reported":1743254158,"current_range_meters":19200,"station_id":"ce4bgi92rcd13ifvqb90","pricing_plan_id":"cebpf4jnsgd1na2vs0mg"},{"bike_id":"9e02d2bc-9d76-410f-8767-0d770ca8c3f2","system_id":"levelo_inurba_marseille","lat":43.28435,"lon":5.34976,"is_reserved":false,"is_disabled":false,"rental_uris":{"android":"levelo://app?vid=9e02d2bc-9d76-410f-8767-0d770ca8c3f2","ios":"levelo://app?vid=9e02d2bc-9d76-410f-8767-0d770ca8c3f2"},"vehicle_type_id":"4","last_reported":1743254158,"current_range_meters":19200,"station_id":"ce4bhbh2rcd13ifvqepg","pricing_plan_id":"cebpf4jnsgd1na2vs0mg"},{"bike_id":"e48e60a8-fa6f-4cda-9a5a-cc375bfd4f06","system_id":"levelo_inurba_marseille","lat":43.27424,"lon":5.39423,"is_reserved":false,"is_disabled":false,"rental_uris":{"android":"levelo://app?vid=e48e60a8-fa6f-4cda-9a5a-cc375bfd4f06","ios":"levelo://app?vid=e48e60a8-fa6f-4cda-9a5a-cc375bfd4f06"},"vehicle_type_id":"4","last_reported":1743254158,"current_range_meters":19200,"station_id":"ce4bhdp2rcd13ifvqf20","pricing_plan_id":"cebpf4jnsgd1na2vs0mg"},{"bike_id":"8caffe95-fe96-4277-a5bf-959956f86d40","system_id":"levelo_inurba_marseille","lat":43.278275,"lon":5.387844,"is_reserved":false,"is_disabled":false,"rental_uris":{"android":"levelo://app?vid=8caffe95-fe96-4277-a5bf-959956f86d40","ios":"levelo://app?vid=8caffe95-fe96-4277-a5bf-959956f86d40"},"vehicle_type_id":"4","last_reported":1743254158,"current_range_meters":19200,"station_id":"ce4bhgp2rcd13ifvqfe0","pricing_plan_id":"cebpf4jnsgd1na2vs0mg"},{"bike_id":"d669a18a-85e7-494a-bb22-92ed647191d9","system_id":"levelo_inurba_marseille","lat":43.25113,"lon":5.40323,"is_reserved":false,"is_disabled":false,"rental_uris":{"android":"levelo://app?vid=d669a18a-85e7-494a-bb22-92ed647191d9","ios":"levelo://app?vid=d669a18a-85e7-494a-bb22-92ed647191d9"},"vehicle_type_id":"4","last_reported":1743254158,"current_range_meters":19200,"station_id":"ce4bhlh2rcd13ifvqgig","pricing_plan_id":"cebpf4jnsgd1na2vs0mg"},{"bike_id":"8e69e7f9-76b5-4d0a-8b34-45d50fc637f3","system_id":"levelo_inurba_marseille","lat":43.24045,"lon":5.37802,"is_reserved":false,"is_disabled":false,"rental_uris":{"android":"levelo://app?vid=8e69e7f9-76b5-4d0a-8b34-45d50fc637f3","ios":"levelo://app?vid=8e69e7f9-76b5-4d0a-8b34-45d50fc637f3"},"vehicle_type_id":"4","last_reported":1743254158,"current_range_meters":19200,"station_id":"ce4bhnp2rcd13ifvqgvg","pricing_plan_id":"cebpf4jnsgd1na2vs0mg"},{"bike_id":"57690d29-f10a-46c0-9fff-964c246e1e63","system_id":"levelo_inurba_marseille","lat":43.28014,"lon":5.39992,"is_reserved":false,"is_disabled":false,"rental_uris":{"android":"levelo://app?vid=57690d29-f10a-46c0-9fff-964c246e1e63","ios":"levelo://app?vid=57690d29-f10a-46c0-9fff-964c246e1e63"},"vehicle_type_id":"4","last_reported":1743254158,"current_range_meters":19200,"station_id":"ce4bho92rcd13ifvqh4g","pricing_plan_id":"cebpf4jnsgd1na2vs0mg"},{"bike_id":"55e869dc-64f6-45e8-941c-a5074a695606","system_id":"levelo_inurba_marseille","lat":43.32056,"lon":5.41578,"is_reserved":false,"is_disabled":false,"rental_uris":{"android":"levelo://app?vid=55e869dc-64f6-45e8-941c-a5074a695606","ios":"levelo://app?vid=55e869dc-64f6-45e8-941c-a5074a695606"},"vehicle_type_id":"4","last_reported":1743254158,"current_range_meters":19200,"station_id":"ce4bhq92rcd13ifvqhkg","pricing_plan_id":"cebpf4jnsgd1na2vs0mg"},{"bike_id":"08e17b81-803a-452d-aba2-daf0fa004102","system_id":"levelo_inurba_marseille","lat":43.27625,"lon":5.36108,"is_reserved":false,"is_disabled":false,"rental_uris":{"android":"levelo://app?vid=08e17b81-803a-452d-aba2-daf0fa004102","ios":"levelo://app?vid=08e17b81-803a-452d-aba2-daf0fa004102"},"vehicle_type_id":"4","last_reported":1743254158,"current_range_meters":19600,"station_id":"ce4bgj92rcd13ifvqbe0","pricing_plan_id":"cebpf4jnsgd1na2vs0mg"},{"bike_id":"961e5bf2-613b-4b98-8fef-cd7b43072479","system_id":"levelo_inurba_marseille","lat":43.25089,"lon":5.39533,"is_reserved":false,"is_disabled":false,"rental_uris":{"android":"levelo://app?vid=961e5bf2-613b-4b98-8fef-cd7b43072479","ios":"levelo://app?vid=961e5bf2-613b-4b98-8fef-cd7b43072479"},"vehicle_type_id":"4","last_reported":1743254158,"current_range_meters":19600,"station_id":"ce4bhm12rcd13ifvqgkg","pricing_plan_id":"cebpf4jnsgd1na2vs0mg"},{"bike_id":"b05232f0-cea9-497b-9e71-00a357552ffe","system_id":"levelo_inurba_marseille","lat":43.25874,"lon":5.39893,"is_reserved":false,"is_disabled":false,"rental_uris":{"android":"levelo://app?vid=b05232f0-cea9-497b-9e71-00a357552ffe","ios":"levelo://app?vid=b05232f0-cea9-497b-9e71-00a357552ffe"},"vehicle_type_id":"4","last_reported":1743254158,"current_range_meters":20000,"station_id":"ce4bhl92rcd13ifvqghg","pricing_plan_id":"cebpf4jnsgd1na2vs0mg"},{"bike_id":"bafe31a8-01f2-4141-9e3c-d19146ace516","system_id":"levelo_inurba_marseille","lat":43.27992,"lon":5.41666,"is_reserved":false,"is_disabled":false,"rental_uris":{"android":"levelo://app?vid=bafe31a8-01f2-4141-9e3c-d19146ace516","ios":"levelo://app?vid=bafe31a8-01f2-4141-9e3c-d19146ace516"},"vehicle_type_id":"4","last_reported":1743254158,"current_range_meters":20000,"station_id":"ce4bho12rcd13ifvqh1g","pricing_plan_id":"cebpf4jnsgd1na2vs0mg"},{"bike_id":"cf7f0a39-2f5d-4fe1-a270-5a230c13ad2c","system_id":"levelo_inurba_marseille","lat":43.29676,"lon":5.38181,"is_reserved":false,"is_disabled":false,"rental_uris":{"android":"levelo://app?vid=cf7f0a39-2f5d-4fe1-a270-5a230c13ad2c","ios":"levelo://app?vid=cf7f0a39-2f5d-4fe1-a270-5a230c13ad2c"},"vehicle_type_id":"4","last_reported":1743254158,"current_range_meters":20400,"station_id":"","pricing_plan_id":"cebpf4jnsgd1na2vs0mg"},{"bike_id":"45f16a3d-cbf4-4cde-9d18-26674e9871a4","system_id":"levelo_inurba_marseille","lat":43.300203,"lon":5.400128,"is_reserved":false,"is_disabled":false,"rental_uris":{"android":"levelo://app?vid=45f16a3d-cbf4-4cde-9d18-26674e9871a4","ios":"levelo://app?vid=45f16a3d-cbf4-4cde-9d18-26674e9871a4"},"vehicle_type_id":"4","last_reported":1743254158,"current_range_meters":20400,"station_id":"","pricing_plan_id":"cebpf4jnsgd1na2vs0mg"},{"bike_id":"ecda9a52-d766-41fe-9b2b-4fdc76feef9f","system_id":"levelo_inurba_marseille","lat":43.292026,"lon":5.357904,"is_reserved":false,"is_disabled":false,"rental_uris":{"android":"levelo://app?vid=ecda9a52-d766-41fe-9b2b-4fdc76feef9f","ios":"levelo://app?vid=ecda9a52-d766-41fe-9b2b-4fdc76feef9f"},"vehicle_type_id":"4","last_reported":1743254158,"current_range_meters":20400,"station_id":"ce4bgjh2rcd13ifvqbf0","pricing_plan_id":"cebpf4jnsgd1na2vs0mg"},