{"last_updated":1753474327,"ttl":60,"version":"2.2","data":{"bikes":[{"bike_id":"fdbd4682-6ebb-47fb-812d-bb778020832b","system_id":"levelo_inurba_marseille","lat":43.29687,"lon":5.37297,"is_reserved":false,"is_disabled":false,"rental_uris":{"android":"levelo://app?vid=fdbd4682-6ebb-47fb-812d-bb778020832b","ios":"levelo://app?vid=fdbd4682-6ebb-47fb-812d-bb778020832b"},"vehicle_type_id":"4","last_reported":1753474327,"current_range_meters":2800,"station_id":"ce4bgk12rcd13ifvqbj0","pricing_plan_id":"cebpf4jnsgd1na2vs0mg"},{"bike_id":"a03fafa8-5779-4c8b-bda9-6b8b46886dfa","system_id":"levelo_inurba_marseille","lat":43.26224,"lon":5.40454,"is_reserved":false,"is_disabled":false,"rental_uris":{"android":"levelo://app?vid=a03fafa8-5779-4c8b-bda9-6b8b46886dfa","ios":"levelo://app?vid=a03fafa8-5779-4c8b-bda9-6b8b46886dfa"},"vehicle_type_id":"4","last_reported":1753474327,"current_range_meters":2800,"station_id":"ce4bhmh2rcd13ifvqgmg","pricing_plan_id":"cebpf4jnsgd1na2vs0mg"},{"bike_id":"78df8312-f30b-4d27-bec7-f449b29ea888","system_id":"levelo_inurba_marseille","lat":43.28983,"lon":5.35657,"is_reserved":false,"is_disabled":true,"rental_uris":{"android":"levelo://app?vid=78df8312-f30b-4d27-bec7-f449b29ea888","ios":"levelo://app?vid=78df8312-f30b-4d27-bec7-f449b29ea888"},"vehicle_type_id":"4","last_reported":1753474327,"current_range_meters":3200,"station_id":"ce4bhb92rcd13ifvqen0","pricing_plan_id":"cebpf4jnsgd1na2vs0mg"},{"bike_id":"681045c0-a1ae-425a-a634-d8021f4323f5","system_id":"levelo_inurba_marseille","lat":43.28707,"lon":5.39989,"is_reserved":false,"is_disabled":false,"rental_uris":{"android":"levelo://app?vid=681045c0-a1ae-425a-a634-d8021f4323f5","ios":"levelo://app?vid=681045c0-a1ae-425a-a634-d8021f4323f5"},"vehicle_type_id":"4","last_reported":1753474327,"current_range_meters":3200,"station_id":"ce4bho92rcd13ifvqh3g","pricing_plan_id":"cebpf4jnsgd1na2vs0mg"},{"bike_id":"3ba0b88b-f91e-4947-83eb-6174217c1793","system_id":"levelo_inurba_marseille","lat":43.28932,"lon":5.36638,"is_reserved":false,"is_disabled":false,"rental_uris":{"android":"levelo://app?vid=3ba0b88b-f91e-4947-83eb-6174217c1793","ios":"levelo://app?vid=3ba0b88b-f91e-4947-83eb-6174217c1793"},"vehicle_type_id":"4","last_reported":1753474327,"current_range_meters":3600,"station_id":"ce4bhap2rcd13ifvqek0","pricing_plan_id":"cebpf4jnsgd1na2vs0mg"},{"bike_id":"248dc262-abc9-479b-a23f-e0844a318ed8","system_id":"levelo_inurba_marseille","lat":43.28614,"lon":5.35104,"is_reserved":false,"is_disabled":false,"rental_uris":{"android":"levelo://app?vid=248dc262-abc9-479b-a23f-e0844a318ed8","ios":"levelo://app?vid=248dc262-abc9-479b-a23f-e0844a318ed8"},"vehicle_type_id":"4","last_reported":1753474327,"current_range_meters":3200,"station_id":"ce4bhch2rcd13ifvqeug","pricing_plan_id":"cebpf4jnsgd1na2vs0mg"},{"bike_id":"fe65d7d6-638d-40a5-bccf-533e7cf482a6","system_id":"levelo_inurba_marseille","lat":43.28376,"lon":5.4328,"is_reserved":false,"is_disabled":false,"rental_uris":{"android":"levelo://app?vid=fe65d7d6-638d-40a5-bccf-533e7cf482a6","ios":"levelo://app?vid=fe65d7d6-638d-40a5-bccf-533e7cf482a6"},"vehicle_type_id":"4","last_reported":1753474327,"current_range_meters":3600,"station_id":"","pricing_plan_id":"cebpf4jnsgd1na2vs0mg"},{"bike_id":"ec10854a-1b12-483b-b7dd-8420c109aaca","system_id":"levelo_inurba_marseille","lat":43.28079,"lon":5.39663,"is_reserved":false,"is_disabled":false,"rental_uris":{"android":"levelo://app?vid=ec10854a-1b12-483b-b7dd-8420c109aaca","ios":"levelo://app?vid=ec10854a-1b12-483b-b7dd-8420c109aaca"},"vehicle_type_id":"4","last_reported":1753474327,"current_range_meters":3600,"station_id":"ce4bho12rcd13ifvqh2g","pricing_plan_id":"cebpf4jnsgd1na2vs0mg"},{"bike_id":"09447d92-0522-480e-b6b5-24959949ccf9","system_id":"levelo_inurba_marseille","lat":43.29618,"lon":5.37094,"is_reserved":false,"is_disabled":false,"rental_uris":{"android":"levelo://app?vid=09447d92-0522-480e-b6b5-24959949ccf9","ios":"levelo://app?vid=09447d92-0522-480e-b6b5-24959949ccf9"},"vehicle_type_id":"4","last_reported":1753474327,"current_range_meters":4000,"station_id":"","pricing_plan_id":"cebpf4jnsgd1na2vs0mg"},{"bike_id":"734beb0a-2b5b-4f92-a0b4-f138fc3076ee","system_id":"levelo_inurba_marseille","lat":43.22501,"lon":5.34789,"is_reserved":false,"is_disabled":false,"rental_uris":{"android":"levelo://app?vid=734beb0a-2b5b-4f92-a0b4-f138fc3076ee","ios":"levelo://app?vid=734beb0a-2b5b-4f92-a0b4-f138fc3076ee"},"vehicle_type_id":"4","last_reported":1753474327,"current_range_meters":4000,"station_id":"st_cvj5dfep6f1abm77gieg","pricing_plan_id":"cebpf4jnsgd1na2vs0mg"},{"bike_id":"0233cb8b-22b1-45ec-b161-5fd6acce7d0c","system_id":"levelo_inurba_marseille","lat":43.29611,"lon":5.3772,"is_reserved":false,"is_disabled":false,"rental_uris":{"android":"levelo://app?vid=0233cb8b-22b1-45ec-b161-5fd6acce7d0c","ios":"levelo://app?vid=0233cb8b-22b1-45ec-b161-5fd6acce7d0c"},"vehicle_type_id":"4","last_reported":1753474327,"current_range_meters":4400,"station_id":"ce4bgi92rcd13ifvqb90","pricing_plan_id":"cebpf4jnsgd1na2vs0mg"},{"bike_id":"6f1bf639-bba3-4774-8d33-6cb8945ca2b5","system_id":"levelo_inurba_marseille","lat":43.30798,"lon":5.37659,"is_reserved":false,"is_disabled":false,"rental_uris":{"android":"levelo://app?vid=6f1bf639-bba3-4774-8d33-6cb8945ca2b5","ios":"levelo://app?vid=6f1bf639-bba3-4774-8d33-6cb8945ca2b5"},"vehicle_type_id":"4","last_reported":1753474327,"current_range_meters":0,"station_id":"ce4bgv92rcd13ifvqcq0","pricing_plan_id":"cebpf4jnsgd1na2vs0mg"},{"bike_id":"4700061c-b816-4355-9d59-0a9db6d59629","system_id":"levelo_inurba_marseille","lat":43.28473,"lon":5.38414,"is_reserved":false,"is_disabled":false,"rental_uris":{"android":"levelo://app?vid=4700061c-b816-4355-9d59-0a9db6d59629","ios":"levelo://app?vid=4700061c-b816-4355-9d59-0a9db6d59629"},"vehicle_type_id":"4","last_reported":1753474327,"current_range_meters":4800,"station_id":"ce4bh512rcd13ifvqe3g","pricing_plan_id":"cebpf4jnsgd1na2vs0mg"},{"bike_id":"db69db10-9668-4a0f-b359-975b90afc314","system_id":"levelo_inurba_marseille","lat":43.25939,"lon":5.40903,"is_reserved":false,"is_disabled":false,"rental_uris":{"android":"levelo://app?vid=db69db10-9668-4a0f-b359-975b90afc314","ios":"levelo://app?vid=db69db10-9668-4a0f-b359-975b90afc314"},"vehicle_type_id":"4","last_reported":1753474327,"current_range_meters":4800,"station_id":"ce4bhm92rcd13ifvqglg","pricing_plan_id":"cebpf4jnsgd1na2vs0mg"},{"bike_id":"768da94c-2358-4a90-8602-8b4e496d4672","system_id":"levelo_inurba_marseille","lat":43.29848,"lon":5.36285,"is_reserved":false,"is_disabled":false,"rental_uris":{"android":"levelo://app?vid=768da94c-2358-4a90-8602-8b4e496d4672","ios":"levelo://app?vid=768da94c-2358-4a90-8602-8b4e496d4672"},"vehicle_type_id":"4","last_reported":1753474327,"current_range_meters":5600,"station_id":"ce4bgpp2rcd13ifvqc3g","pricing_plan_id":"cebpf4jnsgd1na2vs0mg"},{"bike_id":"536ad47b-126d-45fc-b47b-334252a60e67","system_id":"levelo_inurba_marseille","lat":43.296022,"lon":5.405106,"is_reserved":false,"is_disabled":false,"rental_uris":{"android":"levelo://app?vid=536ad47b-126d-45fc-b47b-334252a60e67","ios":"levelo://app?vid=536ad47b-126d-45fc-b47b-334252a60e67"},"vehicle_type_id":"4","last_reported":1753474327,"current_range_meters":5600,"station_id":"ce4bh0h2rcd13ifvqd60","pricing_plan_id":"cebpf4jnsgd1na2vs0mg"},{"bike_id":"0028e0f3-678c-4faf-ba9e-10adf41b64b0","system_id":"levelo_inurba_marseille","lat":43.23158,"lon":5.43697,"is_reserved":false,"is_disabled":false,"rental_uris":{"android":"levelo://app?vid=0028e0f3-678c-4faf-ba9e-10adf41b64b0","ios":"levelo://app?vid=0028e0f3-678c-4faf-ba9e-10adf41b64b0"},"vehicle_type_id":"4","last_reported":1753474327,"current_range_meters":6000,"station_id":"ce4bhmp2rcd13ifvqgog","pricing_plan_id":"cebpf4jnsgd1na2vs0mg"},{"bike_id":"fc66e122-c269-49d6-a1f7-f66beb092b39","system_id":"levelo_inurba_marseille","lat":43.299695,"lon":5.384942,"is_reserved":false,"is_disabled":false,"rental_uris":{"android":"levelo://app?vid=fc66e122-c269-49d6-a1f7-f66beb092b39","ios":"levelo://app?vid=fc66e122-c269-49d6-a1f7-f66beb092b39"},"vehicle_type_id":"4","last_reported":1753474327,"current_range_meters":6000,"station_id":"ce4bgj92rcd13ifvqbd0","pricing_plan_id":"cebpf4jnsgd1na2vs0mg"},{"bike_id":"d87b56f9-aec8-4c18-8340-d7aba9319bde","system_id":"levelo_inurba_marseille","lat":43.27495,"lon":5.39647,"is_reserved":false,"is_disabled":false,"rental_uris":{"android":"levelo://app?vid=d87b56f9-aec8-4c18-8340-d7aba9319bde","ios":"levelo://app?vid=d87b56f9-aec8-4c18-8340-d7aba9319bde"},"vehicle_type_id":"4","last_reported":1753474327,"current_range_meters":6000,"station_id":"","pricing_plan_id":"cebpf4jnsgd1na2vs0mg"},{"bike_id":"d6e67ec9-36a2-4615-bfd1-7c7dad1d0674","system_id":"levelo_inurba_marseille","lat":43.22503,"lon":5.34783,"is_reserved":false,"is_disabled":false,"rental_uris":{"android":"levelo://app?vid=d6e67ec9-36a2-4615-bfd1-7c7dad1d0674","ios":"levelo://app?vid=d6e67ec9-36a2-4615-bfd1-7c7dad1d0674"},"vehicle_type_id":"4","last_reported":1753474327,"current_range_meters":6000,"station_id":"st_cvj5dfep6f1abm77gieg","pricing_plan_id":"cebpf4jnsgd1na2vs0mg"},{"bike_id":"3843a00f-81d8-45fd-a52a-64868b9c8532","system_id":"levelo_inurba_marseille","lat":43.29776,"lon":5.37719,"is_reserved":false,"is_disabled":false,"rental_uris":{"android":"levelo://app?vid=3843a00f-81d8-45fd-a52a-64868b9c8532","ios":"levelo://app?vid=3843a00f-81d8-45fd-a52a-64868b9c8532"},"vehicle_type_id":"4","last_reported":1753474327,"current_range_meters":6000,"station_id":"","pricing_plan_id":"cebpf4jnsgd1na2vs0mg"},{"bike_id":"e08b99c5-7811-49ac-a8cb-1a96fe45211d","system_id":"levelo_inurba_marseille","lat":43.25726,"lon":5.41109,"is_reserved":false,"is_disabled":false,"rental_uris":{"android":"levelo://app?vid=e08b99c5-7811-49ac-a8cb-1a96fe45211d","ios":"levelo://app?vid=e08b99c5-7811-49ac-a8cb-1a96fe45211d"},"vehicle_type_id":"4","last_reported":1753474327,"current_range_meters":5600,"station_id":"ce4bhkp2rcd13ifvqgd0","pricing_plan_id":"cebpf4jnsgd1na2vs0mg"},{"bike_id":"d26a0748-108f-4358-9684-913cdd65a543","system_id":"levelo_inurba_marseille","lat":43.32335,"lon":5.40622,"is_reserved":false,"is_disabled":false,"rental_uris":{"android":"levelo://app?vid=d26a0748-108f-4358-9684-913cdd65a543","ios":"levelo://app?vid=d26a0748-108f-4358-9684-913cdd65a543"},"vehicle_type_id":"4","last_reported":1753474327,"current_range_meters":6400,"station_id":"ce4bhq92rcd13ifvqhjg","pricing_plan_id":"cebpf4jnsgd1na2vs0mg"},{"bike_id":"e19cd9bd-8f1f-4909-a624-5af678243303","system_id":"levelo_inurba_marseille","lat":43.29073,"lon":5.39869,"is_reserved":false,"is_disabled":false,"rental_uris":{"android":"levelo://app?vid=e19cd9bd-8f1f-4909-a624-5af678243303","ios":"levelo://app?vid=e19cd9bd-8f1f-4909-a624-5af678243303"},"vehicle_type_id":"4","last_reported":1753474327,"current_range_meters":6400,"station_id":"","pricing_plan_id":"cebpf4jnsgd1na2vs0mg"},{"bike_id":"2140f963-c821-4f97-8f1d-0c232f523c3e","system_id":"levelo_inurba_marseille","lat":43.292572,"lon":5.384093,"is_reserved":false,"is_disabled":false,"rental_uris":{"android":"levelo://app?vid=2140f963-c821-4f97-8f1d-0c232f523c3e","ios":"levelo://app?vid=2140f963-c821-4f97-8f1d-0c232f523c3e"},"vehicle_type_id":"4","last_reported":1753474327,"current_range_meters":6400,"station_id":"ce4bh692rcd13ifvqea0","pricing_plan_id":"cebpf4jnsgd1na2vs0mg"},{"bike_id":"fa7ff071-de7f-454d-b111-26b9d91e2c20","system_id":"levelo_inurba_marseille","lat":43.295319,"lon":5.385356,"is_reserved":false,"is_disabled":false,"rental_uris":{"android":"levelo://app?vid=fa7ff071-de7f-454d-b111-26b9d91e2c20","ios":"levelo://app?vid=fa7ff071-de7f-454d-b111-26b9d91e2c20"},"vehicle_type_id":"4","last_reported":1753474327,"current_range_meters":6400,"station_id":"ce4bgih2rcd13ifvqba0","pricing_plan_id":"cebpf4jnsgd1na2vs0mg"},{"bike_id":"49a25020-c17f-426d-a295-c677da1110b3","system_id":"levelo_inurba_marseille","lat":43.26225,"lon":5.37455,"is_reserved":false,"is_disabled":true,"rental_uris":{"android":"levelo://app?vid=49a25020-c17f-426d-a295-c677da1110b3","ios":"levelo://app?vid=49a25020-c17f-426d-a295-c677da1110b3"},"vehicle_type_id":"4","last_reported":1753474327,"current_range_meters":6400,"station_id":"ce4bhgp2rcd13ifvqfc0","pricing_plan_id":"cebpf4jnsgd1na2vs0mg"},{"bike_id":"4c92f1e5-908f-4711-91b6-58f0ef2df769","system_id":"levelo_inurba_marseille","lat":43.29689,"lon":5.37288,"is_reserved":false,"is_disabled":false,"rental_uris":{"android":"levelo://app?vid=4c92f1e5-908f-4711-91b6-58f0ef2df769","ios":"levelo://app?vid=4c92f1e5-908f-4711-91b6-58f0ef2df769"},"vehicle_type_id":"4","last_reported":1753474327,"current_range_meters":6400,"station_id":"ce4bgk12rcd13ifvqbj0","pricing_plan_id":"cebpf4jnsgd1na2vs0mg"},{"bike_id":"f05e96f7-a338-4f1e-99c8-3e78f24884b3","system_id":"levelo_inurba_marseille","lat":43.29305,"lon":5.37172,"is_reserved":false,"is_disabled":false,"rental_uris":{"android":"levelo://app?vid=f05e96f7-a338-4f1e-99c8-3e78f24884b3","ios":"levelo://app?vid=f05e96f7-a338-4f1e-99c8-3e78f24884b3"},"vehicle_type_id":"4","last_reported":1753474327,"current_range_meters":6400,"station_id":"ce4bgh92rcd13ifvqb40","pricing_plan_id":"cebpf4jnsgd1na2vs0mg"},{"bike_id":"b924f639-91c5-4b65-a5bb-742cfa0af94e","system_id":"levelo_inurba_marseille","lat":43.303052,"lon":5.404399,"is_reserved":false,"is_disabled":false,"rental_uris":{"android":"levelo://app?vid=b924f639-91c5-4b65-a5bb-742cfa0af94e","ios":"levelo://app?vid=b924f639-91c5-4b65-a5bb-742cfa0af94e"},"vehicle_type_id":"4","last_reported":1753474327,"current_range_meters":6800,"station_id":"ce4bh012rcd13ifvqd10","pricing_plan_id":"cebpf4jnsgd1na2vs0mg"},{"bike_id":"1051cbe3-1cf4-4f99-9fb6-b8b99c3aa259","system_id":"levelo_inurba_marseille","lat":43.29843,"lon":5.36275,"is_reserved":false,"is_disabled":false,"rental_uris":{"android":"levelo://app?vid=1051cbe3-1cf4-4f99-9fb6-b8b99c3aa259","ios":"levelo://app?vid=1051cbe3-1cf4-4f99-9fb6-b8b99c3aa259"},"vehicle_type_id":"4","last_reported":1753474327,"current_range_meters":1600,"station_id":"ce4bgpp2rcd13ifvqc3g","pricing_plan_id":"cebpf4jnsgd1na2vs0mg"},{"bike_id":"fcf5fc25-d4da-4309-9431-9a34b3a81ae7","system_id":"levelo_inurba_marseille","lat":43.292686,"lon":5.384434,"is_reserved":false,"is_disabled":false,"rental_uris":{"android":"levelo://app?vid=fcf5fc25-d4da-4309-9431-9a34b3a81ae7","ios":"levelo://app?vid=fcf5fc25-d4da-4309-9431-9a34b3a81ae7"},"vehicle_type_id":"4","last_reported":1753474327,"current_range_meters":6800,"station_id":"ce4bhb92rcd13ifvqen0","pricing_plan_id":"cebpf4jnsgd1na2vs0mg"},{"bike_id":"8d55560e-f479-4223-9a0c-3e71b96ca70f","system_id":"levelo_inurba_marseille","lat":43.25821,"lon":5.39435,"is_reserved":false,"is_disabled":false,"rental_uris":{"android":"levelo://app?vid=8d55560e-f479-4223-9a0c-3e71b96ca70f","ios":"levelo://app?vid=8d55560e-f479-4223-9a0c-3e71b96ca70f"},"vehicle_type_id":"4","last_reported":1753474327,"current_range_meters":7200,"station_id":"ce4bhip2rcd13ifvqft0","pricing_plan_id":"cebpf4jnsgd1na2vs0mg"},{"bike_id":"32604809-152d-45f8-999a-780a689f868f","system_id":"levelo_inurba_marseille","lat":43.25503,"lon":5.37655,"is_reserved":false,"is_disabled":false,"rental_uris":{"android":"levelo://app?vid=32604809-152d-45f8-999a-780a689f868f","ios":"levelo://app?vid=32604809-152d-45f8-999a-780a689f868f"},"vehicle_type_id":"4","last_reported":1753474327,"current_range_meters":7200,"station_id":"ce4bhh12rcd13ifvqff0","pricing_plan_id":"cebpf4jnsgd1na2vs0mg"},{"bike_id":"bcfeb788-eed8-4a22-9566-78b3af0fa09b","system_id":"levelo_inurba_marseille","lat":43.298991,"lon":5.375883,"is_reserved":false,"is_disabled":false,"rental_uris":{"android":"levelo://app?vid=bcfeb788-eed8-4a22-9566-78b3af0fa09b","ios":"levelo://app?vid=bcfeb788-eed8-4a22-9566-78b3af0fa09b"},"vehicle_type_id":"4","last_reported":1753474327,"current_range_meters":7200,"station_id":"","pricing_plan_id":"cebpf4jnsgd1na2vs0mg"},{"bike_id":"b93c0803-f824-4cb7-a4ed-57da1403b68e","system_id":"levelo_inurba_marseille","lat":43.325583,"lon":5.379059,"is_reserved":false,"is_disabled":true,"rental_uris":{"android":"levelo://app?vid=b93c0803-f824-4cb7-a4ed-57da1403b68e","ios":"levelo://app?vid=b93c0803-f824-4cb7-a4ed-57da1403b68e"},"vehicle_type_id":"4","last_reported":1753474327,"current_range_meters":7200,"station_id":"","pricing_plan_id":"cebpf4jnsgd1na2vs0mg"},{"bike_id":"a33561e0-1786-4be7-9c7b-455bd41b5c61","system_id":"levelo_inurba_marseille","lat":43.33023,"lon":5.39044,"is_reserved":false,"is_disabled":false,"rental_uris":{"android":"levelo://app?vid=a33561e0-1786-4be7-9c7b-455bd41b5c61","ios":"levelo://app?vid=a33561e0-1786-4be7-9c7b-455bd41b5c61"},"vehicle_type_id":"4","last_reported":1753474327,"current_range_meters":7200,"station_id":"ce4bhr92rcd13ifvqhrg","pricing_plan_id":"cebpf4jnsgd1na2vs0mg"},{"bike_id":"87779585-93ab-4860-9632-1c11b54c2923","system_id":"levelo_inurba_marseille","lat":43.28079,"lon":5.39664,"is_reserved":false,"is_disabled":false,"rental_uris":{"android":"levelo://app?vid=87779585-93ab-4860-9632-1c11b54c2923","ios":"levelo://app?vid=87779585-93ab-4860-9632-1c11b54c2923"},"vehicle_type_id":"4","last_reported":1753474327,"current_range_meters":7200,"station_id":"ce4bho12rcd13ifvqh2g","pricing_plan_id":"cebpf4jnsgd1na2vs0mg"},{"bike_id":"51979a68-a8cc-400e-b7b9-cd8004031e65","system_id":"levelo_inurba_marseille","lat":43.22491,"lon":5.34761,"is_reserved":false,"is_disabled":false,"rental_uris":{"android":"levelo://app?vid=51979a68-a8cc-400e-b7b9-cd8004031e65","ios":"levelo://app?vid=51979a68-a8cc-400e-b7b9-cd8004031e65"},"vehicle_type_id":"4","last_reported":1753474327,"current_range_meters":7200,"station_id":"st_cvj5dfep6f1abm77gieg","pricing_plan_id":"cebpf4jnsgd1na2vs0mg"},{"bike_id":"b2d9b512-461e-4c22-8160-83c7cfb0cdf8","system_id":"levelo_inurba_marseille","lat":43.27955,"lon":5.41051,"is_reserved":false,"is_disabled":true,"rental_uris":{"android":"levelo://app?vid=b2d9b512-461e-4c22-8160-83c7cfb0cdf8","ios":"levelo://app?vid=b2d9b512-461e-4c22-8160-83c7cfb0cdf8"},"vehicle_type_id":"4","last_reported":1753474327,"current_range_meters":8000,"station_id":"ce4bhnp2rcd13ifvqh0g","pricing_plan_id":"cebpf4jnsgd1na2vs0mg"},{"bike_id":"7b8f0b84-b522-44ab-860c-924f0c398730","system_id":"levelo_inurba_marseille","lat":43.281524,"lon":5.426377,"is_reserved":false,"is_disabled":true,"rental_uris":{"android":"levelo://app?vid=7b8f0b84-b522-44ab-860c-924f0c398730","ios":"levelo://app?vid=7b8f0b84-b522-44ab-860c-924f0c398730"},"vehicle_type_id":"4","last_reported":1753474327,"current_range_meters":8000,"station_id":"ce4bhnh2rcd13ifvqgug","pricing_plan_id":"cebpf4jnsgd1na2vs0mg"},{"bike_id":"88713064-73b6-47c5-8baf-21f8c90f1d38","system_id":"levelo_inurba_marseille","lat":43.30685,"lon":5.38212,"is_reserved":false,"is_disabled":false,"rental_uris":{"android":"levelo://app?vid=88713064-73b6-47c5-8baf-21f8c90f1d38","ios":"levelo://app?vid=88713064-73b6-47c5-8baf-21f8c90f1d38"},"vehicle_type_id":"4","last_reported":1753474327,"current_range_meters":8000,"station_id":"","pricing_plan_id":"cebpf4jnsgd1na2vs0mg"},{"bike_id":"c58099c8-7cc0-4289-89bc-b0f44b686697","system_id":"levelo_inurba_marseille","lat":43.28077,"lon":5.39662,"is_reserved":false,"is_disabled":false,"rental_uris":{"android":"levelo://app?vid=c58099c8-7cc0-4289-89bc-b0f44b686697","ios":"levelo://app?vid=c58099c8-7cc0-4289-89bc-b0f44b686697"},"vehicle_type_id":"4","last_reported":1753474327,"current_range_meters":8000,"station_id":"ce4bho12rcd13ifvqh2g","pricing_plan_id":"cebpf4jnsgd1na2vs0mg"},{"bike_id":"23c42e1a-a9a2-4717-9129-5acee2613199","system_id":"levelo_inurba_marseille","lat":43.30606,"lon":5.3723,"is_reserved":false,"is_disabled":false,"rental_uris":{"android":"levelo://app?vid=23c42e1a-a9a2-4717-9129-5acee2613199","ios":"levelo://app?vid=23c42e1a-a9a2-4717-9129-5acee2613199"},"vehicle_type_id":"4","last_reported":1753474327,"current_range_meters":8000,"station_id":"ce4bgqh2rcd13ifvqc4g","pricing_plan_id":"cebpf4jnsgd1na2vs0mg"},{"bike_id":"2982f92d-87cc-4cb9-8c02-e871843fba1c","system_id":"levelo_inurba_marseille","lat":43.35007,"lon":5.35037,"is_reserved":false,"is_disabled":false,"rental_uris":{"android":"levelo://app?vid=2982f92d-87cc-4cb9-8c02-e871843fba1c","ios":"levelo://app?vid=2982f92d-87cc-4cb9-8c02-e871843fba1c"},"vehicle_type_id":"4","last_reported":1753474327,"current_range_meters":8000,"station_id":"","pricing_plan_id":"cebpf4jnsgd1na2vs0mg"},{"bike_id":"1e89c01f-1bad-42b9-8bfc-3b1181a0cf9b","system_id":"levelo_inurba_marseille","lat":43.29692,"lon":5.37294,"is_reserved":false,"is_disabled":false,"rental_uris":{"android":"levelo://app?vid=1e89c01f-1bad-42b9-8bfc-3b1181a0cf9b","ios":"levelo://app?vid=1e89c01f-1bad-42b9-8bfc-3b1181a0cf9b"},"vehicle_type_id":"4","last_reported":1753474327,"current_range_meters":8000,"station_id":"ce4bgk12rcd13ifvqbj0","pricing_plan_id":"cebpf4jnsgd1na2vs0mg"},{"bike_id":"0faff5a6-7845-401b-9705-302799bd0ce4","system_id":"levelo_inurba_marseille","lat":43.29748,"lon":5.37925,"is_reserved":false,"is_disabled":false,"rental_uris":{"android":"levelo://app?vid=0faff5a6-7845-401b-9705-302799bd0ce4","ios":"levelo://app?vid=0faff5a6-7845-401b-9705-302799bd0ce4"},"vehicle_type_id":"4","last_reported":1753474327,"current_range_meters":8400,"station_id":"","pricing_plan_id":"cebpf4jnsgd1na2vs0mg"},{"bike_id":"169c2103-4465-4d25-aef5-3766b2a4204b","system_id":"levelo_inurba_marseille","lat":43.28996,"lon":5.35604,"is_reserved":false,"is_disabled":true,"rental_uris":{"android":"levelo://app?vid=169c2103-4465-4d25-aef5-3766b2a4204b","ios":"levelo://app?vid=169c2103-4465-4d25-aef5-3766b2a4204b"},"vehicle_type_id":"4","last_reported":1753474327,"current_range_meters":8400,"station_id":"ce4bhb92rcd13ifvqen0","pricing_plan_id":"cebpf4jnsgd1na2vs0mg"},{"bike_id":"65fabc23-cf2a-4ca8-a868-9941476ce202","system_id":"levelo_inurba_marseille","lat":43.23638,"lon":5.36217,"is_reserved":false,"is_disabled":false,"rental_uris":{"android":"levelo://app?vid=65fabc23-cf2a-4ca8-a868-9941476ce202","ios":"levelo://app?vid=65fabc23-cf2a-4ca8-a868-9941476ce202"},"vehicle_type_id":"4","last_reported":1753474327,"current_range_meters":8400,"station_id":"","pricing_plan_id":"cebpf4jnsgd1na2vs0mg"},{"bike_id":"04a22b28-6741-4a04-b149-00f09fc6165f","system_id":"levelo_inurba_marseille","lat":43.24665,"lon":5.3816,"is_reserved":false,"is_disabled":false,"rental_uris":{"android":"levelo://app?vid=04a22b28-6741-4a04-b149-00f09fc6165f","ios":"levelo://app?vid=04a22b28-6741-4a04-b149-00f09fc6165f"},"vehicle_type_id":"4","last_reported":1753474327,"current_range_meters":8000,"station_id":"ce4bhih2rcd13ifvqfr0","pricing_plan_id":"cebpf4jnsgd1na2vs0mg"},{"bike_id":"f28d2bb9-4217-4196-a573-ba6f4c172497","system_id":"levelo_inurba_marseille","lat":43.281574,"lon":5.361145,"is_reserved":false,"is_disabled":false,"rental_uris":{"android":"levelo://app?vid=f28d2bb9-4217-4196-a573-ba6f4c172497","ios":"levelo://app?vid=f28d2bb9-4217-4196-a573-ba6f4c172497"},"vehicle_type_id":"4","last_reported":1753474327,"current_range_meters":8400,"station_id":"","pricing_plan_id":"cebpf4jnsgd1na2vs0mg"},{"bike_id":"fd4ba70a-7bfa-434e-8564-04bf25cc9f63","system_id":"levelo_inurba_marseille","lat":43.28099,"lon":5.44117,"is_reserved":false,"is_disabled":false,"rental_uris":{"android":"levelo://app?vid=fd4ba70a-7bfa-434e-8564-04bf25cc9f63","ios":"levelo://app?vid=fd4ba70a-7bfa-434e-8564-04bf25cc9f63"},"vehicle_type_id":"4","last_reported":1753474327,"current_range_meters":8400,"station_id":"","pricing_plan_id":"cebpf4jnsgd1na2vs0mg"},{"bike_id":"48cde8ee-f318-40b4-8463-89cd03db226b","system_id":"levelo_inurba_marseille","lat":43.31329,"lon":5.3969,"is_reserved":false,"is_disabled":false,"rental_uris":{"android":"levelo://app?vid=48cde8ee-f318-40b4-8463-89cd03db226b","ios":"levelo://app?vid=48cde8ee-f318-40b4-8463-89cd03db226b"},"vehicle_type_id":"4","last_reported":1753474327,"current_range_meters":8400,"station_id":"ce4bgvp2rcd13ifvqcu0","pricing_plan_id":"cebpf4jnsgd1na2vs0mg"},{"bike_id":"68801fee-efc8-485b-a110-a36431796a83","system_id":"levelo_inurba_marseille","lat":43.29566,"lon":5.37511,"is_reserved":false,"is_disabled":true,"rental_uris":{"android":"levelo://app?vid=68801fee-efc8-485b-a110-a36431796a83","ios":"levelo://app?vid=68801fee-efc8-485b-a110-a36431796a83"},"vehicle_type_id":"4","last_reported":1753474327,"current_range_meters":8800,"station_id":"ce4bgh92rcd13ifvqb50","pricing_plan_id":"cebpf4jnsgd1na2vs0mg"},{"bike_id":"ab18ad8f-5eb3-4500-abe1-f62e948a9104","system_id":"levelo_inurba_marseille","lat":43.225084,"lon":5.347844,"is_reserved":false,"is_disabled":false,"rental_uris":{"android":"levelo://app?vid=ab18ad8f-5eb3-4500-abe1-f62e948a9104","ios":"levelo://app?vid=ab18ad8f-5eb3-4500-abe1-f62e948a9104"},"vehicle_type_id":"4","last_reported":1753474327,"current_range_meters":8800,"station_id":"st_cvj5dfep6f1abm77gieg","pricing_plan_id":"cebpf4jnsgd1na2vs0mg"},{"bike_id":"0f13069d-87ce-4a1d-8cde-43ec4bb6f13f","system_id":"levelo_inurba_marseille","lat":43.29849,"lon":5.36286,"is_reserved":false,"is_disabled":false,"rental_uris":{"android":"levelo://app?vid=0f13069d-87ce-4a1d-8cde-43ec4bb6f13f","ios":"levelo://app?vid=0f13069d-87ce-4a1d-8cde-43ec4bb6f13f"},"vehicle_type_id":"4","last_reported":1753474327,"current_range_meters":8400,"station_id":"ce4bgpp2rcd13ifvqc3g","pricing_plan_id":"cebpf4jnsgd1na2vs0mg"},{"bike_id":"99efeb1f-be9f-42b0-b3d4-8dda4ec44b79","system_id":"levelo_inurba_marseille","lat":43.2968,"lon":5.37303,"is_reserved":false,"is_disabled":false,"rental_uris":{"android":"levelo://app?vid=99efeb1f-be9f-42b0-b3d4-8dda4ec44b79","ios":"levelo://app?vid=99efeb1f-be9f-42b0-b3d4-8dda4ec44b79"},"vehicle_type_id":"4","last_reported":1753474327,"current_range_meters":8800,"station_id":"ce4bgk12rcd13ifvqbj0","pricing_plan_id":"cebpf4jnsgd1na2vs0mg"},{"bike_id":"6db9c63d-851a-4a31-b505-3a9297ae8a53","system_id":"levelo_inurba_marseille","lat":43.29446,"lon":5.38573,"is_reserved":false,"is_disabled":false,"rental_uris":{"android":"levelo://app?vid=6db9c63d-851a-4a31-b505-3a9297ae8a53","ios":"levelo://app?vid=6db9c63d-851a-4a31-b505-3a9297ae8a53"},"vehicle_type_id":"4","last_reported":1753474327,"current_range_meters":9200,"station_id":"","pricing_plan_id":"cebpf4jnsgd1na2vs0mg"},{"bike_id":"de2cce03-1218-4ed6-b192-208ca79e4514","system_id":"levelo_inurba_marseille","lat":43.29527,"lon":5.38536,"is_reserved":false,"is_disabled":false,"rental_uris":{"android":"levelo://app?vid=de2cce03-1218-4ed6-b192-208ca79e4514","ios":"levelo://app?vid=de2cce03-1218-4ed6-b192-208ca79e4514"},"vehicle_type_id":"4","last_reported":1753474327,"current_range_meters":9200,"station_id":"ce4bgih2rcd13ifvqba0","pricing_plan_id":"cebpf4jnsgd1na2vs0mg"},{"bike_id":"5b94eff9-2e0f-4c0e-b3f6-ab7ca2eca31a","system_id":"levelo_inurba_marseille","lat":43.27385,"lon":5.36265,"is_reserved":false,"is_disabled":true,"rental_uris":{"android":"levelo://app?vid=5b94eff9-2e0f-4c0e-b3f6-ab7ca2eca31a","ios":"levelo://app?vid=5b94eff9-2e0f-4c0e-b3f6-ab7ca2eca31a"},"vehicle_type_id":"4","last_reported":1753474327,"current_range_meters":9600,"station_id":"ce4bhbh2rcd13ifvqeo0","pricing_plan_id":"cebpf4jnsgd1na2vs0mg"},{"bike_id":"2e8e7fa4-47bc-4567-b903-96abfb4fdf66","system_id":"levelo_inurba_marseille","lat":43.29276,"lon":5.44586,"is_reserved":false,"is_disabled":false,"rental_uris":{"android":"levelo://app?vid=2e8e7fa4-47bc-4567-b903-96abfb4fdf66","ios":"levelo://app?vid=2e8e7fa4-47bc-4567-b903-96abfb4fdf66"},"vehicle_type_id":"4","last_reported":1753474327,"current_range_meters":9200,"station_id":"","pricing_plan_id":"cebpf4jnsgd1na2vs0mg"},{"bike_id":"8708bae9-dd19-4f85-aabc-d145003adfcc","system_id":"levelo_inurba_marseille","lat":43.32278,"lon":5.38296,"is_reserved":false,"is_disabled":false,"rental_uris":{"android":"levelo://app?vid=8708bae9-dd19-4f85-aabc-d145003adfcc","ios":"levelo://app?vid=8708bae9-dd19-4f85-aabc-d145003adfcc"},"vehicle_type_id":"4","last_reported":1753474327,"current_range_meters":9200,"station_id":"ce4bhr12rcd13ifvqhqg","pricing_plan_id":"cebpf4jnsgd1na2vs0mg"},{"bike_id":"d68eed52-fb6d-4481-8a57-8d8b15766274","system_id":"levelo_inurba_marseille","lat":43.30789,"lon":5.38175,"is_reserved":false,"is_disabled":false,"rental_uris":{"android":"levelo://app?vid=d68eed52-fb6d-4481-8a57-8d8b15766274","ios":"levelo://app?vid=d68eed52-fb6d-4481-8a57-8d8b15766274"},"vehicle_type_id":"4","last_reported":1753474327,"current_range_meters":12400,"station_id":"ce4bgt12rcd13ifvqce0","pricing_plan_id":"cebpf4jnsgd1na2vs0mg"},{"bike_id":"6b1f6cdd-f82b-412c-8018-8dbe848920ef","system_id":"levelo_inurba_marseille","lat":43.30869,"lon":5.3964,"is_reserved":false,"is_disabled":false,"rental_uris":{"android":"levelo://app?vid=6b1f6cdd-f82b-412c-8018-8dbe848920ef","ios":"levelo://app?vid=6b1f6cdd-f82b-412c-8018-8dbe848920ef"},"vehicle_type_id":"4","last_reported":1753474327,"current_range_meters":9200,"station_id":"ce4bh012rcd13ifvqcv0","pricing_plan_id":"cebpf4jnsgd1na2vs0mg"},{"bike_id":"a1676a90-aeae-4e28-8472-3e88e730a66f","system_id":"levelo_inurba_marseille","lat":43.29048,"lon":5.43967,"is_reserved":false,"is_disabled":false,"rental_uris":{"android":"levelo://app?vid=a1676a90-aeae-4e28-8472-3e88e730a66f","ios":"levelo://app?vid=a1676a90-aeae-4e28-8472-3e88e730a66f"},"vehicle_type_id":"4","last_reported":1753474327,"current_range_meters":9600,"station_id":"","pricing_plan_id":"cebpf4jnsgd1na2vs0mg"},{"bike_id":"dfcc000d-58bb-49d3-82b3-6b6a224f002f","system_id":"levelo_inurba_marseille","lat":43.2796,"lon":5.38702,"is_reserved":false,"is_disabled":false,"rental_uris":{"android":"levelo://app?vid=dfcc000d-58bb-49d3-82b3-6b6a224f002f","ios":"levelo://app?vid=dfcc000d-58bb-49d3-82b3-6b6a224f002f"},"vehicle_type_id":"4","last_reported":1753474327,"current_range_meters":9600,"station_id":"ce4bhg12rcd13ifvqf80","pricing_plan_id":"cebpf4jnsgd1na2vs0mg"},{"bike_id":"12e4e771-d9ed-4353-8d95-1555b0abd6b3","system_id":"levelo_inurba_marseille","lat":43.29646,"lon":5.37744,"is_reserved":false,"is_disabled":false,"rental_uris":{"android":"levelo://app?vid=12e4e771-d9ed-4353-8d95-1555b0abd6b3","ios":"levelo://app?vid=12e4e771-d9ed-4353-8d95-1555b0abd6b3"},"vehicle_type_id":"4","last_reported":1753474327,"current_range_meters":9600,"station_id":"ce4bgi92rcd13ifvqb90","pricing_plan_id":"cebpf4jnsgd1na2vs0mg"},{"bike_id":"c33ca5fe-1b5e-4a19-9aa5-840ad46394e0","system_id":"levelo_inurba_marseille","lat":43.29755,"lon":5.37647,"is_reserved":false,"is_disabled":true,"rental_uris":{"android":"levelo://app?vid=c33ca5fe-1b5e-4a19-9aa5-840ad46394e0","ios":"levelo://app?vid=c33ca5fe-1b5e-4a19-9aa5-840ad46394e0"},"vehicle_type_id":"4","last_reported":1753474327,"current_range_meters":9600,"station_id":"","pricing_plan_id":"cebpf4jnsgd1na2vs0mg"},{"bike_id":"9e0539a4-2e79-4a8b-ba0b-d5fe72a20bcd","system_id":"levelo_inurba_marseille","lat":43.278433,"lon":5.392296,"is_reserved":false,"is_disabled":false,"rental_uris":{"android":"levelo://app?vid=9e0539a4-2e79-4a8b-ba0b-d5fe72a20bcd","ios":"levelo://app?vid=9e0539a4-2e79-4a8b-ba0b-d5fe72a20bcd"},"vehicle_type_id":"4","last_reported":1753474327,"current_range_meters":9600,"station_id":"ce4bhjp2rcd13ifvqga0","pricing_plan_id":"cebpf4jnsgd1na2vs0mg"},{"bike_id":"ff30a5ee-0e9d-4bfa-a593-c7beaf9df463","system_id":"levelo_inurba_marseille","lat":43.3352,"lon":5.36201,"is_reserved":false,"is_disabled":false,"rental_uris":{"android":"levelo://app?vid=ff30a5ee-0e9d-4bfa-a593-c7beaf9df463","ios":"levelo://app?vid=ff30a5ee-0e9d-4bfa-a593-c7beaf9df463"},"vehicle_type_id":"4","last_reported":1753474327,"current_range_meters":9600,"station_id":"","pricing_plan_id":"cebpf4jnsgd1na2vs0mg"},{"bike_id":"ac7f3c2f-452c-4620-beb4-96f9c8da3434","system_id":"levelo_inurba_marseille","lat":43.306103,"lon":5.3852,"is_reserved":false,"is_disabled":false,"rental_uris":{"android":"levelo://app?vid=ac7f3c2f-452c-4620-beb4-96f9c8da3434","ios":"levelo://app?vid=ac7f3c2f-452c-4620-beb4-96f9c8da3434"},"vehicle_type_id":"4","last_reported":1753474327,"current_range_meters":9600,"station_id":"","pricing_plan_id":"cebpf4jnsgd1na2vs0mg"},{"bike_id":"9012b263-128c-4eee-b871-1dddfb885fbb","system_id":"levelo_inurba_marseille","lat":43.31167,"lon":5.38733,"is_reserved":false,"is_disabled":false,"rental_uris":{"android":"levelo://app?vid=9012b263-128c-4eee-b871-1dddfb885fbb","ios":"levelo://app?vid=9012b263-128c-4eee-b871-1dddfb885fbb"},"vehicle_type_id":"4","last_reported":1753474327,"current_range_meters":9600,"station_id":"ce4bgv12rcd13ifvqcp0","pricing_plan_id":"cebpf4jnsgd1na2vs0mg"},{"bike_id":"465cf7cf-a03a-47ab-abe6-8f43755a449b","system_id":"levelo_inurba_marseille","lat":43.28856,"lon":5.39324,"is_reserved":false,"is_disabled":false,"rental_uris":{"android":"levelo://app?vid=465cf7cf-a03a-47ab-abe6-8f43755a449b","ios":"levelo://app?vid=465cf7cf-a03a-47ab-abe6-8f43755a449b"},"vehicle_type_id":"4","last_reported":1753474327,"current_range_meters":9600,"station_id":"ce4bh2p2rcd13ifvqdi0","pricing_plan_id":"cebpf4jnsgd1na2vs0mg"},{"bike_id":"69f1edb1-ce26-4d73-8943-0b90cf77b48f","system_id":"levelo_inurba_marseille","lat":43.280383,"lon":5.369512,"is_reserved":false,"is_disabled":false,"rental_uris":{"android":"levelo://app?vid=69f1edb1-ce26-4d73-8943-0b90cf77b48f","ios":"levelo://app?vid=69f1edb1-ce26-4d73-8943-0b90cf77b48f"},"vehicle_type_id":"4","last_reported":1753474327,"current_range_meters":9600,"station_id":"ce4bha12rcd13ifvqef0","pricing_plan_id":"cebpf4jnsgd1na2vs0mg"},{"bike_id":"0e2f2d1c-23ce-4621-8565-3b3df7db3c70","system_id":"levelo_inurba_marseille","lat":43.30599,"lon":5.37224,"is_reserved":false,"is_disabled":false,"rental_uris":{"android":"levelo://app?vid=0e2f2d1c-23ce-4621-8565-3b3df7db3c70","ios":"levelo://app?vid=0e2f2d1c-23ce-4621-8565-3b3df7db3c70"},"vehicle_type_id":"4","last_reported":1753474327,"current_range_meters":10000,"station_id":"ce4bgqh2rcd13ifvqc4g","pricing_plan_id":"cebpf4jnsgd1na2vs0mg"},{"bike_id":"90efd625-7422-4313-bc25-8b8cf21ee79c","system_id":"levelo_inurba_marseille","lat":43.29551,"lon":5.42293,"is_reserved":false,"is_disabled":false,"rental_uris":{"android":"levelo://app?vid=90efd625-7422-4313-bc25-8b8cf21ee79c","ios":"levelo://app?vid=90efd625-7422-4313-bc25-8b8cf21ee79c"},"vehicle_type_id":"4","last_reported":1753474327,"current_range_meters":9600,"station_id":"ce4bhph2rcd13ifvqhdg","pricing_plan_id":"cebpf4jnsgd1na2vs0mg"},{"bike_id":"45e8d47e-7a7e-4f7a-b446-883a93cb7771","system_id":"levelo_inurba_marseille","lat":43.296266,"lon":5.377132,"is_reserved":false,"is_disabled":false,"rental_uris":{"android":"levelo://app?vid=45e8d47e-7a7e-4f7a-b446-883a93cb7771","ios":"levelo://app?vid=45e8d47e-7a7e-4f7a-b446-883a93cb7771"},"vehicle_type_id":"4","last_reported":1753474327,"current_range_meters":10000,"station_id":"ce4bgi92rcd13ifvqb90","pricing_plan_id":"cebpf4jnsgd1na2vs0mg"},{"bike_id":"4585e7f6-89fd-4fba-8e0b-7d8a02ea0c93","system_id":"levelo_inurba_marseille","lat":43.27664,"lon":5.38875,"is_reserved":false,"is_disabled":false,"rental_uris":{"android":"levelo://app?vid=4585e7f6-89fd-4fba-8e0b-7d8a02ea0c93","ios":"levelo://app?vid=4585e7f6-89fd-4fba-8e0b-7d8a02ea0c93"},"vehicle_type_id":"4","last_reported":1753474327,"current_range_meters":10000,"station_id":"ce4bhi12rcd13ifvqfo0","pricing_plan_id":"cebpf4jnsgd1na2vs0mg"},{"bike_id":"0939eecf-ab8e-4e0f-8dde-ab5f40cfd3cc","system_id":"levelo_inurba_marseille","lat":43.28414,"lon":5.35005,"is_reserved":false,"is_disabled":true,"rental_uris":{"android":"levelo://app?vid=0939eecf-ab8e-4e0f-8dde-ab5f40cfd3cc","ios":"levelo://app?vid=0939eecf-ab8e-4e0f-8dde-ab5f40cfd3cc"},"vehicle_type_id":"4","last_reported":1753474327,"current_range_meters":10000,"station_id":"ce4bhbh2rcd13ifvqepg","pricing_plan_id":"cebpf4jnsgd1na2vs0mg"},{"bike_id":"e77d627b-3b5b-4c1d-8bd6-21649c1bcdf4","system_id":"levelo_inurba_marseille","lat":43.29706,"lon":5.36637,"is_reserved":false,"is_disabled":false,"rental_uris":{"android":"levelo://app?vid=e77d627b-3b5b-4c1d-8bd6-21649c1bcdf4","ios":"levelo://app?vid=e77d627b-3b5b-4c1d-8bd6-21649c1bcdf4"},"vehicle_type_id":"4","last_reported":1753474327,"current_range_meters":10000,"station_id":"ce4bgn12rcd13ifvqbt0","pricing_plan_id":"cebpf4jnsgd1na2vs0mg"},{"bike_id":"a2ccbf76-8c1a-4aef-814f-db130f867270","system_id":"levelo_inurba_marseille","lat":43.30958,"lon":5.37387,"is_reserved":false,"is_disabled":false,"rental_uris":{"android":"levelo://app?vid=a2ccbf76-8c1a-4aef-814f-db130f867270","ios":"levelo://app?vid=a2ccbf76-8c1a-4aef-814f-db130f867270"},"vehicle_type_id":"4","last_reported":1753474327,"current_range_meters":10000,"station_id":"","pricing_plan_id":"cebpf4jnsgd1na2vs0mg"},{"bike_id":"f7623b57-5f88-4ef7-8535-1d8b44f90d27","system_id":"levelo_inurba_marseille","lat":43.22511,"lon":5.34806,"is_reserved":false,"is_disabled":false,"rental_uris":{"android":"levelo://app?vid=f7623b57-5f88-4ef7-8535-1d8b44f90d27","ios":"levelo://app?vid=f7623b57-5f88-4ef7-8535-1d8b44f90d27"},"vehicle_type_id":"4","last_reported":1753474327,"current_range_meters":10000,"station_id":"","pricing_plan_id":"cebpf4jnsgd1na2vs0mg"},{"bike_id":"ea61fae0-53ca-4a6b-8422-25dc4b6aaa3b","system_id":"levelo_inurba_marseille","lat":43.30871,"lon":5.39663,"is_reserved":false,"is_disabled":false,"rental_uris":{"android":"levelo://app?vid=ea61fae0-53ca-4a6b-8422-25dc4b6aaa3b","ios":"levelo://app?vid=ea61fae0-53ca-4a6b-8422-25dc4b6aaa3b"},"vehicle_type_id":"4","last_reported":1753474327,"current_range_meters":10000,"station_id":"ce4bh012rcd13ifvqcv0","pricing_plan_id":"cebpf4jnsgd1na2vs0mg"},{"bike_id":"734ff9c0-7b95-4f4c-b839-39f20818bcf6","system_id":"levelo_inurba_marseille","lat":43.29678,"lon":5.373,"is_reserved":false,"is_disabled":false,"rental_uris":{"android":"levelo://app?vid=734ff9c0-7b95-4f4c-b839-39f20818bcf6","ios":"levelo://app?vid=734ff9c0-7b95-4f4c-b839-39f20818bcf6"},"vehicle_type_id":"4","last_reported":1753474327,"current_range_meters":10000,"station_id":"ce4bgk12rcd13ifvqbj0","pricing_plan_id":"cebpf4jnsgd1na2vs0mg"},{"bike_id":"35ee41ab-1155-4c5d-a3ff-d1e05b86be8c","system_id":"levelo_inurba_marseille","lat":43.312929,"lon":5.43095,"is_reserved":false,"is_disabled":false,"rental_uris":{"android":"levelo://app?vid=35ee41ab-1155-4c5d-a3ff-d1e05b86be8c","ios":"levelo://app?vid=35ee41ab-1155-4c5d-a3ff-d1e05b86be8c"},"vehicle_type_id":"4","last_reported":1753474327,"current_range_meters":10000,"station_id":"","pricing_plan_id":"cebpf4jnsgd1na2vs0mg"},{"bike_id":"cdfbe5bc-aa8e-4dc4-ad61-e7eeb54a2ebd","system_id":"levelo_inurba_marseille","lat":43.3094,"lon":5.40158,"is_reserved":false,"is_disabled":false,"rental_uris":{"android":"levelo://app?vid=cdfbe5bc-aa8e-4dc4-ad61-e7eeb54a2ebd","ios":"levelo://app?vid=cdfbe5bc-aa8e-4dc4-ad61-e7eeb54a2ebd"},"vehicle_type_id":"4","last_reported":1753474327,"current_range_meters":10800,"station_id":"ce4bgvp2rcd13ifvqct0","pricing_plan_id":"cebpf4jnsgd1na2vs0mg"},{"bike_id":"1c31f24b-2b9e-48c3-b103-bffd32b92420","system_id":"levelo_inurba_marseille","lat":43.3351,"lon":5.40871,"is_reserved":false,"is_disabled":false,"rental_uris":{"android":"levelo://app?vid=1c31f24b-2b9e-48c3-b103-bffd32b92420","ios":"levelo://app?vid=1c31f24b-2b9e-48c3-b103-bffd32b92420"},"vehicle_type_id":"4","last_reported":1753474327,"current_range_meters":10800,"station_id":"","pricing_plan_id":"cebpf4jnsgd1na2vs0mg"},{"bike_id":"1c74f40f-f037-4e20-a087-990428fe6c14","system_id":"levelo_inurba_marseille","lat":43.2794,"lon":5.41048,"is_reserved":false,"is_disabled":false,"rental_uris":{"android":"levelo://app?vid=1c74f40f-f037-4e20-a087-990428fe6c14","ios":"levelo://app?vid=1c74f40f-f037-4e20-a087-990428fe6c14"},"vehicle_type_id":"4","last_reported":1753474327,"current_range_meters":10800,"station_id":"ce4bhnp2rcd13ifvqh0g","pricing_plan_id":"cebpf4jnsgd1na2vs0mg"},{"bike_id":"d9911cc2-4e0b-4359-b5c7-26d014291aa6","system_id":"levelo_inurba_marseille","lat":43.29577,"lon":5.37494,"is_reserved":false,"is_disabled":false,"rental_uris":{"android":"levelo://app?vid=d9911cc2-4e0b-4359-b5c7-26d014291aa6","ios":"levelo://app?vid=d9911cc2-4e0b-4359-b5c7-26d014291aa6"},"vehicle_type_id":"4","last_reported":1753474327,"current_range_meters":10800,"station_id":"ce4bgh92rcd13ifvqb50","pricing_plan_id":"cebpf4jnsgd1na2vs0mg"},{"bike_id":"da3cc9fc-2d29-4abe-9eab-a26279c48591","system_id":"levelo_inurba_marseille","lat":43.29508,"lon":5.37513,"is_reserved":false,"is_disabled":false,"rental_uris":{"android":"levelo://app?vid=da3cc9fc-2d29-4abe-9eab-a26279c48591","ios":"levelo://app?vid=da3cc9fc-2d29-4abe-9eab-a26279c48591"},"vehicle_type_id":"4","last_reported":1753474327,"current_range_meters":10800,"station_id":"ce4bgkp2rcd13ifvqbmg","pricing_plan_id":"cebpf4jnsgd1na2vs0mg"},{"bike_id":"79079a9a-8322-4f6c-a9e6-9aba90ee17ba","system_id":"levelo_inurba_marseille","lat":43.33768,"lon":5.37416,"is_reserved":false,"is_disabled":false,"rental_uris":{"android":"levelo://app?vid=79079a9a-8322-4f6c-a9e6-9aba90ee17ba","ios":"levelo://app?vid=79079a9a-8322-4f6c-a9e6-9aba90ee17ba"},"vehicle_type_id":"4","last_reported":1753474327,"current_range_meters":10800,"station_id":"","pricing_plan_id":"cebpf4jnsgd1na2vs0mg"},{"bike_id":"903350dd-ee3e-4369-8601-96805ce0d468","system_id":"levelo_inurba_marseille","lat":43.30954,"lon":5.39037,"is_reserved":false,"is_disabled":true,"rental_uris":{"android":"levelo://app?vid=903350dd-ee3e-4369-8601-96805ce0d468","ios":"levelo://app?vid=903350dd-ee3e-4369-8601-96805ce0d468"},"vehicle_type_id":"4","last_reported":1753474327,"current_range_meters":11200,"station_id":"ce4bgup2rcd13ifvqco0","pricing_plan_id":"cebpf4jnsgd1na2vs0mg"},{"bike_id":"51f2dad8-ae30-46b2-ad84-4de0aee81dcb","system_id":"levelo_inurba_marseille","lat":43.31755,"lon":5.39014,"is_reserved":false,"is_disabled":false,"rental_uris":{"android":"levelo://app?vid=51f2dad8-ae30-46b2-ad84-4de0aee81dcb","ios":"levelo://app?vid=51f2dad8-ae30-46b2-ad84-4de0aee81dcb"},"vehicle_type_id":"4","last_reported":1753474327,"current_range_meters":11200,"station_id":"ce4bhqp2rcd13ifvqhng","pricing_plan_id":"cebpf4jnsgd1na2vs0mg"},{"bike_id":"43cf4049-15dd-4e8c-88a8-61cd8dc10bf5","system_id":"levelo_inurba_marseille","lat":43.33237,"lon":5.37887,"is_reserved":false,"is_disabled":false,"rental_uris":{"android":"levelo://app?vid=43cf4049-15dd-4e8c-88a8-61cd8dc10bf5","ios":"levelo://app?vid=43cf4049-15dd-4e8c-88a8-61cd8dc10bf5"},"vehicle_type_id":"4","last_reported":1753474327,"current_range_meters":11200,"station_id":"","pricing_plan_id":"cebpf4jnsgd1na2vs0mg"},{"bike_id":"ab7467d5-a25b-4c11-b41e-78a9ef7d4d27","system_id":"levelo_inurba_marseille","lat":43.29523,"lon":5.39046,"is_reserved":false,"is_disabled":false,"rental_uris":{"android":"levelo://app?vid=ab7467d5-a25b-4c11-b41e-78a9ef7d4d27","ios":"levelo://app?vid=ab7467d5-a25b-4c11-b41e-78a9ef7d4d27"},"vehicle_type_id":"4","last_reported":1753474327,"current_range_meters":11200,"station_id":"ce4bh3p2rcd13ifvqdp0","pricing_plan_id":"cebpf4jnsgd1na2vs0mg"},{"bike_id":"29adf964-cd0d-481a-b956-e2db1648d79a","system_id":"levelo_inurba_marseille","lat":43.29365,"lon":5.3783,"is_reserved":false,"is_disabled":false,"rental_uris":{"android":"levelo://app?vid=29adf964-cd0d-481a-b956-e2db1648d79a","ios":"levelo://app?vid=29adf964-cd0d-481a-b956-e2db1648d79a"},"vehicle_type_id":"4","last_reported":1753474327,"current_range_meters":11200,"station_id":"ce4bgjh2rcd13ifvqbf0","pricing_plan_id":"cebpf4jnsgd1na2vs0mg"},{"bike_id":"68d0c8da-5e19-4752-b547-a76bdbcd55f7","system_id":"levelo_inurba_marseille","lat":43.29787,"lon":5.37105,"is_reserved":false,"is_disabled":false,"rental_uris":{"android":"levelo://app?vid=68d0c8da-5e19-4752-b547-a76bdbcd55f7","ios":"levelo://app?vid=68d0c8da-5e19-4752-b547-a76bdbcd55f7"},"vehicle_type_id":"4","last_reported":1753474327,"current_range_meters":11200,"station_id":"ce4bgop2rcd13ifvqc1g","pricing_plan_id":"cebpf4jnsgd1na2vs0mg"},{"bike_id":"8cbb8f7f-9095-4ea2-b7c0-3cb05502a868","system_id":"levelo_inurba_marseille","lat":43.28886,"lon":5.37142,"is_reserved":false,"is_disabled":false,"rental_uris":{"android":"levelo://app?vid=8cbb8f7f-9095-4ea2-b7c0-3cb05502a868","ios":"levelo://app?vid=8cbb8f7f-9095-4ea2-b7c0-3cb05502a868"},"vehicle_type_id":"4","last_reported":1753474327,"current_range_meters":11200,"station_id":"","pricing_plan_id":"cebpf4jnsgd1na2vs0mg"},{"bike_id":"f844a339-7d37-4629-b9b3-2ab886c95711","system_id":"levelo_inurba_marseille","lat":43.25855,"lon":5.3992,"is_reserved":false,"is_disabled":true,"rental_uris":{"android":"levelo://app?vid=f844a339-7d37-4629-b9b3-2ab886c95711","ios":"levelo://app?vid=f844a339-7d37-4629-b9b3-2ab886c95711"},"vehicle_type_id":"4","last_reported":1753474327,"current_range_meters":11600,"station_id":"ce4bhl92rcd13ifvqghg","pricing_plan_id":"cebpf4jnsgd1na2vs0mg"},{"bike_id":"5a5301d6-8a60-4c97-892d-9920ba0a334f","system_id":"levelo_inurba_marseille","lat":43.29266,"lon":5.38437,"is_reserved":false,"is_disabled":false,"rental_uris":{"android":"levelo://app?vid=5a5301d6-8a60-4c97-892d-9920ba0a334f","ios":"levelo://app?vid=5a5301d6-8a60-4c97-892d-9920ba0a334f"},"vehicle_type_id":"4","last_reported":1753474327,"current_range_meters":11600,"station_id":"ce4bh692rcd13ifvqea0","pricing_plan_id":"cebpf4jnsgd1na2vs0mg"},{"bike_id":"e4cf85cd-817a-415a-a3a8-2b1381978a96","system_id":"levelo_inurba_marseille","lat":43.27053,"lon":5.40267,"is_reserved":false,"is_disabled":false,"rental_uris":{"android":"levelo://app?vid=e4cf85cd-817a-415a-a3a8-2b1381978a96","ios":"levelo://app?vid=e4cf85cd-817a-415a-a3a8-2b1381978a96"},"vehicle_type_id":"4","last_reported":1753474327,"current_range_meters":11600,"station_id":"ce4bhk92rcd13ifvqgc0","pricing_plan_id":"cebpf4jnsgd1na2vs0mg"},{"bike_id":"c07e20cc-6724-4af5-a3ac-826edc27d1dd","system_id":"levelo_inurba_marseille","lat":43.26205,"lon":5.40491,"is_reserved":false,"is_disabled":false,"rental_uris":{"android":"levelo://app?vid=c07e20cc-6724-4af5-a3ac-826edc27d1dd","ios":"levelo://app?vid=c07e20cc-6724-4af5-a3ac-826edc27d1dd"},"vehicle_type_id":"4","last_reported":1753474327,"current_range_meters":11600,"station_id":"ce4bhmh2rcd13ifvqgmg","pricing_plan_id":"cebpf4jnsgd1na2vs0mg"},{"bike_id":"438260f3-7291-4509-86c6-1abe3fb9f213","system_id":"levelo_inurba_marseille","lat":43.28169,"lon":5.42662,"is_reserved":false,"is_disabled":false,"rental_uris":{"android":"levelo://app?vid=438260f3-7291-4509-86c6-1abe3fb9f213","ios":"levelo://app?vid=438260f3-7291-4509-86c6-1abe3fb9f213"},"vehicle_type_id":"4","last_reported":1753474327,"current_range_meters":11600,"station_id":"ce4bhnh2rcd13ifvqgug","pricing_plan_id":"cebpf4jnsgd1na2vs0mg"},{"bike_id":"490fd0a3-3ae2-4135-acff-5c94025f5f04","system_id":"levelo_inurba_marseille","lat":43.27926,"lon":5.39574,"is_reserved":false,"is_disabled":true,"rental_uris":{"android":"levelo://app?vid=490fd0a3-3ae2-4135-acff-5c94025f5f04","ios":"levelo://app?vid=490fd0a3-3ae2-4135-acff-5c94025f5f04"},"vehicle_type_id":"4","last_reported":1753474327,"current_range_meters":11600,"station_id":"ce4bhf92rcd13ifvqf40","pricing_plan_id":"cebpf4jnsgd1na2vs0mg"},{"bike_id":"e75bc84d-51e3-408b-bb57-6a091f836476","system_id":"levelo_inurba_marseille","lat":43.29974,"lon":5.3849,"is_reserved":false,"is_disabled":false,"rental_uris":{"android":"levelo://app?vid=e75bc84d-51e3-408b-bb57-6a091f836476","ios":"levelo://app?vid=e75bc84d-51e3-408b-bb57-6a091f836476"},"vehicle_type_id":"4","last_reported":1753474327,"current_range_meters":11600,"station_id":"ce4bgj92rcd13ifvqbd0","pricing_plan_id":"cebpf4jnsgd1na2vs0mg"},{"bike_id":"9394fe28-8274-495c-9443-aced87a82ab8","system_id":"levelo_inurba_marseille","lat":43.29509,"lon":5.3854,"is_reserved":false,"is_disabled":false,"rental_uris":{"android":"levelo://app?vid=9394fe28-8274-495c-9443-aced87a82ab8","ios":"levelo://app?vid=9394fe28-8274-495c-9443-aced87a82ab8"},"vehicle_type_id":"4","last_reported":1753474327,"current_range_meters":12000,"station_id":"ce4bgih2rcd13ifvqba0","pricing_plan_id":"cebpf4jnsgd1na2vs0mg"},{"bike_id":"7db3de45-f61c-4fd1-b88d-5b1a414d636e","system_id":"levelo_inurba_marseille","lat":43.311737,"lon":5.387178,"is_reserved":false,"is_disabled":false,"rental_uris":{"android":"levelo://app?vid=7db3de45-f61c-4fd1-b88d-5b1a414d636e","ios":"levelo://app?vid=7db3de45-f61c-4fd1-b88d-5b1a414d636e"},"vehicle_type_id":"4","last_reported":1753474327,"current_range_meters":12000,"station_id":"ce4bgv12rcd13ifvqcp0","pricing_plan_id":"cebpf4jnsgd1na2vs0mg"},{"bike_id":"078febbd-6d49-4abf-8b46-d33f87f8da46","system_id":"levelo_inurba_marseille","lat":43.25452,"lon":5.38007,"is_reserved":false,"is_disabled":false,"rental_uris":{"android":"levelo://app?vid=078febbd-6d49-4abf-8b46-d33f87f8da46","ios":"levelo://app?vid=078febbd-6d49-4abf-8b46-d33f87f8da46"},"vehicle_type_id":"4","last_reported":1753474327,"current_range_meters":12000,"station_id":"","pricing_plan_id":"cebpf4jnsgd1na2vs0mg"},{"bike_id":"d1b727fa-a540-45b1-bced-1b69c054576b","system_id":"levelo_inurba_marseille","lat":43.29182,"lon":5.39309,"is_reserved":false,"is_disabled":false,"rental_uris":{"android":"levelo://app?vid=d1b727fa-a540-45b1-bced-1b69c054576b","ios":"levelo://app?vid=d1b727fa-a540-45b1-bced-1b69c054576b"},"vehicle_type_id":"4","last_reported":1753474327,"current_range_meters":12000,"station_id":"ce4bh192rcd13ifvqdd0","pricing_plan_id":"cebpf4jnsgd1na2vs0mg"},{"bike_id":"591fb768-7e78-4b54-88b5-e73a5af76b19","system_id":"levelo_inurba_marseille","lat":43.22923,"lon":5.35369,"is_reserved":false,"is_disabled":false,"rental_uris":{"android":"levelo://app?vid=591fb768-7e78-4b54-88b5-e73a5af76b19","ios":"levelo://app?vid=591fb768-7e78-4b54-88b5-e73a5af76b19"},"vehicle_type_id":"4","last_reported":1753474327,"current_range_meters":12000,"station_id":"cpo3532slgdg3j2ikp40","pricing_plan_id":"cebpf4jnsgd1na2vs0mg"},{"bike_id":"c017b4de-074c-46ed-bc0a-5b7912813135","system_id":"levelo_inurba_marseille","lat":43.26082,"lon":5.37331,"is_reserved":false,"is_disabled":false,"rental_uris":{"android":"levelo://app?vid=c017b4de-074c-46ed-bc0a-5b7912813135","ios":"levelo://app?vid=c017b4de-074c-46ed-bc0a-5b7912813135"},"vehicle_type_id":"4","last_reported":1753474327,"current_range_meters":12000,"station_id":"","pricing_plan_id":"cebpf4jnsgd1na2vs0mg"},{"bike_id":"d2cb877d-d63e-4c06-8493-287c3c68a37f","system_id":"levelo_inurba_marseille","lat":43.26225,"lon":5.37458,"is_reserved":false,"is_disabled":false,"rental_uris":{"android":"levelo://app?vid=d2cb877d-d63e-4c06-8493-287c3c68a37f","ios":"levelo://app?vid=d2cb877d-d63e-4c06-8493-287c3c68a37f"},"vehicle_type_id":"4","last_reported":1753474327,"current_range_meters":12000,"station_id":"ce4bhgp2rcd13ifvqfc0","pricing_plan_id":"cebpf4jnsgd1na2vs0mg"},{"bike_id":"6755382c-76dd-4587-baf5-a4b43a86610a","system_id":"levelo_inurba_marseille","lat":43.24053,"lon":5.37781,"is_reserved":false,"is_disabled":false,"rental_uris":{"android":"levelo://app?vid=6755382c-76dd-4587-baf5-a4b43a86610a","ios":"levelo://app?vid=6755382c-76dd-4587-baf5-a4b43a86610a"},"vehicle_type_id":"4","last_reported":1753474327,"current_range_meters":12000,"station_id":"ce4bhnp2rcd13ifvqgvg","pricing_plan_id":"cebpf4jnsgd1na2vs0mg"},{"bike_id":"e39ea498-e112-4b27-918e-e1d3c69e8bff","system_id":"levelo_inurba_marseille","lat":43.27162,"lon":5.39206,"is_reserved":false,"is_disabled":false,"rental_uris":{"android":"levelo://app?vid=e39ea498-e112-4b27-918e-e1d3c69e8bff","ios":"levelo://app?vid=e39ea498-e112-4b27-918e-e1d3c69e8bff"},"vehicle_type_id":"4","last_reported":1753474327,"current_range_meters":12000,"station_id":"ce4bhhp2rcd13ifvqfm0","pricing_plan_id":"cebpf4jnsgd1na2vs0mg"},{"bike_id":"5440a182-b760-4205-92c8-d9ab0a9c67c8","system_id":"levelo_inurba_marseille","lat":43.284235,"lon":5.349708,"is_reserved":false,"is_disabled":true,"rental_uris":{"android":"levelo://app?vid=5440a182-b760-4205-92c8-d9ab0a9c67c8","ios":"levelo://app?vid=5440a182-b760-4205-92c8-d9ab0a9c67c8"},"vehicle_type_id":"4","last_reported":1753474327,"current_range_meters":12400,"station_id":"ce4bhbh2rcd13ifvqepg","pricing_plan_id":"cebpf4jnsgd1na2vs0mg"},{"bike_id":"37b95ed9-ac03-42e4-8dfe-dc43073d5963","system_id":"levelo_inurba_marseille","lat":43.29717,"lon":5.37687,"is_reserved":false,"is_disabled":false,"rental_uris":{"android":"levelo://app?vid=37b95ed9-ac03-42e4-8dfe-dc43073d5963","ios":"levelo://app?vid=37b95ed9-ac03-42e4-8dfe-dc43073d5963"},"vehicle_type_id":"4","last_reported":1753474327,"current_range_meters":12400,"station_id":"ce4bgkh2rcd13ifvqbl0","pricing_plan_id":"cebpf4jnsgd1na2vs0mg"},{"bike_id":"545738c3-64b3-4f0c-88cd-bc52454835c3","system_id":"levelo_inurba_marseille","lat":43.29262,"lon":5.38432,"is_reserved":false,"is_disabled":false,"rental_uris":{"android":"levelo://app?vid=545738c3-64b3-4f0c-88cd-bc52454835c3","ios":"levelo://app?vid=545738c3-64b3-4f0c-88cd-bc52454835c3"},"vehicle_type_id":"4","last_reported":1753474327,"current_range_meters":14400,"station_id":"ce4bh692rcd13ifvqea0","pricing_plan_id":"cebpf4jnsgd1na2vs0mg"},{"bike_id":"ccca3042-9358-40fc-ac03-e327e01c225f","system_id":"levelo_inurba_marseille","lat":43.23314,"lon":5.36112,"is_reserved":false,"is_disabled":false,"rental_uris":{"android":"levelo://app?vid=ccca3042-9358-40fc-ac03-e327e01c225f","ios":"levelo://app?vid=ccca3042-9358-40fc-ac03-e327e01c225f"},"vehicle_type_id":"4","last_reported":1753474327,"current_range_meters":12400,"station_id":"","pricing_plan_id":"cebpf4jnsgd1na2vs0mg"},{"bike_id":"436fe95d-b330-48c3-93df-d3c7001c90c1","system_id":"levelo_inurba_marseille","lat":43.29869,"lon":5.39731,"is_reserved":false,"is_disabled":false,"rental_uris":{"android":"levelo://app?vid=436fe95d-b330-48c3-93df-d3c7001c90c1","ios":"levelo://app?vid=436fe95d-b330-48c3-93df-d3c7001c90c1"},"vehicle_type_id":"4","last_reported":1753474327,"current_range_meters":12400,"station_id":"ce4bh0h2rcd13ifvqd50","pricing_plan_id":"cebpf4jnsgd1na2vs0mg"},{"bike_id":"4e6e6044-20e5-44fc-87b5-2b41e2616d90","system_id":"levelo_inurba_marseille","lat":43.30135,"lon":5.39869,"is_reserved":false,"is_disabled":true,"rental_uris":{"android":"levelo://app?vid=4e6e6044-20e5-44fc-87b5-2b41e2616d90","ios":"levelo://app?vid=4e6e6044-20e5-44fc-87b5-2b41e2616d90"},"vehicle_type_id":"4","last_reported":1753474327,"current_range_meters":12400,"station_id":"ce4bh0h2rcd13ifvqd40","pricing_plan_id":"cebpf4jnsgd1na2vs0mg"},{"bike_id":"a54e6f1b-e1c7-4835-a973-a5daa4af4f3c","system_id":"levelo_inurba_marseille","lat":43.29565,"lon":5.37496,"is_reserved":false,"is_disabled":false,"rental_uris":{"android":"levelo://app?vid=a54e6f1b-e1c7-4835-a973-a5daa4af4f3c","ios":"levelo://app?vid=a54e6f1b-e1c7-4835-a973-a5daa4af4f3c"},"vehicle_type_id":"4","last_reported":1753474327,"current_range_meters":12400,"station_id":"ce4bgh92rcd13ifvqb50","pricing_plan_id":"cebpf4jnsgd1na2vs0mg"},{"bike_id":"3711c772-e2a9-4b55-bf0e-56047d71e7c9","system_id":"levelo_inurba_marseille","lat":43.29263,"lon":5.38427,"is_reserved":false,"is_disabled":false,"rental_uris":{"android":"levelo://app?vid=3711c772-e2a9-4b55-bf0e-56047d71e7c9","ios":"levelo://app?vid=3711c772-e2a9-4b55-bf0e-56047d71e7c9"},"vehicle_type_id":"4","last_reported":1753474327,"current_range_meters":12800,"station_id":"ce4bh692rcd13ifvqea0","pricing_plan_id":"cebpf4jnsgd1na2vs0mg"},{"bike_id":"ebb93afd-33d1-41ff-aeb0-236b556714ba","system_id":"levelo_inurba_marseille","lat":43.29713,"lon":5.36629,"is_reserved":false,"is_disabled":false,"rental_uris":{"android":"levelo://app?vid=ebb93afd-33d1-41ff-aeb0-236b556714ba","ios":"levelo://app?vid=ebb93afd-33d1-41ff-aeb0-236b556714ba"},"vehicle_type_id":"4","last_reported":1753474327,"current_range_meters":12800,"station_id":"ce4bgn12rcd13ifvqbt0","pricing_plan_id":"cebpf4jnsgd1na2vs0mg"},{"bike_id":"378521b9-2f88-49b6-9620-86cb628eab29","system_id":"levelo_inurba_marseille","lat":43.27181,"lon":5.40991,"is_reserved":false,"is_disabled":false,"rental_uris":{"android":"levelo://app?vid=378521b9-2f88-49b6-9620-86cb628eab29","ios":"levelo://app?vid=378521b9-2f88-49b6-9620-86cb628eab29"},"vehicle_type_id":"4","last_reported":1753474327,"current_range_meters":12800,"station_id":"ce4bhl12rcd13ifvqgf0","pricing_plan_id":"cebpf4jnsgd1na2vs0mg"},{"bike_id":"dc87bffe-1c91-423d-bf5d-1a24d79c37ca","system_id":"levelo_inurba_marseille","lat":43.29556,"lon":5.37466,"is_reserved":false,"is_disabled":false,"rental_uris":{"android":"levelo://app?vid=dc87bffe-1c91-423d-bf5d-1a24d79c37ca","ios":"levelo://app?vid=dc87bffe-1c91-423d-bf5d-1a24d79c37ca"},"vehicle_type_id":"4","last_reported":1753474327,"current_range_meters":12800,"station_id":"ce4bgkp2rcd13ifvqbmg","pricing_plan_id":"cebpf4jnsgd1na2vs0mg"},{"bike_id":"aa06ceb0-683c-4b52-b12a-9433141cd72e","system_id":"levelo_inurba_marseille","lat":43.31168,"lon":5.38718,"is_reserved":false,"is_disabled":false,"rental_uris":{"android":"levelo://app?vid=aa06ceb0-683c-4b52-b12a-9433141cd72e","ios":"levelo://app?vid=aa06ceb0-683c-4b52-b12a-9433141cd72e"},"vehicle_type_id":"4","last_reported":1753474327,"current_range_meters":12800,"station_id":"ce4bgv12rcd13ifvqcp0","pricing_plan_id":"cebpf4jnsgd1na2vs0mg"},{"bike_id":"a3fe9995-2e3e-423b-9540-429a92fa997e","system_id":"levelo_inurba_marseille","lat":43.3019,"lon":5.37225,"is_reserved":false,"is_disabled":false,"rental_uris":{"android":"levelo://app?vid=a3fe9995-2e3e-423b-9540-429a92fa997e","ios":"levelo://app?vid=a3fe9995-2e3e-423b-9540-429a92fa997e"},"vehicle_type_id":"4","last_reported":1753474327,"current_range_meters":12800,"station_id":"","pricing_plan_id":"cebpf4jnsgd1na2vs0mg"},{"bike_id":"6e675566-44f8-49cf-89b2-d1ada7e59de9","system_id":"levelo_inurba_marseille","lat":43.241388,"lon":5.376859,"is_reserved":false,"is_disabled":false,"rental_uris":{"android":"levelo://app?vid=6e675566-44f8-49cf-89b2-d1ada7e59de9","ios":"levelo://app?vid=6e675566-44f8-49cf-89b2-d1ada7e59de9"},"vehicle_type_id":"4","last_reported":1753474327,"current_range_meters":12800,"station_id":"ce4bhnp2rcd13ifvqgvg","pricing_plan_id":"cebpf4jnsgd1na2vs0mg"},{"bike_id":"14290dc3-0ecb-4c09-bf2e-6db4a8e35188","system_id":"levelo_inurba_marseille","lat":43.243904,"lon":5.370648,"is_reserved":false,"is_disabled":false,"rental_uris":{"android":"levelo://app?vid=14290dc3-0ecb-4c09-bf2e-6db4a8e35188","ios":"levelo://app?vid=14290dc3-0ecb-4c09-bf2e-6db4a8e35188"},"vehicle_type_id":"4","last_reported":1753474327,"current_range_meters":12800,"station_id":"ce4bhhh2rcd13ifvqfk0","pricing_plan_id":"cebpf4jnsgd1na2vs0mg"},{"bike_id":"ebc7a43e-85fe-4b4c-8ca0-84469f9fd8c4","system_id":"levelo_inurba_marseille","lat":43.26214,"lon":5.37429,"is_reserved":false,"is_disabled":false,"rental_uris":{"android":"levelo://app?vid=ebc7a43e-85fe-4b4c-8ca0-84469f9fd8c4","ios":"levelo://app?vid=ebc7a43e-85fe-4b4c-8ca0-84469f9fd8c4"},"vehicle_type_id":"4","last_reported":1753474327,"current_range_meters":12800,"station_id":"ce4bhgp2rcd13ifvqfc0","pricing_plan_id":"cebpf4jnsgd1na2vs0mg"},{"bike_id":"85244870-de2e-4268-95b7-c2ed15b3c6be","system_id":"levelo_inurba_marseille","lat":43.299774,"lon":5.371712,"is_reserved":false,"is_disabled":false,"rental_uris":{"android":"levelo://app?vid=85244870-de2e-4268-95b7-c2ed15b3c6be","ios":"levelo://app?vid=85244870-de2e-4268-95b7-c2ed15b3c6be"},"vehicle_type_id":"4","last_reported":1753474327,"current_range_meters":13600,"station_id":"ce4bgr92rcd13ifvqc7g","pricing_plan_id":"cebpf4jnsgd1na2vs0mg"},{"bike_id":"1e585017-21d3-4d67-83d1-93b6972f5e47","system_id":"levelo_inurba_marseille","lat":43.26036,"lon":5.37547,"is_reserved":false,"is_disabled":false,"rental_uris":{"android":"levelo://app?vid=1e585017-21d3-4d67-83d1-93b6972f5e47","ios":"levelo://app?vid=1e585017-21d3-4d67-83d1-93b6972f5e47"},"vehicle_type_id":"4","last_reported":1753474327,"current_range_meters":13600,"station_id":"ce4bhgh2rcd13ifvqfa0","pricing_plan_id":"cebpf4jnsgd1na2vs0mg"},{"bike_id":"44374478-e938-4a57-91d2-71b6739fe07f","system_id":"levelo_inurba_marseille","lat":43.2904,"lon":5.37567,"is_reserved":false,"is_disabled":false,"rental_uris":{"android":"levelo://app?vid=44374478-e938-4a57-91d2-71b6739fe07f","ios":"levelo://app?vid=44374478-e938-4a57-91d2-71b6739fe07f"},"vehicle_type_id":"4","last_reported":1753474327,"current_range_meters":13600,"station_id":"ce4bh692rcd13ifvqe90","pricing_plan_id":"cebpf4jnsgd1na2vs0mg"},{"bike_id":"96cbc9b7-fbb9-43ea-b2e2-4390c7e33c1d","system_id":"levelo_inurba_marseille","lat":43.296449,"lon":5.372813,"is_reserved":false,"is_disabled":true,"rental_uris":{"android":"levelo://app?vid=96cbc9b7-fbb9-43ea-b2e2-4390c7e33c1d","ios":"levelo://app?vid=96cbc9b7-fbb9-43ea-b2e2-4390c7e33c1d"},"vehicle_type_id":"4","last_reported":1753474327,"current_range_meters":14000,"station_id":"","pricing_plan_id":"cebpf4jnsgd1na2vs0mg"},{"bike_id":"bf5dc847-8618-43ac-89c5-509d432811df","system_id":"levelo_inurba_marseille","lat":43.2869,"lon":5.37405,"is_reserved":false,"is_disabled":false,"rental_uris":{"android":"levelo://app?vid=bf5dc847-8618-43ac-89c5-509d432811df","ios":"levelo://app?vid=bf5dc847-8618-43ac-89c5-509d432811df"},"vehicle_type_id":"4","last_reported":1753474327,"current_range_meters":13600,"station_id":"ce4bh3p2rcd13ifvqdq0","pricing_plan_id":"cebpf4jnsgd1na2vs0mg"},{"bike_id":"773b48d4-858e-46f9-8819-6029f415d049","system_id":"levelo_inurba_marseille","lat":43.31227,"lon":5.36834,"is_reserved":false,"is_disabled":true,"rental_uris":{"android":"levelo://app?vid=773b48d4-858e-46f9-8819-6029f415d049","ios":"levelo://app?vid=773b48d4-858e-46f9-8819-6029f415d049"},"vehicle_type_id":"4","last_reported":1753474327,"current_range_meters":13600,"station_id":"ce4bgl92rcd13ifvqbq0","pricing_plan_id":"cebpf4jnsgd1na2vs0mg"},{"bike_id":"88c649e3-05e1-49d4-b54e-e456325181f7","system_id":"levelo_inurba_marseille","lat":43.30603,"lon":5.37226,"is_reserved":false,"is_disabled":false,"rental_uris":{"android":"levelo://app?vid=88c649e3-05e1-49d4-b54e-e456325181f7","ios":"levelo://app?vid=88c649e3-05e1-49d4-b54e-e456325181f7"},"vehicle_type_id":"4","last_reported":1753474327,"current_range_meters":13600,"station_id":"ce4bgqh2rcd13ifvqc4g","pricing_plan_id":"cebpf4jnsgd1na2vs0mg"},{"bike_id":"c544c5bb-5c18-4158-a6cc-000ea7c807ef","system_id":"levelo_inurba_marseille","lat":43.29539,"lon":5.38528,"is_reserved":false,"is_disabled":false,"rental_uris":{"android":"levelo://app?vid=c544c5bb-5c18-4158-a6cc-000ea7c807ef","ios":"levelo://app?vid=c544c5bb-5c18-4158-a6cc-000ea7c807ef"},"vehicle_type_id":"4","last_reported":1753474327,"current_range_meters":13600,"station_id":"ce4bgih2rcd13ifvqba0","pricing_plan_id":"cebpf4jnsgd1na2vs0mg"},{"bike_id":"6167d036-373e-4e70-8eb5-6194bbfb92fd","system_id":"levelo_inurba_marseille","lat":43.295324,"lon":5.385555,"is_reserved":false,"is_disabled":false,"rental_uris":{"android":"levelo://app?vid=6167d036-373e-4e70-8eb5-6194bbfb92fd","ios":"levelo://app?vid=6167d036-373e-4e70-8eb5-6194bbfb92fd"},"vehicle_type_id":"4","last_reported":1753474327,"current_range_meters":13600,"station_id":"ce4bgih2rcd13ifvqba0","pricing_plan_id":"cebpf4jnsgd1na2vs0mg"},{"bike_id":"4b4d3df7-118a-4b6c-96f5-5e0587dc90b4","system_id":"levelo_inurba_marseille","lat":43.29682,"lon":5.37295,"is_reserved":false,"is_disabled":false,"rental_uris":{"android":"levelo://app?vid=4b4d3df7-118a-4b6c-96f5-5e0587dc90b4","ios":"levelo://app?vid=4b4d3df7-118a-4b6c-96f5-5e0587dc90b4"},"vehicle_type_id":"4","last_reported":1753474327,"current_range_meters":13600,"station_id":"ce4bgk12rcd13ifvqbj0","pricing_plan_id":"cebpf4jnsgd1na2vs0mg"},{"bike_id":"f5cb4941-a7c3-4012-81c4-cb602b866e2e","system_id":"levelo_inurba_marseille","lat":43.29971,"lon":5.3849,"is_reserved":false,"is_disabled":false,"rental_uris":{"android":"levelo://app?vid=f5cb4941-a7c3-4012-81c4-cb602b866e2e","ios":"levelo://app?vid=f5cb4941-a7c3-4012-81c4-cb602b866e2e"},"vehicle_type_id":"4","last_reported":1753474327,"current_range_meters":13600,"station_id":"ce4bgj92rcd13ifvqbd0","pricing_plan_id":"cebpf4jnsgd1na2vs0mg"},{"bike_id":"3f7616fc-6b78-44f5-932e-062a7e9e3846","system_id":"levelo_inurba_marseille","lat":43.27069,"lon":5.4228,"is_reserved":false,"is_disabled":false,"rental_uris":{"android":"levelo://app?vid=3f7616fc-6b78-44f5-932e-062a7e9e3846","ios":"levelo://app?vid=3f7616fc-6b78-44f5-932e-062a7e9e3846"},"vehicle_type_id":"4","last_reported":1753474327,"current_range_meters":14000,"station_id":"ce4bhk92rcd13ifvqgb0","pricing_plan_id":"cebpf4jnsgd1na2vs0mg"},{"bike_id":"127b6b72-bfb2-485f-b579-b67c1ffbea0b","system_id":"levelo_inurba_marseille","lat":43.290311,"lon":5.399895,"is_reserved":false,"is_disabled":true,"rental_uris":{"android":"levelo://app?vid=127b6b72-bfb2-485f-b579-b67c1ffbea0b","ios":"levelo://app?vid=127b6b72-bfb2-485f-b579-b67c1ffbea0b"},"vehicle_type_id":"4","last_reported":1753474327,"current_range_meters":14000,"station_id":"ce4bh392rcd13ifvqdm0","pricing_plan_id":"cebpf4jnsgd1na2vs0mg"},{"bike_id":"2da9ef52-e373-44d3-ac1a-cdf191fd0820","system_id":"levelo_inurba_marseille","lat":43.29309,"lon":5.37169,"is_reserved":false,"is_disabled":false,"rental_uris":{"android":"levelo://app?vid=2da9ef52-e373-44d3-ac1a-cdf191fd0820","ios":"levelo://app?vid=2da9ef52-e373-44d3-ac1a-cdf191fd0820"},"vehicle_type_id":"4","last_reported":1753474327,"current_range_meters":14000,"station_id":"ce4bgh92rcd13ifvqb40","pricing_plan_id":"cebpf4jnsgd1na2vs0mg"},{"bike_id":"eeeb9218-8042-4cbd-95a4-0834de564d28","system_id":"levelo_inurba_marseille","lat":43.21729,"lon":5.34635,"is_reserved":false,"is_disabled":true,"rental_uris":{"android":"levelo://app?vid=eeeb9218-8042-4cbd-95a4-0834de564d28","ios":"levelo://app?vid=eeeb9218-8042-4cbd-95a4-0834de564d28"},"vehicle_type_id":"4","last_reported":1753474327,"current_range_meters":14000,"station_id":"st_cvj6r9ubvosntc0bgbag","pricing_plan_id":"cebpf4jnsgd1na2vs0mg"},{"bike_id":"96f1b09c-b8b3-48dd-b1c8-574189195ebe","system_id":"levelo_inurba_marseille","lat":43.28847,"lon":5.35844,"is_reserved":false,"is_disabled":false,"rental_uris":{"android":"levelo://app?vid=96f1b09c-b8b3-48dd-b1c8-574189195ebe","ios":"levelo://app?vid=96f1b09c-b8b3-48dd-b1c8-574189195ebe"},"vehicle_type_id":"4","last_reported":1753474327,"current_range_meters":14000,"station_id":"ce4bhb12rcd13ifvqem0","pricing_plan_id":"cebpf4jnsgd1na2vs0mg"},{"bike_id":"f89b49d5-3b41-4f28-806a-9dae2d517758","system_id":"levelo_inurba_marseille","lat":43.29527,"lon":5.38544,"is_reserved":false,"is_disabled":false,"rental_uris":{"android":"levelo://app?vid=f89b49d5-3b41-4f28-806a-9dae2d517758","ios":"levelo://app?vid=f89b49d5-3b41-4f28-806a-9dae2d517758"},"vehicle_type_id":"4","last_reported":1753474327,"current_range_meters":14000,"station_id":"ce4bgih2rcd13ifvqba0","pricing_plan_id":"cebpf4jnsgd1na2vs0mg"},{"bike_id":"d634ec33-1da7-4322-b737-b1edf1bed96d","system_id":"levelo_inurba_marseille","lat":43.284795,"lon":5.384135,"is_reserved":false,"is_disabled":false,"rental_uris":{"android":"levelo://app?vid=d634ec33-1da7-4322-b737-b1edf1bed96d","ios":"levelo://app?vid=d634ec33-1da7-4322-b737-b1edf1bed96d"},"vehicle_type_id":"4","last_reported":1753474327,"current_range_meters":14000,"station_id":"ce4bh512rcd13ifvqe3g","pricing_plan_id":"cebpf4jnsgd1na2vs0mg"},{"bike_id":"5964789b-dcf4-4beb-acda-37a7ffb2b70b","system_id":"levelo_inurba_marseille","lat":43.29525,"lon":5.39033,"is_reserved":false,"is_disabled":false,"rental_uris":{"android":"levelo://app?vid=5964789b-dcf4-4beb-acda-37a7ffb2b70b","ios":"levelo://app?vid=5964789b-dcf4-4beb-acda-37a7ffb2b70b"},"vehicle_type_id":"4","last_reported":1753474327,"current_range_meters":14000,"station_id":"ce4bh3p2rcd13ifvqdp0","pricing_plan_id":"cebpf4jnsgd1na2vs0mg"},{"bike_id":"99ef8e95-49ab-445b-91b8-d8e442a9f4df","system_id":"levelo_inurba_marseille","lat":43.25491,"lon":5.37659,"is_reserved":false,"is_disabled":false,"rental_uris":{"android":"levelo://app?vid=99ef8e95-49ab-445b-91b8-d8e442a9f4df","ios":"levelo://app?vid=99ef8e95-49ab-445b-91b8-d8e442a9f4df"},"vehicle_type_id":"4","last_reported":1753474327,"current_range_meters":14400,"station_id":"ce4bhh12rcd13ifvqff0","pricing_plan_id":"cebpf4jnsgd1na2vs0mg"},{"bike_id":"21a22bc7-65fe-4b97-a005-517b211a0b98","system_id":"levelo_inurba_marseille","lat":43.23045,"lon":5.35515,"is_reserved":false,"is_disabled":false,"rental_uris":{"android":"levelo://app?vid=21a22bc7-65fe-4b97-a005-517b211a0b98","ios":"levelo://app?vid=21a22bc7-65fe-4b97-a005-517b211a0b98"},"vehicle_type_id":"4","last_reported":1753474327,"current_range_meters":14400,"station_id":"cpo3342slgdg3j2ifvpg","pricing_plan_id":"cebpf4jnsgd1na2vs0mg"},{"bike_id":"4d150642-a67a-41bd-a1fb-6e72d042f4b1","system_id":"levelo_inurba_marseille","lat":43.24803,"lon":5.37452,"is_reserved":false,"is_disabled":false,"rental_uris":{"android":"levelo://app?vid=4d150642-a67a-41bd-a1fb-6e72d042f4b1","ios":"levelo://app?vid=4d150642-a67a-41bd-a1fb-6e72d042f4b1"},"vehicle_type_id":"4","last_reported":1753474327,"current_range_meters":14400,"station_id":"ce4bhgh2rcd13ifvqfb0","pricing_plan_id":"cebpf4jnsgd1na2vs0mg"},{"bike_id":"06efbd2a-fcca-4784-aa74-70f8fdbdc82d","system_id":"levelo_inurba_marseille","lat":43.29279,"lon":5.36862,"is_reserved":false,"is_disabled":true,"rental_uris":{"android":"levelo://app?vid=06efbd2a-fcca-4784-aa74-70f8fdbdc82d","ios":"levelo://app?vid=06efbd2a-fcca-4784-aa74-70f8fdbdc82d"},"vehicle_type_id":"4","last_reported":1753474327,"current_range_meters":14400,"station_id":"ce4bhbp2rcd13ifvqesg","pricing_plan_id":"cebpf4jnsgd1na2vs0mg"},{"bike_id":"ec5cb7ad-6860-4def-8cdc-2b9b2dec4d72","system_id":"levelo_inurba_marseille","lat":43.28415,"lon":5.37511,"is_reserved":false,"is_disabled":false,"rental_uris":{"android":"levelo://app?vid=ec5cb7ad-6860-4def-8cdc-2b9b2dec4d72","ios":"levelo://app?vid=ec5cb7ad-6860-4def-8cdc-2b9b2dec4d72"},"vehicle_type_id":"4","last_reported":1753474327,"current_range_meters":14400,"station_id":"ce4bh412rcd13ifvqds0","pricing_plan_id":"cebpf4jnsgd1na2vs0mg"},{"bike_id":"468b1092-27f3-4041-9182-6faf58bac8da","system_id":"levelo_inurba_marseille","lat":43.25488,"lon":5.37655,"is_reserved":false,"is_disabled":false,"rental_uris":{"android":"levelo://app?vid=468b1092-27f3-4041-9182-6faf58bac8da","ios":"levelo://app?vid=468b1092-27f3-4041-9182-6faf58bac8da"},"vehicle_type_id":"4","last_reported":1753474327,"current_range_meters":14800,"station_id":"ce4bhh12rcd13ifvqff0","pricing_plan_id":"cebpf4jnsgd1na2vs0mg"},{"bike_id":"0c0d3d0d-5f61-4377-af39-2c47685dfb69","system_id":"levelo_inurba_marseille","lat":43.30526,"lon":5.36544,"is_reserved":false,"is_disabled":false,"rental_uris":{"android":"levelo://app?vid=0c0d3d0d-5f61-4377-af39-2c47685dfb69","ios":"levelo://app?vid=0c0d3d0d-5f61-4377-af39-2c47685dfb69"},"vehicle_type_id":"4","last_reported":1753474327,"current_range_meters":14800,"station_id":"ce4bgs12rcd13ifvqcag","pricing_plan_id":"cebpf4jnsgd1na2vs0mg"},{"bike_id":"22dca147-1260-44d8-822d-d9d1d50cce31","system_id":"levelo_inurba_marseille","lat":43.27459,"lon":5.39589,"is_reserved":false,"is_disabled":false,"rental_uris":{"android":"levelo://app?vid=22dca147-1260-44d8-822d-d9d1d50cce31","ios":"levelo://app?vid=22dca147-1260-44d8-822d-d9d1d50cce31"},"vehicle_type_id":"4","last_reported":1753474327,"current_range_meters":14800,"station_id":"","pricing_plan_id":"cebpf4jnsgd1na2vs0mg"},{"bike_id":"d79b409f-ca1b-43df-9348-1c6665f1fc25","system_id":"levelo_inurba_marseille","lat":43.22502,"lon":5.34772,"is_reserved":false,"is_disabled":false,"rental_uris":{"android":"levelo://app?vid=d79b409f-ca1b-43df-9348-1c6665f1fc25","ios":"levelo://app?vid=d79b409f-ca1b-43df-9348-1c6665f1fc25"},"vehicle_type_id":"4","last_reported":1753474327,"current_range_meters":14800,"station_id":"st_cvj5dfep6f1abm77gieg","pricing_plan_id":"cebpf4jnsgd1na2vs0mg"},{"bike_id":"6a31344b-c3b8-4187-993b-2789c70e17d0","system_id":"levelo_inurba_marseille","lat":43.29874,"lon":5.38905,"is_reserved":false,"is_disabled":false,"rental_uris":{"android":"levelo://app?vid=6a31344b-c3b8-4187-993b-2789c70e17d0","ios":"levelo://app?vid=6a31344b-c3b8-4187-993b-2789c70e17d0"},"vehicle_type_id":"4","last_reported":1753474327,"current_range_meters":14800,"station_id":"ce4bh392rcd13ifvqdl0","pricing_plan_id":"cebpf4jnsgd1na2vs0mg"},{"bike_id":"1880938e-90e7-4c00-8734-cde8f5d94ba6","system_id":"levelo_inurba_marseille","lat":43.30947,"lon":5.39038,"is_reserved":false,"is_disabled":false,"rental_uris":{"android":"levelo://app?vid=1880938e-90e7-4c00-8734-cde8f5d94ba6","ios":"levelo://app?vid=1880938e-90e7-4c00-8734-cde8f5d94ba6"},"vehicle_type_id":"4","last_reported":1753474327,"current_range_meters":14800,"station_id":"ce4bgup2rcd13ifvqco0","pricing_plan_id":"cebpf4jnsgd1na2vs0mg"},{"bike_id":"0a0bab8e-418c-444e-aec1-944747da80f2","system_id":"levelo_inurba_marseille","lat":43.29532,"lon":5.38553,"is_reserved":false,"is_disabled":false,"rental_uris":{"android":"levelo://app?vid=0a0bab8e-418c-444e-aec1-944747da80f2","ios":"levelo://app?vid=0a0bab8e-418c-444e-aec1-944747da80f2"},"vehicle_type_id":"4","last_reported":1753474327,"current_range_meters":14800,"station_id":"ce4bgih2rcd13ifvqba0","pricing_plan_id":"cebpf4jnsgd1na2vs0mg"},{"bike_id":"36f324cb-a9ad-46b7-afb0-26f814934e1f","system_id":"levelo_inurba_marseille","lat":43.26212,"lon":5.37448,"is_reserved":false,"is_disabled":false,"rental_uris":{"android":"levelo://app?vid=36f324cb-a9ad-46b7-afb0-26f814934e1f","ios":"levelo://app?vid=36f324cb-a9ad-46b7-afb0-26f814934e1f"},"vehicle_type_id":"4","last_reported":1753474327,"current_range_meters":14800,"station_id":"ce4bhgp2rcd13ifvqfc0","pricing_plan_id":"cebpf4jnsgd1na2vs0mg"},{"bike_id":"96a0fffb-4817-4872-a26a-5409e6b22ef9","system_id":"levelo_inurba_marseille","lat":43.2968,"lon":5.37314,"is_reserved":false,"is_disabled":false,"rental_uris":{"android":"levelo://app?vid=96a0fffb-4817-4872-a26a-5409e6b22ef9","ios":"levelo://app?vid=96a0fffb-4817-4872-a26a-5409e6b22ef9"},"vehicle_type_id":"4","last_reported":1753474327,"current_range_meters":14800,"station_id":"ce4bgk12rcd13ifvqbj0","pricing_plan_id":"cebpf4jnsgd1na2vs0mg"},{"bike_id":"a245e5aa-e6ca-4f49-9430-a81df1b0d372","system_id":"levelo_inurba_marseille","lat":43.290639,"lon":5.371561,"is_reserved":false,"is_disabled":false,"rental_uris":{"android":"levelo://app?vid=a245e5aa-e6ca-4f49-9430-a81df1b0d372","ios":"levelo://app?vid=a245e5aa-e6ca-4f49-9430-a81df1b0d372"},"vehicle_type_id":"4","last_reported":1753474327,"current_range_meters":14800,"station_id":"ce4bh5p2rcd13ifvqe4g","pricing_plan_id":"cebpf4jnsgd1na2vs0mg"},{"bike_id":"812d5501-ea65-4715-aa4b-8239dd8992be","system_id":"levelo_inurba_marseille","lat":43.26157,"lon":5.37464,"is_reserved":false,"is_disabled":true,"rental_uris":{"android":"levelo://app?vid=812d5501-ea65-4715-aa4b-8239dd8992be","ios":"levelo://app?vid=812d5501-ea65-4715-aa4b-8239dd8992be"},"vehicle_type_id":"4","last_reported":1753474327,"current_range_meters":14800,"station_id":"ce4bhgp2rcd13ifvqfc0","pricing_plan_id":"cebpf4jnsgd1na2vs0mg"},{"bike_id":"6f0d314a-d21a-4359-913c-09b9f413fab6","system_id":"levelo_inurba_marseille","lat":43.29548,"lon":5.42282,"is_reserved":false,"is_disabled":false,"rental_uris":{"android":"levelo://app?vid=6f0d314a-d21a-4359-913c-09b9f413fab6","ios":"levelo://app?vid=6f0d314a-d21a-4359-913c-09b9f413fab6"},"vehicle_type_id":"4","last_reported":1753474327,"current_range_meters":14800,"station_id":"ce4bhph2rcd13ifvqhdg","pricing_plan_id":"cebpf4jnsgd1na2vs0mg"},{"bike_id":"8dcab7ff-30e3-4f9e-a515-fabad1a70180","system_id":"levelo_inurba_marseille","lat":43.28408,"lon":5.37518,"is_reserved":false,"is_disabled":false,"rental_uris":{"android":"levelo://app?vid=8dcab7ff-30e3-4f9e-a515-fabad1a70180","ios":"levelo://app?vid=8dcab7ff-30e3-4f9e-a515-fabad1a70180"},"vehicle_type_id":"4","last_reported":1753474327,"current_range_meters":14800,"station_id":"ce4bh412rcd13ifvqds0","pricing_plan_id":"cebpf4jnsgd1na2vs0mg"},{"bike_id":"de99b14c-9afd-4bdd-bc56-50354c110c3d","system_id":"levelo_inurba_marseille","lat":43.25467,"lon":5.37687,"is_reserved":false,"is_disabled":false,"rental_uris":{"android":"levelo://app?vid=de99b14c-9afd-4bdd-bc56-50354c110c3d","ios":"levelo://app?vid=de99b14c-9afd-4bdd-bc56-50354c110c3d"},"vehicle_type_id":"4","last_reported":1753474327,"current_range_meters":15200,"station_id":"","pricing_plan_id":"cebpf4jnsgd1na2vs0mg"},{"bike_id":"970ce0d9-2c80-445a-b6ab-c8eb3acdf2c4","system_id":"levelo_inurba_marseille","lat":43.26228,"lon":5.40459,"is_reserved":false,"is_disabled":false,"rental_uris":{"android":"levelo://app?vid=970ce0d9-2c80-445a-b6ab-c8eb3acdf2c4","ios":"levelo://app?vid=970ce0d9-2c80-445a-b6ab-c8eb3acdf2c4"},"vehicle_type_id":"4","last_reported":1753474327,"current_range_meters":15200,"station_id":"ce4bhmh2rcd13ifvqgmg","pricing_plan_id":"cebpf4jnsgd1na2vs0mg"},{"bike_id":"33976e3d-53c0-4185-846b-4b84207e0d06","system_id":"levelo_inurba_marseille","lat":43.32285,"lon":5.38276,"is_reserved":false,"is_disabled":false,"rental_uris":{"android":"levelo://app?vid=33976e3d-53c0-4185-846b-4b84207e0d06","ios":"levelo://app?vid=33976e3d-53c0-4185-846b-4b84207e0d06"},"vehicle_type_id":"4","last_reported":1753474327,"current_range_meters":15200,"station_id":"ce4bhr12rcd13ifvqhqg","pricing_plan_id":"cebpf4jnsgd1na2vs0mg"},{"bike_id":"3c3834b9-c4f3-4336-a639-479581a8f858","system_id":"levelo_inurba_marseille","lat":43.286763,"lon":5.386687,"is_reserved":false,"is_disabled":false,"rental_uris":{"android":"levelo://app?vid=3c3834b9-c4f3-4336-a639-479581a8f858","ios":"levelo://app?vid=3c3834b9-c4f3-4336-a639-479581a8f858"},"vehicle_type_id":"4","last_reported":1753474327,"current_range_meters":14800,"station_id":"ce4bh492rcd13ifvqdug","pricing_plan_id":"cebpf4jnsgd1na2vs0mg"},{"bike_id":"9c268bb7-603c-426b-8041-cda0f51f7fcc","system_id":"levelo_inurba_marseille","lat":43.30889,"lon":5.37189,"is_reserved":false,"is_disabled":false,"rental_uris":{"android":"levelo://app?vid=9c268bb7-603c-426b-8041-cda0f51f7fcc","ios":"levelo://app?vid=9c268bb7-603c-426b-8041-cda0f51f7fcc"},"vehicle_type_id":"4","last_reported":1753474327,"current_range_meters":15200,"station_id":"ce4bguh2rcd13ifvqckg","pricing_plan_id":"cebpf4jnsgd1na2vs0mg"},{"bike_id":"c26f1b4d-11e7-4aaa-8fd1-0c8a6e22bd7c","system_id":"levelo_inurba_marseille","lat":43.3013,"lon":5.3879,"is_reserved":false,"is_disabled":true,"rental_uris":{"android":"levelo://app?vid=c26f1b4d-11e7-4aaa-8fd1-0c8a6e22bd7c","ios":"levelo://app?vid=c26f1b4d-11e7-4aaa-8fd1-0c8a6e22bd7c"},"vehicle_type_id":"4","last_reported":1753474327,"current_range_meters":16000,"station_id":"ce4bghh2rcd13ifvqb60","pricing_plan_id":"cebpf4jnsgd1na2vs0mg"},{"bike_id":"7fa33096-7cb8-4818-8ec0-f73faa7fc10b","system_id":"levelo_inurba_marseille","lat":43.29526,"lon":5.38541,"is_reserved":false,"is_disabled":false,"rental_uris":{"android":"levelo://app?vid=7fa33096-7cb8-4818-8ec0-f73faa7fc10b","ios":"levelo://app?vid=7fa33096-7cb8-4818-8ec0-f73faa7fc10b"},"vehicle_type_id":"4","last_reported":1753474327,"current_range_meters":16000,"station_id":"ce4bgih2rcd13ifvqba0","pricing_plan_id":"cebpf4jnsgd1na2vs0mg"},{"bike_id":"da68e152-3048-496a-87db-5f54aa3df039","system_id":"levelo_inurba_marseille","lat":43.29253,"lon":5.38448,"is_reserved":false,"is_disabled":false,"rental_uris":{"android":"levelo://app?vid=da68e152-3048-496a-87db-5f54aa3df039","ios":"levelo://app?vid=da68e152-3048-496a-87db-5f54aa3df039"},"vehicle_type_id":"4","last_reported":1753474327,"current_range_meters":16000,"station_id":"ce4bh692rcd13ifvqea0","pricing_plan_id":"cebpf4jnsgd1na2vs0mg"},{"bike_id":"bf622df1-da97-49ac-b9cd-f7fe3e87393d","system_id":"levelo_inurba_marseille","lat":43.31165,"lon":5.38717,"is_reserved":false,"is_disabled":false,"rental_uris":{"android":"levelo://app?vid=bf622df1-da97-49ac-b9cd-f7fe3e87393d","ios":"levelo://app?vid=bf622df1-da97-49ac-b9cd-f7fe3e87393d"},"vehicle_type_id":"4","last_reported":1753474327,"current_range_meters":16000,"station_id":"ce4bgv12rcd13ifvqcp0","pricing_plan_id":"cebpf4jnsgd1na2vs0mg"},{"bike_id":"dd4669b8-7a1e-455c-921c-cef6ea4213f0","system_id":"levelo_inurba_marseille","lat":43.29731,"lon":5.37688,"is_reserved":false,"is_disabled":false,"rental_uris":{"android":"levelo://app?vid=dd4669b8-7a1e-455c-921c-cef6ea4213f0","ios":"levelo://app?vid=dd4669b8-7a1e-455c-921c-cef6ea4213f0"},"vehicle_type_id":"4","last_reported":1753474327,"current_range_meters":16000,"station_id":"ce4bgkh2rcd13ifvqbl0","pricing_plan_id":"cebpf4jnsgd1na2vs0mg"},{"bike_id":"57755280-973c-4ff3-9c25-8f15e2c5b510","system_id":"levelo_inurba_marseille","lat":43.31872,"lon":5.37373,"is_reserved":false,"is_disabled":false,"rental_uris":{"android":"levelo://app?vid=57755280-973c-4ff3-9c25-8f15e2c5b510","ios":"levelo://app?vid=57755280-973c-4ff3-9c25-8f15e2c5b510"},"vehicle_type_id":"4","last_reported":1753474327,"current_range_meters":16000,"station_id":"","pricing_plan_id":"cebpf4jnsgd1na2vs0mg"},{"bike_id":"ec2ff7fe-96f8-4ea8-9c99-8b7c542133c4","system_id":"levelo_inurba_marseille","lat":43.27383,"lon":5.36251,"is_reserved":false,"is_disabled":false,"rental_uris":{"android":"levelo://app?vid=ec2ff7fe-96f8-4ea8-9c99-8b7c542133c4","ios":"levelo://app?vid=ec2ff7fe-96f8-4ea8-9c99-8b7c542133c4"},"vehicle_type_id":"4","last_reported":1753474327,"current_range_meters":16000,"station_id":"ce4bhbh2rcd13ifvqeo0","pricing_plan_id":"cebpf4jnsgd1na2vs0mg"},{"bike_id":"5866e9c2-25bb-4eab-a596-84f698b17666","system_id":"levelo_inurba_marseille","lat":43.30945,"lon":5.38997,"is_reserved":false,"is_disabled":false,"rental_uris":{"android":"levelo://app?vid=5866e9c2-25bb-4eab-a596-84f698b17666","ios":"levelo://app?vid=5866e9c2-25bb-4eab-a596-84f698b17666"},"vehicle_type_id":"4","last_reported":1753474327,"current_range_meters":16000,"station_id":"ce4bgup2rcd13ifvqco0","pricing_plan_id":"cebpf4jnsgd1na2vs0mg"},{"bike_id":"09b7f600-cb1e-4ea0-adc2-9c3dcb778794","system_id":"levelo_inurba_marseille","lat":43.22495,"lon":5.34802,"is_reserved":false,"is_disabled":false,"rental_uris":{"android":"levelo://app?vid=09b7f600-cb1e-4ea0-adc2-9c3dcb778794","ios":"levelo://app?vid=09b7f600-cb1e-4ea0-adc2-9c3dcb778794"},"vehicle_type_id":"4","last_reported":1753474327,"current_range_meters":16400,"station_id":"st_cvj5dfep6f1abm77gieg","pricing_plan_id":"cebpf4jnsgd1na2vs0mg"},{"bike_id":"7f7a4770-cb44-4cbe-afee-f7531a238fa9","system_id":"levelo_inurba_marseille","lat":43.225059,"lon":5.347842,"is_reserved":false,"is_disabled":false,"rental_uris":{"android":"levelo://app?vid=7f7a4770-cb44-4cbe-afee-f7531a238fa9","ios":"levelo://app?vid=7f7a4770-cb44-4cbe-afee-f7531a238fa9"},"vehicle_type_id":"4","last_reported":1753474327,"current_range_meters":16400,"station_id":"st_cvj5dfep6f1abm77gieg","pricing_plan_id":"cebpf4jnsgd1na2vs0mg"},{"bike_id":"847b44c9-efab-4746-8937-dcebf1206fff","system_id":"levelo_inurba_marseille","lat":43.26206,"lon":5.37436,"is_reserved":false,"is_disabled":true,"rental_uris":{"android":"levelo://app?vid=847b44c9-efab-4746-8937-dcebf1206fff","ios":"levelo://app?vid=847b44c9-efab-4746-8937-dcebf1206fff"},"vehicle_type_id":"4","last_reported":1753474327,"current_range_meters":16400,"station_id":"ce4bhgp2rcd13ifvqfc0","pricing_plan_id":"cebpf4jnsgd1na2vs0mg"},{"bike_id":"7528e0ee-3254-4380-8007-ffef61e356ca","system_id":"levelo_inurba_marseille","lat":43.26547,"lon":5.3729,"is_reserved":false,"is_disabled":false,"rental_uris":{"android":"levelo://app?vid=7528e0ee-3254-4380-8007-ffef61e356ca","ios":"levelo://app?vid=7528e0ee-3254-4380-8007-ffef61e356ca"},"vehicle_type_id":"4","last_reported":1753474327,"current_range_meters":16400,"station_id":"ce4bhg12rcd13ifvqf70","pricing_plan_id":"cebpf4jnsgd1na2vs0mg"},{"bike_id":"a520aef3-d8ee-479c-910a-c0447822ca28","system_id":"levelo_inurba_marseille","lat":43.32677,"lon":5.41048,"is_reserved":false,"is_disabled":false,"rental_uris":{"android":"levelo://app?vid=a520aef3-d8ee-479c-910a-c0447822ca28","ios":"levelo://app?vid=a520aef3-d8ee-479c-910a-c0447822ca28"},"vehicle_type_id":"4","last_reported":1753474327,"current_range_meters":16400,"station_id":"","pricing_plan_id":"cebpf4jnsgd1na2vs0mg"},{"bike_id":"64617613-cad8-42da-98df-41555ec559e2","system_id":"levelo_inurba_marseille","lat":43.29529,"lon":5.38537,"is_reserved":false,"is_disabled":false,"rental_uris":{"android":"levelo://app?vid=64617613-cad8-42da-98df-41555ec559e2","ios":"levelo://app?vid=64617613-cad8-42da-98df-41555ec559e2"},"vehicle_type_id":"4","last_reported":1753474327,"current_range_meters":16400,"station_id":"ce4bgih2rcd13ifvqba0","pricing_plan_id":"cebpf4jnsgd1na2vs0mg"},{"bike_id":"45ec1091-e6ba-41f1-9533-82769723cafd","system_id":"levelo_inurba_marseille","lat":43.32376,"lon":5.38867,"is_reserved":false,"is_disabled":false,"rental_uris":{"android":"levelo://app?vid=45ec1091-e6ba-41f1-9533-82769723cafd","ios":"levelo://app?vid=45ec1091-e6ba-41f1-9533-82769723cafd"},"vehicle_type_id":"4","last_reported":1753474327,"current_range_meters":16400,"station_id":"ce4bhqp2rcd13ifvqhog","pricing_plan_id":"cebpf4jnsgd1na2vs0mg"},{"bike_id":"cf9f712a-22c0-4abb-9956-76179c85a1d3","system_id":"levelo_inurba_marseille","lat":43.29276,"lon":5.40117,"is_reserved":false,"is_disabled":false,"rental_uris":{"android":"levelo://app?vid=cf9f712a-22c0-4abb-9956-76179c85a1d3","ios":"levelo://app?vid=cf9f712a-22c0-4abb-9956-76179c85a1d3"},"vehicle_type_id":"4","last_reported":1753474327,"current_range_meters":16800,"station_id":"ce4bh312rcd13ifvqdk0","pricing_plan_id":"cebpf4jnsgd1na2vs0mg"},{"bike_id":"329c8f00-9fb0-47d7-84ef-1bc64e291f9c","system_id":"levelo_inurba_marseille","lat":43.292789,"lon":5.36837,"is_reserved":false,"is_disabled":false,"rental_uris":{"android":"levelo://app?vid=329c8f00-9fb0-47d7-84ef-1bc64e291f9c","ios":"levelo://app?vid=329c8f00-9fb0-47d7-84ef-1bc64e291f9c"},"vehicle_type_id":"4","last_reported":1753474327,"current_range_meters":16400,"station_id":"","pricing_plan_id":"cebpf4jnsgd1na2vs0mg"},{"bike_id":"6ab0b13c-2ff1-417a-acfd-489d6800d4c9","system_id":"levelo_inurba_marseille","lat":43.27371,"lon":5.36243,"is_reserved":false,"is_disabled":true,"rental_uris":{"android":"levelo://app?vid=6ab0b13c-2ff1-417a-acfd-489d6800d4c9","ios":"levelo://app?vid=6ab0b13c-2ff1-417a-acfd-489d6800d4c9"},"vehicle_type_id":"4","last_reported":1753474327,"current_range_meters":16400,"station_id":"ce4bhbh2rcd13ifvqeo0","pricing_plan_id":"cebpf4jnsgd1na2vs0mg"},{"bike_id":"7a8cb2b1-9b1c-4281-ad3a-2e95df0df2ca","system_id":"levelo_inurba_marseille","lat":43.30326,"lon":5.40441,"is_reserved":false,"is_disabled":false,"rental_uris":{"android":"levelo://app?vid=7a8cb2b1-9b1c-4281-ad3a-2e95df0df2ca","ios":"levelo://app?vid=7a8cb2b1-9b1c-4281-ad3a-2e95df0df2ca"},"vehicle_type_id":"4","last_reported":1753474327,"current_range_meters":16800,"station_id":"ce4bh012rcd13ifvqd10","pricing_plan_id":"cebpf4jnsgd1na2vs0mg"},{"bike_id":"1f60027f-5ca6-4a98-af30-65946b6c5b20","system_id":"levelo_inurba_marseille","lat":43.297241,"lon":5.366003,"is_reserved":false,"is_disabled":false,"rental_uris":{"android":"levelo://app?vid=1f60027f-5ca6-4a98-af30-65946b6c5b20","ios":"levelo://app?vid=1f60027f-5ca6-4a98-af30-65946b6c5b20"},"vehicle_type_id":"4","last_reported":1753474327,"current_range_meters":16800,"station_id":"ce4bgn12rcd13ifvqbt0","pricing_plan_id":"cebpf4jnsgd1na2vs0mg"},{"bike_id":"c4223149-eeb8-4da8-830b-af67942691a3","system_id":"levelo_inurba_marseille","lat":43.29452,"lon":5.38635,"is_reserved":false,"is_disabled":false,"rental_uris":{"android":"levelo://app?vid=c4223149-eeb8-4da8-830b-af67942691a3","ios":"levelo://app?vid=c4223149-eeb8-4da8-830b-af67942691a3"},"vehicle_type_id":"4","last_reported":1753474327,"current_range_meters":16800,"station_id":"","pricing_plan_id":"cebpf4jnsgd1na2vs0mg"},{"bike_id":"e441892a-4929-4d36-992f-2ccac0f0b449","system_id":"levelo_inurba_marseille","lat":43.24162,"lon":5.36381,"is_reserved":false,"is_disabled":false,"rental_uris":{"android":"levelo://app?vid=e441892a-4929-4d36-992f-2ccac0f0b449","ios":"levelo://app?vid=e441892a-4929-4d36-992f-2ccac0f0b449"},"vehicle_type_id":"4","last_reported":1753474327,"current_range_meters":16800,"station_id":"cpo36qri1sfpv3e86is0","pricing_plan_id":"cebpf4jnsgd1na2vs0mg"},{"bike_id":"152247a2-6f09-485f-acf9-4f6bd27a046c","system_id":"levelo_inurba_marseille","lat":43.281545,"lon":5.426328,"is_reserved":false,"is_disabled":false,"rental_uris":{"android":"levelo://app?vid=152247a2-6f09-485f-acf9-4f6bd27a046c","ios":"levelo://app?vid=152247a2-6f09-485f-acf9-4f6bd27a046c"},"vehicle_type_id":"4","last_reported":1753474327,"current_range_meters":16800,"station_id":"ce4bhnh2rcd13ifvqgug","pricing_plan_id":"cebpf4jnsgd1na2vs0mg"},{"bike_id":"ecc482de-a41e-4a7f-87d2-50064419633c","system_id":"levelo_inurba_marseille","lat":43.27671,"lon":5.3887,"is_reserved":false,"is_disabled":false,"rental_uris":{"android":"levelo://app?vid=ecc482de-a41e-4a7f-87d2-50064419633c","ios":"levelo://app?vid=ecc482de-a41e-4a7f-87d2-50064419633c"},"vehicle_type_id":"4","last_reported":1753474327,"current_range_meters":13600,"station_id":"ce4bhi12rcd13ifvqfo0","pricing_plan_id":"cebpf4jnsgd1na2vs0mg"},{"bike_id":"18ddd60c-7ef7-44b1-852b-40cb6a39f9b2","system_id":"levelo_inurba_marseille","lat":43.29533,"lon":5.38548,"is_reserved":false,"is_disabled":false,"rental_uris":{"android":"levelo://app?vid=18ddd60c-7ef7-44b1-852b-40cb6a39f9b2","ios":"levelo://app?vid=18ddd60c-7ef7-44b1-852b-40cb6a39f9b2"},"vehicle_type_id":"4","last_reported":1753474327,"current_range_meters":16800,"station_id":"ce4bgih2rcd13ifvqba0","pricing_plan_id":"cebpf4jnsgd1na2vs0mg"},{"bike_id":"3e84e0d6-3adc-43a1-af4c-88d316dbdbdf","system_id":"levelo_inurba_marseille","lat":43.23958,"lon":5.3664,"is_reserved":false,"is_disabled":false,"rental_uris":{"android":"levelo://app?vid=3e84e0d6-3adc-43a1-af4c-88d316dbdbdf","ios":"levelo://app?vid=3e84e0d6-3adc-43a1-af4c-88d316dbdbdf"},"vehicle_type_id":"4","last_reported":1753474327,"current_range_meters":16400,"station_id":"ce4bhi12rcd13ifvqfp0","pricing_plan_id":"cebpf4jnsgd1na2vs0mg"},{"bike_id":"ec74f06a-40dc-4c39-a0cb-57d6f568a4e5","system_id":"levelo_inurba_marseille","lat":43.22921,"lon":5.35387,"is_reserved":false,"is_disabled":false,"rental_uris":{"android":"levelo://app?vid=ec74f06a-40dc-4c39-a0cb-57d6f568a4e5","ios":"levelo://app?vid=ec74f06a-40dc-4c39-a0cb-57d6f568a4e5"},"vehicle_type_id":"4","last_reported":1753474327,"current_range_meters":16800,"station_id":"cpo3532slgdg3j2ikp40","pricing_plan_id":"cebpf4jnsgd1na2vs0mg"},{"bike_id":"e1f4c2b3-a6d4-4a1e-a3d2-e76bef8c3be4","system_id":"levelo_inurba_marseille","lat":43.25499,"lon":5.3765,"is_reserved":false,"is_disabled":false,"rental_uris":{"android":"levelo://app?vid=e1f4c2b3-a6d4-4a1e-a3d2-e76bef8c3be4","ios":"levelo://app?vid=e1f4c2b3-a6d4-4a1e-a3d2-e76bef8c3be4"},"vehicle_type_id":"4","last_reported":1753474327,"current_range_meters":16800,"station_id":"ce4bhh12rcd13ifvqff0","pricing_plan_id":"cebpf4jnsgd1na2vs0mg"},{"bike_id":"a059cd0c-e232-44ad-9559-6b80e8573925","system_id":"levelo_inurba_marseille","lat":43.321175,"lon":5.367935,"is_reserved":false,"is_disabled":false,"rental_uris":{"android":"levelo://app?vid=a059cd0c-e232-44ad-9559-6b80e8573925","ios":"levelo://app?vid=a059cd0c-e232-44ad-9559-6b80e8573925"},"vehicle_type_id":"4","last_reported":1753474327,"current_range_meters":16800,"station_id":"ce4bhrh2rcd13ifvqhug","pricing_plan_id":"cebpf4jnsgd1na2vs0mg"},{"bike_id":"947f1e98-8c4d-4fbd-96a5-202caeca2cc0","system_id":"levelo_inurba_marseille","lat":43.25819,"lon":5.39434,"is_reserved":false,"is_disabled":false,"rental_uris":{"android":"levelo://app?vid=947f1e98-8c4d-4fbd-96a5-202caeca2cc0","ios":"levelo://app?vid=947f1e98-8c4d-4fbd-96a5-202caeca2cc0"},"vehicle_type_id":"4","last_reported":1753474327,"current_range_meters":16800,"station_id":"ce4bhip2rcd13ifvqft0","pricing_plan_id":"cebpf4jnsgd1na2vs0mg"},{"bike_id":"8c581ec7-4691-451b-bcc8-0ed14d3f29d1","system_id":"levelo_inurba_marseille","lat":43.29512,"lon":5.37495,"is_reserved":false,"is_disabled":false,"rental_uris":{"android":"levelo://app?vid=8c581ec7-4691-451b-bcc8-0ed14d3f29d1","ios":"levelo://app?vid=8c581ec7-4691-451b-bcc8-0ed14d3f29d1"},"vehicle_type_id":"4","last_reported":1753474327,"current_range_meters":16800,"station_id":"ce4bgkp2rcd13ifvqbmg","pricing_plan_id":"cebpf4jnsgd1na2vs0mg"},{"bike_id":"a94045bd-b90a-43b7-a31c-744a647a9299","system_id":"levelo_inurba_marseille","lat":43.30953,"lon":5.39035,"is_reserved":false,"is_disabled":false,"rental_uris":{"android":"levelo://app?vid=a94045bd-b90a-43b7-a31c-744a647a9299","ios":"levelo://app?vid=a94045bd-b90a-43b7-a31c-744a647a9299"},"vehicle_type_id":"4","last_reported":1753474327,"current_range_meters":16800,"station_id":"ce4bgup2rcd13ifvqco0","pricing_plan_id":"cebpf4jnsgd1na2vs0mg"},{"bike_id":"4edfd616-a6b8-4221-9270-0a79422b1d0d","system_id":"levelo_inurba_marseille","lat":43.29709,"lon":5.376967,"is_reserved":false,"is_disabled":false,"rental_uris":{"android":"levelo://app?vid=4edfd616-a6b8-4221-9270-0a79422b1d0d","ios":"levelo://app?vid=4edfd616-a6b8-4221-9270-0a79422b1d0d"},"vehicle_type_id":"4","last_reported":1753474327,"current_range_meters":17200,"station_id":"ce4bgkh2rcd13ifvqbl0","pricing_plan_id":"cebpf4jnsgd1na2vs0mg"},{"bike_id":"27e8f606-5cf5-4b7d-8d19-86ff29939c7a","system_id":"levelo_inurba_marseille","lat":43.32286,"lon":5.38272,"is_reserved":false,"is_disabled":false,"rental_uris":{"android":"levelo://app?vid=27e8f606-5cf5-4b7d-8d19-86ff29939c7a","ios":"levelo://app?vid=27e8f606-5cf5-4b7d-8d19-86ff29939c7a"},"vehicle_type_id":"4","last_reported":1753474327,"current_range_meters":17200,"station_id":"ce4bhr12rcd13ifvqhqg","pricing_plan_id":"cebpf4jnsgd1na2vs0mg"},{"bike_id":"1855cbe1-5a05-480e-9057-6e9b3976dbbe","system_id":"levelo_inurba_marseille","lat":43.33728,"lon":5.39185,"is_reserved":false,"is_disabled":false,"rental_uris":{"android":"levelo://app?vid=1855cbe1-5a05-480e-9057-6e9b3976dbbe","ios":"levelo://app?vid=1855cbe1-5a05-480e-9057-6e9b3976dbbe"},"vehicle_type_id":"4","last_reported":1753474327,"current_range_meters":17200,"station_id":"ce4bhr92rcd13ifvqhsg","pricing_plan_id":"cebpf4jnsgd1na2vs0mg"},{"bike_id":"99938384-2779-4389-9a1c-4b06450d69be","system_id":"levelo_inurba_marseille","lat":43.272,"lon":5.3923,"is_reserved":false,"is_disabled":true,"rental_uris":{"android":"levelo://app?vid=99938384-2779-4389-9a1c-4b06450d69be","ios":"levelo://app?vid=99938384-2779-4389-9a1c-4b06450d69be"},"vehicle_type_id":"4","last_reported":1753474327,"current_range_meters":17200,"station_id":"ce4bhhp2rcd13ifvqfm0","pricing_plan_id":"cebpf4jnsgd1na2vs0mg"},{"bike_id":"f26f7037-ffb9-45ee-927e-c065c146e30a","system_id":"levelo_inurba_marseille","lat":43.287836,"lon":5.390889,"is_reserved":false,"is_disabled":false,"rental_uris":{"android":"levelo://app?vid=f26f7037-ffb9-45ee-927e-c065c146e30a","ios":"levelo://app?vid=f26f7037-ffb9-45ee-927e-c065c146e30a"},"vehicle_type_id":"4","last_reported":1753474327,"current_range_meters":17200,"station_id":"ce4bh392rcd13ifvqdm0","pricing_plan_id":"cebpf4jnsgd1na2vs0mg"},{"bike_id":"670ba790-ac14-4bf5-a05b-c3507745d577","system_id":"levelo_inurba_marseille","lat":43.26208,"lon":5.37448,"is_reserved":false,"is_disabled":false,"rental_uris":{"android":"levelo://app?vid=670ba790-ac14-4bf5-a05b-c3507745d577","ios":"levelo://app?vid=670ba790-ac14-4bf5-a05b-c3507745d577"},"vehicle_type_id":"4","last_reported":1753474327,"current_range_meters":17200,"station_id":"ce4bhgp2rcd13ifvqfc0","pricing_plan_id":"cebpf4jnsgd1na2vs0mg"},{"bike_id":"b2750d43-9698-4e8d-8e62-f37c413f093a","system_id":"levelo_inurba_marseille","lat":43.29678,"lon":5.37265,"is_reserved":false,"is_disabled":false,"rental_uris":{"android":"levelo://app?vid=b2750d43-9698-4e8d-8e62-f37c413f093a","ios":"levelo://app?vid=b2750d43-9698-4e8d-8e62-f37c413f093a"},"vehicle_type_id":"4","last_reported":1753474327,"current_range_meters":17200,"station_id":"ce4bgk12rcd13ifvqbj0","pricing_plan_id":"cebpf4jnsgd1na2vs0mg"},{"bike_id":"5f7e0b74-69e9-46e3-9c7b-9192a5259d9b","system_id":"levelo_inurba_marseille","lat":43.29267,"lon":5.38447,"is_reserved":false,"is_disabled":false,"rental_uris":{"android":"levelo://app?vid=5f7e0b74-69e9-46e3-9c7b-9192a5259d9b","ios":"levelo://app?vid=5f7e0b74-69e9-46e3-9c7b-9192a5259d9b"},"vehicle_type_id":"4","last_reported":1753474327,"current_range_meters":17200,"station_id":"ce4bh692rcd13ifvqea0","pricing_plan_id":"cebpf4jnsgd1na2vs0mg"},{"bike_id":"d4a4ff82-40eb-4c79-a12e-ba898c990900","system_id":"levelo_inurba_marseille","lat":43.27628,"lon":5.36075,"is_reserved":false,"is_disabled":false,"rental_uris":{"android":"levelo://app?vid=d4a4ff82-40eb-4c79-a12e-ba898c990900","ios":"levelo://app?vid=d4a4ff82-40eb-4c79-a12e-ba898c990900"},"vehicle_type_id":"4","last_reported":1753474327,"current_range_meters":17200,"station_id":"ce4bgj92rcd13ifvqbe0","pricing_plan_id":"cebpf4jnsgd1na2vs0mg"},{"bike_id":"5e2fe5ca-2f26-4b3f-b274-f494f83ba309","system_id":"levelo_inurba_marseille","lat":43.28699,"lon":5.3738,"is_reserved":false,"is_disabled":false,"rental_uris":{"android":"levelo://app?vid=5e2fe5ca-2f26-4b3f-b274-f494f83ba309","ios":"levelo://app?vid=5e2fe5ca-2f26-4b3f-b274-f494f83ba309"},"vehicle_type_id":"4","last_reported":1753474327,"current_range_meters":17200,"station_id":"ce4bh3p2rcd13ifvqdq0","pricing_plan_id":"cebpf4jnsgd1na2vs0mg"},{"bike_id":"d93afedf-4a28-4260-b194-515c47653b85","system_id":"levelo_inurba_marseille","lat":43.30944,"lon":5.39038,"is_reserved":false,"is_disabled":false,"rental_uris":{"android":"levelo://app?vid=d93afedf-4a28-4260-b194-515c47653b85","ios":"levelo://app?vid=d93afedf-4a28-4260-b194-515c47653b85"},"vehicle_type_id":"4","last_reported":1753474327,"current_range_meters":17200,"station_id":"ce4bgup2rcd13ifvqco0","pricing_plan_id":"cebpf4jnsgd1na2vs0mg"},{"bike_id":"7fd9bb23-7169-4391-a00a-920c5121a49e","system_id":"levelo_inurba_marseille","lat":43.317511,"lon":5.39017,"is_reserved":false,"is_disabled":false,"rental_uris":{"android":"levelo://app?vid=7fd9bb23-7169-4391-a00a-920c5121a49e","ios":"levelo://app?vid=7fd9bb23-7169-4391-a00a-920c5121a49e"},"vehicle_type_id":"4","last_reported":1753474327,"current_range_meters":17600,"station_id":"ce4bhqp2rcd13ifvqhng","pricing_plan_id":"cebpf4jnsgd1na2vs0mg"},{"bike_id":"8f4ca69e-9621-4ffd-91af-41f939f5f71e","system_id":"levelo_inurba_marseille","lat":43.23959,"lon":5.36625,"is_reserved":false,"is_disabled":false,"rental_uris":{"android":"levelo://app?vid=8f4ca69e-9621-4ffd-91af-41f939f5f71e","ios":"levelo://app?vid=8f4ca69e-9621-4ffd-91af-41f939f5f71e"},"vehicle_type_id":"4","last_reported":1753474327,"current_range_meters":17600,"station_id":"ce4bhi12rcd13ifvqfp0","pricing_plan_id":"cebpf4jnsgd1na2vs0mg"},{"bike_id":"c3c2652b-f2d7-4ed4-89ec-9559feb01451","system_id":"levelo_inurba_marseille","lat":43.292236,"lon":5.360521,"is_reserved":false,"is_disabled":true,"rental_uris":{"android":"levelo://app?vid=c3c2652b-f2d7-4ed4-89ec-9559feb01451","ios":"levelo://app?vid=c3c2652b-f2d7-4ed4-89ec-9559feb01451"},"vehicle_type_id":"4","last_reported":1753474327,"current_range_meters":17600,"station_id":"ce4bhbh2rcd13ifvqeqg","pricing_plan_id":"cebpf4jnsgd1na2vs0mg"},{"bike_id":"e147550b-d8d5-4b42-8fca-07f90e2f1d16","system_id":"levelo_inurba_marseille","lat":43.29582,"lon":5.37525,"is_reserved":false,"is_disabled":false,"rental_uris":{"android":"levelo://app?vid=e147550b-d8d5-4b42-8fca-07f90e2f1d16","ios":"levelo://app?vid=e147550b-d8d5-4b42-8fca-07f90e2f1d16"},"vehicle_type_id":"4","last_reported":1753474327,"current_range_meters":17600,"station_id":"ce4bgh92rcd13ifvqb50","pricing_plan_id":"cebpf4jnsgd1na2vs0mg"},{"bike_id":"db6eb0bf-f5c6-482b-b46f-bf4ca73b5be1","system_id":"levelo_inurba_marseille","lat":43.299093,"lon":5.365347,"is_reserved":false,"is_disabled":false,"rental_uris":{"android":"levelo://app?vid=db6eb0bf-f5c6-482b-b46f-bf4ca73b5be1","ios":"levelo://app?vid=db6eb0bf-f5c6-482b-b46f-bf4ca73b5be1"},"vehicle_type_id":"4","last_reported":1753474327,"current_range_meters":17600,"station_id":"ce4bgjh2rcd13ifvqbf0","pricing_plan_id":"cebpf4jnsgd1na2vs0mg"},