{"last_updated":1734098960,"ttl":60,"version":"2.2","data":{"bikes":[{"bike_id":"45c22bfb-3859-46ca-bbdd-b43970628095","system_id":"levelo_inurba_marseille","lat":43.23184,"lon":5.39996,"is_reserved":false,"is_disabled":false,"rental_uris":{"android":"levelo://app?vid=45c22bfb-3859-46ca-bbdd-b43970628095","ios":"levelo://app?vid=45c22bfb-3859-46ca-bbdd-b43970628095"},"vehicle_type_id":"4","last_reported":1734098960,"current_range_meters":26000,"station_id":"ce4bhn12rcd13ifvqgqg","pricing_plan_id":"cebpf4jnsgd1na2vs0mg"},{"bike_id":"3e5d99b9-1aaf-48b9-b5fb-fb7a0b5b1ba5","system_id":"levelo_inurba_marseille","lat":43.28984,"lon":5.39237,"is_reserved":false,"is_disabled":true,"rental_uris":{"android":"levelo://app?vid=3e5d99b9-1aaf-48b9-b5fb-fb7a0b5b1ba5","ios":"levelo://app?vid=3e5d99b9-1aaf-48b9-b5fb-fb7a0b5b1ba5"},"vehicle_type_id":"4","last_reported":1734098960,"current_range_meters":0,"station_id":"","pricing_plan_id":"cebpf4jnsgd1na2vs0mg"},{"bike_id":"ed18df8c-5a65-436b-b0b8-5f5d8d39d343","system_id":"levelo_inurba_marseille","lat":43.26029,"lon":5.37544,"is_reserved":false,"is_disabled":true,"rental_uris":{"android":"levelo://app?vid=ed18df8c-5a65-436b-b0b8-5f5d8d39d343","ios":"levelo://app?vid=ed18df8c-5a65-436b-b0b8-5f5d8d39d343"},"vehicle_type_id":"4","last_reported":1734098960,"current_range_meters":0,"station_id":"ce4bhgh2rcd13ifvqfa0","pricing_plan_id":"cebpf4jnsgd1na2vs0mg"},{"bike_id":"68a5e283-83da-4da3-a08f-76abd1202548","system_id":"levelo_inurba_marseille","lat":43.31495,"lon":5.37309,"is_reserved":false,"is_disabled":false,"rental_uris":{"android":"levelo://app?vid=68a5e283-83da-4da3-a08f-76abd1202548","ios":"levelo://app?vid=68a5e283-83da-4da3-a08f-76abd1202548"},"vehicle_type_id":"4","last_reported":1734098960,"current_range_meters":36400,"station_id":"ce4bgt12rcd13ifvqcd0","pricing_plan_id":"cebpf4jnsgd1na2vs0mg"},{"bike_id":"3a0e0c4c-9196-431e-a5d3-cdea5b69f5a5","system_id":"levelo_inurba_marseille","lat":43.29607,"lon":5.38109,"is_reserved":false,"is_disabled":false,"rental_uris":{"android":"levelo://app?vid=3a0e0c4c-9196-431e-a5d3-cdea5b69f5a5","ios":"levelo://app?vid=3a0e0c4c-9196-431e-a5d3-cdea5b69f5a5"},"vehicle_type_id":"4","last_reported":1734098960,"current_range_meters":27600,"station_id":"ce4bgl12rcd13ifvqbo0","pricing_plan_id":"cebpf4jnsgd1na2vs0mg"},{"bike_id":"ffd95177-d0c3-4ef3-8e4f-16f4129469fa","system_id":"levelo_inurba_marseille","lat":43.29978,"lon":5.37192,"is_reserved":false,"is_disabled":false,"rental_uris":{"android":"levelo://app?vid=ffd95177-d0c3-4ef3-8e4f-16f4129469fa","ios":"levelo://app?vid=ffd95177-d0c3-4ef3-8e4f-16f4129469fa"},"vehicle_type_id":"4","last_reported":1734098960,"current_range_meters":25600,"station_id":"ce4bgr92rcd13ifvqc7g","pricing_plan_id":"cebpf4jnsgd1na2vs0mg"},{"bike_id":"72fe140c-8069-42b9-9079-53c877e1eaa4","system_id":"levelo_inurba_marseille","lat":43.26553,"lon":5.37291,"is_reserved":false,"is_disabled":false,"rental_uris":{"android":"levelo://app?vid=72fe140c-8069-42b9-9079-53c877e1eaa4","ios":"levelo://app?vid=72fe140c-8069-42b9-9079-53c877e1eaa4"},"vehicle_type_id":"4","last_reported":1734098960,"current_range_meters":14800,"station_id":"ce4bhg12rcd13ifvqf70","pricing_plan_id":"cebpf4jnsgd1na2vs0mg"},{"bike_id":"b8614285-aa94-4c00-a0b6-01c267f31b93","system_id":"levelo_inurba_marseille","lat":43.311154,"lon":5.377695,"is_reserved":false,"is_disabled":false,"rental_uris":{"android":"levelo://app?vid=b8614285-aa94-4c00-a0b6-01c267f31b93","ios":"levelo://app?vid=b8614285-aa94-4c00-a0b6-01c267f31b93"},"vehicle_type_id":"4","last_reported":1734098960,"current_range_meters":38800,"station_id":"ce4bgt92rcd13ifvqcg0","pricing_plan_id":"cebpf4jnsgd1na2vs0mg"},{"bike_id":"758f274d-7150-48ed-8e15-f8b244a73976","system_id":"levelo_inurba_marseille","lat":43.30152,"lon":5.38073,"is_reserved":false,"is_disabled":false,"rental_uris":{"android":"levelo://app?vid=758f274d-7150-48ed-8e15-f8b244a73976","ios":"levelo://app?vid=758f274d-7150-48ed-8e15-f8b244a73976"},"vehicle_type_id":"4","last_reported":1734098960,"current_range_meters":27600,"station_id":"ce4bgjp2rcd13ifvqbh0","pricing_plan_id":"cebpf4jnsgd1na2vs0mg"},{"bike_id":"d6e9779e-14cf-45bc-bbcf-d6aa9fcf7e33","system_id":"levelo_inurba_marseille","lat":43.26191,"lon":5.374515,"is_reserved":false,"is_disabled":false,"rental_uris":{"android":"levelo://app?vid=d6e9779e-14cf-45bc-bbcf-d6aa9fcf7e33","ios":"levelo://app?vid=d6e9779e-14cf-45bc-bbcf-d6aa9fcf7e33"},"vehicle_type_id":"4","last_reported":1734098960,"current_range_meters":32400,"station_id":"ce4bhgp2rcd13ifvqfc0","pricing_plan_id":"cebpf4jnsgd1na2vs0mg"},{"bike_id":"f53a51f1-6db0-4716-9c45-7ac4c7fcd208","system_id":"levelo_inurba_marseille","lat":43.32281,"lon":5.38282,"is_reserved":false,"is_disabled":false,"rental_uris":{"android":"levelo://app?vid=f53a51f1-6db0-4716-9c45-7ac4c7fcd208","ios":"levelo://app?vid=f53a51f1-6db0-4716-9c45-7ac4c7fcd208"},"vehicle_type_id":"4","last_reported":1734098960,"current_range_meters":36000,"station_id":"ce4bhr12rcd13ifvqhqg","pricing_plan_id":"cebpf4jnsgd1na2vs0mg"},{"bike_id":"980f96eb-32c9-4906-98f6-c44dbf4c84a1","system_id":"levelo_inurba_marseille","lat":43.27455,"lon":5.40073,"is_reserved":false,"is_disabled":true,"rental_uris":{"android":"levelo://app?vid=980f96eb-32c9-4906-98f6-c44dbf4c84a1","ios":"levelo://app?vid=980f96eb-32c9-4906-98f6-c44dbf4c84a1"},"vehicle_type_id":"4","last_reported":1734098960,"current_range_meters":0,"station_id":"","pricing_plan_id":"cebpf4jnsgd1na2vs0mg"},{"bike_id":"fdc9b5fe-7b55-4610-a481-c250ba45ac66","system_id":"levelo_inurba_marseille","lat":43.30308,"lon":5.36878,"is_reserved":false,"is_disabled":false,"rental_uris":{"android":"levelo://app?vid=fdc9b5fe-7b55-4610-a481-c250ba45ac66","ios":"levelo://app?vid=fdc9b5fe-7b55-4610-a481-c250ba45ac66"},"vehicle_type_id":"4","last_reported":1734098960,"current_range_meters":16000,"station_id":"ce4bgqh2rcd13ifvqc5g","pricing_plan_id":"cebpf4jnsgd1na2vs0mg"},{"bike_id":"3a1ed51a-b851-4fa3-9cbb-d089278ad5bd","system_id":"levelo_inurba_marseille","lat":43.33027,"lon":5.39038,"is_reserved":false,"is_disabled":false,"rental_uris":{"android":"levelo://app?vid=3a1ed51a-b851-4fa3-9cbb-d089278ad5bd","ios":"levelo://app?vid=3a1ed51a-b851-4fa3-9cbb-d089278ad5bd"},"vehicle_type_id":"4","last_reported":1734098960,"current_range_meters":32800,"station_id":"ce4bhr92rcd13ifvqhrg","pricing_plan_id":"cebpf4jnsgd1na2vs0mg"},{"bike_id":"d64735b9-3201-48f9-b7d1-d8bd9269830f","system_id":"levelo_inurba_marseille","lat":43.31329,"lon":5.39719,"is_reserved":false,"is_disabled":false,"rental_uris":{"android":"levelo://app?vid=d64735b9-3201-48f9-b7d1-d8bd9269830f","ios":"levelo://app?vid=d64735b9-3201-48f9-b7d1-d8bd9269830f"},"vehicle_type_id":"4","last_reported":1734098960,"current_range_meters":38400,"station_id":"ce4bgvp2rcd13ifvqcu0","pricing_plan_id":"cebpf4jnsgd1na2vs0mg"},{"bike_id":"94dbb4fa-ef63-480c-bf58-1d86eba78d4c","system_id":"levelo_inurba_marseille","lat":43.25502,"lon":5.3765,"is_reserved":false,"is_disabled":false,"rental_uris":{"android":"levelo://app?vid=94dbb4fa-ef63-480c-bf58-1d86eba78d4c","ios":"levelo://app?vid=94dbb4fa-ef63-480c-bf58-1d86eba78d4c"},"vehicle_type_id":"4","last_reported":1734098960,"current_range_meters":38800,"station_id":"ce4bhh12rcd13ifvqff0","pricing_plan_id":"cebpf4jnsgd1na2vs0mg"},{"bike_id":"ee633bd0-40f5-46a9-aaab-947219add634","system_id":"levelo_inurba_marseille","lat":43.29199,"lon":5.35798,"is_reserved":false,"is_disabled":false,"rental_uris":{"android":"levelo://app?vid=ee633bd0-40f5-46a9-aaab-947219add634","ios":"levelo://app?vid=ee633bd0-40f5-46a9-aaab-947219add634"},"vehicle_type_id":"4","last_reported":1734098960,"current_range_meters":30000,"station_id":"","pricing_plan_id":"cebpf4jnsgd1na2vs0mg"},{"bike_id":"2ff74495-1668-4f69-93f4-3525206b58ff","system_id":"levelo_inurba_marseille","lat":43.24642,"lon":5.38925,"is_reserved":false,"is_disabled":false,"rental_uris":{"android":"levelo://app?vid=2ff74495-1668-4f69-93f4-3525206b58ff","ios":"levelo://app?vid=2ff74495-1668-4f69-93f4-3525206b58ff"},"vehicle_type_id":"4","last_reported":1734098960,"current_range_meters":24400,"station_id":"ce4bhg12rcd13ifvqf60","pricing_plan_id":"cebpf4jnsgd1na2vs0mg"},{"bike_id":"1167dadb-747b-40ef-a624-b080d05cda60","system_id":"levelo_inurba_marseille","lat":43.27814,"lon":5.4071,"is_reserved":false,"is_disabled":false,"rental_uris":{"android":"levelo://app?vid=1167dadb-747b-40ef-a624-b080d05cda60","ios":"levelo://app?vid=1167dadb-747b-40ef-a624-b080d05cda60"},"vehicle_type_id":"4","last_reported":1734098960,"current_range_meters":28000,"station_id":"ce4bhnh2rcd13ifvqgtg","pricing_plan_id":"cebpf4jnsgd1na2vs0mg"},{"bike_id":"fe87f8f2-6e97-4611-93da-1318a830eb3c","system_id":"levelo_inurba_marseille","lat":43.27992,"lon":5.41661,"is_reserved":false,"is_disabled":false,"rental_uris":{"android":"levelo://app?vid=fe87f8f2-6e97-4611-93da-1318a830eb3c","ios":"levelo://app?vid=fe87f8f2-6e97-4611-93da-1318a830eb3c"},"vehicle_type_id":"4","last_reported":1734098960,"current_range_meters":36800,"station_id":"ce4bho12rcd13ifvqh1g","pricing_plan_id":"cebpf4jnsgd1na2vs0mg"},{"bike_id":"68341feb-c70b-4c28-91d5-1c7269ec3b3a","system_id":"levelo_inurba_marseille","lat":43.30265,"lon":5.39254,"is_reserved":false,"is_disabled":false,"rental_uris":{"android":"levelo://app?vid=68341feb-c70b-4c28-91d5-1c7269ec3b3a","ios":"levelo://app?vid=68341feb-c70b-4c28-91d5-1c7269ec3b3a"},"vehicle_type_id":"4","last_reported":1734098960,"current_range_meters":22800,"station_id":"","pricing_plan_id":"cebpf4jnsgd1na2vs0mg"},{"bike_id":"a830854d-85a5-4d22-8e8f-1bf3eb4beebf","system_id":"levelo_inurba_marseille","lat":43.29868,"lon":5.39732,"is_reserved":false,"is_disabled":false,"rental_uris":{"android":"levelo://app?vid=a830854d-85a5-4d22-8e8f-1bf3eb4beebf","ios":"levelo://app?vid=a830854d-85a5-4d22-8e8f-1bf3eb4beebf"},"vehicle_type_id":"4","last_reported":1734098960,"current_range_meters":36800,"station_id":"ce4bh0h2rcd13ifvqd50","pricing_plan_id":"cebpf4jnsgd1na2vs0mg"},{"bike_id":"b07a7a4e-aae5-4508-bd6a-0b910b81c128","system_id":"levelo_inurba_marseille","lat":43.28151,"lon":5.42649,"is_reserved":false,"is_disabled":true,"rental_uris":{"android":"levelo://app?vid=b07a7a4e-aae5-4508-bd6a-0b910b81c128","ios":"levelo://app?vid=b07a7a4e-aae5-4508-bd6a-0b910b81c128"},"vehicle_type_id":"4","last_reported":1734098960,"current_range_meters":0,"station_id":"ce4bhnh2rcd13ifvqgug","pricing_plan_id":"cebpf4jnsgd1na2vs0mg"},{"bike_id":"1c2758a1-127b-450a-ba39-6494c3341814","system_id":"levelo_inurba_marseille","lat":43.28721,"lon":5.37941,"is_reserved":false,"is_disabled":false,"rental_uris":{"android":"levelo://app?vid=1c2758a1-127b-450a-ba39-6494c3341814","ios":"levelo://app?vid=1c2758a1-127b-450a-ba39-6494c3341814"},"vehicle_type_id":"4","last_reported":1734098960,"current_range_meters":8000,"station_id":"ce4bh9p2rcd13ifvqec0","pricing_plan_id":"cebpf4jnsgd1na2vs0mg"},{"bike_id":"d5c89c1f-3bad-4af2-9449-e04c277a4696","system_id":"levelo_inurba_marseille","lat":43.29944,"lon":5.41386,"is_reserved":false,"is_disabled":true,"rental_uris":{"android":"levelo://app?vid=d5c89c1f-3bad-4af2-9449-e04c277a4696","ios":"levelo://app?vid=d5c89c1f-3bad-4af2-9449-e04c277a4696"},"vehicle_type_id":"4","last_reported":1734098960,"current_range_meters":34000,"station_id":"","pricing_plan_id":"cebpf4jnsgd1na2vs0mg"},{"bike_id":"9638bd5a-6709-4ae5-844c-ab1839e55063","system_id":"levelo_inurba_marseille","lat":43.22938,"lon":5.35376,"is_reserved":false,"is_disabled":false,"rental_uris":{"android":"levelo://app?vid=9638bd5a-6709-4ae5-844c-ab1839e55063","ios":"levelo://app?vid=9638bd5a-6709-4ae5-844c-ab1839e55063"},"vehicle_type_id":"4","last_reported":1734098960,"current_range_meters":25200,"station_id":"cpo3532slgdg3j2ikp40","pricing_plan_id":"cebpf4jnsgd1na2vs0mg"},{"bike_id":"5dcb142e-3766-4e2c-b1fe-c9ebbc5d3c50","system_id":"levelo_inurba_marseille","lat":43.32007,"lon":5.38166,"is_reserved":false,"is_disabled":false,"rental_uris":{"android":"levelo://app?vid=5dcb142e-3766-4e2c-b1fe-c9ebbc5d3c50","ios":"levelo://app?vid=5dcb142e-3766-4e2c-b1fe-c9ebbc5d3c50"},"vehicle_type_id":"4","last_reported":1734098960,"current_range_meters":8400,"station_id":"ce4bhr12rcd13ifvqhpg","pricing_plan_id":"cebpf4jnsgd1na2vs0mg"},{"bike_id":"8beeaa46-0fa7-4c1d-9233-811957576fbe","system_id":"levelo_inurba_marseille","lat":43.28664,"lon":5.36362,"is_reserved":false,"is_disabled":false,"rental_uris":{"android":"levelo://app?vid=8beeaa46-0fa7-4c1d-9233-811957576fbe","ios":"levelo://app?vid=8beeaa46-0fa7-4c1d-9233-811957576fbe"},"vehicle_type_id":"4","last_reported":1734098960,"current_range_meters":37600,"station_id":"ce4bhah2rcd13ifvqej0","pricing_plan_id":"cebpf4jnsgd1na2vs0mg"},{"bike_id":"516bcbce-8b75-4610-9ee5-df08b7034853","system_id":"levelo_inurba_marseille","lat":43.26793,"lon":5.39424,"is_reserved":false,"is_disabled":false,"rental_uris":{"android":"levelo://app?vid=516bcbce-8b75-4610-9ee5-df08b7034853","ios":"levelo://app?vid=516bcbce-8b75-4610-9ee5-df08b7034853"},"vehicle_type_id":"4","last_reported":1734098960,"current_range_meters":5600,"station_id":"ce4bhh12rcd13ifvqfg0","pricing_plan_id":"cebpf4jnsgd1na2vs0mg"},{"bike_id":"b71de84d-593d-4459-8db7-0d8bedfa1caa","system_id":"levelo_inurba_marseille","lat":43.29001,"lon":5.35607,"is_reserved":false,"is_disabled":false,"rental_uris":{"android":"levelo://app?vid=b71de84d-593d-4459-8db7-0d8bedfa1caa","ios":"levelo://app?vid=b71de84d-593d-4459-8db7-0d8bedfa1caa"},"vehicle_type_id":"4","last_reported":1734098960,"current_range_meters":36400,"station_id":"ce4bhb92rcd13ifvqen0","pricing_plan_id":"cebpf4jnsgd1na2vs0mg"},{"bike_id":"1097fc89-8f64-4598-a8e2-7baa1de2b051","system_id":"levelo_inurba_marseille","lat":43.29783,"lon":5.38083,"is_reserved":false,"is_disabled":false,"rental_uris":{"android":"levelo://app?vid=1097fc89-8f64-4598-a8e2-7baa1de2b051","ios":"levelo://app?vid=1097fc89-8f64-4598-a8e2-7baa1de2b051"},"vehicle_type_id":"4","last_reported":1734098960,"current_range_meters":38000,"station_id":"ce4bgip2rcd13ifvqbb0","pricing_plan_id":"cebpf4jnsgd1na2vs0mg"},{"bike_id":"95afe6d1-4220-453e-a6e8-bcef4f8aac56","system_id":"levelo_inurba_marseille","lat":43.26787,"lon":5.39419,"is_reserved":false,"is_disabled":false,"rental_uris":{"android":"levelo://app?vid=95afe6d1-4220-453e-a6e8-bcef4f8aac56","ios":"levelo://app?vid=95afe6d1-4220-453e-a6e8-bcef4f8aac56"},"vehicle_type_id":"4","last_reported":1734098960,"current_range_meters":14400,"station_id":"ce4bhh12rcd13ifvqfg0","pricing_plan_id":"cebpf4jnsgd1na2vs0mg"},{"bike_id":"1d6773db-71a4-488f-9949-cc8fc3fad786","system_id":"levelo_inurba_marseille","lat":43.29622,"lon":5.3717,"is_reserved":false,"is_disabled":false,"rental_uris":{"android":"levelo://app?vid=1d6773db-71a4-488f-9949-cc8fc3fad786","ios":"levelo://app?vid=1d6773db-71a4-488f-9949-cc8fc3fad786"},"vehicle_type_id":"4","last_reported":1734098960,"current_range_meters":22000,"station_id":"ce4bgnh2rcd13ifvqc0g","pricing_plan_id":"cebpf4jnsgd1na2vs0mg"},{"bike_id":"94e1f871-2269-4dc0-b678-810d929953a4","system_id":"levelo_inurba_marseille","lat":43.26558,"lon":5.3728,"is_reserved":false,"is_disabled":false,"rental_uris":{"android":"levelo://app?vid=94e1f871-2269-4dc0-b678-810d929953a4","ios":"levelo://app?vid=94e1f871-2269-4dc0-b678-810d929953a4"},"vehicle_type_id":"4","last_reported":1734098960,"current_range_meters":29600,"station_id":"ce4bhg12rcd13ifvqf70","pricing_plan_id":"cebpf4jnsgd1na2vs0mg"},{"bike_id":"495986c7-e02a-4c20-a1dc-c3edae2c8c07","system_id":"levelo_inurba_marseille","lat":43.30169,"lon":5.37349,"is_reserved":false,"is_disabled":false,"rental_uris":{"android":"levelo://app?vid=495986c7-e02a-4c20-a1dc-c3edae2c8c07","ios":"levelo://app?vid=495986c7-e02a-4c20-a1dc-c3edae2c8c07"},"vehicle_type_id":"4","last_reported":1734098960,"current_range_meters":28800,"station_id":"","pricing_plan_id":"cebpf4jnsgd1na2vs0mg"},{"bike_id":"9bfcebe4-fee2-409c-a8ab-5608ab6f061f","system_id":"levelo_inurba_marseille","lat":43.27811,"lon":5.40716,"is_reserved":false,"is_disabled":true,"rental_uris":{"android":"levelo://app?vid=9bfcebe4-fee2-409c-a8ab-5608ab6f061f","ios":"levelo://app?vid=9bfcebe4-fee2-409c-a8ab-5608ab6f061f"},"vehicle_type_id":"4","last_reported":1734098960,"current_range_meters":38400,"station_id":"ce4bhnh2rcd13ifvqgtg","pricing_plan_id":"cebpf4jnsgd1na2vs0mg"},{"bike_id":"400da5f8-7ac1-4655-a822-ef95555a3e83","system_id":"levelo_inurba_marseille","lat":43.28415,"lon":5.3754,"is_reserved":false,"is_disabled":false,"rental_uris":{"android":"levelo://app?vid=400da5f8-7ac1-4655-a822-ef95555a3e83","ios":"levelo://app?vid=400da5f8-7ac1-4655-a822-ef95555a3e83"},"vehicle_type_id":"4","last_reported":1734098960,"current_range_meters":36800,"station_id":"ce4bh412rcd13ifvqds0","pricing_plan_id":"cebpf4jnsgd1na2vs0mg"},{"bike_id":"0e8a89dc-4e73-48a3-8682-6696627877b1","system_id":"levelo_inurba_marseille","lat":43.31759,"lon":5.39021,"is_reserved":false,"is_disabled":true,"rental_uris":{"android":"levelo://app?vid=0e8a89dc-4e73-48a3-8682-6696627877b1","ios":"levelo://app?vid=0e8a89dc-4e73-48a3-8682-6696627877b1"},"vehicle_type_id":"4","last_reported":1734098960,"current_range_meters":0,"station_id":"ce4bhqp2rcd13ifvqhng","pricing_plan_id":"cebpf4jnsgd1na2vs0mg"},{"bike_id":"edaea664-24e0-4d6c-aa7a-497f5c5f88f6","system_id":"levelo_inurba_marseille","lat":43.27014,"lon":5.39136,"is_reserved":false,"is_disabled":true,"rental_uris":{"android":"levelo://app?vid=edaea664-24e0-4d6c-aa7a-497f5c5f88f6","ios":"levelo://app?vid=edaea664-24e0-4d6c-aa7a-497f5c5f88f6"},"vehicle_type_id":"4","last_reported":1734098960,"current_range_meters":0,"station_id":"","pricing_plan_id":"cebpf4jnsgd1na2vs0mg"},{"bike_id":"a7fea0a7-8e81-48ba-a793-2c7c24550fd1","system_id":"levelo_inurba_marseille","lat":43.28564,"lon":5.39498,"is_reserved":false,"is_disabled":false,"rental_uris":{"android":"levelo://app?vid=a7fea0a7-8e81-48ba-a793-2c7c24550fd1","ios":"levelo://app?vid=a7fea0a7-8e81-48ba-a793-2c7c24550fd1"},"vehicle_type_id":"4","last_reported":1734098960,"current_range_meters":19200,"station_id":"ce4bh292rcd13ifvqdg0","pricing_plan_id":"cebpf4jnsgd1na2vs0mg"},{"bike_id":"20cd681c-e1b2-4e02-a36a-4c0f539a1945","system_id":"levelo_inurba_marseille","lat":43.29981,"lon":5.37183,"is_reserved":false,"is_disabled":true,"rental_uris":{"android":"levelo://app?vid=20cd681c-e1b2-4e02-a36a-4c0f539a1945","ios":"levelo://app?vid=20cd681c-e1b2-4e02-a36a-4c0f539a1945"},"vehicle_type_id":"4","last_reported":1734098960,"current_range_meters":1200,"station_id":"ce4bgr92rcd13ifvqc7g","pricing_plan_id":"cebpf4jnsgd1na2vs0mg"},{"bike_id":"6c993311-8c72-4fa2-a657-27cf0f3381d1","system_id":"levelo_inurba_marseille","lat":43.29628,"lon":5.3768,"is_reserved":false,"is_disabled":false,"rental_uris":{"android":"levelo://app?vid=6c993311-8c72-4fa2-a657-27cf0f3381d1","ios":"levelo://app?vid=6c993311-8c72-4fa2-a657-27cf0f3381d1"},"vehicle_type_id":"4","last_reported":1734098960,"current_range_meters":38800,"station_id":"ce4bgi92rcd13ifvqb90","pricing_plan_id":"cebpf4jnsgd1na2vs0mg"},{"bike_id":"bd3c6234-98f1-4c87-a9ae-0d2f2f93bdf0","system_id":"levelo_inurba_marseille","lat":43.31715,"lon":5.37768,"is_reserved":false,"is_disabled":false,"rental_uris":{"android":"levelo://app?vid=bd3c6234-98f1-4c87-a9ae-0d2f2f93bdf0","ios":"levelo://app?vid=bd3c6234-98f1-4c87-a9ae-0d2f2f93bdf0"},"vehicle_type_id":"4","last_reported":1734098960,"current_range_meters":30400,"station_id":"ce4bgth2rcd13ifvqch0","pricing_plan_id":"cebpf4jnsgd1na2vs0mg"},{"bike_id":"031809f5-fdc4-4687-967d-86d6a0becf47","system_id":"levelo_inurba_marseille","lat":43.25869,"lon":5.39903,"is_reserved":false,"is_disabled":false,"rental_uris":{"android":"levelo://app?vid=031809f5-fdc4-4687-967d-86d6a0becf47","ios":"levelo://app?vid=031809f5-fdc4-4687-967d-86d6a0becf47"},"vehicle_type_id":"4","last_reported":1734098960,"current_range_meters":38400,"station_id":"ce4bhl92rcd13ifvqghg","pricing_plan_id":"cebpf4jnsgd1na2vs0mg"},{"bike_id":"0bf11426-7ef7-4243-baeb-bc6e1dbb8324","system_id":"levelo_inurba_marseille","lat":43.28483,"lon":5.38414,"is_reserved":false,"is_disabled":false,"rental_uris":{"android":"levelo://app?vid=0bf11426-7ef7-4243-baeb-bc6e1dbb8324","ios":"levelo://app?vid=0bf11426-7ef7-4243-baeb-bc6e1dbb8324"},"vehicle_type_id":"4","last_reported":1734098960,"current_range_meters":38800,"station_id":"ce4bh512rcd13ifvqe3g","pricing_plan_id":"cebpf4jnsgd1na2vs0mg"},{"bike_id":"516f14a4-04fe-406e-80c1-e9be448aafa5","system_id":"levelo_inurba_marseille","lat":43.3055,"lon":5.36545,"is_reserved":false,"is_disabled":false,"rental_uris":{"android":"levelo://app?vid=516f14a4-04fe-406e-80c1-e9be448aafa5","ios":"levelo://app?vid=516f14a4-04fe-406e-80c1-e9be448aafa5"},"vehicle_type_id":"4","last_reported":1734098960,"current_range_meters":39200,"station_id":"ce4bgs12rcd13ifvqcag","pricing_plan_id":"cebpf4jnsgd1na2vs0mg"},{"bike_id":"c66f0454-3e74-494e-aaa0-29cb545d1f03","system_id":"levelo_inurba_marseille","lat":43.26558,"lon":5.39024,"is_reserved":false,"is_disabled":false,"rental_uris":{"android":"levelo://app?vid=c66f0454-3e74-494e-aaa0-29cb545d1f03","ios":"levelo://app?vid=c66f0454-3e74-494e-aaa0-29cb545d1f03"},"vehicle_type_id":"4","last_reported":1734098960,"current_range_meters":17600,"station_id":"ce4bhe12rcd13ifvqf30","pricing_plan_id":"cebpf4jnsgd1na2vs0mg"},{"bike_id":"75d005f1-a104-4287-b501-1002db049ee7","system_id":"levelo_inurba_marseille","lat":43.33733,"lon":5.39204,"is_reserved":false,"is_disabled":false,"rental_uris":{"android":"levelo://app?vid=75d005f1-a104-4287-b501-1002db049ee7","ios":"levelo://app?vid=75d005f1-a104-4287-b501-1002db049ee7"},"vehicle_type_id":"4","last_reported":1734098960,"current_range_meters":38800,"station_id":"ce4bhr92rcd13ifvqhsg","pricing_plan_id":"cebpf4jnsgd1na2vs0mg"},{"bike_id":"9c1ce7b6-f5d4-48dd-b699-4ec030edf6d0","system_id":"levelo_inurba_marseille","lat":43.33012,"lon":5.39043,"is_reserved":false,"is_disabled":false,"rental_uris":{"android":"levelo://app?vid=9c1ce7b6-f5d4-48dd-b699-4ec030edf6d0","ios":"levelo://app?vid=9c1ce7b6-f5d4-48dd-b699-4ec030edf6d0"},"vehicle_type_id":"4","last_reported":1734098960,"current_range_meters":16400,"station_id":"ce4bhr92rcd13ifvqhrg","pricing_plan_id":"cebpf4jnsgd1na2vs0mg"},{"bike_id":"322ed3aa-07f1-459c-bc97-a084d4435e5f","system_id":"levelo_inurba_marseille","lat":43.30908,"lon":5.37178,"is_reserved":false,"is_disabled":false,"rental_uris":{"android":"levelo://app?vid=322ed3aa-07f1-459c-bc97-a084d4435e5f","ios":"levelo://app?vid=322ed3aa-07f1-459c-bc97-a084d4435e5f"},"vehicle_type_id":"4","last_reported":1734098960,"current_range_meters":18800,"station_id":"ce4bguh2rcd13ifvqckg","pricing_plan_id":"cebpf4jnsgd1na2vs0mg"},{"bike_id":"30b7f7b0-cffb-44e8-9e23-86428fe1183d","system_id":"levelo_inurba_marseille","lat":43.23061,"lon":5.35501,"is_reserved":false,"is_disabled":false,"rental_uris":{"android":"levelo://app?vid=30b7f7b0-cffb-44e8-9e23-86428fe1183d","ios":"levelo://app?vid=30b7f7b0-cffb-44e8-9e23-86428fe1183d"},"vehicle_type_id":"4","last_reported":1734098960,"current_range_meters":38400,"station_id":"cpo3342slgdg3j2ifvpg","pricing_plan_id":"cebpf4jnsgd1na2vs0mg"},{"bike_id":"c5b93798-79b6-435d-ab1a-ee86024f2cfd","system_id":"levelo_inurba_marseille","lat":43.29617,"lon":5.37728,"is_reserved":false,"is_disabled":false,"rental_uris":{"android":"levelo://app?vid=c5b93798-79b6-435d-ab1a-ee86024f2cfd","ios":"levelo://app?vid=c5b93798-79b6-435d-ab1a-ee86024f2cfd"},"vehicle_type_id":"4","last_reported":1734098960,"current_range_meters":36000,"station_id":"ce4bgi92rcd13ifvqb90","pricing_plan_id":"cebpf4jnsgd1na2vs0mg"},{"bike_id":"c962957d-ec10-4997-96e1-a869343f922e","system_id":"levelo_inurba_marseille","lat":43.3267,"lon":5.36083,"is_reserved":false,"is_disabled":false,"rental_uris":{"android":"levelo://app?vid=c962957d-ec10-4997-96e1-a869343f922e","ios":"levelo://app?vid=c962957d-ec10-4997-96e1-a869343f922e"},"vehicle_type_id":"4","last_reported":1734098960,"current_range_meters":6000,"station_id":"","pricing_plan_id":"cebpf4jnsgd1na2vs0mg"},{"bike_id":"7906f1d8-f676-4e86-bb36-c3a9dd69bddb","system_id":"levelo_inurba_marseille","lat":43.30141,"lon":5.37434,"is_reserved":false,"is_disabled":false,"rental_uris":{"android":"levelo://app?vid=7906f1d8-f676-4e86-bb36-c3a9dd69bddb","ios":"levelo://app?vid=7906f1d8-f676-4e86-bb36-c3a9dd69bddb"},"vehicle_type_id":"4","last_reported":1734098960,"current_range_meters":34000,"station_id":"ce4bgs92rcd13ifvqcc0","pricing_plan_id":"cebpf4jnsgd1na2vs0mg"},{"bike_id":"6f10a801-ed5a-40e4-8df1-2e27b897e490","system_id":"levelo_inurba_marseille","lat":43.29199,"lon":5.35805,"is_reserved":false,"is_disabled":false,"rental_uris":{"android":"levelo://app?vid=6f10a801-ed5a-40e4-8df1-2e27b897e490","ios":"levelo://app?vid=6f10a801-ed5a-40e4-8df1-2e27b897e490"},"vehicle_type_id":"4","last_reported":1734098960,"current_range_meters":39200,"station_id":"ce4bhb12rcd13ifvqel0","pricing_plan_id":"cebpf4jnsgd1na2vs0mg"},{"bike_id":"5313f15a-6be9-4e32-afca-b26d6d5068af","system_id":"levelo_inurba_marseille","lat":43.26571,"lon":5.3904,"is_reserved":false,"is_disabled":false,"rental_uris":{"android":"levelo://app?vid=5313f15a-6be9-4e32-afca-b26d6d5068af","ios":"levelo://app?vid=5313f15a-6be9-4e32-afca-b26d6d5068af"},"vehicle_type_id":"4","last_reported":1734098960,"current_range_meters":6800,"station_id":"ce4bhe12rcd13ifvqf30","pricing_plan_id":"cebpf4jnsgd1na2vs0mg"},{"bike_id":"55781f66-d3d0-4002-bde7-8c29df69b8fa","system_id":"levelo_inurba_marseille","lat":43.30535,"lon":5.36558,"is_reserved":false,"is_disabled":false,"rental_uris":{"android":"levelo://app?vid=55781f66-d3d0-4002-bde7-8c29df69b8fa","ios":"levelo://app?vid=55781f66-d3d0-4002-bde7-8c29df69b8fa"},"vehicle_type_id":"4","last_reported":1734098960,"current_range_meters":20800,"station_id":"ce4bgs12rcd13ifvqcag","pricing_plan_id":"cebpf4jnsgd1na2vs0mg"},{"bike_id":"4dd6c51b-75fd-468d-b3e7-0f835062f442","system_id":"levelo_inurba_marseille","lat":43.28878,"lon":5.35843,"is_reserved":false,"is_disabled":false,"rental_uris":{"android":"levelo://app?vid=4dd6c51b-75fd-468d-b3e7-0f835062f442","ios":"levelo://app?vid=4dd6c51b-75fd-468d-b3e7-0f835062f442"},"vehicle_type_id":"4","last_reported":1734098960,"current_range_meters":38800,"station_id":"ce4bhb12rcd13ifvqem0","pricing_plan_id":"cebpf4jnsgd1na2vs0mg"},{"bike_id":"da345435-a4ab-4142-96e2-d4c3515056c7","system_id":"levelo_inurba_marseille","lat":43.30139,"lon":5.3879,"is_reserved":false,"is_disabled":true,"rental_uris":{"android":"levelo://app?vid=da345435-a4ab-4142-96e2-d4c3515056c7","ios":"levelo://app?vid=da345435-a4ab-4142-96e2-d4c3515056c7"},"vehicle_type_id":"4","last_reported":1734098960,"current_range_meters":0,"station_id":"ce4bghh2rcd13ifvqb60","pricing_plan_id":"cebpf4jnsgd1na2vs0mg"},{"bike_id":"1f569fb1-5314-48af-abe3-83ce7f284a13","system_id":"levelo_inurba_marseille","lat":43.3373,"lon":5.3918,"is_reserved":false,"is_disabled":false,"rental_uris":{"android":"levelo://app?vid=1f569fb1-5314-48af-abe3-83ce7f284a13","ios":"levelo://app?vid=1f569fb1-5314-48af-abe3-83ce7f284a13"},"vehicle_type_id":"4","last_reported":1734098960,"current_range_meters":18800,"station_id":"ce4bhr92rcd13ifvqhsg","pricing_plan_id":"cebpf4jnsgd1na2vs0mg"},{"bike_id":"8f30775a-b911-4f3b-adca-e2ccfd5c0edb","system_id":"levelo_inurba_marseille","lat":43.25936,"lon":5.40906,"is_reserved":false,"is_disabled":false,"rental_uris":{"android":"levelo://app?vid=8f30775a-b911-4f3b-adca-e2ccfd5c0edb","ios":"levelo://app?vid=8f30775a-b911-4f3b-adca-e2ccfd5c0edb"},"vehicle_type_id":"4","last_reported":1734098960,"current_range_meters":38000,"station_id":"ce4bhm92rcd13ifvqglg","pricing_plan_id":"cebpf4jnsgd1na2vs0mg"},{"bike_id":"246c7cb4-a1ed-488e-9b2f-1d2024ac9c9e","system_id":"levelo_inurba_marseille","lat":43.25116,"lon":5.40325,"is_reserved":false,"is_disabled":false,"rental_uris":{"android":"levelo://app?vid=246c7cb4-a1ed-488e-9b2f-1d2024ac9c9e","ios":"levelo://app?vid=246c7cb4-a1ed-488e-9b2f-1d2024ac9c9e"},"vehicle_type_id":"4","last_reported":1734098960,"current_range_meters":35200,"station_id":"ce4bhlh2rcd13ifvqgig","pricing_plan_id":"cebpf4jnsgd1na2vs0mg"},{"bike_id":"143ccd8e-9541-44bb-a0f3-805b2d1001bb","system_id":"levelo_inurba_marseille","lat":43.291966,"lon":5.393304,"is_reserved":false,"is_disabled":false,"rental_uris":{"android":"levelo://app?vid=143ccd8e-9541-44bb-a0f3-805b2d1001bb","ios":"levelo://app?vid=143ccd8e-9541-44bb-a0f3-805b2d1001bb"},"vehicle_type_id":"4","last_reported":1734098960,"current_range_meters":19200,"station_id":"ce4bh192rcd13ifvqdd0","pricing_plan_id":"cebpf4jnsgd1na2vs0mg"},{"bike_id":"1eb177d9-71a4-4b48-b8b7-cbf8c6cca5e4","system_id":"levelo_inurba_marseille","lat":43.28485,"lon":5.38405,"is_reserved":false,"is_disabled":false,"rental_uris":{"android":"levelo://app?vid=1eb177d9-71a4-4b48-b8b7-cbf8c6cca5e4","ios":"levelo://app?vid=1eb177d9-71a4-4b48-b8b7-cbf8c6cca5e4"},"vehicle_type_id":"4","last_reported":1734098960,"current_range_meters":38800,"station_id":"ce4bh512rcd13ifvqe3g","pricing_plan_id":"cebpf4jnsgd1na2vs0mg"},{"bike_id":"4197bb5b-3d5d-4fe9-bf08-63b8e5f1af74","system_id":"levelo_inurba_marseille","lat":43.26943,"lon":5.40255,"is_reserved":false,"is_disabled":false,"rental_uris":{"android":"levelo://app?vid=4197bb5b-3d5d-4fe9-bf08-63b8e5f1af74","ios":"levelo://app?vid=4197bb5b-3d5d-4fe9-bf08-63b8e5f1af74"},"vehicle_type_id":"4","last_reported":1734098960,"current_range_meters":30400,"station_id":"cjm6bp8fraef2m0cb0m0","pricing_plan_id":"cebpf4jnsgd1na2vs0mg"},{"bike_id":"af67ac53-ba21-4ff0-8334-95679e9ff2cc","system_id":"levelo_inurba_marseille","lat":43.278805,"lon":5.388003,"is_reserved":false,"is_disabled":true,"rental_uris":{"android":"levelo://app?vid=af67ac53-ba21-4ff0-8334-95679e9ff2cc","ios":"levelo://app?vid=af67ac53-ba21-4ff0-8334-95679e9ff2cc"},"vehicle_type_id":"4","last_reported":1734098960,"current_range_meters":6400,"station_id":"","pricing_plan_id":"cebpf4jnsgd1na2vs0mg"},{"bike_id":"56aefc5d-d49e-4c17-8b91-0ef4ea44ad37","system_id":"levelo_inurba_marseille","lat":43.29096,"lon":5.38131,"is_reserved":false,"is_disabled":false,"rental_uris":{"android":"levelo://app?vid=56aefc5d-d49e-4c17-8b91-0ef4ea44ad37","ios":"levelo://app?vid=56aefc5d-d49e-4c17-8b91-0ef4ea44ad37"},"vehicle_type_id":"4","last_reported":1734098960,"current_range_meters":30800,"station_id":"ce4bh512rcd13ifvqe2g","pricing_plan_id":"cebpf4jnsgd1na2vs0mg"},{"bike_id":"1863e5bb-1339-4a2a-a04e-e9e9d05a787a","system_id":"levelo_inurba_marseille","lat":43.29062,"lon":5.37169,"is_reserved":false,"is_disabled":true,"rental_uris":{"android":"levelo://app?vid=1863e5bb-1339-4a2a-a04e-e9e9d05a787a","ios":"levelo://app?vid=1863e5bb-1339-4a2a-a04e-e9e9d05a787a"},"vehicle_type_id":"4","last_reported":1734098960,"current_range_meters":38800,"station_id":"ce4bh5p2rcd13ifvqe4g","pricing_plan_id":"cebpf4jnsgd1na2vs0mg"},{"bike_id":"d8d7ffef-ae54-446a-a28c-8265164b47ce","system_id":"levelo_inurba_marseille","lat":43.29163,"lon":5.43911,"is_reserved":false,"is_disabled":true,"rental_uris":{"android":"levelo://app?vid=d8d7ffef-ae54-446a-a28c-8265164b47ce","ios":"levelo://app?vid=d8d7ffef-ae54-446a-a28c-8265164b47ce"},"vehicle_type_id":"4","last_reported":1734098960,"current_range_meters":29600,"station_id":"","pricing_plan_id":"cebpf4jnsgd1na2vs0mg"},{"bike_id":"f67dd32d-c2a4-40e6-b33c-ac920d9a6ea1","system_id":"levelo_inurba_marseille","lat":43.32002,"lon":5.38169,"is_reserved":false,"is_disabled":false,"rental_uris":{"android":"levelo://app?vid=f67dd32d-c2a4-40e6-b33c-ac920d9a6ea1","ios":"levelo://app?vid=f67dd32d-c2a4-40e6-b33c-ac920d9a6ea1"},"vehicle_type_id":"4","last_reported":1734098960,"current_range_meters":33200,"station_id":"ce4bhr12rcd13ifvqhpg","pricing_plan_id":"cebpf4jnsgd1na2vs0mg"},{"bike_id":"c5768e7e-b244-4dfc-973f-384fac771fcc","system_id":"levelo_inurba_marseille","lat":43.27987,"lon":5.41667,"is_reserved":false,"is_disabled":true,"rental_uris":{"android":"levelo://app?vid=c5768e7e-b244-4dfc-973f-384fac771fcc","ios":"levelo://app?vid=c5768e7e-b244-4dfc-973f-384fac771fcc"},"vehicle_type_id":"4","last_reported":1734098960,"current_range_meters":0,"station_id":"ce4bho12rcd13ifvqh1g","pricing_plan_id":"cebpf4jnsgd1na2vs0mg"},{"bike_id":"d65fcea9-51ba-41f0-86fd-e798dfdd6f09","system_id":"levelo_inurba_marseille","lat":43.28687,"lon":5.38348,"is_reserved":false,"is_disabled":true,"rental_uris":{"android":"levelo://app?vid=d65fcea9-51ba-41f0-86fd-e798dfdd6f09","ios":"levelo://app?vid=d65fcea9-51ba-41f0-86fd-e798dfdd6f09"},"vehicle_type_id":"4","last_reported":1734098960,"current_range_meters":0,"station_id":"","pricing_plan_id":"cebpf4jnsgd1na2vs0mg"},{"bike_id":"8dcb9146-2f47-4bde-8ae2-dadc70f2d7df","system_id":"levelo_inurba_marseille","lat":43.29519,"lon":5.3941,"is_reserved":false,"is_disabled":false,"rental_uris":{"android":"levelo://app?vid=8dcb9146-2f47-4bde-8ae2-dadc70f2d7df","ios":"levelo://app?vid=8dcb9146-2f47-4bde-8ae2-dadc70f2d7df"},"vehicle_type_id":"4","last_reported":1734098960,"current_range_meters":38400,"station_id":"ce4bh292rcd13ifvqdf0","pricing_plan_id":"cebpf4jnsgd1na2vs0mg"},{"bike_id":"3cffa040-7e8b-4d9e-a1bd-b8a78d782447","system_id":"levelo_inurba_marseille","lat":43.314905,"lon":5.373088,"is_reserved":false,"is_disabled":true,"rental_uris":{"android":"levelo://app?vid=3cffa040-7e8b-4d9e-a1bd-b8a78d782447","ios":"levelo://app?vid=3cffa040-7e8b-4d9e-a1bd-b8a78d782447"},"vehicle_type_id":"4","last_reported":1734098960,"current_range_meters":3600,"station_id":"","pricing_plan_id":"cebpf4jnsgd1na2vs0mg"},{"bike_id":"7e49be71-0e26-44b2-83c0-bc0ababab313","system_id":"levelo_inurba_marseille","lat":43.26568,"lon":5.39031,"is_reserved":false,"is_disabled":false,"rental_uris":{"android":"levelo://app?vid=7e49be71-0e26-44b2-83c0-bc0ababab313","ios":"levelo://app?vid=7e49be71-0e26-44b2-83c0-bc0ababab313"},"vehicle_type_id":"4","last_reported":1734098960,"current_range_meters":38800,"station_id":"ce4bhe12rcd13ifvqf30","pricing_plan_id":"cebpf4jnsgd1na2vs0mg"},{"bike_id":"e7cfd852-9909-436d-bad5-f8e28209031c","system_id":"levelo_inurba_marseille","lat":43.26927,"lon":5.40271,"is_reserved":false,"is_disabled":false,"rental_uris":{"android":"levelo://app?vid=e7cfd852-9909-436d-bad5-f8e28209031c","ios":"levelo://app?vid=e7cfd852-9909-436d-bad5-f8e28209031c"},"vehicle_type_id":"4","last_reported":1734098960,"current_range_meters":38800,"station_id":"cjm6bp8fraef2m0cb0m0","pricing_plan_id":"cebpf4jnsgd1na2vs0mg"},{"bike_id":"64203de9-e72b-4d66-9a84-7a315c7ed37f","system_id":"levelo_inurba_marseille","lat":43.294381,"lon":5.374367,"is_reserved":false,"is_disabled":true,"rental_uris":{"android":"levelo://app?vid=64203de9-e72b-4d66-9a84-7a315c7ed37f","ios":"levelo://app?vid=64203de9-e72b-4d66-9a84-7a315c7ed37f"},"vehicle_type_id":"4","last_reported":1734098960,"current_range_meters":0,"station_id":"","pricing_plan_id":"cebpf4jnsgd1na2vs0mg"},{"bike_id":"d24f2605-a1b1-44df-9042-a81f759d8506","system_id":"levelo_inurba_marseille","lat":43.26193,"lon":5.37449,"is_reserved":false,"is_disabled":false,"rental_uris":{"android":"levelo://app?vid=d24f2605-a1b1-44df-9042-a81f759d8506","ios":"levelo://app?vid=d24f2605-a1b1-44df-9042-a81f759d8506"},"vehicle_type_id":"4","last_reported":1734098960,"current_range_meters":16800,"station_id":"ce4bhgp2rcd13ifvqfc0","pricing_plan_id":"cebpf4jnsgd1na2vs0mg"},{"bike_id":"76af30ab-27aa-4350-8972-f8a294ad6b70","system_id":"levelo_inurba_marseille","lat":43.33027,"lon":5.39042,"is_reserved":false,"is_disabled":true,"rental_uris":{"android":"levelo://app?vid=76af30ab-27aa-4350-8972-f8a294ad6b70","ios":"levelo://app?vid=76af30ab-27aa-4350-8972-f8a294ad6b70"},"vehicle_type_id":"4","last_reported":1734098960,"current_range_meters":0,"station_id":"ce4bhr92rcd13ifvqhrg","pricing_plan_id":"cebpf4jnsgd1na2vs0mg"},{"bike_id":"c9179a56-6ac3-49b3-8785-0da77ec0b66c","system_id":"levelo_inurba_marseille","lat":43.29842,"lon":5.36263,"is_reserved":false,"is_disabled":false,"rental_uris":{"android":"levelo://app?vid=c9179a56-6ac3-49b3-8785-0da77ec0b66c","ios":"levelo://app?vid=c9179a56-6ac3-49b3-8785-0da77ec0b66c"},"vehicle_type_id":"4","last_reported":1734098960,"current_range_meters":38800,"station_id":"ce4bgpp2rcd13ifvqc3g","pricing_plan_id":"cebpf4jnsgd1na2vs0mg"},{"bike_id":"2c9f181f-9168-4f84-8e27-69ec24fa97be","system_id":"levelo_inurba_marseille","lat":43.31221,"lon":5.36848,"is_reserved":false,"is_disabled":false,"rental_uris":{"android":"levelo://app?vid=2c9f181f-9168-4f84-8e27-69ec24fa97be","ios":"levelo://app?vid=2c9f181f-9168-4f84-8e27-69ec24fa97be"},"vehicle_type_id":"4","last_reported":1734098960,"current_range_meters":3600,"station_id":"ce4bgl92rcd13ifvqbq0","pricing_plan_id":"cebpf4jnsgd1na2vs0mg"},{"bike_id":"83697503-ebb6-4133-8865-690e94a16a9b","system_id":"levelo_inurba_marseille","lat":43.24175,"lon":5.39729,"is_reserved":false,"is_disabled":true,"rental_uris":{"android":"levelo://app?vid=83697503-ebb6-4133-8865-690e94a16a9b","ios":"levelo://app?vid=83697503-ebb6-4133-8865-690e94a16a9b"},"vehicle_type_id":"4","last_reported":1734098960,"current_range_meters":400,"station_id":"ce4bhn12rcd13ifvqgpg","pricing_plan_id":"cebpf4jnsgd1na2vs0mg"},{"bike_id":"d844622a-8996-4833-a911-7e663404b427","system_id":"levelo_inurba_marseille","lat":43.29633,"lon":5.40596,"is_reserved":false,"is_disabled":false,"rental_uris":{"android":"levelo://app?vid=d844622a-8996-4833-a911-7e663404b427","ios":"levelo://app?vid=d844622a-8996-4833-a911-7e663404b427"},"vehicle_type_id":"4","last_reported":1734098960,"current_range_meters":30000,"station_id":"ce4bh0h2rcd13ifvqd60","pricing_plan_id":"cebpf4jnsgd1na2vs0mg"},{"bike_id":"42569b4c-bec4-4c48-8509-7567c1e8b462","system_id":"levelo_inurba_marseille","lat":43.28861,"lon":5.35854,"is_reserved":false,"is_disabled":false,"rental_uris":{"android":"levelo://app?vid=42569b4c-bec4-4c48-8509-7567c1e8b462","ios":"levelo://app?vid=42569b4c-bec4-4c48-8509-7567c1e8b462"},"vehicle_type_id":"4","last_reported":1734098960,"current_range_meters":38800,"station_id":"ce4bhb12rcd13ifvqem0","pricing_plan_id":"cebpf4jnsgd1na2vs0mg"},{"bike_id":"578dc853-a897-4d61-928f-cced40de4dd4","system_id":"levelo_inurba_marseille","lat":43.29987,"lon":5.37181,"is_reserved":false,"is_disabled":false,"rental_uris":{"android":"levelo://app?vid=578dc853-a897-4d61-928f-cced40de4dd4","ios":"levelo://app?vid=578dc853-a897-4d61-928f-cced40de4dd4"},"vehicle_type_id":"4","last_reported":1734098960,"current_range_meters":11200,"station_id":"ce4bgr92rcd13ifvqc7g","pricing_plan_id":"cebpf4jnsgd1na2vs0mg"},{"bike_id":"18449eca-7cd4-4637-aad8-d740a9109818","system_id":"levelo_inurba_marseille","lat":43.26816,"lon":5.40266,"is_reserved":false,"is_disabled":false,"rental_uris":{"android":"levelo://app?vid=18449eca-7cd4-4637-aad8-d740a9109818","ios":"levelo://app?vid=18449eca-7cd4-4637-aad8-d740a9109818"},"vehicle_type_id":"4","last_reported":1734098960,"current_range_meters":38800,"station_id":"ce501612rcd8frsf0b60","pricing_plan_id":"cebpf4jnsgd1na2vs0mg"},{"bike_id":"0b08691d-ed94-4236-9a7e-f42e972feee5","system_id":"levelo_inurba_marseille","lat":43.27614,"lon":5.3611,"is_reserved":false,"is_disabled":true,"rental_uris":{"android":"levelo://app?vid=0b08691d-ed94-4236-9a7e-f42e972feee5","ios":"levelo://app?vid=0b08691d-ed94-4236-9a7e-f42e972feee5"},"vehicle_type_id":"4","last_reported":1734098960,"current_range_meters":1200,"station_id":"ce4bgj92rcd13ifvqbe0","pricing_plan_id":"cebpf4jnsgd1na2vs0mg"},{"bike_id":"3c72d85f-c2d4-4ae1-819e-34dd19a7af58","system_id":"levelo_inurba_marseille","lat":43.31059,"lon":5.40096,"is_reserved":false,"is_disabled":false,"rental_uris":{"android":"levelo://app?vid=3c72d85f-c2d4-4ae1-819e-34dd19a7af58","ios":"levelo://app?vid=3c72d85f-c2d4-4ae1-819e-34dd19a7af58"},"vehicle_type_id":"4","last_reported":1734098960,"current_range_meters":22400,"station_id":"","pricing_plan_id":"cebpf4jnsgd1na2vs0mg"},{"bike_id":"3772e04e-41fd-4726-adc0-6c20ef0530a6","system_id":"levelo_inurba_marseille","lat":43.31995,"lon":5.38153,"is_reserved":false,"is_disabled":false,"rental_uris":{"android":"levelo://app?vid=3772e04e-41fd-4726-adc0-6c20ef0530a6","ios":"levelo://app?vid=3772e04e-41fd-4726-adc0-6c20ef0530a6"},"vehicle_type_id":"4","last_reported":1734098960,"current_range_meters":16000,"station_id":"ce4bhr12rcd13ifvqhpg","pricing_plan_id":"cebpf4jnsgd1na2vs0mg"},{"bike_id":"06536989-5409-4147-a3fb-466ee8745405","system_id":"levelo_inurba_marseille","lat":43.29098,"lon":5.3814,"is_reserved":false,"is_disabled":false,"rental_uris":{"android":"levelo://app?vid=06536989-5409-4147-a3fb-466ee8745405","ios":"levelo://app?vid=06536989-5409-4147-a3fb-466ee8745405"},"vehicle_type_id":"4","last_reported":1734098960,"current_range_meters":38400,"station_id":"ce4bh512rcd13ifvqe2g","pricing_plan_id":"cebpf4jnsgd1na2vs0mg"},{"bike_id":"b2910551-2cb7-4ca7-9cf6-3279101220f4","system_id":"levelo_inurba_marseille","lat":43.30895,"lon":5.39686,"is_reserved":false,"is_disabled":false,"rental_uris":{"android":"levelo://app?vid=b2910551-2cb7-4ca7-9cf6-3279101220f4","ios":"levelo://app?vid=b2910551-2cb7-4ca7-9cf6-3279101220f4"},"vehicle_type_id":"4","last_reported":1734098960,"current_range_meters":38800,"station_id":"ce4bh012rcd13ifvqcv0","pricing_plan_id":"cebpf4jnsgd1na2vs0mg"},{"bike_id":"dfb3e551-1fd6-4efe-a533-b3bc1609c2ca","system_id":"levelo_inurba_marseille","lat":43.24811,"lon":5.37462,"is_reserved":false,"is_disabled":false,"rental_uris":{"android":"levelo://app?vid=dfb3e551-1fd6-4efe-a533-b3bc1609c2ca","ios":"levelo://app?vid=dfb3e551-1fd6-4efe-a533-b3bc1609c2ca"},"vehicle_type_id":"4","last_reported":1734098960,"current_range_meters":38000,"station_id":"ce4bhgh2rcd13ifvqfb0","pricing_plan_id":"cebpf4jnsgd1na2vs0mg"},{"bike_id":"aefb5553-b216-40a2-b97c-3a6f19558f70","system_id":"levelo_inurba_marseille","lat":43.28944,"lon":5.36637,"is_reserved":false,"is_disabled":false,"rental_uris":{"android":"levelo://app?vid=aefb5553-b216-40a2-b97c-3a6f19558f70","ios":"levelo://app?vid=aefb5553-b216-40a2-b97c-3a6f19558f70"},"vehicle_type_id":"4","last_reported":1734098960,"current_range_meters":31200,"station_id":"ce4bhap2rcd13ifvqek0","pricing_plan_id":"cebpf4jnsgd1na2vs0mg"},{"bike_id":"ccc9e736-395b-4466-94dc-6a787309142a","system_id":"levelo_inurba_marseille","lat":43.31451,"lon":5.37574,"is_reserved":false,"is_disabled":true,"rental_uris":{"android":"levelo://app?vid=ccc9e736-395b-4466-94dc-6a787309142a","ios":"levelo://app?vid=ccc9e736-395b-4466-94dc-6a787309142a"},"vehicle_type_id":"4","last_reported":1734098960,"current_range_meters":1200,"station_id":"","pricing_plan_id":"cebpf4jnsgd1na2vs0mg"},{"bike_id":"97b55a38-976a-4015-b3d7-3ad989b0be89","system_id":"levelo_inurba_marseille","lat":43.3301,"lon":5.39035,"is_reserved":false,"is_disabled":false,"rental_uris":{"android":"levelo://app?vid=97b55a38-976a-4015-b3d7-3ad989b0be89","ios":"levelo://app?vid=97b55a38-976a-4015-b3d7-3ad989b0be89"},"vehicle_type_id":"4","last_reported":1734098960,"current_range_meters":39200,"station_id":"ce4bhr92rcd13ifvqhrg","pricing_plan_id":"cebpf4jnsgd1na2vs0mg"},{"bike_id":"265a59a5-1f8b-40cd-bb56-038ad2f60a5d","system_id":"levelo_inurba_marseille","lat":43.29092,"lon":5.40039,"is_reserved":false,"is_disabled":true,"rental_uris":{"android":"levelo://app?vid=265a59a5-1f8b-40cd-bb56-038ad2f60a5d","ios":"levelo://app?vid=265a59a5-1f8b-40cd-bb56-038ad2f60a5d"},"vehicle_type_id":"4","last_reported":1734098960,"current_range_meters":38000,"station_id":"","pricing_plan_id":"cebpf4jnsgd1na2vs0mg"},{"bike_id":"9cae785b-bd39-4a7b-8aad-0b48af8c98e6","system_id":"levelo_inurba_marseille","lat":43.24811,"lon":5.37475,"is_reserved":false,"is_disabled":false,"rental_uris":{"android":"levelo://app?vid=9cae785b-bd39-4a7b-8aad-0b48af8c98e6","ios":"levelo://app?vid=9cae785b-bd39-4a7b-8aad-0b48af8c98e6"},"vehicle_type_id":"4","last_reported":1734098960,"current_range_meters":25200,"station_id":"ce4bhgh2rcd13ifvqfb0","pricing_plan_id":"cebpf4jnsgd1na2vs0mg"},{"bike_id":"6bc7401a-ad66-4e4d-bfd6-a954bc5b40c0","system_id":"levelo_inurba_marseille","lat":43.337527,"lon":5.37441,"is_reserved":false,"is_disabled":false,"rental_uris":{"android":"levelo://app?vid=6bc7401a-ad66-4e4d-bfd6-a954bc5b40c0","ios":"levelo://app?vid=6bc7401a-ad66-4e4d-bfd6-a954bc5b40c0"},"vehicle_type_id":"4","last_reported":1734098960,"current_range_meters":30000,"station_id":"","pricing_plan_id":"cebpf4jnsgd1na2vs0mg"},{"bike_id":"4bac8f48-0631-4c42-a0a3-9215ee2bf75e","system_id":"levelo_inurba_marseille","lat":43.28846,"lon":5.35864,"is_reserved":false,"is_disabled":false,"rental_uris":{"android":"levelo://app?vid=4bac8f48-0631-4c42-a0a3-9215ee2bf75e","ios":"levelo://app?vid=4bac8f48-0631-4c42-a0a3-9215ee2bf75e"},"vehicle_type_id":"4","last_reported":1734098960,"current_range_meters":30000,"station_id":"ce4bhb12rcd13ifvqem0","pricing_plan_id":"cebpf4jnsgd1na2vs0mg"},{"bike_id":"f0a4f587-2333-4a7a-8819-09121e495e1b","system_id":"levelo_inurba_marseille","lat":43.22935,"lon":5.3538,"is_reserved":false,"is_disabled":false,"rental_uris":{"android":"levelo://app?vid=f0a4f587-2333-4a7a-8819-09121e495e1b","ios":"levelo://app?vid=f0a4f587-2333-4a7a-8819-09121e495e1b"},"vehicle_type_id":"4","last_reported":1734098960,"current_range_meters":4400,"station_id":"cpo3532slgdg3j2ikp40","pricing_plan_id":"cebpf4jnsgd1na2vs0mg"},{"bike_id":"d03ed5ce-e520-4069-9e0e-9e1df4579056","system_id":"levelo_inurba_marseille","lat":43.29833,"lon":5.36268,"is_reserved":false,"is_disabled":false,"rental_uris":{"android":"levelo://app?vid=d03ed5ce-e520-4069-9e0e-9e1df4579056","ios":"levelo://app?vid=d03ed5ce-e520-4069-9e0e-9e1df4579056"},"vehicle_type_id":"4","last_reported":1734098960,"current_range_meters":37600,"station_id":"ce4bgpp2rcd13ifvqc3g","pricing_plan_id":"cebpf4jnsgd1na2vs0mg"},{"bike_id":"7ef92d55-7ad7-49c7-b174-ec42f301e973","system_id":"levelo_inurba_marseille","lat":43.31722,"lon":5.42403,"is_reserved":false,"is_disabled":false,"rental_uris":{"android":"levelo://app?vid=7ef92d55-7ad7-49c7-b174-ec42f301e973","ios":"levelo://app?vid=7ef92d55-7ad7-49c7-b174-ec42f301e973"},"vehicle_type_id":"4","last_reported":1734098960,"current_range_meters":38400,"station_id":"ce4bhp92rcd13ifvqhbg","pricing_plan_id":"cebpf4jnsgd1na2vs0mg"},{"bike_id":"eb1496f4-67ed-47fd-8660-60023378367f","system_id":"levelo_inurba_marseille","lat":43.294212,"lon":5.374322,"is_reserved":false,"is_disabled":true,"rental_uris":{"android":"levelo://app?vid=eb1496f4-67ed-47fd-8660-60023378367f","ios":"levelo://app?vid=eb1496f4-67ed-47fd-8660-60023378367f"},"vehicle_type_id":"4","last_reported":1734098960,"current_range_meters":0,"station_id":"","pricing_plan_id":"cebpf4jnsgd1na2vs0mg"},{"bike_id":"e00ff95c-e07a-4dcb-8c7a-74e1a33e0f56","system_id":"levelo_inurba_marseille","lat":43.28464,"lon":5.35893,"is_reserved":false,"is_disabled":false,"rental_uris":{"android":"levelo://app?vid=e00ff95c-e07a-4dcb-8c7a-74e1a33e0f56","ios":"levelo://app?vid=e00ff95c-e07a-4dcb-8c7a-74e1a33e0f56"},"vehicle_type_id":"4","last_reported":1734098960,"current_range_meters":30800,"station_id":"ce4bhah2rcd13ifvqei0","pricing_plan_id":"cebpf4jnsgd1na2vs0mg"},{"bike_id":"b6d0feca-9655-4ea5-a518-ab095aa8bc30","system_id":"levelo_inurba_marseille","lat":43.2884,"lon":5.35865,"is_reserved":false,"is_disabled":false,"rental_uris":{"android":"levelo://app?vid=b6d0feca-9655-4ea5-a518-ab095aa8bc30","ios":"levelo://app?vid=b6d0feca-9655-4ea5-a518-ab095aa8bc30"},"vehicle_type_id":"4","last_reported":1734098960,"current_range_meters":4000,"station_id":"ce4bhb12rcd13ifvqem0","pricing_plan_id":"cebpf4jnsgd1na2vs0mg"},{"bike_id":"a2e3bf37-f1e5-4b35-adeb-0da3e0fe69d3","system_id":"levelo_inurba_marseille","lat":43.2865,"lon":5.38599,"is_reserved":false,"is_disabled":true,"rental_uris":{"android":"levelo://app?vid=a2e3bf37-f1e5-4b35-adeb-0da3e0fe69d3","ios":"levelo://app?vid=a2e3bf37-f1e5-4b35-adeb-0da3e0fe69d3"},"vehicle_type_id":"4","last_reported":1734098960,"current_range_meters":0,"station_id":"","pricing_plan_id":"cebpf4jnsgd1na2vs0mg"},{"bike_id":"edbf62ee-bc64-47a8-8d99-9d7a62f67036","system_id":"levelo_inurba_marseille","lat":43.29985,"lon":5.37185,"is_reserved":false,"is_disabled":false,"rental_uris":{"android":"levelo://app?vid=edbf62ee-bc64-47a8-8d99-9d7a62f67036","ios":"levelo://app?vid=edbf62ee-bc64-47a8-8d99-9d7a62f67036"},"vehicle_type_id":"4","last_reported":1734098960,"current_range_meters":9600,"station_id":"ce4bgr92rcd13ifvqc7g","pricing_plan_id":"cebpf4jnsgd1na2vs0mg"},{"bike_id":"db7df3a3-b6e1-4cc1-8ffd-9334ff610bf8","system_id":"levelo_inurba_marseille","lat":43.25578,"lon":5.38235,"is_reserved":false,"is_disabled":false,"rental_uris":{"android":"levelo://app?vid=db7df3a3-b6e1-4cc1-8ffd-9334ff610bf8","ios":"levelo://app?vid=db7df3a3-b6e1-4cc1-8ffd-9334ff610bf8"},"vehicle_type_id":"4","last_reported":1734098960,"current_range_meters":36800,"station_id":"ce4bhih2rcd13ifvqfs0","pricing_plan_id":"cebpf4jnsgd1na2vs0mg"},{"bike_id":"1b04d415-10b6-4085-a10e-8bba44c3d11d","system_id":"levelo_inurba_marseille","lat":43.26812,"lon":5.4027,"is_reserved":false,"is_disabled":false,"rental_uris":{"android":"levelo://app?vid=1b04d415-10b6-4085-a10e-8bba44c3d11d","ios":"levelo://app?vid=1b04d415-10b6-4085-a10e-8bba44c3d11d"},"vehicle_type_id":"4","last_reported":1734098960,"current_range_meters":34000,"station_id":"ce501612rcd8frsf0b60","pricing_plan_id":"cebpf4jnsgd1na2vs0mg"},{"bike_id":"b4d92984-c875-4a33-afb1-2a516c6d2c05","system_id":"levelo_inurba_marseille","lat":43.28836,"lon":5.3586,"is_reserved":false,"is_disabled":false,"rental_uris":{"android":"levelo://app?vid=b4d92984-c875-4a33-afb1-2a516c6d2c05","ios":"levelo://app?vid=b4d92984-c875-4a33-afb1-2a516c6d2c05"},"vehicle_type_id":"4","last_reported":1734098960,"current_range_meters":36400,"station_id":"ce4bhb12rcd13ifvqem0","pricing_plan_id":"cebpf4jnsgd1na2vs0mg"},{"bike_id":"ec927667-9164-479a-b446-395f55c955bb","system_id":"levelo_inurba_marseille","lat":43.22924,"lon":5.35383,"is_reserved":false,"is_disabled":false,"rental_uris":{"android":"levelo://app?vid=ec927667-9164-479a-b446-395f55c955bb","ios":"levelo://app?vid=ec927667-9164-479a-b446-395f55c955bb"},"vehicle_type_id":"4","last_reported":1734098960,"current_range_meters":38800,"station_id":"cpo3532slgdg3j2ikp40","pricing_plan_id":"cebpf4jnsgd1na2vs0mg"},{"bike_id":"b634170f-6d3e-44ab-a9de-9343264c3b74","system_id":"levelo_inurba_marseille","lat":43.24809,"lon":5.37452,"is_reserved":false,"is_disabled":false,"rental_uris":{"android":"levelo://app?vid=b634170f-6d3e-44ab-a9de-9343264c3b74","ios":"levelo://app?vid=b634170f-6d3e-44ab-a9de-9343264c3b74"},"vehicle_type_id":"4","last_reported":1734098960,"current_range_meters":34000,"station_id":"ce4bhgh2rcd13ifvqfb0","pricing_plan_id":"cebpf4jnsgd1na2vs0mg"},{"bike_id":"6c5a781e-39f7-482d-94aa-fe363f58b99c","system_id":"levelo_inurba_marseille","lat":43.29985,"lon":5.3719,"is_reserved":false,"is_disabled":false,"rental_uris":{"android":"levelo://app?vid=6c5a781e-39f7-482d-94aa-fe363f58b99c","ios":"levelo://app?vid=6c5a781e-39f7-482d-94aa-fe363f58b99c"},"vehicle_type_id":"4","last_reported":1734098960,"current_range_meters":21600,"station_id":"ce4bgr92rcd13ifvqc7g","pricing_plan_id":"cebpf4jnsgd1na2vs0mg"},{"bike_id":"0d1fc68b-9b79-41e9-8b2b-e106d261be5e","system_id":"levelo_inurba_marseille","lat":43.29712,"lon":5.37701,"is_reserved":false,"is_disabled":false,"rental_uris":{"android":"levelo://app?vid=0d1fc68b-9b79-41e9-8b2b-e106d261be5e","ios":"levelo://app?vid=0d1fc68b-9b79-41e9-8b2b-e106d261be5e"},"vehicle_type_id":"4","last_reported":1734098960,"current_range_meters":19600,"station_id":"ce4bgkh2rcd13ifvqbl0","pricing_plan_id":"cebpf4jnsgd1na2vs0mg"},{"bike_id":"a3d50968-28f4-41e2-bba4-15d8551065b3","system_id":"levelo_inurba_marseille","lat":43.29647,"lon":5.37152,"is_reserved":false,"is_disabled":false,"rental_uris":{"android":"levelo://app?vid=a3d50968-28f4-41e2-bba4-15d8551065b3","ios":"levelo://app?vid=a3d50968-28f4-41e2-bba4-15d8551065b3"},"vehicle_type_id":"4","last_reported":1734098960,"current_range_meters":32000,"station_id":"ce4bgnh2rcd13ifvqc0g","pricing_plan_id":"cebpf4jnsgd1na2vs0mg"},{"bike_id":"e74372ac-2a6c-47ae-afc7-e1b4e1c3d13f","system_id":"levelo_inurba_marseille","lat":43.23048,"lon":5.355,"is_reserved":false,"is_disabled":false,"rental_uris":{"android":"levelo://app?vid=e74372ac-2a6c-47ae-afc7-e1b4e1c3d13f","ios":"levelo://app?vid=e74372ac-2a6c-47ae-afc7-e1b4e1c3d13f"},"vehicle_type_id":"4","last_reported":1734098960,"current_range_meters":38800,"station_id":"cpo3342slgdg3j2ifvpg","pricing_plan_id":"cebpf4jnsgd1na2vs0mg"},{"bike_id":"e193ef0e-e328-415a-a8ad-7b8f709bf396","system_id":"levelo_inurba_marseille","lat":43.28491,"lon":5.37904,"is_reserved":false,"is_disabled":true,"rental_uris":{"android":"levelo://app?vid=e193ef0e-e328-415a-a8ad-7b8f709bf396","ios":"levelo://app?vid=e193ef0e-e328-415a-a8ad-7b8f709bf396"},"vehicle_type_id":"4","last_reported":1734098960,"current_range_meters":24400,"station_id":"","pricing_plan_id":"cebpf4jnsgd1na2vs0mg"},{"bike_id":"ec27cfa9-234f-4f4f-a3af-c006b6870c3a","system_id":"levelo_inurba_marseille","lat":43.31122,"lon":5.37759,"is_reserved":false,"is_disabled":false,"rental_uris":{"android":"levelo://app?vid=ec27cfa9-234f-4f4f-a3af-c006b6870c3a","ios":"levelo://app?vid=ec27cfa9-234f-4f4f-a3af-c006b6870c3a"},"vehicle_type_id":"4","last_reported":1734098960,"current_range_meters":38800,"station_id":"ce4bgt92rcd13ifvqcg0","pricing_plan_id":"cebpf4jnsgd1na2vs0mg"},{"bike_id":"1f3bb220-68bc-4ae2-ad43-3a927d11010e","system_id":"levelo_inurba_marseille","lat":43.27055,"lon":5.40267,"is_reserved":false,"is_disabled":false,"rental_uris":{"android":"levelo://app?vid=1f3bb220-68bc-4ae2-ad43-3a927d11010e","ios":"levelo://app?vid=1f3bb220-68bc-4ae2-ad43-3a927d11010e"},"vehicle_type_id":"4","last_reported":1734098960,"current_range_meters":38800,"station_id":"ce4bhk92rcd13ifvqgc0","pricing_plan_id":"cebpf4jnsgd1na2vs0mg"},{"bike_id":"7c09797a-3be5-43ac-a86a-823f279e69c9","system_id":"levelo_inurba_marseille","lat":43.29709,"lon":5.37693,"is_reserved":false,"is_disabled":false,"rental_uris":{"android":"levelo://app?vid=7c09797a-3be5-43ac-a86a-823f279e69c9","ios":"levelo://app?vid=7c09797a-3be5-43ac-a86a-823f279e69c9"},"vehicle_type_id":"4","last_reported":1734098960,"current_range_meters":38000,"station_id":"ce4bgkh2rcd13ifvqbl0","pricing_plan_id":"cebpf4jnsgd1na2vs0mg"},{"bike_id":"600cf92a-c7f3-45d7-b875-136a9995c250","system_id":"levelo_inurba_marseille","lat":43.25113,"lon":5.40319,"is_reserved":false,"is_disabled":false,"rental_uris":{"android":"levelo://app?vid=600cf92a-c7f3-45d7-b875-136a9995c250","ios":"levelo://app?vid=600cf92a-c7f3-45d7-b875-136a9995c250"},"vehicle_type_id":"4","last_reported":1734098960,"current_range_meters":8800,"station_id":"ce4bhlh2rcd13ifvqgig","pricing_plan_id":"cebpf4jnsgd1na2vs0mg"},{"bike_id":"c35ac8f6-56ee-4406-a628-ca31135984cc","system_id":"levelo_inurba_marseille","lat":43.23183,"lon":5.39984,"is_reserved":false,"is_disabled":false,"rental_uris":{"android":"levelo://app?vid=c35ac8f6-56ee-4406-a628-ca31135984cc","ios":"levelo://app?vid=c35ac8f6-56ee-4406-a628-ca31135984cc"},"vehicle_type_id":"4","last_reported":1734098960,"current_range_meters":24400,"station_id":"ce4bhn12rcd13ifvqgqg","pricing_plan_id":"cebpf4jnsgd1na2vs0mg"},{"bike_id":"f43b60c0-f88c-4e14-af84-90e9e26b07b0","system_id":"levelo_inurba_marseille","lat":43.31353,"lon":5.37268,"is_reserved":false,"is_disabled":false,"rental_uris":{"android":"levelo://app?vid=f43b60c0-f88c-4e14-af84-90e9e26b07b0","ios":"levelo://app?vid=f43b60c0-f88c-4e14-af84-90e9e26b07b0"},"vehicle_type_id":"4","last_reported":1734098960,"current_range_meters":10800,"station_id":"","pricing_plan_id":"cebpf4jnsgd1na2vs0mg"},{"bike_id":"bde168cb-e40d-4d30-9ebd-9cecf4a5254f","system_id":"levelo_inurba_marseille","lat":43.28842,"lon":5.35836,"is_reserved":false,"is_disabled":true,"rental_uris":{"android":"levelo://app?vid=bde168cb-e40d-4d30-9ebd-9cecf4a5254f","ios":"levelo://app?vid=bde168cb-e40d-4d30-9ebd-9cecf4a5254f"},"vehicle_type_id":"4","last_reported":1734098960,"current_range_meters":0,"station_id":"ce4bhb12rcd13ifvqem0","pricing_plan_id":"cebpf4jnsgd1na2vs0mg"},{"bike_id":"553d15d0-0abf-4f37-9541-d482e3742cbb","system_id":"levelo_inurba_marseille","lat":43.31354,"lon":5.36708,"is_reserved":false,"is_disabled":false,"rental_uris":{"android":"levelo://app?vid=553d15d0-0abf-4f37-9541-d482e3742cbb","ios":"levelo://app?vid=553d15d0-0abf-4f37-9541-d482e3742cbb"},"vehicle_type_id":"4","last_reported":1734098960,"current_range_meters":19600,"station_id":"ce4bgr92rcd13ifvqc6g","pricing_plan_id":"cebpf4jnsgd1na2vs0mg"},{"bike_id":"514e2eb9-f292-4449-a2cc-3d4737ce7969","system_id":"levelo_inurba_marseille","lat":43.28863,"lon":5.35852,"is_reserved":false,"is_disabled":false,"rental_uris":{"android":"levelo://app?vid=514e2eb9-f292-4449-a2cc-3d4737ce7969","ios":"levelo://app?vid=514e2eb9-f292-4449-a2cc-3d4737ce7969"},"vehicle_type_id":"4","last_reported":1734098960,"current_range_meters":38800,"station_id":"ce4bhb12rcd13ifvqem0","pricing_plan_id":"cebpf4jnsgd1na2vs0mg"},{"bike_id":"ebc65128-fe73-4828-8862-243da7b26624","system_id":"levelo_inurba_marseille","lat":43.29598,"lon":5.36714,"is_reserved":false,"is_disabled":false,"rental_uris":{"android":"levelo://app?vid=ebc65128-fe73-4828-8862-243da7b26624","ios":"levelo://app?vid=ebc65128-fe73-4828-8862-243da7b26624"},"vehicle_type_id":"4","last_reported":1734098960,"current_range_meters":6000,"station_id":"ce4bgph2rcd13ifvqc2g","pricing_plan_id":"cebpf4jnsgd1na2vs0mg"},{"bike_id":"db54b76a-dc03-4bb2-9e54-89ef2fc9fe7b","system_id":"levelo_inurba_marseille","lat":43.29892,"lon":5.39728,"is_reserved":false,"is_disabled":false,"rental_uris":{"android":"levelo://app?vid=db54b76a-dc03-4bb2-9e54-89ef2fc9fe7b","ios":"levelo://app?vid=db54b76a-dc03-4bb2-9e54-89ef2fc9fe7b"},"vehicle_type_id":"4","last_reported":1734098960,"current_range_meters":24000,"station_id":"ce4bh0h2rcd13ifvqd50","pricing_plan_id":"cebpf4jnsgd1na2vs0mg"},{"bike_id":"002069da-d74c-4e41-ae54-1da711c0eed6","system_id":"levelo_inurba_marseille","lat":43.28591,"lon":5.41303,"is_reserved":false,"is_disabled":true,"rental_uris":{"android":"levelo://app?vid=002069da-d74c-4e41-ae54-1da711c0eed6","ios":"levelo://app?vid=002069da-d74c-4e41-ae54-1da711c0eed6"},"vehicle_type_id":"4","last_reported":1734098960,"current_range_meters":0,"station_id":"","pricing_plan_id":"cebpf4jnsgd1na2vs0mg"},{"bike_id":"4b5bfc50-2c4c-4920-81df-558b2b27d81f","system_id":"levelo_inurba_marseille","lat":43.24807,"lon":5.37455,"is_reserved":false,"is_disabled":false,"rental_uris":{"android":"levelo://app?vid=4b5bfc50-2c4c-4920-81df-558b2b27d81f","ios":"levelo://app?vid=4b5bfc50-2c4c-4920-81df-558b2b27d81f"},"vehicle_type_id":"4","last_reported":1734098960,"current_range_meters":38800,"station_id":"ce4bhgh2rcd13ifvqfb0","pricing_plan_id":"cebpf4jnsgd1na2vs0mg"},{"bike_id":"003fcc20-75cd-4e78-9b9a-bd60ee138a76","system_id":"levelo_inurba_marseille","lat":43.25585,"lon":5.38236,"is_reserved":false,"is_disabled":false,"rental_uris":{"android":"levelo://app?vid=003fcc20-75cd-4e78-9b9a-bd60ee138a76","ios":"levelo://app?vid=003fcc20-75cd-4e78-9b9a-bd60ee138a76"},"vehicle_type_id":"4","last_reported":1734098960,"current_range_meters":37600,"station_id":"ce4bhih2rcd13ifvqfs0","pricing_plan_id":"cebpf4jnsgd1na2vs0mg"},{"bike_id":"0dc53ed0-703c-41c7-a7ba-e5fe121ea6cc","system_id":"levelo_inurba_marseille","lat":43.28923,"lon":5.37874,"is_reserved":false,"is_disabled":false,"rental_uris":{"android":"levelo://app?vid=0dc53ed0-703c-41c7-a7ba-e5fe121ea6cc","ios":"levelo://app?vid=0dc53ed0-703c-41c7-a7ba-e5fe121ea6cc"},"vehicle_type_id":"4","last_reported":1734098960,"current_range_meters":33600,"station_id":"","pricing_plan_id":"cebpf4jnsgd1na2vs0mg"},{"bike_id":"a1b3e7ef-122c-4c3b-8be9-c3cc1fd01590","system_id":"levelo_inurba_marseille","lat":43.2455,"lon":5.39534,"is_reserved":false,"is_disabled":false,"rental_uris":{"android":"levelo://app?vid=a1b3e7ef-122c-4c3b-8be9-c3cc1fd01590","ios":"levelo://app?vid=a1b3e7ef-122c-4c3b-8be9-c3cc1fd01590"},"vehicle_type_id":"4","last_reported":1734098960,"current_range_meters":4400,"station_id":"ce4bhlp2rcd13ifvqgjg","pricing_plan_id":"cebpf4jnsgd1na2vs0mg"},{"bike_id":"1e09aea1-6592-4606-838e-01c5295332d1","system_id":"levelo_inurba_marseille","lat":43.32666,"lon":5.40987,"is_reserved":false,"is_disabled":true,"rental_uris":{"android":"levelo://app?vid=1e09aea1-6592-4606-838e-01c5295332d1","ios":"levelo://app?vid=1e09aea1-6592-4606-838e-01c5295332d1"},"vehicle_type_id":"4","last_reported":1734098960,"current_range_meters":32800,"station_id":"ce4bhpp2rcd13ifvqhgg","pricing_plan_id":"cebpf4jnsgd1na2vs0mg"},{"bike_id":"0548673c-0958-45c9-8786-73224eb11342","system_id":"levelo_inurba_marseille","lat":43.29968,"lon":5.38494,"is_reserved":false,"is_disabled":true,"rental_uris":{"android":"levelo://app?vid=0548673c-0958-45c9-8786-73224eb11342","ios":"levelo://app?vid=0548673c-0958-45c9-8786-73224eb11342"},"vehicle_type_id":"4","last_reported":1734098960,"current_range_meters":0,"station_id":"ce4bgj92rcd13ifvqbd0","pricing_plan_id":"cebpf4jnsgd1na2vs0mg"},{"bike_id":"be3d60a6-6fb6-4cc8-81d6-6fe96ff5ee23","system_id":"levelo_inurba_marseille","lat":43.23058,"lon":5.35499,"is_reserved":false,"is_disabled":false,"rental_uris":{"android":"levelo://app?vid=be3d60a6-6fb6-4cc8-81d6-6fe96ff5ee23","ios":"levelo://app?vid=be3d60a6-6fb6-4cc8-81d6-6fe96ff5ee23"},"vehicle_type_id":"4","last_reported":1734098960,"current_range_meters":38400,"station_id":"cpo3342slgdg3j2ifvpg","pricing_plan_id":"cebpf4jnsgd1na2vs0mg"},{"bike_id":"318832c8-cb76-4e72-a2cc-2dfaedd59f28","system_id":"levelo_inurba_marseille","lat":43.29796,"lon":5.381,"is_reserved":false,"is_disabled":false,"rental_uris":{"android":"levelo://app?vid=318832c8-cb76-4e72-a2cc-2dfaedd59f28","ios":"levelo://app?vid=318832c8-cb76-4e72-a2cc-2dfaedd59f28"},"vehicle_type_id":"4","last_reported":1734098960,"current_range_meters":38400,"station_id":"ce4bgip2rcd13ifvqbb0","pricing_plan_id":"cebpf4jnsgd1na2vs0mg"},{"bike_id":"5a347e26-b262-431b-90c9-dc44152bfdaa","system_id":"levelo_inurba_marseille","lat":43.25004,"lon":5.38931,"is_reserved":false,"is_disabled":false,"rental_uris":{"android":"levelo://app?vid=5a347e26-b262-431b-90c9-dc44152bfdaa","ios":"levelo://app?vid=5a347e26-b262-431b-90c9-dc44152bfdaa"},"vehicle_type_id":"4","last_reported":1734098960,"current_range_meters":30000,"station_id":"ce4bhgp2rcd13ifvqfd0","pricing_plan_id":"cebpf4jnsgd1na2vs0mg"},{"bike_id":"1a6191e2-ac99-485d-8e32-fe2f8071e4a9","system_id":"levelo_inurba_marseille","lat":43.29417,"lon":5.38626,"is_reserved":false,"is_disabled":true,"rental_uris":{"android":"levelo://app?vid=1a6191e2-ac99-485d-8e32-fe2f8071e4a9","ios":"levelo://app?vid=1a6191e2-ac99-485d-8e32-fe2f8071e4a9"},"vehicle_type_id":"4","last_reported":1734098960,"current_range_meters":400,"station_id":"ce4bh2h2rcd13ifvqdh0","pricing_plan_id":"cebpf4jnsgd1na2vs0mg"},{"bike_id":"ebdbc8d5-b290-4e69-aa5c-3c2a17f728a0","system_id":"levelo_inurba_marseille","lat":43.30157,"lon":5.37431,"is_reserved":false,"is_disabled":false,"rental_uris":{"android":"levelo://app?vid=ebdbc8d5-b290-4e69-aa5c-3c2a17f728a0","ios":"levelo://app?vid=ebdbc8d5-b290-4e69-aa5c-3c2a17f728a0"},"vehicle_type_id":"4","last_reported":1734098960,"current_range_meters":38800,"station_id":"ce4bgs92rcd13ifvqcc0","pricing_plan_id":"cebpf4jnsgd1na2vs0mg"},{"bike_id":"8ae1169d-f31c-4749-b964-84ffa4ee7db8","system_id":"levelo_inurba_marseille","lat":43.27211,"lon":5.3918,"is_reserved":false,"is_disabled":false,"rental_uris":{"android":"levelo://app?vid=8ae1169d-f31c-4749-b964-84ffa4ee7db8","ios":"levelo://app?vid=8ae1169d-f31c-4749-b964-84ffa4ee7db8"},"vehicle_type_id":"4","last_reported":1734098960,"current_range_meters":19200,"station_id":"ce4bhhp2rcd13ifvqfm0","pricing_plan_id":"cebpf4jnsgd1na2vs0mg"},{"bike_id":"9332f19c-96e3-47ac-8807-c5c2384614c0","system_id":"levelo_inurba_marseille","lat":43.230577,"lon":5.354953,"is_reserved":false,"is_disabled":false,"rental_uris":{"android":"levelo://app?vid=9332f19c-96e3-47ac-8807-c5c2384614c0","ios":"levelo://app?vid=9332f19c-96e3-47ac-8807-c5c2384614c0"},"vehicle_type_id":"4","last_reported":1734098960,"current_range_meters":6800,"station_id":"cpo3342slgdg3j2ifvpg","pricing_plan_id":"cebpf4jnsgd1na2vs0mg"},{"bike_id":"aca779ea-e006-4c2f-a1ca-faf1ed3da3b0","system_id":"levelo_inurba_marseille","lat":43.30454,"lon":5.37902,"is_reserved":false,"is_disabled":false,"rental_uris":{"android":"levelo://app?vid=aca779ea-e006-4c2f-a1ca-faf1ed3da3b0","ios":"levelo://app?vid=aca779ea-e006-4c2f-a1ca-faf1ed3da3b0"},"vehicle_type_id":"4","last_reported":1734098960,"current_range_meters":38800,"station_id":"ce4bgup2rcd13ifvqcn0","pricing_plan_id":"cebpf4jnsgd1na2vs0mg"},{"bike_id":"4c044fe5-5975-427a-978d-d6ac54d22cae","system_id":"levelo_inurba_marseille","lat":43.2885,"lon":5.35861,"is_reserved":false,"is_disabled":false,"rental_uris":{"android":"levelo://app?vid=4c044fe5-5975-427a-978d-d6ac54d22cae","ios":"levelo://app?vid=4c044fe5-5975-427a-978d-d6ac54d22cae"},"vehicle_type_id":"4","last_reported":1734098960,"current_range_meters":38800,"station_id":"ce4bhb12rcd13ifvqem0","pricing_plan_id":"cebpf4jnsgd1na2vs0mg"},{"bike_id":"524fdc59-1def-4765-b344-53587a6914ff","system_id":"levelo_inurba_marseille","lat":43.31081,"lon":5.42427,"is_reserved":false,"is_disabled":false,"rental_uris":{"android":"levelo://app?vid=524fdc59-1def-4765-b344-53587a6914ff","ios":"levelo://app?vid=524fdc59-1def-4765-b344-53587a6914ff"},"vehicle_type_id":"4","last_reported":1734098960,"current_range_meters":38000,"station_id":"ce4bhp92rcd13ifvqhag","pricing_plan_id":"cebpf4jnsgd1na2vs0mg"},{"bike_id":"e3e64285-a7e0-4742-a3e0-c599232b3d18","system_id":"levelo_inurba_marseille","lat":43.28982,"lon":5.37832,"is_reserved":false,"is_disabled":false,"rental_uris":{"android":"levelo://app?vid=e3e64285-a7e0-4742-a3e0-c599232b3d18","ios":"levelo://app?vid=e3e64285-a7e0-4742-a3e0-c599232b3d18"},"vehicle_type_id":"4","last_reported":1734098960,"current_range_meters":19200,"station_id":"ce4bh9p2rcd13ifvqed0","pricing_plan_id":"cebpf4jnsgd1na2vs0mg"},{"bike_id":"a8942e43-f3d6-46fd-8576-2cc6b2787f3e","system_id":"levelo_inurba_marseille","lat":43.33024,"lon":5.39046,"is_reserved":false,"is_disabled":false,"rental_uris":{"android":"levelo://app?vid=a8942e43-f3d6-46fd-8576-2cc6b2787f3e","ios":"levelo://app?vid=a8942e43-f3d6-46fd-8576-2cc6b2787f3e"},"vehicle_type_id":"4","last_reported":1734098960,"current_range_meters":20400,"station_id":"ce4bhr92rcd13ifvqhrg","pricing_plan_id":"cebpf4jnsgd1na2vs0mg"},{"bike_id":"ef3db57d-5b63-4a69-8887-6cc7ded4098d","system_id":"levelo_inurba_marseille","lat":43.29377,"lon":5.37857,"is_reserved":false,"is_disabled":true,"rental_uris":{"android":"levelo://app?vid=ef3db57d-5b63-4a69-8887-6cc7ded4098d","ios":"levelo://app?vid=ef3db57d-5b63-4a69-8887-6cc7ded4098d"},"vehicle_type_id":"4","last_reported":1734098960,"current_range_meters":24800,"station_id":"ce4bgjh2rcd13ifvqbf0","pricing_plan_id":"cebpf4jnsgd1na2vs0mg"},{"bike_id":"c0dcf6c8-f462-4f08-9796-44db2a0f0eea","system_id":"levelo_inurba_marseille","lat":43.30955,"lon":5.40124,"is_reserved":false,"is_disabled":false,"rental_uris":{"android":"levelo://app?vid=c0dcf6c8-f462-4f08-9796-44db2a0f0eea","ios":"levelo://app?vid=c0dcf6c8-f462-4f08-9796-44db2a0f0eea"},"vehicle_type_id":"4","last_reported":1734098960,"current_range_meters":36400,"station_id":"ce4bgkh2rcd13ifvqbk0","pricing_plan_id":"cebpf4jnsgd1na2vs0mg"},{"bike_id":"36f5ef6a-7d9a-4435-85bf-e5ee11242117","system_id":"levelo_inurba_marseille","lat":43.2887,"lon":5.35854,"is_reserved":false,"is_disabled":false,"rental_uris":{"android":"levelo://app?vid=36f5ef6a-7d9a-4435-85bf-e5ee11242117","ios":"levelo://app?vid=36f5ef6a-7d9a-4435-85bf-e5ee11242117"},"vehicle_type_id":"4","last_reported":1734098960,"current_range_meters":38400,"station_id":"ce4bhb12rcd13ifvqem0","pricing_plan_id":"cebpf4jnsgd1na2vs0mg"},{"bike_id":"225f282b-3073-4357-9356-9088bd7241f7","system_id":"levelo_inurba_marseille","lat":43.26799,"lon":5.40281,"is_reserved":false,"is_disabled":false,"rental_uris":{"android":"levelo://app?vid=225f282b-3073-4357-9356-9088bd7241f7","ios":"levelo://app?vid=225f282b-3073-4357-9356-9088bd7241f7"},"vehicle_type_id":"4","last_reported":1734098960,"current_range_meters":30800,"station_id":"ce501612rcd8frsf0b60","pricing_plan_id":"cebpf4jnsgd1na2vs0mg"},{"bike_id":"208886c0-de2e-43ca-abbf-3e8665653f84","system_id":"levelo_inurba_marseille","lat":43.30404,"lon":5.37714,"is_reserved":false,"is_disabled":true,"rental_uris":{"android":"levelo://app?vid=208886c0-de2e-43ca-abbf-3e8665653f84","ios":"levelo://app?vid=208886c0-de2e-43ca-abbf-3e8665653f84"},"vehicle_type_id":"4","last_reported":1734098960,"current_range_meters":0,"station_id":"","pricing_plan_id":"cebpf4jnsgd1na2vs0mg"},{"bike_id":"a5c72909-bd51-437d-8b08-8c2543ff2641","system_id":"levelo_inurba_marseille","lat":43.29715,"lon":5.36609,"is_reserved":false,"is_disabled":false,"rental_uris":{"android":"levelo://app?vid=a5c72909-bd51-437d-8b08-8c2543ff2641","ios":"levelo://app?vid=a5c72909-bd51-437d-8b08-8c2543ff2641"},"vehicle_type_id":"4","last_reported":1734098960,"current_range_meters":38800,"station_id":"ce4bgn12rcd13ifvqbt0","pricing_plan_id":"cebpf4jnsgd1na2vs0mg"},{"bike_id":"82c47538-43f9-4be7-826b-e0381238c55d","system_id":"levelo_inurba_marseille","lat":43.29878,"lon":5.3891,"is_reserved":false,"is_disabled":false,"rental_uris":{"android":"levelo://app?vid=82c47538-43f9-4be7-826b-e0381238c55d","ios":"levelo://app?vid=82c47538-43f9-4be7-826b-e0381238c55d"},"vehicle_type_id":"4","last_reported":1734098960,"current_range_meters":18000,"station_id":"ce4bh392rcd13ifvqdl0","pricing_plan_id":"cebpf4jnsgd1na2vs0mg"},{"bike_id":"35d49a7a-5c78-4628-a4c8-dc5d3ff53cc7","system_id":"levelo_inurba_marseille","lat":43.28437,"lon":5.39196,"is_reserved":false,"is_disabled":false,"rental_uris":{"android":"levelo://app?vid=35d49a7a-5c78-4628-a4c8-dc5d3ff53cc7","ios":"levelo://app?vid=35d49a7a-5c78-4628-a4c8-dc5d3ff53cc7"},"vehicle_type_id":"4","last_reported":1734098960,"current_range_meters":38400,"station_id":"ce4bhoh2rcd13ifvqh5g","pricing_plan_id":"cebpf4jnsgd1na2vs0mg"},{"bike_id":"21d57506-de3b-49b1-8947-2d83e751a996","system_id":"levelo_inurba_marseille","lat":43.26561,"lon":5.39027,"is_reserved":false,"is_disabled":false,"rental_uris":{"android":"levelo://app?vid=21d57506-de3b-49b1-8947-2d83e751a996","ios":"levelo://app?vid=21d57506-de3b-49b1-8947-2d83e751a996"},"vehicle_type_id":"4","last_reported":1734098960,"current_range_meters":25600,"station_id":"ce4bhe12rcd13ifvqf30","pricing_plan_id":"cebpf4jnsgd1na2vs0mg"},{"bike_id":"1432cf1d-5f52-496b-8b0f-41af200811c1","system_id":"levelo_inurba_marseille","lat":43.29596,"lon":5.37493,"is_reserved":false,"is_disabled":false,"rental_uris":{"android":"levelo://app?vid=1432cf1d-5f52-496b-8b0f-41af200811c1","ios":"levelo://app?vid=1432cf1d-5f52-496b-8b0f-41af200811c1"},"vehicle_type_id":"4","last_reported":1734098960,"current_range_meters":28800,"station_id":"ce4bgh92rcd13ifvqb50","pricing_plan_id":"cebpf4jnsgd1na2vs0mg"},{"bike_id":"322ca7ed-ec41-4394-83c2-c77d4247f684","system_id":"levelo_inurba_marseille","lat":43.29924,"lon":5.3749,"is_reserved":false,"is_disabled":false,"rental_uris":{"android":"levelo://app?vid=322ca7ed-ec41-4394-83c2-c77d4247f684","ios":"levelo://app?vid=322ca7ed-ec41-4394-83c2-c77d4247f684"},"vehicle_type_id":"4","last_reported":1734098960,"current_range_meters":32400,"station_id":"ce4bgjh2rcd13ifvqbg0","pricing_plan_id":"cebpf4jnsgd1na2vs0mg"},{"bike_id":"5e6742b0-ad9b-4c39-9b05-fc8ae38eb0ba","system_id":"levelo_inurba_marseille","lat":43.28871,"lon":5.35856,"is_reserved":false,"is_disabled":false,"rental_uris":{"android":"levelo://app?vid=5e6742b0-ad9b-4c39-9b05-fc8ae38eb0ba","ios":"levelo://app?vid=5e6742b0-ad9b-4c39-9b05-fc8ae38eb0ba"},"vehicle_type_id":"4","last_reported":1734098960,"current_range_meters":38800,"station_id":"ce4bhb12rcd13ifvqem0","pricing_plan_id":"cebpf4jnsgd1na2vs0mg"},{"bike_id":"f3cb3fa5-f996-4779-a72c-c8dc29955965","system_id":"levelo_inurba_marseille","lat":43.26555,"lon":5.37291,"is_reserved":false,"is_disabled":false,"rental_uris":{"android":"levelo://app?vid=f3cb3fa5-f996-4779-a72c-c8dc29955965","ios":"levelo://app?vid=f3cb3fa5-f996-4779-a72c-c8dc29955965"},"vehicle_type_id":"4","last_reported":1734098960,"current_range_meters":27200,"station_id":"ce4bhg12rcd13ifvqf70","pricing_plan_id":"cebpf4jnsgd1na2vs0mg"},{"bike_id":"6e6a004b-462d-4b03-aeaa-2611256f0d89","system_id":"levelo_inurba_marseille","lat":43.28111,"lon":5.38937,"is_reserved":false,"is_disabled":true,"rental_uris":{"android":"levelo://app?vid=6e6a004b-462d-4b03-aeaa-2611256f0d89","ios":"levelo://app?vid=6e6a004b-462d-4b03-aeaa-2611256f0d89"},"vehicle_type_id":"4","last_reported":1734098960,"current_range_meters":0,"station_id":"","pricing_plan_id":"cebpf4jnsgd1na2vs0mg"},{"bike_id":"896b0fa9-a884-432f-b6a0-68a0a1aa6006","system_id":"levelo_inurba_marseille","lat":43.29964,"lon":5.38496,"is_reserved":false,"is_disabled":false,"rental_uris":{"android":"levelo://app?vid=896b0fa9-a884-432f-b6a0-68a0a1aa6006","ios":"levelo://app?vid=896b0fa9-a884-432f-b6a0-68a0a1aa6006"},"vehicle_type_id":"4","last_reported":1734098960,"current_range_meters":36800,"station_id":"ce4bgj92rcd13ifvqbd0","pricing_plan_id":"cebpf4jnsgd1na2vs0mg"},{"bike_id":"14845a8f-c0c8-4311-843d-ef820014914a","system_id":"levelo_inurba_marseille","lat":43.26816,"lon":5.40263,"is_reserved":false,"is_disabled":false,"rental_uris":{"android":"levelo://app?vid=14845a8f-c0c8-4311-843d-ef820014914a","ios":"levelo://app?vid=14845a8f-c0c8-4311-843d-ef820014914a"},"vehicle_type_id":"4","last_reported":1734098960,"current_range_meters":36800,"station_id":"ce501612rcd8frsf0b60","pricing_plan_id":"cebpf4jnsgd1na2vs0mg"},{"bike_id":"d6fffe95-279f-4f4a-acf8-3816725ad43e","system_id":"levelo_inurba_marseille","lat":43.30778,"lon":5.37652,"is_reserved":false,"is_disabled":false,"rental_uris":{"android":"levelo://app?vid=d6fffe95-279f-4f4a-acf8-3816725ad43e","ios":"levelo://app?vid=d6fffe95-279f-4f4a-acf8-3816725ad43e"},"vehicle_type_id":"4","last_reported":1734098960,"current_range_meters":38800,"station_id":"ce4bgv92rcd13ifvqcq0","pricing_plan_id":"cebpf4jnsgd1na2vs0mg"},{"bike_id":"84d6294f-b8a5-4363-84f3-90d553fd31b5","system_id":"levelo_inurba_marseille","lat":43.30116,"lon":5.38067,"is_reserved":false,"is_disabled":false,"rental_uris":{"android":"levelo://app?vid=84d6294f-b8a5-4363-84f3-90d553fd31b5","ios":"levelo://app?vid=84d6294f-b8a5-4363-84f3-90d553fd31b5"},"vehicle_type_id":"4","last_reported":1734098960,"current_range_meters":32400,"station_id":"ce4bgjp2rcd13ifvqbh0","pricing_plan_id":"cebpf4jnsgd1na2vs0mg"},{"bike_id":"14460b84-a16b-4eb2-bbd5-3986c64caa71","system_id":"levelo_inurba_marseille","lat":43.29267,"lon":5.38438,"is_reserved":false,"is_disabled":false,"rental_uris":{"android":"levelo://app?vid=14460b84-a16b-4eb2-bbd5-3986c64caa71","ios":"levelo://app?vid=14460b84-a16b-4eb2-bbd5-3986c64caa71"},"vehicle_type_id":"4","last_reported":1734098960,"current_range_meters":12000,"station_id":"ce4bh692rcd13ifvqea0","pricing_plan_id":"cebpf4jnsgd1na2vs0mg"},{"bike_id":"1fb38b89-878b-4384-ade1-355277b75cdc","system_id":"levelo_inurba_marseille","lat":43.30554,"lon":5.36548,"is_reserved":false,"is_disabled":true,"rental_uris":{"android":"levelo://app?vid=1fb38b89-878b-4384-ade1-355277b75cdc","ios":"levelo://app?vid=1fb38b89-878b-4384-ade1-355277b75cdc"},"vehicle_type_id":"4","last_reported":1734098960,"current_range_meters":2000,"station_id":"ce4bgs12rcd13ifvqcag","pricing_plan_id":"cebpf4jnsgd1na2vs0mg"},{"bike_id":"e738fcc8-c725-46f1-b7fe-8f522bd56ad4","system_id":"levelo_inurba_marseille","lat":43.229269,"lon":5.35381,"is_reserved":false,"is_disabled":false,"rental_uris":{"android":"levelo://app?vid=e738fcc8-c725-46f1-b7fe-8f522bd56ad4","ios":"levelo://app?vid=e738fcc8-c725-46f1-b7fe-8f522bd56ad4"},"vehicle_type_id":"4","last_reported":1734098960,"current_range_meters":6400,"station_id":"cpo3532slgdg3j2ikp40","pricing_plan_id":"cebpf4jnsgd1na2vs0mg"},{"bike_id":"978bce4a-4ce2-4d4c-9dc7-c42a0edfcb96","system_id":"levelo_inurba_marseille","lat":43.23154,"lon":5.43716,"is_reserved":false,"is_disabled":true,"rental_uris":{"android":"levelo://app?vid=978bce4a-4ce2-4d4c-9dc7-c42a0edfcb96","ios":"levelo://app?vid=978bce4a-4ce2-4d4c-9dc7-c42a0edfcb96"},"vehicle_type_id":"4","last_reported":1734098960,"current_range_meters":0,"station_id":"ce4bhmp2rcd13ifvqgog","pricing_plan_id":"cebpf4jnsgd1na2vs0mg"},{"bike_id":"fa79c50a-6b99-4c07-a642-9d6102d9ae07","system_id":"levelo_inurba_marseille","lat":43.30304,"lon":5.40445,"is_reserved":false,"is_disabled":false,"rental_uris":{"android":"levelo://app?vid=fa79c50a-6b99-4c07-a642-9d6102d9ae07","ios":"levelo://app?vid=fa79c50a-6b99-4c07-a642-9d6102d9ae07"},"vehicle_type_id":"4","last_reported":1734098960,"current_range_meters":38800,"station_id":"ce4bh012rcd13ifvqd10","pricing_plan_id":"cebpf4jnsgd1na2vs0mg"},{"bike_id":"7965bd8b-65b9-4460-9e65-36f253ebc53b","system_id":"levelo_inurba_marseille","lat":43.320488,"lon":5.41512,"is_reserved":false,"is_disabled":false,"rental_uris":{"android":"levelo://app?vid=7965bd8b-65b9-4460-9e65-36f253ebc53b","ios":"levelo://app?vid=7965bd8b-65b9-4460-9e65-36f253ebc53b"},"vehicle_type_id":"4","last_reported":1734098960,"current_range_meters":23200,"station_id":"ce4bhq92rcd13ifvqhkg","pricing_plan_id":"cebpf4jnsgd1na2vs0mg"},{"bike_id":"0ffc6b8d-2ddb-4335-86e7-92f0e64a897e","system_id":"levelo_inurba_marseille","lat":43.29525,"lon":5.36285,"is_reserved":false,"is_disabled":false,"rental_uris":{"android":"levelo://app?vid=0ffc6b8d-2ddb-4335-86e7-92f0e64a897e","ios":"levelo://app?vid=0ffc6b8d-2ddb-4335-86e7-92f0e64a897e"},"vehicle_type_id":"4","last_reported":1734098960,"current_range_meters":2800,"station_id":"","pricing_plan_id":"cebpf4jnsgd1na2vs0mg"},{"bike_id":"e5192aff-1008-4e7e-b82a-23b5df79d920","system_id":"levelo_inurba_marseille","lat":43.2956,"lon":5.4228,"is_reserved":false,"is_disabled":true,"rental_uris":{"android":"levelo://app?vid=e5192aff-1008-4e7e-b82a-23b5df79d920","ios":"levelo://app?vid=e5192aff-1008-4e7e-b82a-23b5df79d920"},"vehicle_type_id":"4","last_reported":1734098960,"current_range_meters":400,"station_id":"ce4bhph2rcd13ifvqhdg","pricing_plan_id":"cebpf4jnsgd1na2vs0mg"},{"bike_id":"400924dc-8f30-43a2-84e4-042f443d3fa7","system_id":"levelo_inurba_marseille","lat":43.24546,"lon":5.39531,"is_reserved":false,"is_disabled":false,"rental_uris":{"android":"levelo://app?vid=400924dc-8f30-43a2-84e4-042f443d3fa7","ios":"levelo://app?vid=400924dc-8f30-43a2-84e4-042f443d3fa7"},"vehicle_type_id":"4","last_reported":1734098960,"current_range_meters":31200,"station_id":"ce4bhlp2rcd13ifvqgjg","pricing_plan_id":"cebpf4jnsgd1na2vs0mg"},{"bike_id":"a5589391-a7e4-412b-9a87-f917b2322580","system_id":"levelo_inurba_marseille","lat":43.23012,"lon":5.35604,"is_reserved":false,"is_disabled":false,"rental_uris":{"android":"levelo://app?vid=a5589391-a7e4-412b-9a87-f917b2322580","ios":"levelo://app?vid=a5589391-a7e4-412b-9a87-f917b2322580"},"vehicle_type_id":"4","last_reported":1734098960,"current_range_meters":38800,"station_id":"cpo3342slgdg3j2ifvpg","pricing_plan_id":"cebpf4jnsgd1na2vs0mg"},{"bike_id":"950745b5-6492-438d-b17c-adeaaa0c16a9","system_id":"levelo_inurba_marseille","lat":43.29528,"lon":5.38549,"is_reserved":false,"is_disabled":false,"rental_uris":{"android":"levelo://app?vid=950745b5-6492-438d-b17c-adeaaa0c16a9","ios":"levelo://app?vid=950745b5-6492-438d-b17c-adeaaa0c16a9"},"vehicle_type_id":"4","last_reported":1734098960,"current_range_meters":26000,"station_id":"ce4bgih2rcd13ifvqba0","pricing_plan_id":"cebpf4jnsgd1na2vs0mg"},{"bike_id":"103e9cb3-a529-4d55-b047-75adf6d60c18","system_id":"levelo_inurba_marseille","lat":43.27967,"lon":5.39922,"is_reserved":false,"is_disabled":true,"rental_uris":{"android":"levelo://app?vid=103e9cb3-a529-4d55-b047-75adf6d60c18","ios":"levelo://app?vid=103e9cb3-a529-4d55-b047-75adf6d60c18"},"vehicle_type_id":"4","last_reported":1734098960,"current_range_meters":0,"station_id":"","pricing_plan_id":"cebpf4jnsgd1na2vs0mg"},{"bike_id":"9f6edf01-748c-401f-9fc5-e91fa31a072c","system_id":"levelo_inurba_marseille","lat":43.33019,"lon":5.39039,"is_reserved":false,"is_disabled":false,"rental_uris":{"android":"levelo://app?vid=9f6edf01-748c-401f-9fc5-e91fa31a072c","ios":"levelo://app?vid=9f6edf01-748c-401f-9fc5-e91fa31a072c"},"vehicle_type_id":"4","last_reported":1734098960,"current_range_meters":38800,"station_id":"ce4bhr92rcd13ifvqhrg","pricing_plan_id":"cebpf4jnsgd1na2vs0mg"},{"bike_id":"45cb667f-cc2a-44be-9f9b-797c2415849b","system_id":"levelo_inurba_marseille","lat":43.2927,"lon":5.38431,"is_reserved":false,"is_disabled":false,"rental_uris":{"android":"levelo://app?vid=45cb667f-cc2a-44be-9f9b-797c2415849b","ios":"levelo://app?vid=45cb667f-cc2a-44be-9f9b-797c2415849b"},"vehicle_type_id":"4","last_reported":1734098960,"current_range_meters":19200,"station_id":"ce4bh692rcd13ifvqea0","pricing_plan_id":"cebpf4jnsgd1na2vs0mg"},{"bike_id":"7e2cb7ba-a45b-45d3-a290-42e6d8e46a15","system_id":"levelo_inurba_marseille","lat":43.33609,"lon":5.41032,"is_reserved":false,"is_disabled":false,"rental_uris":{"android":"levelo://app?vid=7e2cb7ba-a45b-45d3-a290-42e6d8e46a15","ios":"levelo://app?vid=7e2cb7ba-a45b-45d3-a290-42e6d8e46a15"},"vehicle_type_id":"4","last_reported":1734098960,"current_range_meters":22800,"station_id":"ce4bhqh2rcd13ifvqhmg","pricing_plan_id":"cebpf4jnsgd1na2vs0mg"},{"bike_id":"cf114bb8-ce3e-43ba-8e23-69bcac3003fd","system_id":"levelo_inurba_marseille","lat":43.33756,"lon":5.3742,"is_reserved":false,"is_disabled":false,"rental_uris":{"android":"levelo://app?vid=cf114bb8-ce3e-43ba-8e23-69bcac3003fd","ios":"levelo://app?vid=cf114bb8-ce3e-43ba-8e23-69bcac3003fd"},"vehicle_type_id":"4","last_reported":1734098960,"current_range_meters":25200,"station_id":"","pricing_plan_id":"cebpf4jnsgd1na2vs0mg"},{"bike_id":"9170b74c-6ab9-4aed-ae3b-75ae727d0100","system_id":"levelo_inurba_marseille","lat":43.27408,"lon":5.3901,"is_reserved":false,"is_disabled":false,"rental_uris":{"android":"levelo://app?vid=9170b74c-6ab9-4aed-ae3b-75ae727d0100","ios":"levelo://app?vid=9170b74c-6ab9-4aed-ae3b-75ae727d0100"},"vehicle_type_id":"4","last_reported":1734098960,"current_range_meters":9600,"station_id":"","pricing_plan_id":"cebpf4jnsgd1na2vs0mg"},{"bike_id":"1edcb435-be97-41f8-aa8c-4a20808cef7c","system_id":"levelo_inurba_marseille","lat":43.26776,"lon":5.40312,"is_reserved":false,"is_disabled":false,"rental_uris":{"android":"levelo://app?vid=1edcb435-be97-41f8-aa8c-4a20808cef7c","ios":"levelo://app?vid=1edcb435-be97-41f8-aa8c-4a20808cef7c"},"vehicle_type_id":"4","last_reported":1734098960,"current_range_meters":5600,"station_id":"ce501612rcd8frsf0b60","pricing_plan_id":"cebpf4jnsgd1na2vs0mg"},{"bike_id":"07463e58-2a46-457f-b453-cb53eeef5535","system_id":"levelo_inurba_marseille","lat":43.29917,"lon":5.36531,"is_reserved":false,"is_disabled":false,"rental_uris":{"android":"levelo://app?vid=07463e58-2a46-457f-b453-cb53eeef5535","ios":"levelo://app?vid=07463e58-2a46-457f-b453-cb53eeef5535"},"vehicle_type_id":"4","last_reported":1734098960,"current_range_meters":10000,"station_id":"ce4bgm92rcd13ifvqbr0","pricing_plan_id":"cebpf4jnsgd1na2vs0mg"},{"bike_id":"8bfdfc56-27ca-4366-bc75-b6d83b3c7ef7","system_id":"levelo_inurba_marseille","lat":43.30422,"lon":5.39759,"is_reserved":false,"is_disabled":false,"rental_uris":{"android":"levelo://app?vid=8bfdfc56-27ca-4366-bc75-b6d83b3c7ef7","ios":"levelo://app?vid=8bfdfc56-27ca-4366-bc75-b6d83b3c7ef7"},"vehicle_type_id":"4","last_reported":1734098960,"current_range_meters":38800,"station_id":"ce4bh092rcd13ifvqd20","pricing_plan_id":"cebpf4jnsgd1na2vs0mg"},{"bike_id":"a46e3ccb-8bc2-4640-85fb-260de600c1f9","system_id":"levelo_inurba_marseille","lat":43.337444,"lon":5.374475,"is_reserved":false,"is_disabled":false,"rental_uris":{"android":"levelo://app?vid=a46e3ccb-8bc2-4640-85fb-260de600c1f9","ios":"levelo://app?vid=a46e3ccb-8bc2-4640-85fb-260de600c1f9"},"vehicle_type_id":"4","last_reported":1734098960,"current_range_meters":39200,"station_id":"","pricing_plan_id":"cebpf4jnsgd1na2vs0mg"},{"bike_id":"0676962b-e6d0-4301-b2eb-1a64d605e62b","system_id":"levelo_inurba_marseille","lat":43.33159,"lon":5.38727,"is_reserved":false,"is_disabled":false,"rental_uris":{"android":"levelo://app?vid=0676962b-e6d0-4301-b2eb-1a64d605e62b","ios":"levelo://app?vid=0676962b-e6d0-4301-b2eb-1a64d605e62b"},"vehicle_type_id":"4","last_reported":1734098960,"current_range_meters":31200,"station_id":"","pricing_plan_id":"cebpf4jnsgd1na2vs0mg"},{"bike_id":"ca3bf6a0-806c-4046-b219-bbea4c2ba646","system_id":"levelo_inurba_marseille","lat":43.23201,"lon":5.35549,"is_reserved":false,"is_disabled":false,"rental_uris":{"android":"levelo://app?vid=ca3bf6a0-806c-4046-b219-bbea4c2ba646","ios":"levelo://app?vid=ca3bf6a0-806c-4046-b219-bbea4c2ba646"},"vehicle_type_id":"4","last_reported":1734098960,"current_range_meters":39200,"station_id":"ce4bhu92rcd13ifvqi70","pricing_plan_id":"cebpf4jnsgd1na2vs0mg"},{"bike_id":"c55818ae-f8a8-462a-89db-411fed4cfa5b","system_id":"levelo_inurba_marseille","lat":43.31065,"lon":5.38361,"is_reserved":false,"is_disabled":false,"rental_uris":{"android":"levelo://app?vid=c55818ae-f8a8-462a-89db-411fed4cfa5b","ios":"levelo://app?vid=c55818ae-f8a8-462a-89db-411fed4cfa5b"},"vehicle_type_id":"4","last_reported":1734098960,"current_range_meters":13600,"station_id":"ce4bgv92rcd13ifvqcr0","pricing_plan_id":"cebpf4jnsgd1na2vs0mg"},{"bike_id":"46b2fdec-0870-4ae2-84dc-b1f57512351e","system_id":"levelo_inurba_marseille","lat":43.337444,"lon":5.374475,"is_reserved":false,"is_disabled":true,"rental_uris":{"android":"levelo://app?vid=46b2fdec-0870-4ae2-84dc-b1f57512351e","ios":"levelo://app?vid=46b2fdec-0870-4ae2-84dc-b1f57512351e"},"vehicle_type_id":"4","last_reported":1734098960,"current_range_meters":0,"station_id":"","pricing_plan_id":"cebpf4jnsgd1na2vs0mg"},{"bike_id":"3634ee14-424e-4ddd-b7a4-8494acc0ef71","system_id":"levelo_inurba_marseille","lat":43.2894,"lon":5.36402,"is_reserved":false,"is_disabled":false,"rental_uris":{"android":"levelo://app?vid=3634ee14-424e-4ddd-b7a4-8494acc0ef71","ios":"levelo://app?vid=3634ee14-424e-4ddd-b7a4-8494acc0ef71"},"vehicle_type_id":"4","last_reported":1734098960,"current_range_meters":19600,"station_id":"ce4bhc92rcd13ifvqetg","pricing_plan_id":"cebpf4jnsgd1na2vs0mg"},{"bike_id":"aa79a861-df04-4624-8727-f17cfda404ba","system_id":"levelo_inurba_marseille","lat":43.32102,"lon":5.36801,"is_reserved":false,"is_disabled":true,"rental_uris":{"android":"levelo://app?vid=aa79a861-df04-4624-8727-f17cfda404ba","ios":"levelo://app?vid=aa79a861-df04-4624-8727-f17cfda404ba"},"vehicle_type_id":"4","last_reported":1734098960,"current_range_meters":1600,"station_id":"ce4bhrh2rcd13ifvqhug","pricing_plan_id":"cebpf4jnsgd1na2vs0mg"},{"bike_id":"cbe01e99-0ff7-479e-ac8d-a89f5a65b0d8","system_id":"levelo_inurba_marseille","lat":43.25579,"lon":5.38236,"is_reserved":false,"is_disabled":false,"rental_uris":{"android":"levelo://app?vid=cbe01e99-0ff7-479e-ac8d-a89f5a65b0d8","ios":"levelo://app?vid=cbe01e99-0ff7-479e-ac8d-a89f5a65b0d8"},"vehicle_type_id":"4","last_reported":1734098960,"current_range_meters":36800,"station_id":"ce4bhih2rcd13ifvqfs0","pricing_plan_id":"cebpf4jnsgd1na2vs0mg"},{"bike_id":"78fd63a2-4d82-4ee7-ab6e-ad6b91af6f4b","system_id":"levelo_inurba_marseille","lat":43.2842,"lon":5.34981,"is_reserved":false,"is_disabled":false,"rental_uris":{"android":"levelo://app?vid=78fd63a2-4d82-4ee7-ab6e-ad6b91af6f4b","ios":"levelo://app?vid=78fd63a2-4d82-4ee7-ab6e-ad6b91af6f4b"},"vehicle_type_id":"4","last_reported":1734098960,"current_range_meters":32800,"station_id":"ce4bhbh2rcd13ifvqepg","pricing_plan_id":"cebpf4jnsgd1na2vs0mg"},{"bike_id":"e5d00ad2-00e6-44ec-ae2a-c7deff982377","system_id":"levelo_inurba_marseille","lat":43.28481,"lon":5.38402,"is_reserved":false,"is_disabled":false,"rental_uris":{"android":"levelo://app?vid=e5d00ad2-00e6-44ec-ae2a-c7deff982377","ios":"levelo://app?vid=e5d00ad2-00e6-44ec-ae2a-c7deff982377"},"vehicle_type_id":"4","last_reported":1734098960,"current_range_meters":38800,"station_id":"ce4bh512rcd13ifvqe3g","pricing_plan_id":"cebpf4jnsgd1na2vs0mg"},{"bike_id":"7c8d906e-4b51-42bb-9af1-ff1bd760124a","system_id":"levelo_inurba_marseille","lat":43.24078,"lon":5.37741,"is_reserved":false,"is_disabled":false,"rental_uris":{"android":"levelo://app?vid=7c8d906e-4b51-42bb-9af1-ff1bd760124a","ios":"levelo://app?vid=7c8d906e-4b51-42bb-9af1-ff1bd760124a"},"vehicle_type_id":"4","last_reported":1734098960,"current_range_meters":11200,"station_id":"ce4bhnp2rcd13ifvqgvg","pricing_plan_id":"cebpf4jnsgd1na2vs0mg"},{"bike_id":"ecbdb7da-22b1-405b-9b8e-6fa5021a2d09","system_id":"levelo_inurba_marseille","lat":43.29977,"lon":5.37181,"is_reserved":false,"is_disabled":false,"rental_uris":{"android":"levelo://app?vid=ecbdb7da-22b1-405b-9b8e-6fa5021a2d09","ios":"levelo://app?vid=ecbdb7da-22b1-405b-9b8e-6fa5021a2d09"},"vehicle_type_id":"4","last_reported":1734098960,"current_range_meters":38000,"station_id":"ce4bgr92rcd13ifvqc7g","pricing_plan_id":"cebpf4jnsgd1na2vs0mg"},{"bike_id":"6c15620a-e1de-400f-babc-ec4b81c47263","system_id":"levelo_inurba_marseille","lat":43.33743,"lon":5.37487,"is_reserved":false,"is_disabled":false,"rental_uris":{"android":"levelo://app?vid=6c15620a-e1de-400f-babc-ec4b81c47263","ios":"levelo://app?vid=6c15620a-e1de-400f-babc-ec4b81c47263"},"vehicle_type_id":"4","last_reported":1734098960,"current_range_meters":38800,"station_id":"","pricing_plan_id":"cebpf4jnsgd1na2vs0mg"},{"bike_id":"2448f112-093b-44a4-8c49-c482af2ba024","system_id":"levelo_inurba_marseille","lat":43.23064,"lon":5.3549,"is_reserved":false,"is_disabled":false,"rental_uris":{"android":"levelo://app?vid=2448f112-093b-44a4-8c49-c482af2ba024","ios":"levelo://app?vid=2448f112-093b-44a4-8c49-c482af2ba024"},"vehicle_type_id":"4","last_reported":1734098960,"current_range_meters":26000,"station_id":"cpo3342slgdg3j2ifvpg","pricing_plan_id":"cebpf4jnsgd1na2vs0mg"},{"bike_id":"947876ed-bf87-483d-86b5-0ff5d0c474a2","system_id":"levelo_inurba_marseille","lat":43.28001,"lon":5.41661,"is_reserved":false,"is_disabled":false,"rental_uris":{"android":"levelo://app?vid=947876ed-bf87-483d-86b5-0ff5d0c474a2","ios":"levelo://app?vid=947876ed-bf87-483d-86b5-0ff5d0c474a2"},"vehicle_type_id":"4","last_reported":1734098960,"current_range_meters":27200,"station_id":"ce4bho12rcd13ifvqh1g","pricing_plan_id":"cebpf4jnsgd1na2vs0mg"},{"bike_id":"578f341f-6d9d-480f-898d-506d7f7801ab","system_id":"levelo_inurba_marseille","lat":43.31756,"lon":5.389975,"is_reserved":false,"is_disabled":false,"rental_uris":{"android":"levelo://app?vid=578f341f-6d9d-480f-898d-506d7f7801ab","ios":"levelo://app?vid=578f341f-6d9d-480f-898d-506d7f7801ab"},"vehicle_type_id":"4","last_reported":1734098960,"current_range_meters":30800,"station_id":"ce4bhqp2rcd13ifvqhng","pricing_plan_id":"cebpf4jnsgd1na2vs0mg"},{"bike_id":"5c7b5ddd-d22a-4b9b-9fd3-1746b7dd5085","system_id":"levelo_inurba_marseille","lat":43.2836,"lon":5.38636,"is_reserved":false,"is_disabled":false,"rental_uris":{"android":"levelo://app?vid=5c7b5ddd-d22a-4b9b-9fd3-1746b7dd5085","ios":"levelo://app?vid=5c7b5ddd-d22a-4b9b-9fd3-1746b7dd5085"},"vehicle_type_id":"4","last_reported":1734098960,"current_range_meters":39200,"station_id":"ce4bh492rcd13ifvqdvg","pricing_plan_id":"cebpf4jnsgd1na2vs0mg"},{"bike_id":"be59f879-079a-432f-9c23-5a9fe3f0884e","system_id":"levelo_inurba_marseille","lat":43.24389,"lon":5.37056,"is_reserved":false,"is_disabled":false,"rental_uris":{"android":"levelo://app?vid=be59f879-079a-432f-9c23-5a9fe3f0884e","ios":"levelo://app?vid=be59f879-079a-432f-9c23-5a9fe3f0884e"},"vehicle_type_id":"4","last_reported":1734098960,"current_range_meters":36800,"station_id":"ce4bhhh2rcd13ifvqfk0","pricing_plan_id":"cebpf4jnsgd1na2vs0mg"},{"bike_id":"36fe7f2d-6b60-46ad-a5d3-ec5715357c26","system_id":"levelo_inurba_marseille","lat":43.337695,"lon":5.374371,"is_reserved":false,"is_disabled":false,"rental_uris":{"android":"levelo://app?vid=36fe7f2d-6b60-46ad-a5d3-ec5715357c26","ios":"levelo://app?vid=36fe7f2d-6b60-46ad-a5d3-ec5715357c26"},"vehicle_type_id":"4","last_reported":1734098960,"current_range_meters":38400,"station_id":"","pricing_plan_id":"cebpf4jnsgd1na2vs0mg"},{"bike_id":"6d05f7ba-808a-4403-b1f3-f8483fec843c","system_id":"levelo_inurba_marseille","lat":43.23196,"lon":5.35546,"is_reserved":false,"is_disabled":false,"rental_uris":{"android":"levelo://app?vid=6d05f7ba-808a-4403-b1f3-f8483fec843c","ios":"levelo://app?vid=6d05f7ba-808a-4403-b1f3-f8483fec843c"},"vehicle_type_id":"4","last_reported":1734098960,"current_range_meters":26800,"station_id":"ce4bhu92rcd13ifvqi70","pricing_plan_id":"cebpf4jnsgd1na2vs0mg"},{"bike_id":"e28ea640-3d83-4a34-9171-17eb3af4a2b4","system_id":"levelo_inurba_marseille","lat":43.28843,"lon":5.3933,"is_reserved":false,"is_disabled":false,"rental_uris":{"android":"levelo://app?vid=e28ea640-3d83-4a34-9171-17eb3af4a2b4","ios":"levelo://app?vid=e28ea640-3d83-4a34-9171-17eb3af4a2b4"},"vehicle_type_id":"4","last_reported":1734098960,"current_range_meters":22000,"station_id":"ce4bh2p2rcd13ifvqdi0","pricing_plan_id":"cebpf4jnsgd1na2vs0mg"},{"bike_id":"fef46924-de60-44bd-918b-ecfb0cfee15e","system_id":"levelo_inurba_marseille","lat":43.29257,"lon":5.38441,"is_reserved":false,"is_disabled":false,"rental_uris":{"android":"levelo://app?vid=fef46924-de60-44bd-918b-ecfb0cfee15e","ios":"levelo://app?vid=fef46924-de60-44bd-918b-ecfb0cfee15e"},"vehicle_type_id":"4","last_reported":1734098960,"current_range_meters":20000,"station_id":"ce4bh692rcd13ifvqea0","pricing_plan_id":"cebpf4jnsgd1na2vs0mg"},{"bike_id":"733d48b5-3e3e-4902-9af1-a9d5ec11e190","system_id":"levelo_inurba_marseille","lat":43.27498,"lon":5.42444,"is_reserved":false,"is_disabled":true,"rental_uris":{"android":"levelo://app?vid=733d48b5-3e3e-4902-9af1-a9d5ec11e190","ios":"levelo://app?vid=733d48b5-3e3e-4902-9af1-a9d5ec11e190"},"vehicle_type_id":"4","last_reported":1734098960,"current_range_meters":400,"station_id":"ce4bhn92rcd13ifvqgrg","pricing_plan_id":"cebpf4jnsgd1na2vs0mg"},{"bike_id":"9c8c1480-9ffa-4086-913c-c2125a6eb848","system_id":"levelo_inurba_marseille","lat":43.22931,"lon":5.35378,"is_reserved":false,"is_disabled":false,"rental_uris":{"android":"levelo://app?vid=9c8c1480-9ffa-4086-913c-c2125a6eb848","ios":"levelo://app?vid=9c8c1480-9ffa-4086-913c-c2125a6eb848"},"vehicle_type_id":"4","last_reported":1734098960,"current_range_meters":32000,"station_id":"cpo3532slgdg3j2ikp40","pricing_plan_id":"cebpf4jnsgd1na2vs0mg"},{"bike_id":"b9fe9746-8359-46fb-893f-8867bb03a3a2","system_id":"levelo_inurba_marseille","lat":43.29216,"lon":5.39308,"is_reserved":false,"is_disabled":true,"rental_uris":{"android":"levelo://app?vid=b9fe9746-8359-46fb-893f-8867bb03a3a2","ios":"levelo://app?vid=b9fe9746-8359-46fb-893f-8867bb03a3a2"},"vehicle_type_id":"4","last_reported":1734098960,"current_range_meters":24800,"station_id":"ce4bh192rcd13ifvqdd0","pricing_plan_id":"cebpf4jnsgd1na2vs0mg"},{"bike_id":"21360fa8-8c09-4489-aacd-1df877aa461c","system_id":"levelo_inurba_marseille","lat":43.28939,"lon":5.36384,"is_reserved":false,"is_disabled":false,"rental_uris":{"android":"levelo://app?vid=21360fa8-8c09-4489-aacd-1df877aa461c","ios":"levelo://app?vid=21360fa8-8c09-4489-aacd-1df877aa461c"},"vehicle_type_id":"4","last_reported":1734098960,"current_range_meters":8400,"station_id":"ce4bhc92rcd13ifvqetg","pricing_plan_id":"cebpf4jnsgd1na2vs0mg"},{"bike_id":"dd76e1a4-0943-4507-a76b-20b15c09ddac","system_id":"levelo_inurba_marseille","lat":43.29563,"lon":5.39995,"is_reserved":false,"is_disabled":true,"rental_uris":{"android":"levelo://app?vid=dd76e1a4-0943-4507-a76b-20b15c09ddac","ios":"levelo://app?vid=dd76e1a4-0943-4507-a76b-20b15c09ddac"},"vehicle_type_id":"4","last_reported":1734098960,"current_range_meters":36400,"station_id":"ce4bh312rcd13ifvqdj0","pricing_plan_id":"cebpf4jnsgd1na2vs0mg"},{"bike_id":"76ff6577-012f-45c0-9808-97bac7529c3f","system_id":"levelo_inurba_marseille","lat":43.30157,"lon":5.37525,"is_reserved":false,"is_disabled":false,"rental_uris":{"android":"levelo://app?vid=76ff6577-012f-45c0-9808-97bac7529c3f","ios":"levelo://app?vid=76ff6577-012f-45c0-9808-97bac7529c3f"},"vehicle_type_id":"4","last_reported":1734098960,"current_range_meters":35200,"station_id":"","pricing_plan_id":"cebpf4jnsgd1na2vs0mg"},{"bike_id":"c14cef6a-f33c-4a1d-8fa4-7bd7cb2427f1","system_id":"levelo_inurba_marseille","lat":43.30144,"lon":5.37416,"is_reserved":false,"is_disabled":false,"rental_uris":{"android":"levelo://app?vid=c14cef6a-f33c-4a1d-8fa4-7bd7cb2427f1","ios":"levelo://app?vid=c14cef6a-f33c-4a1d-8fa4-7bd7cb2427f1"},"vehicle_type_id":"4","last_reported":1734098960,"current_range_meters":37600,"station_id":"ce4bgs92rcd13ifvqcc0","pricing_plan_id":"cebpf4jnsgd1na2vs0mg"},{"bike_id":"5b93735a-ccac-4fdb-90b4-9c5c567b257d","system_id":"levelo_inurba_marseille","lat":43.2817,"lon":5.4262,"is_reserved":false,"is_disabled":false,"rental_uris":{"android":"levelo://app?vid=5b93735a-ccac-4fdb-90b4-9c5c567b257d","ios":"levelo://app?vid=5b93735a-ccac-4fdb-90b4-9c5c567b257d"},"vehicle_type_id":"4","last_reported":1734098960,"current_range_meters":34000,"station_id":"ce4bhnh2rcd13ifvqgug","pricing_plan_id":"cebpf4jnsgd1na2vs0mg"},{"bike_id":"2d1e02bb-c15e-4c66-8770-f4a4c5670993","system_id":"levelo_inurba_marseille","lat":43.27812,"lon":5.40708,"is_reserved":false,"is_disabled":false,"rental_uris":{"android":"levelo://app?vid=2d1e02bb-c15e-4c66-8770-f4a4c5670993","ios":"levelo://app?vid=2d1e02bb-c15e-4c66-8770-f4a4c5670993"},"vehicle_type_id":"4","last_reported":1734098960,"current_range_meters":16400,"station_id":"ce4bhnh2rcd13ifvqgtg","pricing_plan_id":"cebpf4jnsgd1na2vs0mg"},{"bike_id":"b9affe75-27cb-4e13-aa74-2bc5650eadfe","system_id":"levelo_inurba_marseille","lat":43.25867,"lon":5.3992,"is_reserved":false,"is_disabled":false,"rental_uris":{"android":"levelo://app?vid=b9affe75-27cb-4e13-aa74-2bc5650eadfe","ios":"levelo://app?vid=b9affe75-27cb-4e13-aa74-2bc5650eadfe"},"vehicle_type_id":"4","last_reported":1734098960,"current_range_meters":34000,"station_id":"ce4bhl92rcd13ifvqghg","pricing_plan_id":"cebpf4jnsgd1na2vs0mg"},{"bike_id":"0d010a08-2d95-42ce-b35c-0cddd3ee4f0f","system_id":"levelo_inurba_marseille","lat":43.2481,"lon":5.37448,"is_reserved":false,"is_disabled":false,"rental_uris":{"android":"levelo://app?vid=0d010a08-2d95-42ce-b35c-0cddd3ee4f0f","ios":"levelo://app?vid=0d010a08-2d95-42ce-b35c-0cddd3ee4f0f"},"vehicle_type_id":"4","last_reported":1734098960,"current_range_meters":39200,"station_id":"ce4bhgh2rcd13ifvqfb0","pricing_plan_id":"cebpf4jnsgd1na2vs0mg"},{"bike_id":"fba301cb-d4a7-43fe-b40e-39e4906f7f8e","system_id":"levelo_inurba_marseille","lat":43.25865,"lon":5.39895,"is_reserved":false,"is_disabled":false,"rental_uris":{"android":"levelo://app?vid=fba301cb-d4a7-43fe-b40e-39e4906f7f8e","ios":"levelo://app?vid=fba301cb-d4a7-43fe-b40e-39e4906f7f8e"},"vehicle_type_id":"4","last_reported":1734098960,"current_range_meters":31200,"station_id":"ce4bhl92rcd13ifvqghg","pricing_plan_id":"cebpf4jnsgd1na2vs0mg"},{"bike_id":"0ebce46d-b329-49b3-9de3-9b2a63736440","system_id":"levelo_inurba_marseille","lat":43.27295,"lon":5.39055,"is_reserved":false,"is_disabled":false,"rental_uris":{"android":"levelo://app?vid=0ebce46d-b329-49b3-9de3-9b2a63736440","ios":"levelo://app?vid=0ebce46d-b329-49b3-9de3-9b2a63736440"},"vehicle_type_id":"4","last_reported":1734098960,"current_range_meters":38400,"station_id":"ce4bhgp2rcd13ifvqfe0","pricing_plan_id":"cebpf4jnsgd1na2vs0mg"},