{"last_updated":1704960607,"ttl":30,"version":"2.2","data":{"bikes":[{"bike_id":"465908d4-acca-4a87-ab5b-335d9fb4cfca","system_id":"levelo_inurba_marseille","lat":43.313391,"lon":5.36706,"is_reserved":false,"is_disabled":false,"rental_uris":{"android":"levelo://app?vid=465908d4-acca-4a87-ab5b-335d9fb4cfca","ios":"levelo://app?vid=465908d4-acca-4a87-ab5b-335d9fb4cfca"},"vehicle_type_id":"4","last_reported":1704960607,"current_range_meters":5600,"station_id":"ce4bgr92rcd13ifvqc6g","pricing_plan_id":"free"},{"bike_id":"d13fb0d0-dfae-459a-b542-08b761171e81","system_id":"levelo_inurba_marseille","lat":43.313391,"lon":5.36706,"is_reserved":false,"is_disabled":false,"rental_uris":{"android":"levelo://app?vid=d13fb0d0-dfae-459a-b542-08b761171e81","ios":"levelo://app?vid=d13fb0d0-dfae-459a-b542-08b761171e81"},"vehicle_type_id":"4","last_reported":1704960607,"current_range_meters":26800,"station_id":"ce4bgr92rcd13ifvqc6g","pricing_plan_id":"free"},{"bike_id":"12520231-95dc-4200-b402-bf0a3fca5702","system_id":"levelo_inurba_marseille","lat":43.31341,"lon":5.367098,"is_reserved":false,"is_disabled":false,"rental_uris":{"android":"levelo://app?vid=12520231-95dc-4200-b402-bf0a3fca5702","ios":"levelo://app?vid=12520231-95dc-4200-b402-bf0a3fca5702"},"vehicle_type_id":"4","last_reported":1704960607,"current_range_meters":26400,"station_id":"ce4bgr92rcd13ifvqc6g","pricing_plan_id":"free"},{"bike_id":"8321b409-3bdb-447f-83b1-4d5187783fc4","system_id":"levelo_inurba_marseille","lat":43.31341,"lon":5.367098,"is_reserved":false,"is_disabled":false,"rental_uris":{"android":"levelo://app?vid=8321b409-3bdb-447f-83b1-4d5187783fc4","ios":"levelo://app?vid=8321b409-3bdb-447f-83b1-4d5187783fc4"},"vehicle_type_id":"4","last_reported":1704960607,"current_range_meters":17200,"station_id":"ce4bgr92rcd13ifvqc6g","pricing_plan_id":"free"},{"bike_id":"2b0a700f-35b7-4a30-9474-c1e17ee3bcfe","system_id":"levelo_inurba_marseille","lat":43.31341,"lon":5.367098,"is_reserved":false,"is_disabled":false,"rental_uris":{"android":"levelo://app?vid=2b0a700f-35b7-4a30-9474-c1e17ee3bcfe","ios":"levelo://app?vid=2b0a700f-35b7-4a30-9474-c1e17ee3bcfe"},"vehicle_type_id":"4","last_reported":1704960607,"current_range_meters":30000,"station_id":"ce4bgr92rcd13ifvqc6g","pricing_plan_id":"free"},{"bike_id":"ea833814-08a4-46f3-9734-1ebaa4bfd0cd","system_id":"levelo_inurba_marseille","lat":43.313391,"lon":5.36706,"is_reserved":false,"is_disabled":false,"rental_uris":{"android":"levelo://app?vid=ea833814-08a4-46f3-9734-1ebaa4bfd0cd","ios":"levelo://app?vid=ea833814-08a4-46f3-9734-1ebaa4bfd0cd"},"vehicle_type_id":"4","last_reported":1704960607,"current_range_meters":29200,"station_id":"ce4bgr92rcd13ifvqc6g","pricing_plan_id":"free"},{"bike_id":"7554fd6e-16ec-4521-88c4-b73368054538","system_id":"levelo_inurba_marseille","lat":43.31341,"lon":5.367098,"is_reserved":false,"is_disabled":false,"rental_uris":{"android":"levelo://app?vid=7554fd6e-16ec-4521-88c4-b73368054538","ios":"levelo://app?vid=7554fd6e-16ec-4521-88c4-b73368054538"},"vehicle_type_id":"4","last_reported":1704960607,"current_range_meters":8400,"station_id":"ce4bgr92rcd13ifvqc6g","pricing_plan_id":"free"},{"bike_id":"be0a8f26-6b54-4ea0-bd92-f87016f02d32","system_id":"levelo_inurba_marseille","lat":43.31341,"lon":5.367098,"is_reserved":false,"is_disabled":false,"rental_uris":{"android":"levelo://app?vid=be0a8f26-6b54-4ea0-bd92-f87016f02d32","ios":"levelo://app?vid=be0a8f26-6b54-4ea0-bd92-f87016f02d32"},"vehicle_type_id":"4","last_reported":1704960607,"current_range_meters":24000,"station_id":"ce4bgr92rcd13ifvqc6g","pricing_plan_id":"free"},{"bike_id":"a4582dc0-d8ee-4d1b-a4ba-f9d2a95e8afa","system_id":"levelo_inurba_marseille","lat":43.31341,"lon":5.367098,"is_reserved":false,"is_disabled":false,"rental_uris":{"android":"levelo://app?vid=a4582dc0-d8ee-4d1b-a4ba-f9d2a95e8afa","ios":"levelo://app?vid=a4582dc0-d8ee-4d1b-a4ba-f9d2a95e8afa"},"vehicle_type_id":"4","last_reported":1704960607,"current_range_meters":31600,"station_id":"ce4bgr92rcd13ifvqc6g","pricing_plan_id":"free"},{"bike_id":"32a3b54e-60f8-47b5-8db3-12caaddc1b30","system_id":"levelo_inurba_marseille","lat":43.312239,"lon":5.368562,"is_reserved":false,"is_disabled":false,"rental_uris":{"android":"levelo://app?vid=32a3b54e-60f8-47b5-8db3-12caaddc1b30","ios":"levelo://app?vid=32a3b54e-60f8-47b5-8db3-12caaddc1b30"},"vehicle_type_id":"4","last_reported":1704960607,"current_range_meters":26800,"station_id":"ce4bgl92rcd13ifvqbq0","pricing_plan_id":"free"},{"bike_id":"6df06a82-e747-4abf-bc18-d06188866835","system_id":"levelo_inurba_marseille","lat":43.312239,"lon":5.368562,"is_reserved":false,"is_disabled":false,"rental_uris":{"android":"levelo://app?vid=6df06a82-e747-4abf-bc18-d06188866835","ios":"levelo://app?vid=6df06a82-e747-4abf-bc18-d06188866835"},"vehicle_type_id":"4","last_reported":1704960607,"current_range_meters":23200,"station_id":"ce4bgl92rcd13ifvqbq0","pricing_plan_id":"free"},{"bike_id":"e9aaa316-6a17-4234-930f-1c8d41a7245e","system_id":"levelo_inurba_marseille","lat":43.312239,"lon":5.368562,"is_reserved":false,"is_disabled":false,"rental_uris":{"android":"levelo://app?vid=e9aaa316-6a17-4234-930f-1c8d41a7245e","ios":"levelo://app?vid=e9aaa316-6a17-4234-930f-1c8d41a7245e"},"vehicle_type_id":"4","last_reported":1704960607,"current_range_meters":23200,"station_id":"ce4bgl92rcd13ifvqbq0","pricing_plan_id":"free"},{"bike_id":"6bc38ff9-a540-4c06-b744-e05109d39577","system_id":"levelo_inurba_marseille","lat":43.312239,"lon":5.368562,"is_reserved":false,"is_disabled":false,"rental_uris":{"android":"levelo://app?vid=6bc38ff9-a540-4c06-b744-e05109d39577","ios":"levelo://app?vid=6bc38ff9-a540-4c06-b744-e05109d39577"},"vehicle_type_id":"4","last_reported":1704960607,"current_range_meters":18800,"station_id":"ce4bgl92rcd13ifvqbq0","pricing_plan_id":"free"},{"bike_id":"55c7317b-d965-4a56-9e43-a5bd33aed1a2","system_id":"levelo_inurba_marseille","lat":43.309076,"lon":5.368465,"is_reserved":false,"is_disabled":false,"rental_uris":{"android":"levelo://app?vid=55c7317b-d965-4a56-9e43-a5bd33aed1a2","ios":"levelo://app?vid=55c7317b-d965-4a56-9e43-a5bd33aed1a2"},"vehicle_type_id":"4","last_reported":1704960607,"current_range_meters":13200,"station_id":"ce4bgn92rcd13ifvqbvg","pricing_plan_id":"free"},{"bike_id":"7d31b69e-8275-4300-a965-f1ebf38fde33","system_id":"levelo_inurba_marseille","lat":43.309076,"lon":5.368465,"is_reserved":false,"is_disabled":false,"rental_uris":{"android":"levelo://app?vid=7d31b69e-8275-4300-a965-f1ebf38fde33","ios":"levelo://app?vid=7d31b69e-8275-4300-a965-f1ebf38fde33"},"vehicle_type_id":"4","last_reported":1704960607,"current_range_meters":24400,"station_id":"ce4bgn92rcd13ifvqbvg","pricing_plan_id":"free"},{"bike_id":"0a376513-190f-4197-a727-7583645252f5","system_id":"levelo_inurba_marseille","lat":43.309076,"lon":5.368465,"is_reserved":false,"is_disabled":false,"rental_uris":{"android":"levelo://app?vid=0a376513-190f-4197-a727-7583645252f5","ios":"levelo://app?vid=0a376513-190f-4197-a727-7583645252f5"},"vehicle_type_id":"4","last_reported":1704960607,"current_range_meters":29600,"station_id":"ce4bgn92rcd13ifvqbvg","pricing_plan_id":"free"},{"bike_id":"b6eab470-9a21-45ef-9550-87eba21afb24","system_id":"levelo_inurba_marseille","lat":43.309076,"lon":5.368465,"is_reserved":false,"is_disabled":false,"rental_uris":{"android":"levelo://app?vid=b6eab470-9a21-45ef-9550-87eba21afb24","ios":"levelo://app?vid=b6eab470-9a21-45ef-9550-87eba21afb24"},"vehicle_type_id":"4","last_reported":1704960607,"current_range_meters":31200,"station_id":"ce4bgn92rcd13ifvqbvg","pricing_plan_id":"free"},{"bike_id":"389a97fd-0990-482d-a12b-6b150e58c8ad","system_id":"levelo_inurba_marseille","lat":43.309076,"lon":5.368465,"is_reserved":false,"is_disabled":false,"rental_uris":{"android":"levelo://app?vid=389a97fd-0990-482d-a12b-6b150e58c8ad","ios":"levelo://app?vid=389a97fd-0990-482d-a12b-6b150e58c8ad"},"vehicle_type_id":"4","last_reported":1704960607,"current_range_meters":27200,"station_id":"ce4bgn92rcd13ifvqbvg","pricing_plan_id":"free"},{"bike_id":"a18c9f18-dd23-4fa3-ae4c-750a813ec2dd","system_id":"levelo_inurba_marseille","lat":43.313588,"lon":5.373443,"is_reserved":false,"is_disabled":false,"rental_uris":{"android":"levelo://app?vid=a18c9f18-dd23-4fa3-ae4c-750a813ec2dd","ios":"levelo://app?vid=a18c9f18-dd23-4fa3-ae4c-750a813ec2dd"},"vehicle_type_id":"4","last_reported":1704960607,"current_range_meters":0,"station_id":"","pricing_plan_id":"free"},{"bike_id":"436c442e-ff76-4474-8f52-9a44458c32d0","system_id":"levelo_inurba_marseille","lat":43.314811,"lon":5.373103,"is_reserved":false,"is_disabled":false,"rental_uris":{"android":"levelo://app?vid=436c442e-ff76-4474-8f52-9a44458c32d0","ios":"levelo://app?vid=436c442e-ff76-4474-8f52-9a44458c32d0"},"vehicle_type_id":"4","last_reported":1704960607,"current_range_meters":30800,"station_id":"ce4bgt12rcd13ifvqcd0","pricing_plan_id":"free"},{"bike_id":"53c6a9a1-76e0-4964-8feb-685f030c6c64","system_id":"levelo_inurba_marseille","lat":43.314811,"lon":5.373103,"is_reserved":false,"is_disabled":false,"rental_uris":{"android":"levelo://app?vid=53c6a9a1-76e0-4964-8feb-685f030c6c64","ios":"levelo://app?vid=53c6a9a1-76e0-4964-8feb-685f030c6c64"},"vehicle_type_id":"4","last_reported":1704960607,"current_range_meters":22400,"station_id":"ce4bgt12rcd13ifvqcd0","pricing_plan_id":"free"},{"bike_id":"c95dc28e-5086-475c-b07e-8f5a2cfb01f3","system_id":"levelo_inurba_marseille","lat":43.314811,"lon":5.373104,"is_reserved":false,"is_disabled":false,"rental_uris":{"android":"levelo://app?vid=c95dc28e-5086-475c-b07e-8f5a2cfb01f3","ios":"levelo://app?vid=c95dc28e-5086-475c-b07e-8f5a2cfb01f3"},"vehicle_type_id":"4","last_reported":1704960607,"current_range_meters":30800,"station_id":"ce4bgt12rcd13ifvqcd0","pricing_plan_id":"free"},{"bike_id":"36b89a2e-57d0-44d0-b04c-0c0c3fa79d58","system_id":"levelo_inurba_marseille","lat":43.314811,"lon":5.373103,"is_reserved":false,"is_disabled":false,"rental_uris":{"android":"levelo://app?vid=36b89a2e-57d0-44d0-b04c-0c0c3fa79d58","ios":"levelo://app?vid=36b89a2e-57d0-44d0-b04c-0c0c3fa79d58"},"vehicle_type_id":"4","last_reported":1704960607,"current_range_meters":19600,"station_id":"ce4bgt12rcd13ifvqcd0","pricing_plan_id":"free"},{"bike_id":"35237119-e23c-40e7-b051-ed055c93e41a","system_id":"levelo_inurba_marseille","lat":43.31481,"lon":5.37313,"is_reserved":false,"is_disabled":false,"rental_uris":{"android":"levelo://app?vid=35237119-e23c-40e7-b051-ed055c93e41a","ios":"levelo://app?vid=35237119-e23c-40e7-b051-ed055c93e41a"},"vehicle_type_id":"4","last_reported":1704960607,"current_range_meters":22800,"station_id":"ce4bgt12rcd13ifvqcd0","pricing_plan_id":"free"},{"bike_id":"27181424-0862-4d8a-ac90-b8ab2b380983","system_id":"levelo_inurba_marseille","lat":43.314811,"lon":5.373103,"is_reserved":false,"is_disabled":false,"rental_uris":{"android":"levelo://app?vid=27181424-0862-4d8a-ac90-b8ab2b380983","ios":"levelo://app?vid=27181424-0862-4d8a-ac90-b8ab2b380983"},"vehicle_type_id":"4","last_reported":1704960607,"current_range_meters":31200,"station_id":"ce4bgt12rcd13ifvqcd0","pricing_plan_id":"free"},{"bike_id":"bca6b3a0-ba6a-49f9-81d9-5c3cac7f116e","system_id":"levelo_inurba_marseille","lat":43.314811,"lon":5.373104,"is_reserved":false,"is_disabled":false,"rental_uris":{"android":"levelo://app?vid=bca6b3a0-ba6a-49f9-81d9-5c3cac7f116e","ios":"levelo://app?vid=bca6b3a0-ba6a-49f9-81d9-5c3cac7f116e"},"vehicle_type_id":"4","last_reported":1704960607,"current_range_meters":31200,"station_id":"ce4bgt12rcd13ifvqcd0","pricing_plan_id":"free"},{"bike_id":"7b3b699f-3f99-4e35-89af-d56ef1f73cc7","system_id":"levelo_inurba_marseille","lat":43.31531,"lon":5.37284,"is_reserved":false,"is_disabled":false,"rental_uris":{"android":"levelo://app?vid=7b3b699f-3f99-4e35-89af-d56ef1f73cc7","ios":"levelo://app?vid=7b3b699f-3f99-4e35-89af-d56ef1f73cc7"},"vehicle_type_id":"4","last_reported":1704960607,"current_range_meters":16400,"station_id":"","pricing_plan_id":"free"},{"bike_id":"4ee3535d-451d-4e97-a771-2b6d90823c8d","system_id":"levelo_inurba_marseille","lat":43.308777,"lon":5.371947,"is_reserved":false,"is_disabled":false,"rental_uris":{"android":"levelo://app?vid=4ee3535d-451d-4e97-a771-2b6d90823c8d","ios":"levelo://app?vid=4ee3535d-451d-4e97-a771-2b6d90823c8d"},"vehicle_type_id":"4","last_reported":1704960607,"current_range_meters":20000,"station_id":"ce4bguh2rcd13ifvqckg","pricing_plan_id":"free"},{"bike_id":"cafd33ae-a560-48e0-ae5d-3956e1f910d8","system_id":"levelo_inurba_marseille","lat":43.30537,"lon":5.367345,"is_reserved":false,"is_disabled":false,"rental_uris":{"android":"levelo://app?vid=cafd33ae-a560-48e0-ae5d-3956e1f910d8","ios":"levelo://app?vid=cafd33ae-a560-48e0-ae5d-3956e1f910d8"},"vehicle_type_id":"4","last_reported":1704960607,"current_range_meters":16400,"station_id":"ce4bgrp2rcd13ifvqc9g","pricing_plan_id":"free"},{"bike_id":"178e4f0f-898b-4ea7-aaca-445a811c3662","system_id":"levelo_inurba_marseille","lat":43.305368,"lon":5.367343,"is_reserved":false,"is_disabled":false,"rental_uris":{"android":"levelo://app?vid=178e4f0f-898b-4ea7-aaca-445a811c3662","ios":"levelo://app?vid=178e4f0f-898b-4ea7-aaca-445a811c3662"},"vehicle_type_id":"4","last_reported":1704960607,"current_range_meters":14000,"station_id":"ce4bgrp2rcd13ifvqc9g","pricing_plan_id":"free"},{"bike_id":"f8f2aeff-31e2-4eff-847e-6f782dafbae9","system_id":"levelo_inurba_marseille","lat":43.305706,"lon":5.365654,"is_reserved":false,"is_disabled":false,"rental_uris":{"android":"levelo://app?vid=f8f2aeff-31e2-4eff-847e-6f782dafbae9","ios":"levelo://app?vid=f8f2aeff-31e2-4eff-847e-6f782dafbae9"},"vehicle_type_id":"4","last_reported":1704960607,"current_range_meters":26800,"station_id":"ce4bgs12rcd13ifvqcag","pricing_plan_id":"free"},{"bike_id":"5ba8bf84-a7e9-44a5-bbf7-de8c887d6ce9","system_id":"levelo_inurba_marseille","lat":43.305368,"lon":5.367343,"is_reserved":false,"is_disabled":false,"rental_uris":{"android":"levelo://app?vid=5ba8bf84-a7e9-44a5-bbf7-de8c887d6ce9","ios":"levelo://app?vid=5ba8bf84-a7e9-44a5-bbf7-de8c887d6ce9"},"vehicle_type_id":"4","last_reported":1704960607,"current_range_meters":24400,"station_id":"ce4bgrp2rcd13ifvqc9g","pricing_plan_id":"free"},{"bike_id":"c7be06e3-5125-4bd3-b6a6-cc535d34ba95","system_id":"levelo_inurba_marseille","lat":43.305706,"lon":5.365654,"is_reserved":false,"is_disabled":false,"rental_uris":{"android":"levelo://app?vid=c7be06e3-5125-4bd3-b6a6-cc535d34ba95","ios":"levelo://app?vid=c7be06e3-5125-4bd3-b6a6-cc535d34ba95"},"vehicle_type_id":"4","last_reported":1704960607,"current_range_meters":28000,"station_id":"ce4bgs12rcd13ifvqcag","pricing_plan_id":"free"},{"bike_id":"9c4fed65-f5b2-40dc-ac2d-d70985908977","system_id":"levelo_inurba_marseille","lat":43.305706,"lon":5.365654,"is_reserved":false,"is_disabled":false,"rental_uris":{"android":"levelo://app?vid=9c4fed65-f5b2-40dc-ac2d-d70985908977","ios":"levelo://app?vid=9c4fed65-f5b2-40dc-ac2d-d70985908977"},"vehicle_type_id":"4","last_reported":1704960607,"current_range_meters":24800,"station_id":"ce4bgs12rcd13ifvqcag","pricing_plan_id":"free"},{"bike_id":"f66f28ba-39e7-48b9-a2e5-8c7d5196986b","system_id":"levelo_inurba_marseille","lat":43.305706,"lon":5.365654,"is_reserved":false,"is_disabled":false,"rental_uris":{"android":"levelo://app?vid=f66f28ba-39e7-48b9-a2e5-8c7d5196986b","ios":"levelo://app?vid=f66f28ba-39e7-48b9-a2e5-8c7d5196986b"},"vehicle_type_id":"4","last_reported":1704960607,"current_range_meters":9600,"station_id":"ce4bgs12rcd13ifvqcag","pricing_plan_id":"free"},{"bike_id":"d6e5a1a5-1909-4221-8de2-6b05c9678dcf","system_id":"levelo_inurba_marseille","lat":43.305368,"lon":5.367343,"is_reserved":false,"is_disabled":false,"rental_uris":{"android":"levelo://app?vid=d6e5a1a5-1909-4221-8de2-6b05c9678dcf","ios":"levelo://app?vid=d6e5a1a5-1909-4221-8de2-6b05c9678dcf"},"vehicle_type_id":"4","last_reported":1704960607,"current_range_meters":20400,"station_id":"ce4bgrp2rcd13ifvqc9g","pricing_plan_id":"free"},{"bike_id":"10519b12-2e79-4c72-94d6-0e582932887e","system_id":"levelo_inurba_marseille","lat":43.305706,"lon":5.365654,"is_reserved":false,"is_disabled":false,"rental_uris":{"android":"levelo://app?vid=10519b12-2e79-4c72-94d6-0e582932887e","ios":"levelo://app?vid=10519b12-2e79-4c72-94d6-0e582932887e"},"vehicle_type_id":"4","last_reported":1704960607,"current_range_meters":26800,"station_id":"ce4bgs12rcd13ifvqcag","pricing_plan_id":"free"},{"bike_id":"93812adc-2e9b-4c26-afc3-652c32ca6fd7","system_id":"levelo_inurba_marseille","lat":43.305706,"lon":5.365654,"is_reserved":false,"is_disabled":false,"rental_uris":{"android":"levelo://app?vid=93812adc-2e9b-4c26-afc3-652c32ca6fd7","ios":"levelo://app?vid=93812adc-2e9b-4c26-afc3-652c32ca6fd7"},"vehicle_type_id":"4","last_reported":1704960607,"current_range_meters":25200,"station_id":"ce4bgs12rcd13ifvqcag","pricing_plan_id":"free"},{"bike_id":"eed8c79d-14f0-4974-97b2-52699b5cd58b","system_id":"levelo_inurba_marseille","lat":43.305706,"lon":5.365654,"is_reserved":false,"is_disabled":false,"rental_uris":{"android":"levelo://app?vid=eed8c79d-14f0-4974-97b2-52699b5cd58b","ios":"levelo://app?vid=eed8c79d-14f0-4974-97b2-52699b5cd58b"},"vehicle_type_id":"4","last_reported":1704960607,"current_range_meters":31200,"station_id":"ce4bgs12rcd13ifvqcag","pricing_plan_id":"free"},{"bike_id":"4f9f99e0-9cad-4111-b266-4332a1b2a2e6","system_id":"levelo_inurba_marseille","lat":43.305989,"lon":5.37225,"is_reserved":false,"is_disabled":false,"rental_uris":{"android":"levelo://app?vid=4f9f99e0-9cad-4111-b266-4332a1b2a2e6","ios":"levelo://app?vid=4f9f99e0-9cad-4111-b266-4332a1b2a2e6"},"vehicle_type_id":"4","last_reported":1704960607,"current_range_meters":26000,"station_id":"ce4bgqh2rcd13ifvqc4g","pricing_plan_id":"free"},{"bike_id":"8120ad49-3319-45aa-81b6-5f87b06138df","system_id":"levelo_inurba_marseille","lat":43.311131,"lon":5.377651,"is_reserved":false,"is_disabled":false,"rental_uris":{"android":"levelo://app?vid=8120ad49-3319-45aa-81b6-5f87b06138df","ios":"levelo://app?vid=8120ad49-3319-45aa-81b6-5f87b06138df"},"vehicle_type_id":"4","last_reported":1704960607,"current_range_meters":4000,"station_id":"ce4bgt92rcd13ifvqcg0","pricing_plan_id":"free"},{"bike_id":"ff6224f8-4d1e-4495-ac59-907034b1e2a9","system_id":"levelo_inurba_marseille","lat":43.31115,"lon":5.37771,"is_reserved":false,"is_disabled":false,"rental_uris":{"android":"levelo://app?vid=ff6224f8-4d1e-4495-ac59-907034b1e2a9","ios":"levelo://app?vid=ff6224f8-4d1e-4495-ac59-907034b1e2a9"},"vehicle_type_id":"4","last_reported":1704960607,"current_range_meters":27600,"station_id":"ce4bgt92rcd13ifvqcg0","pricing_plan_id":"free"},{"bike_id":"76214b38-9e6e-4bad-96c1-613e7fe752be","system_id":"levelo_inurba_marseille","lat":43.316996,"lon":5.377378,"is_reserved":false,"is_disabled":false,"rental_uris":{"android":"levelo://app?vid=76214b38-9e6e-4bad-96c1-613e7fe752be","ios":"levelo://app?vid=76214b38-9e6e-4bad-96c1-613e7fe752be"},"vehicle_type_id":"4","last_reported":1704960607,"current_range_meters":0,"station_id":"ce4bgth2rcd13ifvqch0","pricing_plan_id":"free"},{"bike_id":"6037dcd5-149c-4903-b2fd-d261e491b3b8","system_id":"levelo_inurba_marseille","lat":43.317075,"lon":5.377367,"is_reserved":false,"is_disabled":false,"rental_uris":{"android":"levelo://app?vid=6037dcd5-149c-4903-b2fd-d261e491b3b8","ios":"levelo://app?vid=6037dcd5-149c-4903-b2fd-d261e491b3b8"},"vehicle_type_id":"4","last_reported":1704960607,"current_range_meters":13200,"station_id":"ce4bgth2rcd13ifvqch0","pricing_plan_id":"free"},{"bike_id":"4d461b85-1a0e-4623-8399-e9448b273b12","system_id":"levelo_inurba_marseille","lat":43.317075,"lon":5.377367,"is_reserved":false,"is_disabled":false,"rental_uris":{"android":"levelo://app?vid=4d461b85-1a0e-4623-8399-e9448b273b12","ios":"levelo://app?vid=4d461b85-1a0e-4623-8399-e9448b273b12"},"vehicle_type_id":"4","last_reported":1704960607,"current_range_meters":31200,"station_id":"ce4bgth2rcd13ifvqch0","pricing_plan_id":"free"},{"bike_id":"4fb6c33f-6a2d-4cb9-b5f5-71a4f8b0b1b3","system_id":"levelo_inurba_marseille","lat":43.317075,"lon":5.377367,"is_reserved":false,"is_disabled":false,"rental_uris":{"android":"levelo://app?vid=4fb6c33f-6a2d-4cb9-b5f5-71a4f8b0b1b3","ios":"levelo://app?vid=4fb6c33f-6a2d-4cb9-b5f5-71a4f8b0b1b3"},"vehicle_type_id":"4","last_reported":1704960607,"current_range_meters":26000,"station_id":"ce4bgth2rcd13ifvqch0","pricing_plan_id":"free"},{"bike_id":"4703778a-a799-41e5-b078-4160f07f1fec","system_id":"levelo_inurba_marseille","lat":43.317075,"lon":5.377367,"is_reserved":false,"is_disabled":false,"rental_uris":{"android":"levelo://app?vid=4703778a-a799-41e5-b078-4160f07f1fec","ios":"levelo://app?vid=4703778a-a799-41e5-b078-4160f07f1fec"},"vehicle_type_id":"4","last_reported":1704960607,"current_range_meters":23600,"station_id":"ce4bgth2rcd13ifvqch0","pricing_plan_id":"free"},{"bike_id":"34f12004-4071-4ea4-ab9e-c7ceb500640d","system_id":"levelo_inurba_marseille","lat":43.30304,"lon":5.368987,"is_reserved":false,"is_disabled":false,"rental_uris":{"android":"levelo://app?vid=34f12004-4071-4ea4-ab9e-c7ceb500640d","ios":"levelo://app?vid=34f12004-4071-4ea4-ab9e-c7ceb500640d"},"vehicle_type_id":"4","last_reported":1704960607,"current_range_meters":23200,"station_id":"ce4bgqh2rcd13ifvqc5g","pricing_plan_id":"free"},{"bike_id":"1d5cc588-420a-48ad-ab2a-7e1d92d6a437","system_id":"levelo_inurba_marseille","lat":43.301939,"lon":5.366286,"is_reserved":false,"is_disabled":false,"rental_uris":{"android":"levelo://app?vid=1d5cc588-420a-48ad-ab2a-7e1d92d6a437","ios":"levelo://app?vid=1d5cc588-420a-48ad-ab2a-7e1d92d6a437"},"vehicle_type_id":"4","last_reported":1704960607,"current_range_meters":24000,"station_id":"ce4bgrh2rcd13ifvqc8g","pricing_plan_id":"free"},{"bike_id":"1a7eab65-7e38-4de6-bc49-eddfc564f8d0","system_id":"levelo_inurba_marseille","lat":43.308012,"lon":5.381511,"is_reserved":false,"is_disabled":false,"rental_uris":{"android":"levelo://app?vid=1a7eab65-7e38-4de6-bc49-eddfc564f8d0","ios":"levelo://app?vid=1a7eab65-7e38-4de6-bc49-eddfc564f8d0"},"vehicle_type_id":"4","last_reported":1704960607,"current_range_meters":26800,"station_id":"ce4bgt12rcd13ifvqce0","pricing_plan_id":"free"},{"bike_id":"6c1144e6-274c-481e-a628-66a4370acece","system_id":"levelo_inurba_marseille","lat":43.30802,"lon":5.38152,"is_reserved":false,"is_disabled":false,"rental_uris":{"android":"levelo://app?vid=6c1144e6-274c-481e-a628-66a4370acece","ios":"levelo://app?vid=6c1144e6-274c-481e-a628-66a4370acece"},"vehicle_type_id":"4","last_reported":1704960607,"current_range_meters":30000,"station_id":"ce4bgt12rcd13ifvqce0","pricing_plan_id":"free"},{"bike_id":"cfcb89df-1d17-45c5-a886-47a458658d94","system_id":"levelo_inurba_marseille","lat":43.304606,"lon":5.379026,"is_reserved":false,"is_disabled":false,"rental_uris":{"android":"levelo://app?vid=cfcb89df-1d17-45c5-a886-47a458658d94","ios":"levelo://app?vid=cfcb89df-1d17-45c5-a886-47a458658d94"},"vehicle_type_id":"4","last_reported":1704960607,"current_range_meters":31200,"station_id":"ce4bgup2rcd13ifvqcn0","pricing_plan_id":"free"},{"bike_id":"bf08f932-e5d0-40bc-8248-58eebeb0e4fd","system_id":"levelo_inurba_marseille","lat":43.304606,"lon":5.379026,"is_reserved":false,"is_disabled":false,"rental_uris":{"android":"levelo://app?vid=bf08f932-e5d0-40bc-8248-58eebeb0e4fd","ios":"levelo://app?vid=bf08f932-e5d0-40bc-8248-58eebeb0e4fd"},"vehicle_type_id":"4","last_reported":1704960607,"current_range_meters":22400,"station_id":"ce4bgup2rcd13ifvqcn0","pricing_plan_id":"free"},{"bike_id":"d70eb329-5c09-4083-bf2c-cd779dc29c0f","system_id":"levelo_inurba_marseille","lat":43.304606,"lon":5.379026,"is_reserved":false,"is_disabled":false,"rental_uris":{"android":"levelo://app?vid=d70eb329-5c09-4083-bf2c-cd779dc29c0f","ios":"levelo://app?vid=d70eb329-5c09-4083-bf2c-cd779dc29c0f"},"vehicle_type_id":"4","last_reported":1704960607,"current_range_meters":6000,"station_id":"ce4bgup2rcd13ifvqcn0","pricing_plan_id":"free"},{"bike_id":"8e9f7d45-4c91-4a9f-889d-998e83827cca","system_id":"levelo_inurba_marseille","lat":43.304606,"lon":5.379026,"is_reserved":false,"is_disabled":false,"rental_uris":{"android":"levelo://app?vid=8e9f7d45-4c91-4a9f-889d-998e83827cca","ios":"levelo://app?vid=8e9f7d45-4c91-4a9f-889d-998e83827cca"},"vehicle_type_id":"4","last_reported":1704960607,"current_range_meters":24400,"station_id":"ce4bgup2rcd13ifvqcn0","pricing_plan_id":"free"},{"bike_id":"1f870116-b2d4-4ef6-91b7-023cb8587099","system_id":"levelo_inurba_marseille","lat":43.300827,"lon":5.365856,"is_reserved":false,"is_disabled":false,"rental_uris":{"android":"levelo://app?vid=1f870116-b2d4-4ef6-91b7-023cb8587099","ios":"levelo://app?vid=1f870116-b2d4-4ef6-91b7-023cb8587099"},"vehicle_type_id":"4","last_reported":1704960607,"current_range_meters":10000,"station_id":"","pricing_plan_id":"free"},{"bike_id":"0d0f2e0f-9638-4c48-9e6a-c3b0ca845551","system_id":"levelo_inurba_marseille","lat":43.304606,"lon":5.379026,"is_reserved":false,"is_disabled":false,"rental_uris":{"android":"levelo://app?vid=0d0f2e0f-9638-4c48-9e6a-c3b0ca845551","ios":"levelo://app?vid=0d0f2e0f-9638-4c48-9e6a-c3b0ca845551"},"vehicle_type_id":"4","last_reported":1704960607,"current_range_meters":22000,"station_id":"ce4bgup2rcd13ifvqcn0","pricing_plan_id":"free"},{"bike_id":"5272b0fb-c460-455e-8cb5-3bb167cfd5ec","system_id":"levelo_inurba_marseille","lat":43.304606,"lon":5.379026,"is_reserved":false,"is_disabled":false,"rental_uris":{"android":"levelo://app?vid=5272b0fb-c460-455e-8cb5-3bb167cfd5ec","ios":"levelo://app?vid=5272b0fb-c460-455e-8cb5-3bb167cfd5ec"},"vehicle_type_id":"4","last_reported":1704960607,"current_range_meters":19200,"station_id":"ce4bgup2rcd13ifvqcn0","pricing_plan_id":"free"},{"bike_id":"aa1f8f75-5c99-4558-9350-48aa352a0373","system_id":"levelo_inurba_marseille","lat":43.304606,"lon":5.379026,"is_reserved":false,"is_disabled":false,"rental_uris":{"android":"levelo://app?vid=aa1f8f75-5c99-4558-9350-48aa352a0373","ios":"levelo://app?vid=aa1f8f75-5c99-4558-9350-48aa352a0373"},"vehicle_type_id":"4","last_reported":1704960607,"current_range_meters":22000,"station_id":"ce4bgup2rcd13ifvqcn0","pricing_plan_id":"free"},{"bike_id":"e6db7613-eaae-4afb-bf75-3df7acfce76e","system_id":"levelo_inurba_marseille","lat":43.304647,"lon":5.379019,"is_reserved":false,"is_disabled":false,"rental_uris":{"android":"levelo://app?vid=e6db7613-eaae-4afb-bf75-3df7acfce76e","ios":"levelo://app?vid=e6db7613-eaae-4afb-bf75-3df7acfce76e"},"vehicle_type_id":"4","last_reported":1704960607,"current_range_meters":28000,"station_id":"ce4bgup2rcd13ifvqcn0","pricing_plan_id":"free"},{"bike_id":"2ddb835c-2e8c-45c4-a453-96db3859a699","system_id":"levelo_inurba_marseille","lat":43.304606,"lon":5.379026,"is_reserved":false,"is_disabled":false,"rental_uris":{"android":"levelo://app?vid=2ddb835c-2e8c-45c4-a453-96db3859a699","ios":"levelo://app?vid=2ddb835c-2e8c-45c4-a453-96db3859a699"},"vehicle_type_id":"4","last_reported":1704960607,"current_range_meters":21600,"station_id":"ce4bgup2rcd13ifvqcn0","pricing_plan_id":"free"},{"bike_id":"619c60e9-4d89-4dd5-9845-ab24e158143d","system_id":"levelo_inurba_marseille","lat":43.304606,"lon":5.379026,"is_reserved":false,"is_disabled":false,"rental_uris":{"android":"levelo://app?vid=619c60e9-4d89-4dd5-9845-ab24e158143d","ios":"levelo://app?vid=619c60e9-4d89-4dd5-9845-ab24e158143d"},"vehicle_type_id":"4","last_reported":1704960607,"current_range_meters":23600,"station_id":"ce4bgup2rcd13ifvqcn0","pricing_plan_id":"free"},{"bike_id":"9536c39c-8669-46b9-8936-81a5da4de3cc","system_id":"levelo_inurba_marseille","lat":43.304606,"lon":5.379026,"is_reserved":false,"is_disabled":false,"rental_uris":{"android":"levelo://app?vid=9536c39c-8669-46b9-8936-81a5da4de3cc","ios":"levelo://app?vid=9536c39c-8669-46b9-8936-81a5da4de3cc"},"vehicle_type_id":"4","last_reported":1704960607,"current_range_meters":28800,"station_id":"ce4bgup2rcd13ifvqcn0","pricing_plan_id":"free"},{"bike_id":"0eefff6e-1191-4a63-b300-59ef764b0a0d","system_id":"levelo_inurba_marseille","lat":43.30458,"lon":5.37902,"is_reserved":false,"is_disabled":false,"rental_uris":{"android":"levelo://app?vid=0eefff6e-1191-4a63-b300-59ef764b0a0d","ios":"levelo://app?vid=0eefff6e-1191-4a63-b300-59ef764b0a0d"},"vehicle_type_id":"4","last_reported":1704960607,"current_range_meters":22000,"station_id":"ce4bgup2rcd13ifvqcn0","pricing_plan_id":"free"},{"bike_id":"97dfa457-66fd-4f58-922d-44b7f6c53d6f","system_id":"levelo_inurba_marseille","lat":43.304606,"lon":5.379026,"is_reserved":false,"is_disabled":false,"rental_uris":{"android":"levelo://app?vid=97dfa457-66fd-4f58-922d-44b7f6c53d6f","ios":"levelo://app?vid=97dfa457-66fd-4f58-922d-44b7f6c53d6f"},"vehicle_type_id":"4","last_reported":1704960607,"current_range_meters":20800,"station_id":"ce4bgup2rcd13ifvqcn0","pricing_plan_id":"free"},{"bike_id":"55d2a722-4e49-4a05-9178-3549f8ada1dc","system_id":"levelo_inurba_marseille","lat":43.304606,"lon":5.379026,"is_reserved":false,"is_disabled":false,"rental_uris":{"android":"levelo://app?vid=55d2a722-4e49-4a05-9178-3549f8ada1dc","ios":"levelo://app?vid=55d2a722-4e49-4a05-9178-3549f8ada1dc"},"vehicle_type_id":"4","last_reported":1704960607,"current_range_meters":12000,"station_id":"ce4bgup2rcd13ifvqcn0","pricing_plan_id":"free"},{"bike_id":"f9af1cff-dfbf-4c8d-a304-21db09a5c3eb","system_id":"levelo_inurba_marseille","lat":43.304606,"lon":5.379026,"is_reserved":false,"is_disabled":false,"rental_uris":{"android":"levelo://app?vid=f9af1cff-dfbf-4c8d-a304-21db09a5c3eb","ios":"levelo://app?vid=f9af1cff-dfbf-4c8d-a304-21db09a5c3eb"},"vehicle_type_id":"4","last_reported":1704960607,"current_range_meters":30000,"station_id":"ce4bgup2rcd13ifvqcn0","pricing_plan_id":"free"},{"bike_id":"5e2c9d6a-6f8a-49b5-bc98-a2690a4ce8d4","system_id":"levelo_inurba_marseille","lat":43.30284,"lon":5.37693,"is_reserved":false,"is_disabled":false,"rental_uris":{"android":"levelo://app?vid=5e2c9d6a-6f8a-49b5-bc98-a2690a4ce8d4","ios":"levelo://app?vid=5e2c9d6a-6f8a-49b5-bc98-a2690a4ce8d4"},"vehicle_type_id":"4","last_reported":1704960607,"current_range_meters":30400,"station_id":"","pricing_plan_id":"free"},{"bike_id":"00e3bdca-d528-41a5-a675-0e304c1e98df","system_id":"levelo_inurba_marseille","lat":43.30282,"lon":5.37694,"is_reserved":false,"is_disabled":false,"rental_uris":{"android":"levelo://app?vid=00e3bdca-d528-41a5-a675-0e304c1e98df","ios":"levelo://app?vid=00e3bdca-d528-41a5-a675-0e304c1e98df"},"vehicle_type_id":"4","last_reported":1704960607,"current_range_meters":19200,"station_id":"","pricing_plan_id":"free"},{"bike_id":"40f5bbf9-2b0d-40fc-ae8d-10ef39c5202d","system_id":"levelo_inurba_marseille","lat":43.30283,"lon":5.377,"is_reserved":false,"is_disabled":false,"rental_uris":{"android":"levelo://app?vid=40f5bbf9-2b0d-40fc-ae8d-10ef39c5202d","ios":"levelo://app?vid=40f5bbf9-2b0d-40fc-ae8d-10ef39c5202d"},"vehicle_type_id":"4","last_reported":1704960607,"current_range_meters":26000,"station_id":"","pricing_plan_id":"free"},{"bike_id":"5a5b963d-2f46-43c5-bd32-725ae18a0845","system_id":"levelo_inurba_marseille","lat":43.30278,"lon":5.37706,"is_reserved":false,"is_disabled":false,"rental_uris":{"android":"levelo://app?vid=5a5b963d-2f46-43c5-bd32-725ae18a0845","ios":"levelo://app?vid=5a5b963d-2f46-43c5-bd32-725ae18a0845"},"vehicle_type_id":"4","last_reported":1704960607,"current_range_meters":17200,"station_id":"","pricing_plan_id":"free"},{"bike_id":"1ccb12aa-fdb0-42a1-9d33-ed9f8e087304","system_id":"levelo_inurba_marseille","lat":43.30277,"lon":5.37705,"is_reserved":false,"is_disabled":false,"rental_uris":{"android":"levelo://app?vid=1ccb12aa-fdb0-42a1-9d33-ed9f8e087304","ios":"levelo://app?vid=1ccb12aa-fdb0-42a1-9d33-ed9f8e087304"},"vehicle_type_id":"4","last_reported":1704960607,"current_range_meters":10000,"station_id":"","pricing_plan_id":"free"},{"bike_id":"9c33977d-5347-40f4-99de-d76782e12f27","system_id":"levelo_inurba_marseille","lat":43.301429,"lon":5.37413,"is_reserved":false,"is_disabled":false,"rental_uris":{"android":"levelo://app?vid=9c33977d-5347-40f4-99de-d76782e12f27","ios":"levelo://app?vid=9c33977d-5347-40f4-99de-d76782e12f27"},"vehicle_type_id":"4","last_reported":1704960607,"current_range_meters":6800,"station_id":"ce4bgs92rcd13ifvqcc0","pricing_plan_id":"free"},{"bike_id":"dbb23607-5523-4f3d-bfc4-54ab513f673d","system_id":"levelo_inurba_marseille","lat":43.301429,"lon":5.37413,"is_reserved":false,"is_disabled":false,"rental_uris":{"android":"levelo://app?vid=dbb23607-5523-4f3d-bfc4-54ab513f673d","ios":"levelo://app?vid=dbb23607-5523-4f3d-bfc4-54ab513f673d"},"vehicle_type_id":"4","last_reported":1704960607,"current_range_meters":29200,"station_id":"ce4bgs92rcd13ifvqcc0","pricing_plan_id":"free"},{"bike_id":"cacbee14-133d-4840-b82a-c5a584f57ddf","system_id":"levelo_inurba_marseille","lat":43.30138,"lon":5.37408,"is_reserved":false,"is_disabled":false,"rental_uris":{"android":"levelo://app?vid=cacbee14-133d-4840-b82a-c5a584f57ddf","ios":"levelo://app?vid=cacbee14-133d-4840-b82a-c5a584f57ddf"},"vehicle_type_id":"4","last_reported":1704960607,"current_range_meters":26000,"station_id":"ce4bgs92rcd13ifvqcc0","pricing_plan_id":"free"},{"bike_id":"0e120b6a-4e49-47f1-a2f9-d23738d981f2","system_id":"levelo_inurba_marseille","lat":43.30143,"lon":5.37413,"is_reserved":false,"is_disabled":false,"rental_uris":{"android":"levelo://app?vid=0e120b6a-4e49-47f1-a2f9-d23738d981f2","ios":"levelo://app?vid=0e120b6a-4e49-47f1-a2f9-d23738d981f2"},"vehicle_type_id":"4","last_reported":1704960607,"current_range_meters":30400,"station_id":"ce4bgs92rcd13ifvqcc0","pricing_plan_id":"free"},{"bike_id":"f8610476-36bf-463a-848b-e94b63a4af72","system_id":"levelo_inurba_marseille","lat":43.31996,"lon":5.38148,"is_reserved":false,"is_disabled":false,"rental_uris":{"android":"levelo://app?vid=f8610476-36bf-463a-848b-e94b63a4af72","ios":"levelo://app?vid=f8610476-36bf-463a-848b-e94b63a4af72"},"vehicle_type_id":"4","last_reported":1704960607,"current_range_meters":18000,"station_id":"ce4bhr12rcd13ifvqhpg","pricing_plan_id":"free"},{"bike_id":"b24f0a36-b91e-4f52-8af2-32d161cba8cf","system_id":"levelo_inurba_marseille","lat":43.313546,"lon":5.385132,"is_reserved":false,"is_disabled":false,"rental_uris":{"android":"levelo://app?vid=b24f0a36-b91e-4f52-8af2-32d161cba8cf","ios":"levelo://app?vid=b24f0a36-b91e-4f52-8af2-32d161cba8cf"},"vehicle_type_id":"4","last_reported":1704960607,"current_range_meters":31200,"station_id":"","pricing_plan_id":"free"},{"bike_id":"4a8641e5-848c-4e0e-b4c0-9576a07d4f86","system_id":"levelo_inurba_marseille","lat":43.299442,"lon":5.365721,"is_reserved":false,"is_disabled":false,"rental_uris":{"android":"levelo://app?vid=4a8641e5-848c-4e0e-b4c0-9576a07d4f86","ios":"levelo://app?vid=4a8641e5-848c-4e0e-b4c0-9576a07d4f86"},"vehicle_type_id":"4","last_reported":1704960607,"current_range_meters":19200,"station_id":"","pricing_plan_id":"free"},{"bike_id":"52f4f599-7135-4aa6-baeb-5c2079ccb4c5","system_id":"levelo_inurba_marseille","lat":43.299209,"lon":5.365547,"is_reserved":false,"is_disabled":false,"rental_uris":{"android":"levelo://app?vid=52f4f599-7135-4aa6-baeb-5c2079ccb4c5","ios":"levelo://app?vid=52f4f599-7135-4aa6-baeb-5c2079ccb4c5"},"vehicle_type_id":"4","last_reported":1704960607,"current_range_meters":30400,"station_id":"ce4bgm92rcd13ifvqbr0","pricing_plan_id":"free"},{"bike_id":"5e3ae350-92fc-4f1a-91e5-fca6c6157e9c","system_id":"levelo_inurba_marseille","lat":43.314305,"lon":5.385497,"is_reserved":false,"is_disabled":false,"rental_uris":{"android":"levelo://app?vid=5e3ae350-92fc-4f1a-91e5-fca6c6157e9c","ios":"levelo://app?vid=5e3ae350-92fc-4f1a-91e5-fca6c6157e9c"},"vehicle_type_id":"4","last_reported":1704960607,"current_range_meters":5600,"station_id":"","pricing_plan_id":"free"},{"bike_id":"ec4a1ccd-83a8-4651-aacc-fb581fb50f6c","system_id":"levelo_inurba_marseille","lat":43.299243,"lon":5.374807,"is_reserved":false,"is_disabled":false,"rental_uris":{"android":"levelo://app?vid=ec4a1ccd-83a8-4651-aacc-fb581fb50f6c","ios":"levelo://app?vid=ec4a1ccd-83a8-4651-aacc-fb581fb50f6c"},"vehicle_type_id":"4","last_reported":1704960607,"current_range_meters":29600,"station_id":"ce4bgjh2rcd13ifvqbg0","pricing_plan_id":"free"},{"bike_id":"aaf48a55-b782-43c8-be19-bf65593feb19","system_id":"levelo_inurba_marseille","lat":43.298433,"lon":5.362774,"is_reserved":false,"is_disabled":false,"rental_uris":{"android":"levelo://app?vid=aaf48a55-b782-43c8-be19-bf65593feb19","ios":"levelo://app?vid=aaf48a55-b782-43c8-be19-bf65593feb19"},"vehicle_type_id":"4","last_reported":1704960607,"current_range_meters":29200,"station_id":"ce4bgpp2rcd13ifvqc3g","pricing_plan_id":"free"},{"bike_id":"4df9cbc5-161c-4fb3-8353-509806e62648","system_id":"levelo_inurba_marseille","lat":43.311722,"lon":5.387247,"is_reserved":false,"is_disabled":false,"rental_uris":{"android":"levelo://app?vid=4df9cbc5-161c-4fb3-8353-509806e62648","ios":"levelo://app?vid=4df9cbc5-161c-4fb3-8353-509806e62648"},"vehicle_type_id":"4","last_reported":1704960607,"current_range_meters":16800,"station_id":"ce4bgv12rcd13ifvqcp0","pricing_plan_id":"free"},{"bike_id":"1ec81e1e-62ac-49f7-ac43-3da20e8496bf","system_id":"levelo_inurba_marseille","lat":43.299243,"lon":5.37481,"is_reserved":false,"is_disabled":false,"rental_uris":{"android":"levelo://app?vid=1ec81e1e-62ac-49f7-ac43-3da20e8496bf","ios":"levelo://app?vid=1ec81e1e-62ac-49f7-ac43-3da20e8496bf"},"vehicle_type_id":"4","last_reported":1704960607,"current_range_meters":30400,"station_id":"ce4bgjh2rcd13ifvqbg0","pricing_plan_id":"free"},{"bike_id":"6769d7a3-7e62-4d63-8e2f-f4ef1cb05d80","system_id":"levelo_inurba_marseille","lat":43.311722,"lon":5.387247,"is_reserved":false,"is_disabled":false,"rental_uris":{"android":"levelo://app?vid=6769d7a3-7e62-4d63-8e2f-f4ef1cb05d80","ios":"levelo://app?vid=6769d7a3-7e62-4d63-8e2f-f4ef1cb05d80"},"vehicle_type_id":"4","last_reported":1704960607,"current_range_meters":8800,"station_id":"ce4bgv12rcd13ifvqcp0","pricing_plan_id":"free"},{"bike_id":"922299ab-9f82-4bdd-bfb6-49e03cda1d43","system_id":"levelo_inurba_marseille","lat":43.311722,"lon":5.387247,"is_reserved":false,"is_disabled":false,"rental_uris":{"android":"levelo://app?vid=922299ab-9f82-4bdd-bfb6-49e03cda1d43","ios":"levelo://app?vid=922299ab-9f82-4bdd-bfb6-49e03cda1d43"},"vehicle_type_id":"4","last_reported":1704960607,"current_range_meters":15200,"station_id":"ce4bgv12rcd13ifvqcp0","pricing_plan_id":"free"},{"bike_id":"ef0c794b-15f2-4514-92c1-7fbcde7bcb7e","system_id":"levelo_inurba_marseille","lat":43.297794,"lon":5.370888,"is_reserved":false,"is_disabled":false,"rental_uris":{"android":"levelo://app?vid=ef0c794b-15f2-4514-92c1-7fbcde7bcb7e","ios":"levelo://app?vid=ef0c794b-15f2-4514-92c1-7fbcde7bcb7e"},"vehicle_type_id":"4","last_reported":1704960607,"current_range_meters":0,"station_id":"ce4bgop2rcd13ifvqc1g","pricing_plan_id":"free"},{"bike_id":"0e81efb4-9856-4aab-b3bf-d2a92af09ebb","system_id":"levelo_inurba_marseille","lat":43.297794,"lon":5.370888,"is_reserved":false,"is_disabled":false,"rental_uris":{"android":"levelo://app?vid=0e81efb4-9856-4aab-b3bf-d2a92af09ebb","ios":"levelo://app?vid=0e81efb4-9856-4aab-b3bf-d2a92af09ebb"},"vehicle_type_id":"4","last_reported":1704960607,"current_range_meters":28800,"station_id":"ce4bgop2rcd13ifvqc1g","pricing_plan_id":"free"},{"bike_id":"c0c847ea-83f0-4e06-9678-e7646050a3c7","system_id":"levelo_inurba_marseille","lat":43.322872,"lon":5.382756,"is_reserved":false,"is_disabled":false,"rental_uris":{"android":"levelo://app?vid=c0c847ea-83f0-4e06-9678-e7646050a3c7","ios":"levelo://app?vid=c0c847ea-83f0-4e06-9678-e7646050a3c7"},"vehicle_type_id":"4","last_reported":1704960607,"current_range_meters":14000,"station_id":"ce4bhr12rcd13ifvqhqg","pricing_plan_id":"free"},{"bike_id":"7da8fe3c-1a0b-4128-9586-dc532e83f94f","system_id":"levelo_inurba_marseille","lat":43.297794,"lon":5.370888,"is_reserved":false,"is_disabled":false,"rental_uris":{"android":"levelo://app?vid=7da8fe3c-1a0b-4128-9586-dc532e83f94f","ios":"levelo://app?vid=7da8fe3c-1a0b-4128-9586-dc532e83f94f"},"vehicle_type_id":"4","last_reported":1704960607,"current_range_meters":10000,"station_id":"ce4bgop2rcd13ifvqc1g","pricing_plan_id":"free"},{"bike_id":"66addf4b-70b7-4ac4-8e17-37956e9ecfbb","system_id":"levelo_inurba_marseille","lat":43.32825,"lon":5.36674,"is_reserved":false,"is_disabled":false,"rental_uris":{"android":"levelo://app?vid=66addf4b-70b7-4ac4-8e17-37956e9ecfbb","ios":"levelo://app?vid=66addf4b-70b7-4ac4-8e17-37956e9ecfbb"},"vehicle_type_id":"4","last_reported":1704960607,"current_range_meters":21600,"station_id":"ce4bhs92rcd13ifvqi0g","pricing_plan_id":"free"},{"bike_id":"d68ce626-ef98-4d52-b3b3-f34d703a806b","system_id":"levelo_inurba_marseille","lat":43.328259,"lon":5.366969,"is_reserved":false,"is_disabled":false,"rental_uris":{"android":"levelo://app?vid=d68ce626-ef98-4d52-b3b3-f34d703a806b","ios":"levelo://app?vid=d68ce626-ef98-4d52-b3b3-f34d703a806b"},"vehicle_type_id":"4","last_reported":1704960607,"current_range_meters":22000,"station_id":"ce4bhs92rcd13ifvqi0g","pricing_plan_id":"free"},{"bike_id":"a70069dc-f773-452d-9d3a-320d0014d11e","system_id":"levelo_inurba_marseille","lat":43.328294,"lon":5.366759,"is_reserved":false,"is_disabled":false,"rental_uris":{"android":"levelo://app?vid=a70069dc-f773-452d-9d3a-320d0014d11e","ios":"levelo://app?vid=a70069dc-f773-452d-9d3a-320d0014d11e"},"vehicle_type_id":"4","last_reported":1704960607,"current_range_meters":14800,"station_id":"ce4bhs92rcd13ifvqi0g","pricing_plan_id":"free"},{"bike_id":"fb45f142-a2e6-4b54-b6fd-5660ca2c1fe5","system_id":"levelo_inurba_marseille","lat":43.328295,"lon":5.366736,"is_reserved":false,"is_disabled":false,"rental_uris":{"android":"levelo://app?vid=fb45f142-a2e6-4b54-b6fd-5660ca2c1fe5","ios":"levelo://app?vid=fb45f142-a2e6-4b54-b6fd-5660ca2c1fe5"},"vehicle_type_id":"4","last_reported":1704960607,"current_range_meters":19200,"station_id":"ce4bhs92rcd13ifvqi0g","pricing_plan_id":"free"},{"bike_id":"331410e4-8362-40e5-8b58-6a53f46a25bd","system_id":"levelo_inurba_marseille","lat":43.328299,"lon":5.366797,"is_reserved":false,"is_disabled":false,"rental_uris":{"android":"levelo://app?vid=331410e4-8362-40e5-8b58-6a53f46a25bd","ios":"levelo://app?vid=331410e4-8362-40e5-8b58-6a53f46a25bd"},"vehicle_type_id":"4","last_reported":1704960607,"current_range_meters":28800,"station_id":"ce4bhs92rcd13ifvqi0g","pricing_plan_id":"free"},{"bike_id":"7b9958fe-cb69-4b86-8077-c6eefd22d5f1","system_id":"levelo_inurba_marseille","lat":43.3283,"lon":5.36676,"is_reserved":false,"is_disabled":false,"rental_uris":{"android":"levelo://app?vid=7b9958fe-cb69-4b86-8077-c6eefd22d5f1","ios":"levelo://app?vid=7b9958fe-cb69-4b86-8077-c6eefd22d5f1"},"vehicle_type_id":"4","last_reported":1704960607,"current_range_meters":27200,"station_id":"ce4bhs92rcd13ifvqi0g","pricing_plan_id":"free"},{"bike_id":"1f1a5220-6426-49f4-89de-c9c79ed6428d","system_id":"levelo_inurba_marseille","lat":43.328313,"lon":5.36684,"is_reserved":false,"is_disabled":false,"rental_uris":{"android":"levelo://app?vid=1f1a5220-6426-49f4-89de-c9c79ed6428d","ios":"levelo://app?vid=1f1a5220-6426-49f4-89de-c9c79ed6428d"},"vehicle_type_id":"4","last_reported":1704960607,"current_range_meters":28000,"station_id":"ce4bhs92rcd13ifvqi0g","pricing_plan_id":"free"},{"bike_id":"e1e3a1c2-ded9-4b32-80b4-852bd4467a76","system_id":"levelo_inurba_marseille","lat":43.32832,"lon":5.36685,"is_reserved":false,"is_disabled":false,"rental_uris":{"android":"levelo://app?vid=e1e3a1c2-ded9-4b32-80b4-852bd4467a76","ios":"levelo://app?vid=e1e3a1c2-ded9-4b32-80b4-852bd4467a76"},"vehicle_type_id":"4","last_reported":1704960607,"current_range_meters":18000,"station_id":"ce4bhs92rcd13ifvqi0g","pricing_plan_id":"free"},{"bike_id":"b417e045-2acd-45ab-8543-5d87cc32d878","system_id":"levelo_inurba_marseille","lat":43.328321,"lon":5.366836,"is_reserved":false,"is_disabled":false,"rental_uris":{"android":"levelo://app?vid=b417e045-2acd-45ab-8543-5d87cc32d878","ios":"levelo://app?vid=b417e045-2acd-45ab-8543-5d87cc32d878"},"vehicle_type_id":"4","last_reported":1704960607,"current_range_meters":26000,"station_id":"ce4bhs92rcd13ifvqi0g","pricing_plan_id":"free"},{"bike_id":"d5f29070-6449-49ad-9492-09212d675041","system_id":"levelo_inurba_marseille","lat":43.32833,"lon":5.36679,"is_reserved":false,"is_disabled":false,"rental_uris":{"android":"levelo://app?vid=d5f29070-6449-49ad-9492-09212d675041","ios":"levelo://app?vid=d5f29070-6449-49ad-9492-09212d675041"},"vehicle_type_id":"4","last_reported":1704960607,"current_range_meters":25600,"station_id":"ce4bhs92rcd13ifvqi0g","pricing_plan_id":"free"},{"bike_id":"468fb52e-8015-4911-9ee7-fb97a172526a","system_id":"levelo_inurba_marseille","lat":43.32835,"lon":5.36673,"is_reserved":false,"is_disabled":false,"rental_uris":{"android":"levelo://app?vid=468fb52e-8015-4911-9ee7-fb97a172526a","ios":"levelo://app?vid=468fb52e-8015-4911-9ee7-fb97a172526a"},"vehicle_type_id":"4","last_reported":1704960607,"current_range_meters":0,"station_id":"ce4bhs92rcd13ifvqi0g","pricing_plan_id":"free"},{"bike_id":"9051e57c-6fa5-4ca0-b770-167b99757d01","system_id":"levelo_inurba_marseille","lat":43.29682,"lon":5.37292,"is_reserved":false,"is_disabled":false,"rental_uris":{"android":"levelo://app?vid=9051e57c-6fa5-4ca0-b770-167b99757d01","ios":"levelo://app?vid=9051e57c-6fa5-4ca0-b770-167b99757d01"},"vehicle_type_id":"4","last_reported":1704960607,"current_range_meters":25200,"station_id":"ce4bgk12rcd13ifvqbj0","pricing_plan_id":"free"},{"bike_id":"0e21c0e1-cd91-41f5-a668-23429ce9066e","system_id":"levelo_inurba_marseille","lat":43.296801,"lon":5.372822,"is_reserved":false,"is_disabled":false,"rental_uris":{"android":"levelo://app?vid=0e21c0e1-cd91-41f5-a668-23429ce9066e","ios":"levelo://app?vid=0e21c0e1-cd91-41f5-a668-23429ce9066e"},"vehicle_type_id":"4","last_reported":1704960607,"current_range_meters":8400,"station_id":"","pricing_plan_id":"free"},{"bike_id":"63fcb21e-c98b-485f-87d0-a5a4f09790ba","system_id":"levelo_inurba_marseille","lat":43.303491,"lon":5.385968,"is_reserved":false,"is_disabled":false,"rental_uris":{"android":"levelo://app?vid=63fcb21e-c98b-485f-87d0-a5a4f09790ba","ios":"levelo://app?vid=63fcb21e-c98b-485f-87d0-a5a4f09790ba"},"vehicle_type_id":"4","last_reported":1704960607,"current_range_meters":14800,"station_id":"","pricing_plan_id":"free"},{"bike_id":"129d6579-468f-4554-8ae7-be58994b9269","system_id":"levelo_inurba_marseille","lat":43.296211,"lon":5.371499,"is_reserved":false,"is_disabled":false,"rental_uris":{"android":"levelo://app?vid=129d6579-468f-4554-8ae7-be58994b9269","ios":"levelo://app?vid=129d6579-468f-4554-8ae7-be58994b9269"},"vehicle_type_id":"4","last_reported":1704960607,"current_range_meters":19200,"station_id":"ce4bgnh2rcd13ifvqc0g","pricing_plan_id":"free"},{"bike_id":"adb011d1-d3e3-46c5-b1ec-5b5a9768b382","system_id":"levelo_inurba_marseille","lat":43.29619,"lon":5.37151,"is_reserved":false,"is_disabled":false,"rental_uris":{"android":"levelo://app?vid=adb011d1-d3e3-46c5-b1ec-5b5a9768b382","ios":"levelo://app?vid=adb011d1-d3e3-46c5-b1ec-5b5a9768b382"},"vehicle_type_id":"4","last_reported":1704960607,"current_range_meters":29200,"station_id":"ce4bgnh2rcd13ifvqc0g","pricing_plan_id":"free"},{"bike_id":"6263a569-7bb6-4abd-b773-2c6931a81b5f","system_id":"levelo_inurba_marseille","lat":43.29573,"lon":5.367355,"is_reserved":false,"is_disabled":false,"rental_uris":{"android":"levelo://app?vid=6263a569-7bb6-4abd-b773-2c6931a81b5f","ios":"levelo://app?vid=6263a569-7bb6-4abd-b773-2c6931a81b5f"},"vehicle_type_id":"4","last_reported":1704960607,"current_range_meters":11600,"station_id":"ce4bgph2rcd13ifvqc2g","pricing_plan_id":"free"},{"bike_id":"4ad2333a-fd13-4851-9a7d-bb183f3800b3","system_id":"levelo_inurba_marseille","lat":43.296131,"lon":5.370773,"is_reserved":false,"is_disabled":false,"rental_uris":{"android":"levelo://app?vid=4ad2333a-fd13-4851-9a7d-bb183f3800b3","ios":"levelo://app?vid=4ad2333a-fd13-4851-9a7d-bb183f3800b3"},"vehicle_type_id":"4","last_reported":1704960607,"current_range_meters":16800,"station_id":"ce4bgnh2rcd13ifvqc0g","pricing_plan_id":"free"},{"bike_id":"f7b436a8-86a6-4907-b5de-58f6accf51cf","system_id":"levelo_inurba_marseille","lat":43.296129,"lon":5.370777,"is_reserved":false,"is_disabled":false,"rental_uris":{"android":"levelo://app?vid=f7b436a8-86a6-4907-b5de-58f6accf51cf","ios":"levelo://app?vid=f7b436a8-86a6-4907-b5de-58f6accf51cf"},"vehicle_type_id":"4","last_reported":1704960607,"current_range_meters":19600,"station_id":"ce4bgnh2rcd13ifvqc0g","pricing_plan_id":"free"},{"bike_id":"84770a5e-ac7e-4637-a2b0-64e5b0ae1a65","system_id":"levelo_inurba_marseille","lat":43.29573,"lon":5.367355,"is_reserved":false,"is_disabled":false,"rental_uris":{"android":"levelo://app?vid=84770a5e-ac7e-4637-a2b0-64e5b0ae1a65","ios":"levelo://app?vid=84770a5e-ac7e-4637-a2b0-64e5b0ae1a65"},"vehicle_type_id":"4","last_reported":1704960607,"current_range_meters":31200,"station_id":"ce4bgph2rcd13ifvqc2g","pricing_plan_id":"free"},{"bike_id":"616f464b-8a2d-4a3b-9044-eb674f0fcd1d","system_id":"levelo_inurba_marseille","lat":43.29573,"lon":5.367355,"is_reserved":false,"is_disabled":false,"rental_uris":{"android":"levelo://app?vid=616f464b-8a2d-4a3b-9044-eb674f0fcd1d","ios":"levelo://app?vid=616f464b-8a2d-4a3b-9044-eb674f0fcd1d"},"vehicle_type_id":"4","last_reported":1704960607,"current_range_meters":29600,"station_id":"ce4bgph2rcd13ifvqc2g","pricing_plan_id":"free"},{"bike_id":"f03e1886-cd6d-4eb3-a056-12bf96c1b527","system_id":"levelo_inurba_marseille","lat":43.29573,"lon":5.367355,"is_reserved":false,"is_disabled":false,"rental_uris":{"android":"levelo://app?vid=f03e1886-cd6d-4eb3-a056-12bf96c1b527","ios":"levelo://app?vid=f03e1886-cd6d-4eb3-a056-12bf96c1b527"},"vehicle_type_id":"4","last_reported":1704960607,"current_range_meters":30800,"station_id":"ce4bgph2rcd13ifvqc2g","pricing_plan_id":"free"},{"bike_id":"57825c4d-cd79-43a7-8e77-0e42b4be9fc8","system_id":"levelo_inurba_marseille","lat":43.29573,"lon":5.367355,"is_reserved":false,"is_disabled":false,"rental_uris":{"android":"levelo://app?vid=57825c4d-cd79-43a7-8e77-0e42b4be9fc8","ios":"levelo://app?vid=57825c4d-cd79-43a7-8e77-0e42b4be9fc8"},"vehicle_type_id":"4","last_reported":1704960607,"current_range_meters":24000,"station_id":"ce4bgph2rcd13ifvqc2g","pricing_plan_id":"free"},{"bike_id":"3ce1535c-2795-4d09-8f75-59d166d3af2d","system_id":"levelo_inurba_marseille","lat":43.299028,"lon":5.381509,"is_reserved":false,"is_disabled":false,"rental_uris":{"android":"levelo://app?vid=3ce1535c-2795-4d09-8f75-59d166d3af2d","ios":"levelo://app?vid=3ce1535c-2795-4d09-8f75-59d166d3af2d"},"vehicle_type_id":"4","last_reported":1704960607,"current_range_meters":30400,"station_id":"ce4bgj12rcd13ifvqbc0","pricing_plan_id":"free"},{"bike_id":"64dc5984-daf9-4e36-a598-fbfbee269ee9","system_id":"levelo_inurba_marseille","lat":43.309589,"lon":5.390258,"is_reserved":false,"is_disabled":false,"rental_uris":{"android":"levelo://app?vid=64dc5984-daf9-4e36-a598-fbfbee269ee9","ios":"levelo://app?vid=64dc5984-daf9-4e36-a598-fbfbee269ee9"},"vehicle_type_id":"4","last_reported":1704960607,"current_range_meters":11600,"station_id":"ce4bgup2rcd13ifvqco0","pricing_plan_id":"free"},{"bike_id":"d27df698-256b-4946-9b41-ad346a72fe1d","system_id":"levelo_inurba_marseille","lat":43.299028,"lon":5.381509,"is_reserved":false,"is_disabled":false,"rental_uris":{"android":"levelo://app?vid=d27df698-256b-4946-9b41-ad346a72fe1d","ios":"levelo://app?vid=d27df698-256b-4946-9b41-ad346a72fe1d"},"vehicle_type_id":"4","last_reported":1704960607,"current_range_meters":4000,"station_id":"ce4bgj12rcd13ifvqbc0","pricing_plan_id":"free"},{"bike_id":"e86c1f82-f38d-4753-a7c4-c146b6ad7b94","system_id":"levelo_inurba_marseille","lat":43.309589,"lon":5.390258,"is_reserved":false,"is_disabled":false,"rental_uris":{"android":"levelo://app?vid=e86c1f82-f38d-4753-a7c4-c146b6ad7b94","ios":"levelo://app?vid=e86c1f82-f38d-4753-a7c4-c146b6ad7b94"},"vehicle_type_id":"4","last_reported":1704960607,"current_range_meters":11200,"station_id":"ce4bgup2rcd13ifvqco0","pricing_plan_id":"free"},{"bike_id":"e83d7394-072c-4227-9b86-8c86b1905ece","system_id":"levelo_inurba_marseille","lat":43.309589,"lon":5.390258,"is_reserved":false,"is_disabled":false,"rental_uris":{"android":"levelo://app?vid=e83d7394-072c-4227-9b86-8c86b1905ece","ios":"levelo://app?vid=e83d7394-072c-4227-9b86-8c86b1905ece"},"vehicle_type_id":"4","last_reported":1704960607,"current_range_meters":16400,"station_id":"ce4bgup2rcd13ifvqco0","pricing_plan_id":"free"},{"bike_id":"036c0b45-c635-4300-8d30-209c5136829b","system_id":"levelo_inurba_marseille","lat":43.317557,"lon":5.390173,"is_reserved":false,"is_disabled":false,"rental_uris":{"android":"levelo://app?vid=036c0b45-c635-4300-8d30-209c5136829b","ios":"levelo://app?vid=036c0b45-c635-4300-8d30-209c5136829b"},"vehicle_type_id":"4","last_reported":1704960607,"current_range_meters":31200,"station_id":"ce4bhqp2rcd13ifvqhng","pricing_plan_id":"free"},{"bike_id":"b9b49e54-5ddd-41c9-b5db-34eb850d88dc","system_id":"levelo_inurba_marseille","lat":43.317557,"lon":5.390173,"is_reserved":false,"is_disabled":false,"rental_uris":{"android":"levelo://app?vid=b9b49e54-5ddd-41c9-b5db-34eb850d88dc","ios":"levelo://app?vid=b9b49e54-5ddd-41c9-b5db-34eb850d88dc"},"vehicle_type_id":"4","last_reported":1704960607,"current_range_meters":16400,"station_id":"ce4bhqp2rcd13ifvqhng","pricing_plan_id":"free"},{"bike_id":"dd1dd24b-bb8b-4334-88cf-892c2e622f67","system_id":"levelo_inurba_marseille","lat":43.317557,"lon":5.390173,"is_reserved":false,"is_disabled":false,"rental_uris":{"android":"levelo://app?vid=dd1dd24b-bb8b-4334-88cf-892c2e622f67","ios":"levelo://app?vid=dd1dd24b-bb8b-4334-88cf-892c2e622f67"},"vehicle_type_id":"4","last_reported":1704960607,"current_range_meters":6400,"station_id":"ce4bhqp2rcd13ifvqhng","pricing_plan_id":"free"},{"bike_id":"56c0e1b0-011a-4ba4-b6d0-a126b1585ce5","system_id":"levelo_inurba_marseille","lat":43.317557,"lon":5.390173,"is_reserved":false,"is_disabled":false,"rental_uris":{"android":"levelo://app?vid=56c0e1b0-011a-4ba4-b6d0-a126b1585ce5","ios":"levelo://app?vid=56c0e1b0-011a-4ba4-b6d0-a126b1585ce5"},"vehicle_type_id":"4","last_reported":1704960607,"current_range_meters":29200,"station_id":"ce4bhqp2rcd13ifvqhng","pricing_plan_id":"free"},{"bike_id":"e5fe3264-2519-4d05-acee-04964fbbcb57","system_id":"levelo_inurba_marseille","lat":43.317557,"lon":5.390173,"is_reserved":false,"is_disabled":false,"rental_uris":{"android":"levelo://app?vid=e5fe3264-2519-4d05-acee-04964fbbcb57","ios":"levelo://app?vid=e5fe3264-2519-4d05-acee-04964fbbcb57"},"vehicle_type_id":"4","last_reported":1704960607,"current_range_meters":15600,"station_id":"ce4bhqp2rcd13ifvqhng","pricing_plan_id":"free"},{"bike_id":"9fd87994-3557-461f-abe2-124fa5742405","system_id":"levelo_inurba_marseille","lat":43.298037,"lon":5.381066,"is_reserved":false,"is_disabled":false,"rental_uris":{"android":"levelo://app?vid=9fd87994-3557-461f-abe2-124fa5742405","ios":"levelo://app?vid=9fd87994-3557-461f-abe2-124fa5742405"},"vehicle_type_id":"4","last_reported":1704960607,"current_range_meters":12800,"station_id":"ce4bgip2rcd13ifvqbb0","pricing_plan_id":"free"},{"bike_id":"71730a63-6276-4bc0-a3b0-ec53d7f883d6","system_id":"levelo_inurba_marseille","lat":43.298037,"lon":5.381066,"is_reserved":false,"is_disabled":false,"rental_uris":{"android":"levelo://app?vid=71730a63-6276-4bc0-a3b0-ec53d7f883d6","ios":"levelo://app?vid=71730a63-6276-4bc0-a3b0-ec53d7f883d6"},"vehicle_type_id":"4","last_reported":1704960607,"current_range_meters":30400,"station_id":"ce4bgip2rcd13ifvqbb0","pricing_plan_id":"free"},{"bike_id":"3135b844-73f8-4633-81fc-89c4cac203c3","system_id":"levelo_inurba_marseille","lat":43.298037,"lon":5.381066,"is_reserved":false,"is_disabled":false,"rental_uris":{"android":"levelo://app?vid=3135b844-73f8-4633-81fc-89c4cac203c3","ios":"levelo://app?vid=3135b844-73f8-4633-81fc-89c4cac203c3"},"vehicle_type_id":"4","last_reported":1704960607,"current_range_meters":30800,"station_id":"ce4bgip2rcd13ifvqbb0","pricing_plan_id":"free"},{"bike_id":"11a476b2-850c-4662-a9f9-fa9a25a3096e","system_id":"levelo_inurba_marseille","lat":43.295746,"lon":5.374996,"is_reserved":false,"is_disabled":false,"rental_uris":{"android":"levelo://app?vid=11a476b2-850c-4662-a9f9-fa9a25a3096e","ios":"levelo://app?vid=11a476b2-850c-4662-a9f9-fa9a25a3096e"},"vehicle_type_id":"4","last_reported":1704960607,"current_range_meters":9200,"station_id":"ce4bgh92rcd13ifvqb50","pricing_plan_id":"free"},{"bike_id":"dcdd83f6-d21f-435e-9e4a-d2ac8f447e73","system_id":"levelo_inurba_marseille","lat":43.298037,"lon":5.381066,"is_reserved":false,"is_disabled":false,"rental_uris":{"android":"levelo://app?vid=dcdd83f6-d21f-435e-9e4a-d2ac8f447e73","ios":"levelo://app?vid=dcdd83f6-d21f-435e-9e4a-d2ac8f447e73"},"vehicle_type_id":"4","last_reported":1704960607,"current_range_meters":27600,"station_id":"ce4bgip2rcd13ifvqbb0","pricing_plan_id":"free"},{"bike_id":"5f629bc4-6cf0-497b-84ff-faa9949f9e16","system_id":"levelo_inurba_marseille","lat":43.298037,"lon":5.381066,"is_reserved":false,"is_disabled":false,"rental_uris":{"android":"levelo://app?vid=5f629bc4-6cf0-497b-84ff-faa9949f9e16","ios":"levelo://app?vid=5f629bc4-6cf0-497b-84ff-faa9949f9e16"},"vehicle_type_id":"4","last_reported":1704960607,"current_range_meters":16000,"station_id":"ce4bgip2rcd13ifvqbb0","pricing_plan_id":"free"},{"bike_id":"9f7eb50c-d4a4-4b86-988a-2f6137f1fda0","system_id":"levelo_inurba_marseille","lat":43.295748,"lon":5.37522,"is_reserved":false,"is_disabled":false,"rental_uris":{"android":"levelo://app?vid=9f7eb50c-d4a4-4b86-988a-2f6137f1fda0","ios":"levelo://app?vid=9f7eb50c-d4a4-4b86-988a-2f6137f1fda0"},"vehicle_type_id":"4","last_reported":1704960607,"current_range_meters":28400,"station_id":"ce4bgh92rcd13ifvqb50","pricing_plan_id":"free"},{"bike_id":"8ab46c23-9f8a-4ef9-b875-a1ee0583e374","system_id":"levelo_inurba_marseille","lat":43.304278,"lon":5.388868,"is_reserved":false,"is_disabled":false,"rental_uris":{"android":"levelo://app?vid=8ab46c23-9f8a-4ef9-b875-a1ee0583e374","ios":"levelo://app?vid=8ab46c23-9f8a-4ef9-b875-a1ee0583e374"},"vehicle_type_id":"4","last_reported":1704960607,"current_range_meters":28400,"station_id":"ce4bgk12rcd13ifvqbi0","pricing_plan_id":"free"},{"bike_id":"540e8c67-9e3f-44d2-9d67-86c3e0fc4814","system_id":"levelo_inurba_marseille","lat":43.296277,"lon":5.377108,"is_reserved":false,"is_disabled":false,"rental_uris":{"android":"levelo://app?vid=540e8c67-9e3f-44d2-9d67-86c3e0fc4814","ios":"levelo://app?vid=540e8c67-9e3f-44d2-9d67-86c3e0fc4814"},"vehicle_type_id":"4","last_reported":1704960607,"current_range_meters":28000,"station_id":"ce4bgi92rcd13ifvqb90","pricing_plan_id":"free"},{"bike_id":"71d36f12-e94a-46c1-9e42-9cde875226c8","system_id":"levelo_inurba_marseille","lat":43.299707,"lon":5.384859,"is_reserved":false,"is_disabled":false,"rental_uris":{"android":"levelo://app?vid=71d36f12-e94a-46c1-9e42-9cde875226c8","ios":"levelo://app?vid=71d36f12-e94a-46c1-9e42-9cde875226c8"},"vehicle_type_id":"4","last_reported":1704960607,"current_range_meters":16400,"station_id":"ce4bgj92rcd13ifvqbd0","pricing_plan_id":"free"},{"bike_id":"7d9f7f62-1cb1-471b-890d-dd11c4f5eddd","system_id":"levelo_inurba_marseille","lat":43.309589,"lon":5.390258,"is_reserved":false,"is_disabled":false,"rental_uris":{"android":"levelo://app?vid=7d9f7f62-1cb1-471b-890d-dd11c4f5eddd","ios":"levelo://app?vid=7d9f7f62-1cb1-471b-890d-dd11c4f5eddd"},"vehicle_type_id":"4","last_reported":1704960607,"current_range_meters":25200,"station_id":"ce4bgup2rcd13ifvqco0","pricing_plan_id":"free"},{"bike_id":"38fb15e2-97fd-4f68-ae2d-4c0fe510a864","system_id":"levelo_inurba_marseille","lat":43.32362,"lon":5.38882,"is_reserved":false,"is_disabled":false,"rental_uris":{"android":"levelo://app?vid=38fb15e2-97fd-4f68-ae2d-4c0fe510a864","ios":"levelo://app?vid=38fb15e2-97fd-4f68-ae2d-4c0fe510a864"},"vehicle_type_id":"4","last_reported":1704960607,"current_range_meters":24400,"station_id":"ce4bhqp2rcd13ifvqhog","pricing_plan_id":"free"},{"bike_id":"53bcccdd-f8f4-4713-a7f0-5bfceffa3b71","system_id":"levelo_inurba_marseille","lat":43.32362,"lon":5.38885,"is_reserved":false,"is_disabled":false,"rental_uris":{"android":"levelo://app?vid=53bcccdd-f8f4-4713-a7f0-5bfceffa3b71","ios":"levelo://app?vid=53bcccdd-f8f4-4713-a7f0-5bfceffa3b71"},"vehicle_type_id":"4","last_reported":1704960607,"current_range_meters":27600,"station_id":"ce4bhqp2rcd13ifvqhog","pricing_plan_id":"free"},{"bike_id":"ae74013b-ca92-46de-a444-0a4f51933a85","system_id":"levelo_inurba_marseille","lat":43.32361,"lon":5.38886,"is_reserved":false,"is_disabled":false,"rental_uris":{"android":"levelo://app?vid=ae74013b-ca92-46de-a444-0a4f51933a85","ios":"levelo://app?vid=ae74013b-ca92-46de-a444-0a4f51933a85"},"vehicle_type_id":"4","last_reported":1704960607,"current_range_meters":30400,"station_id":"ce4bhqp2rcd13ifvqhog","pricing_plan_id":"free"},{"bike_id":"1eec63a5-d851-4bb3-9e9e-79960d82514b","system_id":"levelo_inurba_marseille","lat":43.32367,"lon":5.388836,"is_reserved":false,"is_disabled":false,"rental_uris":{"android":"levelo://app?vid=1eec63a5-d851-4bb3-9e9e-79960d82514b","ios":"levelo://app?vid=1eec63a5-d851-4bb3-9e9e-79960d82514b"},"vehicle_type_id":"4","last_reported":1704960607,"current_range_meters":14000,"station_id":"ce4bhqp2rcd13ifvqhog","pricing_plan_id":"free"},{"bike_id":"be7361aa-80f1-438b-9ce8-d142d1e331c4","system_id":"levelo_inurba_marseille","lat":43.32367,"lon":5.388836,"is_reserved":false,"is_disabled":false,"rental_uris":{"android":"levelo://app?vid=be7361aa-80f1-438b-9ce8-d142d1e331c4","ios":"levelo://app?vid=be7361aa-80f1-438b-9ce8-d142d1e331c4"},"vehicle_type_id":"4","last_reported":1704960607,"current_range_meters":24000,"station_id":"ce4bhqp2rcd13ifvqhog","pricing_plan_id":"free"},{"bike_id":"2aee78f4-b56c-4089-9dfc-4161c81851f1","system_id":"levelo_inurba_marseille","lat":43.29602,"lon":5.381084,"is_reserved":false,"is_disabled":false,"rental_uris":{"android":"levelo://app?vid=2aee78f4-b56c-4089-9dfc-4161c81851f1","ios":"levelo://app?vid=2aee78f4-b56c-4089-9dfc-4161c81851f1"},"vehicle_type_id":"4","last_reported":1704960607,"current_range_meters":31200,"station_id":"ce4bgl12rcd13ifvqbo0","pricing_plan_id":"free"},{"bike_id":"e1e8dc1c-db55-45a9-8af0-e606d8bec3b0","system_id":"levelo_inurba_marseille","lat":43.29602,"lon":5.381084,"is_reserved":false,"is_disabled":false,"rental_uris":{"android":"levelo://app?vid=e1e8dc1c-db55-45a9-8af0-e606d8bec3b0","ios":"levelo://app?vid=e1e8dc1c-db55-45a9-8af0-e606d8bec3b0"},"vehicle_type_id":"4","last_reported":1704960607,"current_range_meters":22000,"station_id":"ce4bgl12rcd13ifvqbo0","pricing_plan_id":"free"},{"bike_id":"0f74b932-db37-4091-a572-17adfca71768","system_id":"levelo_inurba_marseille","lat":43.29302,"lon":5.37187,"is_reserved":false,"is_disabled":false,"rental_uris":{"android":"levelo://app?vid=0f74b932-db37-4091-a572-17adfca71768","ios":"levelo://app?vid=0f74b932-db37-4091-a572-17adfca71768"},"vehicle_type_id":"4","last_reported":1704960607,"current_range_meters":25600,"station_id":"ce4bgh92rcd13ifvqb40","pricing_plan_id":"free"},{"bike_id":"0f351fd3-626c-45b1-b096-f0af2fddc2fc","system_id":"levelo_inurba_marseille","lat":43.293009,"lon":5.374584,"is_reserved":false,"is_disabled":false,"rental_uris":{"android":"levelo://app?vid=0f351fd3-626c-45b1-b096-f0af2fddc2fc","ios":"levelo://app?vid=0f351fd3-626c-45b1-b096-f0af2fddc2fc"},"vehicle_type_id":"4","last_reported":1704960607,"current_range_meters":18400,"station_id":"ce4bgi12rcd13ifvqb70","pricing_plan_id":"free"},{"bike_id":"95b285b6-2e0f-47de-9318-ed468100608a","system_id":"levelo_inurba_marseille","lat":43.305994,"lon":5.393687,"is_reserved":false,"is_disabled":false,"rental_uris":{"android":"levelo://app?vid=95b285b6-2e0f-47de-9318-ed468100608a","ios":"levelo://app?vid=95b285b6-2e0f-47de-9318-ed468100608a"},"vehicle_type_id":"4","last_reported":1704960607,"current_range_meters":29200,"station_id":"ce4bh0p2rcd13ifvqd80","pricing_plan_id":"free"},{"bike_id":"98939c4b-2448-4f59-80fd-a411429495b6","system_id":"levelo_inurba_marseille","lat":43.305994,"lon":5.393687,"is_reserved":false,"is_disabled":false,"rental_uris":{"android":"levelo://app?vid=98939c4b-2448-4f59-80fd-a411429495b6","ios":"levelo://app?vid=98939c4b-2448-4f59-80fd-a411429495b6"},"vehicle_type_id":"4","last_reported":1704960607,"current_range_meters":31200,"station_id":"ce4bh0p2rcd13ifvqd80","pricing_plan_id":"free"},{"bike_id":"b22d780d-c046-4db1-94a4-988857d68d1e","system_id":"levelo_inurba_marseille","lat":43.293009,"lon":5.374584,"is_reserved":false,"is_disabled":false,"rental_uris":{"android":"levelo://app?vid=b22d780d-c046-4db1-94a4-988857d68d1e","ios":"levelo://app?vid=b22d780d-c046-4db1-94a4-988857d68d1e"},"vehicle_type_id":"4","last_reported":1704960607,"current_range_meters":23200,"station_id":"ce4bgi12rcd13ifvqb70","pricing_plan_id":"free"},{"bike_id":"2c9a485d-6606-45fd-b0b0-b65fd0abe01c","system_id":"levelo_inurba_marseille","lat":43.293009,"lon":5.374584,"is_reserved":false,"is_disabled":false,"rental_uris":{"android":"levelo://app?vid=2c9a485d-6606-45fd-b0b0-b65fd0abe01c","ios":"levelo://app?vid=2c9a485d-6606-45fd-b0b0-b65fd0abe01c"},"vehicle_type_id":"4","last_reported":1704960607,"current_range_meters":18000,"station_id":"ce4bgi12rcd13ifvqb70","pricing_plan_id":"free"},{"bike_id":"cd0c46c0-2257-4980-a62f-95ef784922cf","system_id":"levelo_inurba_marseille","lat":43.2936,"lon":5.37835,"is_reserved":false,"is_disabled":false,"rental_uris":{"android":"levelo://app?vid=cd0c46c0-2257-4980-a62f-95ef784922cf","ios":"levelo://app?vid=cd0c46c0-2257-4980-a62f-95ef784922cf"},"vehicle_type_id":"4","last_reported":1704960607,"current_range_meters":28000,"station_id":"ce4bgjh2rcd13ifvqbf0","pricing_plan_id":"free"},{"bike_id":"e5072ee3-095b-4d1f-a529-94d471849a57","system_id":"levelo_inurba_marseille","lat":43.2936,"lon":5.37835,"is_reserved":false,"is_disabled":false,"rental_uris":{"android":"levelo://app?vid=e5072ee3-095b-4d1f-a529-94d471849a57","ios":"levelo://app?vid=e5072ee3-095b-4d1f-a529-94d471849a57"},"vehicle_type_id":"4","last_reported":1704960607,"current_range_meters":25200,"station_id":"ce4bgjh2rcd13ifvqbf0","pricing_plan_id":"free"},{"bike_id":"e9b61769-6b37-4010-94e8-1a6a2addb801","system_id":"levelo_inurba_marseille","lat":43.2936,"lon":5.37835,"is_reserved":false,"is_disabled":false,"rental_uris":{"android":"levelo://app?vid=e9b61769-6b37-4010-94e8-1a6a2addb801","ios":"levelo://app?vid=e9b61769-6b37-4010-94e8-1a6a2addb801"},"vehicle_type_id":"4","last_reported":1704960607,"current_range_meters":25600,"station_id":"ce4bgjh2rcd13ifvqbf0","pricing_plan_id":"free"},{"bike_id":"bb255340-4f32-4882-ac98-d4b9d9aad332","system_id":"levelo_inurba_marseille","lat":43.292311,"lon":5.360731,"is_reserved":false,"is_disabled":false,"rental_uris":{"android":"levelo://app?vid=bb255340-4f32-4882-ac98-d4b9d9aad332","ios":"levelo://app?vid=bb255340-4f32-4882-ac98-d4b9d9aad332"},"vehicle_type_id":"4","last_reported":1704960607,"current_range_meters":6800,"station_id":"ce4bhbh2rcd13ifvqeqg","pricing_plan_id":"free"},{"bike_id":"bc743af2-e93f-4c54-9d8b-061388c2227e","system_id":"levelo_inurba_marseille","lat":43.292311,"lon":5.360731,"is_reserved":false,"is_disabled":false,"rental_uris":{"android":"levelo://app?vid=bc743af2-e93f-4c54-9d8b-061388c2227e","ios":"levelo://app?vid=bc743af2-e93f-4c54-9d8b-061388c2227e"},"vehicle_type_id":"4","last_reported":1704960607,"current_range_meters":19200,"station_id":"ce4bhbh2rcd13ifvqeqg","pricing_plan_id":"free"},{"bike_id":"2bde1982-06a7-4fdb-a3f7-86c395c3c90f","system_id":"levelo_inurba_marseille","lat":43.292311,"lon":5.360731,"is_reserved":false,"is_disabled":false,"rental_uris":{"android":"levelo://app?vid=2bde1982-06a7-4fdb-a3f7-86c395c3c90f","ios":"levelo://app?vid=2bde1982-06a7-4fdb-a3f7-86c395c3c90f"},"vehicle_type_id":"4","last_reported":1704960607,"current_range_meters":8000,"station_id":"ce4bhbh2rcd13ifvqeqg","pricing_plan_id":"free"},{"bike_id":"f9ec6d2e-ec51-4b69-9d0f-250eb2da4936","system_id":"levelo_inurba_marseille","lat":43.292311,"lon":5.360731,"is_reserved":false,"is_disabled":false,"rental_uris":{"android":"levelo://app?vid=f9ec6d2e-ec51-4b69-9d0f-250eb2da4936","ios":"levelo://app?vid=f9ec6d2e-ec51-4b69-9d0f-250eb2da4936"},"vehicle_type_id":"4","last_reported":1704960607,"current_range_meters":18800,"station_id":"ce4bhbh2rcd13ifvqeqg","pricing_plan_id":"free"},{"bike_id":"f0060b7e-61a0-4273-8fca-e18a057637ce","system_id":"levelo_inurba_marseille","lat":43.298704,"lon":5.389008,"is_reserved":false,"is_disabled":false,"rental_uris":{"android":"levelo://app?vid=f0060b7e-61a0-4273-8fca-e18a057637ce","ios":"levelo://app?vid=f0060b7e-61a0-4273-8fca-e18a057637ce"},"vehicle_type_id":"4","last_reported":1704960607,"current_range_meters":22800,"station_id":"","pricing_plan_id":"free"},{"bike_id":"281d1413-69fa-46e0-b68a-f11447c4f4cd","system_id":"levelo_inurba_marseille","lat":43.298689,"lon":5.389063,"is_reserved":false,"is_disabled":false,"rental_uris":{"android":"levelo://app?vid=281d1413-69fa-46e0-b68a-f11447c4f4cd","ios":"levelo://app?vid=281d1413-69fa-46e0-b68a-f11447c4f4cd"},"vehicle_type_id":"4","last_reported":1704960607,"current_range_meters":4400,"station_id":"","pricing_plan_id":"free"},{"bike_id":"7337244e-b4ae-4c5a-891d-314224ecb29b","system_id":"levelo_inurba_marseille","lat":43.30883,"lon":5.39628,"is_reserved":false,"is_disabled":false,"rental_uris":{"android":"levelo://app?vid=7337244e-b4ae-4c5a-891d-314224ecb29b","ios":"levelo://app?vid=7337244e-b4ae-4c5a-891d-314224ecb29b"},"vehicle_type_id":"4","last_reported":1704960607,"current_range_meters":29600,"station_id":"ce4bh012rcd13ifvqcv0","pricing_plan_id":"free"},{"bike_id":"55c7817d-0705-42d7-86d9-0d560a4d3e35","system_id":"levelo_inurba_marseille","lat":43.309038,"lon":5.396546,"is_reserved":false,"is_disabled":false,"rental_uris":{"android":"levelo://app?vid=55c7817d-0705-42d7-86d9-0d560a4d3e35","ios":"levelo://app?vid=55c7817d-0705-42d7-86d9-0d560a4d3e35"},"vehicle_type_id":"4","last_reported":1704960607,"current_range_meters":29200,"station_id":"ce4bh012rcd13ifvqcv0","pricing_plan_id":"free"},{"bike_id":"39dccc3f-65ef-4ada-a74a-64b3d5bc0aff","system_id":"levelo_inurba_marseille","lat":43.313291,"lon":5.396838,"is_reserved":false,"is_disabled":false,"rental_uris":{"android":"levelo://app?vid=39dccc3f-65ef-4ada-a74a-64b3d5bc0aff","ios":"levelo://app?vid=39dccc3f-65ef-4ada-a74a-64b3d5bc0aff"},"vehicle_type_id":"4","last_reported":1704960607,"current_range_meters":17200,"station_id":"ce4bgvp2rcd13ifvqcu0","pricing_plan_id":"free"},{"bike_id":"ce6af3a4-0a7a-4ccb-9e78-784b5a23ca21","system_id":"levelo_inurba_marseille","lat":43.313291,"lon":5.396838,"is_reserved":false,"is_disabled":false,"rental_uris":{"android":"levelo://app?vid=ce6af3a4-0a7a-4ccb-9e78-784b5a23ca21","ios":"levelo://app?vid=ce6af3a4-0a7a-4ccb-9e78-784b5a23ca21"},"vehicle_type_id":"4","last_reported":1704960607,"current_range_meters":10000,"station_id":"ce4bgvp2rcd13ifvqcu0","pricing_plan_id":"free"},{"bike_id":"3fc4938b-97f8-4af8-a54c-1af8cf305436","system_id":"levelo_inurba_marseille","lat":43.313291,"lon":5.396838,"is_reserved":false,"is_disabled":false,"rental_uris":{"android":"levelo://app?vid=3fc4938b-97f8-4af8-a54c-1af8cf305436","ios":"levelo://app?vid=3fc4938b-97f8-4af8-a54c-1af8cf305436"},"vehicle_type_id":"4","last_reported":1704960607,"current_range_meters":18800,"station_id":"ce4bgvp2rcd13ifvqcu0","pricing_plan_id":"free"},{"bike_id":"b724c5bf-a30b-44af-b5fa-d5cacddece0c","system_id":"levelo_inurba_marseille","lat":43.309047,"lon":5.396551,"is_reserved":false,"is_disabled":false,"rental_uris":{"android":"levelo://app?vid=b724c5bf-a30b-44af-b5fa-d5cacddece0c","ios":"levelo://app?vid=b724c5bf-a30b-44af-b5fa-d5cacddece0c"},"vehicle_type_id":"4","last_reported":1704960607,"current_range_meters":23200,"station_id":"ce4bh012rcd13ifvqcv0","pricing_plan_id":"free"},{"bike_id":"43e3c829-2deb-43ef-8b69-a848c378c386","system_id":"levelo_inurba_marseille","lat":43.313291,"lon":5.396838,"is_reserved":false,"is_disabled":false,"rental_uris":{"android":"levelo://app?vid=43e3c829-2deb-43ef-8b69-a848c378c386","ios":"levelo://app?vid=43e3c829-2deb-43ef-8b69-a848c378c386"},"vehicle_type_id":"4","last_reported":1704960607,"current_range_meters":23600,"station_id":"ce4bgvp2rcd13ifvqcu0","pricing_plan_id":"free"},{"bike_id":"0dee0b75-d1f0-45ec-9dbc-14cf2ecd02e3","system_id":"levelo_inurba_marseille","lat":43.313291,"lon":5.396838,"is_reserved":false,"is_disabled":false,"rental_uris":{"android":"levelo://app?vid=0dee0b75-d1f0-45ec-9dbc-14cf2ecd02e3","ios":"levelo://app?vid=0dee0b75-d1f0-45ec-9dbc-14cf2ecd02e3"},"vehicle_type_id":"4","last_reported":1704960607,"current_range_meters":30000,"station_id":"ce4bgvp2rcd13ifvqcu0","pricing_plan_id":"free"},{"bike_id":"7e774733-9be3-463c-8b8a-18427807ec58","system_id":"levelo_inurba_marseille","lat":43.313291,"lon":5.396838,"is_reserved":false,"is_disabled":false,"rental_uris":{"android":"levelo://app?vid=7e774733-9be3-463c-8b8a-18427807ec58","ios":"levelo://app?vid=7e774733-9be3-463c-8b8a-18427807ec58"},"vehicle_type_id":"4","last_reported":1704960607,"current_range_meters":21200,"station_id":"ce4bgvp2rcd13ifvqcu0","pricing_plan_id":"free"},{"bike_id":"b9470094-4555-4f89-9bb3-8b648ab442a3","system_id":"levelo_inurba_marseille","lat":43.295376,"lon":5.385495,"is_reserved":false,"is_disabled":false,"rental_uris":{"android":"levelo://app?vid=b9470094-4555-4f89-9bb3-8b648ab442a3","ios":"levelo://app?vid=b9470094-4555-4f89-9bb3-8b648ab442a3"},"vehicle_type_id":"4","last_reported":1704960607,"current_range_meters":11200,"station_id":"","pricing_plan_id":"free"},{"bike_id":"2dd39e99-531d-4128-95b9-9bab960bc2d0","system_id":"levelo_inurba_marseille","lat":43.302008,"lon":5.394694,"is_reserved":false,"is_disabled":false,"rental_uris":{"android":"levelo://app?vid=2dd39e99-531d-4128-95b9-9bab960bc2d0","ios":"levelo://app?vid=2dd39e99-531d-4128-95b9-9bab960bc2d0"},"vehicle_type_id":"4","last_reported":1704960607,"current_range_meters":31200,"station_id":"ce4bh0p2rcd13ifvqd70","pricing_plan_id":"free"},{"bike_id":"6a00b293-4f12-4ce8-9e93-b6bde95ae43b","system_id":"levelo_inurba_marseille","lat":43.2916,"lon":5.37911,"is_reserved":false,"is_disabled":false,"rental_uris":{"android":"levelo://app?vid=6a00b293-4f12-4ce8-9e93-b6bde95ae43b","ios":"levelo://app?vid=6a00b293-4f12-4ce8-9e93-b6bde95ae43b"},"vehicle_type_id":"4","last_reported":1704960607,"current_range_meters":0,"station_id":"","pricing_plan_id":"free"},{"bike_id":"543176a2-1f7d-4314-aebf-1050427fba73","system_id":"levelo_inurba_marseille","lat":43.289184,"lon":5.366408,"is_reserved":false,"is_disabled":false,"rental_uris":{"android":"levelo://app?vid=543176a2-1f7d-4314-aebf-1050427fba73","ios":"levelo://app?vid=543176a2-1f7d-4314-aebf-1050427fba73"},"vehicle_type_id":"4","last_reported":1704960607,"current_range_meters":21200,"station_id":"ce4bhap2rcd13ifvqek0","pricing_plan_id":"free"},{"bike_id":"a6d35ee0-6236-4ef8-90d1-161699492fef","system_id":"levelo_inurba_marseille","lat":43.28931,"lon":5.36631,"is_reserved":false,"is_disabled":false,"rental_uris":{"android":"levelo://app?vid=a6d35ee0-6236-4ef8-90d1-161699492fef","ios":"levelo://app?vid=a6d35ee0-6236-4ef8-90d1-161699492fef"},"vehicle_type_id":"4","last_reported":1704960607,"current_range_meters":19600,"station_id":"ce4bhap2rcd13ifvqek0","pricing_plan_id":"free"},{"bike_id":"d39c8236-f3f5-4f47-94d8-2f01a32ecd49","system_id":"levelo_inurba_marseille","lat":43.289468,"lon":5.363719,"is_reserved":false,"is_disabled":false,"rental_uris":{"android":"levelo://app?vid=d39c8236-f3f5-4f47-94d8-2f01a32ecd49","ios":"levelo://app?vid=d39c8236-f3f5-4f47-94d8-2f01a32ecd49"},"vehicle_type_id":"4","last_reported":1704960607,"current_range_meters":27600,"station_id":"ce4bhc92rcd13ifvqetg","pricing_plan_id":"free"},{"bike_id":"003412dd-4670-4351-8635-82c931e24b69","system_id":"levelo_inurba_marseille","lat":43.289468,"lon":5.363719,"is_reserved":false,"is_disabled":false,"rental_uris":{"android":"levelo://app?vid=003412dd-4670-4351-8635-82c931e24b69","ios":"levelo://app?vid=003412dd-4670-4351-8635-82c931e24b69"},"vehicle_type_id":"4","last_reported":1704960607,"current_range_meters":31200,"station_id":"ce4bhc92rcd13ifvqetg","pricing_plan_id":"free"},{"bike_id":"4cf74de7-498f-4767-b351-29d532896bba","system_id":"levelo_inurba_marseille","lat":43.29272,"lon":5.38437,"is_reserved":false,"is_disabled":false,"rental_uris":{"android":"levelo://app?vid=4cf74de7-498f-4767-b351-29d532896bba","ios":"levelo://app?vid=4cf74de7-498f-4767-b351-29d532896bba"},"vehicle_type_id":"4","last_reported":1704960607,"current_range_meters":21200,"station_id":"ce4bh692rcd13ifvqea0","pricing_plan_id":"free"},{"bike_id":"c4de190e-d1bd-43d6-8bbf-600a036403cb","system_id":"levelo_inurba_marseille","lat":43.304274,"lon":5.397513,"is_reserved":false,"is_disabled":false,"rental_uris":{"android":"levelo://app?vid=c4de190e-d1bd-43d6-8bbf-600a036403cb","ios":"levelo://app?vid=c4de190e-d1bd-43d6-8bbf-600a036403cb"},"vehicle_type_id":"4","last_reported":1704960607,"current_range_meters":28400,"station_id":"ce4bh092rcd13ifvqd20","pricing_plan_id":"free"},{"bike_id":"664d3d37-0dd0-44b7-ac83-16e21741452a","system_id":"levelo_inurba_marseille","lat":43.304296,"lon":5.397513,"is_reserved":false,"is_disabled":false,"rental_uris":{"android":"levelo://app?vid=664d3d37-0dd0-44b7-ac83-16e21741452a","ios":"levelo://app?vid=664d3d37-0dd0-44b7-ac83-16e21741452a"},"vehicle_type_id":"4","last_reported":1704960607,"current_range_meters":26800,"station_id":"ce4bh092rcd13ifvqd20","pricing_plan_id":"free"},{"bike_id":"c3d28768-1bdf-47a0-a12a-28c7e10b87b4","system_id":"levelo_inurba_marseille","lat":43.290104,"lon":5.356111,"is_reserved":false,"is_disabled":false,"rental_uris":{"android":"levelo://app?vid=c3d28768-1bdf-47a0-a12a-28c7e10b87b4","ios":"levelo://app?vid=c3d28768-1bdf-47a0-a12a-28c7e10b87b4"},"vehicle_type_id":"4","last_reported":1704960607,"current_range_meters":23200,"station_id":"ce4bhb92rcd13ifvqen0","pricing_plan_id":"free"},{"bike_id":"6b4d3762-092e-4b43-92bc-2e9ef41c003f","system_id":"levelo_inurba_marseille","lat":43.290104,"lon":5.356111,"is_reserved":false,"is_disabled":false,"rental_uris":{"android":"levelo://app?vid=6b4d3762-092e-4b43-92bc-2e9ef41c003f","ios":"levelo://app?vid=6b4d3762-092e-4b43-92bc-2e9ef41c003f"},"vehicle_type_id":"4","last_reported":1704960607,"current_range_meters":20400,"station_id":"ce4bhb92rcd13ifvqen0","pricing_plan_id":"free"},{"bike_id":"b0a2819f-738b-44cd-a2c0-ef1619996ab9","system_id":"levelo_inurba_marseille","lat":43.290995,"lon":5.381361,"is_reserved":false,"is_disabled":false,"rental_uris":{"android":"levelo://app?vid=b0a2819f-738b-44cd-a2c0-ef1619996ab9","ios":"levelo://app?vid=b0a2819f-738b-44cd-a2c0-ef1619996ab9"},"vehicle_type_id":"4","last_reported":1704960607,"current_range_meters":28800,"station_id":"ce4bh512rcd13ifvqe2g","pricing_plan_id":"free"},{"bike_id":"700f8ffe-785c-4861-8297-b14b02fe657f","system_id":"levelo_inurba_marseille","lat":43.290995,"lon":5.381361,"is_reserved":false,"is_disabled":false,"rental_uris":{"android":"levelo://app?vid=700f8ffe-785c-4861-8297-b14b02fe657f","ios":"levelo://app?vid=700f8ffe-785c-4861-8297-b14b02fe657f"},"vehicle_type_id":"4","last_reported":1704960607,"current_range_meters":29600,"station_id":"ce4bh512rcd13ifvqe2g","pricing_plan_id":"free"},{"bike_id":"7aa9d17b-51f2-44ad-9bce-6e07dcad6b63","system_id":"levelo_inurba_marseille","lat":43.290995,"lon":5.381361,"is_reserved":false,"is_disabled":false,"rental_uris":{"android":"levelo://app?vid=7aa9d17b-51f2-44ad-9bce-6e07dcad6b63","ios":"levelo://app?vid=7aa9d17b-51f2-44ad-9bce-6e07dcad6b63"},"vehicle_type_id":"4","last_reported":1704960607,"current_range_meters":20800,"station_id":"ce4bh512rcd13ifvqe2g","pricing_plan_id":"free"},{"bike_id":"1e167f74-5e5b-43f1-9d81-41df27212946","system_id":"levelo_inurba_marseille","lat":43.290995,"lon":5.381361,"is_reserved":false,"is_disabled":false,"rental_uris":{"android":"levelo://app?vid=1e167f74-5e5b-43f1-9d81-41df27212946","ios":"levelo://app?vid=1e167f74-5e5b-43f1-9d81-41df27212946"},"vehicle_type_id":"4","last_reported":1704960607,"current_range_meters":28800,"station_id":"ce4bh512rcd13ifvqe2g","pricing_plan_id":"free"},{"bike_id":"f3ff4f8e-8243-46cd-896e-d3d04e966890","system_id":"levelo_inurba_marseille","lat":43.289743,"lon":5.378304,"is_reserved":false,"is_disabled":false,"rental_uris":{"android":"levelo://app?vid=f3ff4f8e-8243-46cd-896e-d3d04e966890","ios":"levelo://app?vid=f3ff4f8e-8243-46cd-896e-d3d04e966890"},"vehicle_type_id":"4","last_reported":1704960607,"current_range_meters":26000,"station_id":"ce4bh9p2rcd13ifvqed0","pricing_plan_id":"free"},{"bike_id":"b69f76c9-bd8c-4b51-a953-185037c14f27","system_id":"levelo_inurba_marseille","lat":43.297815,"lon":5.393548,"is_reserved":false,"is_disabled":false,"rental_uris":{"android":"levelo://app?vid=b69f76c9-bd8c-4b51-a953-185037c14f27","ios":"levelo://app?vid=b69f76c9-bd8c-4b51-a953-185037c14f27"},"vehicle_type_id":"4","last_reported":1704960607,"current_range_meters":28000,"station_id":"chh1huq6cuj3fo74tm60","pricing_plan_id":"free"},{"bike_id":"92d12698-4830-49ad-9b63-a164315a00e2","system_id":"levelo_inurba_marseille","lat":43.295169,"lon":5.390426,"is_reserved":false,"is_disabled":false,"rental_uris":{"android":"levelo://app?vid=92d12698-4830-49ad-9b63-a164315a00e2","ios":"levelo://app?vid=92d12698-4830-49ad-9b63-a164315a00e2"},"vehicle_type_id":"4","last_reported":1704960607,"current_range_meters":29200,"station_id":"ce4bh3p2rcd13ifvqdp0","pricing_plan_id":"free"},{"bike_id":"f2f35060-925e-4b9d-a236-0a08f3c9a826","system_id":"levelo_inurba_marseille","lat":43.29783,"lon":5.39337,"is_reserved":false,"is_disabled":false,"rental_uris":{"android":"levelo://app?vid=f2f35060-925e-4b9d-a236-0a08f3c9a826","ios":"levelo://app?vid=f2f35060-925e-4b9d-a236-0a08f3c9a826"},"vehicle_type_id":"4","last_reported":1704960607,"current_range_meters":28800,"station_id":"chh1huq6cuj3fo74tm60","pricing_plan_id":"free"},{"bike_id":"a8af01e6-306f-4574-b872-fc40babbfa5f","system_id":"levelo_inurba_marseille","lat":43.297882,"lon":5.393497,"is_reserved":false,"is_disabled":false,"rental_uris":{"android":"levelo://app?vid=a8af01e6-306f-4574-b872-fc40babbfa5f","ios":"levelo://app?vid=a8af01e6-306f-4574-b872-fc40babbfa5f"},"vehicle_type_id":"4","last_reported":1704960607,"current_range_meters":22400,"station_id":"chh1huq6cuj3fo74tm60","pricing_plan_id":"free"},{"bike_id":"bea0c0f3-6a90-4f80-9dc9-5d1cc25bdb93","system_id":"levelo_inurba_marseille","lat":43.33022,"lon":5.39031,"is_reserved":false,"is_disabled":false,"rental_uris":{"android":"levelo://app?vid=bea0c0f3-6a90-4f80-9dc9-5d1cc25bdb93","ios":"levelo://app?vid=bea0c0f3-6a90-4f80-9dc9-5d1cc25bdb93"},"vehicle_type_id":"4","last_reported":1704960607,"current_range_meters":16800,"station_id":"","pricing_plan_id":"free"},{"bike_id":"0904bcbe-6b2e-4fb4-84b3-9666a350d09e","system_id":"levelo_inurba_marseille","lat":43.330212,"lon":5.390393,"is_reserved":false,"is_disabled":false,"rental_uris":{"android":"levelo://app?vid=0904bcbe-6b2e-4fb4-84b3-9666a350d09e","ios":"levelo://app?vid=0904bcbe-6b2e-4fb4-84b3-9666a350d09e"},"vehicle_type_id":"4","last_reported":1704960607,"current_range_meters":13200,"station_id":"","pricing_plan_id":"free"},{"bike_id":"c8dfd4e1-b8a2-4a47-81f8-65e2d2497f1d","system_id":"levelo_inurba_marseille","lat":43.33023,"lon":5.39041,"is_reserved":false,"is_disabled":false,"rental_uris":{"android":"levelo://app?vid=c8dfd4e1-b8a2-4a47-81f8-65e2d2497f1d","ios":"levelo://app?vid=c8dfd4e1-b8a2-4a47-81f8-65e2d2497f1d"},"vehicle_type_id":"4","last_reported":1704960607,"current_range_meters":30000,"station_id":"","pricing_plan_id":"free"},{"bike_id":"a97514aa-2d37-4689-bcfe-618ed6148d53","system_id":"levelo_inurba_marseille","lat":43.289741,"lon":5.378306,"is_reserved":false,"is_disabled":false,"rental_uris":{"android":"levelo://app?vid=a97514aa-2d37-4689-bcfe-618ed6148d53","ios":"levelo://app?vid=a97514aa-2d37-4689-bcfe-618ed6148d53"},"vehicle_type_id":"4","last_reported":1704960607,"current_range_meters":27600,"station_id":"ce4bh9p2rcd13ifvqed0","pricing_plan_id":"free"},{"bike_id":"e7dcaaa9-cc06-45af-bfbd-9ecd35e01aae","system_id":"levelo_inurba_marseille","lat":43.33024,"lon":5.39043,"is_reserved":false,"is_disabled":false,"rental_uris":{"android":"levelo://app?vid=e7dcaaa9-cc06-45af-bfbd-9ecd35e01aae","ios":"levelo://app?vid=e7dcaaa9-cc06-45af-bfbd-9ecd35e01aae"},"vehicle_type_id":"4","last_reported":1704960607,"current_range_meters":19200,"station_id":"","pricing_plan_id":"free"},{"bike_id":"9e2f63dd-ed51-4cea-a43c-8deefc8ee002","system_id":"levelo_inurba_marseille","lat":43.289741,"lon":5.378306,"is_reserved":false,"is_disabled":false,"rental_uris":{"android":"levelo://app?vid=9e2f63dd-ed51-4cea-a43c-8deefc8ee002","ios":"levelo://app?vid=9e2f63dd-ed51-4cea-a43c-8deefc8ee002"},"vehicle_type_id":"4","last_reported":1704960607,"current_range_meters":26800,"station_id":"ce4bh9p2rcd13ifvqed0","pricing_plan_id":"free"},{"bike_id":"29877edf-f914-4818-a395-be7aee9e9d72","system_id":"levelo_inurba_marseille","lat":43.33025,"lon":5.390438,"is_reserved":false,"is_disabled":false,"rental_uris":{"android":"levelo://app?vid=29877edf-f914-4818-a395-be7aee9e9d72","ios":"levelo://app?vid=29877edf-f914-4818-a395-be7aee9e9d72"},"vehicle_type_id":"4","last_reported":1704960607,"current_range_meters":21600,"station_id":"","pricing_plan_id":"free"},{"bike_id":"8fe359a3-7109-4a83-a4f9-b0904a0a2302","system_id":"levelo_inurba_marseille","lat":43.33051,"lon":5.390445,"is_reserved":false,"is_disabled":false,"rental_uris":{"android":"levelo://app?vid=8fe359a3-7109-4a83-a4f9-b0904a0a2302","ios":"levelo://app?vid=8fe359a3-7109-4a83-a4f9-b0904a0a2302"},"vehicle_type_id":"4","last_reported":1704960607,"current_range_meters":20400,"station_id":"","pricing_plan_id":"free"},{"bike_id":"a0aab242-2a48-4f5c-87f1-109140aad74f","system_id":"levelo_inurba_marseille","lat":43.28856,"lon":5.358371,"is_reserved":false,"is_disabled":false,"rental_uris":{"android":"levelo://app?vid=a0aab242-2a48-4f5c-87f1-109140aad74f","ios":"levelo://app?vid=a0aab242-2a48-4f5c-87f1-109140aad74f"},"vehicle_type_id":"4","last_reported":1704960607,"current_range_meters":28800,"station_id":"ce4bhb12rcd13ifvqem0","pricing_plan_id":"free"},{"bike_id":"7dbbd0d0-0fe0-4a7e-bce3-6765ff51695c","system_id":"levelo_inurba_marseille","lat":43.312748,"lon":5.401592,"is_reserved":false,"is_disabled":false,"rental_uris":{"android":"levelo://app?vid=7dbbd0d0-0fe0-4a7e-bce3-6765ff51695c","ios":"levelo://app?vid=7dbbd0d0-0fe0-4a7e-bce3-6765ff51695c"},"vehicle_type_id":"4","last_reported":1704960607,"current_range_meters":31200,"station_id":"ce4bh092rcd13ifvqd30","pricing_plan_id":"free"},{"bike_id":"9d418d29-254f-4faa-9412-cc45ca0ba2d7","system_id":"levelo_inurba_marseille","lat":43.3127,"lon":5.40165,"is_reserved":false,"is_disabled":false,"rental_uris":{"android":"levelo://app?vid=9d418d29-254f-4faa-9412-cc45ca0ba2d7","ios":"levelo://app?vid=9d418d29-254f-4faa-9412-cc45ca0ba2d7"},"vehicle_type_id":"4","last_reported":1704960607,"current_range_meters":28800,"station_id":"ce4bh092rcd13ifvqd30","pricing_plan_id":"free"},{"bike_id":"907f925c-39dc-4125-9986-f876bfff0cc2","system_id":"levelo_inurba_marseille","lat":43.309371,"lon":5.401449,"is_reserved":false,"is_disabled":false,"rental_uris":{"android":"levelo://app?vid=907f925c-39dc-4125-9986-f876bfff0cc2","ios":"levelo://app?vid=907f925c-39dc-4125-9986-f876bfff0cc2"},"vehicle_type_id":"4","last_reported":1704960607,"current_range_meters":28800,"station_id":"ce4bgvp2rcd13ifvqct0","pricing_plan_id":"free"},{"bike_id":"15ea7858-b2ed-4d73-b95a-779a48b45d34","system_id":"levelo_inurba_marseille","lat":43.312768,"lon":5.401668,"is_reserved":false,"is_disabled":false,"rental_uris":{"android":"levelo://app?vid=15ea7858-b2ed-4d73-b95a-779a48b45d34","ios":"levelo://app?vid=15ea7858-b2ed-4d73-b95a-779a48b45d34"},"vehicle_type_id":"4","last_reported":1704960607,"current_range_meters":18800,"station_id":"ce4bh092rcd13ifvqd30","pricing_plan_id":"free"},{"bike_id":"3b293500-0b95-4d16-a6d5-3b4d827f0b5d","system_id":"levelo_inurba_marseille","lat":43.3127,"lon":5.40168,"is_reserved":false,"is_disabled":false,"rental_uris":{"android":"levelo://app?vid=3b293500-0b95-4d16-a6d5-3b4d827f0b5d","ios":"levelo://app?vid=3b293500-0b95-4d16-a6d5-3b4d827f0b5d"},"vehicle_type_id":"4","last_reported":1704960607,"current_range_meters":8000,"station_id":"ce4bh092rcd13ifvqd30","pricing_plan_id":"free"},{"bike_id":"7c6ce06a-bb81-4f4d-b50a-877e4199e400","system_id":"levelo_inurba_marseille","lat":43.31281,"lon":5.40169,"is_reserved":false,"is_disabled":false,"rental_uris":{"android":"levelo://app?vid=7c6ce06a-bb81-4f4d-b50a-877e4199e400","ios":"levelo://app?vid=7c6ce06a-bb81-4f4d-b50a-877e4199e400"},"vehicle_type_id":"4","last_reported":1704960607,"current_range_meters":20400,"station_id":"ce4bh092rcd13ifvqd30","pricing_plan_id":"free"},{"bike_id":"5044b568-d936-4113-ba33-70f704d45924","system_id":"levelo_inurba_marseille","lat":43.31275,"lon":5.401692,"is_reserved":false,"is_disabled":false,"rental_uris":{"android":"levelo://app?vid=5044b568-d936-4113-ba33-70f704d45924","ios":"levelo://app?vid=5044b568-d936-4113-ba33-70f704d45924"},"vehicle_type_id":"4","last_reported":1704960607,"current_range_meters":21600,"station_id":"ce4bh092rcd13ifvqd30","pricing_plan_id":"free"},{"bike_id":"f679c307-a3fc-42c4-bc0c-5a1801c3c3a5","system_id":"levelo_inurba_marseille","lat":43.33742,"lon":5.374557,"is_reserved":false,"is_disabled":false,"rental_uris":{"android":"levelo://app?vid=f679c307-a3fc-42c4-bc0c-5a1801c3c3a5","ios":"levelo://app?vid=f679c307-a3fc-42c4-bc0c-5a1801c3c3a5"},"vehicle_type_id":"4","last_reported":1704960607,"current_range_meters":25600,"station_id":"","pricing_plan_id":"free"},{"bike_id":"d4632afc-35e3-4069-86f7-ff142e5cadb3","system_id":"levelo_inurba_marseille","lat":43.312777,"lon":5.401699,"is_reserved":false,"is_disabled":false,"rental_uris":{"android":"levelo://app?vid=d4632afc-35e3-4069-86f7-ff142e5cadb3","ios":"levelo://app?vid=d4632afc-35e3-4069-86f7-ff142e5cadb3"},"vehicle_type_id":"4","last_reported":1704960607,"current_range_meters":15200,"station_id":"ce4bh092rcd13ifvqd30","pricing_plan_id":"free"},{"bike_id":"dd401ffe-c0da-4f7a-8d65-b8fce458540e","system_id":"levelo_inurba_marseille","lat":43.337444,"lon":5.374475,"is_reserved":false,"is_disabled":false,"rental_uris":{"android":"levelo://app?vid=dd401ffe-c0da-4f7a-8d65-b8fce458540e","ios":"levelo://app?vid=dd401ffe-c0da-4f7a-8d65-b8fce458540e"},"vehicle_type_id":"4","last_reported":1704960607,"current_range_meters":26000,"station_id":"","pricing_plan_id":"free"},{"bike_id":"2a6df3fc-2cbd-473e-8196-9652816a36c7","system_id":"levelo_inurba_marseille","lat":43.337444,"lon":5.374475,"is_reserved":false,"is_disabled":false,"rental_uris":{"android":"levelo://app?vid=2a6df3fc-2cbd-473e-8196-9652816a36c7","ios":"levelo://app?vid=2a6df3fc-2cbd-473e-8196-9652816a36c7"},"vehicle_type_id":"4","last_reported":1704960607,"current_range_meters":13200,"station_id":"","pricing_plan_id":"free"},{"bike_id":"cbbd6287-e2cf-49a7-8736-b21a1d793f5d","system_id":"levelo_inurba_marseille","lat":43.33747,"lon":5.37444,"is_reserved":false,"is_disabled":false,"rental_uris":{"android":"levelo://app?vid=cbbd6287-e2cf-49a7-8736-b21a1d793f5d","ios":"levelo://app?vid=cbbd6287-e2cf-49a7-8736-b21a1d793f5d"},"vehicle_type_id":"4","last_reported":1704960607,"current_range_meters":30400,"station_id":"","pricing_plan_id":"free"},{"bike_id":"73380dda-ab5b-4762-9729-4cef79ab181f","system_id":"levelo_inurba_marseille","lat":43.309371,"lon":5.401449,"is_reserved":false,"is_disabled":false,"rental_uris":{"android":"levelo://app?vid=73380dda-ab5b-4762-9729-4cef79ab181f","ios":"levelo://app?vid=73380dda-ab5b-4762-9729-4cef79ab181f"},"vehicle_type_id":"4","last_reported":1704960607,"current_range_meters":29600,"station_id":"ce4bgvp2rcd13ifvqct0","pricing_plan_id":"free"},{"bike_id":"bbea9f1f-43c2-49a6-ab51-3bc4db8d753c","system_id":"levelo_inurba_marseille","lat":43.33747,"lon":5.37455,"is_reserved":false,"is_disabled":false,"rental_uris":{"android":"levelo://app?vid=bbea9f1f-43c2-49a6-ab51-3bc4db8d753c","ios":"levelo://app?vid=bbea9f1f-43c2-49a6-ab51-3bc4db8d753c"},"vehicle_type_id":"4","last_reported":1704960607,"current_range_meters":0,"station_id":"","pricing_plan_id":"free"},{"bike_id":"d977fa02-4383-45bb-b005-e18c525e392a","system_id":"levelo_inurba_marseille","lat":43.337484,"lon":5.374518,"is_reserved":false,"is_disabled":false,"rental_uris":{"android":"levelo://app?vid=d977fa02-4383-45bb-b005-e18c525e392a","ios":"levelo://app?vid=d977fa02-4383-45bb-b005-e18c525e392a"},"vehicle_type_id":"4","last_reported":1704960607,"current_range_meters":22800,"station_id":"","pricing_plan_id":"free"},{"bike_id":"86ad5ca9-e213-4988-ba5b-ad7a8fb3f0be","system_id":"levelo_inurba_marseille","lat":43.306412,"lon":5.401035,"is_reserved":false,"is_disabled":false,"rental_uris":{"android":"levelo://app?vid=86ad5ca9-e213-4988-ba5b-ad7a8fb3f0be","ios":"levelo://app?vid=86ad5ca9-e213-4988-ba5b-ad7a8fb3f0be"},"vehicle_type_id":"4","last_reported":1704960607,"current_range_meters":26800,"station_id":"ce4bh112rcd13ifvqda0","pricing_plan_id":"free"},{"bike_id":"15c01c23-3c22-46c9-bb23-24928aec6336","system_id":"levelo_inurba_marseille","lat":43.309371,"lon":5.401449,"is_reserved":false,"is_disabled":false,"rental_uris":{"android":"levelo://app?vid=15c01c23-3c22-46c9-bb23-24928aec6336","ios":"levelo://app?vid=15c01c23-3c22-46c9-bb23-24928aec6336"},"vehicle_type_id":"4","last_reported":1704960607,"current_range_meters":27200,"station_id":"ce4bgvp2rcd13ifvqct0","pricing_plan_id":"free"},{"bike_id":"83e0efcd-f957-415e-a69c-bd3765259415","system_id":"levelo_inurba_marseille","lat":43.306412,"lon":5.401035,"is_reserved":false,"is_disabled":false,"rental_uris":{"android":"levelo://app?vid=83e0efcd-f957-415e-a69c-bd3765259415","ios":"levelo://app?vid=83e0efcd-f957-415e-a69c-bd3765259415"},"vehicle_type_id":"4","last_reported":1704960607,"current_range_meters":31200,"station_id":"ce4bh112rcd13ifvqda0","pricing_plan_id":"free"},{"bike_id":"e6b414c9-54ac-4a4b-905d-e8b009155f7d","system_id":"levelo_inurba_marseille","lat":43.337538,"lon":5.374434,"is_reserved":false,"is_disabled":false,"rental_uris":{"android":"levelo://app?vid=e6b414c9-54ac-4a4b-905d-e8b009155f7d","ios":"levelo://app?vid=e6b414c9-54ac-4a4b-905d-e8b009155f7d"},"vehicle_type_id":"4","last_reported":1704960607,"current_range_meters":27600,"station_id":"","pricing_plan_id":"free"},{"bike_id":"6a393e0a-65c9-4472-a6d5-84c2e19a68e3","system_id":"levelo_inurba_marseille","lat":43.309371,"lon":5.401449,"is_reserved":false,"is_disabled":false,"rental_uris":{"android":"levelo://app?vid=6a393e0a-65c9-4472-a6d5-84c2e19a68e3","ios":"levelo://app?vid=6a393e0a-65c9-4472-a6d5-84c2e19a68e3"},"vehicle_type_id":"4","last_reported":1704960607,"current_range_meters":25200,"station_id":"ce4bgvp2rcd13ifvqct0","pricing_plan_id":"free"},{"bike_id":"f481ef2c-f442-421b-be8c-fb1c4d039a61","system_id":"levelo_inurba_marseille","lat":43.309371,"lon":5.401449,"is_reserved":false,"is_disabled":false,"rental_uris":{"android":"levelo://app?vid=f481ef2c-f442-421b-be8c-fb1c4d039a61","ios":"levelo://app?vid=f481ef2c-f442-421b-be8c-fb1c4d039a61"},"vehicle_type_id":"4","last_reported":1704960607,"current_range_meters":18400,"station_id":"ce4bgvp2rcd13ifvqct0","pricing_plan_id":"free"},{"bike_id":"36ac928c-a61c-4bc7-a19b-dd3e5260ec0c","system_id":"levelo_inurba_marseille","lat":43.309371,"lon":5.401449,"is_reserved":false,"is_disabled":false,"rental_uris":{"android":"levelo://app?vid=36ac928c-a61c-4bc7-a19b-dd3e5260ec0c","ios":"levelo://app?vid=36ac928c-a61c-4bc7-a19b-dd3e5260ec0c"},"vehicle_type_id":"4","last_reported":1704960607,"current_range_meters":31200,"station_id":"ce4bgvp2rcd13ifvqct0","pricing_plan_id":"free"},{"bike_id":"e5d360b7-defc-4e73-8313-b93be0c9e9e8","system_id":"levelo_inurba_marseille","lat":43.309371,"lon":5.401449,"is_reserved":false,"is_disabled":false,"rental_uris":{"android":"levelo://app?vid=e5d360b7-defc-4e73-8313-b93be0c9e9e8","ios":"levelo://app?vid=e5d360b7-defc-4e73-8313-b93be0c9e9e8"},"vehicle_type_id":"4","last_reported":1704960607,"current_range_meters":30400,"station_id":"ce4bgvp2rcd13ifvqct0","pricing_plan_id":"free"},{"bike_id":"2d31d90c-18cc-493a-ad93-91a966057af0","system_id":"levelo_inurba_marseille","lat":43.33754,"lon":5.374655,"is_reserved":false,"is_disabled":false,"rental_uris":{"android":"levelo://app?vid=2d31d90c-18cc-493a-ad93-91a966057af0","ios":"levelo://app?vid=2d31d90c-18cc-493a-ad93-91a966057af0"},"vehicle_type_id":"4","last_reported":1704960607,"current_range_meters":22000,"station_id":"","pricing_plan_id":"free"},{"bike_id":"1352ff4d-4a63-4ec9-a8b9-3ea4db6808e9","system_id":"levelo_inurba_marseille","lat":43.33755,"lon":5.374617,"is_reserved":false,"is_disabled":false,"rental_uris":{"android":"levelo://app?vid=1352ff4d-4a63-4ec9-a8b9-3ea4db6808e9","ios":"levelo://app?vid=1352ff4d-4a63-4ec9-a8b9-3ea4db6808e9"},"vehicle_type_id":"4","last_reported":1704960607,"current_range_meters":21200,"station_id":"","pricing_plan_id":"free"},{"bike_id":"5d2f0d60-b4a4-484a-bcea-3857beba47f8","system_id":"levelo_inurba_marseille","lat":43.306412,"lon":5.401035,"is_reserved":false,"is_disabled":false,"rental_uris":{"android":"levelo://app?vid=5d2f0d60-b4a4-484a-bcea-3857beba47f8","ios":"levelo://app?vid=5d2f0d60-b4a4-484a-bcea-3857beba47f8"},"vehicle_type_id":"4","last_reported":1704960607,"current_range_meters":14000,"station_id":"ce4bh112rcd13ifvqda0","pricing_plan_id":"free"},{"bike_id":"9da7e097-cf6d-4852-96fd-bfb2887c77c2","system_id":"levelo_inurba_marseille","lat":43.30642,"lon":5.401031,"is_reserved":false,"is_disabled":false,"rental_uris":{"android":"levelo://app?vid=9da7e097-cf6d-4852-96fd-bfb2887c77c2","ios":"levelo://app?vid=9da7e097-cf6d-4852-96fd-bfb2887c77c2"},"vehicle_type_id":"4","last_reported":1704960607,"current_range_meters":23200,"station_id":"ce4bh112rcd13ifvqda0","pricing_plan_id":"free"},{"bike_id":"ece8edf3-1fa8-4ce8-9708-cb7bfe94bf15","system_id":"levelo_inurba_marseille","lat":43.33767,"lon":5.374336,"is_reserved":false,"is_disabled":false,"rental_uris":{"android":"levelo://app?vid=ece8edf3-1fa8-4ce8-9708-cb7bfe94bf15","ios":"levelo://app?vid=ece8edf3-1fa8-4ce8-9708-cb7bfe94bf15"},"vehicle_type_id":"4","last_reported":1704960607,"current_range_meters":24800,"station_id":"","pricing_plan_id":"free"},{"bike_id":"07e0c973-7613-4376-8b50-2c6c1a651d24","system_id":"levelo_inurba_marseille","lat":43.30137,"lon":5.39873,"is_reserved":false,"is_disabled":false,"rental_uris":{"android":"levelo://app?vid=07e0c973-7613-4376-8b50-2c6c1a651d24","ios":"levelo://app?vid=07e0c973-7613-4376-8b50-2c6c1a651d24"},"vehicle_type_id":"4","last_reported":1704960607,"current_range_meters":3600,"station_id":"ce4bh0h2rcd13ifvqd40","pricing_plan_id":"free"},{"bike_id":"f3df22c0-f7f9-4c9b-bd6e-68fc6567c634","system_id":"levelo_inurba_marseille","lat":43.287306,"lon":5.360884,"is_reserved":false,"is_disabled":false,"rental_uris":{"android":"levelo://app?vid=f3df22c0-f7f9-4c9b-bd6e-68fc6567c634","ios":"levelo://app?vid=f3df22c0-f7f9-4c9b-bd6e-68fc6567c634"},"vehicle_type_id":"4","last_reported":1704960607,"current_range_meters":25600,"station_id":"cki0cbj6b192h4jlfktg","pricing_plan_id":"free"},{"bike_id":"4e3860ac-d7b1-4a8b-8f92-32d06808f7f0","system_id":"levelo_inurba_marseille","lat":43.28727,"lon":5.36078,"is_reserved":false,"is_disabled":false,"rental_uris":{"android":"levelo://app?vid=4e3860ac-d7b1-4a8b-8f92-32d06808f7f0","ios":"levelo://app?vid=4e3860ac-d7b1-4a8b-8f92-32d06808f7f0"},"vehicle_type_id":"4","last_reported":1704960607,"current_range_meters":28800,"station_id":"cki0cbj6b192h4jlfktg","pricing_plan_id":"free"},