{"last_updated":1745356137,"ttl":60,"version":"2.2","data":{"bikes":[{"bike_id":"08adba7b-eac3-4cfc-9923-2ccf0cc4ffef","system_id":"levelo_inurba_marseille","lat":43.24546,"lon":5.41303,"is_reserved":false,"is_disabled":false,"rental_uris":{"android":"levelo://app?vid=08adba7b-eac3-4cfc-9923-2ccf0cc4ffef","ios":"levelo://app?vid=08adba7b-eac3-4cfc-9923-2ccf0cc4ffef"},"vehicle_type_id":"4","last_reported":1745356138,"current_range_meters":2800,"station_id":"","pricing_plan_id":"cebpf4jnsgd1na2vs0mg"},{"bike_id":"5977fb24-213f-4b3a-8467-0ab4942650ce","system_id":"levelo_inurba_marseille","lat":43.28407,"lon":5.37528,"is_reserved":false,"is_disabled":true,"rental_uris":{"android":"levelo://app?vid=5977fb24-213f-4b3a-8467-0ab4942650ce","ios":"levelo://app?vid=5977fb24-213f-4b3a-8467-0ab4942650ce"},"vehicle_type_id":"4","last_reported":1745356138,"current_range_meters":2800,"station_id":"ce4bh412rcd13ifvqds0","pricing_plan_id":"cebpf4jnsgd1na2vs0mg"},{"bike_id":"c712a562-aa83-4b6a-a7b0-67fb4d6a7319","system_id":"levelo_inurba_marseille","lat":43.21229,"lon":5.35055,"is_reserved":false,"is_disabled":false,"rental_uris":{"android":"levelo://app?vid=c712a562-aa83-4b6a-a7b0-67fb4d6a7319","ios":"levelo://app?vid=c712a562-aa83-4b6a-a7b0-67fb4d6a7319"},"vehicle_type_id":"4","last_reported":1745356138,"current_range_meters":2800,"station_id":"st_cvj6sg6p6f1abm77japg","pricing_plan_id":"cebpf4jnsgd1na2vs0mg"},{"bike_id":"fc0a304a-07a9-4a58-a495-36aaf4167a8c","system_id":"levelo_inurba_marseille","lat":43.25946,"lon":5.41365,"is_reserved":false,"is_disabled":false,"rental_uris":{"android":"levelo://app?vid=fc0a304a-07a9-4a58-a495-36aaf4167a8c","ios":"levelo://app?vid=fc0a304a-07a9-4a58-a495-36aaf4167a8c"},"vehicle_type_id":"4","last_reported":1745356138,"current_range_meters":2800,"station_id":"","pricing_plan_id":"cebpf4jnsgd1na2vs0mg"},{"bike_id":"bb437079-a2bd-40e7-9102-d886a2e4448b","system_id":"levelo_inurba_marseille","lat":43.294477,"lon":5.385647,"is_reserved":false,"is_disabled":false,"rental_uris":{"android":"levelo://app?vid=bb437079-a2bd-40e7-9102-d886a2e4448b","ios":"levelo://app?vid=bb437079-a2bd-40e7-9102-d886a2e4448b"},"vehicle_type_id":"4","last_reported":1745356138,"current_range_meters":3200,"station_id":"ce4bh2h2rcd13ifvqdh0","pricing_plan_id":"cebpf4jnsgd1na2vs0mg"},{"bike_id":"0ef23631-dbd2-4c68-adc1-77243fd0c5dd","system_id":"levelo_inurba_marseille","lat":43.29275,"lon":5.38528,"is_reserved":false,"is_disabled":false,"rental_uris":{"android":"levelo://app?vid=0ef23631-dbd2-4c68-adc1-77243fd0c5dd","ios":"levelo://app?vid=0ef23631-dbd2-4c68-adc1-77243fd0c5dd"},"vehicle_type_id":"4","last_reported":1745356138,"current_range_meters":3200,"station_id":"","pricing_plan_id":"cebpf4jnsgd1na2vs0mg"},{"bike_id":"cb33acc2-5eea-45c0-9b15-8f533d6ae3df","system_id":"levelo_inurba_marseille","lat":43.28566,"lon":5.38721,"is_reserved":false,"is_disabled":false,"rental_uris":{"android":"levelo://app?vid=cb33acc2-5eea-45c0-9b15-8f533d6ae3df","ios":"levelo://app?vid=cb33acc2-5eea-45c0-9b15-8f533d6ae3df"},"vehicle_type_id":"4","last_reported":1745356138,"current_range_meters":3200,"station_id":"","pricing_plan_id":"cebpf4jnsgd1na2vs0mg"},{"bike_id":"3df694b1-9cf0-49b1-863e-8c0c2b94c742","system_id":"levelo_inurba_marseille","lat":43.251573,"lon":5.403168,"is_reserved":false,"is_disabled":false,"rental_uris":{"android":"levelo://app?vid=3df694b1-9cf0-49b1-863e-8c0c2b94c742","ios":"levelo://app?vid=3df694b1-9cf0-49b1-863e-8c0c2b94c742"},"vehicle_type_id":"4","last_reported":1745356138,"current_range_meters":3600,"station_id":"ce4bhlh2rcd13ifvqgig","pricing_plan_id":"cebpf4jnsgd1na2vs0mg"},{"bike_id":"3b1683ad-161a-4d06-bf0e-dfe0ec072a94","system_id":"levelo_inurba_marseille","lat":43.25111,"lon":5.40323,"is_reserved":false,"is_disabled":false,"rental_uris":{"android":"levelo://app?vid=3b1683ad-161a-4d06-bf0e-dfe0ec072a94","ios":"levelo://app?vid=3b1683ad-161a-4d06-bf0e-dfe0ec072a94"},"vehicle_type_id":"4","last_reported":1745356138,"current_range_meters":3600,"station_id":"ce4bhlh2rcd13ifvqgig","pricing_plan_id":"cebpf4jnsgd1na2vs0mg"},{"bike_id":"403801dc-6bba-433f-9118-b29f6eb2408d","system_id":"levelo_inurba_marseille","lat":43.25116,"lon":5.40319,"is_reserved":false,"is_disabled":false,"rental_uris":{"android":"levelo://app?vid=403801dc-6bba-433f-9118-b29f6eb2408d","ios":"levelo://app?vid=403801dc-6bba-433f-9118-b29f6eb2408d"},"vehicle_type_id":"4","last_reported":1745356138,"current_range_meters":3600,"station_id":"ce4bhlh2rcd13ifvqgig","pricing_plan_id":"cebpf4jnsgd1na2vs0mg"},{"bike_id":"4b3f3982-1249-4501-9e2d-813090a4759e","system_id":"levelo_inurba_marseille","lat":43.28274,"lon":5.35085,"is_reserved":false,"is_disabled":false,"rental_uris":{"android":"levelo://app?vid=4b3f3982-1249-4501-9e2d-813090a4759e","ios":"levelo://app?vid=4b3f3982-1249-4501-9e2d-813090a4759e"},"vehicle_type_id":"4","last_reported":1745356138,"current_range_meters":3600,"station_id":"ce4bhbp2rcd13ifvqerg","pricing_plan_id":"cebpf4jnsgd1na2vs0mg"},{"bike_id":"6f0ff3df-91b5-4299-98e0-3c49587cb61d","system_id":"levelo_inurba_marseille","lat":43.229275,"lon":5.353849,"is_reserved":false,"is_disabled":false,"rental_uris":{"android":"levelo://app?vid=6f0ff3df-91b5-4299-98e0-3c49587cb61d","ios":"levelo://app?vid=6f0ff3df-91b5-4299-98e0-3c49587cb61d"},"vehicle_type_id":"4","last_reported":1745356138,"current_range_meters":4000,"station_id":"cpo3532slgdg3j2ikp40","pricing_plan_id":"cebpf4jnsgd1na2vs0mg"},{"bike_id":"39b7ee85-9cbf-4904-a10a-75042515f95d","system_id":"levelo_inurba_marseille","lat":43.36259,"lon":5.34763,"is_reserved":false,"is_disabled":false,"rental_uris":{"android":"levelo://app?vid=39b7ee85-9cbf-4904-a10a-75042515f95d","ios":"levelo://app?vid=39b7ee85-9cbf-4904-a10a-75042515f95d"},"vehicle_type_id":"4","last_reported":1745356138,"current_range_meters":4000,"station_id":"","pricing_plan_id":"cebpf4jnsgd1na2vs0mg"},{"bike_id":"412c8200-3791-4688-8a64-2b8c184c5f37","system_id":"levelo_inurba_marseille","lat":43.24642,"lon":5.38907,"is_reserved":false,"is_disabled":false,"rental_uris":{"android":"levelo://app?vid=412c8200-3791-4688-8a64-2b8c184c5f37","ios":"levelo://app?vid=412c8200-3791-4688-8a64-2b8c184c5f37"},"vehicle_type_id":"4","last_reported":1745356138,"current_range_meters":4000,"station_id":"ce4bhg12rcd13ifvqf60","pricing_plan_id":"cebpf4jnsgd1na2vs0mg"},{"bike_id":"cbe65030-9ad7-4fb8-b012-47c8e484e98f","system_id":"levelo_inurba_marseille","lat":43.30795,"lon":5.38159,"is_reserved":false,"is_disabled":false,"rental_uris":{"android":"levelo://app?vid=cbe65030-9ad7-4fb8-b012-47c8e484e98f","ios":"levelo://app?vid=cbe65030-9ad7-4fb8-b012-47c8e484e98f"},"vehicle_type_id":"4","last_reported":1745356138,"current_range_meters":4400,"station_id":"ce4bgt12rcd13ifvqce0","pricing_plan_id":"cebpf4jnsgd1na2vs0mg"},{"bike_id":"6359ab19-fac2-46cc-a726-d7b79fadacd8","system_id":"levelo_inurba_marseille","lat":43.26212,"lon":5.37443,"is_reserved":false,"is_disabled":false,"rental_uris":{"android":"levelo://app?vid=6359ab19-fac2-46cc-a726-d7b79fadacd8","ios":"levelo://app?vid=6359ab19-fac2-46cc-a726-d7b79fadacd8"},"vehicle_type_id":"4","last_reported":1745356138,"current_range_meters":4800,"station_id":"ce4bhgp2rcd13ifvqfc0","pricing_plan_id":"cebpf4jnsgd1na2vs0mg"},{"bike_id":"869068f2-7b2a-497b-a78e-a9a5cf8c6a9f","system_id":"levelo_inurba_marseille","lat":43.28845,"lon":5.39298,"is_reserved":false,"is_disabled":false,"rental_uris":{"android":"levelo://app?vid=869068f2-7b2a-497b-a78e-a9a5cf8c6a9f","ios":"levelo://app?vid=869068f2-7b2a-497b-a78e-a9a5cf8c6a9f"},"vehicle_type_id":"4","last_reported":1745356138,"current_range_meters":4800,"station_id":"ce4bh2p2rcd13ifvqdi0","pricing_plan_id":"cebpf4jnsgd1na2vs0mg"},{"bike_id":"c6b9caaf-85ad-42fe-a85b-41a4e6f02d6e","system_id":"levelo_inurba_marseille","lat":43.28416,"lon":5.34987,"is_reserved":false,"is_disabled":false,"rental_uris":{"android":"levelo://app?vid=c6b9caaf-85ad-42fe-a85b-41a4e6f02d6e","ios":"levelo://app?vid=c6b9caaf-85ad-42fe-a85b-41a4e6f02d6e"},"vehicle_type_id":"4","last_reported":1745356138,"current_range_meters":4800,"station_id":"ce4bhbh2rcd13ifvqepg","pricing_plan_id":"cebpf4jnsgd1na2vs0mg"},{"bike_id":"b6e66b51-4cf3-41df-ba02-044bb1d13403","system_id":"levelo_inurba_marseille","lat":43.28336,"lon":5.38101,"is_reserved":false,"is_disabled":true,"rental_uris":{"android":"levelo://app?vid=b6e66b51-4cf3-41df-ba02-044bb1d13403","ios":"levelo://app?vid=b6e66b51-4cf3-41df-ba02-044bb1d13403"},"vehicle_type_id":"4","last_reported":1745356138,"current_range_meters":4800,"station_id":"ce4bh412rcd13ifvqdr0","pricing_plan_id":"cebpf4jnsgd1na2vs0mg"},{"bike_id":"23bb3371-f8d6-481f-8ba8-774c2beb70a9","system_id":"levelo_inurba_marseille","lat":43.29529,"lon":5.38555,"is_reserved":false,"is_disabled":false,"rental_uris":{"android":"levelo://app?vid=23bb3371-f8d6-481f-8ba8-774c2beb70a9","ios":"levelo://app?vid=23bb3371-f8d6-481f-8ba8-774c2beb70a9"},"vehicle_type_id":"4","last_reported":1745356138,"current_range_meters":4800,"station_id":"ce4bgih2rcd13ifvqba0","pricing_plan_id":"cebpf4jnsgd1na2vs0mg"},{"bike_id":"f232544d-a366-4720-8200-0fbeee56940d","system_id":"levelo_inurba_marseille","lat":43.26218,"lon":5.40455,"is_reserved":false,"is_disabled":false,"rental_uris":{"android":"levelo://app?vid=f232544d-a366-4720-8200-0fbeee56940d","ios":"levelo://app?vid=f232544d-a366-4720-8200-0fbeee56940d"},"vehicle_type_id":"4","last_reported":1745356138,"current_range_meters":5600,"station_id":"ce4bhmh2rcd13ifvqgmg","pricing_plan_id":"cebpf4jnsgd1na2vs0mg"},{"bike_id":"07e18311-389c-4cd0-83d3-a5cafbc7a209","system_id":"levelo_inurba_marseille","lat":43.289197,"lon":5.366377,"is_reserved":false,"is_disabled":false,"rental_uris":{"android":"levelo://app?vid=07e18311-389c-4cd0-83d3-a5cafbc7a209","ios":"levelo://app?vid=07e18311-389c-4cd0-83d3-a5cafbc7a209"},"vehicle_type_id":"4","last_reported":1745356138,"current_range_meters":5600,"station_id":"ce4bhap2rcd13ifvqek0","pricing_plan_id":"cebpf4jnsgd1na2vs0mg"},{"bike_id":"526a37d1-d79a-4bda-99ab-f247d15dd55e","system_id":"levelo_inurba_marseille","lat":43.30592,"lon":5.39357,"is_reserved":false,"is_disabled":false,"rental_uris":{"android":"levelo://app?vid=526a37d1-d79a-4bda-99ab-f247d15dd55e","ios":"levelo://app?vid=526a37d1-d79a-4bda-99ab-f247d15dd55e"},"vehicle_type_id":"4","last_reported":1745356138,"current_range_meters":6000,"station_id":"ce4bh0p2rcd13ifvqd80","pricing_plan_id":"cebpf4jnsgd1na2vs0mg"},{"bike_id":"a8836573-6708-43a7-b506-2c81c7063ba2","system_id":"levelo_inurba_marseille","lat":43.25115,"lon":5.40308,"is_reserved":false,"is_disabled":false,"rental_uris":{"android":"levelo://app?vid=a8836573-6708-43a7-b506-2c81c7063ba2","ios":"levelo://app?vid=a8836573-6708-43a7-b506-2c81c7063ba2"},"vehicle_type_id":"4","last_reported":1745356138,"current_range_meters":6000,"station_id":"ce4bhlh2rcd13ifvqgig","pricing_plan_id":"cebpf4jnsgd1na2vs0mg"},{"bike_id":"4b41f586-c1f5-49d8-84d2-13baf5dfb423","system_id":"levelo_inurba_marseille","lat":43.30587,"lon":5.39347,"is_reserved":false,"is_disabled":false,"rental_uris":{"android":"levelo://app?vid=4b41f586-c1f5-49d8-84d2-13baf5dfb423","ios":"levelo://app?vid=4b41f586-c1f5-49d8-84d2-13baf5dfb423"},"vehicle_type_id":"4","last_reported":1745356138,"current_range_meters":6000,"station_id":"ce4bh0p2rcd13ifvqd80","pricing_plan_id":"cebpf4jnsgd1na2vs0mg"},{"bike_id":"da24ae5e-6744-4ba9-8a6c-c375426f57b5","system_id":"levelo_inurba_marseille","lat":43.25117,"lon":5.40333,"is_reserved":false,"is_disabled":false,"rental_uris":{"android":"levelo://app?vid=da24ae5e-6744-4ba9-8a6c-c375426f57b5","ios":"levelo://app?vid=da24ae5e-6744-4ba9-8a6c-c375426f57b5"},"vehicle_type_id":"4","last_reported":1745356138,"current_range_meters":6400,"station_id":"ce4bhlh2rcd13ifvqgig","pricing_plan_id":"cebpf4jnsgd1na2vs0mg"},{"bike_id":"eb613738-fcdb-4c92-a9d3-e5b2de692e33","system_id":"levelo_inurba_marseille","lat":43.22935,"lon":5.3537,"is_reserved":false,"is_disabled":false,"rental_uris":{"android":"levelo://app?vid=eb613738-fcdb-4c92-a9d3-e5b2de692e33","ios":"levelo://app?vid=eb613738-fcdb-4c92-a9d3-e5b2de692e33"},"vehicle_type_id":"4","last_reported":1745356138,"current_range_meters":6400,"station_id":"cpo3532slgdg3j2ikp40","pricing_plan_id":"cebpf4jnsgd1na2vs0mg"},{"bike_id":"d42da8b3-5312-4608-a60b-fef54c0c16d1","system_id":"levelo_inurba_marseille","lat":43.28073,"lon":5.39648,"is_reserved":false,"is_disabled":false,"rental_uris":{"android":"levelo://app?vid=d42da8b3-5312-4608-a60b-fef54c0c16d1","ios":"levelo://app?vid=d42da8b3-5312-4608-a60b-fef54c0c16d1"},"vehicle_type_id":"4","last_reported":1745356138,"current_range_meters":6800,"station_id":"ce4bho12rcd13ifvqh2g","pricing_plan_id":"cebpf4jnsgd1na2vs0mg"},{"bike_id":"6b87ccdc-66bd-42a1-bad7-6615d0405689","system_id":"levelo_inurba_marseille","lat":43.23959,"lon":5.36658,"is_reserved":false,"is_disabled":false,"rental_uris":{"android":"levelo://app?vid=6b87ccdc-66bd-42a1-bad7-6615d0405689","ios":"levelo://app?vid=6b87ccdc-66bd-42a1-bad7-6615d0405689"},"vehicle_type_id":"4","last_reported":1745356138,"current_range_meters":6800,"station_id":"ce4bhi12rcd13ifvqfp0","pricing_plan_id":"cebpf4jnsgd1na2vs0mg"},{"bike_id":"1c755526-7610-4241-9257-348acde561d3","system_id":"levelo_inurba_marseille","lat":43.24858,"lon":5.38211,"is_reserved":false,"is_disabled":false,"rental_uris":{"android":"levelo://app?vid=1c755526-7610-4241-9257-348acde561d3","ios":"levelo://app?vid=1c755526-7610-4241-9257-348acde561d3"},"vehicle_type_id":"4","last_reported":1745356138,"current_range_meters":6800,"station_id":"","pricing_plan_id":"cebpf4jnsgd1na2vs0mg"},{"bike_id":"1624136a-3d78-438c-ad68-3d44580ea0bd","system_id":"levelo_inurba_marseille","lat":43.29045,"lon":5.3996,"is_reserved":false,"is_disabled":false,"rental_uris":{"android":"levelo://app?vid=1624136a-3d78-438c-ad68-3d44580ea0bd","ios":"levelo://app?vid=1624136a-3d78-438c-ad68-3d44580ea0bd"},"vehicle_type_id":"4","last_reported":1745356138,"current_range_meters":6800,"station_id":"ce4bh392rcd13ifvqdm0","pricing_plan_id":"cebpf4jnsgd1na2vs0mg"},{"bike_id":"4de92fcb-5cae-4f4e-a6fa-7c761de0b676","system_id":"levelo_inurba_marseille","lat":43.30031,"lon":5.36727,"is_reserved":false,"is_disabled":false,"rental_uris":{"android":"levelo://app?vid=4de92fcb-5cae-4f4e-a6fa-7c761de0b676","ios":"levelo://app?vid=4de92fcb-5cae-4f4e-a6fa-7c761de0b676"},"vehicle_type_id":"4","last_reported":1745356138,"current_range_meters":7200,"station_id":"","pricing_plan_id":"cebpf4jnsgd1na2vs0mg"},{"bike_id":"ff87b3c6-774a-4043-bc8a-2523570864ac","system_id":"levelo_inurba_marseille","lat":43.32353,"lon":5.38893,"is_reserved":false,"is_disabled":false,"rental_uris":{"android":"levelo://app?vid=ff87b3c6-774a-4043-bc8a-2523570864ac","ios":"levelo://app?vid=ff87b3c6-774a-4043-bc8a-2523570864ac"},"vehicle_type_id":"4","last_reported":1745356138,"current_range_meters":8000,"station_id":"ce4bhqp2rcd13ifvqhog","pricing_plan_id":"cebpf4jnsgd1na2vs0mg"},{"bike_id":"fb2e7efc-6338-43db-9507-a42a3a082b52","system_id":"levelo_inurba_marseille","lat":43.304339,"lon":5.398548,"is_reserved":false,"is_disabled":false,"rental_uris":{"android":"levelo://app?vid=fb2e7efc-6338-43db-9507-a42a3a082b52","ios":"levelo://app?vid=fb2e7efc-6338-43db-9507-a42a3a082b52"},"vehicle_type_id":"4","last_reported":1745356138,"current_range_meters":8000,"station_id":"ce4bh012rcd13ifvqd00","pricing_plan_id":"cebpf4jnsgd1na2vs0mg"},{"bike_id":"28dbeddd-838b-456e-82ff-c5881d62245f","system_id":"levelo_inurba_marseille","lat":43.22935,"lon":5.35405,"is_reserved":false,"is_disabled":false,"rental_uris":{"android":"levelo://app?vid=28dbeddd-838b-456e-82ff-c5881d62245f","ios":"levelo://app?vid=28dbeddd-838b-456e-82ff-c5881d62245f"},"vehicle_type_id":"4","last_reported":1745356138,"current_range_meters":8000,"station_id":"cpo3532slgdg3j2ikp40","pricing_plan_id":"cebpf4jnsgd1na2vs0mg"},{"bike_id":"caf35718-a288-426d-b3ee-cdd4812e4ee6","system_id":"levelo_inurba_marseille","lat":43.29595,"lon":5.38108,"is_reserved":false,"is_disabled":false,"rental_uris":{"android":"levelo://app?vid=caf35718-a288-426d-b3ee-cdd4812e4ee6","ios":"levelo://app?vid=caf35718-a288-426d-b3ee-cdd4812e4ee6"},"vehicle_type_id":"4","last_reported":1745356138,"current_range_meters":8000,"station_id":"ce4bgl12rcd13ifvqbo0","pricing_plan_id":"cebpf4jnsgd1na2vs0mg"},{"bike_id":"49454987-63e1-48fb-8366-812d15a5c496","system_id":"levelo_inurba_marseille","lat":43.24093,"lon":5.37749,"is_reserved":false,"is_disabled":false,"rental_uris":{"android":"levelo://app?vid=49454987-63e1-48fb-8366-812d15a5c496","ios":"levelo://app?vid=49454987-63e1-48fb-8366-812d15a5c496"},"vehicle_type_id":"4","last_reported":1745356138,"current_range_meters":8000,"station_id":"ce4bhnp2rcd13ifvqgvg","pricing_plan_id":"cebpf4jnsgd1na2vs0mg"},{"bike_id":"1b6270aa-1018-436c-b56d-a3e4bc3abdbc","system_id":"levelo_inurba_marseille","lat":43.28013,"lon":5.36932,"is_reserved":false,"is_disabled":false,"rental_uris":{"android":"levelo://app?vid=1b6270aa-1018-436c-b56d-a3e4bc3abdbc","ios":"levelo://app?vid=1b6270aa-1018-436c-b56d-a3e4bc3abdbc"},"vehicle_type_id":"4","last_reported":1745356138,"current_range_meters":8000,"station_id":"ce4bha12rcd13ifvqef0","pricing_plan_id":"cebpf4jnsgd1na2vs0mg"},{"bike_id":"1f605da9-74b3-4f53-96b4-ea59ce51acfc","system_id":"levelo_inurba_marseille","lat":43.31185,"lon":5.41601,"is_reserved":false,"is_disabled":false,"rental_uris":{"android":"levelo://app?vid=1f605da9-74b3-4f53-96b4-ea59ce51acfc","ios":"levelo://app?vid=1f605da9-74b3-4f53-96b4-ea59ce51acfc"},"vehicle_type_id":"4","last_reported":1745356138,"current_range_meters":8000,"station_id":"","pricing_plan_id":"cebpf4jnsgd1na2vs0mg"},{"bike_id":"f882010f-ebbf-4f14-a8a8-858fc3192343","system_id":"levelo_inurba_marseille","lat":43.26228,"lon":5.40453,"is_reserved":false,"is_disabled":false,"rental_uris":{"android":"levelo://app?vid=f882010f-ebbf-4f14-a8a8-858fc3192343","ios":"levelo://app?vid=f882010f-ebbf-4f14-a8a8-858fc3192343"},"vehicle_type_id":"4","last_reported":1745356138,"current_range_meters":8000,"station_id":"ce4bhmh2rcd13ifvqgmg","pricing_plan_id":"cebpf4jnsgd1na2vs0mg"},{"bike_id":"69ecf07d-629c-47f5-805a-ad849438e87b","system_id":"levelo_inurba_marseille","lat":43.30952,"lon":5.39036,"is_reserved":false,"is_disabled":false,"rental_uris":{"android":"levelo://app?vid=69ecf07d-629c-47f5-805a-ad849438e87b","ios":"levelo://app?vid=69ecf07d-629c-47f5-805a-ad849438e87b"},"vehicle_type_id":"4","last_reported":1745356138,"current_range_meters":8000,"station_id":"ce4bgup2rcd13ifvqco0","pricing_plan_id":"cebpf4jnsgd1na2vs0mg"},{"bike_id":"3a978624-d3a6-4f0e-b9f7-3879a24f998c","system_id":"levelo_inurba_marseille","lat":43.280805,"lon":5.39659,"is_reserved":false,"is_disabled":false,"rental_uris":{"android":"levelo://app?vid=3a978624-d3a6-4f0e-b9f7-3879a24f998c","ios":"levelo://app?vid=3a978624-d3a6-4f0e-b9f7-3879a24f998c"},"vehicle_type_id":"4","last_reported":1745356138,"current_range_meters":8000,"station_id":"ce4bho12rcd13ifvqh2g","pricing_plan_id":"cebpf4jnsgd1na2vs0mg"},{"bike_id":"22e3ed21-936d-4292-a78f-e871a8bbc15e","system_id":"levelo_inurba_marseille","lat":43.32087,"lon":5.41548,"is_reserved":false,"is_disabled":false,"rental_uris":{"android":"levelo://app?vid=22e3ed21-936d-4292-a78f-e871a8bbc15e","ios":"levelo://app?vid=22e3ed21-936d-4292-a78f-e871a8bbc15e"},"vehicle_type_id":"4","last_reported":1745356138,"current_range_meters":8400,"station_id":"ce4bhq92rcd13ifvqhkg","pricing_plan_id":"cebpf4jnsgd1na2vs0mg"},{"bike_id":"bc83546f-7cd9-4965-a046-33cef33ed298","system_id":"levelo_inurba_marseille","lat":43.30354,"lon":5.41877,"is_reserved":false,"is_disabled":false,"rental_uris":{"android":"levelo://app?vid=bc83546f-7cd9-4965-a046-33cef33ed298","ios":"levelo://app?vid=bc83546f-7cd9-4965-a046-33cef33ed298"},"vehicle_type_id":"4","last_reported":1745356138,"current_range_meters":8400,"station_id":"ce4bhop2rcd13ifvqh7g","pricing_plan_id":"cebpf4jnsgd1na2vs0mg"},{"bike_id":"6604993b-aba8-465b-953d-c4bbe6c429f6","system_id":"levelo_inurba_marseille","lat":43.26353,"lon":5.39642,"is_reserved":false,"is_disabled":false,"rental_uris":{"android":"levelo://app?vid=6604993b-aba8-465b-953d-c4bbe6c429f6","ios":"levelo://app?vid=6604993b-aba8-465b-953d-c4bbe6c429f6"},"vehicle_type_id":"4","last_reported":1745356138,"current_range_meters":8400,"station_id":"","pricing_plan_id":"cebpf4jnsgd1na2vs0mg"},{"bike_id":"1a186c39-c0e9-4422-8c96-3160028b5a76","system_id":"levelo_inurba_marseille","lat":43.28986,"lon":5.3783,"is_reserved":false,"is_disabled":false,"rental_uris":{"android":"levelo://app?vid=1a186c39-c0e9-4422-8c96-3160028b5a76","ios":"levelo://app?vid=1a186c39-c0e9-4422-8c96-3160028b5a76"},"vehicle_type_id":"4","last_reported":1745356138,"current_range_meters":8400,"station_id":"ce4bh9p2rcd13ifvqed0","pricing_plan_id":"cebpf4jnsgd1na2vs0mg"},{"bike_id":"2dc4e79a-33a8-48b0-bf03-f6328f1dc1f6","system_id":"levelo_inurba_marseille","lat":43.32364,"lon":5.38896,"is_reserved":false,"is_disabled":true,"rental_uris":{"android":"levelo://app?vid=2dc4e79a-33a8-48b0-bf03-f6328f1dc1f6","ios":"levelo://app?vid=2dc4e79a-33a8-48b0-bf03-f6328f1dc1f6"},"vehicle_type_id":"4","last_reported":1745356138,"current_range_meters":8800,"station_id":"ce4bhqp2rcd13ifvqhog","pricing_plan_id":"cebpf4jnsgd1na2vs0mg"},{"bike_id":"c1d6e6a7-33c5-4405-a4a7-39a5701a1992","system_id":"levelo_inurba_marseille","lat":43.29312,"lon":5.37184,"is_reserved":false,"is_disabled":true,"rental_uris":{"android":"levelo://app?vid=c1d6e6a7-33c5-4405-a4a7-39a5701a1992","ios":"levelo://app?vid=c1d6e6a7-33c5-4405-a4a7-39a5701a1992"},"vehicle_type_id":"4","last_reported":1745356138,"current_range_meters":8800,"station_id":"ce4bgh92rcd13ifvqb40","pricing_plan_id":"cebpf4jnsgd1na2vs0mg"},{"bike_id":"04ba535b-8a2f-4de2-86f4-d626701bd0a3","system_id":"levelo_inurba_marseille","lat":43.25874,"lon":5.3989,"is_reserved":false,"is_disabled":false,"rental_uris":{"android":"levelo://app?vid=04ba535b-8a2f-4de2-86f4-d626701bd0a3","ios":"levelo://app?vid=04ba535b-8a2f-4de2-86f4-d626701bd0a3"},"vehicle_type_id":"4","last_reported":1745356138,"current_range_meters":8800,"station_id":"ce4bhl92rcd13ifvqghg","pricing_plan_id":"cebpf4jnsgd1na2vs0mg"},{"bike_id":"e398c7f5-3587-459f-99fe-8a326e7304d0","system_id":"levelo_inurba_marseille","lat":43.23186,"lon":5.39992,"is_reserved":false,"is_disabled":false,"rental_uris":{"android":"levelo://app?vid=e398c7f5-3587-459f-99fe-8a326e7304d0","ios":"levelo://app?vid=e398c7f5-3587-459f-99fe-8a326e7304d0"},"vehicle_type_id":"4","last_reported":1745356138,"current_range_meters":8800,"station_id":"ce4bhn12rcd13ifvqgqg","pricing_plan_id":"cebpf4jnsgd1na2vs0mg"},{"bike_id":"d8d27387-fb66-4c0a-90dc-eef7a69dc87d","system_id":"levelo_inurba_marseille","lat":43.2119,"lon":5.35106,"is_reserved":false,"is_disabled":false,"rental_uris":{"android":"levelo://app?vid=d8d27387-fb66-4c0a-90dc-eef7a69dc87d","ios":"levelo://app?vid=d8d27387-fb66-4c0a-90dc-eef7a69dc87d"},"vehicle_type_id":"4","last_reported":1745356138,"current_range_meters":8800,"station_id":"ce4bgh92rcd13ifvqb40","pricing_plan_id":"cebpf4jnsgd1na2vs0mg"},{"bike_id":"15de27a9-dd72-4ea4-bde9-75d6aa3004b2","system_id":"levelo_inurba_marseille","lat":43.32562,"lon":5.37491,"is_reserved":false,"is_disabled":false,"rental_uris":{"android":"levelo://app?vid=15de27a9-dd72-4ea4-bde9-75d6aa3004b2","ios":"levelo://app?vid=15de27a9-dd72-4ea4-bde9-75d6aa3004b2"},"vehicle_type_id":"4","last_reported":1745356138,"current_range_meters":9200,"station_id":"","pricing_plan_id":"cebpf4jnsgd1na2vs0mg"},{"bike_id":"eabb423f-6078-4e92-b1ee-d0cb757f0e24","system_id":"levelo_inurba_marseille","lat":43.29437,"lon":5.39758,"is_reserved":false,"is_disabled":false,"rental_uris":{"android":"levelo://app?vid=eabb423f-6078-4e92-b1ee-d0cb757f0e24","ios":"levelo://app?vid=eabb423f-6078-4e92-b1ee-d0cb757f0e24"},"vehicle_type_id":"4","last_reported":1745356138,"current_range_meters":9200,"station_id":"ce4bh3h2rcd13ifvqdo0","pricing_plan_id":"cebpf4jnsgd1na2vs0mg"},{"bike_id":"ecbdb4d8-c80c-4a11-b50b-aff98695a59d","system_id":"levelo_inurba_marseille","lat":43.27899,"lon":5.39594,"is_reserved":false,"is_disabled":false,"rental_uris":{"android":"levelo://app?vid=ecbdb4d8-c80c-4a11-b50b-aff98695a59d","ios":"levelo://app?vid=ecbdb4d8-c80c-4a11-b50b-aff98695a59d"},"vehicle_type_id":"4","last_reported":1745356138,"current_range_meters":9200,"station_id":"ce4bhf92rcd13ifvqf40","pricing_plan_id":"cebpf4jnsgd1na2vs0mg"},{"bike_id":"5998d8fc-5a1e-406c-9371-48ef06c26faf","system_id":"levelo_inurba_marseille","lat":43.29528,"lon":5.38534,"is_reserved":false,"is_disabled":false,"rental_uris":{"android":"levelo://app?vid=5998d8fc-5a1e-406c-9371-48ef06c26faf","ios":"levelo://app?vid=5998d8fc-5a1e-406c-9371-48ef06c26faf"},"vehicle_type_id":"4","last_reported":1745356138,"current_range_meters":9600,"station_id":"ce4bgih2rcd13ifvqba0","pricing_plan_id":"cebpf4jnsgd1na2vs0mg"},{"bike_id":"a45ae1a9-c8cc-4065-9f5d-cdcd6714c67f","system_id":"levelo_inurba_marseille","lat":43.33728,"lon":5.39191,"is_reserved":false,"is_disabled":false,"rental_uris":{"android":"levelo://app?vid=a45ae1a9-c8cc-4065-9f5d-cdcd6714c67f","ios":"levelo://app?vid=a45ae1a9-c8cc-4065-9f5d-cdcd6714c67f"},"vehicle_type_id":"4","last_reported":1745356138,"current_range_meters":9600,"station_id":"ce4bhr92rcd13ifvqhsg","pricing_plan_id":"cebpf4jnsgd1na2vs0mg"},{"bike_id":"81d77fcb-8f24-4079-9c51-181359394190","system_id":"levelo_inurba_marseille","lat":43.28614,"lon":5.35099,"is_reserved":false,"is_disabled":false,"rental_uris":{"android":"levelo://app?vid=81d77fcb-8f24-4079-9c51-181359394190","ios":"levelo://app?vid=81d77fcb-8f24-4079-9c51-181359394190"},"vehicle_type_id":"4","last_reported":1745356138,"current_range_meters":9600,"station_id":"ce4bhch2rcd13ifvqeug","pricing_plan_id":"cebpf4jnsgd1na2vs0mg"},{"bike_id":"459e238e-2891-410f-a474-5c41002bc254","system_id":"levelo_inurba_marseille","lat":43.29259,"lon":5.40903,"is_reserved":false,"is_disabled":false,"rental_uris":{"android":"levelo://app?vid=459e238e-2891-410f-a474-5c41002bc254","ios":"levelo://app?vid=459e238e-2891-410f-a474-5c41002bc254"},"vehicle_type_id":"4","last_reported":1745356138,"current_range_meters":9600,"station_id":"ce4bh192rcd13ifvqdc0","pricing_plan_id":"cebpf4jnsgd1na2vs0mg"},{"bike_id":"0f096d43-159b-4751-ac7b-1b5783ddd025","system_id":"levelo_inurba_marseille","lat":43.25114,"lon":5.40319,"is_reserved":false,"is_disabled":false,"rental_uris":{"android":"levelo://app?vid=0f096d43-159b-4751-ac7b-1b5783ddd025","ios":"levelo://app?vid=0f096d43-159b-4751-ac7b-1b5783ddd025"},"vehicle_type_id":"4","last_reported":1745356138,"current_range_meters":9600,"station_id":"ce4bhlh2rcd13ifvqgig","pricing_plan_id":"cebpf4jnsgd1na2vs0mg"},{"bike_id":"0edd0516-c62c-4685-98ce-3c60046dc81d","system_id":"levelo_inurba_marseille","lat":43.3032,"lon":5.40433,"is_reserved":false,"is_disabled":false,"rental_uris":{"android":"levelo://app?vid=0edd0516-c62c-4685-98ce-3c60046dc81d","ios":"levelo://app?vid=0edd0516-c62c-4685-98ce-3c60046dc81d"},"vehicle_type_id":"4","last_reported":1745356138,"current_range_meters":9600,"station_id":"ce4bh012rcd13ifvqd10","pricing_plan_id":"cebpf4jnsgd1na2vs0mg"},{"bike_id":"953cf4f7-f476-4d54-8e3c-cb82e5fb43bc","system_id":"levelo_inurba_marseille","lat":43.30889,"lon":5.372,"is_reserved":false,"is_disabled":false,"rental_uris":{"android":"levelo://app?vid=953cf4f7-f476-4d54-8e3c-cb82e5fb43bc","ios":"levelo://app?vid=953cf4f7-f476-4d54-8e3c-cb82e5fb43bc"},"vehicle_type_id":"4","last_reported":1745356138,"current_range_meters":9600,"station_id":"ce4bguh2rcd13ifvqckg","pricing_plan_id":"cebpf4jnsgd1na2vs0mg"},{"bike_id":"16fc8586-ee6f-4dcd-aa11-7776ae64bb27","system_id":"levelo_inurba_marseille","lat":43.2607,"lon":5.39395,"is_reserved":false,"is_disabled":false,"rental_uris":{"android":"levelo://app?vid=16fc8586-ee6f-4dcd-aa11-7776ae64bb27","ios":"levelo://app?vid=16fc8586-ee6f-4dcd-aa11-7776ae64bb27"},"vehicle_type_id":"4","last_reported":1745356138,"current_range_meters":9600,"station_id":"ce4bhh92rcd13ifvqfj0","pricing_plan_id":"cebpf4jnsgd1na2vs0mg"},{"bike_id":"0423c9dc-3e51-463a-b8dd-bb9257ea7b74","system_id":"levelo_inurba_marseille","lat":43.2886,"lon":5.35855,"is_reserved":false,"is_disabled":false,"rental_uris":{"android":"levelo://app?vid=0423c9dc-3e51-463a-b8dd-bb9257ea7b74","ios":"levelo://app?vid=0423c9dc-3e51-463a-b8dd-bb9257ea7b74"},"vehicle_type_id":"4","last_reported":1745356138,"current_range_meters":10000,"station_id":"ce4bhb12rcd13ifvqem0","pricing_plan_id":"cebpf4jnsgd1na2vs0mg"},{"bike_id":"a93b798e-b788-4fed-a455-cac7895dd43a","system_id":"levelo_inurba_marseille","lat":43.32343,"lon":5.40623,"is_reserved":false,"is_disabled":false,"rental_uris":{"android":"levelo://app?vid=a93b798e-b788-4fed-a455-cac7895dd43a","ios":"levelo://app?vid=a93b798e-b788-4fed-a455-cac7895dd43a"},"vehicle_type_id":"4","last_reported":1745356138,"current_range_meters":10000,"station_id":"ce4bhq92rcd13ifvqhjg","pricing_plan_id":"cebpf4jnsgd1na2vs0mg"},{"bike_id":"70671536-b2e1-456c-8bd8-7804b348f9fc","system_id":"levelo_inurba_marseille","lat":43.312005,"lon":5.416111,"is_reserved":false,"is_disabled":false,"rental_uris":{"android":"levelo://app?vid=70671536-b2e1-456c-8bd8-7804b348f9fc","ios":"levelo://app?vid=70671536-b2e1-456c-8bd8-7804b348f9fc"},"vehicle_type_id":"4","last_reported":1745356138,"current_range_meters":10000,"station_id":"","pricing_plan_id":"cebpf4jnsgd1na2vs0mg"},{"bike_id":"f416d0ef-f853-49ab-9358-9525a7ed6c57","system_id":"levelo_inurba_marseille","lat":43.31999,"lon":5.38154,"is_reserved":false,"is_disabled":false,"rental_uris":{"android":"levelo://app?vid=f416d0ef-f853-49ab-9358-9525a7ed6c57","ios":"levelo://app?vid=f416d0ef-f853-49ab-9358-9525a7ed6c57"},"vehicle_type_id":"4","last_reported":1745356138,"current_range_meters":10000,"station_id":"ce4bhr12rcd13ifvqhpg","pricing_plan_id":"cebpf4jnsgd1na2vs0mg"},{"bike_id":"eb2e117a-f2b3-4057-b19f-2c65178c27a6","system_id":"levelo_inurba_marseille","lat":43.28663,"lon":5.36349,"is_reserved":false,"is_disabled":false,"rental_uris":{"android":"levelo://app?vid=eb2e117a-f2b3-4057-b19f-2c65178c27a6","ios":"levelo://app?vid=eb2e117a-f2b3-4057-b19f-2c65178c27a6"},"vehicle_type_id":"4","last_reported":1745356138,"current_range_meters":10000,"station_id":"ce4bhah2rcd13ifvqej0","pricing_plan_id":"cebpf4jnsgd1na2vs0mg"},{"bike_id":"7feed048-446b-4184-86b1-00f6eb29920f","system_id":"levelo_inurba_marseille","lat":43.24386,"lon":5.370513,"is_reserved":false,"is_disabled":false,"rental_uris":{"android":"levelo://app?vid=7feed048-446b-4184-86b1-00f6eb29920f","ios":"levelo://app?vid=7feed048-446b-4184-86b1-00f6eb29920f"},"vehicle_type_id":"4","last_reported":1745356138,"current_range_meters":10000,"station_id":"ce4bhhh2rcd13ifvqfk0","pricing_plan_id":"cebpf4jnsgd1na2vs0mg"},{"bike_id":"9955afde-6d4b-4dfb-9249-7e1b507b3c52","system_id":"levelo_inurba_marseille","lat":43.250861,"lon":5.395149,"is_reserved":false,"is_disabled":false,"rental_uris":{"android":"levelo://app?vid=9955afde-6d4b-4dfb-9249-7e1b507b3c52","ios":"levelo://app?vid=9955afde-6d4b-4dfb-9249-7e1b507b3c52"},"vehicle_type_id":"4","last_reported":1745356138,"current_range_meters":10800,"station_id":"ce4bhm12rcd13ifvqgkg","pricing_plan_id":"cebpf4jnsgd1na2vs0mg"},{"bike_id":"0d1ebedd-3512-4ce4-87fe-745c17edfd96","system_id":"levelo_inurba_marseille","lat":43.27876,"lon":5.35452,"is_reserved":false,"is_disabled":true,"rental_uris":{"android":"levelo://app?vid=0d1ebedd-3512-4ce4-87fe-745c17edfd96","ios":"levelo://app?vid=0d1ebedd-3512-4ce4-87fe-745c17edfd96"},"vehicle_type_id":"4","last_reported":1745356138,"current_range_meters":10800,"station_id":"","pricing_plan_id":"cebpf4jnsgd1na2vs0mg"},{"bike_id":"f1300840-291d-4ece-a09c-172514b0678c","system_id":"levelo_inurba_marseille","lat":43.294536,"lon":5.397575,"is_reserved":false,"is_disabled":true,"rental_uris":{"android":"levelo://app?vid=f1300840-291d-4ece-a09c-172514b0678c","ios":"levelo://app?vid=f1300840-291d-4ece-a09c-172514b0678c"},"vehicle_type_id":"4","last_reported":1745356138,"current_range_meters":10800,"station_id":"ce4bh3h2rcd13ifvqdo0","pricing_plan_id":"cebpf4jnsgd1na2vs0mg"},{"bike_id":"0d1f0141-9aa5-464e-916a-ab00d8032cdb","system_id":"levelo_inurba_marseille","lat":43.30466,"lon":5.37912,"is_reserved":false,"is_disabled":false,"rental_uris":{"android":"levelo://app?vid=0d1f0141-9aa5-464e-916a-ab00d8032cdb","ios":"levelo://app?vid=0d1f0141-9aa5-464e-916a-ab00d8032cdb"},"vehicle_type_id":"4","last_reported":1745356138,"current_range_meters":10800,"station_id":"ce4bgup2rcd13ifvqcn0","pricing_plan_id":"cebpf4jnsgd1na2vs0mg"},{"bike_id":"cde58abb-e471-49a0-b5b1-fcfce4e67920","system_id":"levelo_inurba_marseille","lat":43.32001,"lon":5.38141,"is_reserved":false,"is_disabled":false,"rental_uris":{"android":"levelo://app?vid=cde58abb-e471-49a0-b5b1-fcfce4e67920","ios":"levelo://app?vid=cde58abb-e471-49a0-b5b1-fcfce4e67920"},"vehicle_type_id":"4","last_reported":1745356138,"current_range_meters":10800,"station_id":"ce4bhr12rcd13ifvqhpg","pricing_plan_id":"cebpf4jnsgd1na2vs0mg"},{"bike_id":"47768a28-4fff-4fc1-b4c4-b5ec8d452deb","system_id":"levelo_inurba_marseille","lat":43.29591,"lon":5.38095,"is_reserved":false,"is_disabled":true,"rental_uris":{"android":"levelo://app?vid=47768a28-4fff-4fc1-b4c4-b5ec8d452deb","ios":"levelo://app?vid=47768a28-4fff-4fc1-b4c4-b5ec8d452deb"},"vehicle_type_id":"4","last_reported":1745356138,"current_range_meters":10800,"station_id":"ce4bgl12rcd13ifvqbo0","pricing_plan_id":"cebpf4jnsgd1na2vs0mg"},{"bike_id":"b3086abf-bb22-45c4-9b1f-7b184b297aee","system_id":"levelo_inurba_marseille","lat":43.26492,"lon":5.3953,"is_reserved":false,"is_disabled":false,"rental_uris":{"android":"levelo://app?vid=b3086abf-bb22-45c4-9b1f-7b184b297aee","ios":"levelo://app?vid=b3086abf-bb22-45c4-9b1f-7b184b297aee"},"vehicle_type_id":"4","last_reported":1745356138,"current_range_meters":10800,"station_id":"ce4bhi12rcd13ifvqfq0","pricing_plan_id":"cebpf4jnsgd1na2vs0mg"},{"bike_id":"f912db2b-6a7d-49cf-b3de-1f63d7acb852","system_id":"levelo_inurba_marseille","lat":43.29868,"lon":5.39737,"is_reserved":false,"is_disabled":false,"rental_uris":{"android":"levelo://app?vid=f912db2b-6a7d-49cf-b3de-1f63d7acb852","ios":"levelo://app?vid=f912db2b-6a7d-49cf-b3de-1f63d7acb852"},"vehicle_type_id":"4","last_reported":1745356138,"current_range_meters":10800,"station_id":"ce4bh0h2rcd13ifvqd50","pricing_plan_id":"cebpf4jnsgd1na2vs0mg"},{"bike_id":"febbc2fd-718a-491b-ad0a-b134be334ec1","system_id":"levelo_inurba_marseille","lat":43.28949,"lon":5.3662,"is_reserved":false,"is_disabled":false,"rental_uris":{"android":"levelo://app?vid=febbc2fd-718a-491b-ad0a-b134be334ec1","ios":"levelo://app?vid=febbc2fd-718a-491b-ad0a-b134be334ec1"},"vehicle_type_id":"4","last_reported":1745356138,"current_range_meters":10800,"station_id":"ce4bhap2rcd13ifvqek0","pricing_plan_id":"cebpf4jnsgd1na2vs0mg"},{"bike_id":"d5fa6a7e-ae6f-48cd-8dc8-6ec1473fc099","system_id":"levelo_inurba_marseille","lat":43.313699,"lon":5.367116,"is_reserved":false,"is_disabled":true,"rental_uris":{"android":"levelo://app?vid=d5fa6a7e-ae6f-48cd-8dc8-6ec1473fc099","ios":"levelo://app?vid=d5fa6a7e-ae6f-48cd-8dc8-6ec1473fc099"},"vehicle_type_id":"4","last_reported":1745356138,"current_range_meters":10800,"station_id":"ce4bgr92rcd13ifvqc6g","pricing_plan_id":"cebpf4jnsgd1na2vs0mg"},{"bike_id":"192e5b58-fdd0-4d69-8650-e31ffe281e6a","system_id":"levelo_inurba_marseille","lat":43.295338,"lon":5.385319,"is_reserved":false,"is_disabled":false,"rental_uris":{"android":"levelo://app?vid=192e5b58-fdd0-4d69-8650-e31ffe281e6a","ios":"levelo://app?vid=192e5b58-fdd0-4d69-8650-e31ffe281e6a"},"vehicle_type_id":"4","last_reported":1745356138,"current_range_meters":10800,"station_id":"ce4bgih2rcd13ifvqba0","pricing_plan_id":"cebpf4jnsgd1na2vs0mg"},{"bike_id":"2a371e7f-3ee7-4b1b-b24e-7e5bd3d0e0e8","system_id":"levelo_inurba_marseille","lat":43.30304,"lon":5.39196,"is_reserved":false,"is_disabled":false,"rental_uris":{"android":"levelo://app?vid=2a371e7f-3ee7-4b1b-b24e-7e5bd3d0e0e8","ios":"levelo://app?vid=2a371e7f-3ee7-4b1b-b24e-7e5bd3d0e0e8"},"vehicle_type_id":"4","last_reported":1745356138,"current_range_meters":11200,"station_id":"ce4bgkh2rcd13ifvqbk0","pricing_plan_id":"cebpf4jnsgd1na2vs0mg"},{"bike_id":"c10256a6-8742-4a70-8e64-f2c56713d90b","system_id":"levelo_inurba_marseille","lat":43.2842,"lon":5.37514,"is_reserved":false,"is_disabled":false,"rental_uris":{"android":"levelo://app?vid=c10256a6-8742-4a70-8e64-f2c56713d90b","ios":"levelo://app?vid=c10256a6-8742-4a70-8e64-f2c56713d90b"},"vehicle_type_id":"4","last_reported":1745356138,"current_range_meters":11200,"station_id":"ce4bh412rcd13ifvqds0","pricing_plan_id":"cebpf4jnsgd1na2vs0mg"},{"bike_id":"ecd9c509-3120-4166-8927-f60518d66aaa","system_id":"levelo_inurba_marseille","lat":43.29539,"lon":5.39373,"is_reserved":false,"is_disabled":true,"rental_uris":{"android":"levelo://app?vid=ecd9c509-3120-4166-8927-f60518d66aaa","ios":"levelo://app?vid=ecd9c509-3120-4166-8927-f60518d66aaa"},"vehicle_type_id":"4","last_reported":1745356138,"current_range_meters":11200,"station_id":"ce4bh292rcd13ifvqdf0","pricing_plan_id":"cebpf4jnsgd1na2vs0mg"},{"bike_id":"d5792b7b-f82b-46ee-81a3-5e128342d580","system_id":"levelo_inurba_marseille","lat":43.28103,"lon":5.37838,"is_reserved":false,"is_disabled":false,"rental_uris":{"android":"levelo://app?vid=d5792b7b-f82b-46ee-81a3-5e128342d580","ios":"levelo://app?vid=d5792b7b-f82b-46ee-81a3-5e128342d580"},"vehicle_type_id":"4","last_reported":1745356138,"current_range_meters":11600,"station_id":"ce4bha12rcd13ifvqee0","pricing_plan_id":"cebpf4jnsgd1na2vs0mg"},{"bike_id":"8da45441-0f39-4665-ba43-cdfddf67fe67","system_id":"levelo_inurba_marseille","lat":43.33007,"lon":5.43847,"is_reserved":false,"is_disabled":false,"rental_uris":{"android":"levelo://app?vid=8da45441-0f39-4665-ba43-cdfddf67fe67","ios":"levelo://app?vid=8da45441-0f39-4665-ba43-cdfddf67fe67"},"vehicle_type_id":"4","last_reported":1745356138,"current_range_meters":11600,"station_id":"","pricing_plan_id":"cebpf4jnsgd1na2vs0mg"},{"bike_id":"04e7ef20-6f3c-45c7-abbf-bbc81edf1116","system_id":"levelo_inurba_marseille","lat":43.28676,"lon":5.36358,"is_reserved":false,"is_disabled":false,"rental_uris":{"android":"levelo://app?vid=04e7ef20-6f3c-45c7-abbf-bbc81edf1116","ios":"levelo://app?vid=04e7ef20-6f3c-45c7-abbf-bbc81edf1116"},"vehicle_type_id":"4","last_reported":1745356138,"current_range_meters":11600,"station_id":"ce4bhah2rcd13ifvqej0","pricing_plan_id":"cebpf4jnsgd1na2vs0mg"},{"bike_id":"a756bae3-49c1-4d6c-89e8-fcb7b0e7d2e2","system_id":"levelo_inurba_marseille","lat":43.29034,"lon":5.35925,"is_reserved":false,"is_disabled":true,"rental_uris":{"android":"levelo://app?vid=a756bae3-49c1-4d6c-89e8-fcb7b0e7d2e2","ios":"levelo://app?vid=a756bae3-49c1-4d6c-89e8-fcb7b0e7d2e2"},"vehicle_type_id":"4","last_reported":1745356138,"current_range_meters":11600,"station_id":"ce4bha92rcd13ifvqeg0","pricing_plan_id":"cebpf4jnsgd1na2vs0mg"},{"bike_id":"569ae23c-e2d7-4466-bfb0-c675586f3d62","system_id":"levelo_inurba_marseille","lat":43.28388,"lon":5.41819,"is_reserved":false,"is_disabled":false,"rental_uris":{"android":"levelo://app?vid=569ae23c-e2d7-4466-bfb0-c675586f3d62","ios":"levelo://app?vid=569ae23c-e2d7-4466-bfb0-c675586f3d62"},"vehicle_type_id":"4","last_reported":1745356138,"current_range_meters":11600,"station_id":"","pricing_plan_id":"cebpf4jnsgd1na2vs0mg"},{"bike_id":"7b5fcd09-e9e6-46ab-899e-aad97ee2462a","system_id":"levelo_inurba_marseille","lat":43.28349,"lon":5.38102,"is_reserved":false,"is_disabled":false,"rental_uris":{"android":"levelo://app?vid=7b5fcd09-e9e6-46ab-899e-aad97ee2462a","ios":"levelo://app?vid=7b5fcd09-e9e6-46ab-899e-aad97ee2462a"},"vehicle_type_id":"4","last_reported":1745356138,"current_range_meters":11600,"station_id":"ce4bh412rcd13ifvqdr0","pricing_plan_id":"cebpf4jnsgd1na2vs0mg"},{"bike_id":"7da1f6aa-31c3-4266-959d-331273be0b6c","system_id":"levelo_inurba_marseille","lat":43.310787,"lon":5.383469,"is_reserved":false,"is_disabled":false,"rental_uris":{"android":"levelo://app?vid=7da1f6aa-31c3-4266-959d-331273be0b6c","ios":"levelo://app?vid=7da1f6aa-31c3-4266-959d-331273be0b6c"},"vehicle_type_id":"4","last_reported":1745356138,"current_range_meters":11600,"station_id":"ce4bgv92rcd13ifvqcr0","pricing_plan_id":"cebpf4jnsgd1na2vs0mg"},{"bike_id":"844be68e-d7b5-4dd7-b525-b360580986fe","system_id":"levelo_inurba_marseille","lat":43.30873,"lon":5.39637,"is_reserved":false,"is_disabled":false,"rental_uris":{"android":"levelo://app?vid=844be68e-d7b5-4dd7-b525-b360580986fe","ios":"levelo://app?vid=844be68e-d7b5-4dd7-b525-b360580986fe"},"vehicle_type_id":"4","last_reported":1745356138,"current_range_meters":11600,"station_id":"ce4bh012rcd13ifvqcv0","pricing_plan_id":"cebpf4jnsgd1na2vs0mg"},{"bike_id":"0eae27b2-17db-4d87-abf7-494059b17410","system_id":"levelo_inurba_marseille","lat":43.25087,"lon":5.39521,"is_reserved":false,"is_disabled":false,"rental_uris":{"android":"levelo://app?vid=0eae27b2-17db-4d87-abf7-494059b17410","ios":"levelo://app?vid=0eae27b2-17db-4d87-abf7-494059b17410"},"vehicle_type_id":"4","last_reported":1745356138,"current_range_meters":11600,"station_id":"","pricing_plan_id":"cebpf4jnsgd1na2vs0mg"},{"bike_id":"4ffb491f-099a-46f4-b062-324b1005b615","system_id":"levelo_inurba_marseille","lat":43.3107,"lon":5.3834,"is_reserved":false,"is_disabled":false,"rental_uris":{"android":"levelo://app?vid=4ffb491f-099a-46f4-b062-324b1005b615","ios":"levelo://app?vid=4ffb491f-099a-46f4-b062-324b1005b615"},"vehicle_type_id":"4","last_reported":1745356138,"current_range_meters":11600,"station_id":"ce4bgv92rcd13ifvqcr0","pricing_plan_id":"cebpf4jnsgd1na2vs0mg"},{"bike_id":"a551c055-6a69-4f98-b853-6b97ca50c4f0","system_id":"levelo_inurba_marseille","lat":43.30082,"lon":5.39107,"is_reserved":false,"is_disabled":false,"rental_uris":{"android":"levelo://app?vid=a551c055-6a69-4f98-b853-6b97ca50c4f0","ios":"levelo://app?vid=a551c055-6a69-4f98-b853-6b97ca50c4f0"},"vehicle_type_id":"4","last_reported":1745356138,"current_range_meters":11600,"station_id":"ce4bh192rcd13ifvqdb0","pricing_plan_id":"cebpf4jnsgd1na2vs0mg"},{"bike_id":"c084153a-d378-4bc7-b059-665ff2008ae1","system_id":"levelo_inurba_marseille","lat":43.2508,"lon":5.39504,"is_reserved":false,"is_disabled":false,"rental_uris":{"android":"levelo://app?vid=c084153a-d378-4bc7-b059-665ff2008ae1","ios":"levelo://app?vid=c084153a-d378-4bc7-b059-665ff2008ae1"},"vehicle_type_id":"4","last_reported":1745356138,"current_range_meters":12000,"station_id":"ce4bhm12rcd13ifvqgkg","pricing_plan_id":"cebpf4jnsgd1na2vs0mg"},{"bike_id":"dfa00e81-f24d-4799-a072-5c5b4e571bc5","system_id":"levelo_inurba_marseille","lat":43.28666,"lon":5.36356,"is_reserved":false,"is_disabled":false,"rental_uris":{"android":"levelo://app?vid=dfa00e81-f24d-4799-a072-5c5b4e571bc5","ios":"levelo://app?vid=dfa00e81-f24d-4799-a072-5c5b4e571bc5"},"vehicle_type_id":"4","last_reported":1745356138,"current_range_meters":12000,"station_id":"ce4bhah2rcd13ifvqej0","pricing_plan_id":"cebpf4jnsgd1na2vs0mg"},{"bike_id":"f98bcad6-534d-4647-9654-acf13ee2a765","system_id":"levelo_inurba_marseille","lat":43.31973,"lon":5.371,"is_reserved":false,"is_disabled":false,"rental_uris":{"android":"levelo://app?vid=f98bcad6-534d-4647-9654-acf13ee2a765","ios":"levelo://app?vid=f98bcad6-534d-4647-9654-acf13ee2a765"},"vehicle_type_id":"4","last_reported":1745356138,"current_range_meters":12000,"station_id":"","pricing_plan_id":"cebpf4jnsgd1na2vs0mg"},{"bike_id":"0c2531e4-dafa-4614-aa06-b7f62c5055f8","system_id":"levelo_inurba_marseille","lat":43.261966,"lon":5.379226,"is_reserved":false,"is_disabled":false,"rental_uris":{"android":"levelo://app?vid=0c2531e4-dafa-4614-aa06-b7f62c5055f8","ios":"levelo://app?vid=0c2531e4-dafa-4614-aa06-b7f62c5055f8"},"vehicle_type_id":"4","last_reported":1745356138,"current_range_meters":12000,"station_id":"ce4bhjp2rcd13ifvqg90","pricing_plan_id":"cebpf4jnsgd1na2vs0mg"},{"bike_id":"90b4484c-984f-48ef-a595-1fe72c96dd94","system_id":"levelo_inurba_marseille","lat":43.30927,"lon":5.40132,"is_reserved":false,"is_disabled":false,"rental_uris":{"android":"levelo://app?vid=90b4484c-984f-48ef-a595-1fe72c96dd94","ios":"levelo://app?vid=90b4484c-984f-48ef-a595-1fe72c96dd94"},"vehicle_type_id":"4","last_reported":1745356138,"current_range_meters":12000,"station_id":"ce4bgvp2rcd13ifvqct0","pricing_plan_id":"cebpf4jnsgd1na2vs0mg"},{"bike_id":"49c0f902-eac7-4a79-adf0-d142aff51e11","system_id":"levelo_inurba_marseille","lat":43.24165,"lon":5.36398,"is_reserved":false,"is_disabled":false,"rental_uris":{"android":"levelo://app?vid=49c0f902-eac7-4a79-adf0-d142aff51e11","ios":"levelo://app?vid=49c0f902-eac7-4a79-adf0-d142aff51e11"},"vehicle_type_id":"4","last_reported":1745356138,"current_range_meters":12000,"station_id":"cpo36qri1sfpv3e86is0","pricing_plan_id":"cebpf4jnsgd1na2vs0mg"},{"bike_id":"bcf59123-c0ca-4689-b22c-166c9c055995","system_id":"levelo_inurba_marseille","lat":43.32051,"lon":5.41559,"is_reserved":false,"is_disabled":false,"rental_uris":{"android":"levelo://app?vid=bcf59123-c0ca-4689-b22c-166c9c055995","ios":"levelo://app?vid=bcf59123-c0ca-4689-b22c-166c9c055995"},"vehicle_type_id":"4","last_reported":1745356138,"current_range_meters":12000,"station_id":"ce4bhq92rcd13ifvqhkg","pricing_plan_id":"cebpf4jnsgd1na2vs0mg"},{"bike_id":"ae2462e3-d741-44b9-8175-77a134aeac56","system_id":"levelo_inurba_marseille","lat":43.27948,"lon":5.38697,"is_reserved":false,"is_disabled":true,"rental_uris":{"android":"levelo://app?vid=ae2462e3-d741-44b9-8175-77a134aeac56","ios":"levelo://app?vid=ae2462e3-d741-44b9-8175-77a134aeac56"},"vehicle_type_id":"4","last_reported":1745356138,"current_range_meters":12400,"station_id":"ce4bhg12rcd13ifvqf80","pricing_plan_id":"cebpf4jnsgd1na2vs0mg"},{"bike_id":"1be6a0eb-e7bb-4f1b-8976-c00356d99362","system_id":"levelo_inurba_marseille","lat":43.282747,"lon":5.350734,"is_reserved":false,"is_disabled":true,"rental_uris":{"android":"levelo://app?vid=1be6a0eb-e7bb-4f1b-8976-c00356d99362","ios":"levelo://app?vid=1be6a0eb-e7bb-4f1b-8976-c00356d99362"},"vehicle_type_id":"4","last_reported":1745356138,"current_range_meters":12400,"station_id":"ce4bhbp2rcd13ifvqerg","pricing_plan_id":"cebpf4jnsgd1na2vs0mg"},{"bike_id":"8d7533b3-5585-4b66-b684-60807f9907c2","system_id":"levelo_inurba_marseille","lat":43.28841,"lon":5.35846,"is_reserved":false,"is_disabled":false,"rental_uris":{"android":"levelo://app?vid=8d7533b3-5585-4b66-b684-60807f9907c2","ios":"levelo://app?vid=8d7533b3-5585-4b66-b684-60807f9907c2"},"vehicle_type_id":"4","last_reported":1745356138,"current_range_meters":12400,"station_id":"ce4bhb12rcd13ifvqem0","pricing_plan_id":"cebpf4jnsgd1na2vs0mg"},{"bike_id":"476a9fe5-6154-4202-b562-28b0995b6b4c","system_id":"levelo_inurba_marseille","lat":43.23179,"lon":5.39985,"is_reserved":false,"is_disabled":false,"rental_uris":{"android":"levelo://app?vid=476a9fe5-6154-4202-b562-28b0995b6b4c","ios":"levelo://app?vid=476a9fe5-6154-4202-b562-28b0995b6b4c"},"vehicle_type_id":"4","last_reported":1745356138,"current_range_meters":12400,"station_id":"ce4bhn12rcd13ifvqgqg","pricing_plan_id":"cebpf4jnsgd1na2vs0mg"},{"bike_id":"3324cae9-b2dc-425a-b929-380431fc30a1","system_id":"levelo_inurba_marseille","lat":43.30798,"lon":5.38154,"is_reserved":false,"is_disabled":false,"rental_uris":{"android":"levelo://app?vid=3324cae9-b2dc-425a-b929-380431fc30a1","ios":"levelo://app?vid=3324cae9-b2dc-425a-b929-380431fc30a1"},"vehicle_type_id":"4","last_reported":1745356138,"current_range_meters":16400,"station_id":"ce4bgt12rcd13ifvqce0","pricing_plan_id":"cebpf4jnsgd1na2vs0mg"},{"bike_id":"afc1a72d-f3cd-4039-8f8e-8907957e6ee0","system_id":"levelo_inurba_marseille","lat":43.28413,"lon":5.37499,"is_reserved":false,"is_disabled":false,"rental_uris":{"android":"levelo://app?vid=afc1a72d-f3cd-4039-8f8e-8907957e6ee0","ios":"levelo://app?vid=afc1a72d-f3cd-4039-8f8e-8907957e6ee0"},"vehicle_type_id":"4","last_reported":1745356138,"current_range_meters":12800,"station_id":"ce4bh412rcd13ifvqds0","pricing_plan_id":"cebpf4jnsgd1na2vs0mg"},{"bike_id":"01c19fa9-e2ec-4465-aa7f-996cabcc5cee","system_id":"levelo_inurba_marseille","lat":43.2621,"lon":5.37443,"is_reserved":false,"is_disabled":false,"rental_uris":{"android":"levelo://app?vid=01c19fa9-e2ec-4465-aa7f-996cabcc5cee","ios":"levelo://app?vid=01c19fa9-e2ec-4465-aa7f-996cabcc5cee"},"vehicle_type_id":"4","last_reported":1745356138,"current_range_meters":12800,"station_id":"ce4bhgp2rcd13ifvqfc0","pricing_plan_id":"cebpf4jnsgd1na2vs0mg"},{"bike_id":"48939965-4329-495f-a3f1-b5cf562d2ecf","system_id":"levelo_inurba_marseille","lat":43.30649,"lon":5.40103,"is_reserved":false,"is_disabled":true,"rental_uris":{"android":"levelo://app?vid=48939965-4329-495f-a3f1-b5cf562d2ecf","ios":"levelo://app?vid=48939965-4329-495f-a3f1-b5cf562d2ecf"},"vehicle_type_id":"4","last_reported":1745356138,"current_range_meters":12800,"station_id":"ce4bh112rcd13ifvqda0","pricing_plan_id":"cebpf4jnsgd1na2vs0mg"},{"bike_id":"cecbf6dc-203a-4587-8a83-3eb8a35176fb","system_id":"levelo_inurba_marseille","lat":43.30099,"lon":5.39066,"is_reserved":false,"is_disabled":false,"rental_uris":{"android":"levelo://app?vid=cecbf6dc-203a-4587-8a83-3eb8a35176fb","ios":"levelo://app?vid=cecbf6dc-203a-4587-8a83-3eb8a35176fb"},"vehicle_type_id":"4","last_reported":1745356138,"current_range_meters":12800,"station_id":"ce4bh192rcd13ifvqdb0","pricing_plan_id":"cebpf4jnsgd1na2vs0mg"},{"bike_id":"ea3653a9-85ab-4e4d-99be-20b8f183c5a4","system_id":"levelo_inurba_marseille","lat":43.29534,"lon":5.38537,"is_reserved":false,"is_disabled":false,"rental_uris":{"android":"levelo://app?vid=ea3653a9-85ab-4e4d-99be-20b8f183c5a4","ios":"levelo://app?vid=ea3653a9-85ab-4e4d-99be-20b8f183c5a4"},"vehicle_type_id":"4","last_reported":1745356138,"current_range_meters":12800,"station_id":"ce4bgih2rcd13ifvqba0","pricing_plan_id":"cebpf4jnsgd1na2vs0mg"},{"bike_id":"caccf6b1-eff9-41fc-9278-5e6f421f5468","system_id":"levelo_inurba_marseille","lat":43.28412,"lon":5.34991,"is_reserved":false,"is_disabled":false,"rental_uris":{"android":"levelo://app?vid=caccf6b1-eff9-41fc-9278-5e6f421f5468","ios":"levelo://app?vid=caccf6b1-eff9-41fc-9278-5e6f421f5468"},"vehicle_type_id":"4","last_reported":1745356138,"current_range_meters":13600,"station_id":"ce4bhbh2rcd13ifvqepg","pricing_plan_id":"cebpf4jnsgd1na2vs0mg"},{"bike_id":"678d1ff2-b92f-437a-a478-0a2f054c08e9","system_id":"levelo_inurba_marseille","lat":43.30348,"lon":5.3686,"is_reserved":false,"is_disabled":false,"rental_uris":{"android":"levelo://app?vid=678d1ff2-b92f-437a-a478-0a2f054c08e9","ios":"levelo://app?vid=678d1ff2-b92f-437a-a478-0a2f054c08e9"},"vehicle_type_id":"4","last_reported":1745356138,"current_range_meters":13600,"station_id":"","pricing_plan_id":"cebpf4jnsgd1na2vs0mg"},{"bike_id":"12fd1cd4-2eef-4521-99d2-2118d52586d2","system_id":"levelo_inurba_marseille","lat":43.29275,"lon":5.40117,"is_reserved":false,"is_disabled":false,"rental_uris":{"android":"levelo://app?vid=12fd1cd4-2eef-4521-99d2-2118d52586d2","ios":"levelo://app?vid=12fd1cd4-2eef-4521-99d2-2118d52586d2"},"vehicle_type_id":"4","last_reported":1745356138,"current_range_meters":13600,"station_id":"ce4bh312rcd13ifvqdk0","pricing_plan_id":"cebpf4jnsgd1na2vs0mg"},{"bike_id":"cee1878f-b1bd-451c-9225-a51e25740ce4","system_id":"levelo_inurba_marseille","lat":43.29044,"lon":5.35923,"is_reserved":false,"is_disabled":false,"rental_uris":{"android":"levelo://app?vid=cee1878f-b1bd-451c-9225-a51e25740ce4","ios":"levelo://app?vid=cee1878f-b1bd-451c-9225-a51e25740ce4"},"vehicle_type_id":"4","last_reported":1745356138,"current_range_meters":12800,"station_id":"ce4bha92rcd13ifvqeg0","pricing_plan_id":"cebpf4jnsgd1na2vs0mg"},{"bike_id":"de48a635-da88-4fcc-8749-c56c951dd46b","system_id":"levelo_inurba_marseille","lat":43.284584,"lon":5.358948,"is_reserved":false,"is_disabled":false,"rental_uris":{"android":"levelo://app?vid=de48a635-da88-4fcc-8749-c56c951dd46b","ios":"levelo://app?vid=de48a635-da88-4fcc-8749-c56c951dd46b"},"vehicle_type_id":"4","last_reported":1745356138,"current_range_meters":13600,"station_id":"ce4bhah2rcd13ifvqei0","pricing_plan_id":"cebpf4jnsgd1na2vs0mg"},{"bike_id":"b4252462-9f98-435c-baae-95ee5332bfa0","system_id":"levelo_inurba_marseille","lat":43.297882,"lon":5.371016,"is_reserved":false,"is_disabled":false,"rental_uris":{"android":"levelo://app?vid=b4252462-9f98-435c-baae-95ee5332bfa0","ios":"levelo://app?vid=b4252462-9f98-435c-baae-95ee5332bfa0"},"vehicle_type_id":"4","last_reported":1745356138,"current_range_meters":13600,"station_id":"ce4bhgh2rcd13ifvqfb0","pricing_plan_id":"cebpf4jnsgd1na2vs0mg"},{"bike_id":"637a3075-2a5a-400c-ab83-5d3c4aa3f001","system_id":"levelo_inurba_marseille","lat":43.28162,"lon":5.42634,"is_reserved":false,"is_disabled":false,"rental_uris":{"android":"levelo://app?vid=637a3075-2a5a-400c-ab83-5d3c4aa3f001","ios":"levelo://app?vid=637a3075-2a5a-400c-ab83-5d3c4aa3f001"},"vehicle_type_id":"4","last_reported":1745356138,"current_range_meters":13600,"station_id":"ce4bhnh2rcd13ifvqgug","pricing_plan_id":"cebpf4jnsgd1na2vs0mg"},{"bike_id":"20c81f5b-38ee-474b-a4da-9bbdf1ce1200","system_id":"levelo_inurba_marseille","lat":43.30526,"lon":5.36713,"is_reserved":false,"is_disabled":false,"rental_uris":{"android":"levelo://app?vid=20c81f5b-38ee-474b-a4da-9bbdf1ce1200","ios":"levelo://app?vid=20c81f5b-38ee-474b-a4da-9bbdf1ce1200"},"vehicle_type_id":"4","last_reported":1745356138,"current_range_meters":14400,"station_id":"ce4bgrp2rcd13ifvqc9g","pricing_plan_id":"cebpf4jnsgd1na2vs0mg"},{"bike_id":"20159b8f-2c71-470f-8515-b8a24a728136","system_id":"levelo_inurba_marseille","lat":43.29037,"lon":5.35923,"is_reserved":false,"is_disabled":false,"rental_uris":{"android":"levelo://app?vid=20159b8f-2c71-470f-8515-b8a24a728136","ios":"levelo://app?vid=20159b8f-2c71-470f-8515-b8a24a728136"},"vehicle_type_id":"4","last_reported":1745356138,"current_range_meters":14400,"station_id":"ce4bha92rcd13ifvqeg0","pricing_plan_id":"cebpf4jnsgd1na2vs0mg"},{"bike_id":"c19f6221-d608-4ad3-b8d2-1a10afb44a90","system_id":"levelo_inurba_marseille","lat":43.31538,"lon":5.38028,"is_reserved":false,"is_disabled":false,"rental_uris":{"android":"levelo://app?vid=c19f6221-d608-4ad3-b8d2-1a10afb44a90","ios":"levelo://app?vid=c19f6221-d608-4ad3-b8d2-1a10afb44a90"},"vehicle_type_id":"4","last_reported":1745356138,"current_range_meters":14000,"station_id":"ce4bhsp2rcd13ifvqi50","pricing_plan_id":"cebpf4jnsgd1na2vs0mg"},{"bike_id":"be218f89-8917-4041-9488-f81416c926e3","system_id":"levelo_inurba_marseille","lat":43.28664,"lon":5.3636,"is_reserved":false,"is_disabled":false,"rental_uris":{"android":"levelo://app?vid=be218f89-8917-4041-9488-f81416c926e3","ios":"levelo://app?vid=be218f89-8917-4041-9488-f81416c926e3"},"vehicle_type_id":"4","last_reported":1745356138,"current_range_meters":14400,"station_id":"ce4bhah2rcd13ifvqej0","pricing_plan_id":"cebpf4jnsgd1na2vs0mg"},{"bike_id":"199ca947-1f84-416c-b8c8-da032bcbcefb","system_id":"levelo_inurba_marseille","lat":43.27998,"lon":5.400167,"is_reserved":false,"is_disabled":false,"rental_uris":{"android":"levelo://app?vid=199ca947-1f84-416c-b8c8-da032bcbcefb","ios":"levelo://app?vid=199ca947-1f84-416c-b8c8-da032bcbcefb"},"vehicle_type_id":"4","last_reported":1745356138,"current_range_meters":14800,"station_id":"ce4bho92rcd13ifvqh4g","pricing_plan_id":"cebpf4jnsgd1na2vs0mg"},{"bike_id":"f99a5ab2-5b8c-442c-a148-f1ce6b214dc9","system_id":"levelo_inurba_marseille","lat":43.28422,"lon":5.3752,"is_reserved":false,"is_disabled":false,"rental_uris":{"android":"levelo://app?vid=f99a5ab2-5b8c-442c-a148-f1ce6b214dc9","ios":"levelo://app?vid=f99a5ab2-5b8c-442c-a148-f1ce6b214dc9"},"vehicle_type_id":"4","last_reported":1745356138,"current_range_meters":14800,"station_id":"ce4bh412rcd13ifvqds0","pricing_plan_id":"cebpf4jnsgd1na2vs0mg"},{"bike_id":"88ed554c-d12e-4713-ac9b-e908660835ab","system_id":"levelo_inurba_marseille","lat":43.2606,"lon":5.39399,"is_reserved":false,"is_disabled":false,"rental_uris":{"android":"levelo://app?vid=88ed554c-d12e-4713-ac9b-e908660835ab","ios":"levelo://app?vid=88ed554c-d12e-4713-ac9b-e908660835ab"},"vehicle_type_id":"4","last_reported":1745356138,"current_range_meters":14800,"station_id":"ce4bhh92rcd13ifvqfj0","pricing_plan_id":"cebpf4jnsgd1na2vs0mg"},{"bike_id":"761ae269-6b1f-4092-8e33-c55e4d5d8dff","system_id":"levelo_inurba_marseille","lat":43.22921,"lon":5.3536,"is_reserved":false,"is_disabled":false,"rental_uris":{"android":"levelo://app?vid=761ae269-6b1f-4092-8e33-c55e4d5d8dff","ios":"levelo://app?vid=761ae269-6b1f-4092-8e33-c55e4d5d8dff"},"vehicle_type_id":"4","last_reported":1745356138,"current_range_meters":14800,"station_id":"cpo3532slgdg3j2ikp40","pricing_plan_id":"cebpf4jnsgd1na2vs0mg"},{"bike_id":"bd84a87a-84a0-46a7-b2a5-e761b13b3dd9","system_id":"levelo_inurba_marseille","lat":43.30329,"lon":5.40442,"is_reserved":false,"is_disabled":false,"rental_uris":{"android":"levelo://app?vid=bd84a87a-84a0-46a7-b2a5-e761b13b3dd9","ios":"levelo://app?vid=bd84a87a-84a0-46a7-b2a5-e761b13b3dd9"},"vehicle_type_id":"4","last_reported":1745356138,"current_range_meters":14800,"station_id":"ce4bh012rcd13ifvqd10","pricing_plan_id":"cebpf4jnsgd1na2vs0mg"},{"bike_id":"d1e0012e-ccb5-404a-bad4-483be5e9a938","system_id":"levelo_inurba_marseille","lat":43.283403,"lon":5.386563,"is_reserved":false,"is_disabled":false,"rental_uris":{"android":"levelo://app?vid=d1e0012e-ccb5-404a-bad4-483be5e9a938","ios":"levelo://app?vid=d1e0012e-ccb5-404a-bad4-483be5e9a938"},"vehicle_type_id":"4","last_reported":1745356138,"current_range_meters":14800,"station_id":"ce4bgn12rcd13ifvqbt0","pricing_plan_id":"cebpf4jnsgd1na2vs0mg"},{"bike_id":"1e2cc1b2-544f-40a6-9711-53b33fe8529b","system_id":"levelo_inurba_marseille","lat":43.32002,"lon":5.38158,"is_reserved":false,"is_disabled":false,"rental_uris":{"android":"levelo://app?vid=1e2cc1b2-544f-40a6-9711-53b33fe8529b","ios":"levelo://app?vid=1e2cc1b2-544f-40a6-9711-53b33fe8529b"},"vehicle_type_id":"4","last_reported":1745356138,"current_range_meters":15200,"station_id":"ce4bhr12rcd13ifvqhpg","pricing_plan_id":"cebpf4jnsgd1na2vs0mg"},{"bike_id":"df6ffc41-ed4d-4c2c-af47-12b33fc50735","system_id":"levelo_inurba_marseille","lat":43.25109,"lon":5.40304,"is_reserved":false,"is_disabled":false,"rental_uris":{"android":"levelo://app?vid=df6ffc41-ed4d-4c2c-af47-12b33fc50735","ios":"levelo://app?vid=df6ffc41-ed4d-4c2c-af47-12b33fc50735"},"vehicle_type_id":"4","last_reported":1745356138,"current_range_meters":15200,"station_id":"ce4bhlh2rcd13ifvqgig","pricing_plan_id":"cebpf4jnsgd1na2vs0mg"},{"bike_id":"f93f1baf-902e-42d4-a684-b6be85d8c393","system_id":"levelo_inurba_marseille","lat":43.30262,"lon":5.37709,"is_reserved":false,"is_disabled":false,"rental_uris":{"android":"levelo://app?vid=f93f1baf-902e-42d4-a684-b6be85d8c393","ios":"levelo://app?vid=f93f1baf-902e-42d4-a684-b6be85d8c393"},"vehicle_type_id":"4","last_reported":1745356138,"current_range_meters":15200,"station_id":"ce4bguh2rcd13ifvqcj0","pricing_plan_id":"cebpf4jnsgd1na2vs0mg"},{"bike_id":"b5bd2bdc-9ceb-4526-a969-91f60baba8a8","system_id":"levelo_inurba_marseille","lat":43.290818,"lon":5.400178,"is_reserved":false,"is_disabled":false,"rental_uris":{"android":"levelo://app?vid=b5bd2bdc-9ceb-4526-a969-91f60baba8a8","ios":"levelo://app?vid=b5bd2bdc-9ceb-4526-a969-91f60baba8a8"},"vehicle_type_id":"4","last_reported":1745356138,"current_range_meters":16000,"station_id":"ce4bhp12rcd13ifvqh9g","pricing_plan_id":"cebpf4jnsgd1na2vs0mg"},{"bike_id":"602b5f96-6a4b-4aa5-bb1e-7ed29f4a890c","system_id":"levelo_inurba_marseille","lat":43.28659,"lon":5.36348,"is_reserved":false,"is_disabled":false,"rental_uris":{"android":"levelo://app?vid=602b5f96-6a4b-4aa5-bb1e-7ed29f4a890c","ios":"levelo://app?vid=602b5f96-6a4b-4aa5-bb1e-7ed29f4a890c"},"vehicle_type_id":"4","last_reported":1745356138,"current_range_meters":16000,"station_id":"ce4bhah2rcd13ifvqej0","pricing_plan_id":"cebpf4jnsgd1na2vs0mg"},{"bike_id":"abd226a8-d003-4133-b9d2-b7c952b7ead1","system_id":"levelo_inurba_marseille","lat":43.23066,"lon":5.354924,"is_reserved":false,"is_disabled":false,"rental_uris":{"android":"levelo://app?vid=abd226a8-d003-4133-b9d2-b7c952b7ead1","ios":"levelo://app?vid=abd226a8-d003-4133-b9d2-b7c952b7ead1"},"vehicle_type_id":"4","last_reported":1745356138,"current_range_meters":16000,"station_id":"cpo3342slgdg3j2ifvpg","pricing_plan_id":"cebpf4jnsgd1na2vs0mg"},{"bike_id":"b3a8fcab-2cbb-4241-8df1-178d0e212912","system_id":"levelo_inurba_marseille","lat":43.25378,"lon":5.41857,"is_reserved":false,"is_disabled":false,"rental_uris":{"android":"levelo://app?vid=b3a8fcab-2cbb-4241-8df1-178d0e212912","ios":"levelo://app?vid=b3a8fcab-2cbb-4241-8df1-178d0e212912"},"vehicle_type_id":"4","last_reported":1745356138,"current_range_meters":16000,"station_id":"","pricing_plan_id":"cebpf4jnsgd1na2vs0mg"},{"bike_id":"838691b5-3b6b-42d9-ba48-99727c692d23","system_id":"levelo_inurba_marseille","lat":43.2925,"lon":5.40915,"is_reserved":false,"is_disabled":false,"rental_uris":{"android":"levelo://app?vid=838691b5-3b6b-42d9-ba48-99727c692d23","ios":"levelo://app?vid=838691b5-3b6b-42d9-ba48-99727c692d23"},"vehicle_type_id":"4","last_reported":1745356138,"current_range_meters":16000,"station_id":"ce4bh192rcd13ifvqdc0","pricing_plan_id":"cebpf4jnsgd1na2vs0mg"},{"bike_id":"4058f62d-ca8f-492f-8fca-74ec3189f044","system_id":"levelo_inurba_marseille","lat":43.29882,"lon":5.39717,"is_reserved":false,"is_disabled":false,"rental_uris":{"android":"levelo://app?vid=4058f62d-ca8f-492f-8fca-74ec3189f044","ios":"levelo://app?vid=4058f62d-ca8f-492f-8fca-74ec3189f044"},"vehicle_type_id":"4","last_reported":1745356138,"current_range_meters":16400,"station_id":"ce4bh0h2rcd13ifvqd50","pricing_plan_id":"cebpf4jnsgd1na2vs0mg"},{"bike_id":"7a93f214-e369-420b-90b3-c0c05b34e7a9","system_id":"levelo_inurba_marseille","lat":43.28345,"lon":5.38113,"is_reserved":false,"is_disabled":false,"rental_uris":{"android":"levelo://app?vid=7a93f214-e369-420b-90b3-c0c05b34e7a9","ios":"levelo://app?vid=7a93f214-e369-420b-90b3-c0c05b34e7a9"},"vehicle_type_id":"4","last_reported":1745356138,"current_range_meters":16400,"station_id":"ce4bh412rcd13ifvqdr0","pricing_plan_id":"cebpf4jnsgd1na2vs0mg"},{"bike_id":"9c5758bf-33b5-4a52-afd2-c8734b4dca48","system_id":"levelo_inurba_marseille","lat":43.310724,"lon":5.383485,"is_reserved":false,"is_disabled":false,"rental_uris":{"android":"levelo://app?vid=9c5758bf-33b5-4a52-afd2-c8734b4dca48","ios":"levelo://app?vid=9c5758bf-33b5-4a52-afd2-c8734b4dca48"},"vehicle_type_id":"4","last_reported":1745356138,"current_range_meters":16400,"station_id":"ce4bgv92rcd13ifvqcr0","pricing_plan_id":"cebpf4jnsgd1na2vs0mg"},{"bike_id":"431ee9a0-8df4-49a4-b75e-37a2264361b8","system_id":"levelo_inurba_marseille","lat":43.29944,"lon":5.39699,"is_reserved":false,"is_disabled":false,"rental_uris":{"android":"levelo://app?vid=431ee9a0-8df4-49a4-b75e-37a2264361b8","ios":"levelo://app?vid=431ee9a0-8df4-49a4-b75e-37a2264361b8"},"vehicle_type_id":"4","last_reported":1745356138,"current_range_meters":16400,"station_id":"","pricing_plan_id":"cebpf4jnsgd1na2vs0mg"},{"bike_id":"090ea79f-5dc1-4f76-8a9c-a95ed8a5af5c","system_id":"levelo_inurba_marseille","lat":43.27817,"lon":5.40704,"is_reserved":false,"is_disabled":false,"rental_uris":{"android":"levelo://app?vid=090ea79f-5dc1-4f76-8a9c-a95ed8a5af5c","ios":"levelo://app?vid=090ea79f-5dc1-4f76-8a9c-a95ed8a5af5c"},"vehicle_type_id":"4","last_reported":1745356138,"current_range_meters":16400,"station_id":"ce4bhnh2rcd13ifvqgtg","pricing_plan_id":"cebpf4jnsgd1na2vs0mg"},{"bike_id":"1b903b38-38de-4714-9a2c-59836acfa168","system_id":"levelo_inurba_marseille","lat":43.317164,"lon":5.436943,"is_reserved":false,"is_disabled":true,"rental_uris":{"android":"levelo://app?vid=1b903b38-38de-4714-9a2c-59836acfa168","ios":"levelo://app?vid=1b903b38-38de-4714-9a2c-59836acfa168"},"vehicle_type_id":"4","last_reported":1745356138,"current_range_meters":16400,"station_id":"ce4bhp92rcd13ifvqhcg","pricing_plan_id":"cebpf4jnsgd1na2vs0mg"},{"bike_id":"7c110556-51f7-4ebc-a93b-d3e946a92a50","system_id":"levelo_inurba_marseille","lat":43.31713,"lon":5.43707,"is_reserved":false,"is_disabled":false,"rental_uris":{"android":"levelo://app?vid=7c110556-51f7-4ebc-a93b-d3e946a92a50","ios":"levelo://app?vid=7c110556-51f7-4ebc-a93b-d3e946a92a50"},"vehicle_type_id":"4","last_reported":1745356138,"current_range_meters":16400,"station_id":"ce4bhp92rcd13ifvqhcg","pricing_plan_id":"cebpf4jnsgd1na2vs0mg"},{"bike_id":"9f2e2972-dc86-4c24-8a83-22c0ee111c3e","system_id":"levelo_inurba_marseille","lat":43.3122,"lon":5.368833,"is_reserved":false,"is_disabled":true,"rental_uris":{"android":"levelo://app?vid=9f2e2972-dc86-4c24-8a83-22c0ee111c3e","ios":"levelo://app?vid=9f2e2972-dc86-4c24-8a83-22c0ee111c3e"},"vehicle_type_id":"4","last_reported":1745356138,"current_range_meters":16800,"station_id":"ce4bgl92rcd13ifvqbq0","pricing_plan_id":"cebpf4jnsgd1na2vs0mg"},{"bike_id":"0569e32c-0302-4ee4-ba03-e8b2f2003cfe","system_id":"levelo_inurba_marseille","lat":43.28653,"lon":5.36359,"is_reserved":false,"is_disabled":false,"rental_uris":{"android":"levelo://app?vid=0569e32c-0302-4ee4-ba03-e8b2f2003cfe","ios":"levelo://app?vid=0569e32c-0302-4ee4-ba03-e8b2f2003cfe"},"vehicle_type_id":"4","last_reported":1745356138,"current_range_meters":16800,"station_id":"ce4bhah2rcd13ifvqej0","pricing_plan_id":"cebpf4jnsgd1na2vs0mg"},{"bike_id":"bc5b6823-9aef-4c95-8f04-6f731ee00e9b","system_id":"levelo_inurba_marseille","lat":43.2319,"lon":5.39986,"is_reserved":false,"is_disabled":false,"rental_uris":{"android":"levelo://app?vid=bc5b6823-9aef-4c95-8f04-6f731ee00e9b","ios":"levelo://app?vid=bc5b6823-9aef-4c95-8f04-6f731ee00e9b"},"vehicle_type_id":"4","last_reported":1745356138,"current_range_meters":16800,"station_id":"ce4bhn12rcd13ifvqgqg","pricing_plan_id":"cebpf4jnsgd1na2vs0mg"},{"bike_id":"9f1e349e-7f44-420f-95ec-c319dae210f6","system_id":"levelo_inurba_marseille","lat":43.292113,"lon":5.383859,"is_reserved":false,"is_disabled":true,"rental_uris":{"android":"levelo://app?vid=9f1e349e-7f44-420f-95ec-c319dae210f6","ios":"levelo://app?vid=9f1e349e-7f44-420f-95ec-c319dae210f6"},"vehicle_type_id":"4","last_reported":1745356138,"current_range_meters":16800,"station_id":"","pricing_plan_id":"cebpf4jnsgd1na2vs0mg"},{"bike_id":"b96d48d5-fc65-423b-9a30-5d2c864e8939","system_id":"levelo_inurba_marseille","lat":43.22511,"lon":5.34816,"is_reserved":false,"is_disabled":false,"rental_uris":{"android":"levelo://app?vid=b96d48d5-fc65-423b-9a30-5d2c864e8939","ios":"levelo://app?vid=b96d48d5-fc65-423b-9a30-5d2c864e8939"},"vehicle_type_id":"4","last_reported":1745356138,"current_range_meters":16800,"station_id":"st_cvj5dfep6f1abm77gieg","pricing_plan_id":"cebpf4jnsgd1na2vs0mg"},{"bike_id":"d962937d-a2c0-4f7f-9d5f-d2025eec3422","system_id":"levelo_inurba_marseille","lat":43.25382,"lon":5.41871,"is_reserved":false,"is_disabled":false,"rental_uris":{"android":"levelo://app?vid=d962937d-a2c0-4f7f-9d5f-d2025eec3422","ios":"levelo://app?vid=d962937d-a2c0-4f7f-9d5f-d2025eec3422"},"vehicle_type_id":"4","last_reported":1745356138,"current_range_meters":16800,"station_id":"","pricing_plan_id":"cebpf4jnsgd1na2vs0mg"},{"bike_id":"fc3d2ab0-bdd4-4aaa-87b1-f549a28d510f","system_id":"levelo_inurba_marseille","lat":43.30351,"lon":5.40421,"is_reserved":false,"is_disabled":false,"rental_uris":{"android":"levelo://app?vid=fc3d2ab0-bdd4-4aaa-87b1-f549a28d510f","ios":"levelo://app?vid=fc3d2ab0-bdd4-4aaa-87b1-f549a28d510f"},"vehicle_type_id":"4","last_reported":1745356138,"current_range_meters":16800,"station_id":"ce4bh012rcd13ifvqd10","pricing_plan_id":"cebpf4jnsgd1na2vs0mg"},{"bike_id":"5411c9c0-eb3a-475d-9e43-a89c6557a708","system_id":"levelo_inurba_marseille","lat":43.2799,"lon":5.41665,"is_reserved":false,"is_disabled":false,"rental_uris":{"android":"levelo://app?vid=5411c9c0-eb3a-475d-9e43-a89c6557a708","ios":"levelo://app?vid=5411c9c0-eb3a-475d-9e43-a89c6557a708"},"vehicle_type_id":"4","last_reported":1745356138,"current_range_meters":16800,"station_id":"ce4bho12rcd13ifvqh1g","pricing_plan_id":"cebpf4jnsgd1na2vs0mg"},{"bike_id":"ee875282-58d8-4f00-94e1-25d75e41f7cd","system_id":"levelo_inurba_marseille","lat":43.25713,"lon":5.4112,"is_reserved":false,"is_disabled":false,"rental_uris":{"android":"levelo://app?vid=ee875282-58d8-4f00-94e1-25d75e41f7cd","ios":"levelo://app?vid=ee875282-58d8-4f00-94e1-25d75e41f7cd"},"vehicle_type_id":"4","last_reported":1745356138,"current_range_meters":17200,"station_id":"ce4bhkp2rcd13ifvqgd0","pricing_plan_id":"cebpf4jnsgd1na2vs0mg"},{"bike_id":"de76bfeb-dd4b-492e-b3f8-88f28c9db3a4","system_id":"levelo_inurba_marseille","lat":43.28362,"lon":5.38111,"is_reserved":false,"is_disabled":false,"rental_uris":{"android":"levelo://app?vid=de76bfeb-dd4b-492e-b3f8-88f28c9db3a4","ios":"levelo://app?vid=de76bfeb-dd4b-492e-b3f8-88f28c9db3a4"},"vehicle_type_id":"4","last_reported":1745356138,"current_range_meters":17200,"station_id":"ce4bh412rcd13ifvqdr0","pricing_plan_id":"cebpf4jnsgd1na2vs0mg"},{"bike_id":"2958702b-6f60-4c23-88d4-37649b2b931b","system_id":"levelo_inurba_marseille","lat":43.29863,"lon":5.39737,"is_reserved":false,"is_disabled":false,"rental_uris":{"android":"levelo://app?vid=2958702b-6f60-4c23-88d4-37649b2b931b","ios":"levelo://app?vid=2958702b-6f60-4c23-88d4-37649b2b931b"},"vehicle_type_id":"4","last_reported":1745356138,"current_range_meters":17200,"station_id":"ce4bh0h2rcd13ifvqd50","pricing_plan_id":"cebpf4jnsgd1na2vs0mg"},{"bike_id":"ec1048ac-023e-4b8e-a7a1-4226f2b09f8d","system_id":"levelo_inurba_marseille","lat":43.31996,"lon":5.38165,"is_reserved":false,"is_disabled":false,"rental_uris":{"android":"levelo://app?vid=ec1048ac-023e-4b8e-a7a1-4226f2b09f8d","ios":"levelo://app?vid=ec1048ac-023e-4b8e-a7a1-4226f2b09f8d"},"vehicle_type_id":"4","last_reported":1745356138,"current_range_meters":17200,"station_id":"ce4bhr12rcd13ifvqhpg","pricing_plan_id":"cebpf4jnsgd1na2vs0mg"},{"bike_id":"a1835b16-9e05-4b53-baf5-10eeb04320bb","system_id":"levelo_inurba_marseille","lat":43.28699,"lon":5.37389,"is_reserved":false,"is_disabled":true,"rental_uris":{"android":"levelo://app?vid=a1835b16-9e05-4b53-baf5-10eeb04320bb","ios":"levelo://app?vid=a1835b16-9e05-4b53-baf5-10eeb04320bb"},"vehicle_type_id":"4","last_reported":1745356138,"current_range_meters":17600,"station_id":"ce4bh3p2rcd13ifvqdq0","pricing_plan_id":"cebpf4jnsgd1na2vs0mg"},{"bike_id":"0529d891-2d9b-4d93-af79-27336fdd5c7e","system_id":"levelo_inurba_marseille","lat":43.28033,"lon":5.36941,"is_reserved":false,"is_disabled":false,"rental_uris":{"android":"levelo://app?vid=0529d891-2d9b-4d93-af79-27336fdd5c7e","ios":"levelo://app?vid=0529d891-2d9b-4d93-af79-27336fdd5c7e"},"vehicle_type_id":"4","last_reported":1745356138,"current_range_meters":17600,"station_id":"ce4bha12rcd13ifvqef0","pricing_plan_id":"cebpf4jnsgd1na2vs0mg"},{"bike_id":"e954e2cd-48db-49d5-b8c3-76c1dae8719a","system_id":"levelo_inurba_marseille","lat":43.3131,"lon":5.39711,"is_reserved":false,"is_disabled":false,"rental_uris":{"android":"levelo://app?vid=e954e2cd-48db-49d5-b8c3-76c1dae8719a","ios":"levelo://app?vid=e954e2cd-48db-49d5-b8c3-76c1dae8719a"},"vehicle_type_id":"4","last_reported":1745356138,"current_range_meters":17600,"station_id":"ce4bgvp2rcd13ifvqcu0","pricing_plan_id":"cebpf4jnsgd1na2vs0mg"},{"bike_id":"97b8c65c-bdcc-4cd4-94d2-e5c51a97a10a","system_id":"levelo_inurba_marseille","lat":43.30171,"lon":5.39895,"is_reserved":false,"is_disabled":false,"rental_uris":{"android":"levelo://app?vid=97b8c65c-bdcc-4cd4-94d2-e5c51a97a10a","ios":"levelo://app?vid=97b8c65c-bdcc-4cd4-94d2-e5c51a97a10a"},"vehicle_type_id":"4","last_reported":1745356138,"current_range_meters":17600,"station_id":"","pricing_plan_id":"cebpf4jnsgd1na2vs0mg"},{"bike_id":"ef7a4258-8c80-48bb-88c7-13588cd21c8e","system_id":"levelo_inurba_marseille","lat":43.255857,"lon":5.382338,"is_reserved":false,"is_disabled":false,"rental_uris":{"android":"levelo://app?vid=ef7a4258-8c80-48bb-88c7-13588cd21c8e","ios":"levelo://app?vid=ef7a4258-8c80-48bb-88c7-13588cd21c8e"},"vehicle_type_id":"4","last_reported":1745356138,"current_range_meters":17600,"station_id":"ce4bhih2rcd13ifvqfs0","pricing_plan_id":"cebpf4jnsgd1na2vs0mg"},{"bike_id":"3ea18a6d-111c-44e4-9a93-4a3afaa2ac95","system_id":"levelo_inurba_marseille","lat":43.29285,"lon":5.40119,"is_reserved":false,"is_disabled":false,"rental_uris":{"android":"levelo://app?vid=3ea18a6d-111c-44e4-9a93-4a3afaa2ac95","ios":"levelo://app?vid=3ea18a6d-111c-44e4-9a93-4a3afaa2ac95"},"vehicle_type_id":"4","last_reported":1745356138,"current_range_meters":18000,"station_id":"ce4bh312rcd13ifvqdk0","pricing_plan_id":"cebpf4jnsgd1na2vs0mg"},{"bike_id":"9b1389a3-60ed-4a16-8e74-72e0c796117e","system_id":"levelo_inurba_marseille","lat":43.288619,"lon":5.358254,"is_reserved":false,"is_disabled":false,"rental_uris":{"android":"levelo://app?vid=9b1389a3-60ed-4a16-8e74-72e0c796117e","ios":"levelo://app?vid=9b1389a3-60ed-4a16-8e74-72e0c796117e"},"vehicle_type_id":"4","last_reported":1745356138,"current_range_meters":18000,"station_id":"ce4bhb12rcd13ifvqem0","pricing_plan_id":"cebpf4jnsgd1na2vs0mg"},{"bike_id":"372a0c7b-cd36-4e55-9a46-af93df43accd","system_id":"levelo_inurba_marseille","lat":43.243866,"lon":5.370613,"is_reserved":false,"is_disabled":false,"rental_uris":{"android":"levelo://app?vid=372a0c7b-cd36-4e55-9a46-af93df43accd","ios":"levelo://app?vid=372a0c7b-cd36-4e55-9a46-af93df43accd"},"vehicle_type_id":"4","last_reported":1745356138,"current_range_meters":18000,"station_id":"ce4bhnp2rcd13ifvqgvg","pricing_plan_id":"cebpf4jnsgd1na2vs0mg"},{"bike_id":"7b2dc864-a4e9-468c-9cee-f3075a20977d","system_id":"levelo_inurba_marseille","lat":43.31453,"lon":5.37382,"is_reserved":false,"is_disabled":false,"rental_uris":{"android":"levelo://app?vid=7b2dc864-a4e9-468c-9cee-f3075a20977d","ios":"levelo://app?vid=7b2dc864-a4e9-468c-9cee-f3075a20977d"},"vehicle_type_id":"4","last_reported":1745356138,"current_range_meters":18000,"station_id":"","pricing_plan_id":"cebpf4jnsgd1na2vs0mg"},{"bike_id":"601f51a2-26f2-4128-9e8e-c630a77d295b","system_id":"levelo_inurba_marseille","lat":43.28455,"lon":5.35895,"is_reserved":false,"is_disabled":false,"rental_uris":{"android":"levelo://app?vid=601f51a2-26f2-4128-9e8e-c630a77d295b","ios":"levelo://app?vid=601f51a2-26f2-4128-9e8e-c630a77d295b"},"vehicle_type_id":"4","last_reported":1745356138,"current_range_meters":18000,"station_id":"ce4bhah2rcd13ifvqei0","pricing_plan_id":"cebpf4jnsgd1na2vs0mg"},{"bike_id":"2f20e822-0a70-4928-9aa6-4b3727afe02f","system_id":"levelo_inurba_marseille","lat":43.29737,"lon":5.36578,"is_reserved":false,"is_disabled":true,"rental_uris":{"android":"levelo://app?vid=2f20e822-0a70-4928-9aa6-4b3727afe02f","ios":"levelo://app?vid=2f20e822-0a70-4928-9aa6-4b3727afe02f"},"vehicle_type_id":"4","last_reported":1745356138,"current_range_meters":18000,"station_id":"ce4bgn12rcd13ifvqbt0","pricing_plan_id":"cebpf4jnsgd1na2vs0mg"},{"bike_id":"d20e929c-75aa-460a-a593-efd1da3a752a","system_id":"levelo_inurba_marseille","lat":43.280821,"lon":5.396412,"is_reserved":false,"is_disabled":false,"rental_uris":{"android":"levelo://app?vid=d20e929c-75aa-460a-a593-efd1da3a752a","ios":"levelo://app?vid=d20e929c-75aa-460a-a593-efd1da3a752a"},"vehicle_type_id":"4","last_reported":1745356138,"current_range_meters":18000,"station_id":"ce4bho12rcd13ifvqh2g","pricing_plan_id":"cebpf4jnsgd1na2vs0mg"},{"bike_id":"b5d609bf-0c9b-49e3-9426-ce02cb8383b8","system_id":"levelo_inurba_marseille","lat":43.34148,"lon":5.40908,"is_reserved":false,"is_disabled":true,"rental_uris":{"android":"levelo://app?vid=b5d609bf-0c9b-49e3-9426-ce02cb8383b8","ios":"levelo://app?vid=b5d609bf-0c9b-49e3-9426-ce02cb8383b8"},"vehicle_type_id":"4","last_reported":1745356138,"current_range_meters":18800,"station_id":"ce4bhqh2rcd13ifvqhlg","pricing_plan_id":"cebpf4jnsgd1na2vs0mg"},{"bike_id":"5aa6b7ba-4c95-4e65-b477-aaf5d3993c37","system_id":"levelo_inurba_marseille","lat":43.28673,"lon":5.3638,"is_reserved":false,"is_disabled":false,"rental_uris":{"android":"levelo://app?vid=5aa6b7ba-4c95-4e65-b477-aaf5d3993c37","ios":"levelo://app?vid=5aa6b7ba-4c95-4e65-b477-aaf5d3993c37"},"vehicle_type_id":"4","last_reported":1745356138,"current_range_meters":18800,"station_id":"ce4bhah2rcd13ifvqej0","pricing_plan_id":"cebpf4jnsgd1na2vs0mg"},{"bike_id":"d9c69595-2e05-4112-b657-652db6dfdc7e","system_id":"levelo_inurba_marseille","lat":43.29239,"lon":5.40912,"is_reserved":false,"is_disabled":false,"rental_uris":{"android":"levelo://app?vid=d9c69595-2e05-4112-b657-652db6dfdc7e","ios":"levelo://app?vid=d9c69595-2e05-4112-b657-652db6dfdc7e"},"vehicle_type_id":"4","last_reported":1745356138,"current_range_meters":18800,"station_id":"ce4bh192rcd13ifvqdc0","pricing_plan_id":"cebpf4jnsgd1na2vs0mg"},{"bike_id":"9b36c9bc-1f5b-4bf6-8c71-373a06c68118","system_id":"levelo_inurba_marseille","lat":43.2656,"lon":5.37279,"is_reserved":false,"is_disabled":false,"rental_uris":{"android":"levelo://app?vid=9b36c9bc-1f5b-4bf6-8c71-373a06c68118","ios":"levelo://app?vid=9b36c9bc-1f5b-4bf6-8c71-373a06c68118"},"vehicle_type_id":"4","last_reported":1745356138,"current_range_meters":18800,"station_id":"ce4bhg12rcd13ifvqf70","pricing_plan_id":"cebpf4jnsgd1na2vs0mg"},{"bike_id":"8dd9cf00-fe8c-4a4f-8031-0ca58d3c3974","system_id":"levelo_inurba_marseille","lat":43.30315,"lon":5.39223,"is_reserved":false,"is_disabled":false,"rental_uris":{"android":"levelo://app?vid=8dd9cf00-fe8c-4a4f-8031-0ca58d3c3974","ios":"levelo://app?vid=8dd9cf00-fe8c-4a4f-8031-0ca58d3c3974"},"vehicle_type_id":"4","last_reported":1745356138,"current_range_meters":18800,"station_id":"ce4bgkh2rcd13ifvqbk0","pricing_plan_id":"cebpf4jnsgd1na2vs0mg"},{"bike_id":"283654df-7a08-43bd-adab-0a9a2dced7cf","system_id":"levelo_inurba_marseille","lat":43.28042,"lon":5.36944,"is_reserved":false,"is_disabled":false,"rental_uris":{"android":"levelo://app?vid=283654df-7a08-43bd-adab-0a9a2dced7cf","ios":"levelo://app?vid=283654df-7a08-43bd-adab-0a9a2dced7cf"},"vehicle_type_id":"4","last_reported":1745356138,"current_range_meters":18800,"station_id":"ce4bhnp2rcd13ifvqgvg","pricing_plan_id":"cebpf4jnsgd1na2vs0mg"},{"bike_id":"29190277-9c68-44eb-8885-aafbd2c00a49","system_id":"levelo_inurba_marseille","lat":43.3014,"lon":5.39858,"is_reserved":false,"is_disabled":true,"rental_uris":{"android":"levelo://app?vid=29190277-9c68-44eb-8885-aafbd2c00a49","ios":"levelo://app?vid=29190277-9c68-44eb-8885-aafbd2c00a49"},"vehicle_type_id":"4","last_reported":1745356138,"current_range_meters":18800,"station_id":"ce4bh0h2rcd13ifvqd40","pricing_plan_id":"cebpf4jnsgd1na2vs0mg"},{"bike_id":"e9bfc791-d140-43b1-b0a3-c2737658d5de","system_id":"levelo_inurba_marseille","lat":43.22931,"lon":5.35379,"is_reserved":false,"is_disabled":false,"rental_uris":{"android":"levelo://app?vid=e9bfc791-d140-43b1-b0a3-c2737658d5de","ios":"levelo://app?vid=e9bfc791-d140-43b1-b0a3-c2737658d5de"},"vehicle_type_id":"4","last_reported":1745356138,"current_range_meters":18800,"station_id":"cpo3532slgdg3j2ikp40","pricing_plan_id":"cebpf4jnsgd1na2vs0mg"},{"bike_id":"7db9ae56-479c-4f7c-9370-70a4a3931b17","system_id":"levelo_inurba_marseille","lat":43.25828,"lon":5.39437,"is_reserved":false,"is_disabled":false,"rental_uris":{"android":"levelo://app?vid=7db9ae56-479c-4f7c-9370-70a4a3931b17","ios":"levelo://app?vid=7db9ae56-479c-4f7c-9370-70a4a3931b17"},"vehicle_type_id":"4","last_reported":1745356138,"current_range_meters":18800,"station_id":"ce4bhip2rcd13ifvqft0","pricing_plan_id":"cebpf4jnsgd1na2vs0mg"},{"bike_id":"553dda1c-949c-4d11-8340-925a19b94429","system_id":"levelo_inurba_marseille","lat":43.27812,"lon":5.40712,"is_reserved":false,"is_disabled":false,"rental_uris":{"android":"levelo://app?vid=553dda1c-949c-4d11-8340-925a19b94429","ios":"levelo://app?vid=553dda1c-949c-4d11-8340-925a19b94429"},"vehicle_type_id":"4","last_reported":1745356138,"current_range_meters":19200,"station_id":"ce4bhnh2rcd13ifvqgtg","pricing_plan_id":"cebpf4jnsgd1na2vs0mg"},{"bike_id":"d02d434e-861d-4889-be24-1171f21e87e2","system_id":"levelo_inurba_marseille","lat":43.28363,"lon":5.38642,"is_reserved":false,"is_disabled":false,"rental_uris":{"android":"levelo://app?vid=d02d434e-861d-4889-be24-1171f21e87e2","ios":"levelo://app?vid=d02d434e-861d-4889-be24-1171f21e87e2"},"vehicle_type_id":"4","last_reported":1745356138,"current_range_meters":19200,"station_id":"ce4bh492rcd13ifvqdvg","pricing_plan_id":"cebpf4jnsgd1na2vs0mg"},{"bike_id":"a5588965-43f6-457c-a175-2d7ddf9f4595","system_id":"levelo_inurba_marseille","lat":43.32011,"lon":5.38138,"is_reserved":false,"is_disabled":false,"rental_uris":{"android":"levelo://app?vid=a5588965-43f6-457c-a175-2d7ddf9f4595","ios":"levelo://app?vid=a5588965-43f6-457c-a175-2d7ddf9f4595"},"vehicle_type_id":"4","last_reported":1745356138,"current_range_meters":19200,"station_id":"ce4bhr12rcd13ifvqhpg","pricing_plan_id":"cebpf4jnsgd1na2vs0mg"},{"bike_id":"05ec953f-af04-48e4-ba7f-a7bf8af23d00","system_id":"levelo_inurba_marseille","lat":43.25573,"lon":5.38221,"is_reserved":false,"is_disabled":false,"rental_uris":{"android":"levelo://app?vid=05ec953f-af04-48e4-ba7f-a7bf8af23d00","ios":"levelo://app?vid=05ec953f-af04-48e4-ba7f-a7bf8af23d00"},"vehicle_type_id":"4","last_reported":1745356138,"current_range_meters":19200,"station_id":"ce4bhih2rcd13ifvqfs0","pricing_plan_id":"cebpf4jnsgd1na2vs0mg"},{"bike_id":"46374c49-3adc-4c5a-8966-e00f056c0d57","system_id":"levelo_inurba_marseille","lat":43.27846,"lon":5.35442,"is_reserved":false,"is_disabled":false,"rental_uris":{"android":"levelo://app?vid=46374c49-3adc-4c5a-8966-e00f056c0d57","ios":"levelo://app?vid=46374c49-3adc-4c5a-8966-e00f056c0d57"},"vehicle_type_id":"4","last_reported":1745356138,"current_range_meters":19200,"station_id":"","pricing_plan_id":"cebpf4jnsgd1na2vs0mg"},{"bike_id":"ca36f56b-bddd-4007-aed0-302164b33270","system_id":"levelo_inurba_marseille","lat":43.29096,"lon":5.38135,"is_reserved":false,"is_disabled":false,"rental_uris":{"android":"levelo://app?vid=ca36f56b-bddd-4007-aed0-302164b33270","ios":"levelo://app?vid=ca36f56b-bddd-4007-aed0-302164b33270"},"vehicle_type_id":"4","last_reported":1745356138,"current_range_meters":19200,"station_id":"ce4bh512rcd13ifvqe2g","pricing_plan_id":"cebpf4jnsgd1na2vs0mg"},{"bike_id":"e52263de-f4c1-4bfb-bf0f-4c29ad7553d6","system_id":"levelo_inurba_marseille","lat":43.33743,"lon":5.39184,"is_reserved":false,"is_disabled":false,"rental_uris":{"android":"levelo://app?vid=e52263de-f4c1-4bfb-bf0f-4c29ad7553d6","ios":"levelo://app?vid=e52263de-f4c1-4bfb-bf0f-4c29ad7553d6"},"vehicle_type_id":"4","last_reported":1745356138,"current_range_meters":19200,"station_id":"ce4bhr92rcd13ifvqhsg","pricing_plan_id":"cebpf4jnsgd1na2vs0mg"},{"bike_id":"f6b79ba2-d488-4a25-98cf-24cfbca82b52","system_id":"levelo_inurba_marseille","lat":43.29704,"lon":5.36612,"is_reserved":false,"is_disabled":false,"rental_uris":{"android":"levelo://app?vid=f6b79ba2-d488-4a25-98cf-24cfbca82b52","ios":"levelo://app?vid=f6b79ba2-d488-4a25-98cf-24cfbca82b52"},"vehicle_type_id":"4","last_reported":1745356138,"current_range_meters":19200,"station_id":"ce4bgn12rcd13ifvqbt0","pricing_plan_id":"cebpf4jnsgd1na2vs0mg"},{"bike_id":"634a3616-ccac-4462-b5ee-9c72516d63ee","system_id":"levelo_inurba_marseille","lat":43.28844,"lon":5.35864,"is_reserved":false,"is_disabled":false,"rental_uris":{"android":"levelo://app?vid=634a3616-ccac-4462-b5ee-9c72516d63ee","ios":"levelo://app?vid=634a3616-ccac-4462-b5ee-9c72516d63ee"},"vehicle_type_id":"4","last_reported":1745356138,"current_range_meters":19600,"station_id":"ce4bhb12rcd13ifvqem0","pricing_plan_id":"cebpf4jnsgd1na2vs0mg"},{"bike_id":"44036592-bf56-4014-9fd5-2d278fd6bae2","system_id":"levelo_inurba_marseille","lat":43.280023,"lon":5.416636,"is_reserved":false,"is_disabled":false,"rental_uris":{"android":"levelo://app?vid=44036592-bf56-4014-9fd5-2d278fd6bae2","ios":"levelo://app?vid=44036592-bf56-4014-9fd5-2d278fd6bae2"},"vehicle_type_id":"4","last_reported":1745356138,"current_range_meters":19600,"station_id":"ce4bho12rcd13ifvqh1g","pricing_plan_id":"cebpf4jnsgd1na2vs0mg"},{"bike_id":"d5e26789-4b3f-427d-ac2d-c442d3cbf1fb","system_id":"levelo_inurba_marseille","lat":43.28403,"lon":5.37558,"is_reserved":false,"is_disabled":false,"rental_uris":{"android":"levelo://app?vid=d5e26789-4b3f-427d-ac2d-c442d3cbf1fb","ios":"levelo://app?vid=d5e26789-4b3f-427d-ac2d-c442d3cbf1fb"},"vehicle_type_id":"4","last_reported":1745356138,"current_range_meters":19600,"station_id":"ce4bh412rcd13ifvqds0","pricing_plan_id":"cebpf4jnsgd1na2vs0mg"},{"bike_id":"06a7d8fd-e91a-4bfc-90c7-ecd4ef537301","system_id":"levelo_inurba_marseille","lat":43.31338,"lon":5.39683,"is_reserved":false,"is_disabled":false,"rental_uris":{"android":"levelo://app?vid=06a7d8fd-e91a-4bfc-90c7-ecd4ef537301","ios":"levelo://app?vid=06a7d8fd-e91a-4bfc-90c7-ecd4ef537301"},"vehicle_type_id":"4","last_reported":1745356138,"current_range_meters":20000,"station_id":"ce4bgvp2rcd13ifvqcu0","pricing_plan_id":"cebpf4jnsgd1na2vs0mg"},{"bike_id":"0e8dd73c-6913-44ca-969a-7e16b3465e5d","system_id":"levelo_inurba_marseille","lat":43.29033,"lon":5.39972,"is_reserved":false,"is_disabled":false,"rental_uris":{"android":"levelo://app?vid=0e8dd73c-6913-44ca-969a-7e16b3465e5d","ios":"levelo://app?vid=0e8dd73c-6913-44ca-969a-7e16b3465e5d"},"vehicle_type_id":"4","last_reported":1745356138,"current_range_meters":20000,"station_id":"ce4bh392rcd13ifvqdm0","pricing_plan_id":"cebpf4jnsgd1na2vs0mg"},{"bike_id":"bc7ff014-0aa7-491b-9064-252bdd5a5870","system_id":"levelo_inurba_marseille","lat":43.28824,"lon":5.35858,"is_reserved":false,"is_disabled":false,"rental_uris":{"android":"levelo://app?vid=bc7ff014-0aa7-491b-9064-252bdd5a5870","ios":"levelo://app?vid=bc7ff014-0aa7-491b-9064-252bdd5a5870"},"vehicle_type_id":"4","last_reported":1745356138,"current_range_meters":20000,"station_id":"ce4bhb12rcd13ifvqem0","pricing_plan_id":"cebpf4jnsgd1na2vs0mg"},{"bike_id":"25591650-a494-4d8a-9db1-4f31db76974a","system_id":"levelo_inurba_marseille","lat":43.30363,"lon":5.41876,"is_reserved":false,"is_disabled":false,"rental_uris":{"android":"levelo://app?vid=25591650-a494-4d8a-9db1-4f31db76974a","ios":"levelo://app?vid=25591650-a494-4d8a-9db1-4f31db76974a"},"vehicle_type_id":"4","last_reported":1745356138,"current_range_meters":20000,"station_id":"ce4bhop2rcd13ifvqh7g","pricing_plan_id":"cebpf4jnsgd1na2vs0mg"},{"bike_id":"24ee74f7-efdc-4990-8041-9d280e03fe3a","system_id":"levelo_inurba_marseille","lat":43.29531,"lon":5.39404,"is_reserved":false,"is_disabled":false,"rental_uris":{"android":"levelo://app?vid=24ee74f7-efdc-4990-8041-9d280e03fe3a","ios":"levelo://app?vid=24ee74f7-efdc-4990-8041-9d280e03fe3a"},"vehicle_type_id":"4","last_reported":1745356138,"current_range_meters":20000,"station_id":"ce4bh292rcd13ifvqdf0","pricing_plan_id":"cebpf4jnsgd1na2vs0mg"},{"bike_id":"20a79b79-5512-4b0c-9aa8-676ddbc216c5","system_id":"levelo_inurba_marseille","lat":43.29439,"lon":5.39743,"is_reserved":false,"is_disabled":false,"rental_uris":{"android":"levelo://app?vid=20a79b79-5512-4b0c-9aa8-676ddbc216c5","ios":"levelo://app?vid=20a79b79-5512-4b0c-9aa8-676ddbc216c5"},"vehicle_type_id":"4","last_reported":1745356138,"current_range_meters":20000,"station_id":"ce4bh3h2rcd13ifvqdo0","pricing_plan_id":"cebpf4jnsgd1na2vs0mg"},{"bike_id":"9966e2c4-c438-4020-9570-af75c54f7699","system_id":"levelo_inurba_marseille","lat":43.25122,"lon":5.40312,"is_reserved":false,"is_disabled":false,"rental_uris":{"android":"levelo://app?vid=9966e2c4-c438-4020-9570-af75c54f7699","ios":"levelo://app?vid=9966e2c4-c438-4020-9570-af75c54f7699"},"vehicle_type_id":"4","last_reported":1745356138,"current_range_meters":20000,"station_id":"ce4bhlh2rcd13ifvqgig","pricing_plan_id":"cebpf4jnsgd1na2vs0mg"},{"bike_id":"7b06842b-c7e4-46fa-8690-c33864396d7d","system_id":"levelo_inurba_marseille","lat":43.25118,"lon":5.40337,"is_reserved":false,"is_disabled":false,"rental_uris":{"android":"levelo://app?vid=7b06842b-c7e4-46fa-8690-c33864396d7d","ios":"levelo://app?vid=7b06842b-c7e4-46fa-8690-c33864396d7d"},"vehicle_type_id":"4","last_reported":1745356138,"current_range_meters":20000,"station_id":"ce4bhlh2rcd13ifvqgig","pricing_plan_id":"cebpf4jnsgd1na2vs0mg"},{"bike_id":"9397a6bb-7010-489e-bda6-146bdeb4d6d1","system_id":"levelo_inurba_marseille","lat":43.28102,"lon":5.37845,"is_reserved":false,"is_disabled":false,"rental_uris":{"android":"levelo://app?vid=9397a6bb-7010-489e-bda6-146bdeb4d6d1","ios":"levelo://app?vid=9397a6bb-7010-489e-bda6-146bdeb4d6d1"},"vehicle_type_id":"4","last_reported":1745356138,"current_range_meters":20400,"station_id":"ce4bha12rcd13ifvqee0","pricing_plan_id":"cebpf4jnsgd1na2vs0mg"},{"bike_id":"b244cdd7-891e-41d3-bbdf-d6e3de24d190","system_id":"levelo_inurba_marseille","lat":43.29187,"lon":5.35787,"is_reserved":false,"is_disabled":true,"rental_uris":{"android":"levelo://app?vid=b244cdd7-891e-41d3-bbdf-d6e3de24d190","ios":"levelo://app?vid=b244cdd7-891e-41d3-bbdf-d6e3de24d190"},"vehicle_type_id":"4","last_reported":1745356138,"current_range_meters":20400,"station_id":"ce4bhb12rcd13ifvqel0","pricing_plan_id":"cebpf4jnsgd1na2vs0mg"},{"bike_id":"dc0a47a3-e95c-4b5c-91ea-602c9dce4fa5","system_id":"levelo_inurba_marseille","lat":43.2315,"lon":5.4,"is_reserved":false,"is_disabled":false,"rental_uris":{"android":"levelo://app?vid=dc0a47a3-e95c-4b5c-91ea-602c9dce4fa5","ios":"levelo://app?vid=dc0a47a3-e95c-4b5c-91ea-602c9dce4fa5"},"vehicle_type_id":"4","last_reported":1745356138,"current_range_meters":20400,"station_id":"ce4bhn12rcd13ifvqgqg","pricing_plan_id":"cebpf4jnsgd1na2vs0mg"},{"bike_id":"1367ed60-c850-419e-80ac-c66d88a13618","system_id":"levelo_inurba_marseille","lat":43.28919,"lon":5.38392,"is_reserved":false,"is_disabled":false,"rental_uris":{"android":"levelo://app?vid=1367ed60-c850-419e-80ac-c66d88a13618","ios":"levelo://app?vid=1367ed60-c850-419e-80ac-c66d88a13618"},"vehicle_type_id":"4","last_reported":1745356138,"current_range_meters":20400,"station_id":"","pricing_plan_id":"cebpf4jnsgd1na2vs0mg"},{"bike_id":"2c210749-934e-4075-8f69-64b44da87771","system_id":"levelo_inurba_marseille","lat":43.30281,"lon":5.39237,"is_reserved":false,"is_disabled":true,"rental_uris":{"android":"levelo://app?vid=2c210749-934e-4075-8f69-64b44da87771","ios":"levelo://app?vid=2c210749-934e-4075-8f69-64b44da87771"},"vehicle_type_id":"4","last_reported":1745356138,"current_range_meters":20400,"station_id":"ce4bgkh2rcd13ifvqbk0","pricing_plan_id":"cebpf4jnsgd1na2vs0mg"},{"bike_id":"f14e05df-6b48-48e9-a4b2-0a922790be98","system_id":"levelo_inurba_marseille","lat":43.29282,"lon":5.36834,"is_reserved":false,"is_disabled":true,"rental_uris":{"android":"levelo://app?vid=f14e05df-6b48-48e9-a4b2-0a922790be98","ios":"levelo://app?vid=f14e05df-6b48-48e9-a4b2-0a922790be98"},"vehicle_type_id":"4","last_reported":1745356138,"current_range_meters":20400,"station_id":"ce4bhbp2rcd13ifvqesg","pricing_plan_id":"cebpf4jnsgd1na2vs0mg"},{"bike_id":"0c3e333c-b568-4eec-9922-c34e4bb2d84a","system_id":"levelo_inurba_marseille","lat":43.29258,"lon":5.40908,"is_reserved":false,"is_disabled":false,"rental_uris":{"android":"levelo://app?vid=0c3e333c-b568-4eec-9922-c34e4bb2d84a","ios":"levelo://app?vid=0c3e333c-b568-4eec-9922-c34e4bb2d84a"},"vehicle_type_id":"4","last_reported":1745356138,"current_range_meters":20400,"station_id":"ce4bh192rcd13ifvqdc0","pricing_plan_id":"cebpf4jnsgd1na2vs0mg"},{"bike_id":"5189c0bc-347f-45f5-8baa-95e865befafc","system_id":"levelo_inurba_marseille","lat":43.30407,"lon":5.41288,"is_reserved":false,"is_disabled":false,"rental_uris":{"android":"levelo://app?vid=5189c0bc-347f-45f5-8baa-95e865befafc","ios":"levelo://app?vid=5189c0bc-347f-45f5-8baa-95e865befafc"},"vehicle_type_id":"4","last_reported":1745356138,"current_range_meters":20400,"station_id":"ce4bhop2rcd13ifvqh8g","pricing_plan_id":"cebpf4jnsgd1na2vs0mg"},{"bike_id":"0ea362ce-4354-4f0f-acc7-962b146816c7","system_id":"levelo_inurba_marseille","lat":43.25866,"lon":5.3991,"is_reserved":false,"is_disabled":true,"rental_uris":{"android":"levelo://app?vid=0ea362ce-4354-4f0f-acc7-962b146816c7","ios":"levelo://app?vid=0ea362ce-4354-4f0f-acc7-962b146816c7"},"vehicle_type_id":"4","last_reported":1745356138,"current_range_meters":20800,"station_id":"ce4bhl92rcd13ifvqghg","pricing_plan_id":"cebpf4jnsgd1na2vs0mg"},{"bike_id":"fd088e22-34ce-47e2-962f-65a647d19523","system_id":"levelo_inurba_marseille","lat":43.298745,"lon":5.397292,"is_reserved":false,"is_disabled":false,"rental_uris":{"android":"levelo://app?vid=fd088e22-34ce-47e2-962f-65a647d19523","ios":"levelo://app?vid=fd088e22-34ce-47e2-962f-65a647d19523"},"vehicle_type_id":"4","last_reported":1745356138,"current_range_meters":20400,"station_id":"ce4bh0h2rcd13ifvqd50","pricing_plan_id":"cebpf4jnsgd1na2vs0mg"},{"bike_id":"e50b404e-94b4-4aaa-a8e0-3880f8766526","system_id":"levelo_inurba_marseille","lat":43.29529,"lon":5.38542,"is_reserved":false,"is_disabled":false,"rental_uris":{"android":"levelo://app?vid=e50b404e-94b4-4aaa-a8e0-3880f8766526","ios":"levelo://app?vid=e50b404e-94b4-4aaa-a8e0-3880f8766526"},"vehicle_type_id":"4","last_reported":1745356138,"current_range_meters":20800,"station_id":"ce4bgih2rcd13ifvqba0","pricing_plan_id":"cebpf4jnsgd1na2vs0mg"},{"bike_id":"52b69f7a-9560-44fc-a047-c946dc3d6077","system_id":"levelo_inurba_marseille","lat":43.29895,"lon":5.39714,"is_reserved":false,"is_disabled":false,"rental_uris":{"android":"levelo://app?vid=52b69f7a-9560-44fc-a047-c946dc3d6077","ios":"levelo://app?vid=52b69f7a-9560-44fc-a047-c946dc3d6077"},"vehicle_type_id":"4","last_reported":1745356138,"current_range_meters":20800,"station_id":"ce4bh0h2rcd13ifvqd50","pricing_plan_id":"cebpf4jnsgd1na2vs0mg"},{"bike_id":"189892d5-6682-45fb-a8c1-fe0939832067","system_id":"levelo_inurba_marseille","lat":43.251113,"lon":5.403233,"is_reserved":false,"is_disabled":false,"rental_uris":{"android":"levelo://app?vid=189892d5-6682-45fb-a8c1-fe0939832067","ios":"levelo://app?vid=189892d5-6682-45fb-a8c1-fe0939832067"},"vehicle_type_id":"4","last_reported":1745356138,"current_range_meters":20800,"station_id":"ce4bhlh2rcd13ifvqgig","pricing_plan_id":"cebpf4jnsgd1na2vs0mg"},{"bike_id":"5bf452fd-c1b5-4776-976e-7c364d83ca00","system_id":"levelo_inurba_marseille","lat":43.26576,"lon":5.39009,"is_reserved":false,"is_disabled":false,"rental_uris":{"android":"levelo://app?vid=5bf452fd-c1b5-4776-976e-7c364d83ca00","ios":"levelo://app?vid=5bf452fd-c1b5-4776-976e-7c364d83ca00"},"vehicle_type_id":"4","last_reported":1745356138,"current_range_meters":20800,"station_id":"ce4bhe12rcd13ifvqf30","pricing_plan_id":"cebpf4jnsgd1na2vs0mg"},{"bike_id":"c8fe5982-a895-48b4-a325-a1715d3da06d","system_id":"levelo_inurba_marseille","lat":43.2858,"lon":5.39497,"is_reserved":false,"is_disabled":false,"rental_uris":{"android":"levelo://app?vid=c8fe5982-a895-48b4-a325-a1715d3da06d","ios":"levelo://app?vid=c8fe5982-a895-48b4-a325-a1715d3da06d"},"vehicle_type_id":"4","last_reported":1745356138,"current_range_meters":20800,"station_id":"ce4bh292rcd13ifvqdg0","pricing_plan_id":"cebpf4jnsgd1na2vs0mg"},{"bike_id":"6da27505-89be-4a96-88ac-febbb1b1d1e6","system_id":"levelo_inurba_marseille","lat":43.27382,"lon":5.36251,"is_reserved":false,"is_disabled":false,"rental_uris":{"android":"levelo://app?vid=6da27505-89be-4a96-88ac-febbb1b1d1e6","ios":"levelo://app?vid=6da27505-89be-4a96-88ac-febbb1b1d1e6"},"vehicle_type_id":"4","last_reported":1745356138,"current_range_meters":21600,"station_id":"ce4bhbh2rcd13ifvqeo0","pricing_plan_id":"cebpf4jnsgd1na2vs0mg"},{"bike_id":"ee3409f4-6e00-42aa-8238-c2555f8438cc","system_id":"levelo_inurba_marseille","lat":43.28724,"lon":5.37392,"is_reserved":false,"is_disabled":false,"rental_uris":{"android":"levelo://app?vid=ee3409f4-6e00-42aa-8238-c2555f8438cc","ios":"levelo://app?vid=ee3409f4-6e00-42aa-8238-c2555f8438cc"},"vehicle_type_id":"4","last_reported":1745356138,"current_range_meters":21600,"station_id":"ce4bh3p2rcd13ifvqdq0","pricing_plan_id":"cebpf4jnsgd1na2vs0mg"},{"bike_id":"7c37adeb-bcad-4680-af38-7a7daddfd96c","system_id":"levelo_inurba_marseille","lat":43.26203,"lon":5.3791,"is_reserved":false,"is_disabled":false,"rental_uris":{"android":"levelo://app?vid=7c37adeb-bcad-4680-af38-7a7daddfd96c","ios":"levelo://app?vid=7c37adeb-bcad-4680-af38-7a7daddfd96c"},"vehicle_type_id":"4","last_reported":1745356138,"current_range_meters":21600,"station_id":"ce4bhjp2rcd13ifvqg90","pricing_plan_id":"cebpf4jnsgd1na2vs0mg"},{"bike_id":"3e8f0127-96fd-4fdd-97f2-be6e836f9523","system_id":"levelo_inurba_marseille","lat":43.33764,"lon":5.37451,"is_reserved":false,"is_disabled":false,"rental_uris":{"android":"levelo://app?vid=3e8f0127-96fd-4fdd-97f2-be6e836f9523","ios":"levelo://app?vid=3e8f0127-96fd-4fdd-97f2-be6e836f9523"},"vehicle_type_id":"4","last_reported":1745356138,"current_range_meters":21600,"station_id":"","pricing_plan_id":"cebpf4jnsgd1na2vs0mg"},{"bike_id":"603c2ff0-3c81-4c24-9114-3aae3b9d51c5","system_id":"levelo_inurba_marseille","lat":43.2808,"lon":5.39655,"is_reserved":false,"is_disabled":false,"rental_uris":{"android":"levelo://app?vid=603c2ff0-3c81-4c24-9114-3aae3b9d51c5","ios":"levelo://app?vid=603c2ff0-3c81-4c24-9114-3aae3b9d51c5"},"vehicle_type_id":"4","last_reported":1745356138,"current_range_meters":22000,"station_id":"ce4bho12rcd13ifvqh2g","pricing_plan_id":"cebpf4jnsgd1na2vs0mg"},{"bike_id":"8a72b76a-6918-4ae7-bbf2-12ad0495e6c8","system_id":"levelo_inurba_marseille","lat":43.30926,"lon":5.40135,"is_reserved":false,"is_disabled":false,"rental_uris":{"android":"levelo://app?vid=8a72b76a-6918-4ae7-bbf2-12ad0495e6c8","ios":"levelo://app?vid=8a72b76a-6918-4ae7-bbf2-12ad0495e6c8"},"vehicle_type_id":"4","last_reported":1745356138,"current_range_meters":22000,"station_id":"ce4bgvp2rcd13ifvqct0","pricing_plan_id":"cebpf4jnsgd1na2vs0mg"},{"bike_id":"019a5a9a-ac10-464a-980a-01bc39d7012e","system_id":"levelo_inurba_marseille","lat":43.31731,"lon":5.37665,"is_reserved":false,"is_disabled":true,"rental_uris":{"android":"levelo://app?vid=019a5a9a-ac10-464a-980a-01bc39d7012e","ios":"levelo://app?vid=019a5a9a-ac10-464a-980a-01bc39d7012e"},"vehicle_type_id":"4","last_reported":1745356138,"current_range_meters":22000,"station_id":"","pricing_plan_id":"cebpf4jnsgd1na2vs0mg"},{"bike_id":"a3fae5db-ba99-41cf-a7f4-4e72332c79ba","system_id":"levelo_inurba_marseille","lat":43.29514,"lon":5.39044,"is_reserved":false,"is_disabled":false,"rental_uris":{"android":"levelo://app?vid=a3fae5db-ba99-41cf-a7f4-4e72332c79ba","ios":"levelo://app?vid=a3fae5db-ba99-41cf-a7f4-4e72332c79ba"},"vehicle_type_id":"4","last_reported":1745356138,"current_range_meters":22000,"station_id":"ce4bh3p2rcd13ifvqdp0","pricing_plan_id":"cebpf4jnsgd1na2vs0mg"},{"bike_id":"859bd2fd-018e-450f-a40e-e708928fcbbe","system_id":"levelo_inurba_marseille","lat":43.30096,"lon":5.39076,"is_reserved":false,"is_disabled":false,"rental_uris":{"android":"levelo://app?vid=859bd2fd-018e-450f-a40e-e708928fcbbe","ios":"levelo://app?vid=859bd2fd-018e-450f-a40e-e708928fcbbe"},"vehicle_type_id":"4","last_reported":1745356138,"current_range_meters":22400,"station_id":"ce4bh192rcd13ifvqdb0","pricing_plan_id":"cebpf4jnsgd1na2vs0mg"},{"bike_id":"667e5b45-1a2a-41c4-bb05-a5e14adf5550","system_id":"levelo_inurba_marseille","lat":43.32096,"lon":5.36787,"is_reserved":false,"is_disabled":false,"rental_uris":{"android":"levelo://app?vid=667e5b45-1a2a-41c4-bb05-a5e14adf5550","ios":"levelo://app?vid=667e5b45-1a2a-41c4-bb05-a5e14adf5550"},"vehicle_type_id":"4","last_reported":1745356138,"current_range_meters":22400,"station_id":"ce4bhrh2rcd13ifvqhug","pricing_plan_id":"cebpf4jnsgd1na2vs0mg"},{"bike_id":"8c6d0f27-36e4-496f-8437-1324c8e19330","system_id":"levelo_inurba_marseille","lat":43.31166,"lon":5.38723,"is_reserved":false,"is_disabled":false,"rental_uris":{"android":"levelo://app?vid=8c6d0f27-36e4-496f-8437-1324c8e19330","ios":"levelo://app?vid=8c6d0f27-36e4-496f-8437-1324c8e19330"},"vehicle_type_id":"4","last_reported":1745356138,"current_range_meters":22400,"station_id":"","pricing_plan_id":"cebpf4jnsgd1na2vs0mg"},