{"last_updated":1703513190,"ttl":30,"version":"2.2","data":{"bikes":[{"bike_id":"7ffb1ee4-8de6-4a76-82fc-270a0f3f9147","system_id":"levelo_inurba_marseille","lat":43.312239,"lon":5.368562,"is_reserved":false,"is_disabled":false,"rental_uris":{"android":"levelo://app?vid=7ffb1ee4-8de6-4a76-82fc-270a0f3f9147","ios":"levelo://app?vid=7ffb1ee4-8de6-4a76-82fc-270a0f3f9147"},"vehicle_type_id":"4","last_reported":1703513190,"current_range_meters":25600,"station_id":"ce4bgl92rcd13ifvqbq0","pricing_plan_id":"free"},{"bike_id":"eba080d9-adcc-43ed-87ff-9fce698ea631","system_id":"levelo_inurba_marseille","lat":43.309076,"lon":5.368465,"is_reserved":false,"is_disabled":false,"rental_uris":{"android":"levelo://app?vid=eba080d9-adcc-43ed-87ff-9fce698ea631","ios":"levelo://app?vid=eba080d9-adcc-43ed-87ff-9fce698ea631"},"vehicle_type_id":"4","last_reported":1703513190,"current_range_meters":29200,"station_id":"ce4bgn92rcd13ifvqbvg","pricing_plan_id":"free"},{"bike_id":"b83d95a1-2dae-4064-9e67-1811d651066d","system_id":"levelo_inurba_marseille","lat":43.314811,"lon":5.373103,"is_reserved":false,"is_disabled":false,"rental_uris":{"android":"levelo://app?vid=b83d95a1-2dae-4064-9e67-1811d651066d","ios":"levelo://app?vid=b83d95a1-2dae-4064-9e67-1811d651066d"},"vehicle_type_id":"4","last_reported":1703513190,"current_range_meters":24800,"station_id":"ce4bgt12rcd13ifvqcd0","pricing_plan_id":"free"},{"bike_id":"a63882cc-f4b0-4b47-a9e7-ab1da82a5c47","system_id":"levelo_inurba_marseille","lat":43.314811,"lon":5.373103,"is_reserved":false,"is_disabled":false,"rental_uris":{"android":"levelo://app?vid=a63882cc-f4b0-4b47-a9e7-ab1da82a5c47","ios":"levelo://app?vid=a63882cc-f4b0-4b47-a9e7-ab1da82a5c47"},"vehicle_type_id":"4","last_reported":1703513190,"current_range_meters":20000,"station_id":"ce4bgt12rcd13ifvqcd0","pricing_plan_id":"free"},{"bike_id":"72291aa3-e0a7-4e66-b26b-a553cccc40e8","system_id":"levelo_inurba_marseille","lat":43.309039,"lon":5.371797,"is_reserved":false,"is_disabled":false,"rental_uris":{"android":"levelo://app?vid=72291aa3-e0a7-4e66-b26b-a553cccc40e8","ios":"levelo://app?vid=72291aa3-e0a7-4e66-b26b-a553cccc40e8"},"vehicle_type_id":"4","last_reported":1703513190,"current_range_meters":23200,"station_id":"ce4bguh2rcd13ifvqckg","pricing_plan_id":"free"},{"bike_id":"d2be49f4-d512-450f-80de-370a6da97420","system_id":"levelo_inurba_marseille","lat":43.318964,"lon":5.36877,"is_reserved":false,"is_disabled":false,"rental_uris":{"android":"levelo://app?vid=d2be49f4-d512-450f-80de-370a6da97420","ios":"levelo://app?vid=d2be49f4-d512-450f-80de-370a6da97420"},"vehicle_type_id":"4","last_reported":1703513190,"current_range_meters":10400,"station_id":"","pricing_plan_id":"free"},{"bike_id":"cc2f4e4f-2b28-4e84-be8f-32c8a171c9e1","system_id":"levelo_inurba_marseille","lat":43.313395,"lon":5.376219,"is_reserved":false,"is_disabled":false,"rental_uris":{"android":"levelo://app?vid=cc2f4e4f-2b28-4e84-be8f-32c8a171c9e1","ios":"levelo://app?vid=cc2f4e4f-2b28-4e84-be8f-32c8a171c9e1"},"vehicle_type_id":"4","last_reported":1703513190,"current_range_meters":28000,"station_id":"","pricing_plan_id":"free"},{"bike_id":"3d323013-753d-44ae-8adb-e0aaeceb9d4b","system_id":"levelo_inurba_marseille","lat":43.305368,"lon":5.367343,"is_reserved":false,"is_disabled":false,"rental_uris":{"android":"levelo://app?vid=3d323013-753d-44ae-8adb-e0aaeceb9d4b","ios":"levelo://app?vid=3d323013-753d-44ae-8adb-e0aaeceb9d4b"},"vehicle_type_id":"4","last_reported":1703513190,"current_range_meters":25200,"station_id":"ce4bgrp2rcd13ifvqc9g","pricing_plan_id":"free"},{"bike_id":"a921db1b-9bb2-4fe3-bb47-7fae16f496b6","system_id":"levelo_inurba_marseille","lat":43.305368,"lon":5.367343,"is_reserved":false,"is_disabled":false,"rental_uris":{"android":"levelo://app?vid=a921db1b-9bb2-4fe3-bb47-7fae16f496b6","ios":"levelo://app?vid=a921db1b-9bb2-4fe3-bb47-7fae16f496b6"},"vehicle_type_id":"4","last_reported":1703513190,"current_range_meters":16800,"station_id":"ce4bgrp2rcd13ifvqc9g","pricing_plan_id":"free"},{"bike_id":"1a71022c-fdb5-4632-a425-38d7ef4f21e4","system_id":"levelo_inurba_marseille","lat":43.318369,"lon":5.373936,"is_reserved":false,"is_disabled":false,"rental_uris":{"android":"levelo://app?vid=1a71022c-fdb5-4632-a425-38d7ef4f21e4","ios":"levelo://app?vid=1a71022c-fdb5-4632-a425-38d7ef4f21e4"},"vehicle_type_id":"4","last_reported":1703513190,"current_range_meters":0,"station_id":"","pricing_plan_id":"free"},{"bike_id":"a3dfb2b4-116b-4910-b58d-352615c0eb69","system_id":"levelo_inurba_marseille","lat":43.305989,"lon":5.37225,"is_reserved":false,"is_disabled":false,"rental_uris":{"android":"levelo://app?vid=a3dfb2b4-116b-4910-b58d-352615c0eb69","ios":"levelo://app?vid=a3dfb2b4-116b-4910-b58d-352615c0eb69"},"vehicle_type_id":"4","last_reported":1703513190,"current_range_meters":31600,"station_id":"ce4bgqh2rcd13ifvqc4g","pricing_plan_id":"free"},{"bike_id":"2425c627-35dd-46d4-a91a-a306544288b9","system_id":"levelo_inurba_marseille","lat":43.306,"lon":5.3722,"is_reserved":false,"is_disabled":false,"rental_uris":{"android":"levelo://app?vid=2425c627-35dd-46d4-a91a-a306544288b9","ios":"levelo://app?vid=2425c627-35dd-46d4-a91a-a306544288b9"},"vehicle_type_id":"4","last_reported":1703513190,"current_range_meters":28800,"station_id":"ce4bgqh2rcd13ifvqc4g","pricing_plan_id":"free"},{"bike_id":"69d26e9b-7e93-4992-a7af-409c2d8e817a","system_id":"levelo_inurba_marseille","lat":43.305989,"lon":5.37225,"is_reserved":false,"is_disabled":false,"rental_uris":{"android":"levelo://app?vid=69d26e9b-7e93-4992-a7af-409c2d8e817a","ios":"levelo://app?vid=69d26e9b-7e93-4992-a7af-409c2d8e817a"},"vehicle_type_id":"4","last_reported":1703513190,"current_range_meters":31600,"station_id":"ce4bgqh2rcd13ifvqc4g","pricing_plan_id":"free"},{"bike_id":"969b7981-79e6-4eaf-8a61-608a681bbc7c","system_id":"levelo_inurba_marseille","lat":43.311131,"lon":5.377651,"is_reserved":false,"is_disabled":false,"rental_uris":{"android":"levelo://app?vid=969b7981-79e6-4eaf-8a61-608a681bbc7c","ios":"levelo://app?vid=969b7981-79e6-4eaf-8a61-608a681bbc7c"},"vehicle_type_id":"4","last_reported":1703513190,"current_range_meters":19200,"station_id":"ce4bgt92rcd13ifvqcg0","pricing_plan_id":"free"},{"bike_id":"bf84c28a-e8f0-4bd8-bb62-cc82f6997b1f","system_id":"levelo_inurba_marseille","lat":43.311131,"lon":5.377651,"is_reserved":false,"is_disabled":false,"rental_uris":{"android":"levelo://app?vid=bf84c28a-e8f0-4bd8-bb62-cc82f6997b1f","ios":"levelo://app?vid=bf84c28a-e8f0-4bd8-bb62-cc82f6997b1f"},"vehicle_type_id":"4","last_reported":1703513190,"current_range_meters":22400,"station_id":"ce4bgt92rcd13ifvqcg0","pricing_plan_id":"free"},{"bike_id":"a5401e6a-261d-40b6-a0a7-6567287ef315","system_id":"levelo_inurba_marseille","lat":43.311131,"lon":5.377651,"is_reserved":false,"is_disabled":false,"rental_uris":{"android":"levelo://app?vid=a5401e6a-261d-40b6-a0a7-6567287ef315","ios":"levelo://app?vid=a5401e6a-261d-40b6-a0a7-6567287ef315"},"vehicle_type_id":"4","last_reported":1703513190,"current_range_meters":21200,"station_id":"ce4bgt92rcd13ifvqcg0","pricing_plan_id":"free"},{"bike_id":"fc05bf8c-a50a-4d7f-a001-3adab982e7b4","system_id":"levelo_inurba_marseille","lat":43.311131,"lon":5.377651,"is_reserved":false,"is_disabled":false,"rental_uris":{"android":"levelo://app?vid=fc05bf8c-a50a-4d7f-a001-3adab982e7b4","ios":"levelo://app?vid=fc05bf8c-a50a-4d7f-a001-3adab982e7b4"},"vehicle_type_id":"4","last_reported":1703513190,"current_range_meters":18000,"station_id":"ce4bgt92rcd13ifvqcg0","pricing_plan_id":"free"},{"bike_id":"d47292c8-d14e-443f-9da0-9d174c234754","system_id":"levelo_inurba_marseille","lat":43.311166,"lon":5.377699,"is_reserved":false,"is_disabled":false,"rental_uris":{"android":"levelo://app?vid=d47292c8-d14e-443f-9da0-9d174c234754","ios":"levelo://app?vid=d47292c8-d14e-443f-9da0-9d174c234754"},"vehicle_type_id":"4","last_reported":1703513190,"current_range_meters":17600,"station_id":"ce4bgt92rcd13ifvqcg0","pricing_plan_id":"free"},{"bike_id":"f9b7b142-dae9-4c7f-a60e-059c4b240af6","system_id":"levelo_inurba_marseille","lat":43.31121,"lon":5.37773,"is_reserved":false,"is_disabled":false,"rental_uris":{"android":"levelo://app?vid=f9b7b142-dae9-4c7f-a60e-059c4b240af6","ios":"levelo://app?vid=f9b7b142-dae9-4c7f-a60e-059c4b240af6"},"vehicle_type_id":"4","last_reported":1703513190,"current_range_meters":16800,"station_id":"ce4bgt92rcd13ifvqcg0","pricing_plan_id":"free"},{"bike_id":"32662217-2f4b-4030-ab27-1739ad5e1fe2","system_id":"levelo_inurba_marseille","lat":43.317075,"lon":5.377367,"is_reserved":false,"is_disabled":false,"rental_uris":{"android":"levelo://app?vid=32662217-2f4b-4030-ab27-1739ad5e1fe2","ios":"levelo://app?vid=32662217-2f4b-4030-ab27-1739ad5e1fe2"},"vehicle_type_id":"4","last_reported":1703513190,"current_range_meters":20400,"station_id":"ce4bgth2rcd13ifvqch0","pricing_plan_id":"free"},{"bike_id":"076697a4-b43a-4236-a3ab-49182bbd6fbd","system_id":"levelo_inurba_marseille","lat":43.317075,"lon":5.377367,"is_reserved":false,"is_disabled":false,"rental_uris":{"android":"levelo://app?vid=076697a4-b43a-4236-a3ab-49182bbd6fbd","ios":"levelo://app?vid=076697a4-b43a-4236-a3ab-49182bbd6fbd"},"vehicle_type_id":"4","last_reported":1703513190,"current_range_meters":28400,"station_id":"ce4bgth2rcd13ifvqch0","pricing_plan_id":"free"},{"bike_id":"8aa0e568-a614-460d-9775-0fff663cacf7","system_id":"levelo_inurba_marseille","lat":43.317075,"lon":5.377367,"is_reserved":false,"is_disabled":false,"rental_uris":{"android":"levelo://app?vid=8aa0e568-a614-460d-9775-0fff663cacf7","ios":"levelo://app?vid=8aa0e568-a614-460d-9775-0fff663cacf7"},"vehicle_type_id":"4","last_reported":1703513190,"current_range_meters":28400,"station_id":"ce4bgth2rcd13ifvqch0","pricing_plan_id":"free"},{"bike_id":"c25b730a-2463-4485-934c-0b3f5aa56d1d","system_id":"levelo_inurba_marseille","lat":43.317075,"lon":5.377367,"is_reserved":false,"is_disabled":false,"rental_uris":{"android":"levelo://app?vid=c25b730a-2463-4485-934c-0b3f5aa56d1d","ios":"levelo://app?vid=c25b730a-2463-4485-934c-0b3f5aa56d1d"},"vehicle_type_id":"4","last_reported":1703513190,"current_range_meters":24800,"station_id":"ce4bgth2rcd13ifvqch0","pricing_plan_id":"free"},{"bike_id":"7f46d341-5f6b-4294-b9f0-3b4ab0f4c354","system_id":"levelo_inurba_marseille","lat":43.317075,"lon":5.377367,"is_reserved":false,"is_disabled":false,"rental_uris":{"android":"levelo://app?vid=7f46d341-5f6b-4294-b9f0-3b4ab0f4c354","ios":"levelo://app?vid=7f46d341-5f6b-4294-b9f0-3b4ab0f4c354"},"vehicle_type_id":"4","last_reported":1703513190,"current_range_meters":18400,"station_id":"ce4bgth2rcd13ifvqch0","pricing_plan_id":"free"},{"bike_id":"71da62ae-ea20-4849-8b66-4a30f725eb8e","system_id":"levelo_inurba_marseille","lat":43.317075,"lon":5.377367,"is_reserved":false,"is_disabled":false,"rental_uris":{"android":"levelo://app?vid=71da62ae-ea20-4849-8b66-4a30f725eb8e","ios":"levelo://app?vid=71da62ae-ea20-4849-8b66-4a30f725eb8e"},"vehicle_type_id":"4","last_reported":1703513190,"current_range_meters":29200,"station_id":"ce4bgth2rcd13ifvqch0","pricing_plan_id":"free"},{"bike_id":"40693353-b0a1-417c-b954-405d529ef2a4","system_id":"levelo_inurba_marseille","lat":43.317075,"lon":5.377367,"is_reserved":false,"is_disabled":false,"rental_uris":{"android":"levelo://app?vid=40693353-b0a1-417c-b954-405d529ef2a4","ios":"levelo://app?vid=40693353-b0a1-417c-b954-405d529ef2a4"},"vehicle_type_id":"4","last_reported":1703513190,"current_range_meters":30800,"station_id":"ce4bgth2rcd13ifvqch0","pricing_plan_id":"free"},{"bike_id":"621f577b-86bb-4692-b841-173170ed2ed4","system_id":"levelo_inurba_marseille","lat":43.30304,"lon":5.368987,"is_reserved":false,"is_disabled":false,"rental_uris":{"android":"levelo://app?vid=621f577b-86bb-4692-b841-173170ed2ed4","ios":"levelo://app?vid=621f577b-86bb-4692-b841-173170ed2ed4"},"vehicle_type_id":"4","last_reported":1703513190,"current_range_meters":25600,"station_id":"ce4bgqh2rcd13ifvqc5g","pricing_plan_id":"free"},{"bike_id":"8707c2d4-2376-4897-a4cf-e6b1e82d0f51","system_id":"levelo_inurba_marseille","lat":43.315293,"lon":5.380349,"is_reserved":false,"is_disabled":false,"rental_uris":{"android":"levelo://app?vid=8707c2d4-2376-4897-a4cf-e6b1e82d0f51","ios":"levelo://app?vid=8707c2d4-2376-4897-a4cf-e6b1e82d0f51"},"vehicle_type_id":"4","last_reported":1703513190,"current_range_meters":22000,"station_id":"ce4bhsp2rcd13ifvqi50","pricing_plan_id":"free"},{"bike_id":"e6eefbd8-ecea-42cb-8c7a-0640952ddaea","system_id":"levelo_inurba_marseille","lat":43.31778,"lon":5.37908,"is_reserved":false,"is_disabled":false,"rental_uris":{"android":"levelo://app?vid=e6eefbd8-ecea-42cb-8c7a-0640952ddaea","ios":"levelo://app?vid=e6eefbd8-ecea-42cb-8c7a-0640952ddaea"},"vehicle_type_id":"4","last_reported":1703513190,"current_range_meters":23200,"station_id":"","pricing_plan_id":"free"},{"bike_id":"dae88cdf-c05b-4fb3-9a74-67cdfa26945b","system_id":"levelo_inurba_marseille","lat":43.308012,"lon":5.381511,"is_reserved":false,"is_disabled":false,"rental_uris":{"android":"levelo://app?vid=dae88cdf-c05b-4fb3-9a74-67cdfa26945b","ios":"levelo://app?vid=dae88cdf-c05b-4fb3-9a74-67cdfa26945b"},"vehicle_type_id":"4","last_reported":1703513190,"current_range_meters":27200,"station_id":"ce4bgt12rcd13ifvqce0","pricing_plan_id":"free"},{"bike_id":"290b1180-bd6f-44a8-a276-1ebefa73fb5b","system_id":"levelo_inurba_marseille","lat":43.308012,"lon":5.381511,"is_reserved":false,"is_disabled":false,"rental_uris":{"android":"levelo://app?vid=290b1180-bd6f-44a8-a276-1ebefa73fb5b","ios":"levelo://app?vid=290b1180-bd6f-44a8-a276-1ebefa73fb5b"},"vehicle_type_id":"4","last_reported":1703513190,"current_range_meters":20000,"station_id":"ce4bgt12rcd13ifvqce0","pricing_plan_id":"free"},{"bike_id":"b3d91e92-3ad7-4ce7-bb2b-961889c1826d","system_id":"levelo_inurba_marseille","lat":43.308012,"lon":5.381511,"is_reserved":false,"is_disabled":false,"rental_uris":{"android":"levelo://app?vid=b3d91e92-3ad7-4ce7-bb2b-961889c1826d","ios":"levelo://app?vid=b3d91e92-3ad7-4ce7-bb2b-961889c1826d"},"vehicle_type_id":"4","last_reported":1703513190,"current_range_meters":14400,"station_id":"ce4bgt12rcd13ifvqce0","pricing_plan_id":"free"},{"bike_id":"c805aa99-2949-4562-86b9-5d54ce32546d","system_id":"levelo_inurba_marseille","lat":43.308066,"lon":5.381546,"is_reserved":false,"is_disabled":false,"rental_uris":{"android":"levelo://app?vid=c805aa99-2949-4562-86b9-5d54ce32546d","ios":"levelo://app?vid=c805aa99-2949-4562-86b9-5d54ce32546d"},"vehicle_type_id":"4","last_reported":1703513190,"current_range_meters":29200,"station_id":"ce4bgt12rcd13ifvqce0","pricing_plan_id":"free"},{"bike_id":"809faa9e-e50b-48d7-bd51-c19cfa6e7724","system_id":"levelo_inurba_marseille","lat":43.308012,"lon":5.381511,"is_reserved":false,"is_disabled":false,"rental_uris":{"android":"levelo://app?vid=809faa9e-e50b-48d7-bd51-c19cfa6e7724","ios":"levelo://app?vid=809faa9e-e50b-48d7-bd51-c19cfa6e7724"},"vehicle_type_id":"4","last_reported":1703513190,"current_range_meters":26000,"station_id":"ce4bgt12rcd13ifvqce0","pricing_plan_id":"free"},{"bike_id":"f0dd26d1-0f7c-46ad-b527-49e46a0642c7","system_id":"levelo_inurba_marseille","lat":43.308012,"lon":5.381511,"is_reserved":false,"is_disabled":false,"rental_uris":{"android":"levelo://app?vid=f0dd26d1-0f7c-46ad-b527-49e46a0642c7","ios":"levelo://app?vid=f0dd26d1-0f7c-46ad-b527-49e46a0642c7"},"vehicle_type_id":"4","last_reported":1703513190,"current_range_meters":28000,"station_id":"ce4bgt12rcd13ifvqce0","pricing_plan_id":"free"},{"bike_id":"37559955-7358-4e5d-add5-1b52993ae97b","system_id":"levelo_inurba_marseille","lat":43.308016,"lon":5.381564,"is_reserved":false,"is_disabled":false,"rental_uris":{"android":"levelo://app?vid=37559955-7358-4e5d-add5-1b52993ae97b","ios":"levelo://app?vid=37559955-7358-4e5d-add5-1b52993ae97b"},"vehicle_type_id":"4","last_reported":1703513190,"current_range_meters":7600,"station_id":"ce4bgt12rcd13ifvqce0","pricing_plan_id":"free"},{"bike_id":"cbea6b5c-3dfe-4c04-90a2-dd4597f4b966","system_id":"levelo_inurba_marseille","lat":43.308012,"lon":5.381511,"is_reserved":false,"is_disabled":false,"rental_uris":{"android":"levelo://app?vid=cbea6b5c-3dfe-4c04-90a2-dd4597f4b966","ios":"levelo://app?vid=cbea6b5c-3dfe-4c04-90a2-dd4597f4b966"},"vehicle_type_id":"4","last_reported":1703513190,"current_range_meters":20400,"station_id":"ce4bgt12rcd13ifvqce0","pricing_plan_id":"free"},{"bike_id":"7a02ce74-00ac-4197-bc71-da52d3ea0aa8","system_id":"levelo_inurba_marseille","lat":43.308012,"lon":5.381511,"is_reserved":false,"is_disabled":false,"rental_uris":{"android":"levelo://app?vid=7a02ce74-00ac-4197-bc71-da52d3ea0aa8","ios":"levelo://app?vid=7a02ce74-00ac-4197-bc71-da52d3ea0aa8"},"vehicle_type_id":"4","last_reported":1703513190,"current_range_meters":22800,"station_id":"ce4bgt12rcd13ifvqce0","pricing_plan_id":"free"},{"bike_id":"788910b7-7a9e-414f-96b6-2878d1ece141","system_id":"levelo_inurba_marseille","lat":43.304606,"lon":5.379026,"is_reserved":false,"is_disabled":false,"rental_uris":{"android":"levelo://app?vid=788910b7-7a9e-414f-96b6-2878d1ece141","ios":"levelo://app?vid=788910b7-7a9e-414f-96b6-2878d1ece141"},"vehicle_type_id":"4","last_reported":1703513190,"current_range_meters":15200,"station_id":"ce4bgup2rcd13ifvqcn0","pricing_plan_id":"free"},{"bike_id":"2802b683-b4c3-4f8e-ae5b-10d90c717eec","system_id":"levelo_inurba_marseille","lat":43.304606,"lon":5.379026,"is_reserved":false,"is_disabled":false,"rental_uris":{"android":"levelo://app?vid=2802b683-b4c3-4f8e-ae5b-10d90c717eec","ios":"levelo://app?vid=2802b683-b4c3-4f8e-ae5b-10d90c717eec"},"vehicle_type_id":"4","last_reported":1703513190,"current_range_meters":32000,"station_id":"ce4bgup2rcd13ifvqcn0","pricing_plan_id":"free"},{"bike_id":"7a586bf0-15a1-4789-887c-99b8776a5aae","system_id":"levelo_inurba_marseille","lat":43.30466,"lon":5.37898,"is_reserved":false,"is_disabled":false,"rental_uris":{"android":"levelo://app?vid=7a586bf0-15a1-4789-887c-99b8776a5aae","ios":"levelo://app?vid=7a586bf0-15a1-4789-887c-99b8776a5aae"},"vehicle_type_id":"4","last_reported":1703513190,"current_range_meters":12800,"station_id":"ce4bgup2rcd13ifvqcn0","pricing_plan_id":"free"},{"bike_id":"2416236a-4937-429d-815b-b00dd2eceadf","system_id":"levelo_inurba_marseille","lat":43.304606,"lon":5.379026,"is_reserved":false,"is_disabled":false,"rental_uris":{"android":"levelo://app?vid=2416236a-4937-429d-815b-b00dd2eceadf","ios":"levelo://app?vid=2416236a-4937-429d-815b-b00dd2eceadf"},"vehicle_type_id":"4","last_reported":1703513190,"current_range_meters":31600,"station_id":"ce4bgup2rcd13ifvqcn0","pricing_plan_id":"free"},{"bike_id":"5c1dd57d-571f-4219-a983-f344ee88ef1d","system_id":"levelo_inurba_marseille","lat":43.304606,"lon":5.379026,"is_reserved":false,"is_disabled":false,"rental_uris":{"android":"levelo://app?vid=5c1dd57d-571f-4219-a983-f344ee88ef1d","ios":"levelo://app?vid=5c1dd57d-571f-4219-a983-f344ee88ef1d"},"vehicle_type_id":"4","last_reported":1703513190,"current_range_meters":31600,"station_id":"ce4bgup2rcd13ifvqcn0","pricing_plan_id":"free"},{"bike_id":"5f2c8efb-34f2-46f2-a9d1-d3627cc208c1","system_id":"levelo_inurba_marseille","lat":43.304606,"lon":5.379026,"is_reserved":false,"is_disabled":false,"rental_uris":{"android":"levelo://app?vid=5f2c8efb-34f2-46f2-a9d1-d3627cc208c1","ios":"levelo://app?vid=5f2c8efb-34f2-46f2-a9d1-d3627cc208c1"},"vehicle_type_id":"4","last_reported":1703513190,"current_range_meters":31200,"station_id":"ce4bgup2rcd13ifvqcn0","pricing_plan_id":"free"},{"bike_id":"9825545f-f70b-4330-b98c-b12abe0529be","system_id":"levelo_inurba_marseille","lat":43.304606,"lon":5.379026,"is_reserved":false,"is_disabled":false,"rental_uris":{"android":"levelo://app?vid=9825545f-f70b-4330-b98c-b12abe0529be","ios":"levelo://app?vid=9825545f-f70b-4330-b98c-b12abe0529be"},"vehicle_type_id":"4","last_reported":1703513190,"current_range_meters":31600,"station_id":"ce4bgup2rcd13ifvqcn0","pricing_plan_id":"free"},{"bike_id":"d55ced11-3591-4d0d-a170-e2cb9d61c04c","system_id":"levelo_inurba_marseille","lat":43.304606,"lon":5.379026,"is_reserved":false,"is_disabled":false,"rental_uris":{"android":"levelo://app?vid=d55ced11-3591-4d0d-a170-e2cb9d61c04c","ios":"levelo://app?vid=d55ced11-3591-4d0d-a170-e2cb9d61c04c"},"vehicle_type_id":"4","last_reported":1703513190,"current_range_meters":32000,"station_id":"ce4bgup2rcd13ifvqcn0","pricing_plan_id":"free"},{"bike_id":"3e3cea46-211e-4934-a3a4-d8465e65e881","system_id":"levelo_inurba_marseille","lat":43.304606,"lon":5.379026,"is_reserved":false,"is_disabled":false,"rental_uris":{"android":"levelo://app?vid=3e3cea46-211e-4934-a3a4-d8465e65e881","ios":"levelo://app?vid=3e3cea46-211e-4934-a3a4-d8465e65e881"},"vehicle_type_id":"4","last_reported":1703513190,"current_range_meters":19200,"station_id":"ce4bgup2rcd13ifvqcn0","pricing_plan_id":"free"},{"bike_id":"21751019-e48a-4d32-9ba8-c063ff0829e2","system_id":"levelo_inurba_marseille","lat":43.304606,"lon":5.379026,"is_reserved":false,"is_disabled":false,"rental_uris":{"android":"levelo://app?vid=21751019-e48a-4d32-9ba8-c063ff0829e2","ios":"levelo://app?vid=21751019-e48a-4d32-9ba8-c063ff0829e2"},"vehicle_type_id":"4","last_reported":1703513190,"current_range_meters":19600,"station_id":"ce4bgup2rcd13ifvqcn0","pricing_plan_id":"free"},{"bike_id":"6a3e3d28-1291-4d4b-bf7c-74834b7950d7","system_id":"levelo_inurba_marseille","lat":43.324771,"lon":5.36557,"is_reserved":false,"is_disabled":false,"rental_uris":{"android":"levelo://app?vid=6a3e3d28-1291-4d4b-bf7c-74834b7950d7","ios":"levelo://app?vid=6a3e3d28-1291-4d4b-bf7c-74834b7950d7"},"vehicle_type_id":"4","last_reported":1703513190,"current_range_meters":25600,"station_id":"ce4bhs12rcd13ifvqhvg","pricing_plan_id":"free"},{"bike_id":"f5c0e4d6-16bd-47eb-ba92-aa201d0984ce","system_id":"levelo_inurba_marseille","lat":43.324771,"lon":5.36557,"is_reserved":false,"is_disabled":false,"rental_uris":{"android":"levelo://app?vid=f5c0e4d6-16bd-47eb-ba92-aa201d0984ce","ios":"levelo://app?vid=f5c0e4d6-16bd-47eb-ba92-aa201d0984ce"},"vehicle_type_id":"4","last_reported":1703513190,"current_range_meters":8400,"station_id":"ce4bhs12rcd13ifvqhvg","pricing_plan_id":"free"},{"bike_id":"9011995a-6fb0-4e38-9a9b-bdcc1110a2a4","system_id":"levelo_inurba_marseille","lat":43.3036,"lon":5.37797,"is_reserved":false,"is_disabled":false,"rental_uris":{"android":"levelo://app?vid=9011995a-6fb0-4e38-9a9b-bdcc1110a2a4","ios":"levelo://app?vid=9011995a-6fb0-4e38-9a9b-bdcc1110a2a4"},"vehicle_type_id":"4","last_reported":1703513190,"current_range_meters":23200,"station_id":"","pricing_plan_id":"free"},{"bike_id":"b34c5df9-bde0-4070-aade-932580520839","system_id":"levelo_inurba_marseille","lat":43.302784,"lon":5.377158,"is_reserved":false,"is_disabled":false,"rental_uris":{"android":"levelo://app?vid=b34c5df9-bde0-4070-aade-932580520839","ios":"levelo://app?vid=b34c5df9-bde0-4070-aade-932580520839"},"vehicle_type_id":"4","last_reported":1703513190,"current_range_meters":29600,"station_id":"ce4bguh2rcd13ifvqcj0","pricing_plan_id":"free"},{"bike_id":"7cbc52a8-3902-44a9-b33c-9c857d17fadd","system_id":"levelo_inurba_marseille","lat":43.302784,"lon":5.377158,"is_reserved":false,"is_disabled":false,"rental_uris":{"android":"levelo://app?vid=7cbc52a8-3902-44a9-b33c-9c857d17fadd","ios":"levelo://app?vid=7cbc52a8-3902-44a9-b33c-9c857d17fadd"},"vehicle_type_id":"4","last_reported":1703513190,"current_range_meters":17600,"station_id":"ce4bguh2rcd13ifvqcj0","pricing_plan_id":"free"},{"bike_id":"21e6ddc7-c50d-4c36-887a-de1ad762fab8","system_id":"levelo_inurba_marseille","lat":43.302784,"lon":5.377158,"is_reserved":false,"is_disabled":false,"rental_uris":{"android":"levelo://app?vid=21e6ddc7-c50d-4c36-887a-de1ad762fab8","ios":"levelo://app?vid=21e6ddc7-c50d-4c36-887a-de1ad762fab8"},"vehicle_type_id":"4","last_reported":1703513190,"current_range_meters":14400,"station_id":"ce4bguh2rcd13ifvqcj0","pricing_plan_id":"free"},{"bike_id":"60759498-503d-4868-95df-2064b9e1ca57","system_id":"levelo_inurba_marseille","lat":43.30149,"lon":5.37423,"is_reserved":false,"is_disabled":false,"rental_uris":{"android":"levelo://app?vid=60759498-503d-4868-95df-2064b9e1ca57","ios":"levelo://app?vid=60759498-503d-4868-95df-2064b9e1ca57"},"vehicle_type_id":"4","last_reported":1703513190,"current_range_meters":18400,"station_id":"ce4bgs92rcd13ifvqcc0","pricing_plan_id":"free"},{"bike_id":"ec8d336b-b6cc-4c71-8a3b-5b04c7cb2d9e","system_id":"levelo_inurba_marseille","lat":43.3163,"lon":5.38333,"is_reserved":false,"is_disabled":false,"rental_uris":{"android":"levelo://app?vid=ec8d336b-b6cc-4c71-8a3b-5b04c7cb2d9e","ios":"levelo://app?vid=ec8d336b-b6cc-4c71-8a3b-5b04c7cb2d9e"},"vehicle_type_id":"4","last_reported":1703513190,"current_range_meters":27600,"station_id":"","pricing_plan_id":"free"},{"bike_id":"7db308cb-3a98-4ce2-8cec-5cd9fd434227","system_id":"levelo_inurba_marseille","lat":43.32,"lon":5.3814,"is_reserved":false,"is_disabled":false,"rental_uris":{"android":"levelo://app?vid=7db308cb-3a98-4ce2-8cec-5cd9fd434227","ios":"levelo://app?vid=7db308cb-3a98-4ce2-8cec-5cd9fd434227"},"vehicle_type_id":"4","last_reported":1703513190,"current_range_meters":6800,"station_id":"ce4bhr12rcd13ifvqhpg","pricing_plan_id":"free"},{"bike_id":"6b293ddd-1b4c-4b04-abd1-e3b793bc7eab","system_id":"levelo_inurba_marseille","lat":43.319935,"lon":5.381699,"is_reserved":false,"is_disabled":false,"rental_uris":{"android":"levelo://app?vid=6b293ddd-1b4c-4b04-abd1-e3b793bc7eab","ios":"levelo://app?vid=6b293ddd-1b4c-4b04-abd1-e3b793bc7eab"},"vehicle_type_id":"4","last_reported":1703513190,"current_range_meters":20000,"station_id":"ce4bhr12rcd13ifvqhpg","pricing_plan_id":"free"},{"bike_id":"bb02a379-89b0-4309-be1e-4c4843977198","system_id":"levelo_inurba_marseille","lat":43.319935,"lon":5.381699,"is_reserved":false,"is_disabled":false,"rental_uris":{"android":"levelo://app?vid=bb02a379-89b0-4309-be1e-4c4843977198","ios":"levelo://app?vid=bb02a379-89b0-4309-be1e-4c4843977198"},"vehicle_type_id":"4","last_reported":1703513190,"current_range_meters":24800,"station_id":"ce4bhr12rcd13ifvqhpg","pricing_plan_id":"free"},{"bike_id":"ea89fa52-9304-4877-a702-eb6830b95b5f","system_id":"levelo_inurba_marseille","lat":43.313571,"lon":5.384829,"is_reserved":false,"is_disabled":false,"rental_uris":{"android":"levelo://app?vid=ea89fa52-9304-4877-a702-eb6830b95b5f","ios":"levelo://app?vid=ea89fa52-9304-4877-a702-eb6830b95b5f"},"vehicle_type_id":"4","last_reported":1703513190,"current_range_meters":29200,"station_id":"ce4bgt92rcd13ifvqcf0","pricing_plan_id":"free"},{"bike_id":"a319e096-7913-4dbb-a8cc-4d3b88c3e9b9","system_id":"levelo_inurba_marseille","lat":43.313571,"lon":5.384829,"is_reserved":false,"is_disabled":false,"rental_uris":{"android":"levelo://app?vid=a319e096-7913-4dbb-a8cc-4d3b88c3e9b9","ios":"levelo://app?vid=a319e096-7913-4dbb-a8cc-4d3b88c3e9b9"},"vehicle_type_id":"4","last_reported":1703513190,"current_range_meters":31600,"station_id":"ce4bgt92rcd13ifvqcf0","pricing_plan_id":"free"},{"bike_id":"17a8974a-3cbc-4daa-91b3-03aa7f2149df","system_id":"levelo_inurba_marseille","lat":43.299724,"lon":5.371829,"is_reserved":false,"is_disabled":false,"rental_uris":{"android":"levelo://app?vid=17a8974a-3cbc-4daa-91b3-03aa7f2149df","ios":"levelo://app?vid=17a8974a-3cbc-4daa-91b3-03aa7f2149df"},"vehicle_type_id":"4","last_reported":1703513190,"current_range_meters":13200,"station_id":"ce4bgr92rcd13ifvqc7g","pricing_plan_id":"free"},{"bike_id":"64c98802-7587-4c93-a7c2-f2eb8cc21d95","system_id":"levelo_inurba_marseille","lat":43.305364,"lon":5.384119,"is_reserved":false,"is_disabled":false,"rental_uris":{"android":"levelo://app?vid=64c98802-7587-4c93-a7c2-f2eb8cc21d95","ios":"levelo://app?vid=64c98802-7587-4c93-a7c2-f2eb8cc21d95"},"vehicle_type_id":"4","last_reported":1703513190,"current_range_meters":26800,"station_id":"ce4bgg92rcd13ifvqb30","pricing_plan_id":"free"},{"bike_id":"8fb29158-854d-4835-b0a1-189202985fcd","system_id":"levelo_inurba_marseille","lat":43.298433,"lon":5.362774,"is_reserved":false,"is_disabled":false,"rental_uris":{"android":"levelo://app?vid=8fb29158-854d-4835-b0a1-189202985fcd","ios":"levelo://app?vid=8fb29158-854d-4835-b0a1-189202985fcd"},"vehicle_type_id":"4","last_reported":1703513190,"current_range_meters":10800,"station_id":"ce4bgpp2rcd13ifvqc3g","pricing_plan_id":"free"},{"bike_id":"c65389a6-8983-409f-9b50-bb9ebb890e8d","system_id":"levelo_inurba_marseille","lat":43.298433,"lon":5.362774,"is_reserved":false,"is_disabled":false,"rental_uris":{"android":"levelo://app?vid=c65389a6-8983-409f-9b50-bb9ebb890e8d","ios":"levelo://app?vid=c65389a6-8983-409f-9b50-bb9ebb890e8d"},"vehicle_type_id":"4","last_reported":1703513190,"current_range_meters":19200,"station_id":"ce4bgpp2rcd13ifvqc3g","pricing_plan_id":"free"},{"bike_id":"dcc392c5-b11e-4b24-819d-df2d858ea798","system_id":"levelo_inurba_marseille","lat":43.305364,"lon":5.384119,"is_reserved":false,"is_disabled":false,"rental_uris":{"android":"levelo://app?vid=dcc392c5-b11e-4b24-819d-df2d858ea798","ios":"levelo://app?vid=dcc392c5-b11e-4b24-819d-df2d858ea798"},"vehicle_type_id":"4","last_reported":1703513190,"current_range_meters":31600,"station_id":"ce4bgg92rcd13ifvqb30","pricing_plan_id":"free"},{"bike_id":"9fe5b165-d18d-421e-9b57-fcdf920e6838","system_id":"levelo_inurba_marseille","lat":43.305374,"lon":5.384306,"is_reserved":false,"is_disabled":false,"rental_uris":{"android":"levelo://app?vid=9fe5b165-d18d-421e-9b57-fcdf920e6838","ios":"levelo://app?vid=9fe5b165-d18d-421e-9b57-fcdf920e6838"},"vehicle_type_id":"4","last_reported":1703513190,"current_range_meters":23200,"station_id":"ce4bgg92rcd13ifvqb30","pricing_plan_id":"free"},{"bike_id":"595199b8-4df8-4654-a8cc-b6a085e8433f","system_id":"levelo_inurba_marseille","lat":43.298433,"lon":5.362774,"is_reserved":false,"is_disabled":false,"rental_uris":{"android":"levelo://app?vid=595199b8-4df8-4654-a8cc-b6a085e8433f","ios":"levelo://app?vid=595199b8-4df8-4654-a8cc-b6a085e8433f"},"vehicle_type_id":"4","last_reported":1703513190,"current_range_meters":27600,"station_id":"ce4bgpp2rcd13ifvqc3g","pricing_plan_id":"free"},{"bike_id":"91b9b279-4837-40e0-aa7d-82c2ec697f20","system_id":"levelo_inurba_marseille","lat":43.298433,"lon":5.362774,"is_reserved":false,"is_disabled":false,"rental_uris":{"android":"levelo://app?vid=91b9b279-4837-40e0-aa7d-82c2ec697f20","ios":"levelo://app?vid=91b9b279-4837-40e0-aa7d-82c2ec697f20"},"vehicle_type_id":"4","last_reported":1703513190,"current_range_meters":14400,"station_id":"ce4bgpp2rcd13ifvqc3g","pricing_plan_id":"free"},{"bike_id":"288a209d-bc23-4eff-9c3b-2e69b9fa59f7","system_id":"levelo_inurba_marseille","lat":43.299707,"lon":5.384859,"is_reserved":false,"is_disabled":false,"rental_uris":{"android":"levelo://app?vid=288a209d-bc23-4eff-9c3b-2e69b9fa59f7","ios":"levelo://app?vid=288a209d-bc23-4eff-9c3b-2e69b9fa59f7"},"vehicle_type_id":"4","last_reported":1703513190,"current_range_meters":28000,"station_id":"ce4bgj92rcd13ifvqbd0","pricing_plan_id":"free"},{"bike_id":"22c26717-60c4-4a1a-9c09-d7cc1c33e98b","system_id":"levelo_inurba_marseille","lat":43.311722,"lon":5.387247,"is_reserved":false,"is_disabled":false,"rental_uris":{"android":"levelo://app?vid=22c26717-60c4-4a1a-9c09-d7cc1c33e98b","ios":"levelo://app?vid=22c26717-60c4-4a1a-9c09-d7cc1c33e98b"},"vehicle_type_id":"4","last_reported":1703513190,"current_range_meters":23600,"station_id":"ce4bgv12rcd13ifvqcp0","pricing_plan_id":"free"},{"bike_id":"3f4ca715-21da-4099-ad1a-0cae45249577","system_id":"levelo_inurba_marseille","lat":43.311722,"lon":5.387247,"is_reserved":false,"is_disabled":false,"rental_uris":{"android":"levelo://app?vid=3f4ca715-21da-4099-ad1a-0cae45249577","ios":"levelo://app?vid=3f4ca715-21da-4099-ad1a-0cae45249577"},"vehicle_type_id":"4","last_reported":1703513190,"current_range_meters":18000,"station_id":"ce4bgv12rcd13ifvqcp0","pricing_plan_id":"free"},{"bike_id":"4953bc03-d7de-4673-a011-ad6889f1613b","system_id":"levelo_inurba_marseille","lat":43.311722,"lon":5.387247,"is_reserved":false,"is_disabled":false,"rental_uris":{"android":"levelo://app?vid=4953bc03-d7de-4673-a011-ad6889f1613b","ios":"levelo://app?vid=4953bc03-d7de-4673-a011-ad6889f1613b"},"vehicle_type_id":"4","last_reported":1703513190,"current_range_meters":31600,"station_id":"ce4bgv12rcd13ifvqcp0","pricing_plan_id":"free"},{"bike_id":"ff914034-5f3c-4c97-a237-0391d59053b4","system_id":"levelo_inurba_marseille","lat":43.299243,"lon":5.37481,"is_reserved":false,"is_disabled":false,"rental_uris":{"android":"levelo://app?vid=ff914034-5f3c-4c97-a237-0391d59053b4","ios":"levelo://app?vid=ff914034-5f3c-4c97-a237-0391d59053b4"},"vehicle_type_id":"4","last_reported":1703513190,"current_range_meters":9600,"station_id":"ce4bgjh2rcd13ifvqbg0","pricing_plan_id":"free"},{"bike_id":"3cf1b9a7-1718-4638-8084-02bb0959f14c","system_id":"levelo_inurba_marseille","lat":43.297794,"lon":5.370888,"is_reserved":false,"is_disabled":false,"rental_uris":{"android":"levelo://app?vid=3cf1b9a7-1718-4638-8084-02bb0959f14c","ios":"levelo://app?vid=3cf1b9a7-1718-4638-8084-02bb0959f14c"},"vehicle_type_id":"4","last_reported":1703513190,"current_range_meters":25200,"station_id":"ce4bgop2rcd13ifvqc1g","pricing_plan_id":"free"},{"bike_id":"7f93c2ea-2008-42a6-a7fa-7bf8315cc553","system_id":"levelo_inurba_marseille","lat":43.297794,"lon":5.370888,"is_reserved":false,"is_disabled":false,"rental_uris":{"android":"levelo://app?vid=7f93c2ea-2008-42a6-a7fa-7bf8315cc553","ios":"levelo://app?vid=7f93c2ea-2008-42a6-a7fa-7bf8315cc553"},"vehicle_type_id":"4","last_reported":1703513190,"current_range_meters":30800,"station_id":"ce4bgop2rcd13ifvqc1g","pricing_plan_id":"free"},{"bike_id":"e405f595-2942-4de8-9600-d70d5fe2102c","system_id":"levelo_inurba_marseille","lat":43.328371,"lon":5.366909,"is_reserved":false,"is_disabled":false,"rental_uris":{"android":"levelo://app?vid=e405f595-2942-4de8-9600-d70d5fe2102c","ios":"levelo://app?vid=e405f595-2942-4de8-9600-d70d5fe2102c"},"vehicle_type_id":"4","last_reported":1703513190,"current_range_meters":14800,"station_id":"ce4bhs92rcd13ifvqi0g","pricing_plan_id":"free"},{"bike_id":"61b90ab8-2a0a-4e2e-aee3-71d3c17eae07","system_id":"levelo_inurba_marseille","lat":43.32822,"lon":5.36681,"is_reserved":false,"is_disabled":false,"rental_uris":{"android":"levelo://app?vid=61b90ab8-2a0a-4e2e-aee3-71d3c17eae07","ios":"levelo://app?vid=61b90ab8-2a0a-4e2e-aee3-71d3c17eae07"},"vehicle_type_id":"4","last_reported":1703513190,"current_range_meters":28400,"station_id":"ce4bhs92rcd13ifvqi0g","pricing_plan_id":"free"},{"bike_id":"de708f00-7118-4d7c-9021-d7dcbd798473","system_id":"levelo_inurba_marseille","lat":43.328371,"lon":5.366909,"is_reserved":false,"is_disabled":false,"rental_uris":{"android":"levelo://app?vid=de708f00-7118-4d7c-9021-d7dcbd798473","ios":"levelo://app?vid=de708f00-7118-4d7c-9021-d7dcbd798473"},"vehicle_type_id":"4","last_reported":1703513190,"current_range_meters":29600,"station_id":"ce4bhs92rcd13ifvqi0g","pricing_plan_id":"free"},{"bike_id":"b22d5e96-ae51-458c-8279-1d308fe846b0","system_id":"levelo_inurba_marseille","lat":43.328371,"lon":5.366909,"is_reserved":false,"is_disabled":false,"rental_uris":{"android":"levelo://app?vid=b22d5e96-ae51-458c-8279-1d308fe846b0","ios":"levelo://app?vid=b22d5e96-ae51-458c-8279-1d308fe846b0"},"vehicle_type_id":"4","last_reported":1703513190,"current_range_meters":15200,"station_id":"ce4bhs92rcd13ifvqi0g","pricing_plan_id":"free"},{"bike_id":"eba6867d-6d75-4354-b206-2059ecdc5071","system_id":"levelo_inurba_marseille","lat":43.328371,"lon":5.366909,"is_reserved":false,"is_disabled":false,"rental_uris":{"android":"levelo://app?vid=eba6867d-6d75-4354-b206-2059ecdc5071","ios":"levelo://app?vid=eba6867d-6d75-4354-b206-2059ecdc5071"},"vehicle_type_id":"4","last_reported":1703513190,"current_range_meters":11200,"station_id":"ce4bhs92rcd13ifvqi0g","pricing_plan_id":"free"},{"bike_id":"098d14f9-0ff6-4c3a-aca9-b52d7aa219f1","system_id":"levelo_inurba_marseille","lat":43.297163,"lon":5.365866,"is_reserved":false,"is_disabled":false,"rental_uris":{"android":"levelo://app?vid=098d14f9-0ff6-4c3a-aca9-b52d7aa219f1","ios":"levelo://app?vid=098d14f9-0ff6-4c3a-aca9-b52d7aa219f1"},"vehicle_type_id":"4","last_reported":1703513190,"current_range_meters":30400,"station_id":"ce4bgn12rcd13ifvqbt0","pricing_plan_id":"free"},{"bike_id":"9a8f3351-118a-41e1-8eaa-1d261672ee73","system_id":"levelo_inurba_marseille","lat":43.2968,"lon":5.37291,"is_reserved":false,"is_disabled":false,"rental_uris":{"android":"levelo://app?vid=9a8f3351-118a-41e1-8eaa-1d261672ee73","ios":"levelo://app?vid=9a8f3351-118a-41e1-8eaa-1d261672ee73"},"vehicle_type_id":"4","last_reported":1703513190,"current_range_meters":30000,"station_id":"ce4bgk12rcd13ifvqbj0","pricing_plan_id":"free"},{"bike_id":"921b424d-ad0d-4c7a-9d74-66e3a49bfa19","system_id":"levelo_inurba_marseille","lat":43.32934,"lon":5.36612,"is_reserved":false,"is_disabled":false,"rental_uris":{"android":"levelo://app?vid=921b424d-ad0d-4c7a-9d74-66e3a49bfa19","ios":"levelo://app?vid=921b424d-ad0d-4c7a-9d74-66e3a49bfa19"},"vehicle_type_id":"4","last_reported":1703513190,"current_range_meters":24800,"station_id":"","pricing_plan_id":"free"},{"bike_id":"f3d9e6f2-9877-4955-a6cd-269f607eea8d","system_id":"levelo_inurba_marseille","lat":43.29573,"lon":5.367355,"is_reserved":false,"is_disabled":false,"rental_uris":{"android":"levelo://app?vid=f3d9e6f2-9877-4955-a6cd-269f607eea8d","ios":"levelo://app?vid=f3d9e6f2-9877-4955-a6cd-269f607eea8d"},"vehicle_type_id":"4","last_reported":1703513190,"current_range_meters":29600,"station_id":"ce4bgph2rcd13ifvqc2g","pricing_plan_id":"free"},{"bike_id":"46c28348-c9b6-4f87-98b4-e957449a97e4","system_id":"levelo_inurba_marseille","lat":43.296921,"lon":5.376579,"is_reserved":false,"is_disabled":false,"rental_uris":{"android":"levelo://app?vid=46c28348-c9b6-4f87-98b4-e957449a97e4","ios":"levelo://app?vid=46c28348-c9b6-4f87-98b4-e957449a97e4"},"vehicle_type_id":"4","last_reported":1703513190,"current_range_meters":31600,"station_id":"ce4bgkh2rcd13ifvqbl0","pricing_plan_id":"free"},{"bike_id":"806ab668-8490-44ac-9c10-efbd969944f4","system_id":"levelo_inurba_marseille","lat":43.296935,"lon":5.376544,"is_reserved":false,"is_disabled":false,"rental_uris":{"android":"levelo://app?vid=806ab668-8490-44ac-9c10-efbd969944f4","ios":"levelo://app?vid=806ab668-8490-44ac-9c10-efbd969944f4"},"vehicle_type_id":"4","last_reported":1703513190,"current_range_meters":30800,"station_id":"ce4bgkh2rcd13ifvqbl0","pricing_plan_id":"free"},{"bike_id":"ba6e42c1-233b-4e19-8da8-326ac3c2e4d5","system_id":"levelo_inurba_marseille","lat":43.296921,"lon":5.376579,"is_reserved":false,"is_disabled":false,"rental_uris":{"android":"levelo://app?vid=ba6e42c1-233b-4e19-8da8-326ac3c2e4d5","ios":"levelo://app?vid=ba6e42c1-233b-4e19-8da8-326ac3c2e4d5"},"vehicle_type_id":"4","last_reported":1703513190,"current_range_meters":31600,"station_id":"ce4bgkh2rcd13ifvqbl0","pricing_plan_id":"free"},{"bike_id":"832e2173-c8ed-4c6f-a3b2-146af632aa3e","system_id":"levelo_inurba_marseille","lat":43.299028,"lon":5.381509,"is_reserved":false,"is_disabled":false,"rental_uris":{"android":"levelo://app?vid=832e2173-c8ed-4c6f-a3b2-146af632aa3e","ios":"levelo://app?vid=832e2173-c8ed-4c6f-a3b2-146af632aa3e"},"vehicle_type_id":"4","last_reported":1703513190,"current_range_meters":31200,"station_id":"ce4bgj12rcd13ifvqbc0","pricing_plan_id":"free"},{"bike_id":"5e260a01-66aa-427a-b163-23558f45cc9e","system_id":"levelo_inurba_marseille","lat":43.299028,"lon":5.381509,"is_reserved":false,"is_disabled":false,"rental_uris":{"android":"levelo://app?vid=5e260a01-66aa-427a-b163-23558f45cc9e","ios":"levelo://app?vid=5e260a01-66aa-427a-b163-23558f45cc9e"},"vehicle_type_id":"4","last_reported":1703513190,"current_range_meters":28800,"station_id":"ce4bgj12rcd13ifvqbc0","pricing_plan_id":"free"},{"bike_id":"2c11846f-65ad-4718-a5c6-1166b9463d46","system_id":"levelo_inurba_marseille","lat":43.299028,"lon":5.381509,"is_reserved":false,"is_disabled":false,"rental_uris":{"android":"levelo://app?vid=2c11846f-65ad-4718-a5c6-1166b9463d46","ios":"levelo://app?vid=2c11846f-65ad-4718-a5c6-1166b9463d46"},"vehicle_type_id":"4","last_reported":1703513190,"current_range_meters":14400,"station_id":"ce4bgj12rcd13ifvqbc0","pricing_plan_id":"free"},{"bike_id":"9b2f45b2-c070-46ce-8716-b88d4ebd2de6","system_id":"levelo_inurba_marseille","lat":43.309589,"lon":5.390258,"is_reserved":false,"is_disabled":false,"rental_uris":{"android":"levelo://app?vid=9b2f45b2-c070-46ce-8716-b88d4ebd2de6","ios":"levelo://app?vid=9b2f45b2-c070-46ce-8716-b88d4ebd2de6"},"vehicle_type_id":"4","last_reported":1703513190,"current_range_meters":26400,"station_id":"ce4bgup2rcd13ifvqco0","pricing_plan_id":"free"},{"bike_id":"b2b2a22b-86ed-4c77-8108-3b09b57a4290","system_id":"levelo_inurba_marseille","lat":43.309511,"lon":5.390326,"is_reserved":false,"is_disabled":false,"rental_uris":{"android":"levelo://app?vid=b2b2a22b-86ed-4c77-8108-3b09b57a4290","ios":"levelo://app?vid=b2b2a22b-86ed-4c77-8108-3b09b57a4290"},"vehicle_type_id":"4","last_reported":1703513190,"current_range_meters":26800,"station_id":"","pricing_plan_id":"free"},{"bike_id":"841eb055-3b1b-4ded-828c-73930330c10e","system_id":"levelo_inurba_marseille","lat":43.296921,"lon":5.376579,"is_reserved":false,"is_disabled":false,"rental_uris":{"android":"levelo://app?vid=841eb055-3b1b-4ded-828c-73930330c10e","ios":"levelo://app?vid=841eb055-3b1b-4ded-828c-73930330c10e"},"vehicle_type_id":"4","last_reported":1703513190,"current_range_meters":19200,"station_id":"ce4bgkh2rcd13ifvqbl0","pricing_plan_id":"free"},{"bike_id":"90d9cf58-1dc5-4d8a-824f-802a3b33bbc1","system_id":"levelo_inurba_marseille","lat":43.31764,"lon":5.3901,"is_reserved":false,"is_disabled":false,"rental_uris":{"android":"levelo://app?vid=90d9cf58-1dc5-4d8a-824f-802a3b33bbc1","ios":"levelo://app?vid=90d9cf58-1dc5-4d8a-824f-802a3b33bbc1"},"vehicle_type_id":"4","last_reported":1703513190,"current_range_meters":29600,"station_id":"ce4bhqp2rcd13ifvqhng","pricing_plan_id":"free"},{"bike_id":"2b5782df-ad25-4444-aab1-766ac1e705e8","system_id":"levelo_inurba_marseille","lat":43.29579,"lon":5.37505,"is_reserved":false,"is_disabled":false,"rental_uris":{"android":"levelo://app?vid=2b5782df-ad25-4444-aab1-766ac1e705e8","ios":"levelo://app?vid=2b5782df-ad25-4444-aab1-766ac1e705e8"},"vehicle_type_id":"4","last_reported":1703513190,"current_range_meters":28800,"station_id":"ce4bgh92rcd13ifvqb50","pricing_plan_id":"free"},{"bike_id":"1c3c2255-8559-4ee8-bcff-66c5c79768c8","system_id":"levelo_inurba_marseille","lat":43.296277,"lon":5.377108,"is_reserved":false,"is_disabled":false,"rental_uris":{"android":"levelo://app?vid=1c3c2255-8559-4ee8-bcff-66c5c79768c8","ios":"levelo://app?vid=1c3c2255-8559-4ee8-bcff-66c5c79768c8"},"vehicle_type_id":"4","last_reported":1703513190,"current_range_meters":31600,"station_id":"ce4bgi92rcd13ifvqb90","pricing_plan_id":"free"},{"bike_id":"638f6d24-427c-4aff-a71c-ad1a3e3fc3fb","system_id":"levelo_inurba_marseille","lat":43.296277,"lon":5.377108,"is_reserved":false,"is_disabled":false,"rental_uris":{"android":"levelo://app?vid=638f6d24-427c-4aff-a71c-ad1a3e3fc3fb","ios":"levelo://app?vid=638f6d24-427c-4aff-a71c-ad1a3e3fc3fb"},"vehicle_type_id":"4","last_reported":1703513190,"current_range_meters":20400,"station_id":"ce4bgi92rcd13ifvqb90","pricing_plan_id":"free"},{"bike_id":"c964ad69-c0c3-47b3-a171-6396116c124a","system_id":"levelo_inurba_marseille","lat":43.296277,"lon":5.377108,"is_reserved":false,"is_disabled":false,"rental_uris":{"android":"levelo://app?vid=c964ad69-c0c3-47b3-a171-6396116c124a","ios":"levelo://app?vid=c964ad69-c0c3-47b3-a171-6396116c124a"},"vehicle_type_id":"4","last_reported":1703513190,"current_range_meters":31600,"station_id":"ce4bgi92rcd13ifvqb90","pricing_plan_id":"free"},{"bike_id":"5fdf8f26-4d5b-4f9c-855a-9c5e3755d61a","system_id":"levelo_inurba_marseille","lat":43.296263,"lon":5.377094,"is_reserved":false,"is_disabled":false,"rental_uris":{"android":"levelo://app?vid=5fdf8f26-4d5b-4f9c-855a-9c5e3755d61a","ios":"levelo://app?vid=5fdf8f26-4d5b-4f9c-855a-9c5e3755d61a"},"vehicle_type_id":"4","last_reported":1703513190,"current_range_meters":17600,"station_id":"ce4bgi92rcd13ifvqb90","pricing_plan_id":"free"},{"bike_id":"61106315-cadc-4a5d-9df6-9e099d199c97","system_id":"levelo_inurba_marseille","lat":43.29532,"lon":5.37506,"is_reserved":false,"is_disabled":false,"rental_uris":{"android":"levelo://app?vid=61106315-cadc-4a5d-9df6-9e099d199c97","ios":"levelo://app?vid=61106315-cadc-4a5d-9df6-9e099d199c97"},"vehicle_type_id":"4","last_reported":1703513190,"current_range_meters":13200,"station_id":"ce4bgkp2rcd13ifvqbmg","pricing_plan_id":"free"},{"bike_id":"78961d64-a4ff-42b4-b5dd-3bc9529fc782","system_id":"levelo_inurba_marseille","lat":43.29523,"lon":5.37506,"is_reserved":false,"is_disabled":false,"rental_uris":{"android":"levelo://app?vid=78961d64-a4ff-42b4-b5dd-3bc9529fc782","ios":"levelo://app?vid=78961d64-a4ff-42b4-b5dd-3bc9529fc782"},"vehicle_type_id":"4","last_reported":1703513190,"current_range_meters":26400,"station_id":"ce4bgkp2rcd13ifvqbmg","pricing_plan_id":"free"},{"bike_id":"99506efd-d258-462c-a8b8-7bea22356f5c","system_id":"levelo_inurba_marseille","lat":43.29601,"lon":5.381084,"is_reserved":false,"is_disabled":false,"rental_uris":{"android":"levelo://app?vid=99506efd-d258-462c-a8b8-7bea22356f5c","ios":"levelo://app?vid=99506efd-d258-462c-a8b8-7bea22356f5c"},"vehicle_type_id":"4","last_reported":1703513190,"current_range_meters":12800,"station_id":"ce4bgl12rcd13ifvqbo0","pricing_plan_id":"free"},{"bike_id":"cffd74b1-b874-4f43-83e0-4ff0b937a76d","system_id":"levelo_inurba_marseille","lat":43.292749,"lon":5.368402,"is_reserved":false,"is_disabled":false,"rental_uris":{"android":"levelo://app?vid=cffd74b1-b874-4f43-83e0-4ff0b937a76d","ios":"levelo://app?vid=cffd74b1-b874-4f43-83e0-4ff0b937a76d"},"vehicle_type_id":"4","last_reported":1703513190,"current_range_meters":22800,"station_id":"ce4bhbp2rcd13ifvqesg","pricing_plan_id":"free"},{"bike_id":"2170878a-218a-4f3f-a675-c868dd15349c","system_id":"levelo_inurba_marseille","lat":43.292749,"lon":5.368402,"is_reserved":false,"is_disabled":false,"rental_uris":{"android":"levelo://app?vid=2170878a-218a-4f3f-a675-c868dd15349c","ios":"levelo://app?vid=2170878a-218a-4f3f-a675-c868dd15349c"},"vehicle_type_id":"4","last_reported":1703513190,"current_range_meters":12400,"station_id":"ce4bhbp2rcd13ifvqesg","pricing_plan_id":"free"},{"bike_id":"68928f45-90b0-4613-a44c-d6e34112126d","system_id":"levelo_inurba_marseille","lat":43.293009,"lon":5.374584,"is_reserved":false,"is_disabled":false,"rental_uris":{"android":"levelo://app?vid=68928f45-90b0-4613-a44c-d6e34112126d","ios":"levelo://app?vid=68928f45-90b0-4613-a44c-d6e34112126d"},"vehicle_type_id":"4","last_reported":1703513190,"current_range_meters":4400,"station_id":"ce4bgi12rcd13ifvqb70","pricing_plan_id":"free"},{"bike_id":"e4b02ff9-074e-4f72-8143-ba216646c6a0","system_id":"levelo_inurba_marseille","lat":43.293009,"lon":5.374584,"is_reserved":false,"is_disabled":false,"rental_uris":{"android":"levelo://app?vid=e4b02ff9-074e-4f72-8143-ba216646c6a0","ios":"levelo://app?vid=e4b02ff9-074e-4f72-8143-ba216646c6a0"},"vehicle_type_id":"4","last_reported":1703513190,"current_range_meters":22400,"station_id":"ce4bgi12rcd13ifvqb70","pricing_plan_id":"free"},{"bike_id":"bdad69d8-b8dd-4b54-b27f-a73e64195fdc","system_id":"levelo_inurba_marseille","lat":43.305899,"lon":5.393523,"is_reserved":false,"is_disabled":false,"rental_uris":{"android":"levelo://app?vid=bdad69d8-b8dd-4b54-b27f-a73e64195fdc","ios":"levelo://app?vid=bdad69d8-b8dd-4b54-b27f-a73e64195fdc"},"vehicle_type_id":"4","last_reported":1703513190,"current_range_meters":17600,"station_id":"ce4bh0p2rcd13ifvqd80","pricing_plan_id":"free"},{"bike_id":"d7d0c149-0726-497f-9172-6e7ff55b60c9","system_id":"levelo_inurba_marseille","lat":43.293009,"lon":5.374584,"is_reserved":false,"is_disabled":false,"rental_uris":{"android":"levelo://app?vid=d7d0c149-0726-497f-9172-6e7ff55b60c9","ios":"levelo://app?vid=d7d0c149-0726-497f-9172-6e7ff55b60c9"},"vehicle_type_id":"4","last_reported":1703513190,"current_range_meters":27200,"station_id":"ce4bgi12rcd13ifvqb70","pricing_plan_id":"free"},{"bike_id":"1fe0aeac-884f-4340-918e-6c263ae1f934","system_id":"levelo_inurba_marseille","lat":43.305943,"lon":5.393558,"is_reserved":false,"is_disabled":false,"rental_uris":{"android":"levelo://app?vid=1fe0aeac-884f-4340-918e-6c263ae1f934","ios":"levelo://app?vid=1fe0aeac-884f-4340-918e-6c263ae1f934"},"vehicle_type_id":"4","last_reported":1703513190,"current_range_meters":16800,"station_id":"ce4bh0p2rcd13ifvqd80","pricing_plan_id":"free"},{"bike_id":"963f7616-7745-415c-9791-deb1a8581094","system_id":"levelo_inurba_marseille","lat":43.293009,"lon":5.374584,"is_reserved":false,"is_disabled":false,"rental_uris":{"android":"levelo://app?vid=963f7616-7745-415c-9791-deb1a8581094","ios":"levelo://app?vid=963f7616-7745-415c-9791-deb1a8581094"},"vehicle_type_id":"4","last_reported":1703513190,"current_range_meters":29600,"station_id":"ce4bgi12rcd13ifvqb70","pricing_plan_id":"free"},{"bike_id":"0b87f915-612f-4eb1-b708-173086f5daa7","system_id":"levelo_inurba_marseille","lat":43.2936,"lon":5.37835,"is_reserved":false,"is_disabled":false,"rental_uris":{"android":"levelo://app?vid=0b87f915-612f-4eb1-b708-173086f5daa7","ios":"levelo://app?vid=0b87f915-612f-4eb1-b708-173086f5daa7"},"vehicle_type_id":"4","last_reported":1703513190,"current_range_meters":29600,"station_id":"ce4bgjh2rcd13ifvqbf0","pricing_plan_id":"free"},{"bike_id":"d0898d65-5010-4656-aabf-c363afa725bb","system_id":"levelo_inurba_marseille","lat":43.300852,"lon":5.390859,"is_reserved":false,"is_disabled":false,"rental_uris":{"android":"levelo://app?vid=d0898d65-5010-4656-aabf-c363afa725bb","ios":"levelo://app?vid=d0898d65-5010-4656-aabf-c363afa725bb"},"vehicle_type_id":"4","last_reported":1703513190,"current_range_meters":29200,"station_id":"ce4bh192rcd13ifvqdb0","pricing_plan_id":"free"},{"bike_id":"c2ede81f-1b07-4dbb-a330-68523034310e","system_id":"levelo_inurba_marseille","lat":43.29169,"lon":5.37153,"is_reserved":false,"is_disabled":false,"rental_uris":{"android":"levelo://app?vid=c2ede81f-1b07-4dbb-a330-68523034310e","ios":"levelo://app?vid=c2ede81f-1b07-4dbb-a330-68523034310e"},"vehicle_type_id":"4","last_reported":1703513190,"current_range_meters":23200,"station_id":"ce4bha92rcd13ifvqeh0","pricing_plan_id":"free"},{"bike_id":"ca188d52-10a1-441a-8d53-308919154874","system_id":"levelo_inurba_marseille","lat":43.291675,"lon":5.371583,"is_reserved":false,"is_disabled":false,"rental_uris":{"android":"levelo://app?vid=ca188d52-10a1-441a-8d53-308919154874","ios":"levelo://app?vid=ca188d52-10a1-441a-8d53-308919154874"},"vehicle_type_id":"4","last_reported":1703513190,"current_range_meters":31600,"station_id":"ce4bha92rcd13ifvqeh0","pricing_plan_id":"free"},{"bike_id":"b64c1f66-58c7-4b29-9f19-9395fcdaef8e","system_id":"levelo_inurba_marseille","lat":43.298685,"lon":5.3891,"is_reserved":false,"is_disabled":false,"rental_uris":{"android":"levelo://app?vid=b64c1f66-58c7-4b29-9f19-9395fcdaef8e","ios":"levelo://app?vid=b64c1f66-58c7-4b29-9f19-9395fcdaef8e"},"vehicle_type_id":"4","last_reported":1703513190,"current_range_meters":13200,"station_id":"","pricing_plan_id":"free"},{"bike_id":"92db59f5-d105-472b-b2e0-9f3cfce6d088","system_id":"levelo_inurba_marseille","lat":43.291994,"lon":5.357886,"is_reserved":false,"is_disabled":false,"rental_uris":{"android":"levelo://app?vid=92db59f5-d105-472b-b2e0-9f3cfce6d088","ios":"levelo://app?vid=92db59f5-d105-472b-b2e0-9f3cfce6d088"},"vehicle_type_id":"4","last_reported":1703513190,"current_range_meters":21600,"station_id":"ce4bhb12rcd13ifvqel0","pricing_plan_id":"free"},{"bike_id":"e24f2dfd-6f7e-47bb-956e-758fb14c40bc","system_id":"levelo_inurba_marseille","lat":43.292005,"lon":5.357875,"is_reserved":false,"is_disabled":false,"rental_uris":{"android":"levelo://app?vid=e24f2dfd-6f7e-47bb-956e-758fb14c40bc","ios":"levelo://app?vid=e24f2dfd-6f7e-47bb-956e-758fb14c40bc"},"vehicle_type_id":"4","last_reported":1703513190,"current_range_meters":10800,"station_id":"ce4bhb12rcd13ifvqel0","pricing_plan_id":"free"},{"bike_id":"3b6a2954-e5f3-459d-a612-236a61fd8a06","system_id":"levelo_inurba_marseille","lat":43.313291,"lon":5.396838,"is_reserved":false,"is_disabled":false,"rental_uris":{"android":"levelo://app?vid=3b6a2954-e5f3-459d-a612-236a61fd8a06","ios":"levelo://app?vid=3b6a2954-e5f3-459d-a612-236a61fd8a06"},"vehicle_type_id":"4","last_reported":1703513190,"current_range_meters":12400,"station_id":"ce4bgvp2rcd13ifvqcu0","pricing_plan_id":"free"},{"bike_id":"d4ea32e9-8917-40d4-a001-1d018c5cc189","system_id":"levelo_inurba_marseille","lat":43.29529,"lon":5.385581,"is_reserved":false,"is_disabled":false,"rental_uris":{"android":"levelo://app?vid=d4ea32e9-8917-40d4-a001-1d018c5cc189","ios":"levelo://app?vid=d4ea32e9-8917-40d4-a001-1d018c5cc189"},"vehicle_type_id":"4","last_reported":1703513190,"current_range_meters":19600,"station_id":"ce4bgih2rcd13ifvqba0","pricing_plan_id":"free"},{"bike_id":"40ccd2b3-40be-4112-a24b-78c581c9abf0","system_id":"levelo_inurba_marseille","lat":43.29529,"lon":5.385581,"is_reserved":false,"is_disabled":false,"rental_uris":{"android":"levelo://app?vid=40ccd2b3-40be-4112-a24b-78c581c9abf0","ios":"levelo://app?vid=40ccd2b3-40be-4112-a24b-78c581c9abf0"},"vehicle_type_id":"4","last_reported":1703513190,"current_range_meters":19200,"station_id":"ce4bgih2rcd13ifvqba0","pricing_plan_id":"free"},{"bike_id":"81913b3c-2064-4217-a2d0-4a7e4ac1675b","system_id":"levelo_inurba_marseille","lat":43.290779,"lon":5.371482,"is_reserved":false,"is_disabled":false,"rental_uris":{"android":"levelo://app?vid=81913b3c-2064-4217-a2d0-4a7e4ac1675b","ios":"levelo://app?vid=81913b3c-2064-4217-a2d0-4a7e4ac1675b"},"vehicle_type_id":"4","last_reported":1703513190,"current_range_meters":26000,"station_id":"ce4bh5p2rcd13ifvqe4g","pricing_plan_id":"free"},{"bike_id":"ba524f44-e848-43cb-bdb2-b8c3f283941c","system_id":"levelo_inurba_marseille","lat":43.290631,"lon":5.359244,"is_reserved":false,"is_disabled":false,"rental_uris":{"android":"levelo://app?vid=ba524f44-e848-43cb-bdb2-b8c3f283941c","ios":"levelo://app?vid=ba524f44-e848-43cb-bdb2-b8c3f283941c"},"vehicle_type_id":"4","last_reported":1703513190,"current_range_meters":31600,"station_id":"ce4bha92rcd13ifvqeg0","pricing_plan_id":"free"},{"bike_id":"b12227bd-93db-44b5-bb94-454801e896b2","system_id":"levelo_inurba_marseille","lat":43.290631,"lon":5.359244,"is_reserved":false,"is_disabled":false,"rental_uris":{"android":"levelo://app?vid=b12227bd-93db-44b5-bb94-454801e896b2","ios":"levelo://app?vid=b12227bd-93db-44b5-bb94-454801e896b2"},"vehicle_type_id":"4","last_reported":1703513190,"current_range_meters":24000,"station_id":"ce4bha92rcd13ifvqeg0","pricing_plan_id":"free"},{"bike_id":"95326780-af01-4249-83d5-2ab0d513e282","system_id":"levelo_inurba_marseille","lat":43.294153,"lon":5.386305,"is_reserved":false,"is_disabled":false,"rental_uris":{"android":"levelo://app?vid=95326780-af01-4249-83d5-2ab0d513e282","ios":"levelo://app?vid=95326780-af01-4249-83d5-2ab0d513e282"},"vehicle_type_id":"4","last_reported":1703513190,"current_range_meters":27200,"station_id":"ce4bh2h2rcd13ifvqdh0","pricing_plan_id":"free"},{"bike_id":"e758182d-ffda-46fe-bc2b-baf6ab5da6c8","system_id":"levelo_inurba_marseille","lat":43.294153,"lon":5.386305,"is_reserved":false,"is_disabled":false,"rental_uris":{"android":"levelo://app?vid=e758182d-ffda-46fe-bc2b-baf6ab5da6c8","ios":"levelo://app?vid=e758182d-ffda-46fe-bc2b-baf6ab5da6c8"},"vehicle_type_id":"4","last_reported":1703513190,"current_range_meters":28000,"station_id":"ce4bh2h2rcd13ifvqdh0","pricing_plan_id":"free"},{"bike_id":"bf935a6e-e551-4b2a-aa50-096abe937430","system_id":"levelo_inurba_marseille","lat":43.289184,"lon":5.366408,"is_reserved":false,"is_disabled":false,"rental_uris":{"android":"levelo://app?vid=bf935a6e-e551-4b2a-aa50-096abe937430","ios":"levelo://app?vid=bf935a6e-e551-4b2a-aa50-096abe937430"},"vehicle_type_id":"4","last_reported":1703513190,"current_range_meters":26400,"station_id":"ce4bhap2rcd13ifvqek0","pricing_plan_id":"free"},{"bike_id":"2e68ebe7-ac5c-48d0-9e74-e61a13a7a667","system_id":"levelo_inurba_marseille","lat":43.290327,"lon":5.375711,"is_reserved":false,"is_disabled":false,"rental_uris":{"android":"levelo://app?vid=2e68ebe7-ac5c-48d0-9e74-e61a13a7a667","ios":"levelo://app?vid=2e68ebe7-ac5c-48d0-9e74-e61a13a7a667"},"vehicle_type_id":"4","last_reported":1703513190,"current_range_meters":22000,"station_id":"ce4bh692rcd13ifvqe90","pricing_plan_id":"free"},{"bike_id":"c25f61ba-b3eb-47c0-9f8f-f684b4455744","system_id":"levelo_inurba_marseille","lat":43.289184,"lon":5.366408,"is_reserved":false,"is_disabled":false,"rental_uris":{"android":"levelo://app?vid=c25f61ba-b3eb-47c0-9f8f-f684b4455744","ios":"levelo://app?vid=c25f61ba-b3eb-47c0-9f8f-f684b4455744"},"vehicle_type_id":"4","last_reported":1703513190,"current_range_meters":28400,"station_id":"ce4bhap2rcd13ifvqek0","pricing_plan_id":"free"},{"bike_id":"a8f87c40-bc46-4811-852f-cb575dc7b2ef","system_id":"levelo_inurba_marseille","lat":43.28937,"lon":5.36392,"is_reserved":false,"is_disabled":false,"rental_uris":{"android":"levelo://app?vid=a8f87c40-bc46-4811-852f-cb575dc7b2ef","ios":"levelo://app?vid=a8f87c40-bc46-4811-852f-cb575dc7b2ef"},"vehicle_type_id":"4","last_reported":1703513190,"current_range_meters":28800,"station_id":"ce4bhc92rcd13ifvqetg","pricing_plan_id":"free"},{"bike_id":"bccfc57c-bb90-4645-9bf7-d61a82d091c3","system_id":"levelo_inurba_marseille","lat":43.28937,"lon":5.363914,"is_reserved":false,"is_disabled":false,"rental_uris":{"android":"levelo://app?vid=bccfc57c-bb90-4645-9bf7-d61a82d091c3","ios":"levelo://app?vid=bccfc57c-bb90-4645-9bf7-d61a82d091c3"},"vehicle_type_id":"4","last_reported":1703513190,"current_range_meters":30800,"station_id":"ce4bhc92rcd13ifvqetg","pricing_plan_id":"free"},{"bike_id":"c83ead25-115e-47f3-a54d-dd2b3c53b46e","system_id":"levelo_inurba_marseille","lat":43.2901,"lon":5.35607,"is_reserved":false,"is_disabled":false,"rental_uris":{"android":"levelo://app?vid=c83ead25-115e-47f3-a54d-dd2b3c53b46e","ios":"levelo://app?vid=c83ead25-115e-47f3-a54d-dd2b3c53b46e"},"vehicle_type_id":"4","last_reported":1703513190,"current_range_meters":11600,"station_id":"ce4bhb92rcd13ifvqen0","pricing_plan_id":"free"},{"bike_id":"11ad9d96-d283-4898-8a9b-ffcfe0263fe9","system_id":"levelo_inurba_marseille","lat":43.290104,"lon":5.356111,"is_reserved":false,"is_disabled":false,"rental_uris":{"android":"levelo://app?vid=11ad9d96-d283-4898-8a9b-ffcfe0263fe9","ios":"levelo://app?vid=11ad9d96-d283-4898-8a9b-ffcfe0263fe9"},"vehicle_type_id":"4","last_reported":1703513190,"current_range_meters":800,"station_id":"ce4bhb92rcd13ifvqen0","pricing_plan_id":"free"},{"bike_id":"4533e1b9-1a08-4fc2-9a89-d4d01ea471a3","system_id":"levelo_inurba_marseille","lat":43.29007,"lon":5.35613,"is_reserved":false,"is_disabled":false,"rental_uris":{"android":"levelo://app?vid=4533e1b9-1a08-4fc2-9a89-d4d01ea471a3","ios":"levelo://app?vid=4533e1b9-1a08-4fc2-9a89-d4d01ea471a3"},"vehicle_type_id":"4","last_reported":1703513190,"current_range_meters":15200,"station_id":"ce4bhb92rcd13ifvqen0","pricing_plan_id":"free"},{"bike_id":"031ffc5d-fbde-41e2-837d-e1b92f002b24","system_id":"levelo_inurba_marseille","lat":43.29007,"lon":5.35613,"is_reserved":false,"is_disabled":false,"rental_uris":{"android":"levelo://app?vid=031ffc5d-fbde-41e2-837d-e1b92f002b24","ios":"levelo://app?vid=031ffc5d-fbde-41e2-837d-e1b92f002b24"},"vehicle_type_id":"4","last_reported":1703513190,"current_range_meters":8400,"station_id":"ce4bhb92rcd13ifvqen0","pricing_plan_id":"free"},{"bike_id":"46745ab9-7adb-43e4-8827-e72a3a9de18d","system_id":"levelo_inurba_marseille","lat":43.29008,"lon":5.35608,"is_reserved":false,"is_disabled":false,"rental_uris":{"android":"levelo://app?vid=46745ab9-7adb-43e4-8827-e72a3a9de18d","ios":"levelo://app?vid=46745ab9-7adb-43e4-8827-e72a3a9de18d"},"vehicle_type_id":"4","last_reported":1703513190,"current_range_meters":18800,"station_id":"ce4bhb92rcd13ifvqen0","pricing_plan_id":"free"},{"bike_id":"0971db54-7724-41cb-a642-0045d25423ad","system_id":"levelo_inurba_marseille","lat":43.29006,"lon":5.35611,"is_reserved":false,"is_disabled":false,"rental_uris":{"android":"levelo://app?vid=0971db54-7724-41cb-a642-0045d25423ad","ios":"levelo://app?vid=0971db54-7724-41cb-a642-0045d25423ad"},"vehicle_type_id":"4","last_reported":1703513190,"current_range_meters":26800,"station_id":"ce4bhb92rcd13ifvqen0","pricing_plan_id":"free"},{"bike_id":"4ac28f22-dcba-4116-9e3b-a1e232acf836","system_id":"levelo_inurba_marseille","lat":43.290103,"lon":5.356114,"is_reserved":false,"is_disabled":false,"rental_uris":{"android":"levelo://app?vid=4ac28f22-dcba-4116-9e3b-a1e232acf836","ios":"levelo://app?vid=4ac28f22-dcba-4116-9e3b-a1e232acf836"},"vehicle_type_id":"4","last_reported":1703513190,"current_range_meters":400,"station_id":"ce4bhb92rcd13ifvqen0","pricing_plan_id":"free"},{"bike_id":"0c89d2cf-ac16-4dfe-a0ce-9ccab3ef154f","system_id":"levelo_inurba_marseille","lat":43.29004,"lon":5.35609,"is_reserved":false,"is_disabled":false,"rental_uris":{"android":"levelo://app?vid=0c89d2cf-ac16-4dfe-a0ce-9ccab3ef154f","ios":"levelo://app?vid=0c89d2cf-ac16-4dfe-a0ce-9ccab3ef154f"},"vehicle_type_id":"4","last_reported":1703513190,"current_range_meters":26000,"station_id":"ce4bhb92rcd13ifvqen0","pricing_plan_id":"free"},{"bike_id":"c03dc21f-358d-45bf-aec5-2c30b2326fb2","system_id":"levelo_inurba_marseille","lat":43.29003,"lon":5.35606,"is_reserved":false,"is_disabled":false,"rental_uris":{"android":"levelo://app?vid=c03dc21f-358d-45bf-aec5-2c30b2326fb2","ios":"levelo://app?vid=c03dc21f-358d-45bf-aec5-2c30b2326fb2"},"vehicle_type_id":"4","last_reported":1703513190,"current_range_meters":25600,"station_id":"ce4bhb92rcd13ifvqen0","pricing_plan_id":"free"},{"bike_id":"db623de3-7f4a-494a-9c27-c8a455247032","system_id":"levelo_inurba_marseille","lat":43.29003,"lon":5.35605,"is_reserved":false,"is_disabled":false,"rental_uris":{"android":"levelo://app?vid=db623de3-7f4a-494a-9c27-c8a455247032","ios":"levelo://app?vid=db623de3-7f4a-494a-9c27-c8a455247032"},"vehicle_type_id":"4","last_reported":1703513190,"current_range_meters":26000,"station_id":"ce4bhb92rcd13ifvqen0","pricing_plan_id":"free"},{"bike_id":"c5089163-3cbe-4cf3-8920-bf268dd7f199","system_id":"levelo_inurba_marseille","lat":43.29002,"lon":5.35606,"is_reserved":false,"is_disabled":false,"rental_uris":{"android":"levelo://app?vid=c5089163-3cbe-4cf3-8920-bf268dd7f199","ios":"levelo://app?vid=c5089163-3cbe-4cf3-8920-bf268dd7f199"},"vehicle_type_id":"4","last_reported":1703513190,"current_range_meters":31200,"station_id":"ce4bhb92rcd13ifvqen0","pricing_plan_id":"free"},{"bike_id":"0ffbba2b-e9c2-4b2a-a0fd-4fcdc16d3752","system_id":"levelo_inurba_marseille","lat":43.290104,"lon":5.356111,"is_reserved":false,"is_disabled":false,"rental_uris":{"android":"levelo://app?vid=0ffbba2b-e9c2-4b2a-a0fd-4fcdc16d3752","ios":"levelo://app?vid=0ffbba2b-e9c2-4b2a-a0fd-4fcdc16d3752"},"vehicle_type_id":"4","last_reported":1703513190,"current_range_meters":23200,"station_id":"ce4bhb92rcd13ifvqen0","pricing_plan_id":"free"},{"bike_id":"7bde7a69-b36b-4dfc-9b31-5651b0836428","system_id":"levelo_inurba_marseille","lat":43.290104,"lon":5.356111,"is_reserved":false,"is_disabled":false,"rental_uris":{"android":"levelo://app?vid=7bde7a69-b36b-4dfc-9b31-5651b0836428","ios":"levelo://app?vid=7bde7a69-b36b-4dfc-9b31-5651b0836428"},"vehicle_type_id":"4","last_reported":1703513190,"current_range_meters":26400,"station_id":"ce4bhb92rcd13ifvqen0","pricing_plan_id":"free"},{"bike_id":"4aecd99e-4d53-445a-9ecb-f3fb046f244c","system_id":"levelo_inurba_marseille","lat":43.290995,"lon":5.381361,"is_reserved":false,"is_disabled":false,"rental_uris":{"android":"levelo://app?vid=4aecd99e-4d53-445a-9ecb-f3fb046f244c","ios":"levelo://app?vid=4aecd99e-4d53-445a-9ecb-f3fb046f244c"},"vehicle_type_id":"4","last_reported":1703513190,"current_range_meters":26000,"station_id":"ce4bh512rcd13ifvqe2g","pricing_plan_id":"free"},{"bike_id":"85360451-a61e-4e96-ae6a-c2105e42c2d1","system_id":"levelo_inurba_marseille","lat":43.295169,"lon":5.390426,"is_reserved":false,"is_disabled":false,"rental_uris":{"android":"levelo://app?vid=85360451-a61e-4e96-ae6a-c2105e42c2d1","ios":"levelo://app?vid=85360451-a61e-4e96-ae6a-c2105e42c2d1"},"vehicle_type_id":"4","last_reported":1703513190,"current_range_meters":19200,"station_id":"ce4bh3p2rcd13ifvqdp0","pricing_plan_id":"free"},{"bike_id":"e485450b-2736-4f4c-b94b-0da5a69b88aa","system_id":"levelo_inurba_marseille","lat":43.33024,"lon":5.3904,"is_reserved":false,"is_disabled":false,"rental_uris":{"android":"levelo://app?vid=e485450b-2736-4f4c-b94b-0da5a69b88aa","ios":"levelo://app?vid=e485450b-2736-4f4c-b94b-0da5a69b88aa"},"vehicle_type_id":"4","last_reported":1703513190,"current_range_meters":24000,"station_id":"","pricing_plan_id":"free"},{"bike_id":"5d1bde58-2c7b-438a-bd37-7bc100df62bf","system_id":"levelo_inurba_marseille","lat":43.33028,"lon":5.39038,"is_reserved":false,"is_disabled":false,"rental_uris":{"android":"levelo://app?vid=5d1bde58-2c7b-438a-bd37-7bc100df62bf","ios":"levelo://app?vid=5d1bde58-2c7b-438a-bd37-7bc100df62bf"},"vehicle_type_id":"4","last_reported":1703513190,"current_range_meters":17200,"station_id":"","pricing_plan_id":"free"},{"bike_id":"2a35336c-d008-4b97-8e8d-e13ecb2f6bfb","system_id":"levelo_inurba_marseille","lat":43.330442,"lon":5.389148,"is_reserved":false,"is_disabled":false,"rental_uris":{"android":"levelo://app?vid=2a35336c-d008-4b97-8e8d-e13ecb2f6bfb","ios":"levelo://app?vid=2a35336c-d008-4b97-8e8d-e13ecb2f6bfb"},"vehicle_type_id":"4","last_reported":1703513190,"current_range_meters":14400,"station_id":"ce4bhr92rcd13ifvqhrg","pricing_plan_id":"free"},{"bike_id":"4b388e93-8359-494a-93e7-a691dd1edc09","system_id":"levelo_inurba_marseille","lat":43.330442,"lon":5.389148,"is_reserved":false,"is_disabled":false,"rental_uris":{"android":"levelo://app?vid=4b388e93-8359-494a-93e7-a691dd1edc09","ios":"levelo://app?vid=4b388e93-8359-494a-93e7-a691dd1edc09"},"vehicle_type_id":"4","last_reported":1703513190,"current_range_meters":26000,"station_id":"ce4bhr92rcd13ifvqhrg","pricing_plan_id":"free"},{"bike_id":"5464784f-50fb-4384-9197-f77a27d2970e","system_id":"levelo_inurba_marseille","lat":43.290094,"lon":5.381264,"is_reserved":false,"is_disabled":false,"rental_uris":{"android":"levelo://app?vid=5464784f-50fb-4384-9197-f77a27d2970e","ios":"levelo://app?vid=5464784f-50fb-4384-9197-f77a27d2970e"},"vehicle_type_id":"4","last_reported":1703513190,"current_range_meters":28000,"station_id":"ce4bh4p2rcd13ifvqe1g","pricing_plan_id":"free"},{"bike_id":"2dc53c83-5800-4ad2-84cb-cfaffb645688","system_id":"levelo_inurba_marseille","lat":43.2901,"lon":5.381269,"is_reserved":false,"is_disabled":false,"rental_uris":{"android":"levelo://app?vid=2dc53c83-5800-4ad2-84cb-cfaffb645688","ios":"levelo://app?vid=2dc53c83-5800-4ad2-84cb-cfaffb645688"},"vehicle_type_id":"4","last_reported":1703513190,"current_range_meters":22800,"station_id":"ce4bh4p2rcd13ifvqe1g","pricing_plan_id":"free"},{"bike_id":"4aac448d-ea19-4dee-b69b-8b32bd67559b","system_id":"levelo_inurba_marseille","lat":43.28856,"lon":5.358371,"is_reserved":false,"is_disabled":false,"rental_uris":{"android":"levelo://app?vid=4aac448d-ea19-4dee-b69b-8b32bd67559b","ios":"levelo://app?vid=4aac448d-ea19-4dee-b69b-8b32bd67559b"},"vehicle_type_id":"4","last_reported":1703513190,"current_range_meters":12800,"station_id":"ce4bhb12rcd13ifvqem0","pricing_plan_id":"free"},{"bike_id":"d3f87648-fa46-4e0f-85a3-39f063b748e0","system_id":"levelo_inurba_marseille","lat":43.330873,"lon":5.39082,"is_reserved":false,"is_disabled":false,"rental_uris":{"android":"levelo://app?vid=d3f87648-fa46-4e0f-85a3-39f063b748e0","ios":"levelo://app?vid=d3f87648-fa46-4e0f-85a3-39f063b748e0"},"vehicle_type_id":"4","last_reported":1703513190,"current_range_meters":28800,"station_id":"","pricing_plan_id":"free"},{"bike_id":"7244b12c-a4ed-4fcc-a53c-0222ae84e7e2","system_id":"levelo_inurba_marseille","lat":43.330907,"lon":5.390872,"is_reserved":false,"is_disabled":false,"rental_uris":{"android":"levelo://app?vid=7244b12c-a4ed-4fcc-a53c-0222ae84e7e2","ios":"levelo://app?vid=7244b12c-a4ed-4fcc-a53c-0222ae84e7e2"},"vehicle_type_id":"4","last_reported":1703513190,"current_range_meters":28800,"station_id":"","pricing_plan_id":"free"},{"bike_id":"4a567f15-c8c7-45a1-89d2-82c585dbdf31","system_id":"levelo_inurba_marseille","lat":43.293259,"lon":5.371586,"is_reserved":false,"is_disabled":false,"rental_uris":{"android":"levelo://app?vid=4a567f15-c8c7-45a1-89d2-82c585dbdf31","ios":"levelo://app?vid=4a567f15-c8c7-45a1-89d2-82c585dbdf31"},"vehicle_type_id":"4","last_reported":1703513190,"current_range_meters":12000,"station_id":"ce4bgh92rcd13ifvqb40","pricing_plan_id":"free"},{"bike_id":"4efcc028-6aa0-45ef-9ce0-d238a0ac3378","system_id":"levelo_inurba_marseille","lat":43.312609,"lon":5.401662,"is_reserved":false,"is_disabled":false,"rental_uris":{"android":"levelo://app?vid=4efcc028-6aa0-45ef-9ce0-d238a0ac3378","ios":"levelo://app?vid=4efcc028-6aa0-45ef-9ce0-d238a0ac3378"},"vehicle_type_id":"4","last_reported":1703513190,"current_range_meters":17200,"station_id":"ce4bh092rcd13ifvqd30","pricing_plan_id":"free"},{"bike_id":"7d7f9bba-419f-4024-98e7-2f55b9ee0ae9","system_id":"levelo_inurba_marseille","lat":43.312609,"lon":5.401662,"is_reserved":false,"is_disabled":false,"rental_uris":{"android":"levelo://app?vid=7d7f9bba-419f-4024-98e7-2f55b9ee0ae9","ios":"levelo://app?vid=7d7f9bba-419f-4024-98e7-2f55b9ee0ae9"},"vehicle_type_id":"4","last_reported":1703513190,"current_range_meters":20800,"station_id":"ce4bh092rcd13ifvqd30","pricing_plan_id":"free"},{"bike_id":"890734f2-2928-451e-8203-788e980efe96","system_id":"levelo_inurba_marseille","lat":43.30936,"lon":5.40143,"is_reserved":false,"is_disabled":false,"rental_uris":{"android":"levelo://app?vid=890734f2-2928-451e-8203-788e980efe96","ios":"levelo://app?vid=890734f2-2928-451e-8203-788e980efe96"},"vehicle_type_id":"4","last_reported":1703513190,"current_range_meters":22400,"station_id":"ce4bgvp2rcd13ifvqct0","pricing_plan_id":"free"},{"bike_id":"c7ece0b4-81c8-48ad-8f9f-afceb53e7122","system_id":"levelo_inurba_marseille","lat":43.312609,"lon":5.401662,"is_reserved":false,"is_disabled":false,"rental_uris":{"android":"levelo://app?vid=c7ece0b4-81c8-48ad-8f9f-afceb53e7122","ios":"levelo://app?vid=c7ece0b4-81c8-48ad-8f9f-afceb53e7122"},"vehicle_type_id":"4","last_reported":1703513190,"current_range_meters":20800,"station_id":"ce4bh092rcd13ifvqd30","pricing_plan_id":"free"},{"bike_id":"efa0f35f-c332-4cf3-8de5-32902a94e4a4","system_id":"levelo_inurba_marseille","lat":43.309371,"lon":5.401449,"is_reserved":false,"is_disabled":false,"rental_uris":{"android":"levelo://app?vid=efa0f35f-c332-4cf3-8de5-32902a94e4a4","ios":"levelo://app?vid=efa0f35f-c332-4cf3-8de5-32902a94e4a4"},"vehicle_type_id":"4","last_reported":1703513190,"current_range_meters":28000,"station_id":"ce4bgvp2rcd13ifvqct0","pricing_plan_id":"free"},{"bike_id":"89867a69-c089-47be-910e-1c8a1d09a954","system_id":"levelo_inurba_marseille","lat":43.330921,"lon":5.391271,"is_reserved":false,"is_disabled":false,"rental_uris":{"android":"levelo://app?vid=89867a69-c089-47be-910e-1c8a1d09a954","ios":"levelo://app?vid=89867a69-c089-47be-910e-1c8a1d09a954"},"vehicle_type_id":"4","last_reported":1703513190,"current_range_meters":17200,"station_id":"","pricing_plan_id":"free"},{"bike_id":"69d6fd11-7326-4683-9856-c31d6e07c285","system_id":"levelo_inurba_marseille","lat":43.3127,"lon":5.40182,"is_reserved":false,"is_disabled":false,"rental_uris":{"android":"levelo://app?vid=69d6fd11-7326-4683-9856-c31d6e07c285","ios":"levelo://app?vid=69d6fd11-7326-4683-9856-c31d6e07c285"},"vehicle_type_id":"4","last_reported":1703513190,"current_range_meters":12800,"station_id":"ce4bh092rcd13ifvqd30","pricing_plan_id":"free"},{"bike_id":"eda1d4be-a826-4263-b216-464e803eb4ba","system_id":"levelo_inurba_marseille","lat":43.30642,"lon":5.401031,"is_reserved":false,"is_disabled":false,"rental_uris":{"android":"levelo://app?vid=eda1d4be-a826-4263-b216-464e803eb4ba","ios":"levelo://app?vid=eda1d4be-a826-4263-b216-464e803eb4ba"},"vehicle_type_id":"4","last_reported":1703513190,"current_range_meters":25200,"station_id":"ce4bh112rcd13ifvqda0","pricing_plan_id":"free"},{"bike_id":"94fbfe4e-4aa2-4f99-86ed-9d731b0b6466","system_id":"levelo_inurba_marseille","lat":43.301117,"lon":5.398795,"is_reserved":false,"is_disabled":false,"rental_uris":{"android":"levelo://app?vid=94fbfe4e-4aa2-4f99-86ed-9d731b0b6466","ios":"levelo://app?vid=94fbfe4e-4aa2-4f99-86ed-9d731b0b6466"},"vehicle_type_id":"4","last_reported":1703513190,"current_range_meters":30400,"station_id":"ce4bh0h2rcd13ifvqd40","pricing_plan_id":"free"},{"bike_id":"2235686f-593b-45fb-b637-d3d707e742ea","system_id":"levelo_inurba_marseille","lat":43.286961,"lon":5.373785,"is_reserved":false,"is_disabled":false,"rental_uris":{"android":"levelo://app?vid=2235686f-593b-45fb-b637-d3d707e742ea","ios":"levelo://app?vid=2235686f-593b-45fb-b637-d3d707e742ea"},"vehicle_type_id":"4","last_reported":1703513190,"current_range_meters":3200,"station_id":"ce4bh3p2rcd13ifvqdq0","pricing_plan_id":"free"},{"bike_id":"3c2c9b4a-9e07-458c-8d56-46376aac29e5","system_id":"levelo_inurba_marseille","lat":43.298681,"lon":5.397225,"is_reserved":false,"is_disabled":false,"rental_uris":{"android":"levelo://app?vid=3c2c9b4a-9e07-458c-8d56-46376aac29e5","ios":"levelo://app?vid=3c2c9b4a-9e07-458c-8d56-46376aac29e5"},"vehicle_type_id":"4","last_reported":1703513190,"current_range_meters":25600,"station_id":"ce4bh0h2rcd13ifvqd50","pricing_plan_id":"free"},{"bike_id":"a9a41def-53c5-4d15-9a54-d5705f70e060","system_id":"levelo_inurba_marseille","lat":43.286961,"lon":5.373785,"is_reserved":false,"is_disabled":false,"rental_uris":{"android":"levelo://app?vid=a9a41def-53c5-4d15-9a54-d5705f70e060","ios":"levelo://app?vid=a9a41def-53c5-4d15-9a54-d5705f70e060"},"vehicle_type_id":"4","last_reported":1703513190,"current_range_meters":30800,"station_id":"ce4bh3p2rcd13ifvqdq0","pricing_plan_id":"free"},{"bike_id":"34270f26-8a19-4c9b-9c09-f386b405438e","system_id":"levelo_inurba_marseille","lat":43.286961,"lon":5.373785,"is_reserved":false,"is_disabled":false,"rental_uris":{"android":"levelo://app?vid=34270f26-8a19-4c9b-9c09-f386b405438e","ios":"levelo://app?vid=34270f26-8a19-4c9b-9c09-f386b405438e"},"vehicle_type_id":"4","last_reported":1703513190,"current_range_meters":23200,"station_id":"ce4bh3p2rcd13ifvqdq0","pricing_plan_id":"free"},{"bike_id":"c1043cb4-cdeb-4e50-ac47-6676a2643c75","system_id":"levelo_inurba_marseille","lat":43.289307,"lon":5.38406,"is_reserved":false,"is_disabled":false,"rental_uris":{"android":"levelo://app?vid=c1043cb4-cdeb-4e50-ac47-6676a2643c75","ios":"levelo://app?vid=c1043cb4-cdeb-4e50-ac47-6676a2643c75"},"vehicle_type_id":"4","last_reported":1703513190,"current_range_meters":22800,"station_id":"ce4bh612rcd13ifvqe6g","pricing_plan_id":"free"},{"bike_id":"58287bc2-f798-447f-98f0-1feb0986d5f9","system_id":"levelo_inurba_marseille","lat":43.289307,"lon":5.38406,"is_reserved":false,"is_disabled":false,"rental_uris":{"android":"levelo://app?vid=58287bc2-f798-447f-98f0-1feb0986d5f9","ios":"levelo://app?vid=58287bc2-f798-447f-98f0-1feb0986d5f9"},"vehicle_type_id":"4","last_reported":1703513190,"current_range_meters":10400,"station_id":"ce4bh612rcd13ifvqe6g","pricing_plan_id":"free"},{"bike_id":"a0b03d8e-4166-4eac-aae3-14551c30d7f6","system_id":"levelo_inurba_marseille","lat":43.289307,"lon":5.38406,"is_reserved":false,"is_disabled":false,"rental_uris":{"android":"levelo://app?vid=a0b03d8e-4166-4eac-aae3-14551c30d7f6","ios":"levelo://app?vid=a0b03d8e-4166-4eac-aae3-14551c30d7f6"},"vehicle_type_id":"4","last_reported":1703513190,"current_range_meters":21600,"station_id":"ce4bh612rcd13ifvqe6g","pricing_plan_id":"free"},{"bike_id":"3821736b-8935-411a-a0ec-be9c5cd7811a","system_id":"levelo_inurba_marseille","lat":43.302759,"lon":5.400793,"is_reserved":false,"is_disabled":false,"rental_uris":{"android":"levelo://app?vid=3821736b-8935-411a-a0ec-be9c5cd7811a","ios":"levelo://app?vid=3821736b-8935-411a-a0ec-be9c5cd7811a"},"vehicle_type_id":"4","last_reported":1703513190,"current_range_meters":30800,"station_id":"ce4bgvh2rcd13ifvqcs0","pricing_plan_id":"free"},{"bike_id":"b269c749-19b3-457a-9f11-021ccc443c55","system_id":"levelo_inurba_marseille","lat":43.286039,"lon":5.370679,"is_reserved":false,"is_disabled":false,"rental_uris":{"android":"levelo://app?vid=b269c749-19b3-457a-9f11-021ccc443c55","ios":"levelo://app?vid=b269c749-19b3-457a-9f11-021ccc443c55"},"vehicle_type_id":"4","last_reported":1703513190,"current_range_meters":8000,"station_id":"ce4bht12rcd13ifvqi60","pricing_plan_id":"free"},{"bike_id":"96032c65-ad05-4627-9655-b64d1764d84b","system_id":"levelo_inurba_marseille","lat":43.28607,"lon":5.37065,"is_reserved":false,"is_disabled":false,"rental_uris":{"android":"levelo://app?vid=96032c65-ad05-4627-9655-b64d1764d84b","ios":"levelo://app?vid=96032c65-ad05-4627-9655-b64d1764d84b"},"vehicle_type_id":"4","last_reported":1703513190,"current_range_meters":8400,"station_id":"ce4bht12rcd13ifvqi60","pricing_plan_id":"free"},{"bike_id":"0ade99fb-20fc-423b-a697-58876a6bf0b1","system_id":"levelo_inurba_marseille","lat":43.287073,"lon":5.379439,"is_reserved":false,"is_disabled":false,"rental_uris":{"android":"levelo://app?vid=0ade99fb-20fc-423b-a697-58876a6bf0b1","ios":"levelo://app?vid=0ade99fb-20fc-423b-a697-58876a6bf0b1"},"vehicle_type_id":"4","last_reported":1703513190,"current_range_meters":22400,"station_id":"ce4bh9p2rcd13ifvqec0","pricing_plan_id":"free"},{"bike_id":"3d223c35-a855-4864-92d7-cac74a6049e3","system_id":"levelo_inurba_marseille","lat":43.316828,"lon":5.404723,"is_reserved":false,"is_disabled":false,"rental_uris":{"android":"levelo://app?vid=3d223c35-a855-4864-92d7-cac74a6049e3","ios":"levelo://app?vid=3d223c35-a855-4864-92d7-cac74a6049e3"},"vehicle_type_id":"4","last_reported":1703513190,"current_range_meters":30000,"station_id":"ce4bh012rcd13ifvqd00","pricing_plan_id":"free"},{"bike_id":"e2adfa7c-882e-48a1-9ee4-b36e6186ebbf","system_id":"levelo_inurba_marseille","lat":43.330912,"lon":5.396935,"is_reserved":false,"is_disabled":false,"rental_uris":{"android":"levelo://app?vid=e2adfa7c-882e-48a1-9ee4-b36e6186ebbf","ios":"levelo://app?vid=e2adfa7c-882e-48a1-9ee4-b36e6186ebbf"},"vehicle_type_id":"4","last_reported":1703513190,"current_range_meters":6800,"station_id":"","pricing_plan_id":"free"},{"bike_id":"fab630ed-bcd7-4e49-8a6c-bc4462549a60","system_id":"levelo_inurba_marseille","lat":43.285848,"lon":5.350787,"is_reserved":false,"is_disabled":false,"rental_uris":{"android":"levelo://app?vid=fab630ed-bcd7-4e49-8a6c-bc4462549a60","ios":"levelo://app?vid=fab630ed-bcd7-4e49-8a6c-bc4462549a60"},"vehicle_type_id":"4","last_reported":1703513190,"current_range_meters":20000,"station_id":"ce4bhch2rcd13ifvqeug","pricing_plan_id":"free"},{"bike_id":"57fd2e4e-a315-462e-bbe9-460efcaf3f88","system_id":"levelo_inurba_marseille","lat":43.295713,"lon":5.399639,"is_reserved":false,"is_disabled":false,"rental_uris":{"android":"levelo://app?vid=57fd2e4e-a315-462e-bbe9-460efcaf3f88","ios":"levelo://app?vid=57fd2e4e-a315-462e-bbe9-460efcaf3f88"},"vehicle_type_id":"4","last_reported":1703513190,"current_range_meters":30000,"station_id":"ce4bh312rcd13ifvqdj0","pricing_plan_id":"free"},{"bike_id":"f9603070-0680-427d-9d31-c2a8be4b77dd","system_id":"levelo_inurba_marseille","lat":43.284108,"lon":5.375179,"is_reserved":false,"is_disabled":false,"rental_uris":{"android":"levelo://app?vid=f9603070-0680-427d-9d31-c2a8be4b77dd","ios":"levelo://app?vid=f9603070-0680-427d-9d31-c2a8be4b77dd"},"vehicle_type_id":"4","last_reported":1703513190,"current_range_meters":28000,"station_id":"ce4bh412rcd13ifvqds0","pricing_plan_id":"free"},{"bike_id":"7cd54627-9d9c-47a0-bc06-cdf97fe4b863","system_id":"levelo_inurba_marseille","lat":43.2841,"lon":5.375226,"is_reserved":false,"is_disabled":false,"rental_uris":{"android":"levelo://app?vid=7cd54627-9d9c-47a0-bc06-cdf97fe4b863","ios":"levelo://app?vid=7cd54627-9d9c-47a0-bc06-cdf97fe4b863"},"vehicle_type_id":"4","last_reported":1703513190,"current_range_meters":28800,"station_id":"ce4bh412rcd13ifvqds0","pricing_plan_id":"free"},{"bike_id":"a47829e3-1e46-4682-b7cb-2e314fcf13f8","system_id":"levelo_inurba_marseille","lat":43.295713,"lon":5.399639,"is_reserved":false,"is_disabled":false,"rental_uris":{"android":"levelo://app?vid=a47829e3-1e46-4682-b7cb-2e314fcf13f8","ios":"levelo://app?vid=a47829e3-1e46-4682-b7cb-2e314fcf13f8"},"vehicle_type_id":"4","last_reported":1703513190,"current_range_meters":28400,"station_id":"ce4bh312rcd13ifvqdj0","pricing_plan_id":"free"},{"bike_id":"e850cd16-ef78-4deb-869a-2ee37313d924","system_id":"levelo_inurba_marseille","lat":43.284065,"lon":5.37521,"is_reserved":false,"is_disabled":false,"rental_uris":{"android":"levelo://app?vid=e850cd16-ef78-4deb-869a-2ee37313d924","ios":"levelo://app?vid=e850cd16-ef78-4deb-869a-2ee37313d924"},"vehicle_type_id":"4","last_reported":1703513190,"current_range_meters":28800,"station_id":"ce4bh412rcd13ifvqds0","pricing_plan_id":"free"},{"bike_id":"ff6ebe2d-10e0-4bee-8d5b-0d34d0573673","system_id":"levelo_inurba_marseille","lat":43.337219,"lon":5.391592,"is_reserved":false,"is_disabled":false,"rental_uris":{"android":"levelo://app?vid=ff6ebe2d-10e0-4bee-8d5b-0d34d0573673","ios":"levelo://app?vid=ff6ebe2d-10e0-4bee-8d5b-0d34d0573673"},"vehicle_type_id":"4","last_reported":1703513190,"current_range_meters":22400,"station_id":"ce4bhr92rcd13ifvqhsg","pricing_plan_id":"free"},{"bike_id":"9960fa43-3a3b-4d5b-8fe2-258b49d47b49","system_id":"levelo_inurba_marseille","lat":43.323464,"lon":5.406297,"is_reserved":false,"is_disabled":false,"rental_uris":{"android":"levelo://app?vid=9960fa43-3a3b-4d5b-8fe2-258b49d47b49","ios":"levelo://app?vid=9960fa43-3a3b-4d5b-8fe2-258b49d47b49"},"vehicle_type_id":"4","last_reported":1703513190,"current_range_meters":28000,"station_id":"ce4bhq92rcd13ifvqhjg","pricing_plan_id":"free"},{"bike_id":"9ff89317-9a20-4126-b086-5364c67d4577","system_id":"levelo_inurba_marseille","lat":43.284787,"lon":5.384116,"is_reserved":false,"is_disabled":false,"rental_uris":{"android":"levelo://app?vid=9ff89317-9a20-4126-b086-5364c67d4577","ios":"levelo://app?vid=9ff89317-9a20-4126-b086-5364c67d4577"},"vehicle_type_id":"4","last_reported":1703513190,"current_range_meters":28400,"station_id":"ce4bh512rcd13ifvqe3g","pricing_plan_id":"free"},{"bike_id":"6e43f46b-f8c4-4887-9f97-dd8c37b05ed4","system_id":"levelo_inurba_marseille","lat":43.283494,"lon":5.380945,"is_reserved":false,"is_disabled":false,"rental_uris":{"android":"levelo://app?vid=6e43f46b-f8c4-4887-9f97-dd8c37b05ed4","ios":"levelo://app?vid=6e43f46b-f8c4-4887-9f97-dd8c37b05ed4"},"vehicle_type_id":"4","last_reported":1703513190,"current_range_meters":24400,"station_id":"ce4bh412rcd13ifvqdr0","pricing_plan_id":"free"},{"bike_id":"ea076fc8-27c2-42c5-8e55-19e4ebfd3291","system_id":"levelo_inurba_marseille","lat":43.283494,"lon":5.380945,"is_reserved":false,"is_disabled":false,"rental_uris":{"android":"levelo://app?vid=ea076fc8-27c2-42c5-8e55-19e4ebfd3291","ios":"levelo://app?vid=ea076fc8-27c2-42c5-8e55-19e4ebfd3291"},"vehicle_type_id":"4","last_reported":1703513190,"current_range_meters":30800,"station_id":"ce4bh412rcd13ifvqdr0","pricing_plan_id":"free"},{"bike_id":"ab442026-4705-4ea8-8770-81d3454bc0d6","system_id":"levelo_inurba_marseille","lat":43.283494,"lon":5.380945,"is_reserved":false,"is_disabled":false,"rental_uris":{"android":"levelo://app?vid=ab442026-4705-4ea8-8770-81d3454bc0d6","ios":"levelo://app?vid=ab442026-4705-4ea8-8770-81d3454bc0d6"},"vehicle_type_id":"4","last_reported":1703513190,"current_range_meters":26800,"station_id":"ce4bh412rcd13ifvqdr0","pricing_plan_id":"free"},{"bike_id":"c56f00b5-731e-4085-8d64-f946756df779","system_id":"levelo_inurba_marseille","lat":43.283477,"lon":5.381111,"is_reserved":false,"is_disabled":false,"rental_uris":{"android":"levelo://app?vid=c56f00b5-731e-4085-8d64-f946756df779","ios":"levelo://app?vid=c56f00b5-731e-4085-8d64-f946756df779"},"vehicle_type_id":"4","last_reported":1703513190,"current_range_meters":29200,"station_id":"ce4bh412rcd13ifvqdr0","pricing_plan_id":"free"},{"bike_id":"13c6fbd1-dd56-4d9b-9995-14b2d452a6b7","system_id":"levelo_inurba_marseille","lat":43.284219,"lon":5.3497,"is_reserved":false,"is_disabled":false,"rental_uris":{"android":"levelo://app?vid=13c6fbd1-dd56-4d9b-9995-14b2d452a6b7","ios":"levelo://app?vid=13c6fbd1-dd56-4d9b-9995-14b2d452a6b7"},"vehicle_type_id":"4","last_reported":1703513190,"current_range_meters":30400,"station_id":"ce4bhbh2rcd13ifvqepg","pricing_plan_id":"free"},{"bike_id":"931b787b-bd0c-410f-8371-c4913dc6c20d","system_id":"levelo_inurba_marseille","lat":43.292724,"lon":5.401131,"is_reserved":false,"is_disabled":false,"rental_uris":{"android":"levelo://app?vid=931b787b-bd0c-410f-8371-c4913dc6c20d","ios":"levelo://app?vid=931b787b-bd0c-410f-8371-c4913dc6c20d"},"vehicle_type_id":"4","last_reported":1703513190,"current_range_meters":28400,"station_id":"ce4bh312rcd13ifvqdk0","pricing_plan_id":"free"},{"bike_id":"0d38cc44-7317-496e-aee8-0d485f998e6d","system_id":"levelo_inurba_marseille","lat":43.282754,"lon":5.350519,"is_reserved":false,"is_disabled":false,"rental_uris":{"android":"levelo://app?vid=0d38cc44-7317-496e-aee8-0d485f998e6d","ios":"levelo://app?vid=0d38cc44-7317-496e-aee8-0d485f998e6d"},"vehicle_type_id":"4","last_reported":1703513190,"current_range_meters":16000,"station_id":"ce4bhbp2rcd13ifvqerg","pricing_plan_id":"free"},{"bike_id":"5332f77e-9fdb-45e2-9a95-07168f0ff0dd","system_id":"levelo_inurba_marseille","lat":43.28039,"lon":5.369297,"is_reserved":false,"is_disabled":false,"rental_uris":{"android":"levelo://app?vid=5332f77e-9fdb-45e2-9a95-07168f0ff0dd","ios":"levelo://app?vid=5332f77e-9fdb-45e2-9a95-07168f0ff0dd"},"vehicle_type_id":"4","last_reported":1703513190,"current_range_meters":7200,"station_id":"ce4bha12rcd13ifvqef0","pricing_plan_id":"free"},{"bike_id":"4ab1893a-bb27-4802-ba1e-aebcd749e301","system_id":"levelo_inurba_marseille","lat":43.28039,"lon":5.369297,"is_reserved":false,"is_disabled":false,"rental_uris":{"android":"levelo://app?vid=4ab1893a-bb27-4802-ba1e-aebcd749e301","ios":"levelo://app?vid=4ab1893a-bb27-4802-ba1e-aebcd749e301"},"vehicle_type_id":"4","last_reported":1703513190,"current_range_meters":22000,"station_id":"ce4bha12rcd13ifvqef0","pricing_plan_id":"free"},{"bike_id":"0962ed98-d5dc-4010-9db1-f0699607cbd0","system_id":"levelo_inurba_marseille","lat":43.281044,"lon":5.378308,"is_reserved":false,"is_disabled":false,"rental_uris":{"android":"levelo://app?vid=0962ed98-d5dc-4010-9db1-f0699607cbd0","ios":"levelo://app?vid=0962ed98-d5dc-4010-9db1-f0699607cbd0"},"vehicle_type_id":"4","last_reported":1703513190,"current_range_meters":29200,"station_id":"ce4bha12rcd13ifvqee0","pricing_plan_id":"free"},{"bike_id":"a287f454-9f81-406b-a770-c4b864f93702","system_id":"levelo_inurba_marseille","lat":43.29041,"lon":5.399634,"is_reserved":false,"is_disabled":false,"rental_uris":{"android":"levelo://app?vid=a287f454-9f81-406b-a770-c4b864f93702","ios":"levelo://app?vid=a287f454-9f81-406b-a770-c4b864f93702"},"vehicle_type_id":"4","last_reported":1703513190,"current_range_meters":25200,"station_id":"ce4bh392rcd13ifvqdm0","pricing_plan_id":"free"},{"bike_id":"8ec641e4-f2ac-44cf-83c5-edf202f88352","system_id":"levelo_inurba_marseille","lat":43.284462,"lon":5.392121,"is_reserved":false,"is_disabled":false,"rental_uris":{"android":"levelo://app?vid=8ec641e4-f2ac-44cf-83c5-edf202f88352","ios":"levelo://app?vid=8ec641e4-f2ac-44cf-83c5-edf202f88352"},"vehicle_type_id":"4","last_reported":1703513190,"current_range_meters":31600,"station_id":"ce4bhoh2rcd13ifvqh5g","pricing_plan_id":"free"},{"bike_id":"386b6e80-ff1e-45a3-8fe6-96e070e7707f","system_id":"levelo_inurba_marseille","lat":43.28573,"lon":5.394992,"is_reserved":false,"is_disabled":false,"rental_uris":{"android":"levelo://app?vid=386b6e80-ff1e-45a3-8fe6-96e070e7707f","ios":"levelo://app?vid=386b6e80-ff1e-45a3-8fe6-96e070e7707f"},"vehicle_type_id":"4","last_reported":1703513190,"current_range_meters":26800,"station_id":"ce4bh292rcd13ifvqdg0","pricing_plan_id":"free"},{"bike_id":"afa1afbf-c94b-41f3-bd4e-f1213ce8de2e","system_id":"levelo_inurba_marseille","lat":43.326605,"lon":5.409903,"is_reserved":false,"is_disabled":false,"rental_uris":{"android":"levelo://app?vid=afa1afbf-c94b-41f3-bd4e-f1213ce8de2e","ios":"levelo://app?vid=afa1afbf-c94b-41f3-bd4e-f1213ce8de2e"},"vehicle_type_id":"4","last_reported":1703513190,"current_range_meters":12400,"station_id":"ce4bhpp2rcd13ifvqhgg","pricing_plan_id":"free"},{"bike_id":"2461568d-671f-4a69-907f-ce8fe96656a8","system_id":"levelo_inurba_marseille","lat":43.326605,"lon":5.409903,"is_reserved":false,"is_disabled":false,"rental_uris":{"android":"levelo://app?vid=2461568d-671f-4a69-907f-ce8fe96656a8","ios":"levelo://app?vid=2461568d-671f-4a69-907f-ce8fe96656a8"},"vehicle_type_id":"4","last_reported":1703513190,"current_range_meters":30000,"station_id":"ce4bhpp2rcd13ifvqhgg","pricing_plan_id":"free"},{"bike_id":"8c77edef-4a56-4b05-86ae-f0de57a78c02","system_id":"levelo_inurba_marseille","lat":43.326605,"lon":5.409903,"is_reserved":false,"is_disabled":false,"rental_uris":{"android":"levelo://app?vid=8c77edef-4a56-4b05-86ae-f0de57a78c02","ios":"levelo://app?vid=8c77edef-4a56-4b05-86ae-f0de57a78c02"},"vehicle_type_id":"4","last_reported":1703513190,"current_range_meters":31600,"station_id":"ce4bhpp2rcd13ifvqhgg","pricing_plan_id":"free"},{"bike_id":"a90a4511-e052-416d-9223-4aa98a65dd34","system_id":"levelo_inurba_marseille","lat":43.279087,"lon":5.380114,"is_reserved":false,"is_disabled":false,"rental_uris":{"android":"levelo://app?vid=a90a4511-e052-416d-9223-4aa98a65dd34","ios":"levelo://app?vid=a90a4511-e052-416d-9223-4aa98a65dd34"},"vehicle_type_id":"4","last_reported":1703513190,"current_range_meters":30800,"station_id":"ce4bhf92rcd13ifvqf50","pricing_plan_id":"free"},{"bike_id":"94e0b362-e115-460f-a39a-ef14e9953cd7","system_id":"levelo_inurba_marseille","lat":43.320045,"lon":5.415046,"is_reserved":false,"is_disabled":false,"rental_uris":{"android":"levelo://app?vid=94e0b362-e115-460f-a39a-ef14e9953cd7","ios":"levelo://app?vid=94e0b362-e115-460f-a39a-ef14e9953cd7"},"vehicle_type_id":"4","last_reported":1703513190,"current_range_meters":27600,"station_id":"ce4bhq92rcd13ifvqhkg","pricing_plan_id":"free"},{"bike_id":"241887f0-bbaa-4edc-b3ff-fb021c6fcd45","system_id":"levelo_inurba_marseille","lat":43.287154,"lon":5.399979,"is_reserved":false,"is_disabled":false,"rental_uris":{"android":"levelo://app?vid=241887f0-bbaa-4edc-b3ff-fb021c6fcd45","ios":"levelo://app?vid=241887f0-bbaa-4edc-b3ff-fb021c6fcd45"},"vehicle_type_id":"4","last_reported":1703513190,"current_range_meters":30000,"station_id":"ce4bho92rcd13ifvqh3g","pricing_plan_id":"free"},{"bike_id":"8273d5ec-0acc-4ee7-99a3-3e42bcc89121","system_id":"levelo_inurba_marseille","lat":43.320045,"lon":5.415046,"is_reserved":false,"is_disabled":false,"rental_uris":{"android":"levelo://app?vid=8273d5ec-0acc-4ee7-99a3-3e42bcc89121","ios":"levelo://app?vid=8273d5ec-0acc-4ee7-99a3-3e42bcc89121"},"vehicle_type_id":"4","last_reported":1703513190,"current_range_meters":29200,"station_id":"ce4bhq92rcd13ifvqhkg","pricing_plan_id":"free"},{"bike_id":"01feaba8-d893-41a1-8758-4f4710ba8c05","system_id":"levelo_inurba_marseille","lat":43.279755,"lon":5.387459,"is_reserved":false,"is_disabled":false,"rental_uris":{"android":"levelo://app?vid=01feaba8-d893-41a1-8758-4f4710ba8c05","ios":"levelo://app?vid=01feaba8-d893-41a1-8758-4f4710ba8c05"},"vehicle_type_id":"4","last_reported":1703513190,"current_range_meters":18800,"station_id":"ce4bhg12rcd13ifvqf80","pricing_plan_id":"free"},{"bike_id":"fb56be05-edad-48ab-8452-9e17c31213f4","system_id":"levelo_inurba_marseille","lat":43.292571,"lon":5.409107,"is_reserved":false,"is_disabled":false,"rental_uris":{"android":"levelo://app?vid=fb56be05-edad-48ab-8452-9e17c31213f4","ios":"levelo://app?vid=fb56be05-edad-48ab-8452-9e17c31213f4"},"vehicle_type_id":"4","last_reported":1703513190,"current_range_meters":31600,"station_id":"ce4bh192rcd13ifvqdc0","pricing_plan_id":"free"},{"bike_id":"661b5022-6204-4d56-a1cd-7f6c2a9b818c","system_id":"levelo_inurba_marseille","lat":43.292569,"lon":5.409107,"is_reserved":false,"is_disabled":false,"rental_uris":{"android":"levelo://app?vid=661b5022-6204-4d56-a1cd-7f6c2a9b818c","ios":"levelo://app?vid=661b5022-6204-4d56-a1cd-7f6c2a9b818c"},"vehicle_type_id":"4","last_reported":1703513190,"current_range_meters":30800,"station_id":"ce4bh192rcd13ifvqdc0","pricing_plan_id":"free"},{"bike_id":"d687e567-6e1b-420b-9e1f-03f14703ae85","system_id":"levelo_inurba_marseille","lat":43.292569,"lon":5.409107,"is_reserved":false,"is_disabled":false,"rental_uris":{"android":"levelo://app?vid=d687e567-6e1b-420b-9e1f-03f14703ae85","ios":"levelo://app?vid=d687e567-6e1b-420b-9e1f-03f14703ae85"},"vehicle_type_id":"4","last_reported":1703513190,"current_range_meters":32000,"station_id":"ce4bh192rcd13ifvqdc0","pricing_plan_id":"free"},{"bike_id":"ce3b86e0-72f6-41e2-ba8d-8088b6cc3f62","system_id":"levelo_inurba_marseille","lat":43.325243,"lon":5.414326,"is_reserved":false,"is_disabled":false,"rental_uris":{"android":"levelo://app?vid=ce3b86e0-72f6-41e2-ba8d-8088b6cc3f62","ios":"levelo://app?vid=ce3b86e0-72f6-41e2-ba8d-8088b6cc3f62"},"vehicle_type_id":"4","last_reported":1703513190,"current_range_meters":28000,"station_id":"ce4bhq12rcd13ifvqhhg","pricing_plan_id":"free"},{"bike_id":"20579f7a-2ca1-4474-8d97-02970c4c7ea1","system_id":"levelo_inurba_marseille","lat":43.280784,"lon":5.396622,"is_reserved":false,"is_disabled":false,"rental_uris":{"android":"levelo://app?vid=20579f7a-2ca1-4474-8d97-02970c4c7ea1","ios":"levelo://app?vid=20579f7a-2ca1-4474-8d97-02970c4c7ea1"},"vehicle_type_id":"4","last_reported":1703513190,"current_range_meters":27600,"station_id":"ce4bho12rcd13ifvqh2g","pricing_plan_id":"free"},{"bike_id":"921ed6c5-ef26-40fb-b950-d9f07fbc2ffa","system_id":"levelo_inurba_marseille","lat":43.279776,"lon":5.39492,"is_reserved":false,"is_disabled":false,"rental_uris":{"android":"levelo://app?vid=921ed6c5-ef26-40fb-b950-d9f07fbc2ffa","ios":"levelo://app?vid=921ed6c5-ef26-40fb-b950-d9f07fbc2ffa"},"vehicle_type_id":"4","last_reported":1703513190,"current_range_meters":18400,"station_id":"","pricing_plan_id":"free"},{"bike_id":"045fab5c-8895-4452-9839-4c0d8b14148b","system_id":"levelo_inurba_marseille","lat":43.278349,"lon":5.392145,"is_reserved":false,"is_disabled":false,"rental_uris":{"android":"levelo://app?vid=045fab5c-8895-4452-9839-4c0d8b14148b","ios":"levelo://app?vid=045fab5c-8895-4452-9839-4c0d8b14148b"},"vehicle_type_id":"4","last_reported":1703513190,"current_range_meters":26000,"station_id":"ce4bhjp2rcd13ifvqga0","pricing_plan_id":"free"},{"bike_id":"73214d70-5c74-43dc-a3a8-a6058dce0a73","system_id":"levelo_inurba_marseille","lat":43.27376,"lon":5.3626,"is_reserved":false,"is_disabled":false,"rental_uris":{"android":"levelo://app?vid=73214d70-5c74-43dc-a3a8-a6058dce0a73","ios":"levelo://app?vid=73214d70-5c74-43dc-a3a8-a6058dce0a73"},"vehicle_type_id":"4","last_reported":1703513190,"current_range_meters":30000,"station_id":"ce4bhbh2rcd13ifvqeo0","pricing_plan_id":"free"},{"bike_id":"3b43e66f-8b03-4499-864e-04e0bc83dda1","system_id":"levelo_inurba_marseille","lat":43.275625,"lon":5.384392,"is_reserved":false,"is_disabled":false,"rental_uris":{"android":"levelo://app?vid=3b43e66f-8b03-4499-864e-04e0bc83dda1","ios":"levelo://app?vid=3b43e66f-8b03-4499-864e-04e0bc83dda1"},"vehicle_type_id":"4","last_reported":1703513190,"current_range_meters":29600,"station_id":"ce4bhh92rcd13ifvqfi0","pricing_plan_id":"free"},{"bike_id":"2ee11953-dfeb-4289-812c-d437ff4f1307","system_id":"levelo_inurba_marseille","lat":43.273609,"lon":5.362708,"is_reserved":false,"is_disabled":false,"rental_uris":{"android":"levelo://app?vid=2ee11953-dfeb-4289-812c-d437ff4f1307","ios":"levelo://app?vid=2ee11953-dfeb-4289-812c-d437ff4f1307"},"vehicle_type_id":"4","last_reported":1703513190,"current_range_meters":24800,"station_id":"ce4bhbh2rcd13ifvqeo0","pricing_plan_id":"free"},{"bike_id":"dcf70f22-b56e-479f-b05f-19857f37d991","system_id":"levelo_inurba_marseille","lat":43.273609,"lon":5.362708,"is_reserved":false,"is_disabled":false,"rental_uris":{"android":"levelo://app?vid=dcf70f22-b56e-479f-b05f-19857f37d991","ios":"levelo://app?vid=dcf70f22-b56e-479f-b05f-19857f37d991"},"vehicle_type_id":"4","last_reported":1703513190,"current_range_meters":20000,"station_id":"ce4bhbh2rcd13ifvqeo0","pricing_plan_id":"free"},{"bike_id":"099a70fd-ed5b-4fc7-9711-b1a0e97fc3d5","system_id":"levelo_inurba_marseille","lat":43.336134,"lon":5.410341,"is_reserved":false,"is_disabled":false,"rental_uris":{"android":"levelo://app?vid=099a70fd-ed5b-4fc7-9711-b1a0e97fc3d5","ios":"levelo://app?vid=099a70fd-ed5b-4fc7-9711-b1a0e97fc3d5"},"vehicle_type_id":"4","last_reported":1703513190,"current_range_meters":18000,"station_id":"ce4bhqh2rcd13ifvqhmg","pricing_plan_id":"free"},{"bike_id":"b9c8771f-f21e-491d-9d34-a2a95d8c46ac","system_id":"levelo_inurba_marseille","lat":43.279975,"lon":5.40009,"is_reserved":false,"is_disabled":false,"rental_uris":{"android":"levelo://app?vid=b9c8771f-f21e-491d-9d34-a2a95d8c46ac","ios":"levelo://app?vid=b9c8771f-f21e-491d-9d34-a2a95d8c46ac"},"vehicle_type_id":"4","last_reported":1703513190,"current_range_meters":29200,"station_id":"ce4bho92rcd13ifvqh4g","pricing_plan_id":"free"},{"bike_id":"49dd9066-de0b-43da-bf41-7fc4860368dd","system_id":"levelo_inurba_marseille","lat":43.279975,"lon":5.40009,"is_reserved":false,"is_disabled":false,"rental_uris":{"android":"levelo://app?vid=49dd9066-de0b-43da-bf41-7fc4860368dd","ios":"levelo://app?vid=49dd9066-de0b-43da-bf41-7fc4860368dd"},"vehicle_type_id":"4","last_reported":1703513190,"current_range_meters":19200,"station_id":"ce4bho92rcd13ifvqh4g","pricing_plan_id":"free"},{"bike_id":"a31403d3-3f52-46c5-bf04-84e097645452","system_id":"levelo_inurba_marseille","lat":43.317121,"lon":5.423936,"is_reserved":false,"is_disabled":false,"rental_uris":{"android":"levelo://app?vid=a31403d3-3f52-46c5-bf04-84e097645452","ios":"levelo://app?vid=a31403d3-3f52-46c5-bf04-84e097645452"},"vehicle_type_id":"4","last_reported":1703513190,"current_range_meters":28400,"station_id":"ce4bhp92rcd13ifvqhbg","pricing_plan_id":"free"},{"bike_id":"ec9bed21-ab15-4437-b93e-3ba68087485a","system_id":"levelo_inurba_marseille","lat":43.31086,"lon":5.42431,"is_reserved":false,"is_disabled":false,"rental_uris":{"android":"levelo://app?vid=ec9bed21-ab15-4437-b93e-3ba68087485a","ios":"levelo://app?vid=ec9bed21-ab15-4437-b93e-3ba68087485a"},"vehicle_type_id":"4","last_reported":1703513190,"current_range_meters":26800,"station_id":"ce4bhp92rcd13ifvqhag","pricing_plan_id":"free"},{"bike_id":"136cb9da-15ee-40e3-bc2c-40c9c9d6a86d","system_id":"levelo_inurba_marseille","lat":43.317121,"lon":5.423936,"is_reserved":false,"is_disabled":false,"rental_uris":{"android":"levelo://app?vid=136cb9da-15ee-40e3-bc2c-40c9c9d6a86d","ios":"levelo://app?vid=136cb9da-15ee-40e3-bc2c-40c9c9d6a86d"},"vehicle_type_id":"4","last_reported":1703513190,"current_range_meters":30400,"station_id":"ce4bhp92rcd13ifvqhbg","pricing_plan_id":"free"},{"bike_id":"9c70facc-ee91-4475-8cbf-cedf6f9d6eaf","system_id":"levelo_inurba_marseille","lat":43.340804,"lon":5.410219,"is_reserved":false,"is_disabled":false,"rental_uris":{"android":"levelo://app?vid=9c70facc-ee91-4475-8cbf-cedf6f9d6eaf","ios":"levelo://app?vid=9c70facc-ee91-4475-8cbf-cedf6f9d6eaf"},"vehicle_type_id":"4","last_reported":1703513190,"current_range_meters":25200,"station_id":"ce4bhqh2rcd13ifvqhlg","pricing_plan_id":"free"},