{"last_updated":1685473498,"ttl":30,"version":"2.2","data":{"bikes":[{"bike_id":"37a85ad5-7654-4f7c-91cb-95c4eda6da41","system_id":"levelo_inurba_marseille","lat":43.31489,"lon":5.37305,"is_reserved":false,"is_disabled":false,"rental_uris":{"android":"levelo://app?vid=37a85ad5-7654-4f7c-91cb-95c4eda6da41","ios":"levelo://app?vid=37a85ad5-7654-4f7c-91cb-95c4eda6da41"},"vehicle_type_id":"4","last_reported":1685473499,"current_range_meters":0,"station_id":"ce4bgt12rcd13ifvqcd0","pricing_plan_id":"free"},{"bike_id":"f69a3f8a-adab-435a-ad98-4302ca7a3c35","system_id":"levelo_inurba_marseille","lat":43.31853,"lon":5.37299,"is_reserved":false,"is_disabled":false,"rental_uris":{"android":"levelo://app?vid=f69a3f8a-adab-435a-ad98-4302ca7a3c35","ios":"levelo://app?vid=f69a3f8a-adab-435a-ad98-4302ca7a3c35"},"vehicle_type_id":"4","last_reported":1685473499,"current_range_meters":20800,"station_id":"","pricing_plan_id":"free"},{"bike_id":"5533414a-2403-4d61-9336-a8d056f0db03","system_id":"levelo_inurba_marseille","lat":43.30537,"lon":5.367345,"is_reserved":false,"is_disabled":false,"rental_uris":{"android":"levelo://app?vid=5533414a-2403-4d61-9336-a8d056f0db03","ios":"levelo://app?vid=5533414a-2403-4d61-9336-a8d056f0db03"},"vehicle_type_id":"4","last_reported":1685473499,"current_range_meters":28000,"station_id":"ce4bgrp2rcd13ifvqc9g","pricing_plan_id":"free"},{"bike_id":"814bfbe8-7e85-4780-b563-40a197738bdb","system_id":"levelo_inurba_marseille","lat":43.305989,"lon":5.37225,"is_reserved":false,"is_disabled":false,"rental_uris":{"android":"levelo://app?vid=814bfbe8-7e85-4780-b563-40a197738bdb","ios":"levelo://app?vid=814bfbe8-7e85-4780-b563-40a197738bdb"},"vehicle_type_id":"4","last_reported":1685473499,"current_range_meters":8000,"station_id":"ce4bgqh2rcd13ifvqc4g","pricing_plan_id":"free"},{"bike_id":"62a28fb8-97c4-4cf4-8a40-1709929a6bdb","system_id":"levelo_inurba_marseille","lat":43.30587,"lon":5.37226,"is_reserved":false,"is_disabled":false,"rental_uris":{"android":"levelo://app?vid=62a28fb8-97c4-4cf4-8a40-1709929a6bdb","ios":"levelo://app?vid=62a28fb8-97c4-4cf4-8a40-1709929a6bdb"},"vehicle_type_id":"4","last_reported":1685473499,"current_range_meters":4800,"station_id":"ce4bgqh2rcd13ifvqc4g","pricing_plan_id":"free"},{"bike_id":"21771297-7b06-4881-b359-4bcaa5e3d259","system_id":"levelo_inurba_marseille","lat":43.317075,"lon":5.377367,"is_reserved":false,"is_disabled":false,"rental_uris":{"android":"levelo://app?vid=21771297-7b06-4881-b359-4bcaa5e3d259","ios":"levelo://app?vid=21771297-7b06-4881-b359-4bcaa5e3d259"},"vehicle_type_id":"4","last_reported":1685473499,"current_range_meters":19200,"station_id":"ce4bgth2rcd13ifvqch0","pricing_plan_id":"free"},{"bike_id":"bd2e2707-4bcc-44f1-9dd1-303916d18208","system_id":"levelo_inurba_marseille","lat":43.303046,"lon":5.368981,"is_reserved":false,"is_disabled":false,"rental_uris":{"android":"levelo://app?vid=bd2e2707-4bcc-44f1-9dd1-303916d18208","ios":"levelo://app?vid=bd2e2707-4bcc-44f1-9dd1-303916d18208"},"vehicle_type_id":"4","last_reported":1685473499,"current_range_meters":16000,"station_id":"ce4bgqh2rcd13ifvqc5g","pricing_plan_id":"free"},{"bike_id":"9c2887e3-6cbc-4bf1-87fd-63f3e34a2861","system_id":"levelo_inurba_marseille","lat":43.3152,"lon":5.38033,"is_reserved":false,"is_disabled":false,"rental_uris":{"android":"levelo://app?vid=9c2887e3-6cbc-4bf1-87fd-63f3e34a2861","ios":"levelo://app?vid=9c2887e3-6cbc-4bf1-87fd-63f3e34a2861"},"vehicle_type_id":"4","last_reported":1685473499,"current_range_meters":400,"station_id":"ce4bhsp2rcd13ifvqi50","pricing_plan_id":"free"},{"bike_id":"5f149111-7a6e-449c-89a0-5230b4dc3fe5","system_id":"levelo_inurba_marseille","lat":43.308012,"lon":5.381511,"is_reserved":false,"is_disabled":false,"rental_uris":{"android":"levelo://app?vid=5f149111-7a6e-449c-89a0-5230b4dc3fe5","ios":"levelo://app?vid=5f149111-7a6e-449c-89a0-5230b4dc3fe5"},"vehicle_type_id":"4","last_reported":1685473499,"current_range_meters":21600,"station_id":"ce4bgt12rcd13ifvqce0","pricing_plan_id":"free"},{"bike_id":"6f84c92d-65b4-4a45-9780-40c32b239928","system_id":"levelo_inurba_marseille","lat":43.308012,"lon":5.381511,"is_reserved":false,"is_disabled":false,"rental_uris":{"android":"levelo://app?vid=6f84c92d-65b4-4a45-9780-40c32b239928","ios":"levelo://app?vid=6f84c92d-65b4-4a45-9780-40c32b239928"},"vehicle_type_id":"4","last_reported":1685473499,"current_range_meters":0,"station_id":"ce4bgt12rcd13ifvqce0","pricing_plan_id":"free"},{"bike_id":"c905a6bf-bfd4-4edc-87b4-53204571edf4","system_id":"levelo_inurba_marseille","lat":43.31991,"lon":5.38146,"is_reserved":false,"is_disabled":false,"rental_uris":{"android":"levelo://app?vid=c905a6bf-bfd4-4edc-87b4-53204571edf4","ios":"levelo://app?vid=c905a6bf-bfd4-4edc-87b4-53204571edf4"},"vehicle_type_id":"4","last_reported":1685473499,"current_range_meters":12000,"station_id":"ce4bhr12rcd13ifvqhpg","pricing_plan_id":"free"},{"bike_id":"e1b7e638-db54-42d5-ae85-3e1337e37665","system_id":"levelo_inurba_marseille","lat":43.31281,"lon":5.38503,"is_reserved":false,"is_disabled":false,"rental_uris":{"android":"levelo://app?vid=e1b7e638-db54-42d5-ae85-3e1337e37665","ios":"levelo://app?vid=e1b7e638-db54-42d5-ae85-3e1337e37665"},"vehicle_type_id":"4","last_reported":1685473499,"current_range_meters":16800,"station_id":"","pricing_plan_id":"free"},{"bike_id":"c866e29a-ea2e-4ee9-b6fd-ed17c9be9091","system_id":"levelo_inurba_marseille","lat":43.299222,"lon":5.365554,"is_reserved":false,"is_disabled":false,"rental_uris":{"android":"levelo://app?vid=c866e29a-ea2e-4ee9-b6fd-ed17c9be9091","ios":"levelo://app?vid=c866e29a-ea2e-4ee9-b6fd-ed17c9be9091"},"vehicle_type_id":"4","last_reported":1685473499,"current_range_meters":18800,"station_id":"ce4bgm92rcd13ifvqbr0","pricing_plan_id":"free"},{"bike_id":"4d4d886a-0459-4698-b86b-7711ba5a38de","system_id":"levelo_inurba_marseille","lat":43.299222,"lon":5.365554,"is_reserved":false,"is_disabled":false,"rental_uris":{"android":"levelo://app?vid=4d4d886a-0459-4698-b86b-7711ba5a38de","ios":"levelo://app?vid=4d4d886a-0459-4698-b86b-7711ba5a38de"},"vehicle_type_id":"4","last_reported":1685473499,"current_range_meters":24400,"station_id":"ce4bgm92rcd13ifvqbr0","pricing_plan_id":"free"},{"bike_id":"9146ecbb-f9ef-4b06-9c93-6b4ab40f94a4","system_id":"levelo_inurba_marseille","lat":43.299243,"lon":5.37481,"is_reserved":false,"is_disabled":false,"rental_uris":{"android":"levelo://app?vid=9146ecbb-f9ef-4b06-9c93-6b4ab40f94a4","ios":"levelo://app?vid=9146ecbb-f9ef-4b06-9c93-6b4ab40f94a4"},"vehicle_type_id":"4","last_reported":1685473499,"current_range_meters":0,"station_id":"ce4bgjh2rcd13ifvqbg0","pricing_plan_id":"free"},{"bike_id":"14e0d5f5-acf3-4db0-821a-0a7d4b2eac66","system_id":"levelo_inurba_marseille","lat":43.311722,"lon":5.387247,"is_reserved":false,"is_disabled":false,"rental_uris":{"android":"levelo://app?vid=14e0d5f5-acf3-4db0-821a-0a7d4b2eac66","ios":"levelo://app?vid=14e0d5f5-acf3-4db0-821a-0a7d4b2eac66"},"vehicle_type_id":"4","last_reported":1685473499,"current_range_meters":5600,"station_id":"ce4bgv12rcd13ifvqcp0","pricing_plan_id":"free"},{"bike_id":"868c4286-77bb-4d54-ac7f-9b10c31fda12","system_id":"levelo_inurba_marseille","lat":43.311722,"lon":5.387247,"is_reserved":false,"is_disabled":false,"rental_uris":{"android":"levelo://app?vid=868c4286-77bb-4d54-ac7f-9b10c31fda12","ios":"levelo://app?vid=868c4286-77bb-4d54-ac7f-9b10c31fda12"},"vehicle_type_id":"4","last_reported":1685473499,"current_range_meters":10400,"station_id":"ce4bgv12rcd13ifvqcp0","pricing_plan_id":"free"},{"bike_id":"015a167b-6621-48e1-95b6-ea1229b76048","system_id":"levelo_inurba_marseille","lat":43.297794,"lon":5.370888,"is_reserved":false,"is_disabled":false,"rental_uris":{"android":"levelo://app?vid=015a167b-6621-48e1-95b6-ea1229b76048","ios":"levelo://app?vid=015a167b-6621-48e1-95b6-ea1229b76048"},"vehicle_type_id":"4","last_reported":1685473499,"current_range_meters":18400,"station_id":"ce4bgop2rcd13ifvqc1g","pricing_plan_id":"free"},{"bike_id":"e114ce9d-7360-4682-bbe9-d54d36d06c02","system_id":"levelo_inurba_marseille","lat":43.328371,"lon":5.366909,"is_reserved":false,"is_disabled":false,"rental_uris":{"android":"levelo://app?vid=e114ce9d-7360-4682-bbe9-d54d36d06c02","ios":"levelo://app?vid=e114ce9d-7360-4682-bbe9-d54d36d06c02"},"vehicle_type_id":"4","last_reported":1685473499,"current_range_meters":9200,"station_id":"ce4bhs92rcd13ifvqi0g","pricing_plan_id":"free"},{"bike_id":"1ba7b19b-1a1f-4aab-a1b3-7a91305c8365","system_id":"levelo_inurba_marseille","lat":43.298433,"lon":5.362774,"is_reserved":false,"is_disabled":false,"rental_uris":{"android":"levelo://app?vid=1ba7b19b-1a1f-4aab-a1b3-7a91305c8365","ios":"levelo://app?vid=1ba7b19b-1a1f-4aab-a1b3-7a91305c8365"},"vehicle_type_id":"4","last_reported":1685473499,"current_range_meters":800,"station_id":"ce4bgpp2rcd13ifvqc3g","pricing_plan_id":"free"},{"bike_id":"eccca70c-0886-4086-94da-09d5cb3b24a3","system_id":"levelo_inurba_marseille","lat":43.32833,"lon":5.36686,"is_reserved":false,"is_disabled":false,"rental_uris":{"android":"levelo://app?vid=eccca70c-0886-4086-94da-09d5cb3b24a3","ios":"levelo://app?vid=eccca70c-0886-4086-94da-09d5cb3b24a3"},"vehicle_type_id":"4","last_reported":1685473499,"current_range_meters":13600,"station_id":"ce4bhs92rcd13ifvqi0g","pricing_plan_id":"free"},{"bike_id":"b2a97d5c-3c7b-47d4-a9d9-a37fb129af21","system_id":"levelo_inurba_marseille","lat":43.30344,"lon":5.38586,"is_reserved":false,"is_disabled":false,"rental_uris":{"android":"levelo://app?vid=b2a97d5c-3c7b-47d4-a9d9-a37fb129af21","ios":"levelo://app?vid=b2a97d5c-3c7b-47d4-a9d9-a37fb129af21"},"vehicle_type_id":"4","last_reported":1685473499,"current_range_meters":10400,"station_id":"","pricing_plan_id":"free"},{"bike_id":"e193201c-cebe-4826-a650-13c31eb81efb","system_id":"levelo_inurba_marseille","lat":43.295798,"lon":5.367392,"is_reserved":false,"is_disabled":false,"rental_uris":{"android":"levelo://app?vid=e193201c-cebe-4826-a650-13c31eb81efb","ios":"levelo://app?vid=e193201c-cebe-4826-a650-13c31eb81efb"},"vehicle_type_id":"4","last_reported":1685473499,"current_range_meters":27600,"station_id":"ce4bgph2rcd13ifvqc2g","pricing_plan_id":"free"},{"bike_id":"cc500c84-4783-4087-b18c-21c93ca5a70f","system_id":"levelo_inurba_marseille","lat":43.295798,"lon":5.367392,"is_reserved":false,"is_disabled":false,"rental_uris":{"android":"levelo://app?vid=cc500c84-4783-4087-b18c-21c93ca5a70f","ios":"levelo://app?vid=cc500c84-4783-4087-b18c-21c93ca5a70f"},"vehicle_type_id":"4","last_reported":1685473499,"current_range_meters":29200,"station_id":"ce4bgph2rcd13ifvqc2g","pricing_plan_id":"free"},{"bike_id":"f6445d86-babc-4e73-bddc-3c14bff70260","system_id":"levelo_inurba_marseille","lat":43.295798,"lon":5.367392,"is_reserved":false,"is_disabled":false,"rental_uris":{"android":"levelo://app?vid=f6445d86-babc-4e73-bddc-3c14bff70260","ios":"levelo://app?vid=f6445d86-babc-4e73-bddc-3c14bff70260"},"vehicle_type_id":"4","last_reported":1685473499,"current_range_meters":30800,"station_id":"ce4bgph2rcd13ifvqc2g","pricing_plan_id":"free"},{"bike_id":"d62d10e3-2316-474f-b7b0-ee6d47b507de","system_id":"levelo_inurba_marseille","lat":43.295798,"lon":5.367392,"is_reserved":false,"is_disabled":false,"rental_uris":{"android":"levelo://app?vid=d62d10e3-2316-474f-b7b0-ee6d47b507de","ios":"levelo://app?vid=d62d10e3-2316-474f-b7b0-ee6d47b507de"},"vehicle_type_id":"4","last_reported":1685473499,"current_range_meters":31200,"station_id":"","pricing_plan_id":"free"},{"bike_id":"91777e90-d184-4921-be45-efed60fe614b","system_id":"levelo_inurba_marseille","lat":43.295796,"lon":5.367399,"is_reserved":false,"is_disabled":false,"rental_uris":{"android":"levelo://app?vid=91777e90-d184-4921-be45-efed60fe614b","ios":"levelo://app?vid=91777e90-d184-4921-be45-efed60fe614b"},"vehicle_type_id":"4","last_reported":1685473499,"current_range_meters":29200,"station_id":"ce4bgph2rcd13ifvqc2g","pricing_plan_id":"free"},{"bike_id":"e6b22a73-d073-41ac-bcdf-45ed1e4e9676","system_id":"levelo_inurba_marseille","lat":43.29573,"lon":5.367355,"is_reserved":false,"is_disabled":false,"rental_uris":{"android":"levelo://app?vid=e6b22a73-d073-41ac-bcdf-45ed1e4e9676","ios":"levelo://app?vid=e6b22a73-d073-41ac-bcdf-45ed1e4e9676"},"vehicle_type_id":"4","last_reported":1685473499,"current_range_meters":29200,"station_id":"ce4bgph2rcd13ifvqc2g","pricing_plan_id":"free"},{"bike_id":"fc8df368-9a5e-4363-8c10-fceec55c2bb2","system_id":"levelo_inurba_marseille","lat":43.295794,"lon":5.367383,"is_reserved":false,"is_disabled":false,"rental_uris":{"android":"levelo://app?vid=fc8df368-9a5e-4363-8c10-fceec55c2bb2","ios":"levelo://app?vid=fc8df368-9a5e-4363-8c10-fceec55c2bb2"},"vehicle_type_id":"4","last_reported":1685473499,"current_range_meters":28800,"station_id":"ce4bgph2rcd13ifvqc2g","pricing_plan_id":"free"},{"bike_id":"c1e96030-bb36-44cf-9bb1-87516a4cea41","system_id":"levelo_inurba_marseille","lat":43.29573,"lon":5.367355,"is_reserved":false,"is_disabled":false,"rental_uris":{"android":"levelo://app?vid=c1e96030-bb36-44cf-9bb1-87516a4cea41","ios":"levelo://app?vid=c1e96030-bb36-44cf-9bb1-87516a4cea41"},"vehicle_type_id":"4","last_reported":1685473499,"current_range_meters":26400,"station_id":"ce4bgph2rcd13ifvqc2g","pricing_plan_id":"free"},{"bike_id":"30f9046e-9c4b-4894-9cc0-76b6e7a46de0","system_id":"levelo_inurba_marseille","lat":43.29573,"lon":5.367355,"is_reserved":false,"is_disabled":false,"rental_uris":{"android":"levelo://app?vid=30f9046e-9c4b-4894-9cc0-76b6e7a46de0","ios":"levelo://app?vid=30f9046e-9c4b-4894-9cc0-76b6e7a46de0"},"vehicle_type_id":"4","last_reported":1685473499,"current_range_meters":30000,"station_id":"ce4bgph2rcd13ifvqc2g","pricing_plan_id":"free"},{"bike_id":"cc4bb808-9bfc-49c2-91dd-e42e46342331","system_id":"levelo_inurba_marseille","lat":43.295787,"lon":5.367397,"is_reserved":false,"is_disabled":false,"rental_uris":{"android":"levelo://app?vid=cc4bb808-9bfc-49c2-91dd-e42e46342331","ios":"levelo://app?vid=cc4bb808-9bfc-49c2-91dd-e42e46342331"},"vehicle_type_id":"4","last_reported":1685473499,"current_range_meters":28400,"station_id":"ce4bgph2rcd13ifvqc2g","pricing_plan_id":"free"},{"bike_id":"f2f8ac30-a29b-46b5-8cb6-7082a6100610","system_id":"levelo_inurba_marseille","lat":43.295778,"lon":5.367395,"is_reserved":false,"is_disabled":false,"rental_uris":{"android":"levelo://app?vid=f2f8ac30-a29b-46b5-8cb6-7082a6100610","ios":"levelo://app?vid=f2f8ac30-a29b-46b5-8cb6-7082a6100610"},"vehicle_type_id":"4","last_reported":1685473499,"current_range_meters":28800,"station_id":"ce4bgph2rcd13ifvqc2g","pricing_plan_id":"free"},{"bike_id":"72bfa11a-7a7b-4bb8-b20e-14212a41d383","system_id":"levelo_inurba_marseille","lat":43.295778,"lon":5.367395,"is_reserved":false,"is_disabled":false,"rental_uris":{"android":"levelo://app?vid=72bfa11a-7a7b-4bb8-b20e-14212a41d383","ios":"levelo://app?vid=72bfa11a-7a7b-4bb8-b20e-14212a41d383"},"vehicle_type_id":"4","last_reported":1685473499,"current_range_meters":30400,"station_id":"ce4bgph2rcd13ifvqc2g","pricing_plan_id":"free"},{"bike_id":"deb0fee2-7f30-4108-a6d2-cd73c04f896d","system_id":"levelo_inurba_marseille","lat":43.295776,"lon":5.367392,"is_reserved":false,"is_disabled":false,"rental_uris":{"android":"levelo://app?vid=deb0fee2-7f30-4108-a6d2-cd73c04f896d","ios":"levelo://app?vid=deb0fee2-7f30-4108-a6d2-cd73c04f896d"},"vehicle_type_id":"4","last_reported":1685473499,"current_range_meters":23600,"station_id":"ce4bgph2rcd13ifvqc2g","pricing_plan_id":"free"},{"bike_id":"91b92a01-f52b-4107-9d86-ef4b96e3f47d","system_id":"levelo_inurba_marseille","lat":43.29646,"lon":5.37444,"is_reserved":false,"is_disabled":false,"rental_uris":{"android":"levelo://app?vid=91b92a01-f52b-4107-9d86-ef4b96e3f47d","ios":"levelo://app?vid=91b92a01-f52b-4107-9d86-ef4b96e3f47d"},"vehicle_type_id":"4","last_reported":1685473499,"current_range_meters":0,"station_id":"","pricing_plan_id":"free"},{"bike_id":"0242cad9-6e4e-4131-9ddf-60407a2c3b43","system_id":"levelo_inurba_marseille","lat":43.317557,"lon":5.390173,"is_reserved":false,"is_disabled":false,"rental_uris":{"android":"levelo://app?vid=0242cad9-6e4e-4131-9ddf-60407a2c3b43","ios":"levelo://app?vid=0242cad9-6e4e-4131-9ddf-60407a2c3b43"},"vehicle_type_id":"4","last_reported":1685473499,"current_range_meters":5200,"station_id":"ce4bhqp2rcd13ifvqhng","pricing_plan_id":"free"},{"bike_id":"ca979f73-b7e3-401b-b738-07104a0914cd","system_id":"levelo_inurba_marseille","lat":43.317557,"lon":5.390173,"is_reserved":false,"is_disabled":false,"rental_uris":{"android":"levelo://app?vid=ca979f73-b7e3-401b-b738-07104a0914cd","ios":"levelo://app?vid=ca979f73-b7e3-401b-b738-07104a0914cd"},"vehicle_type_id":"4","last_reported":1685473499,"current_range_meters":7200,"station_id":"ce4bhqp2rcd13ifvqhng","pricing_plan_id":"free"},{"bike_id":"01050be7-0b67-4de7-aca5-d2f3b20044e8","system_id":"levelo_inurba_marseille","lat":43.296277,"lon":5.377108,"is_reserved":false,"is_disabled":false,"rental_uris":{"android":"levelo://app?vid=01050be7-0b67-4de7-aca5-d2f3b20044e8","ios":"levelo://app?vid=01050be7-0b67-4de7-aca5-d2f3b20044e8"},"vehicle_type_id":"4","last_reported":1685473499,"current_range_meters":0,"station_id":"ce4bgi92rcd13ifvqb90","pricing_plan_id":"free"},{"bike_id":"12e9e458-4b6f-4588-ac75-eba23ad411bb","system_id":"levelo_inurba_marseille","lat":43.29959,"lon":5.38497,"is_reserved":false,"is_disabled":false,"rental_uris":{"android":"levelo://app?vid=12e9e458-4b6f-4588-ac75-eba23ad411bb","ios":"levelo://app?vid=12e9e458-4b6f-4588-ac75-eba23ad411bb"},"vehicle_type_id":"4","last_reported":1685473499,"current_range_meters":12800,"station_id":"ce4bgj92rcd13ifvqbd0","pricing_plan_id":"free"},{"bike_id":"d86a8c46-240d-427f-979b-5b78cfe3b6c1","system_id":"levelo_inurba_marseille","lat":43.32365,"lon":5.38876,"is_reserved":false,"is_disabled":false,"rental_uris":{"android":"levelo://app?vid=d86a8c46-240d-427f-979b-5b78cfe3b6c1","ios":"levelo://app?vid=d86a8c46-240d-427f-979b-5b78cfe3b6c1"},"vehicle_type_id":"4","last_reported":1685473499,"current_range_meters":20400,"station_id":"ce4bhqp2rcd13ifvqhog","pricing_plan_id":"free"},{"bike_id":"fdaa9378-2bab-4dcd-ac61-bb973ffc0375","system_id":"levelo_inurba_marseille","lat":43.32363,"lon":5.38883,"is_reserved":false,"is_disabled":false,"rental_uris":{"android":"levelo://app?vid=fdaa9378-2bab-4dcd-ac61-bb973ffc0375","ios":"levelo://app?vid=fdaa9378-2bab-4dcd-ac61-bb973ffc0375"},"vehicle_type_id":"4","last_reported":1685473499,"current_range_meters":11200,"station_id":"ce4bhqp2rcd13ifvqhog","pricing_plan_id":"free"},{"bike_id":"f0e6c3a8-eca7-4b2f-ae90-2976877703b0","system_id":"levelo_inurba_marseille","lat":43.32367,"lon":5.388836,"is_reserved":false,"is_disabled":false,"rental_uris":{"android":"levelo://app?vid=f0e6c3a8-eca7-4b2f-ae90-2976877703b0","ios":"levelo://app?vid=f0e6c3a8-eca7-4b2f-ae90-2976877703b0"},"vehicle_type_id":"4","last_reported":1685473499,"current_range_meters":10800,"station_id":"ce4bhqp2rcd13ifvqhog","pricing_plan_id":"free"},{"bike_id":"570390b8-979f-433e-9c60-86f7208e8571","system_id":"levelo_inurba_marseille","lat":43.32367,"lon":5.388836,"is_reserved":false,"is_disabled":false,"rental_uris":{"android":"levelo://app?vid=570390b8-979f-433e-9c60-86f7208e8571","ios":"levelo://app?vid=570390b8-979f-433e-9c60-86f7208e8571"},"vehicle_type_id":"4","last_reported":1685473499,"current_range_meters":19600,"station_id":"ce4bhqp2rcd13ifvqhog","pricing_plan_id":"free"},{"bike_id":"6345f779-7590-4ebf-81b7-14a3c3a95e37","system_id":"levelo_inurba_marseille","lat":43.32368,"lon":5.38883,"is_reserved":false,"is_disabled":false,"rental_uris":{"android":"levelo://app?vid=6345f779-7590-4ebf-81b7-14a3c3a95e37","ios":"levelo://app?vid=6345f779-7590-4ebf-81b7-14a3c3a95e37"},"vehicle_type_id":"4","last_reported":1685473499,"current_range_meters":400,"station_id":"ce4bhqp2rcd13ifvqhog","pricing_plan_id":"free"},{"bike_id":"00c9b202-b5b6-4f69-8084-db1f9466ee79","system_id":"levelo_inurba_marseille","lat":43.32367,"lon":5.388836,"is_reserved":false,"is_disabled":false,"rental_uris":{"android":"levelo://app?vid=00c9b202-b5b6-4f69-8084-db1f9466ee79","ios":"levelo://app?vid=00c9b202-b5b6-4f69-8084-db1f9466ee79"},"vehicle_type_id":"4","last_reported":1685473499,"current_range_meters":20400,"station_id":"ce4bhqp2rcd13ifvqhog","pricing_plan_id":"free"},{"bike_id":"019e8e5f-898c-403c-bff5-44d0c77958de","system_id":"levelo_inurba_marseille","lat":43.32369,"lon":5.38885,"is_reserved":false,"is_disabled":false,"rental_uris":{"android":"levelo://app?vid=019e8e5f-898c-403c-bff5-44d0c77958de","ios":"levelo://app?vid=019e8e5f-898c-403c-bff5-44d0c77958de"},"vehicle_type_id":"4","last_reported":1685473499,"current_range_meters":22800,"station_id":"ce4bhqp2rcd13ifvqhog","pricing_plan_id":"free"},{"bike_id":"950f3a0b-8466-40bf-8f81-5f5cf1a96632","system_id":"levelo_inurba_marseille","lat":43.32367,"lon":5.388836,"is_reserved":false,"is_disabled":false,"rental_uris":{"android":"levelo://app?vid=950f3a0b-8466-40bf-8f81-5f5cf1a96632","ios":"levelo://app?vid=950f3a0b-8466-40bf-8f81-5f5cf1a96632"},"vehicle_type_id":"4","last_reported":1685473499,"current_range_meters":3600,"station_id":"ce4bhqp2rcd13ifvqhog","pricing_plan_id":"free"},{"bike_id":"903184ba-d60a-4f52-81d6-25706a4d48d7","system_id":"levelo_inurba_marseille","lat":43.292749,"lon":5.368402,"is_reserved":false,"is_disabled":false,"rental_uris":{"android":"levelo://app?vid=903184ba-d60a-4f52-81d6-25706a4d48d7","ios":"levelo://app?vid=903184ba-d60a-4f52-81d6-25706a4d48d7"},"vehicle_type_id":"4","last_reported":1685473499,"current_range_meters":14000,"station_id":"ce4bhbp2rcd13ifvqesg","pricing_plan_id":"free"},{"bike_id":"41c9357e-ebeb-4b83-8aef-884e2bca1a51","system_id":"levelo_inurba_marseille","lat":43.292749,"lon":5.368402,"is_reserved":false,"is_disabled":false,"rental_uris":{"android":"levelo://app?vid=41c9357e-ebeb-4b83-8aef-884e2bca1a51","ios":"levelo://app?vid=41c9357e-ebeb-4b83-8aef-884e2bca1a51"},"vehicle_type_id":"4","last_reported":1685473499,"current_range_meters":1600,"station_id":"ce4bhbp2rcd13ifvqesg","pricing_plan_id":"free"},{"bike_id":"68f5fecb-cd9d-4567-9a4c-4a77b6e20c53","system_id":"levelo_inurba_marseille","lat":43.293009,"lon":5.374584,"is_reserved":false,"is_disabled":false,"rental_uris":{"android":"levelo://app?vid=68f5fecb-cd9d-4567-9a4c-4a77b6e20c53","ios":"levelo://app?vid=68f5fecb-cd9d-4567-9a4c-4a77b6e20c53"},"vehicle_type_id":"4","last_reported":1685473499,"current_range_meters":6800,"station_id":"ce4bgi12rcd13ifvqb70","pricing_plan_id":"free"},{"bike_id":"6c0f9275-b822-4d15-937b-7d28b485508f","system_id":"levelo_inurba_marseille","lat":43.293009,"lon":5.374584,"is_reserved":false,"is_disabled":false,"rental_uris":{"android":"levelo://app?vid=6c0f9275-b822-4d15-937b-7d28b485508f","ios":"levelo://app?vid=6c0f9275-b822-4d15-937b-7d28b485508f"},"vehicle_type_id":"4","last_reported":1685473499,"current_range_meters":4000,"station_id":"ce4bgi12rcd13ifvqb70","pricing_plan_id":"free"},{"bike_id":"745b0bcd-8ecf-4ac7-8f72-b97298ede19a","system_id":"levelo_inurba_marseille","lat":43.305994,"lon":5.393687,"is_reserved":false,"is_disabled":false,"rental_uris":{"android":"levelo://app?vid=745b0bcd-8ecf-4ac7-8f72-b97298ede19a","ios":"levelo://app?vid=745b0bcd-8ecf-4ac7-8f72-b97298ede19a"},"vehicle_type_id":"4","last_reported":1685473499,"current_range_meters":2400,"station_id":"ce4bh0p2rcd13ifvqd80","pricing_plan_id":"free"},{"bike_id":"12f00efc-8714-43ab-a327-c81c68d9fc90","system_id":"levelo_inurba_marseille","lat":43.292311,"lon":5.360731,"is_reserved":false,"is_disabled":false,"rental_uris":{"android":"levelo://app?vid=12f00efc-8714-43ab-a327-c81c68d9fc90","ios":"levelo://app?vid=12f00efc-8714-43ab-a327-c81c68d9fc90"},"vehicle_type_id":"4","last_reported":1685473499,"current_range_meters":30000,"station_id":"ce4bhbh2rcd13ifvqeqg","pricing_plan_id":"free"},{"bike_id":"a5ecb5ee-cfd3-434c-8729-3e1092cd6502","system_id":"levelo_inurba_marseille","lat":43.2936,"lon":5.37835,"is_reserved":false,"is_disabled":false,"rental_uris":{"android":"levelo://app?vid=a5ecb5ee-cfd3-434c-8729-3e1092cd6502","ios":"levelo://app?vid=a5ecb5ee-cfd3-434c-8729-3e1092cd6502"},"vehicle_type_id":"4","last_reported":1685473499,"current_range_meters":2400,"station_id":"ce4bgjh2rcd13ifvqbf0","pricing_plan_id":"free"},{"bike_id":"f116b277-ed23-4ad5-bb43-9f7e451d1740","system_id":"levelo_inurba_marseille","lat":43.291675,"lon":5.371583,"is_reserved":false,"is_disabled":false,"rental_uris":{"android":"levelo://app?vid=f116b277-ed23-4ad5-bb43-9f7e451d1740","ios":"levelo://app?vid=f116b277-ed23-4ad5-bb43-9f7e451d1740"},"vehicle_type_id":"4","last_reported":1685473499,"current_range_meters":400,"station_id":"ce4bha92rcd13ifvqeh0","pricing_plan_id":"free"},{"bike_id":"d7a39ad4-b024-42ee-b071-56489df0d5a1","system_id":"levelo_inurba_marseille","lat":43.33217,"lon":5.37902,"is_reserved":false,"is_disabled":false,"rental_uris":{"android":"levelo://app?vid=d7a39ad4-b024-42ee-b071-56489df0d5a1","ios":"levelo://app?vid=d7a39ad4-b024-42ee-b071-56489df0d5a1"},"vehicle_type_id":"4","last_reported":1685473499,"current_range_meters":5200,"station_id":"","pricing_plan_id":"free"},{"bike_id":"9b5df379-67fd-4c5b-923f-866c0ed0be0d","system_id":"levelo_inurba_marseille","lat":43.298764,"lon":5.388973,"is_reserved":false,"is_disabled":false,"rental_uris":{"android":"levelo://app?vid=9b5df379-67fd-4c5b-923f-866c0ed0be0d","ios":"levelo://app?vid=9b5df379-67fd-4c5b-923f-866c0ed0be0d"},"vehicle_type_id":"4","last_reported":1685473499,"current_range_meters":18800,"station_id":"ce4bh392rcd13ifvqdl0","pricing_plan_id":"free"},{"bike_id":"d4258804-4979-4b98-b51f-00b83257367e","system_id":"levelo_inurba_marseille","lat":43.309038,"lon":5.396546,"is_reserved":false,"is_disabled":false,"rental_uris":{"android":"levelo://app?vid=d4258804-4979-4b98-b51f-00b83257367e","ios":"levelo://app?vid=d4258804-4979-4b98-b51f-00b83257367e"},"vehicle_type_id":"4","last_reported":1685473499,"current_range_meters":14400,"station_id":"ce4bh012rcd13ifvqcv0","pricing_plan_id":"free"},{"bike_id":"5b786c0d-33e6-4e74-8aeb-67a0741e93e4","system_id":"levelo_inurba_marseille","lat":43.309026,"lon":5.396505,"is_reserved":false,"is_disabled":false,"rental_uris":{"android":"levelo://app?vid=5b786c0d-33e6-4e74-8aeb-67a0741e93e4","ios":"levelo://app?vid=5b786c0d-33e6-4e74-8aeb-67a0741e93e4"},"vehicle_type_id":"4","last_reported":1685473499,"current_range_meters":7200,"station_id":"","pricing_plan_id":"free"},{"bike_id":"7121b6c4-25e3-416e-9ab6-bddb8bd3d30e","system_id":"levelo_inurba_marseille","lat":43.309038,"lon":5.396546,"is_reserved":false,"is_disabled":false,"rental_uris":{"android":"levelo://app?vid=7121b6c4-25e3-416e-9ab6-bddb8bd3d30e","ios":"levelo://app?vid=7121b6c4-25e3-416e-9ab6-bddb8bd3d30e"},"vehicle_type_id":"4","last_reported":1685473499,"current_range_meters":800,"station_id":"ce4bh012rcd13ifvqcv0","pricing_plan_id":"free"},{"bike_id":"2b349faf-916a-4878-8295-f807e50c6764","system_id":"levelo_inurba_marseille","lat":43.313291,"lon":5.396838,"is_reserved":false,"is_disabled":false,"rental_uris":{"android":"levelo://app?vid=2b349faf-916a-4878-8295-f807e50c6764","ios":"levelo://app?vid=2b349faf-916a-4878-8295-f807e50c6764"},"vehicle_type_id":"4","last_reported":1685473499,"current_range_meters":5200,"station_id":"ce4bgvp2rcd13ifvqcu0","pricing_plan_id":"free"},{"bike_id":"70e4c1ac-0e59-491e-8b33-bd130ca4fd9b","system_id":"levelo_inurba_marseille","lat":43.29178,"lon":5.358,"is_reserved":false,"is_disabled":false,"rental_uris":{"android":"levelo://app?vid=70e4c1ac-0e59-491e-8b33-bd130ca4fd9b","ios":"levelo://app?vid=70e4c1ac-0e59-491e-8b33-bd130ca4fd9b"},"vehicle_type_id":"4","last_reported":1685473499,"current_range_meters":0,"station_id":"ce4bhb12rcd13ifvqel0","pricing_plan_id":"free"},{"bike_id":"874e2242-05c3-40b7-8683-325ab07df06a","system_id":"levelo_inurba_marseille","lat":43.309038,"lon":5.396546,"is_reserved":false,"is_disabled":false,"rental_uris":{"android":"levelo://app?vid=874e2242-05c3-40b7-8683-325ab07df06a","ios":"levelo://app?vid=874e2242-05c3-40b7-8683-325ab07df06a"},"vehicle_type_id":"4","last_reported":1685473499,"current_range_meters":2400,"station_id":"ce4bh012rcd13ifvqcv0","pricing_plan_id":"free"},{"bike_id":"b7569e9d-dffc-454f-ac0d-95f57abacbe4","system_id":"levelo_inurba_marseille","lat":43.309038,"lon":5.396546,"is_reserved":false,"is_disabled":false,"rental_uris":{"android":"levelo://app?vid=b7569e9d-dffc-454f-ac0d-95f57abacbe4","ios":"levelo://app?vid=b7569e9d-dffc-454f-ac0d-95f57abacbe4"},"vehicle_type_id":"4","last_reported":1685473499,"current_range_meters":13600,"station_id":"ce4bh012rcd13ifvqcv0","pricing_plan_id":"free"},{"bike_id":"f846fc28-cbfd-4ab3-a9f0-dc60e8398ea9","system_id":"levelo_inurba_marseille","lat":43.29529,"lon":5.385581,"is_reserved":false,"is_disabled":false,"rental_uris":{"android":"levelo://app?vid=f846fc28-cbfd-4ab3-a9f0-dc60e8398ea9","ios":"levelo://app?vid=f846fc28-cbfd-4ab3-a9f0-dc60e8398ea9"},"vehicle_type_id":"4","last_reported":1685473499,"current_range_meters":12000,"station_id":"ce4bgih2rcd13ifvqba0","pricing_plan_id":"free"},{"bike_id":"1667aa5e-9b29-41bc-ae4e-048bc4ff61a2","system_id":"levelo_inurba_marseille","lat":43.298764,"lon":5.388973,"is_reserved":false,"is_disabled":false,"rental_uris":{"android":"levelo://app?vid=1667aa5e-9b29-41bc-ae4e-048bc4ff61a2","ios":"levelo://app?vid=1667aa5e-9b29-41bc-ae4e-048bc4ff61a2"},"vehicle_type_id":"4","last_reported":1685473499,"current_range_meters":400,"station_id":"ce4bh392rcd13ifvqdl0","pricing_plan_id":"free"},{"bike_id":"0e55d2a8-37b9-487c-865b-fc9d06d798f1","system_id":"levelo_inurba_marseille","lat":43.29529,"lon":5.385581,"is_reserved":false,"is_disabled":false,"rental_uris":{"android":"levelo://app?vid=0e55d2a8-37b9-487c-865b-fc9d06d798f1","ios":"levelo://app?vid=0e55d2a8-37b9-487c-865b-fc9d06d798f1"},"vehicle_type_id":"4","last_reported":1685473499,"current_range_meters":4800,"station_id":"ce4bgih2rcd13ifvqba0","pricing_plan_id":"free"},{"bike_id":"c91e4d6b-4d2d-4dd0-ab24-66667db3ef1b","system_id":"levelo_inurba_marseille","lat":43.29529,"lon":5.385581,"is_reserved":false,"is_disabled":false,"rental_uris":{"android":"levelo://app?vid=c91e4d6b-4d2d-4dd0-ab24-66667db3ef1b","ios":"levelo://app?vid=c91e4d6b-4d2d-4dd0-ab24-66667db3ef1b"},"vehicle_type_id":"4","last_reported":1685473499,"current_range_meters":0,"station_id":"ce4bgih2rcd13ifvqba0","pricing_plan_id":"free"},{"bike_id":"17e9272a-7ee6-4025-84c6-b4a742c20cc1","system_id":"levelo_inurba_marseille","lat":43.29529,"lon":5.385581,"is_reserved":false,"is_disabled":false,"rental_uris":{"android":"levelo://app?vid=17e9272a-7ee6-4025-84c6-b4a742c20cc1","ios":"levelo://app?vid=17e9272a-7ee6-4025-84c6-b4a742c20cc1"},"vehicle_type_id":"4","last_reported":1685473499,"current_range_meters":20400,"station_id":"ce4bgih2rcd13ifvqba0","pricing_plan_id":"free"},{"bike_id":"22cbe828-2bd7-4b87-b2b0-9e88e900284f","system_id":"levelo_inurba_marseille","lat":43.29529,"lon":5.385581,"is_reserved":false,"is_disabled":false,"rental_uris":{"android":"levelo://app?vid=22cbe828-2bd7-4b87-b2b0-9e88e900284f","ios":"levelo://app?vid=22cbe828-2bd7-4b87-b2b0-9e88e900284f"},"vehicle_type_id":"4","last_reported":1685473499,"current_range_meters":15200,"station_id":"ce4bgih2rcd13ifvqba0","pricing_plan_id":"free"},{"bike_id":"99bea9a6-89d1-4b46-96ff-a7b4397cd4da","system_id":"levelo_inurba_marseille","lat":43.29529,"lon":5.385581,"is_reserved":false,"is_disabled":false,"rental_uris":{"android":"levelo://app?vid=99bea9a6-89d1-4b46-96ff-a7b4397cd4da","ios":"levelo://app?vid=99bea9a6-89d1-4b46-96ff-a7b4397cd4da"},"vehicle_type_id":"4","last_reported":1685473499,"current_range_meters":0,"station_id":"ce4bgih2rcd13ifvqba0","pricing_plan_id":"free"},{"bike_id":"8c8abf31-26f2-4552-861b-bdf78a4ebe76","system_id":"levelo_inurba_marseille","lat":43.29529,"lon":5.385581,"is_reserved":false,"is_disabled":false,"rental_uris":{"android":"levelo://app?vid=8c8abf31-26f2-4552-861b-bdf78a4ebe76","ios":"levelo://app?vid=8c8abf31-26f2-4552-861b-bdf78a4ebe76"},"vehicle_type_id":"4","last_reported":1685473499,"current_range_meters":28800,"station_id":"ce4bgih2rcd13ifvqba0","pricing_plan_id":"free"},{"bike_id":"5958fe0d-745e-42ed-9451-d2960a318d0b","system_id":"levelo_inurba_marseille","lat":43.29529,"lon":5.385581,"is_reserved":false,"is_disabled":false,"rental_uris":{"android":"levelo://app?vid=5958fe0d-745e-42ed-9451-d2960a318d0b","ios":"levelo://app?vid=5958fe0d-745e-42ed-9451-d2960a318d0b"},"vehicle_type_id":"4","last_reported":1685473499,"current_range_meters":26800,"station_id":"ce4bgih2rcd13ifvqba0","pricing_plan_id":"free"},{"bike_id":"afe193f6-359c-4c78-8b83-24d78450cc02","system_id":"levelo_inurba_marseille","lat":43.290544,"lon":5.372355,"is_reserved":false,"is_disabled":false,"rental_uris":{"android":"levelo://app?vid=afe193f6-359c-4c78-8b83-24d78450cc02","ios":"levelo://app?vid=afe193f6-359c-4c78-8b83-24d78450cc02"},"vehicle_type_id":"4","last_reported":1685473499,"current_range_meters":4400,"station_id":"","pricing_plan_id":"free"},{"bike_id":"1a3d6804-158e-4374-9304-34e3a91a9ea3","system_id":"levelo_inurba_marseille","lat":43.290631,"lon":5.359244,"is_reserved":false,"is_disabled":false,"rental_uris":{"android":"levelo://app?vid=1a3d6804-158e-4374-9304-34e3a91a9ea3","ios":"levelo://app?vid=1a3d6804-158e-4374-9304-34e3a91a9ea3"},"vehicle_type_id":"4","last_reported":1685473499,"current_range_meters":10000,"station_id":"ce4bha92rcd13ifvqeg0","pricing_plan_id":"free"},{"bike_id":"6069c7b5-07fc-4e47-b019-4834c04b7825","system_id":"levelo_inurba_marseille","lat":43.28954,"lon":5.36634,"is_reserved":false,"is_disabled":false,"rental_uris":{"android":"levelo://app?vid=6069c7b5-07fc-4e47-b019-4834c04b7825","ios":"levelo://app?vid=6069c7b5-07fc-4e47-b019-4834c04b7825"},"vehicle_type_id":"4","last_reported":1685473499,"current_range_meters":4800,"station_id":"ce4bhap2rcd13ifvqek0","pricing_plan_id":"free"},{"bike_id":"ef57d0d0-0237-4eb3-b8e5-34232fb90121","system_id":"levelo_inurba_marseille","lat":43.290327,"lon":5.375711,"is_reserved":false,"is_disabled":false,"rental_uris":{"android":"levelo://app?vid=ef57d0d0-0237-4eb3-b8e5-34232fb90121","ios":"levelo://app?vid=ef57d0d0-0237-4eb3-b8e5-34232fb90121"},"vehicle_type_id":"4","last_reported":1685473499,"current_range_meters":0,"station_id":"ce4bh692rcd13ifvqe90","pricing_plan_id":"free"},{"bike_id":"99c37bbc-088e-467c-be21-e2c2fccf1a4e","system_id":"levelo_inurba_marseille","lat":43.294162,"lon":5.386292,"is_reserved":false,"is_disabled":false,"rental_uris":{"android":"levelo://app?vid=99c37bbc-088e-467c-be21-e2c2fccf1a4e","ios":"levelo://app?vid=99c37bbc-088e-467c-be21-e2c2fccf1a4e"},"vehicle_type_id":"4","last_reported":1685473499,"current_range_meters":11600,"station_id":"ce4bh2h2rcd13ifvqdh0","pricing_plan_id":"free"},{"bike_id":"8ecf1236-1828-49d5-a85f-65978a8adc4a","system_id":"levelo_inurba_marseille","lat":43.289184,"lon":5.366408,"is_reserved":false,"is_disabled":false,"rental_uris":{"android":"levelo://app?vid=8ecf1236-1828-49d5-a85f-65978a8adc4a","ios":"levelo://app?vid=8ecf1236-1828-49d5-a85f-65978a8adc4a"},"vehicle_type_id":"4","last_reported":1685473499,"current_range_meters":20800,"station_id":"ce4bhap2rcd13ifvqek0","pricing_plan_id":"free"},{"bike_id":"054e89ac-07cf-47f4-8fa1-f5786505b06c","system_id":"levelo_inurba_marseille","lat":43.289184,"lon":5.366408,"is_reserved":false,"is_disabled":false,"rental_uris":{"android":"levelo://app?vid=054e89ac-07cf-47f4-8fa1-f5786505b06c","ios":"levelo://app?vid=054e89ac-07cf-47f4-8fa1-f5786505b06c"},"vehicle_type_id":"4","last_reported":1685473499,"current_range_meters":24000,"station_id":"ce4bhap2rcd13ifvqek0","pricing_plan_id":"free"},{"bike_id":"98167f04-f990-4245-9a5f-ad63db2c1002","system_id":"levelo_inurba_marseille","lat":43.289468,"lon":5.363719,"is_reserved":false,"is_disabled":false,"rental_uris":{"android":"levelo://app?vid=98167f04-f990-4245-9a5f-ad63db2c1002","ios":"levelo://app?vid=98167f04-f990-4245-9a5f-ad63db2c1002"},"vehicle_type_id":"4","last_reported":1685473499,"current_range_meters":8000,"station_id":"ce4bhc92rcd13ifvqetg","pricing_plan_id":"free"},{"bike_id":"b757622a-eb7f-4df8-956f-92d25357b6c2","system_id":"levelo_inurba_marseille","lat":43.292642,"lon":5.384254,"is_reserved":false,"is_disabled":false,"rental_uris":{"android":"levelo://app?vid=b757622a-eb7f-4df8-956f-92d25357b6c2","ios":"levelo://app?vid=b757622a-eb7f-4df8-956f-92d25357b6c2"},"vehicle_type_id":"4","last_reported":1685473499,"current_range_meters":800,"station_id":"ce4bh692rcd13ifvqea0","pricing_plan_id":"free"},{"bike_id":"35ce77cf-299a-4f31-af3b-33ac620e7dcf","system_id":"levelo_inurba_marseille","lat":43.304296,"lon":5.397513,"is_reserved":false,"is_disabled":false,"rental_uris":{"android":"levelo://app?vid=35ce77cf-299a-4f31-af3b-33ac620e7dcf","ios":"levelo://app?vid=35ce77cf-299a-4f31-af3b-33ac620e7dcf"},"vehicle_type_id":"4","last_reported":1685473499,"current_range_meters":14800,"station_id":"ce4bh092rcd13ifvqd20","pricing_plan_id":"free"},{"bike_id":"bf52f0af-5177-445b-a99e-1aec64fa7d19","system_id":"levelo_inurba_marseille","lat":43.292642,"lon":5.384254,"is_reserved":false,"is_disabled":false,"rental_uris":{"android":"levelo://app?vid=bf52f0af-5177-445b-a99e-1aec64fa7d19","ios":"levelo://app?vid=bf52f0af-5177-445b-a99e-1aec64fa7d19"},"vehicle_type_id":"4","last_reported":1685473499,"current_range_meters":16800,"station_id":"ce4bh692rcd13ifvqea0","pricing_plan_id":"free"},{"bike_id":"ab9236d5-7b73-432a-9257-3e1c685bb6b4","system_id":"levelo_inurba_marseille","lat":43.290103,"lon":5.356114,"is_reserved":false,"is_disabled":false,"rental_uris":{"android":"levelo://app?vid=ab9236d5-7b73-432a-9257-3e1c685bb6b4","ios":"levelo://app?vid=ab9236d5-7b73-432a-9257-3e1c685bb6b4"},"vehicle_type_id":"4","last_reported":1685473499,"current_range_meters":400,"station_id":"ce4bhb92rcd13ifvqen0","pricing_plan_id":"free"},{"bike_id":"9fda4b32-966e-4aba-96ef-41f727f15bba","system_id":"levelo_inurba_marseille","lat":43.33045,"lon":5.3891,"is_reserved":false,"is_disabled":false,"rental_uris":{"android":"levelo://app?vid=9fda4b32-966e-4aba-96ef-41f727f15bba","ios":"levelo://app?vid=9fda4b32-966e-4aba-96ef-41f727f15bba"},"vehicle_type_id":"4","last_reported":1685473499,"current_range_meters":25600,"station_id":"ce4bhr92rcd13ifvqhrg","pricing_plan_id":"free"},{"bike_id":"4f7803a6-3392-44b5-aa81-dde8a03de0fc","system_id":"levelo_inurba_marseille","lat":43.33044,"lon":5.38918,"is_reserved":false,"is_disabled":false,"rental_uris":{"android":"levelo://app?vid=4f7803a6-3392-44b5-aa81-dde8a03de0fc","ios":"levelo://app?vid=4f7803a6-3392-44b5-aa81-dde8a03de0fc"},"vehicle_type_id":"4","last_reported":1685473499,"current_range_meters":16400,"station_id":"ce4bhr92rcd13ifvqhrg","pricing_plan_id":"free"},{"bike_id":"e17b760b-3b7c-4e64-a8af-9d845037c413","system_id":"levelo_inurba_marseille","lat":43.33045,"lon":5.38917,"is_reserved":false,"is_disabled":false,"rental_uris":{"android":"levelo://app?vid=e17b760b-3b7c-4e64-a8af-9d845037c413","ios":"levelo://app?vid=e17b760b-3b7c-4e64-a8af-9d845037c413"},"vehicle_type_id":"4","last_reported":1685473499,"current_range_meters":27600,"station_id":"ce4bhr92rcd13ifvqhrg","pricing_plan_id":"free"},{"bike_id":"8a189623-63fb-4c2a-846b-aa33f34b5cfd","system_id":"levelo_inurba_marseille","lat":43.33044,"lon":5.38921,"is_reserved":false,"is_disabled":false,"rental_uris":{"android":"levelo://app?vid=8a189623-63fb-4c2a-846b-aa33f34b5cfd","ios":"levelo://app?vid=8a189623-63fb-4c2a-846b-aa33f34b5cfd"},"vehicle_type_id":"4","last_reported":1685473499,"current_range_meters":26000,"station_id":"ce4bhr92rcd13ifvqhrg","pricing_plan_id":"free"},{"bike_id":"60420cf4-3b82-4648-be0e-9089e403318d","system_id":"levelo_inurba_marseille","lat":43.33046,"lon":5.38919,"is_reserved":false,"is_disabled":false,"rental_uris":{"android":"levelo://app?vid=60420cf4-3b82-4648-be0e-9089e403318d","ios":"levelo://app?vid=60420cf4-3b82-4648-be0e-9089e403318d"},"vehicle_type_id":"4","last_reported":1685473499,"current_range_meters":22000,"station_id":"ce4bhr92rcd13ifvqhrg","pricing_plan_id":"free"},{"bike_id":"fc3299c6-1d72-487d-ba07-6cfc0fb311dc","system_id":"levelo_inurba_marseille","lat":43.33043,"lon":5.38925,"is_reserved":false,"is_disabled":false,"rental_uris":{"android":"levelo://app?vid=fc3299c6-1d72-487d-ba07-6cfc0fb311dc","ios":"levelo://app?vid=fc3299c6-1d72-487d-ba07-6cfc0fb311dc"},"vehicle_type_id":"4","last_reported":1685473499,"current_range_meters":23600,"station_id":"ce4bhr92rcd13ifvqhrg","pricing_plan_id":"free"},{"bike_id":"214cd52b-86dc-4d7c-b8c8-656e445142b6","system_id":"levelo_inurba_marseille","lat":43.330454,"lon":5.389224,"is_reserved":false,"is_disabled":false,"rental_uris":{"android":"levelo://app?vid=214cd52b-86dc-4d7c-b8c8-656e445142b6","ios":"levelo://app?vid=214cd52b-86dc-4d7c-b8c8-656e445142b6"},"vehicle_type_id":"4","last_reported":1685473499,"current_range_meters":29200,"station_id":"","pricing_plan_id":"free"},{"bike_id":"0f131166-1ac4-462b-95af-b6eb64cf7f18","system_id":"levelo_inurba_marseille","lat":43.33044,"lon":5.38926,"is_reserved":false,"is_disabled":false,"rental_uris":{"android":"levelo://app?vid=0f131166-1ac4-462b-95af-b6eb64cf7f18","ios":"levelo://app?vid=0f131166-1ac4-462b-95af-b6eb64cf7f18"},"vehicle_type_id":"4","last_reported":1685473499,"current_range_meters":24800,"station_id":"ce4bhr92rcd13ifvqhrg","pricing_plan_id":"free"},{"bike_id":"69f87366-090d-4bc0-9758-0f42d6ed45ce","system_id":"levelo_inurba_marseille","lat":43.3305,"lon":5.38918,"is_reserved":false,"is_disabled":false,"rental_uris":{"android":"levelo://app?vid=69f87366-090d-4bc0-9758-0f42d6ed45ce","ios":"levelo://app?vid=69f87366-090d-4bc0-9758-0f42d6ed45ce"},"vehicle_type_id":"4","last_reported":1685473499,"current_range_meters":24400,"station_id":"ce4bhr92rcd13ifvqhrg","pricing_plan_id":"free"},{"bike_id":"ab12f796-137d-4e28-95ee-ac5af904c7f8","system_id":"levelo_inurba_marseille","lat":43.33042,"lon":5.38931,"is_reserved":false,"is_disabled":false,"rental_uris":{"android":"levelo://app?vid=ab12f796-137d-4e28-95ee-ac5af904c7f8","ios":"levelo://app?vid=ab12f796-137d-4e28-95ee-ac5af904c7f8"},"vehicle_type_id":"4","last_reported":1685473499,"current_range_meters":25200,"station_id":"ce4bhr92rcd13ifvqhrg","pricing_plan_id":"free"},{"bike_id":"be115698-ed9e-4818-8cb1-06cf0878778d","system_id":"levelo_inurba_marseille","lat":43.291024,"lon":5.381386,"is_reserved":false,"is_disabled":false,"rental_uris":{"android":"levelo://app?vid=be115698-ed9e-4818-8cb1-06cf0878778d","ios":"levelo://app?vid=be115698-ed9e-4818-8cb1-06cf0878778d"},"vehicle_type_id":"4","last_reported":1685473499,"current_range_meters":2400,"station_id":"","pricing_plan_id":"free"},{"bike_id":"0eb6bb4a-cd4d-4094-b963-517885e462e0","system_id":"levelo_inurba_marseille","lat":43.290995,"lon":5.381361,"is_reserved":false,"is_disabled":false,"rental_uris":{"android":"levelo://app?vid=0eb6bb4a-cd4d-4094-b963-517885e462e0","ios":"levelo://app?vid=0eb6bb4a-cd4d-4094-b963-517885e462e0"},"vehicle_type_id":"4","last_reported":1685473499,"current_range_meters":16800,"station_id":"ce4bh512rcd13ifvqe2g","pricing_plan_id":"free"},{"bike_id":"3dec4b70-0311-4cae-a502-4145c3154dd9","system_id":"levelo_inurba_marseille","lat":43.290995,"lon":5.381361,"is_reserved":false,"is_disabled":false,"rental_uris":{"android":"levelo://app?vid=3dec4b70-0311-4cae-a502-4145c3154dd9","ios":"levelo://app?vid=3dec4b70-0311-4cae-a502-4145c3154dd9"},"vehicle_type_id":"4","last_reported":1685473499,"current_range_meters":9600,"station_id":"ce4bh512rcd13ifvqe2g","pricing_plan_id":"free"},{"bike_id":"20ea5043-3be7-4985-b9ee-f6ba151d715e","system_id":"levelo_inurba_marseille","lat":43.29522,"lon":5.39018,"is_reserved":false,"is_disabled":false,"rental_uris":{"android":"levelo://app?vid=20ea5043-3be7-4985-b9ee-f6ba151d715e","ios":"levelo://app?vid=20ea5043-3be7-4985-b9ee-f6ba151d715e"},"vehicle_type_id":"4","last_reported":1685473499,"current_range_meters":0,"station_id":"ce4bh3p2rcd13ifvqdp0","pricing_plan_id":"free"},{"bike_id":"1021bb19-2cd5-4b4b-8844-e1d23be0ce11","system_id":"levelo_inurba_marseille","lat":43.28856,"lon":5.358371,"is_reserved":false,"is_disabled":false,"rental_uris":{"android":"levelo://app?vid=1021bb19-2cd5-4b4b-8844-e1d23be0ce11","ios":"levelo://app?vid=1021bb19-2cd5-4b4b-8844-e1d23be0ce11"},"vehicle_type_id":"4","last_reported":1685473499,"current_range_meters":24400,"station_id":"ce4bhb12rcd13ifvqem0","pricing_plan_id":"free"},{"bike_id":"141c14ea-594b-43ee-894e-8c44af1dcd73","system_id":"levelo_inurba_marseille","lat":43.33741,"lon":5.37457,"is_reserved":false,"is_disabled":false,"rental_uris":{"android":"levelo://app?vid=141c14ea-594b-43ee-894e-8c44af1dcd73","ios":"levelo://app?vid=141c14ea-594b-43ee-894e-8c44af1dcd73"},"vehicle_type_id":"4","last_reported":1685473499,"current_range_meters":28400,"station_id":"","pricing_plan_id":"free"},{"bike_id":"60365b11-ef18-42d8-96a4-e4f2839d6bb5","system_id":"levelo_inurba_marseille","lat":43.33754,"lon":5.37438,"is_reserved":false,"is_disabled":false,"rental_uris":{"android":"levelo://app?vid=60365b11-ef18-42d8-96a4-e4f2839d6bb5","ios":"levelo://app?vid=60365b11-ef18-42d8-96a4-e4f2839d6bb5"},"vehicle_type_id":"4","last_reported":1685473499,"current_range_meters":30000,"station_id":"","pricing_plan_id":"free"},{"bike_id":"556c6db1-2600-4c2b-9521-aae8453517c1","system_id":"levelo_inurba_marseille","lat":43.33762,"lon":5.37432,"is_reserved":false,"is_disabled":false,"rental_uris":{"android":"levelo://app?vid=556c6db1-2600-4c2b-9521-aae8453517c1","ios":"levelo://app?vid=556c6db1-2600-4c2b-9521-aae8453517c1"},"vehicle_type_id":"4","last_reported":1685473499,"current_range_meters":4800,"station_id":"","pricing_plan_id":"free"},{"bike_id":"61c719db-daae-4f13-b259-d05f297b4a6f","system_id":"levelo_inurba_marseille","lat":43.33757,"lon":5.37465,"is_reserved":false,"is_disabled":false,"rental_uris":{"android":"levelo://app?vid=61c719db-daae-4f13-b259-d05f297b4a6f","ios":"levelo://app?vid=61c719db-daae-4f13-b259-d05f297b4a6f"},"vehicle_type_id":"4","last_reported":1685473499,"current_range_meters":28400,"station_id":"","pricing_plan_id":"free"},{"bike_id":"6d678481-0e0b-436a-aa94-9d12fa2c91f5","system_id":"levelo_inurba_marseille","lat":43.33771,"lon":5.37423,"is_reserved":false,"is_disabled":false,"rental_uris":{"android":"levelo://app?vid=6d678481-0e0b-436a-aa94-9d12fa2c91f5","ios":"levelo://app?vid=6d678481-0e0b-436a-aa94-9d12fa2c91f5"},"vehicle_type_id":"4","last_reported":1685473499,"current_range_meters":30400,"station_id":"","pricing_plan_id":"free"},{"bike_id":"82cd8d59-c3b3-45ba-9fe7-4cce592a0122","system_id":"levelo_inurba_marseille","lat":43.301117,"lon":5.398795,"is_reserved":false,"is_disabled":false,"rental_uris":{"android":"levelo://app?vid=82cd8d59-c3b3-45ba-9fe7-4cce592a0122","ios":"levelo://app?vid=82cd8d59-c3b3-45ba-9fe7-4cce592a0122"},"vehicle_type_id":"4","last_reported":1685473499,"current_range_meters":14400,"station_id":"ce4bh0h2rcd13ifvqd40","pricing_plan_id":"free"},{"bike_id":"822fa507-5755-4974-9776-f18a9c69fd91","system_id":"levelo_inurba_marseille","lat":43.301117,"lon":5.398795,"is_reserved":false,"is_disabled":false,"rental_uris":{"android":"levelo://app?vid=822fa507-5755-4974-9776-f18a9c69fd91","ios":"levelo://app?vid=822fa507-5755-4974-9776-f18a9c69fd91"},"vehicle_type_id":"4","last_reported":1685473499,"current_range_meters":8400,"station_id":"ce4bh0h2rcd13ifvqd40","pricing_plan_id":"free"},{"bike_id":"ebe56d5c-0f13-4cda-a780-8a41e6224d11","system_id":"levelo_inurba_marseille","lat":43.30424,"lon":5.40088,"is_reserved":false,"is_disabled":false,"rental_uris":{"android":"levelo://app?vid=ebe56d5c-0f13-4cda-a780-8a41e6224d11","ios":"levelo://app?vid=ebe56d5c-0f13-4cda-a780-8a41e6224d11"},"vehicle_type_id":"4","last_reported":1685473499,"current_range_meters":9200,"station_id":"","pricing_plan_id":"free"},{"bike_id":"ad0a43fd-cbef-413c-89f4-cd99c896cc5c","system_id":"levelo_inurba_marseille","lat":43.298681,"lon":5.397225,"is_reserved":false,"is_disabled":false,"rental_uris":{"android":"levelo://app?vid=ad0a43fd-cbef-413c-89f4-cd99c896cc5c","ios":"levelo://app?vid=ad0a43fd-cbef-413c-89f4-cd99c896cc5c"},"vehicle_type_id":"4","last_reported":1685473499,"current_range_meters":22400,"station_id":"ce4bh0h2rcd13ifvqd50","pricing_plan_id":"free"},{"bike_id":"6d5aa099-90b3-4446-9b7e-7645b338ded7","system_id":"levelo_inurba_marseille","lat":43.298681,"lon":5.397225,"is_reserved":false,"is_disabled":false,"rental_uris":{"android":"levelo://app?vid=6d5aa099-90b3-4446-9b7e-7645b338ded7","ios":"levelo://app?vid=6d5aa099-90b3-4446-9b7e-7645b338ded7"},"vehicle_type_id":"4","last_reported":1685473499,"current_range_meters":18000,"station_id":"ce4bh0h2rcd13ifvqd50","pricing_plan_id":"free"},{"bike_id":"2f1bc252-6b14-4245-a18f-f98862c9e5ff","system_id":"levelo_inurba_marseille","lat":43.287,"lon":5.37389,"is_reserved":false,"is_disabled":false,"rental_uris":{"android":"levelo://app?vid=2f1bc252-6b14-4245-a18f-f98862c9e5ff","ios":"levelo://app?vid=2f1bc252-6b14-4245-a18f-f98862c9e5ff"},"vehicle_type_id":"4","last_reported":1685473499,"current_range_meters":12000,"station_id":"","pricing_plan_id":"free"},{"bike_id":"6ce55a90-6d30-4a7a-afa2-c9ec045f9d88","system_id":"levelo_inurba_marseille","lat":43.298681,"lon":5.397225,"is_reserved":false,"is_disabled":false,"rental_uris":{"android":"levelo://app?vid=6ce55a90-6d30-4a7a-afa2-c9ec045f9d88","ios":"levelo://app?vid=6ce55a90-6d30-4a7a-afa2-c9ec045f9d88"},"vehicle_type_id":"4","last_reported":1685473499,"current_range_meters":5200,"station_id":"ce4bh0h2rcd13ifvqd50","pricing_plan_id":"free"},{"bike_id":"97f4eb4b-5f19-4f80-b124-f67e45d61994","system_id":"levelo_inurba_marseille","lat":43.28693,"lon":5.37399,"is_reserved":false,"is_disabled":false,"rental_uris":{"android":"levelo://app?vid=97f4eb4b-5f19-4f80-b124-f67e45d61994","ios":"levelo://app?vid=97f4eb4b-5f19-4f80-b124-f67e45d61994"},"vehicle_type_id":"4","last_reported":1685473499,"current_range_meters":10800,"station_id":"","pricing_plan_id":"free"},{"bike_id":"dd7829ce-d1a6-402f-81e4-467ae0318b51","system_id":"levelo_inurba_marseille","lat":43.302759,"lon":5.400793,"is_reserved":false,"is_disabled":false,"rental_uris":{"android":"levelo://app?vid=dd7829ce-d1a6-402f-81e4-467ae0318b51","ios":"levelo://app?vid=dd7829ce-d1a6-402f-81e4-467ae0318b51"},"vehicle_type_id":"4","last_reported":1685473499,"current_range_meters":19200,"station_id":"ce4bgvh2rcd13ifvqcs0","pricing_plan_id":"free"},{"bike_id":"bef58c69-553b-4a6e-85c4-8e80b88aaacd","system_id":"levelo_inurba_marseille","lat":43.290345,"lon":5.38646,"is_reserved":false,"is_disabled":false,"rental_uris":{"android":"levelo://app?vid=bef58c69-553b-4a6e-85c4-8e80b88aaacd","ios":"levelo://app?vid=bef58c69-553b-4a6e-85c4-8e80b88aaacd"},"vehicle_type_id":"4","last_reported":1685473499,"current_range_meters":15200,"station_id":"ce4bh4p2rcd13ifvqe0g","pricing_plan_id":"free"},{"bike_id":"d3572416-d35f-4500-97c2-556f97812422","system_id":"levelo_inurba_marseille","lat":43.290336,"lon":5.386425,"is_reserved":false,"is_disabled":false,"rental_uris":{"android":"levelo://app?vid=d3572416-d35f-4500-97c2-556f97812422","ios":"levelo://app?vid=d3572416-d35f-4500-97c2-556f97812422"},"vehicle_type_id":"4","last_reported":1685473499,"current_range_meters":15200,"station_id":"ce4bh4p2rcd13ifvqe0g","pricing_plan_id":"free"},{"bike_id":"cdbb9a7d-ff20-43ba-9a3c-57a57d551f38","system_id":"levelo_inurba_marseille","lat":43.29017,"lon":5.38639,"is_reserved":false,"is_disabled":false,"rental_uris":{"android":"levelo://app?vid=cdbb9a7d-ff20-43ba-9a3c-57a57d551f38","ios":"levelo://app?vid=cdbb9a7d-ff20-43ba-9a3c-57a57d551f38"},"vehicle_type_id":"4","last_reported":1685473499,"current_range_meters":16800,"station_id":"ce4bh4p2rcd13ifvqe0g","pricing_plan_id":"free"},{"bike_id":"3cd86e42-112a-4eb9-87a3-7e2af0da337a","system_id":"levelo_inurba_marseille","lat":43.286039,"lon":5.370679,"is_reserved":false,"is_disabled":false,"rental_uris":{"android":"levelo://app?vid=3cd86e42-112a-4eb9-87a3-7e2af0da337a","ios":"levelo://app?vid=3cd86e42-112a-4eb9-87a3-7e2af0da337a"},"vehicle_type_id":"4","last_reported":1685473499,"current_range_meters":29200,"station_id":"ce4bht12rcd13ifvqi60","pricing_plan_id":"free"},{"bike_id":"b0f405f2-5342-47b3-8ea1-270190e05a22","system_id":"levelo_inurba_marseille","lat":43.301117,"lon":5.398795,"is_reserved":false,"is_disabled":false,"rental_uris":{"android":"levelo://app?vid=b0f405f2-5342-47b3-8ea1-270190e05a22","ios":"levelo://app?vid=b0f405f2-5342-47b3-8ea1-270190e05a22"},"vehicle_type_id":"4","last_reported":1685473499,"current_range_meters":5600,"station_id":"ce4bh0h2rcd13ifvqd40","pricing_plan_id":"free"},{"bike_id":"8e34f727-6412-4dc8-aacc-31d6466411d3","system_id":"levelo_inurba_marseille","lat":43.28604,"lon":5.37067,"is_reserved":false,"is_disabled":false,"rental_uris":{"android":"levelo://app?vid=8e34f727-6412-4dc8-aacc-31d6466411d3","ios":"levelo://app?vid=8e34f727-6412-4dc8-aacc-31d6466411d3"},"vehicle_type_id":"4","last_reported":1685473499,"current_range_meters":13600,"station_id":"ce4bht12rcd13ifvqi60","pricing_plan_id":"free"},{"bike_id":"de01592f-bc93-4d53-8027-b5409b2bd3a8","system_id":"levelo_inurba_marseille","lat":43.287184,"lon":5.37937,"is_reserved":false,"is_disabled":false,"rental_uris":{"android":"levelo://app?vid=de01592f-bc93-4d53-8027-b5409b2bd3a8","ios":"levelo://app?vid=de01592f-bc93-4d53-8027-b5409b2bd3a8"},"vehicle_type_id":"4","last_reported":1685473499,"current_range_meters":14800,"station_id":"ce4bh9p2rcd13ifvqec0","pricing_plan_id":"free"},{"bike_id":"c97e9728-ba19-495c-91e5-f96597cc6299","system_id":"levelo_inurba_marseille","lat":43.287185,"lon":5.379373,"is_reserved":false,"is_disabled":false,"rental_uris":{"android":"levelo://app?vid=c97e9728-ba19-495c-91e5-f96597cc6299","ios":"levelo://app?vid=c97e9728-ba19-495c-91e5-f96597cc6299"},"vehicle_type_id":"4","last_reported":1685473499,"current_range_meters":4400,"station_id":"ce4bh9p2rcd13ifvqec0","pricing_plan_id":"free"},{"bike_id":"f6d2167b-5c7d-4acd-8919-1eb2c78c5297","system_id":"levelo_inurba_marseille","lat":43.287185,"lon":5.379373,"is_reserved":false,"is_disabled":false,"rental_uris":{"android":"levelo://app?vid=f6d2167b-5c7d-4acd-8919-1eb2c78c5297","ios":"levelo://app?vid=f6d2167b-5c7d-4acd-8919-1eb2c78c5297"},"vehicle_type_id":"4","last_reported":1685473499,"current_range_meters":28000,"station_id":"ce4bh9p2rcd13ifvqec0","pricing_plan_id":"free"},{"bike_id":"02b007ae-b075-427e-9143-3c798520a9f9","system_id":"levelo_inurba_marseille","lat":43.316079,"lon":5.40392,"is_reserved":false,"is_disabled":false,"rental_uris":{"android":"levelo://app?vid=02b007ae-b075-427e-9143-3c798520a9f9","ios":"levelo://app?vid=02b007ae-b075-427e-9143-3c798520a9f9"},"vehicle_type_id":"4","last_reported":1685473499,"current_range_meters":13600,"station_id":"","pricing_plan_id":"free"},{"bike_id":"c0254ae0-25eb-4b3e-af98-29c8c12e84cd","system_id":"levelo_inurba_marseille","lat":43.287185,"lon":5.379373,"is_reserved":false,"is_disabled":false,"rental_uris":{"android":"levelo://app?vid=c0254ae0-25eb-4b3e-af98-29c8c12e84cd","ios":"levelo://app?vid=c0254ae0-25eb-4b3e-af98-29c8c12e84cd"},"vehicle_type_id":"4","last_reported":1685473499,"current_range_meters":22400,"station_id":"ce4bh9p2rcd13ifvqec0","pricing_plan_id":"free"},{"bike_id":"3bc2e4ac-1bc7-4eac-b2a9-8db7d6ab3e4b","system_id":"levelo_inurba_marseille","lat":43.316517,"lon":5.404375,"is_reserved":false,"is_disabled":false,"rental_uris":{"android":"levelo://app?vid=3bc2e4ac-1bc7-4eac-b2a9-8db7d6ab3e4b","ios":"levelo://app?vid=3bc2e4ac-1bc7-4eac-b2a9-8db7d6ab3e4b"},"vehicle_type_id":"4","last_reported":1685473499,"current_range_meters":4400,"station_id":"ce4bh012rcd13ifvqd00","pricing_plan_id":"free"},{"bike_id":"c000ff83-291b-4823-995e-42d80ca036cd","system_id":"levelo_inurba_marseille","lat":43.316517,"lon":5.404375,"is_reserved":false,"is_disabled":false,"rental_uris":{"android":"levelo://app?vid=c000ff83-291b-4823-995e-42d80ca036cd","ios":"levelo://app?vid=c000ff83-291b-4823-995e-42d80ca036cd"},"vehicle_type_id":"4","last_reported":1685473499,"current_range_meters":2400,"station_id":"ce4bh012rcd13ifvqd00","pricing_plan_id":"free"},{"bike_id":"8a86b497-0926-494a-8a90-b07219bf2b25","system_id":"levelo_inurba_marseille","lat":43.316517,"lon":5.404375,"is_reserved":false,"is_disabled":false,"rental_uris":{"android":"levelo://app?vid=8a86b497-0926-494a-8a90-b07219bf2b25","ios":"levelo://app?vid=8a86b497-0926-494a-8a90-b07219bf2b25"},"vehicle_type_id":"4","last_reported":1685473499,"current_range_meters":9200,"station_id":"ce4bh012rcd13ifvqd00","pricing_plan_id":"free"},{"bike_id":"dd7a068a-f8d0-497e-adf1-6b25202db352","system_id":"levelo_inurba_marseille","lat":43.291994,"lon":5.392907,"is_reserved":false,"is_disabled":false,"rental_uris":{"android":"levelo://app?vid=dd7a068a-f8d0-497e-adf1-6b25202db352","ios":"levelo://app?vid=dd7a068a-f8d0-497e-adf1-6b25202db352"},"vehicle_type_id":"4","last_reported":1685473499,"current_range_meters":16800,"station_id":"ce4bh192rcd13ifvqdd0","pricing_plan_id":"free"},{"bike_id":"0638c580-00ef-46d9-be52-85dcb4e6bc9a","system_id":"levelo_inurba_marseille","lat":43.291994,"lon":5.392907,"is_reserved":false,"is_disabled":false,"rental_uris":{"android":"levelo://app?vid=0638c580-00ef-46d9-be52-85dcb4e6bc9a","ios":"levelo://app?vid=0638c580-00ef-46d9-be52-85dcb4e6bc9a"},"vehicle_type_id":"4","last_reported":1685473499,"current_range_meters":5600,"station_id":"ce4bh192rcd13ifvqdd0","pricing_plan_id":"free"},{"bike_id":"393b84fa-ac3b-4648-808f-ae622a90aa39","system_id":"levelo_inurba_marseille","lat":43.291994,"lon":5.392907,"is_reserved":false,"is_disabled":false,"rental_uris":{"android":"levelo://app?vid=393b84fa-ac3b-4648-808f-ae622a90aa39","ios":"levelo://app?vid=393b84fa-ac3b-4648-808f-ae622a90aa39"},"vehicle_type_id":"4","last_reported":1685473499,"current_range_meters":9200,"station_id":"ce4bh192rcd13ifvqdd0","pricing_plan_id":"free"},{"bike_id":"6e501417-b501-4677-88f6-36aa41b7f74a","system_id":"levelo_inurba_marseille","lat":43.284538,"lon":5.358657,"is_reserved":false,"is_disabled":false,"rental_uris":{"android":"levelo://app?vid=6e501417-b501-4677-88f6-36aa41b7f74a","ios":"levelo://app?vid=6e501417-b501-4677-88f6-36aa41b7f74a"},"vehicle_type_id":"4","last_reported":1685473499,"current_range_meters":18800,"station_id":"ce4bhah2rcd13ifvqei0","pricing_plan_id":"free"},{"bike_id":"ed7cb1d1-4d82-4dd6-959b-a55d2f27850d","system_id":"levelo_inurba_marseille","lat":43.284534,"lon":5.358662,"is_reserved":false,"is_disabled":false,"rental_uris":{"android":"levelo://app?vid=ed7cb1d1-4d82-4dd6-959b-a55d2f27850d","ios":"levelo://app?vid=ed7cb1d1-4d82-4dd6-959b-a55d2f27850d"},"vehicle_type_id":"4","last_reported":1685473499,"current_range_meters":10000,"station_id":"ce4bhah2rcd13ifvqei0","pricing_plan_id":"free"},{"bike_id":"bedc6631-7dc7-4835-a3c2-27d9b9993f37","system_id":"levelo_inurba_marseille","lat":43.284538,"lon":5.358657,"is_reserved":false,"is_disabled":false,"rental_uris":{"android":"levelo://app?vid=bedc6631-7dc7-4835-a3c2-27d9b9993f37","ios":"levelo://app?vid=bedc6631-7dc7-4835-a3c2-27d9b9993f37"},"vehicle_type_id":"4","last_reported":1685473499,"current_range_meters":5600,"station_id":"ce4bhah2rcd13ifvqei0","pricing_plan_id":"free"},{"bike_id":"d030916d-2074-49d9-b803-7916736793df","system_id":"levelo_inurba_marseille","lat":43.284538,"lon":5.358657,"is_reserved":false,"is_disabled":false,"rental_uris":{"android":"levelo://app?vid=d030916d-2074-49d9-b803-7916736793df","ios":"levelo://app?vid=d030916d-2074-49d9-b803-7916736793df"},"vehicle_type_id":"4","last_reported":1685473499,"current_range_meters":8400,"station_id":"ce4bhah2rcd13ifvqei0","pricing_plan_id":"free"},{"bike_id":"e9bdc0eb-b630-44b8-9652-24a6fe3773dc","system_id":"levelo_inurba_marseille","lat":43.284538,"lon":5.358657,"is_reserved":false,"is_disabled":false,"rental_uris":{"android":"levelo://app?vid=e9bdc0eb-b630-44b8-9652-24a6fe3773dc","ios":"levelo://app?vid=e9bdc0eb-b630-44b8-9652-24a6fe3773dc"},"vehicle_type_id":"4","last_reported":1685473499,"current_range_meters":10000,"station_id":"ce4bhah2rcd13ifvqei0","pricing_plan_id":"free"},{"bike_id":"54e32d61-a29f-44af-8f30-a74ebc961620","system_id":"levelo_inurba_marseille","lat":43.284538,"lon":5.358657,"is_reserved":false,"is_disabled":false,"rental_uris":{"android":"levelo://app?vid=54e32d61-a29f-44af-8f30-a74ebc961620","ios":"levelo://app?vid=54e32d61-a29f-44af-8f30-a74ebc961620"},"vehicle_type_id":"4","last_reported":1685473499,"current_range_meters":19200,"station_id":"ce4bhah2rcd13ifvqei0","pricing_plan_id":"free"},{"bike_id":"8e342250-f1b6-4031-8873-ddaf4260e63a","system_id":"levelo_inurba_marseille","lat":43.284534,"lon":5.358662,"is_reserved":false,"is_disabled":false,"rental_uris":{"android":"levelo://app?vid=8e342250-f1b6-4031-8873-ddaf4260e63a","ios":"levelo://app?vid=8e342250-f1b6-4031-8873-ddaf4260e63a"},"vehicle_type_id":"4","last_reported":1685473499,"current_range_meters":22800,"station_id":"ce4bhah2rcd13ifvqei0","pricing_plan_id":"free"},{"bike_id":"f1ee2b92-e1ee-41a2-9dbe-9321637b3996","system_id":"levelo_inurba_marseille","lat":43.286595,"lon":5.386795,"is_reserved":false,"is_disabled":false,"rental_uris":{"android":"levelo://app?vid=f1ee2b92-e1ee-41a2-9dbe-9321637b3996","ios":"levelo://app?vid=f1ee2b92-e1ee-41a2-9dbe-9321637b3996"},"vehicle_type_id":"4","last_reported":1685473499,"current_range_meters":10400,"station_id":"ce4bh492rcd13ifvqdug","pricing_plan_id":"free"},{"bike_id":"b9d9132f-d5dd-4f8e-a2c6-d3b20660696f","system_id":"levelo_inurba_marseille","lat":43.28677,"lon":5.3866,"is_reserved":false,"is_disabled":false,"rental_uris":{"android":"levelo://app?vid=b9d9132f-d5dd-4f8e-a2c6-d3b20660696f","ios":"levelo://app?vid=b9d9132f-d5dd-4f8e-a2c6-d3b20660696f"},"vehicle_type_id":"4","last_reported":1685473499,"current_range_meters":0,"station_id":"ce4bh492rcd13ifvqdug","pricing_plan_id":"free"},{"bike_id":"e2d4a03c-32e4-456d-915a-2af3a95b0ae7","system_id":"levelo_inurba_marseille","lat":43.286595,"lon":5.386795,"is_reserved":false,"is_disabled":false,"rental_uris":{"android":"levelo://app?vid=e2d4a03c-32e4-456d-915a-2af3a95b0ae7","ios":"levelo://app?vid=e2d4a03c-32e4-456d-915a-2af3a95b0ae7"},"vehicle_type_id":"4","last_reported":1685473499,"current_range_meters":10000,"station_id":"ce4bh492rcd13ifvqdug","pricing_plan_id":"free"},{"bike_id":"a54f7ad7-eda9-4e96-907f-31f700b2a634","system_id":"levelo_inurba_marseille","lat":43.32353,"lon":5.40614,"is_reserved":false,"is_disabled":false,"rental_uris":{"android":"levelo://app?vid=a54f7ad7-eda9-4e96-907f-31f700b2a634","ios":"levelo://app?vid=a54f7ad7-eda9-4e96-907f-31f700b2a634"},"vehicle_type_id":"4","last_reported":1685473499,"current_range_meters":6000,"station_id":"ce4bhq92rcd13ifvqhjg","pricing_plan_id":"free"},{"bike_id":"270dfbfb-6f86-4290-a862-85610544def8","system_id":"levelo_inurba_marseille","lat":43.288497,"lon":5.393089,"is_reserved":false,"is_disabled":false,"rental_uris":{"android":"levelo://app?vid=270dfbfb-6f86-4290-a862-85610544def8","ios":"levelo://app?vid=270dfbfb-6f86-4290-a862-85610544def8"},"vehicle_type_id":"4","last_reported":1685473499,"current_range_meters":14400,"station_id":"ce4bh2p2rcd13ifvqdi0","pricing_plan_id":"free"},{"bike_id":"82be11a9-55d3-4f19-8e3c-f96f8cdb621a","system_id":"levelo_inurba_marseille","lat":43.288497,"lon":5.393089,"is_reserved":false,"is_disabled":false,"rental_uris":{"android":"levelo://app?vid=82be11a9-55d3-4f19-8e3c-f96f8cdb621a","ios":"levelo://app?vid=82be11a9-55d3-4f19-8e3c-f96f8cdb621a"},"vehicle_type_id":"4","last_reported":1685473499,"current_range_meters":12400,"station_id":"ce4bh2p2rcd13ifvqdi0","pricing_plan_id":"free"},{"bike_id":"dad180d3-20c3-4225-82be-117f09da5f19","system_id":"levelo_inurba_marseille","lat":43.288497,"lon":5.393089,"is_reserved":false,"is_disabled":false,"rental_uris":{"android":"levelo://app?vid=dad180d3-20c3-4225-82be-117f09da5f19","ios":"levelo://app?vid=dad180d3-20c3-4225-82be-117f09da5f19"},"vehicle_type_id":"4","last_reported":1685473499,"current_range_meters":0,"station_id":"ce4bh2p2rcd13ifvqdi0","pricing_plan_id":"free"},{"bike_id":"f9c9a87e-f0fd-41b5-a17e-d3abc2a436f2","system_id":"levelo_inurba_marseille","lat":43.288501,"lon":5.393087,"is_reserved":false,"is_disabled":false,"rental_uris":{"android":"levelo://app?vid=f9c9a87e-f0fd-41b5-a17e-d3abc2a436f2","ios":"levelo://app?vid=f9c9a87e-f0fd-41b5-a17e-d3abc2a436f2"},"vehicle_type_id":"4","last_reported":1685473499,"current_range_meters":0,"station_id":"ce4bh2p2rcd13ifvqdi0","pricing_plan_id":"free"},{"bike_id":"6d54848a-509c-457f-bf77-185e8be1ee12","system_id":"levelo_inurba_marseille","lat":43.283494,"lon":5.380945,"is_reserved":false,"is_disabled":false,"rental_uris":{"android":"levelo://app?vid=6d54848a-509c-457f-bf77-185e8be1ee12","ios":"levelo://app?vid=6d54848a-509c-457f-bf77-185e8be1ee12"},"vehicle_type_id":"4","last_reported":1685473499,"current_range_meters":800,"station_id":"ce4bh412rcd13ifvqdr0","pricing_plan_id":"free"},{"bike_id":"5f580a81-fd37-4ff3-a474-22993ed4d2c2","system_id":"levelo_inurba_marseille","lat":43.289363,"lon":5.396322,"is_reserved":false,"is_disabled":false,"rental_uris":{"android":"levelo://app?vid=5f580a81-fd37-4ff3-a474-22993ed4d2c2","ios":"levelo://app?vid=5f580a81-fd37-4ff3-a474-22993ed4d2c2"},"vehicle_type_id":"4","last_reported":1685473499,"current_range_meters":9200,"station_id":"ce4bh3h2rcd13ifvqdn0","pricing_plan_id":"free"},{"bike_id":"de76b912-9734-469b-89e7-f3aa8fbd26ab","system_id":"levelo_inurba_marseille","lat":43.292724,"lon":5.401131,"is_reserved":false,"is_disabled":false,"rental_uris":{"android":"levelo://app?vid=de76b912-9734-469b-89e7-f3aa8fbd26ab","ios":"levelo://app?vid=de76b912-9734-469b-89e7-f3aa8fbd26ab"},"vehicle_type_id":"4","last_reported":1685473499,"current_range_meters":7200,"station_id":"ce4bh312rcd13ifvqdk0","pricing_plan_id":"free"},{"bike_id":"06fa4493-f0ec-41da-9569-30117ebeef00","system_id":"levelo_inurba_marseille","lat":43.292724,"lon":5.401131,"is_reserved":false,"is_disabled":false,"rental_uris":{"android":"levelo://app?vid=06fa4493-f0ec-41da-9569-30117ebeef00","ios":"levelo://app?vid=06fa4493-f0ec-41da-9569-30117ebeef00"},"vehicle_type_id":"4","last_reported":1685473499,"current_range_meters":6000,"station_id":"ce4bh312rcd13ifvqdk0","pricing_plan_id":"free"},{"bike_id":"075aec3e-a094-48d1-9128-6eef153c2d37","system_id":"levelo_inurba_marseille","lat":43.29278,"lon":5.40117,"is_reserved":false,"is_disabled":false,"rental_uris":{"android":"levelo://app?vid=075aec3e-a094-48d1-9128-6eef153c2d37","ios":"levelo://app?vid=075aec3e-a094-48d1-9128-6eef153c2d37"},"vehicle_type_id":"4","last_reported":1685473499,"current_range_meters":20000,"station_id":"ce4bh312rcd13ifvqdk0","pricing_plan_id":"free"},{"bike_id":"3d0d562c-72f4-4869-ae25-aea87dd4854b","system_id":"levelo_inurba_marseille","lat":43.292724,"lon":5.401131,"is_reserved":false,"is_disabled":false,"rental_uris":{"android":"levelo://app?vid=3d0d562c-72f4-4869-ae25-aea87dd4854b","ios":"levelo://app?vid=3d0d562c-72f4-4869-ae25-aea87dd4854b"},"vehicle_type_id":"4","last_reported":1685473499,"current_range_meters":400,"station_id":"ce4bh312rcd13ifvqdk0","pricing_plan_id":"free"},{"bike_id":"04b049b3-0d38-4d6c-b7b4-774d0e25596f","system_id":"levelo_inurba_marseille","lat":43.292724,"lon":5.401131,"is_reserved":false,"is_disabled":false,"rental_uris":{"android":"levelo://app?vid=04b049b3-0d38-4d6c-b7b4-774d0e25596f","ios":"levelo://app?vid=04b049b3-0d38-4d6c-b7b4-774d0e25596f"},"vehicle_type_id":"4","last_reported":1685473499,"current_range_meters":14400,"station_id":"ce4bh312rcd13ifvqdk0","pricing_plan_id":"free"},{"bike_id":"bb0e4c4f-0cc6-45f1-83a3-3c95cab5ca39","system_id":"levelo_inurba_marseille","lat":43.292724,"lon":5.401131,"is_reserved":false,"is_disabled":false,"rental_uris":{"android":"levelo://app?vid=bb0e4c4f-0cc6-45f1-83a3-3c95cab5ca39","ios":"levelo://app?vid=bb0e4c4f-0cc6-45f1-83a3-3c95cab5ca39"},"vehicle_type_id":"4","last_reported":1685473499,"current_range_meters":8800,"station_id":"ce4bh312rcd13ifvqdk0","pricing_plan_id":"free"},{"bike_id":"ecf98913-eba1-4e1d-bc5e-d2489c397d53","system_id":"levelo_inurba_marseille","lat":43.28357,"lon":5.38649,"is_reserved":false,"is_disabled":false,"rental_uris":{"android":"levelo://app?vid=ecf98913-eba1-4e1d-bc5e-d2489c397d53","ios":"levelo://app?vid=ecf98913-eba1-4e1d-bc5e-d2489c397d53"},"vehicle_type_id":"4","last_reported":1685473499,"current_range_meters":10400,"station_id":"ce4bh492rcd13ifvqdvg","pricing_plan_id":"free"},{"bike_id":"137b8f4c-c73c-4496-94f9-c080859dd452","system_id":"levelo_inurba_marseille","lat":43.280382,"lon":5.369291,"is_reserved":false,"is_disabled":false,"rental_uris":{"android":"levelo://app?vid=137b8f4c-c73c-4496-94f9-c080859dd452","ios":"levelo://app?vid=137b8f4c-c73c-4496-94f9-c080859dd452"},"vehicle_type_id":"4","last_reported":1685473499,"current_range_meters":30800,"station_id":"ce4bha12rcd13ifvqef0","pricing_plan_id":"free"},{"bike_id":"b8c9bf89-df7f-4386-8a71-24a816915d75","system_id":"levelo_inurba_marseille","lat":43.28039,"lon":5.369297,"is_reserved":false,"is_disabled":false,"rental_uris":{"android":"levelo://app?vid=b8c9bf89-df7f-4386-8a71-24a816915d75","ios":"levelo://app?vid=b8c9bf89-df7f-4386-8a71-24a816915d75"},"vehicle_type_id":"4","last_reported":1685473499,"current_range_meters":10800,"station_id":"ce4bha12rcd13ifvqef0","pricing_plan_id":"free"},{"bike_id":"6d2aeebb-e01d-4eba-a263-ff954b9cd518","system_id":"levelo_inurba_marseille","lat":43.281044,"lon":5.378308,"is_reserved":false,"is_disabled":false,"rental_uris":{"android":"levelo://app?vid=6d2aeebb-e01d-4eba-a263-ff954b9cd518","ios":"levelo://app?vid=6d2aeebb-e01d-4eba-a263-ff954b9cd518"},"vehicle_type_id":"4","last_reported":1685473499,"current_range_meters":0,"station_id":"ce4bha12rcd13ifvqee0","pricing_plan_id":"free"},{"bike_id":"fa687e97-d02f-4e63-9bae-4043508c5750","system_id":"levelo_inurba_marseille","lat":43.28106,"lon":5.37832,"is_reserved":false,"is_disabled":false,"rental_uris":{"android":"levelo://app?vid=fa687e97-d02f-4e63-9bae-4043508c5750","ios":"levelo://app?vid=fa687e97-d02f-4e63-9bae-4043508c5750"},"vehicle_type_id":"4","last_reported":1685473499,"current_range_meters":18400,"station_id":"ce4bha12rcd13ifvqee0","pricing_plan_id":"free"},{"bike_id":"f4e9b45a-69d0-411d-afc6-6a5420a0527b","system_id":"levelo_inurba_marseille","lat":43.281044,"lon":5.378308,"is_reserved":false,"is_disabled":false,"rental_uris":{"android":"levelo://app?vid=f4e9b45a-69d0-411d-afc6-6a5420a0527b","ios":"levelo://app?vid=f4e9b45a-69d0-411d-afc6-6a5420a0527b"},"vehicle_type_id":"4","last_reported":1685473499,"current_range_meters":12400,"station_id":"ce4bha12rcd13ifvqee0","pricing_plan_id":"free"},{"bike_id":"3ced4edc-081b-4d71-b7a3-95ba36da78ab","system_id":"levelo_inurba_marseille","lat":43.281044,"lon":5.378308,"is_reserved":false,"is_disabled":false,"rental_uris":{"android":"levelo://app?vid=3ced4edc-081b-4d71-b7a3-95ba36da78ab","ios":"levelo://app?vid=3ced4edc-081b-4d71-b7a3-95ba36da78ab"},"vehicle_type_id":"4","last_reported":1685473499,"current_range_meters":9200,"station_id":"ce4bha12rcd13ifvqee0","pricing_plan_id":"free"},{"bike_id":"f94b4c92-14d8-4d0e-8ec4-1dca5a0a85f2","system_id":"levelo_inurba_marseille","lat":43.296263,"lon":5.40601,"is_reserved":false,"is_disabled":false,"rental_uris":{"android":"levelo://app?vid=f94b4c92-14d8-4d0e-8ec4-1dca5a0a85f2","ios":"levelo://app?vid=f94b4c92-14d8-4d0e-8ec4-1dca5a0a85f2"},"vehicle_type_id":"4","last_reported":1685473499,"current_range_meters":1200,"station_id":"ce4bh0h2rcd13ifvqd60","pricing_plan_id":"free"},{"bike_id":"b90ca2cf-8992-4012-8204-33fc6cf964ce","system_id":"levelo_inurba_marseille","lat":43.281044,"lon":5.378308,"is_reserved":false,"is_disabled":false,"rental_uris":{"android":"levelo://app?vid=b90ca2cf-8992-4012-8204-33fc6cf964ce","ios":"levelo://app?vid=b90ca2cf-8992-4012-8204-33fc6cf964ce"},"vehicle_type_id":"4","last_reported":1685473499,"current_range_meters":1600,"station_id":"ce4bha12rcd13ifvqee0","pricing_plan_id":"free"},{"bike_id":"9fe9cef6-8baf-4e93-8b97-09b8196fb8bf","system_id":"levelo_inurba_marseille","lat":43.284462,"lon":5.392121,"is_reserved":false,"is_disabled":false,"rental_uris":{"android":"levelo://app?vid=9fe9cef6-8baf-4e93-8b97-09b8196fb8bf","ios":"levelo://app?vid=9fe9cef6-8baf-4e93-8b97-09b8196fb8bf"},"vehicle_type_id":"4","last_reported":1685473499,"current_range_meters":6400,"station_id":"ce4bhoh2rcd13ifvqh5g","pricing_plan_id":"free"},{"bike_id":"6e252060-382c-4010-ac97-f27c35a6c767","system_id":"levelo_inurba_marseille","lat":43.28573,"lon":5.394992,"is_reserved":false,"is_disabled":false,"rental_uris":{"android":"levelo://app?vid=6e252060-382c-4010-ac97-f27c35a6c767","ios":"levelo://app?vid=6e252060-382c-4010-ac97-f27c35a6c767"},"vehicle_type_id":"4","last_reported":1685473499,"current_range_meters":11600,"station_id":"ce4bh292rcd13ifvqdg0","pricing_plan_id":"free"},{"bike_id":"cf0d91a5-6dde-482e-8ab4-562f65b82464","system_id":"levelo_inurba_marseille","lat":43.317121,"lon":5.423936,"is_reserved":false,"is_disabled":false,"rental_uris":{"android":"levelo://app?vid=cf0d91a5-6dde-482e-8ab4-562f65b82464","ios":"levelo://app?vid=cf0d91a5-6dde-482e-8ab4-562f65b82464"},"vehicle_type_id":"4","last_reported":1685473499,"current_range_meters":15200,"station_id":"ce4bhp92rcd13ifvqhbg","pricing_plan_id":"free"},{"bike_id":"84c18c90-4808-4d98-abd9-58d24c90a056","system_id":"levelo_inurba_marseille","lat":43.27902,"lon":5.38015,"is_reserved":false,"is_disabled":false,"rental_uris":{"android":"levelo://app?vid=84c18c90-4808-4d98-abd9-58d24c90a056","ios":"levelo://app?vid=84c18c90-4808-4d98-abd9-58d24c90a056"},"vehicle_type_id":"4","last_reported":1685473499,"current_range_meters":0,"station_id":"","pricing_plan_id":"free"},{"bike_id":"b14c79b2-c53e-4a09-925c-550f45dbfee2","system_id":"levelo_inurba_marseille","lat":43.320045,"lon":5.415048,"is_reserved":false,"is_disabled":false,"rental_uris":{"android":"levelo://app?vid=b14c79b2-c53e-4a09-925c-550f45dbfee2","ios":"levelo://app?vid=b14c79b2-c53e-4a09-925c-550f45dbfee2"},"vehicle_type_id":"4","last_reported":1685473499,"current_range_meters":7200,"station_id":"ce4bhq92rcd13ifvqhkg","pricing_plan_id":"free"},{"bike_id":"8a950c9a-f8e2-462b-8c59-09cce4c31d4b","system_id":"levelo_inurba_marseille","lat":43.292571,"lon":5.409107,"is_reserved":false,"is_disabled":false,"rental_uris":{"android":"levelo://app?vid=8a950c9a-f8e2-462b-8c59-09cce4c31d4b","ios":"levelo://app?vid=8a950c9a-f8e2-462b-8c59-09cce4c31d4b"},"vehicle_type_id":"4","last_reported":1685473499,"current_range_meters":28800,"station_id":"ce4bh192rcd13ifvqdc0","pricing_plan_id":"free"},{"bike_id":"266d9893-05d2-4396-898e-e7e1cf16caeb","system_id":"levelo_inurba_marseille","lat":43.292569,"lon":5.409107,"is_reserved":false,"is_disabled":false,"rental_uris":{"android":"levelo://app?vid=266d9893-05d2-4396-898e-e7e1cf16caeb","ios":"levelo://app?vid=266d9893-05d2-4396-898e-e7e1cf16caeb"},"vehicle_type_id":"4","last_reported":1685473499,"current_range_meters":31200,"station_id":"ce4bh192rcd13ifvqdc0","pricing_plan_id":"free"},{"bike_id":"08cd6e5b-93ea-4c18-ab97-6bdb89dfe26a","system_id":"levelo_inurba_marseille","lat":43.292569,"lon":5.409107,"is_reserved":false,"is_disabled":false,"rental_uris":{"android":"levelo://app?vid=08cd6e5b-93ea-4c18-ab97-6bdb89dfe26a","ios":"levelo://app?vid=08cd6e5b-93ea-4c18-ab97-6bdb89dfe26a"},"vehicle_type_id":"4","last_reported":1685473499,"current_range_meters":3600,"station_id":"ce4bh192rcd13ifvqdc0","pricing_plan_id":"free"},{"bike_id":"20607367-e347-4b4f-94d1-97eb93ff3678","system_id":"levelo_inurba_marseille","lat":43.292569,"lon":5.409107,"is_reserved":false,"is_disabled":false,"rental_uris":{"android":"levelo://app?vid=20607367-e347-4b4f-94d1-97eb93ff3678","ios":"levelo://app?vid=20607367-e347-4b4f-94d1-97eb93ff3678"},"vehicle_type_id":"4","last_reported":1685473499,"current_range_meters":18000,"station_id":"ce4bh192rcd13ifvqdc0","pricing_plan_id":"free"},{"bike_id":"0ef0ca67-dd22-49c0-a5e2-120c084df86b","system_id":"levelo_inurba_marseille","lat":43.325233,"lon":5.414318,"is_reserved":false,"is_disabled":false,"rental_uris":{"android":"levelo://app?vid=0ef0ca67-dd22-49c0-a5e2-120c084df86b","ios":"levelo://app?vid=0ef0ca67-dd22-49c0-a5e2-120c084df86b"},"vehicle_type_id":"4","last_reported":1685473499,"current_range_meters":10000,"station_id":"ce4bhq12rcd13ifvqhhg","pricing_plan_id":"free"},{"bike_id":"11cea34d-9f67-41b3-9da8-2ba1bf4b6cf8","system_id":"levelo_inurba_marseille","lat":43.30391,"lon":5.4184,"is_reserved":false,"is_disabled":false,"rental_uris":{"android":"levelo://app?vid=11cea34d-9f67-41b3-9da8-2ba1bf4b6cf8","ios":"levelo://app?vid=11cea34d-9f67-41b3-9da8-2ba1bf4b6cf8"},"vehicle_type_id":"4","last_reported":1685473499,"current_range_meters":14000,"station_id":"","pricing_plan_id":"free"},{"bike_id":"a60b39f8-f94b-4f52-bf55-2d4fb8a71c27","system_id":"levelo_inurba_marseille","lat":43.27665,"lon":5.38887,"is_reserved":false,"is_disabled":false,"rental_uris":{"android":"levelo://app?vid=a60b39f8-f94b-4f52-bf55-2d4fb8a71c27","ios":"levelo://app?vid=a60b39f8-f94b-4f52-bf55-2d4fb8a71c27"},"vehicle_type_id":"4","last_reported":1685473499,"current_range_meters":0,"station_id":"ce4bhi12rcd13ifvqfo0","pricing_plan_id":"free"},{"bike_id":"2249fa35-cd08-408d-a25a-bcbd8f5d7fe5","system_id":"levelo_inurba_marseille","lat":43.27662,"lon":5.38899,"is_reserved":false,"is_disabled":false,"rental_uris":{"android":"levelo://app?vid=2249fa35-cd08-408d-a25a-bcbd8f5d7fe5","ios":"levelo://app?vid=2249fa35-cd08-408d-a25a-bcbd8f5d7fe5"},"vehicle_type_id":"4","last_reported":1685473499,"current_range_meters":2800,"station_id":"ce4bhi12rcd13ifvqfo0","pricing_plan_id":"free"},{"bike_id":"231050dd-46d3-44a4-a5a9-ae2c24e4b9e4","system_id":"levelo_inurba_marseille","lat":43.310785,"lon":5.424305,"is_reserved":false,"is_disabled":false,"rental_uris":{"android":"levelo://app?vid=231050dd-46d3-44a4-a5a9-ae2c24e4b9e4","ios":"levelo://app?vid=231050dd-46d3-44a4-a5a9-ae2c24e4b9e4"},"vehicle_type_id":"4","last_reported":1685473499,"current_range_meters":16400,"station_id":"ce4bhp92rcd13ifvqhag","pricing_plan_id":"free"},{"bike_id":"886577f9-6371-42d5-bb55-797e5b8c8645","system_id":"levelo_inurba_marseille","lat":43.30377,"lon":5.42364,"is_reserved":false,"is_disabled":false,"rental_uris":{"android":"levelo://app?vid=886577f9-6371-42d5-bb55-797e5b8c8645","ios":"levelo://app?vid=886577f9-6371-42d5-bb55-797e5b8c8645"},"vehicle_type_id":"4","last_reported":1685473499,"current_range_meters":16800,"station_id":"","pricing_plan_id":"free"},{"bike_id":"9f902c86-87d2-4b92-a02e-072ee5859b99","system_id":"levelo_inurba_marseille","lat":43.272124,"lon":5.391768,"is_reserved":false,"is_disabled":false,"rental_uris":{"android":"levelo://app?vid=9f902c86-87d2-4b92-a02e-072ee5859b99","ios":"levelo://app?vid=9f902c86-87d2-4b92-a02e-072ee5859b99"},"vehicle_type_id":"4","last_reported":1685473499,"current_range_meters":18800,"station_id":"ce4bhhp2rcd13ifvqfm0","pricing_plan_id":"free"},{"bike_id":"c036648b-bf21-4ffb-9fe8-7b7a3137fb56","system_id":"levelo_inurba_marseille","lat":43.278128,"lon":5.407195,"is_reserved":false,"is_disabled":false,"rental_uris":{"android":"levelo://app?vid=c036648b-bf21-4ffb-9fe8-7b7a3137fb56","ios":"levelo://app?vid=c036648b-bf21-4ffb-9fe8-7b7a3137fb56"},"vehicle_type_id":"4","last_reported":1685473499,"current_range_meters":26000,"station_id":"ce4bhnh2rcd13ifvqgtg","pricing_plan_id":"free"},{"bike_id":"b45d1e35-e590-47b2-b0ba-2671e5f7d569","system_id":"levelo_inurba_marseille","lat":43.278128,"lon":5.407195,"is_reserved":false,"is_disabled":false,"rental_uris":{"android":"levelo://app?vid=b45d1e35-e590-47b2-b0ba-2671e5f7d569","ios":"levelo://app?vid=b45d1e35-e590-47b2-b0ba-2671e5f7d569"},"vehicle_type_id":"4","last_reported":1685473499,"current_range_meters":28000,"station_id":"ce4bhnh2rcd13ifvqgtg","pricing_plan_id":"free"},{"bike_id":"ae0cfc4e-022d-4b4e-8e28-9715ff3a6056","system_id":"levelo_inurba_marseille","lat":43.278128,"lon":5.407195,"is_reserved":false,"is_disabled":false,"rental_uris":{"android":"levelo://app?vid=ae0cfc4e-022d-4b4e-8e28-9715ff3a6056","ios":"levelo://app?vid=ae0cfc4e-022d-4b4e-8e28-9715ff3a6056"},"vehicle_type_id":"4","last_reported":1685473499,"current_range_meters":3200,"station_id":"ce4bhnh2rcd13ifvqgtg","pricing_plan_id":"free"},{"bike_id":"564ba7d5-b99a-4ba2-ad75-9f8224a30fc1","system_id":"levelo_inurba_marseille","lat":43.278128,"lon":5.407195,"is_reserved":false,"is_disabled":false,"rental_uris":{"android":"levelo://app?vid=564ba7d5-b99a-4ba2-ad75-9f8224a30fc1","ios":"levelo://app?vid=564ba7d5-b99a-4ba2-ad75-9f8224a30fc1"},"vehicle_type_id":"4","last_reported":1685473499,"current_range_meters":12400,"station_id":"ce4bhnh2rcd13ifvqgtg","pricing_plan_id":"free"},{"bike_id":"899afc57-85aa-41ff-bd99-b1729cc87d6d","system_id":"levelo_inurba_marseille","lat":43.278128,"lon":5.407195,"is_reserved":false,"is_disabled":false,"rental_uris":{"android":"levelo://app?vid=899afc57-85aa-41ff-bd99-b1729cc87d6d","ios":"levelo://app?vid=899afc57-85aa-41ff-bd99-b1729cc87d6d"},"vehicle_type_id":"4","last_reported":1685473499,"current_range_meters":1200,"station_id":"ce4bhnh2rcd13ifvqgtg","pricing_plan_id":"free"},{"bike_id":"4049d97a-cb99-4548-abfa-c7eb64d3bf61","system_id":"levelo_inurba_marseille","lat":43.278128,"lon":5.407195,"is_reserved":false,"is_disabled":false,"rental_uris":{"android":"levelo://app?vid=4049d97a-cb99-4548-abfa-c7eb64d3bf61","ios":"levelo://app?vid=4049d97a-cb99-4548-abfa-c7eb64d3bf61"},"vehicle_type_id":"4","last_reported":1685473499,"current_range_meters":10000,"station_id":"ce4bhnh2rcd13ifvqgtg","pricing_plan_id":"free"},{"bike_id":"d65d118c-c2fd-44b9-b4c0-75d9f4dabfe3","system_id":"levelo_inurba_marseille","lat":43.278128,"lon":5.407195,"is_reserved":false,"is_disabled":false,"rental_uris":{"android":"levelo://app?vid=d65d118c-c2fd-44b9-b4c0-75d9f4dabfe3","ios":"levelo://app?vid=d65d118c-c2fd-44b9-b4c0-75d9f4dabfe3"},"vehicle_type_id":"4","last_reported":1685473499,"current_range_meters":12400,"station_id":"ce4bhnh2rcd13ifvqgtg","pricing_plan_id":"free"},{"bike_id":"97f92444-dc7f-4ac8-885e-43ac50454dc0","system_id":"levelo_inurba_marseille","lat":43.31678,"lon":5.43336,"is_reserved":false,"is_disabled":false,"rental_uris":{"android":"levelo://app?vid=97f92444-dc7f-4ac8-885e-43ac50454dc0","ios":"levelo://app?vid=97f92444-dc7f-4ac8-885e-43ac50454dc0"},"vehicle_type_id":"4","last_reported":1685473499,"current_range_meters":0,"station_id":"","pricing_plan_id":"free"},{"bike_id":"837ecd9c-0123-4716-a2dc-fc636308d246","system_id":"levelo_inurba_marseille","lat":43.27992,"lon":5.41656,"is_reserved":false,"is_disabled":false,"rental_uris":{"android":"levelo://app?vid=837ecd9c-0123-4716-a2dc-fc636308d246","ios":"levelo://app?vid=837ecd9c-0123-4716-a2dc-fc636308d246"},"vehicle_type_id":"4","last_reported":1685473499,"current_range_meters":0,"station_id":"ce4bho12rcd13ifvqh1g","pricing_plan_id":"free"},{"bike_id":"cc71c384-37e7-47c5-a164-f33472906a42","system_id":"levelo_inurba_marseille","lat":43.27996,"lon":5.416624,"is_reserved":false,"is_disabled":false,"rental_uris":{"android":"levelo://app?vid=cc71c384-37e7-47c5-a164-f33472906a42","ios":"levelo://app?vid=cc71c384-37e7-47c5-a164-f33472906a42"},"vehicle_type_id":"4","last_reported":1685473499,"current_range_meters":2000,"station_id":"ce4bho12rcd13ifvqh1g","pricing_plan_id":"free"},{"bike_id":"d8942a0d-0d50-415c-b9bb-6bc4642b50f3","system_id":"levelo_inurba_marseille","lat":43.267966,"lon":5.393976,"is_reserved":false,"is_disabled":false,"rental_uris":{"android":"levelo://app?vid=d8942a0d-0d50-415c-b9bb-6bc4642b50f3","ios":"levelo://app?vid=d8942a0d-0d50-415c-b9bb-6bc4642b50f3"},"vehicle_type_id":"4","last_reported":1685473499,"current_range_meters":1200,"station_id":"ce4bhh12rcd13ifvqfg0","pricing_plan_id":"free"},{"bike_id":"3ef85089-ed95-438d-8548-fb14b111088f","system_id":"levelo_inurba_marseille","lat":43.267966,"lon":5.393976,"is_reserved":false,"is_disabled":false,"rental_uris":{"android":"levelo://app?vid=3ef85089-ed95-438d-8548-fb14b111088f","ios":"levelo://app?vid=3ef85089-ed95-438d-8548-fb14b111088f"},"vehicle_type_id":"4","last_reported":1685473499,"current_range_meters":7200,"station_id":"ce4bhh12rcd13ifvqfg0","pricing_plan_id":"free"},{"bike_id":"721e2602-bbd0-4f02-acfa-66ca36748cc1","system_id":"levelo_inurba_marseille","lat":43.26781,"lon":5.39416,"is_reserved":false,"is_disabled":false,"rental_uris":{"android":"levelo://app?vid=721e2602-bbd0-4f02-acfa-66ca36748cc1","ios":"levelo://app?vid=721e2602-bbd0-4f02-acfa-66ca36748cc1"},"vehicle_type_id":"4","last_reported":1685473499,"current_range_meters":3600,"station_id":"ce4bhh12rcd13ifvqfg0","pricing_plan_id":"free"},{"bike_id":"997416ca-e44f-4838-b9cc-4533182d3816","system_id":"levelo_inurba_marseille","lat":43.265571,"lon":5.390032,"is_reserved":false,"is_disabled":false,"rental_uris":{"android":"levelo://app?vid=997416ca-e44f-4838-b9cc-4533182d3816","ios":"levelo://app?vid=997416ca-e44f-4838-b9cc-4533182d3816"},"vehicle_type_id":"4","last_reported":1685473499,"current_range_meters":6000,"station_id":"ce4bhe12rcd13ifvqf30","pricing_plan_id":"free"},{"bike_id":"ad5ceaa5-9490-47a1-bb13-db986f077a0e","system_id":"levelo_inurba_marseille","lat":43.265569,"lon":5.390047,"is_reserved":false,"is_disabled":false,"rental_uris":{"android":"levelo://app?vid=ad5ceaa5-9490-47a1-bb13-db986f077a0e","ios":"levelo://app?vid=ad5ceaa5-9490-47a1-bb13-db986f077a0e"},"vehicle_type_id":"4","last_reported":1685473499,"current_range_meters":7600,"station_id":"ce4bhe12rcd13ifvqf30","pricing_plan_id":"free"},{"bike_id":"2fcc0c23-ac53-41eb-a2d4-d3336177ee7b","system_id":"levelo_inurba_marseille","lat":43.32308,"lon":5.43568,"is_reserved":false,"is_disabled":false,"rental_uris":{"android":"levelo://app?vid=2fcc0c23-ac53-41eb-a2d4-d3336177ee7b","ios":"levelo://app?vid=2fcc0c23-ac53-41eb-a2d4-d3336177ee7b"},"vehicle_type_id":"4","last_reported":1685473499,"current_range_meters":6000,"station_id":"","pricing_plan_id":"free"},{"bike_id":"1484fb73-ea82-4cbc-a93c-9b6c94228fc9","system_id":"levelo_inurba_marseille","lat":43.317104,"lon":5.436818,"is_reserved":false,"is_disabled":false,"rental_uris":{"android":"levelo://app?vid=1484fb73-ea82-4cbc-a93c-9b6c94228fc9","ios":"levelo://app?vid=1484fb73-ea82-4cbc-a93c-9b6c94228fc9"},"vehicle_type_id":"4","last_reported":1685473499,"current_range_meters":31200,"station_id":"ce4bhp92rcd13ifvqhcg","pricing_plan_id":"free"},{"bike_id":"4a131258-2410-400a-913c-8e930e5b8449","system_id":"levelo_inurba_marseille","lat":43.26202,"lon":5.379299,"is_reserved":false,"is_disabled":false,"rental_uris":{"android":"levelo://app?vid=4a131258-2410-400a-913c-8e930e5b8449","ios":"levelo://app?vid=4a131258-2410-400a-913c-8e930e5b8449"},"vehicle_type_id":"4","last_reported":1685473499,"current_range_meters":0,"station_id":"ce4bhjp2rcd13ifvqg90","pricing_plan_id":"free"},{"bike_id":"c02c6fbc-dc2f-41f4-ac00-eeed157be025","system_id":"levelo_inurba_marseille","lat":43.262012,"lon":5.379307,"is_reserved":false,"is_disabled":false,"rental_uris":{"android":"levelo://app?vid=c02c6fbc-dc2f-41f4-ac00-eeed157be025","ios":"levelo://app?vid=c02c6fbc-dc2f-41f4-ac00-eeed157be025"},"vehicle_type_id":"4","last_reported":1685473499,"current_range_meters":12800,"station_id":"ce4bhjp2rcd13ifvqg90","pricing_plan_id":"free"},{"bike_id":"ae11e11d-023d-49c6-bc00-320769cf65a0","system_id":"levelo_inurba_marseille","lat":43.26202,"lon":5.379299,"is_reserved":false,"is_disabled":false,"rental_uris":{"android":"levelo://app?vid=ae11e11d-023d-49c6-bc00-320769cf65a0","ios":"levelo://app?vid=ae11e11d-023d-49c6-bc00-320769cf65a0"},"vehicle_type_id":"4","last_reported":1685473499,"current_range_meters":800,"station_id":"ce4bhjp2rcd13ifvqg90","pricing_plan_id":"free"},{"bike_id":"70b32f93-9c97-45c8-a909-9998bd339929","system_id":"levelo_inurba_marseille","lat":43.27175,"lon":5.40991,"is_reserved":false,"is_disabled":false,"rental_uris":{"android":"levelo://app?vid=70b32f93-9c97-45c8-a909-9998bd339929","ios":"levelo://app?vid=70b32f93-9c97-45c8-a909-9998bd339929"},"vehicle_type_id":"4","last_reported":1685473499,"current_range_meters":30000,"station_id":"","pricing_plan_id":"free"},{"bike_id":"f22f7e44-aa2d-4864-9c71-c3848a626538","system_id":"levelo_inurba_marseille","lat":43.271368,"lon":5.40928,"is_reserved":false,"is_disabled":false,"rental_uris":{"android":"levelo://app?vid=f22f7e44-aa2d-4864-9c71-c3848a626538","ios":"levelo://app?vid=f22f7e44-aa2d-4864-9c71-c3848a626538"},"vehicle_type_id":"4","last_reported":1685473499,"current_range_meters":28000,"station_id":"ce4bhl12rcd13ifvqgf0","pricing_plan_id":"free"},{"bike_id":"71b45564-f0d2-4db0-8d05-6bce77de90cd","system_id":"levelo_inurba_marseille","lat":43.267959,"lon":5.402685,"is_reserved":false,"is_disabled":false,"rental_uris":{"android":"levelo://app?vid=71b45564-f0d2-4db0-8d05-6bce77de90cd","ios":"levelo://app?vid=71b45564-f0d2-4db0-8d05-6bce77de90cd"},"vehicle_type_id":"4","last_reported":1685473499,"current_range_meters":17600,"station_id":"ce501612rcd8frsf0b60","pricing_plan_id":"free"},{"bike_id":"ae9c8137-ab4d-47d8-883d-00ed67fe81bf","system_id":"levelo_inurba_marseille","lat":43.298768,"lon":5.43643,"is_reserved":false,"is_disabled":false,"rental_uris":{"android":"levelo://app?vid=ae9c8137-ab4d-47d8-883d-00ed67fe81bf","ios":"levelo://app?vid=ae9c8137-ab4d-47d8-883d-00ed67fe81bf"},"vehicle_type_id":"4","last_reported":1685473499,"current_range_meters":9600,"station_id":"ce4bhpp2rcd13ifvqhfg","pricing_plan_id":"free"},{"bike_id":"6b404443-757b-4b8d-9a78-a03ca59013fb","system_id":"levelo_inurba_marseille","lat":43.2592,"lon":5.37283,"is_reserved":false,"is_disabled":false,"rental_uris":{"android":"levelo://app?vid=6b404443-757b-4b8d-9a78-a03ca59013fb","ios":"levelo://app?vid=6b404443-757b-4b8d-9a78-a03ca59013fb"},"vehicle_type_id":"4","last_reported":1685473499,"current_range_meters":1600,"station_id":"","pricing_plan_id":"free"},{"bike_id":"9fa6cc56-5721-465e-ad71-9e2fb66bf1e7","system_id":"levelo_inurba_marseille","lat":43.26064,"lon":5.39393,"is_reserved":false,"is_disabled":false,"rental_uris":{"android":"levelo://app?vid=9fa6cc56-5721-465e-ad71-9e2fb66bf1e7","ios":"levelo://app?vid=9fa6cc56-5721-465e-ad71-9e2fb66bf1e7"},"vehicle_type_id":"4","last_reported":1685473499,"current_range_meters":11600,"station_id":"ce4bhh92rcd13ifvqfj0","pricing_plan_id":"free"},{"bike_id":"8f2f99f0-724c-46a2-a42d-32addbe3318c","system_id":"levelo_inurba_marseille","lat":43.255756,"lon":5.382303,"is_reserved":false,"is_disabled":false,"rental_uris":{"android":"levelo://app?vid=8f2f99f0-724c-46a2-a42d-32addbe3318c","ios":"levelo://app?vid=8f2f99f0-724c-46a2-a42d-32addbe3318c"},"vehicle_type_id":"4","last_reported":1685473499,"current_range_meters":15200,"station_id":"ce4bhih2rcd13ifvqfs0","pricing_plan_id":"free"},{"bike_id":"04a3ffc4-d3c1-4338-90f7-b28fdd4ad489","system_id":"levelo_inurba_marseille","lat":43.25582,"lon":5.38223,"is_reserved":false,"is_disabled":false,"rental_uris":{"android":"levelo://app?vid=04a3ffc4-d3c1-4338-90f7-b28fdd4ad489","ios":"levelo://app?vid=04a3ffc4-d3c1-4338-90f7-b28fdd4ad489"},"vehicle_type_id":"4","last_reported":1685473499,"current_range_meters":2400,"station_id":"ce4bhih2rcd13ifvqfs0","pricing_plan_id":"free"},{"bike_id":"0c8f8ae6-14b9-4dd1-ad4b-525284e1fb1c","system_id":"levelo_inurba_marseille","lat":43.255756,"lon":5.382303,"is_reserved":false,"is_disabled":false,"rental_uris":{"android":"levelo://app?vid=0c8f8ae6-14b9-4dd1-ad4b-525284e1fb1c","ios":"levelo://app?vid=0c8f8ae6-14b9-4dd1-ad4b-525284e1fb1c"},"vehicle_type_id":"4","last_reported":1685473499,"current_range_meters":15600,"station_id":"ce4bhih2rcd13ifvqfs0","pricing_plan_id":"free"},{"bike_id":"06b2d97a-29be-4af7-be34-a8d80d2cc3f5","system_id":"levelo_inurba_marseille","lat":43.25581,"lon":5.38235,"is_reserved":false,"is_disabled":false,"rental_uris":{"android":"levelo://app?vid=06b2d97a-29be-4af7-be34-a8d80d2cc3f5","ios":"levelo://app?vid=06b2d97a-29be-4af7-be34-a8d80d2cc3f5"},"vehicle_type_id":"4","last_reported":1685473499,"current_range_meters":29200,"station_id":"ce4bhih2rcd13ifvqfs0","pricing_plan_id":"free"},{"bike_id":"7cb57cc4-cf08-4b00-a31c-c1120bb4079c","system_id":"levelo_inurba_marseille","lat":43.255756,"lon":5.382303,"is_reserved":false,"is_disabled":false,"rental_uris":{"android":"levelo://app?vid=7cb57cc4-cf08-4b00-a31c-c1120bb4079c","ios":"levelo://app?vid=7cb57cc4-cf08-4b00-a31c-c1120bb4079c"},"vehicle_type_id":"4","last_reported":1685473499,"current_range_meters":25600,"station_id":"ce4bhih2rcd13ifvqfs0","pricing_plan_id":"free"},{"bike_id":"4a4dc7a4-29f7-4aa0-8553-612d1c2534da","system_id":"levelo_inurba_marseille","lat":43.255756,"lon":5.382303,"is_reserved":false,"is_disabled":false,"rental_uris":{"android":"levelo://app?vid=4a4dc7a4-29f7-4aa0-8553-612d1c2534da","ios":"levelo://app?vid=4a4dc7a4-29f7-4aa0-8553-612d1c2534da"},"vehicle_type_id":"4","last_reported":1685473499,"current_range_meters":20800,"station_id":"ce4bhih2rcd13ifvqfs0","pricing_plan_id":"free"},{"bike_id":"8bcd3a58-2fcc-47be-866c-07219827b9dc","system_id":"levelo_inurba_marseille","lat":43.255756,"lon":5.382303,"is_reserved":false,"is_disabled":false,"rental_uris":{"android":"levelo://app?vid=8bcd3a58-2fcc-47be-866c-07219827b9dc","ios":"levelo://app?vid=8bcd3a58-2fcc-47be-866c-07219827b9dc"},"vehicle_type_id":"4","last_reported":1685473499,"current_range_meters":32000,"station_id":"ce4bhih2rcd13ifvqfs0","pricing_plan_id":"free"},{"bike_id":"3d475e0a-4dbd-479e-9f63-5d84abe8825d","system_id":"levelo_inurba_marseille","lat":43.255756,"lon":5.382303,"is_reserved":false,"is_disabled":false,"rental_uris":{"android":"levelo://app?vid=3d475e0a-4dbd-479e-9f63-5d84abe8825d","ios":"levelo://app?vid=3d475e0a-4dbd-479e-9f63-5d84abe8825d"},"vehicle_type_id":"4","last_reported":1685473499,"current_range_meters":20400,"station_id":"ce4bhih2rcd13ifvqfs0","pricing_plan_id":"free"},{"bike_id":"cbb73234-299a-4fbc-8f5f-a9cab6f2fb4f","system_id":"levelo_inurba_marseille","lat":43.25576,"lon":5.38225,"is_reserved":false,"is_disabled":false,"rental_uris":{"android":"levelo://app?vid=cbb73234-299a-4fbc-8f5f-a9cab6f2fb4f","ios":"levelo://app?vid=cbb73234-299a-4fbc-8f5f-a9cab6f2fb4f"},"vehicle_type_id":"4","last_reported":1685473499,"current_range_meters":8400,"station_id":"ce4bhih2rcd13ifvqfs0","pricing_plan_id":"free"},{"bike_id":"cd954ec5-1016-4bec-9bad-1120f7865ede","system_id":"levelo_inurba_marseille","lat":43.25574,"lon":5.38226,"is_reserved":false,"is_disabled":false,"rental_uris":{"android":"levelo://app?vid=cd954ec5-1016-4bec-9bad-1120f7865ede","ios":"levelo://app?vid=cd954ec5-1016-4bec-9bad-1120f7865ede"},"vehicle_type_id":"4","last_reported":1685473499,"current_range_meters":29600,"station_id":"ce4bhih2rcd13ifvqfs0","pricing_plan_id":"free"},{"bike_id":"c03baa94-c906-412c-a142-198995cd6176","system_id":"levelo_inurba_marseille","lat":43.259013,"lon":5.409301,"is_reserved":false,"is_disabled":false,"rental_uris":{"android":"levelo://app?vid=c03baa94-c906-412c-a142-198995cd6176","ios":"levelo://app?vid=c03baa94-c906-412c-a142-198995cd6176"},"vehicle_type_id":"4","last_reported":1685473499,"current_range_meters":6000,"station_id":"ce4bhm92rcd13ifvqglg","pricing_plan_id":"free"},{"bike_id":"5bcfc73e-00a9-4dcc-81da-eb153cabd9f2","system_id":"levelo_inurba_marseille","lat":43.259013,"lon":5.409301,"is_reserved":false,"is_disabled":false,"rental_uris":{"android":"levelo://app?vid=5bcfc73e-00a9-4dcc-81da-eb153cabd9f2","ios":"levelo://app?vid=5bcfc73e-00a9-4dcc-81da-eb153cabd9f2"},"vehicle_type_id":"4","last_reported":1685473499,"current_range_meters":16000,"station_id":"ce4bhm92rcd13ifvqglg","pricing_plan_id":"free"},{"bike_id":"841f1318-77c5-4f4f-9060-08da964d399f","system_id":"levelo_inurba_marseille","lat":43.25713,"lon":5.41107,"is_reserved":false,"is_disabled":false,"rental_uris":{"android":"levelo://app?vid=841f1318-77c5-4f4f-9060-08da964d399f","ios":"levelo://app?vid=841f1318-77c5-4f4f-9060-08da964d399f"},"vehicle_type_id":"4","last_reported":1685473499,"current_range_meters":12000,"station_id":"","pricing_plan_id":"free"},{"bike_id":"47abf1e8-3d32-4dfa-9ce5-c756190f6bbc","system_id":"levelo_inurba_marseille","lat":43.2501,"lon":5.38919,"is_reserved":false,"is_disabled":false,"rental_uris":{"android":"levelo://app?vid=47abf1e8-3d32-4dfa-9ce5-c756190f6bbc","ios":"levelo://app?vid=47abf1e8-3d32-4dfa-9ce5-c756190f6bbc"},"vehicle_type_id":"4","last_reported":1685473499,"current_range_meters":11600,"station_id":"ce4bhgp2rcd13ifvqfd0","pricing_plan_id":"free"},{"bike_id":"23342561-5564-4d9e-82b7-0fbd0ef74f6d","system_id":"levelo_inurba_marseille","lat":43.24811,"lon":5.37459,"is_reserved":false,"is_disabled":false,"rental_uris":{"android":"levelo://app?vid=23342561-5564-4d9e-82b7-0fbd0ef74f6d","ios":"levelo://app?vid=23342561-5564-4d9e-82b7-0fbd0ef74f6d"},"vehicle_type_id":"4","last_reported":1685473499,"current_range_meters":0,"station_id":"ce4bhgh2rcd13ifvqfb0","pricing_plan_id":"free"},{"bike_id":"3b5f4299-4af2-4708-a050-42af06ed47ef","system_id":"levelo_inurba_marseille","lat":43.24809,"lon":5.37458,"is_reserved":false,"is_disabled":false,"rental_uris":{"android":"levelo://app?vid=3b5f4299-4af2-4708-a050-42af06ed47ef","ios":"levelo://app?vid=3b5f4299-4af2-4708-a050-42af06ed47ef"},"vehicle_type_id":"4","last_reported":1685473499,"current_range_meters":6400,"station_id":"ce4bhgh2rcd13ifvqfb0","pricing_plan_id":"free"},{"bike_id":"c030f08c-ef1d-42ed-9568-71f0aabe59cd","system_id":"levelo_inurba_marseille","lat":43.2479,"lon":5.374457,"is_reserved":false,"is_disabled":false,"rental_uris":{"android":"levelo://app?vid=c030f08c-ef1d-42ed-9568-71f0aabe59cd","ios":"levelo://app?vid=c030f08c-ef1d-42ed-9568-71f0aabe59cd"},"vehicle_type_id":"4","last_reported":1685473499,"current_range_meters":20400,"station_id":"ce4bhgh2rcd13ifvqfb0","pricing_plan_id":"free"},{"bike_id":"43efb1d1-db84-4b33-b1ec-dc4392491fb0","system_id":"levelo_inurba_marseille","lat":43.24801,"lon":5.37456,"is_reserved":false,"is_disabled":false,"rental_uris":{"android":"levelo://app?vid=43efb1d1-db84-4b33-b1ec-dc4392491fb0","ios":"levelo://app?vid=43efb1d1-db84-4b33-b1ec-dc4392491fb0"},"vehicle_type_id":"4","last_reported":1685473499,"current_range_meters":29600,"station_id":"ce4bhgh2rcd13ifvqfb0","pricing_plan_id":"free"},{"bike_id":"d969743b-f160-4bf3-aa89-96c68ce29f1e","system_id":"levelo_inurba_marseille","lat":43.25092,"lon":5.39507,"is_reserved":false,"is_disabled":false,"rental_uris":{"android":"levelo://app?vid=d969743b-f160-4bf3-aa89-96c68ce29f1e","ios":"levelo://app?vid=d969743b-f160-4bf3-aa89-96c68ce29f1e"},"vehicle_type_id":"4","last_reported":1685473499,"current_range_meters":0,"station_id":"ce4bhm12rcd13ifvqgkg","pricing_plan_id":"free"},{"bike_id":"1da69418-76e1-42ee-8dca-59306bc6a5fe","system_id":"levelo_inurba_marseille","lat":43.250966,"lon":5.395186,"is_reserved":false,"is_disabled":false,"rental_uris":{"android":"levelo://app?vid=1da69418-76e1-42ee-8dca-59306bc6a5fe","ios":"levelo://app?vid=1da69418-76e1-42ee-8dca-59306bc6a5fe"},"vehicle_type_id":"4","last_reported":1685473499,"current_range_meters":23200,"station_id":"ce4bhm12rcd13ifvqgkg","pricing_plan_id":"free"},{"bike_id":"ab55fed1-2aca-40f5-93e0-203288ab99e9","system_id":"levelo_inurba_marseille","lat":43.24693,"lon":5.382096,"is_reserved":false,"is_disabled":false,"rental_uris":{"android":"levelo://app?vid=ab55fed1-2aca-40f5-93e0-203288ab99e9","ios":"levelo://app?vid=ab55fed1-2aca-40f5-93e0-203288ab99e9"},"vehicle_type_id":"4","last_reported":1685473499,"current_range_meters":10000,"station_id":"ce4bhih2rcd13ifvqfr0","pricing_plan_id":"free"},