{"last_updated":1690823171,"ttl":30,"version":"2.2","data":{"bikes":[{"bike_id":"708c25a9-115d-45a2-8108-145c2288fd64","system_id":"levelo_inurba_marseille","lat":43.31337,"lon":5.36709,"is_reserved":false,"is_disabled":false,"rental_uris":{"android":"levelo://app?vid=708c25a9-115d-45a2-8108-145c2288fd64","ios":"levelo://app?vid=708c25a9-115d-45a2-8108-145c2288fd64"},"vehicle_type_id":"4","last_reported":1690823171,"current_range_meters":23600,"station_id":"ce4bgr92rcd13ifvqc6g","pricing_plan_id":"free"},{"bike_id":"4d6c73b3-c72e-4983-8329-e37adba18a5a","system_id":"levelo_inurba_marseille","lat":43.31353,"lon":5.36684,"is_reserved":false,"is_disabled":false,"rental_uris":{"android":"levelo://app?vid=4d6c73b3-c72e-4983-8329-e37adba18a5a","ios":"levelo://app?vid=4d6c73b3-c72e-4983-8329-e37adba18a5a"},"vehicle_type_id":"4","last_reported":1690823171,"current_range_meters":9600,"station_id":"ce4bgr92rcd13ifvqc6g","pricing_plan_id":"free"},{"bike_id":"5db50b8b-555a-49b2-8d66-e15b8be12869","system_id":"levelo_inurba_marseille","lat":43.312239,"lon":5.368562,"is_reserved":false,"is_disabled":false,"rental_uris":{"android":"levelo://app?vid=5db50b8b-555a-49b2-8d66-e15b8be12869","ios":"levelo://app?vid=5db50b8b-555a-49b2-8d66-e15b8be12869"},"vehicle_type_id":"4","last_reported":1690823171,"current_range_meters":13200,"station_id":"ce4bgl92rcd13ifvqbq0","pricing_plan_id":"free"},{"bike_id":"e526d4e2-849c-44ae-a0d7-5572a62df909","system_id":"levelo_inurba_marseille","lat":43.312142,"lon":5.368604,"is_reserved":false,"is_disabled":false,"rental_uris":{"android":"levelo://app?vid=e526d4e2-849c-44ae-a0d7-5572a62df909","ios":"levelo://app?vid=e526d4e2-849c-44ae-a0d7-5572a62df909"},"vehicle_type_id":"4","last_reported":1690823171,"current_range_meters":18000,"station_id":"ce4bgl92rcd13ifvqbq0","pricing_plan_id":"free"},{"bike_id":"17e7d265-4a86-413f-a1e4-36ca55e50c5e","system_id":"levelo_inurba_marseille","lat":43.3082,"lon":5.36605,"is_reserved":false,"is_disabled":false,"rental_uris":{"android":"levelo://app?vid=17e7d265-4a86-413f-a1e4-36ca55e50c5e","ios":"levelo://app?vid=17e7d265-4a86-413f-a1e4-36ca55e50c5e"},"vehicle_type_id":"4","last_reported":1690823171,"current_range_meters":30400,"station_id":"","pricing_plan_id":"free"},{"bike_id":"de236f4b-fcd7-4f7c-b8bf-5bcb01457c49","system_id":"levelo_inurba_marseille","lat":43.314811,"lon":5.373103,"is_reserved":false,"is_disabled":false,"rental_uris":{"android":"levelo://app?vid=de236f4b-fcd7-4f7c-b8bf-5bcb01457c49","ios":"levelo://app?vid=de236f4b-fcd7-4f7c-b8bf-5bcb01457c49"},"vehicle_type_id":"4","last_reported":1690823171,"current_range_meters":26800,"station_id":"ce4bgt12rcd13ifvqcd0","pricing_plan_id":"free"},{"bike_id":"a77429cc-cfdc-4c9d-9540-748edb4792bf","system_id":"levelo_inurba_marseille","lat":43.309039,"lon":5.371797,"is_reserved":false,"is_disabled":false,"rental_uris":{"android":"levelo://app?vid=a77429cc-cfdc-4c9d-9540-748edb4792bf","ios":"levelo://app?vid=a77429cc-cfdc-4c9d-9540-748edb4792bf"},"vehicle_type_id":"4","last_reported":1690823171,"current_range_meters":18400,"station_id":"ce4bguh2rcd13ifvqckg","pricing_plan_id":"free"},{"bike_id":"f98c244a-9348-4646-bb55-fbffddefc91e","system_id":"levelo_inurba_marseille","lat":43.30672,"lon":5.3658,"is_reserved":false,"is_disabled":false,"rental_uris":{"android":"levelo://app?vid=f98c244a-9348-4646-bb55-fbffddefc91e","ios":"levelo://app?vid=f98c244a-9348-4646-bb55-fbffddefc91e"},"vehicle_type_id":"4","last_reported":1690823171,"current_range_meters":4000,"station_id":"","pricing_plan_id":"free"},{"bike_id":"d09408d7-f73f-4ce8-a214-a36d20b53ecb","system_id":"levelo_inurba_marseille","lat":43.305712,"lon":5.365641,"is_reserved":false,"is_disabled":false,"rental_uris":{"android":"levelo://app?vid=d09408d7-f73f-4ce8-a214-a36d20b53ecb","ios":"levelo://app?vid=d09408d7-f73f-4ce8-a214-a36d20b53ecb"},"vehicle_type_id":"4","last_reported":1690823171,"current_range_meters":31600,"station_id":"ce4bgs12rcd13ifvqcag","pricing_plan_id":"free"},{"bike_id":"9e54a715-6f82-4509-86ee-009ecfb1bc4f","system_id":"levelo_inurba_marseille","lat":43.305458,"lon":5.367281,"is_reserved":false,"is_disabled":false,"rental_uris":{"android":"levelo://app?vid=9e54a715-6f82-4509-86ee-009ecfb1bc4f","ios":"levelo://app?vid=9e54a715-6f82-4509-86ee-009ecfb1bc4f"},"vehicle_type_id":"4","last_reported":1690823171,"current_range_meters":5600,"station_id":"ce4bgrp2rcd13ifvqc9g","pricing_plan_id":"free"},{"bike_id":"b284f377-3d7e-4a0a-9ff0-74c4192fbf85","system_id":"levelo_inurba_marseille","lat":43.30546,"lon":5.36556,"is_reserved":false,"is_disabled":false,"rental_uris":{"android":"levelo://app?vid=b284f377-3d7e-4a0a-9ff0-74c4192fbf85","ios":"levelo://app?vid=b284f377-3d7e-4a0a-9ff0-74c4192fbf85"},"vehicle_type_id":"4","last_reported":1690823171,"current_range_meters":19200,"station_id":"ce4bgs12rcd13ifvqcag","pricing_plan_id":"free"},{"bike_id":"35e7ed86-0de9-4432-b0ac-de2e5870356b","system_id":"levelo_inurba_marseille","lat":43.305706,"lon":5.365654,"is_reserved":false,"is_disabled":false,"rental_uris":{"android":"levelo://app?vid=35e7ed86-0de9-4432-b0ac-de2e5870356b","ios":"levelo://app?vid=35e7ed86-0de9-4432-b0ac-de2e5870356b"},"vehicle_type_id":"4","last_reported":1690823171,"current_range_meters":24400,"station_id":"ce4bgs12rcd13ifvqcag","pricing_plan_id":"free"},{"bike_id":"92dc2cfc-fec3-4954-aa14-082a6b513a82","system_id":"levelo_inurba_marseille","lat":43.30531,"lon":5.36704,"is_reserved":false,"is_disabled":false,"rental_uris":{"android":"levelo://app?vid=92dc2cfc-fec3-4954-aa14-082a6b513a82","ios":"levelo://app?vid=92dc2cfc-fec3-4954-aa14-082a6b513a82"},"vehicle_type_id":"4","last_reported":1690823171,"current_range_meters":27600,"station_id":"ce4bgrp2rcd13ifvqc9g","pricing_plan_id":"free"},{"bike_id":"2b2ed753-d875-4b2b-a716-8753c35a5885","system_id":"levelo_inurba_marseille","lat":43.305989,"lon":5.37225,"is_reserved":false,"is_disabled":false,"rental_uris":{"android":"levelo://app?vid=2b2ed753-d875-4b2b-a716-8753c35a5885","ios":"levelo://app?vid=2b2ed753-d875-4b2b-a716-8753c35a5885"},"vehicle_type_id":"4","last_reported":1690823171,"current_range_meters":18400,"station_id":"ce4bgqh2rcd13ifvqc4g","pricing_plan_id":"free"},{"bike_id":"f20ea888-8740-440b-bfeb-8eb2a7c1f652","system_id":"levelo_inurba_marseille","lat":43.305989,"lon":5.37225,"is_reserved":false,"is_disabled":false,"rental_uris":{"android":"levelo://app?vid=f20ea888-8740-440b-bfeb-8eb2a7c1f652","ios":"levelo://app?vid=f20ea888-8740-440b-bfeb-8eb2a7c1f652"},"vehicle_type_id":"4","last_reported":1690823171,"current_range_meters":30000,"station_id":"ce4bgqh2rcd13ifvqc4g","pricing_plan_id":"free"},{"bike_id":"d606bd71-29c9-4eb5-b78e-2021fee692b4","system_id":"levelo_inurba_marseille","lat":43.305989,"lon":5.37225,"is_reserved":false,"is_disabled":false,"rental_uris":{"android":"levelo://app?vid=d606bd71-29c9-4eb5-b78e-2021fee692b4","ios":"levelo://app?vid=d606bd71-29c9-4eb5-b78e-2021fee692b4"},"vehicle_type_id":"4","last_reported":1690823171,"current_range_meters":25600,"station_id":"ce4bgqh2rcd13ifvqc4g","pricing_plan_id":"free"},{"bike_id":"75b9d0a6-3057-44d3-b0c4-7ebcbb39e39d","system_id":"levelo_inurba_marseille","lat":43.311125,"lon":5.377624,"is_reserved":false,"is_disabled":false,"rental_uris":{"android":"levelo://app?vid=75b9d0a6-3057-44d3-b0c4-7ebcbb39e39d","ios":"levelo://app?vid=75b9d0a6-3057-44d3-b0c4-7ebcbb39e39d"},"vehicle_type_id":"4","last_reported":1690823171,"current_range_meters":22400,"station_id":"ce4bgt92rcd13ifvqcg0","pricing_plan_id":"free"},{"bike_id":"64e44361-d8fb-4ea3-974e-cc25800a9b96","system_id":"levelo_inurba_marseille","lat":43.30785,"lon":5.37645,"is_reserved":false,"is_disabled":false,"rental_uris":{"android":"levelo://app?vid=64e44361-d8fb-4ea3-974e-cc25800a9b96","ios":"levelo://app?vid=64e44361-d8fb-4ea3-974e-cc25800a9b96"},"vehicle_type_id":"4","last_reported":1690823171,"current_range_meters":21200,"station_id":"ce4bgv92rcd13ifvqcq0","pricing_plan_id":"free"},{"bike_id":"c044ed21-8120-4a3f-9cdd-78baa0a98f14","system_id":"levelo_inurba_marseille","lat":43.317075,"lon":5.377367,"is_reserved":false,"is_disabled":false,"rental_uris":{"android":"levelo://app?vid=c044ed21-8120-4a3f-9cdd-78baa0a98f14","ios":"levelo://app?vid=c044ed21-8120-4a3f-9cdd-78baa0a98f14"},"vehicle_type_id":"4","last_reported":1690823171,"current_range_meters":12400,"station_id":"ce4bgth2rcd13ifvqch0","pricing_plan_id":"free"},{"bike_id":"d7584995-9aa1-4985-a220-6b8151de438e","system_id":"levelo_inurba_marseille","lat":43.311125,"lon":5.377624,"is_reserved":false,"is_disabled":false,"rental_uris":{"android":"levelo://app?vid=d7584995-9aa1-4985-a220-6b8151de438e","ios":"levelo://app?vid=d7584995-9aa1-4985-a220-6b8151de438e"},"vehicle_type_id":"4","last_reported":1690823171,"current_range_meters":23200,"station_id":"ce4bgt92rcd13ifvqcg0","pricing_plan_id":"free"},{"bike_id":"00ae8bb9-9956-442d-9507-fea46c65ac63","system_id":"levelo_inurba_marseille","lat":43.30304,"lon":5.36871,"is_reserved":false,"is_disabled":false,"rental_uris":{"android":"levelo://app?vid=00ae8bb9-9956-442d-9507-fea46c65ac63","ios":"levelo://app?vid=00ae8bb9-9956-442d-9507-fea46c65ac63"},"vehicle_type_id":"4","last_reported":1690823171,"current_range_meters":13200,"station_id":"ce4bgqh2rcd13ifvqc5g","pricing_plan_id":"free"},{"bike_id":"31a41a71-5bf4-471c-b93e-8f017946fa68","system_id":"levelo_inurba_marseille","lat":43.31529,"lon":5.38035,"is_reserved":false,"is_disabled":false,"rental_uris":{"android":"levelo://app?vid=31a41a71-5bf4-471c-b93e-8f017946fa68","ios":"levelo://app?vid=31a41a71-5bf4-471c-b93e-8f017946fa68"},"vehicle_type_id":"4","last_reported":1690823171,"current_range_meters":14800,"station_id":"ce4bhsp2rcd13ifvqi50","pricing_plan_id":"free"},{"bike_id":"f0889daf-bb88-449d-b12c-0c40d0f4e3e3","system_id":"levelo_inurba_marseille","lat":43.308011,"lon":5.381382,"is_reserved":false,"is_disabled":false,"rental_uris":{"android":"levelo://app?vid=f0889daf-bb88-449d-b12c-0c40d0f4e3e3","ios":"levelo://app?vid=f0889daf-bb88-449d-b12c-0c40d0f4e3e3"},"vehicle_type_id":"4","last_reported":1690823171,"current_range_meters":12800,"station_id":"ce4bgt12rcd13ifvqce0","pricing_plan_id":"free"},{"bike_id":"05a2c728-2fb9-4bb7-8ede-d07788ed84ac","system_id":"levelo_inurba_marseille","lat":43.304606,"lon":5.379026,"is_reserved":false,"is_disabled":false,"rental_uris":{"android":"levelo://app?vid=05a2c728-2fb9-4bb7-8ede-d07788ed84ac","ios":"levelo://app?vid=05a2c728-2fb9-4bb7-8ede-d07788ed84ac"},"vehicle_type_id":"4","last_reported":1690823171,"current_range_meters":21200,"station_id":"ce4bgup2rcd13ifvqcn0","pricing_plan_id":"free"},{"bike_id":"dbed1bc2-fe39-48e6-a411-0b21a1aec3bc","system_id":"levelo_inurba_marseille","lat":43.30459,"lon":5.37909,"is_reserved":false,"is_disabled":false,"rental_uris":{"android":"levelo://app?vid=dbed1bc2-fe39-48e6-a411-0b21a1aec3bc","ios":"levelo://app?vid=dbed1bc2-fe39-48e6-a411-0b21a1aec3bc"},"vehicle_type_id":"4","last_reported":1690823171,"current_range_meters":28000,"station_id":"","pricing_plan_id":"free"},{"bike_id":"c22183f8-b239-471b-8889-3e8c2d76abbb","system_id":"levelo_inurba_marseille","lat":43.304606,"lon":5.379026,"is_reserved":false,"is_disabled":false,"rental_uris":{"android":"levelo://app?vid=c22183f8-b239-471b-8889-3e8c2d76abbb","ios":"levelo://app?vid=c22183f8-b239-471b-8889-3e8c2d76abbb"},"vehicle_type_id":"4","last_reported":1690823171,"current_range_meters":13600,"station_id":"ce4bgup2rcd13ifvqcn0","pricing_plan_id":"free"},{"bike_id":"3c6f11e1-2931-456e-911f-0dbc874858e0","system_id":"levelo_inurba_marseille","lat":43.302784,"lon":5.377158,"is_reserved":false,"is_disabled":false,"rental_uris":{"android":"levelo://app?vid=3c6f11e1-2931-456e-911f-0dbc874858e0","ios":"levelo://app?vid=3c6f11e1-2931-456e-911f-0dbc874858e0"},"vehicle_type_id":"4","last_reported":1690823171,"current_range_meters":22800,"station_id":"ce4bguh2rcd13ifvqcj0","pricing_plan_id":"free"},{"bike_id":"af4abbff-8fc3-4ca8-a9db-d343ffcbeeea","system_id":"levelo_inurba_marseille","lat":43.298433,"lon":5.362774,"is_reserved":false,"is_disabled":false,"rental_uris":{"android":"levelo://app?vid=af4abbff-8fc3-4ca8-a9db-d343ffcbeeea","ios":"levelo://app?vid=af4abbff-8fc3-4ca8-a9db-d343ffcbeeea"},"vehicle_type_id":"4","last_reported":1690823171,"current_range_meters":1200,"station_id":"ce4bgpp2rcd13ifvqc3g","pricing_plan_id":"free"},{"bike_id":"30537d43-af02-4a10-b928-7b9b8cf633d2","system_id":"levelo_inurba_marseille","lat":43.30533,"lon":5.38423,"is_reserved":false,"is_disabled":false,"rental_uris":{"android":"levelo://app?vid=30537d43-af02-4a10-b928-7b9b8cf633d2","ios":"levelo://app?vid=30537d43-af02-4a10-b928-7b9b8cf633d2"},"vehicle_type_id":"4","last_reported":1690823171,"current_range_meters":29200,"station_id":"ce4bgg92rcd13ifvqb30","pricing_plan_id":"free"},{"bike_id":"82f1e03d-e4c3-4aac-b6f0-c9fc3950fe62","system_id":"levelo_inurba_marseille","lat":43.322919,"lon":5.382674,"is_reserved":false,"is_disabled":false,"rental_uris":{"android":"levelo://app?vid=82f1e03d-e4c3-4aac-b6f0-c9fc3950fe62","ios":"levelo://app?vid=82f1e03d-e4c3-4aac-b6f0-c9fc3950fe62"},"vehicle_type_id":"4","last_reported":1690823171,"current_range_meters":16000,"station_id":"","pricing_plan_id":"free"},{"bike_id":"79bf6da4-5f08-488b-96b1-6e23f74ec5ec","system_id":"levelo_inurba_marseille","lat":43.32293,"lon":5.38274,"is_reserved":false,"is_disabled":false,"rental_uris":{"android":"levelo://app?vid=79bf6da4-5f08-488b-96b1-6e23f74ec5ec","ios":"levelo://app?vid=79bf6da4-5f08-488b-96b1-6e23f74ec5ec"},"vehicle_type_id":"4","last_reported":1690823171,"current_range_meters":28000,"station_id":"ce4bhr12rcd13ifvqhqg","pricing_plan_id":"free"},{"bike_id":"9415d978-2564-41e1-bf0c-bf78154b02ce","system_id":"levelo_inurba_marseille","lat":43.322872,"lon":5.382756,"is_reserved":false,"is_disabled":false,"rental_uris":{"android":"levelo://app?vid=9415d978-2564-41e1-bf0c-bf78154b02ce","ios":"levelo://app?vid=9415d978-2564-41e1-bf0c-bf78154b02ce"},"vehicle_type_id":"4","last_reported":1690823171,"current_range_meters":18400,"station_id":"ce4bhr12rcd13ifvqhqg","pricing_plan_id":"free"},{"bike_id":"711b5568-f412-46f6-b2c1-6b25a217636a","system_id":"levelo_inurba_marseille","lat":43.3229,"lon":5.38279,"is_reserved":false,"is_disabled":false,"rental_uris":{"android":"levelo://app?vid=711b5568-f412-46f6-b2c1-6b25a217636a","ios":"levelo://app?vid=711b5568-f412-46f6-b2c1-6b25a217636a"},"vehicle_type_id":"4","last_reported":1690823171,"current_range_meters":2800,"station_id":"ce4bhr12rcd13ifvqhqg","pricing_plan_id":"free"},{"bike_id":"dd789220-e7b5-42c1-b9dc-dc4243148021","system_id":"levelo_inurba_marseille","lat":43.297163,"lon":5.365866,"is_reserved":false,"is_disabled":false,"rental_uris":{"android":"levelo://app?vid=dd789220-e7b5-42c1-b9dc-dc4243148021","ios":"levelo://app?vid=dd789220-e7b5-42c1-b9dc-dc4243148021"},"vehicle_type_id":"4","last_reported":1690823171,"current_range_meters":31200,"station_id":"ce4bgn12rcd13ifvqbt0","pricing_plan_id":"free"},{"bike_id":"6e2ecb45-9d47-4c78-839f-879a3de42c45","system_id":"levelo_inurba_marseille","lat":43.3283,"lon":5.36681,"is_reserved":false,"is_disabled":false,"rental_uris":{"android":"levelo://app?vid=6e2ecb45-9d47-4c78-839f-879a3de42c45","ios":"levelo://app?vid=6e2ecb45-9d47-4c78-839f-879a3de42c45"},"vehicle_type_id":"4","last_reported":1690823171,"current_range_meters":21200,"station_id":"ce4bhs92rcd13ifvqi0g","pricing_plan_id":"free"},{"bike_id":"61b39c43-398d-4345-ae6b-a312757f2f03","system_id":"levelo_inurba_marseille","lat":43.32832,"lon":5.36686,"is_reserved":false,"is_disabled":false,"rental_uris":{"android":"levelo://app?vid=61b39c43-398d-4345-ae6b-a312757f2f03","ios":"levelo://app?vid=61b39c43-398d-4345-ae6b-a312757f2f03"},"vehicle_type_id":"4","last_reported":1690823171,"current_range_meters":22800,"station_id":"ce4bhs92rcd13ifvqi0g","pricing_plan_id":"free"},{"bike_id":"8b6d5493-c7aa-4d05-b9ba-2de7f4b0a1a2","system_id":"levelo_inurba_marseille","lat":43.328371,"lon":5.366909,"is_reserved":false,"is_disabled":false,"rental_uris":{"android":"levelo://app?vid=8b6d5493-c7aa-4d05-b9ba-2de7f4b0a1a2","ios":"levelo://app?vid=8b6d5493-c7aa-4d05-b9ba-2de7f4b0a1a2"},"vehicle_type_id":"4","last_reported":1690823171,"current_range_meters":8000,"station_id":"ce4bhs92rcd13ifvqi0g","pricing_plan_id":"free"},{"bike_id":"452cfc60-de17-4e32-8e61-affb2816010a","system_id":"levelo_inurba_marseille","lat":43.32841,"lon":5.36676,"is_reserved":false,"is_disabled":false,"rental_uris":{"android":"levelo://app?vid=452cfc60-de17-4e32-8e61-affb2816010a","ios":"levelo://app?vid=452cfc60-de17-4e32-8e61-affb2816010a"},"vehicle_type_id":"4","last_reported":1690823171,"current_range_meters":31200,"station_id":"ce4bhs92rcd13ifvqi0g","pricing_plan_id":"free"},{"bike_id":"cedf7db1-245f-433b-8254-7c571e50c3f9","system_id":"levelo_inurba_marseille","lat":43.299028,"lon":5.381509,"is_reserved":false,"is_disabled":false,"rental_uris":{"android":"levelo://app?vid=cedf7db1-245f-433b-8254-7c571e50c3f9","ios":"levelo://app?vid=cedf7db1-245f-433b-8254-7c571e50c3f9"},"vehicle_type_id":"4","last_reported":1690823171,"current_range_meters":6400,"station_id":"ce4bgj12rcd13ifvqbc0","pricing_plan_id":"free"},{"bike_id":"d0b364a0-c5ac-41b1-8f6d-7d40c028e1e5","system_id":"levelo_inurba_marseille","lat":43.299028,"lon":5.381509,"is_reserved":false,"is_disabled":false,"rental_uris":{"android":"levelo://app?vid=d0b364a0-c5ac-41b1-8f6d-7d40c028e1e5","ios":"levelo://app?vid=d0b364a0-c5ac-41b1-8f6d-7d40c028e1e5"},"vehicle_type_id":"4","last_reported":1690823171,"current_range_meters":28400,"station_id":"ce4bgj12rcd13ifvqbc0","pricing_plan_id":"free"},{"bike_id":"c2555a44-3516-43ea-98cb-540653029fec","system_id":"levelo_inurba_marseille","lat":43.299028,"lon":5.381509,"is_reserved":false,"is_disabled":false,"rental_uris":{"android":"levelo://app?vid=c2555a44-3516-43ea-98cb-540653029fec","ios":"levelo://app?vid=c2555a44-3516-43ea-98cb-540653029fec"},"vehicle_type_id":"4","last_reported":1690823171,"current_range_meters":24000,"station_id":"ce4bgj12rcd13ifvqbc0","pricing_plan_id":"free"},{"bike_id":"35e15f2d-206c-458a-95bb-2ea47b499adf","system_id":"levelo_inurba_marseille","lat":43.299028,"lon":5.381509,"is_reserved":false,"is_disabled":false,"rental_uris":{"android":"levelo://app?vid=35e15f2d-206c-458a-95bb-2ea47b499adf","ios":"levelo://app?vid=35e15f2d-206c-458a-95bb-2ea47b499adf"},"vehicle_type_id":"4","last_reported":1690823171,"current_range_meters":0,"station_id":"ce4bgj12rcd13ifvqbc0","pricing_plan_id":"free"},{"bike_id":"f0b1921d-8fc5-42f6-8214-26455e772ce5","system_id":"levelo_inurba_marseille","lat":43.30959,"lon":5.39029,"is_reserved":false,"is_disabled":false,"rental_uris":{"android":"levelo://app?vid=f0b1921d-8fc5-42f6-8214-26455e772ce5","ios":"levelo://app?vid=f0b1921d-8fc5-42f6-8214-26455e772ce5"},"vehicle_type_id":"4","last_reported":1690823171,"current_range_meters":24000,"station_id":"ce4bgup2rcd13ifvqco0","pricing_plan_id":"free"},{"bike_id":"0605b832-8806-4282-853c-7457a223b8af","system_id":"levelo_inurba_marseille","lat":43.296921,"lon":5.376579,"is_reserved":false,"is_disabled":false,"rental_uris":{"android":"levelo://app?vid=0605b832-8806-4282-853c-7457a223b8af","ios":"levelo://app?vid=0605b832-8806-4282-853c-7457a223b8af"},"vehicle_type_id":"4","last_reported":1690823171,"current_range_meters":7600,"station_id":"ce4bgkh2rcd13ifvqbl0","pricing_plan_id":"free"},{"bike_id":"f4cbcbd2-5e66-42e0-85eb-61b2ae435a7b","system_id":"levelo_inurba_marseille","lat":43.295757,"lon":5.37527,"is_reserved":false,"is_disabled":false,"rental_uris":{"android":"levelo://app?vid=f4cbcbd2-5e66-42e0-85eb-61b2ae435a7b","ios":"levelo://app?vid=f4cbcbd2-5e66-42e0-85eb-61b2ae435a7b"},"vehicle_type_id":"4","last_reported":1690823171,"current_range_meters":6800,"station_id":"ce4bgh92rcd13ifvqb50","pricing_plan_id":"free"},{"bike_id":"3ccbb383-e328-4f95-b0f5-f5214d25bed7","system_id":"levelo_inurba_marseille","lat":43.30422,"lon":5.3888,"is_reserved":false,"is_disabled":false,"rental_uris":{"android":"levelo://app?vid=3ccbb383-e328-4f95-b0f5-f5214d25bed7","ios":"levelo://app?vid=3ccbb383-e328-4f95-b0f5-f5214d25bed7"},"vehicle_type_id":"4","last_reported":1690823171,"current_range_meters":25600,"station_id":"ce4bgk12rcd13ifvqbi0","pricing_plan_id":"free"},{"bike_id":"b84eaa3d-f08c-4153-a1d8-4a7c9b6cfb48","system_id":"levelo_inurba_marseille","lat":43.295748,"lon":5.37522,"is_reserved":false,"is_disabled":false,"rental_uris":{"android":"levelo://app?vid=b84eaa3d-f08c-4153-a1d8-4a7c9b6cfb48","ios":"levelo://app?vid=b84eaa3d-f08c-4153-a1d8-4a7c9b6cfb48"},"vehicle_type_id":"4","last_reported":1690823171,"current_range_meters":14400,"station_id":"ce4bgh92rcd13ifvqb50","pricing_plan_id":"free"},{"bike_id":"fe435370-19ca-428f-ae77-a660cfae61ab","system_id":"levelo_inurba_marseille","lat":43.295279,"lon":5.375048,"is_reserved":false,"is_disabled":false,"rental_uris":{"android":"levelo://app?vid=fe435370-19ca-428f-ae77-a660cfae61ab","ios":"levelo://app?vid=fe435370-19ca-428f-ae77-a660cfae61ab"},"vehicle_type_id":"4","last_reported":1690823171,"current_range_meters":3200,"station_id":"ce4bgkp2rcd13ifvqbmg","pricing_plan_id":"free"},{"bike_id":"6545920c-fb35-4832-8ee5-da137f30f45d","system_id":"levelo_inurba_marseille","lat":43.29602,"lon":5.381084,"is_reserved":false,"is_disabled":false,"rental_uris":{"android":"levelo://app?vid=6545920c-fb35-4832-8ee5-da137f30f45d","ios":"levelo://app?vid=6545920c-fb35-4832-8ee5-da137f30f45d"},"vehicle_type_id":"4","last_reported":1690823171,"current_range_meters":4800,"station_id":"ce4bgl12rcd13ifvqbo0","pricing_plan_id":"free"},{"bike_id":"55aa8156-d89b-4624-9c73-4eb4043a6cf9","system_id":"levelo_inurba_marseille","lat":43.305994,"lon":5.393687,"is_reserved":false,"is_disabled":false,"rental_uris":{"android":"levelo://app?vid=55aa8156-d89b-4624-9c73-4eb4043a6cf9","ios":"levelo://app?vid=55aa8156-d89b-4624-9c73-4eb4043a6cf9"},"vehicle_type_id":"4","last_reported":1690823171,"current_range_meters":25600,"station_id":"ce4bh0p2rcd13ifvqd80","pricing_plan_id":"free"},{"bike_id":"4bce2f84-40c8-405a-9209-a81417744bbe","system_id":"levelo_inurba_marseille","lat":43.305994,"lon":5.393687,"is_reserved":false,"is_disabled":false,"rental_uris":{"android":"levelo://app?vid=4bce2f84-40c8-405a-9209-a81417744bbe","ios":"levelo://app?vid=4bce2f84-40c8-405a-9209-a81417744bbe"},"vehicle_type_id":"4","last_reported":1690823171,"current_range_meters":26400,"station_id":"ce4bh0p2rcd13ifvqd80","pricing_plan_id":"free"},{"bike_id":"cdf9278a-4c2b-4a08-ae80-5782f6054d89","system_id":"levelo_inurba_marseille","lat":43.302992,"lon":5.392136,"is_reserved":false,"is_disabled":false,"rental_uris":{"android":"levelo://app?vid=cdf9278a-4c2b-4a08-ae80-5782f6054d89","ios":"levelo://app?vid=cdf9278a-4c2b-4a08-ae80-5782f6054d89"},"vehicle_type_id":"4","last_reported":1690823171,"current_range_meters":19200,"station_id":"ce4bgkh2rcd13ifvqbk0","pricing_plan_id":"free"},{"bike_id":"c25a8337-882c-46d6-8af5-9dcff76c1eaf","system_id":"levelo_inurba_marseille","lat":43.2936,"lon":5.37835,"is_reserved":false,"is_disabled":false,"rental_uris":{"android":"levelo://app?vid=c25a8337-882c-46d6-8af5-9dcff76c1eaf","ios":"levelo://app?vid=c25a8337-882c-46d6-8af5-9dcff76c1eaf"},"vehicle_type_id":"4","last_reported":1690823171,"current_range_meters":4400,"station_id":"ce4bgjh2rcd13ifvqbf0","pricing_plan_id":"free"},{"bike_id":"8be2ebd3-98e5-4246-8e24-01e26991e03c","system_id":"levelo_inurba_marseille","lat":43.292311,"lon":5.360731,"is_reserved":false,"is_disabled":false,"rental_uris":{"android":"levelo://app?vid=8be2ebd3-98e5-4246-8e24-01e26991e03c","ios":"levelo://app?vid=8be2ebd3-98e5-4246-8e24-01e26991e03c"},"vehicle_type_id":"4","last_reported":1690823171,"current_range_meters":22800,"station_id":"ce4bhbh2rcd13ifvqeqg","pricing_plan_id":"free"},{"bike_id":"a3bbef7e-5248-4b60-8ecd-a2103630cf29","system_id":"levelo_inurba_marseille","lat":43.30104,"lon":5.39088,"is_reserved":false,"is_disabled":false,"rental_uris":{"android":"levelo://app?vid=a3bbef7e-5248-4b60-8ecd-a2103630cf29","ios":"levelo://app?vid=a3bbef7e-5248-4b60-8ecd-a2103630cf29"},"vehicle_type_id":"4","last_reported":1690823171,"current_range_meters":15200,"station_id":"ce4bh192rcd13ifvqdb0","pricing_plan_id":"free"},{"bike_id":"fb4eb391-cd71-48af-ab14-b8f8eddde6da","system_id":"levelo_inurba_marseille","lat":43.292663,"lon":5.376389,"is_reserved":false,"is_disabled":false,"rental_uris":{"android":"levelo://app?vid=fb4eb391-cd71-48af-ab14-b8f8eddde6da","ios":"levelo://app?vid=fb4eb391-cd71-48af-ab14-b8f8eddde6da"},"vehicle_type_id":"4","last_reported":1690823171,"current_range_meters":18000,"station_id":"ce4bgi12rcd13ifvqb80","pricing_plan_id":"free"},{"bike_id":"6b6ae652-dfd8-4ef0-8029-e2b87a9471da","system_id":"levelo_inurba_marseille","lat":43.291671,"lon":5.371575,"is_reserved":false,"is_disabled":false,"rental_uris":{"android":"levelo://app?vid=6b6ae652-dfd8-4ef0-8029-e2b87a9471da","ios":"levelo://app?vid=6b6ae652-dfd8-4ef0-8029-e2b87a9471da"},"vehicle_type_id":"4","last_reported":1690823171,"current_range_meters":27600,"station_id":"ce4bha92rcd13ifvqeh0","pricing_plan_id":"free"},{"bike_id":"66598ecb-ed46-4d83-90c2-98eb122323b8","system_id":"levelo_inurba_marseille","lat":43.291671,"lon":5.371575,"is_reserved":false,"is_disabled":false,"rental_uris":{"android":"levelo://app?vid=66598ecb-ed46-4d83-90c2-98eb122323b8","ios":"levelo://app?vid=66598ecb-ed46-4d83-90c2-98eb122323b8"},"vehicle_type_id":"4","last_reported":1690823171,"current_range_meters":17600,"station_id":"ce4bha92rcd13ifvqeh0","pricing_plan_id":"free"},{"bike_id":"bece33f2-9aaf-4985-9e07-5017766e4fba","system_id":"levelo_inurba_marseille","lat":43.292208,"lon":5.357924,"is_reserved":false,"is_disabled":false,"rental_uris":{"android":"levelo://app?vid=bece33f2-9aaf-4985-9e07-5017766e4fba","ios":"levelo://app?vid=bece33f2-9aaf-4985-9e07-5017766e4fba"},"vehicle_type_id":"4","last_reported":1690823171,"current_range_meters":12000,"station_id":"ce4bhb12rcd13ifvqel0","pricing_plan_id":"free"},{"bike_id":"48ca99b2-d032-42ca-95a1-5a717f04616c","system_id":"levelo_inurba_marseille","lat":43.29206,"lon":5.35798,"is_reserved":false,"is_disabled":false,"rental_uris":{"android":"levelo://app?vid=48ca99b2-d032-42ca-95a1-5a717f04616c","ios":"levelo://app?vid=48ca99b2-d032-42ca-95a1-5a717f04616c"},"vehicle_type_id":"4","last_reported":1690823171,"current_range_meters":15200,"station_id":"ce4bhb12rcd13ifvqel0","pricing_plan_id":"free"},{"bike_id":"8a8a0400-547f-4e98-8555-f8d886068159","system_id":"levelo_inurba_marseille","lat":43.29204,"lon":5.35794,"is_reserved":false,"is_disabled":false,"rental_uris":{"android":"levelo://app?vid=8a8a0400-547f-4e98-8555-f8d886068159","ios":"levelo://app?vid=8a8a0400-547f-4e98-8555-f8d886068159"},"vehicle_type_id":"4","last_reported":1690823171,"current_range_meters":16800,"station_id":"ce4bhb12rcd13ifvqel0","pricing_plan_id":"free"},{"bike_id":"f29fbabf-4195-4a21-a766-d9b1132f3572","system_id":"levelo_inurba_marseille","lat":43.29198,"lon":5.358,"is_reserved":false,"is_disabled":false,"rental_uris":{"android":"levelo://app?vid=f29fbabf-4195-4a21-a766-d9b1132f3572","ios":"levelo://app?vid=f29fbabf-4195-4a21-a766-d9b1132f3572"},"vehicle_type_id":"4","last_reported":1690823171,"current_range_meters":8400,"station_id":"ce4bhb12rcd13ifvqel0","pricing_plan_id":"free"},{"bike_id":"9128dccd-252b-4f4a-8670-2c1f44c11eb7","system_id":"levelo_inurba_marseille","lat":43.291961,"lon":5.358019,"is_reserved":false,"is_disabled":false,"rental_uris":{"android":"levelo://app?vid=9128dccd-252b-4f4a-8670-2c1f44c11eb7","ios":"levelo://app?vid=9128dccd-252b-4f4a-8670-2c1f44c11eb7"},"vehicle_type_id":"4","last_reported":1690823171,"current_range_meters":0,"station_id":"ce4bhb12rcd13ifvqel0","pricing_plan_id":"free"},{"bike_id":"df2ba20e-f3d2-4ad4-a987-8d5f28625f03","system_id":"levelo_inurba_marseille","lat":43.29192,"lon":5.35806,"is_reserved":false,"is_disabled":false,"rental_uris":{"android":"levelo://app?vid=df2ba20e-f3d2-4ad4-a987-8d5f28625f03","ios":"levelo://app?vid=df2ba20e-f3d2-4ad4-a987-8d5f28625f03"},"vehicle_type_id":"4","last_reported":1690823171,"current_range_meters":13600,"station_id":"ce4bhb12rcd13ifvqel0","pricing_plan_id":"free"},{"bike_id":"bff99b33-af15-48a8-a1c6-c54197ce0182","system_id":"levelo_inurba_marseille","lat":43.309038,"lon":5.396546,"is_reserved":false,"is_disabled":false,"rental_uris":{"android":"levelo://app?vid=bff99b33-af15-48a8-a1c6-c54197ce0182","ios":"levelo://app?vid=bff99b33-af15-48a8-a1c6-c54197ce0182"},"vehicle_type_id":"4","last_reported":1690823171,"current_range_meters":18400,"station_id":"ce4bh012rcd13ifvqcv0","pricing_plan_id":"free"},{"bike_id":"048846d8-2ec4-4a10-85b3-1d15428f096c","system_id":"levelo_inurba_marseille","lat":43.309038,"lon":5.396546,"is_reserved":false,"is_disabled":false,"rental_uris":{"android":"levelo://app?vid=048846d8-2ec4-4a10-85b3-1d15428f096c","ios":"levelo://app?vid=048846d8-2ec4-4a10-85b3-1d15428f096c"},"vehicle_type_id":"4","last_reported":1690823171,"current_range_meters":800,"station_id":"ce4bh012rcd13ifvqcv0","pricing_plan_id":"free"},{"bike_id":"4cd31508-90fe-42cf-973c-47a443a1b508","system_id":"levelo_inurba_marseille","lat":43.313291,"lon":5.396838,"is_reserved":false,"is_disabled":false,"rental_uris":{"android":"levelo://app?vid=4cd31508-90fe-42cf-973c-47a443a1b508","ios":"levelo://app?vid=4cd31508-90fe-42cf-973c-47a443a1b508"},"vehicle_type_id":"4","last_reported":1690823171,"current_range_meters":22800,"station_id":"ce4bgvp2rcd13ifvqcu0","pricing_plan_id":"free"},{"bike_id":"0747d783-0bff-4085-a7b6-ff07aa30957d","system_id":"levelo_inurba_marseille","lat":43.290631,"lon":5.359244,"is_reserved":false,"is_disabled":false,"rental_uris":{"android":"levelo://app?vid=0747d783-0bff-4085-a7b6-ff07aa30957d","ios":"levelo://app?vid=0747d783-0bff-4085-a7b6-ff07aa30957d"},"vehicle_type_id":"4","last_reported":1690823171,"current_range_meters":21200,"station_id":"ce4bha92rcd13ifvqeg0","pricing_plan_id":"free"},{"bike_id":"1c699e8c-ec81-45ac-9553-1dbf6a58fbaf","system_id":"levelo_inurba_marseille","lat":43.29042,"lon":5.35915,"is_reserved":false,"is_disabled":false,"rental_uris":{"android":"levelo://app?vid=1c699e8c-ec81-45ac-9553-1dbf6a58fbaf","ios":"levelo://app?vid=1c699e8c-ec81-45ac-9553-1dbf6a58fbaf"},"vehicle_type_id":"4","last_reported":1690823171,"current_range_meters":1600,"station_id":"","pricing_plan_id":"free"},{"bike_id":"af7b0d22-d9ca-4e60-9c84-471b2caef65c","system_id":"levelo_inurba_marseille","lat":43.290624,"lon":5.359245,"is_reserved":false,"is_disabled":false,"rental_uris":{"android":"levelo://app?vid=af7b0d22-d9ca-4e60-9c84-471b2caef65c","ios":"levelo://app?vid=af7b0d22-d9ca-4e60-9c84-471b2caef65c"},"vehicle_type_id":"4","last_reported":1690823171,"current_range_meters":30000,"station_id":"ce4bha92rcd13ifvqeg0","pricing_plan_id":"free"},{"bike_id":"15b60d48-899b-4cd3-9389-1214988f046e","system_id":"levelo_inurba_marseille","lat":43.290327,"lon":5.375711,"is_reserved":false,"is_disabled":false,"rental_uris":{"android":"levelo://app?vid=15b60d48-899b-4cd3-9389-1214988f046e","ios":"levelo://app?vid=15b60d48-899b-4cd3-9389-1214988f046e"},"vehicle_type_id":"4","last_reported":1690823171,"current_range_meters":19600,"station_id":"ce4bh692rcd13ifvqe90","pricing_plan_id":"free"},{"bike_id":"33a9bacf-aed1-417f-aa0d-5226a11f18fe","system_id":"levelo_inurba_marseille","lat":43.294153,"lon":5.386305,"is_reserved":false,"is_disabled":false,"rental_uris":{"android":"levelo://app?vid=33a9bacf-aed1-417f-aa0d-5226a11f18fe","ios":"levelo://app?vid=33a9bacf-aed1-417f-aa0d-5226a11f18fe"},"vehicle_type_id":"4","last_reported":1690823171,"current_range_meters":14800,"station_id":"ce4bh2h2rcd13ifvqdh0","pricing_plan_id":"free"},{"bike_id":"8e932ec7-8721-4c7c-b29d-fc797338266b","system_id":"levelo_inurba_marseille","lat":43.289184,"lon":5.366408,"is_reserved":false,"is_disabled":false,"rental_uris":{"android":"levelo://app?vid=8e932ec7-8721-4c7c-b29d-fc797338266b","ios":"levelo://app?vid=8e932ec7-8721-4c7c-b29d-fc797338266b"},"vehicle_type_id":"4","last_reported":1690823171,"current_range_meters":18400,"station_id":"ce4bhap2rcd13ifvqek0","pricing_plan_id":"free"},{"bike_id":"c8104d16-f8e4-4159-9154-eca244901283","system_id":"levelo_inurba_marseille","lat":43.289184,"lon":5.366408,"is_reserved":false,"is_disabled":false,"rental_uris":{"android":"levelo://app?vid=c8104d16-f8e4-4159-9154-eca244901283","ios":"levelo://app?vid=c8104d16-f8e4-4159-9154-eca244901283"},"vehicle_type_id":"4","last_reported":1690823171,"current_range_meters":16800,"station_id":"ce4bhap2rcd13ifvqek0","pricing_plan_id":"free"},{"bike_id":"cc2ee932-bffd-486b-968e-585ac389112c","system_id":"levelo_inurba_marseille","lat":43.289184,"lon":5.366408,"is_reserved":false,"is_disabled":false,"rental_uris":{"android":"levelo://app?vid=cc2ee932-bffd-486b-968e-585ac389112c","ios":"levelo://app?vid=cc2ee932-bffd-486b-968e-585ac389112c"},"vehicle_type_id":"4","last_reported":1690823171,"current_range_meters":24400,"station_id":"ce4bhap2rcd13ifvqek0","pricing_plan_id":"free"},{"bike_id":"53d27011-84dd-4403-aa9d-9b93b62f507e","system_id":"levelo_inurba_marseille","lat":43.289184,"lon":5.366408,"is_reserved":false,"is_disabled":false,"rental_uris":{"android":"levelo://app?vid=53d27011-84dd-4403-aa9d-9b93b62f507e","ios":"levelo://app?vid=53d27011-84dd-4403-aa9d-9b93b62f507e"},"vehicle_type_id":"4","last_reported":1690823171,"current_range_meters":0,"station_id":"ce4bhap2rcd13ifvqek0","pricing_plan_id":"free"},{"bike_id":"2040d58b-c5c6-4292-a35d-1be34c7c531c","system_id":"levelo_inurba_marseille","lat":43.289468,"lon":5.363719,"is_reserved":false,"is_disabled":false,"rental_uris":{"android":"levelo://app?vid=2040d58b-c5c6-4292-a35d-1be34c7c531c","ios":"levelo://app?vid=2040d58b-c5c6-4292-a35d-1be34c7c531c"},"vehicle_type_id":"4","last_reported":1690823171,"current_range_meters":12400,"station_id":"ce4bhc92rcd13ifvqetg","pricing_plan_id":"free"},{"bike_id":"70d4b72b-5bad-4a6a-bef1-3492ec886777","system_id":"levelo_inurba_marseille","lat":43.289468,"lon":5.363719,"is_reserved":false,"is_disabled":false,"rental_uris":{"android":"levelo://app?vid=70d4b72b-5bad-4a6a-bef1-3492ec886777","ios":"levelo://app?vid=70d4b72b-5bad-4a6a-bef1-3492ec886777"},"vehicle_type_id":"4","last_reported":1690823171,"current_range_meters":21200,"station_id":"ce4bhc92rcd13ifvqetg","pricing_plan_id":"free"},{"bike_id":"128a9437-021c-41af-8749-a89af03db27e","system_id":"levelo_inurba_marseille","lat":43.289468,"lon":5.363719,"is_reserved":false,"is_disabled":false,"rental_uris":{"android":"levelo://app?vid=128a9437-021c-41af-8749-a89af03db27e","ios":"levelo://app?vid=128a9437-021c-41af-8749-a89af03db27e"},"vehicle_type_id":"4","last_reported":1690823171,"current_range_meters":27200,"station_id":"ce4bhc92rcd13ifvqetg","pricing_plan_id":"free"},{"bike_id":"ee2982c5-8aa8-4dd6-b10d-a59717fa279e","system_id":"levelo_inurba_marseille","lat":43.290104,"lon":5.356111,"is_reserved":false,"is_disabled":false,"rental_uris":{"android":"levelo://app?vid=ee2982c5-8aa8-4dd6-b10d-a59717fa279e","ios":"levelo://app?vid=ee2982c5-8aa8-4dd6-b10d-a59717fa279e"},"vehicle_type_id":"4","last_reported":1690823171,"current_range_meters":10800,"station_id":"ce4bhb92rcd13ifvqen0","pricing_plan_id":"free"},{"bike_id":"22aae021-8d25-4065-b813-c43cb410fb40","system_id":"levelo_inurba_marseille","lat":43.290104,"lon":5.356111,"is_reserved":false,"is_disabled":false,"rental_uris":{"android":"levelo://app?vid=22aae021-8d25-4065-b813-c43cb410fb40","ios":"levelo://app?vid=22aae021-8d25-4065-b813-c43cb410fb40"},"vehicle_type_id":"4","last_reported":1690823171,"current_range_meters":17200,"station_id":"ce4bhb92rcd13ifvqen0","pricing_plan_id":"free"},{"bike_id":"8ed0f67c-530e-4f07-ae6f-8b8e85a70e44","system_id":"levelo_inurba_marseille","lat":43.290103,"lon":5.356114,"is_reserved":false,"is_disabled":false,"rental_uris":{"android":"levelo://app?vid=8ed0f67c-530e-4f07-ae6f-8b8e85a70e44","ios":"levelo://app?vid=8ed0f67c-530e-4f07-ae6f-8b8e85a70e44"},"vehicle_type_id":"4","last_reported":1690823171,"current_range_meters":24400,"station_id":"ce4bhb92rcd13ifvqen0","pricing_plan_id":"free"},{"bike_id":"90a1a68f-5e38-41da-b78c-77ff4020fce6","system_id":"levelo_inurba_marseille","lat":43.33045,"lon":5.38911,"is_reserved":false,"is_disabled":false,"rental_uris":{"android":"levelo://app?vid=90a1a68f-5e38-41da-b78c-77ff4020fce6","ios":"levelo://app?vid=90a1a68f-5e38-41da-b78c-77ff4020fce6"},"vehicle_type_id":"4","last_reported":1690823171,"current_range_meters":31200,"station_id":"ce4bhr92rcd13ifvqhrg","pricing_plan_id":"free"},{"bike_id":"020b8f4a-4996-409f-883b-5761c4356500","system_id":"levelo_inurba_marseille","lat":43.290104,"lon":5.356111,"is_reserved":false,"is_disabled":false,"rental_uris":{"android":"levelo://app?vid=020b8f4a-4996-409f-883b-5761c4356500","ios":"levelo://app?vid=020b8f4a-4996-409f-883b-5761c4356500"},"vehicle_type_id":"4","last_reported":1690823171,"current_range_meters":3200,"station_id":"ce4bhb92rcd13ifvqen0","pricing_plan_id":"free"},{"bike_id":"eaedf039-f64c-404c-b9e5-da7806a08e94","system_id":"levelo_inurba_marseille","lat":43.290104,"lon":5.356111,"is_reserved":false,"is_disabled":false,"rental_uris":{"android":"levelo://app?vid=eaedf039-f64c-404c-b9e5-da7806a08e94","ios":"levelo://app?vid=eaedf039-f64c-404c-b9e5-da7806a08e94"},"vehicle_type_id":"4","last_reported":1690823171,"current_range_meters":20800,"station_id":"ce4bhb92rcd13ifvqen0","pricing_plan_id":"free"},{"bike_id":"b3845fef-fed0-4a84-a686-5d5767d6e9ec","system_id":"levelo_inurba_marseille","lat":43.290104,"lon":5.356111,"is_reserved":false,"is_disabled":false,"rental_uris":{"android":"levelo://app?vid=b3845fef-fed0-4a84-a686-5d5767d6e9ec","ios":"levelo://app?vid=b3845fef-fed0-4a84-a686-5d5767d6e9ec"},"vehicle_type_id":"4","last_reported":1690823171,"current_range_meters":24800,"station_id":"ce4bhb92rcd13ifvqen0","pricing_plan_id":"free"},{"bike_id":"33679209-2aa5-405b-ad0a-c5fe9ac9981c","system_id":"levelo_inurba_marseille","lat":43.290103,"lon":5.356114,"is_reserved":false,"is_disabled":false,"rental_uris":{"android":"levelo://app?vid=33679209-2aa5-405b-ad0a-c5fe9ac9981c","ios":"levelo://app?vid=33679209-2aa5-405b-ad0a-c5fe9ac9981c"},"vehicle_type_id":"4","last_reported":1690823171,"current_range_meters":13200,"station_id":"ce4bhb92rcd13ifvqen0","pricing_plan_id":"free"},{"bike_id":"19b41b24-6455-4d12-883e-07661df2854c","system_id":"levelo_inurba_marseille","lat":43.33047,"lon":5.38914,"is_reserved":false,"is_disabled":false,"rental_uris":{"android":"levelo://app?vid=19b41b24-6455-4d12-883e-07661df2854c","ios":"levelo://app?vid=19b41b24-6455-4d12-883e-07661df2854c"},"vehicle_type_id":"4","last_reported":1690823171,"current_range_meters":31200,"station_id":"ce4bhr92rcd13ifvqhrg","pricing_plan_id":"free"},{"bike_id":"9bec12f1-125b-4485-9c50-551d64be56ca","system_id":"levelo_inurba_marseille","lat":43.290103,"lon":5.356114,"is_reserved":false,"is_disabled":false,"rental_uris":{"android":"levelo://app?vid=9bec12f1-125b-4485-9c50-551d64be56ca","ios":"levelo://app?vid=9bec12f1-125b-4485-9c50-551d64be56ca"},"vehicle_type_id":"4","last_reported":1690823171,"current_range_meters":31200,"station_id":"ce4bhb92rcd13ifvqen0","pricing_plan_id":"free"},{"bike_id":"0b8020b1-73e4-43e0-a86e-94bf3ce3ae70","system_id":"levelo_inurba_marseille","lat":43.290104,"lon":5.356111,"is_reserved":false,"is_disabled":false,"rental_uris":{"android":"levelo://app?vid=0b8020b1-73e4-43e0-a86e-94bf3ce3ae70","ios":"levelo://app?vid=0b8020b1-73e4-43e0-a86e-94bf3ce3ae70"},"vehicle_type_id":"4","last_reported":1690823171,"current_range_meters":5200,"station_id":"ce4bhb92rcd13ifvqen0","pricing_plan_id":"free"},{"bike_id":"a4dc1839-89c2-4ae2-85cc-17ed9aab7a3c","system_id":"levelo_inurba_marseille","lat":43.290104,"lon":5.356111,"is_reserved":false,"is_disabled":false,"rental_uris":{"android":"levelo://app?vid=a4dc1839-89c2-4ae2-85cc-17ed9aab7a3c","ios":"levelo://app?vid=a4dc1839-89c2-4ae2-85cc-17ed9aab7a3c"},"vehicle_type_id":"4","last_reported":1690823171,"current_range_meters":8400,"station_id":"ce4bhb92rcd13ifvqen0","pricing_plan_id":"free"},{"bike_id":"bb8c6e65-4dcc-40e3-a309-7649f03fab08","system_id":"levelo_inurba_marseille","lat":43.290104,"lon":5.356111,"is_reserved":false,"is_disabled":false,"rental_uris":{"android":"levelo://app?vid=bb8c6e65-4dcc-40e3-a309-7649f03fab08","ios":"levelo://app?vid=bb8c6e65-4dcc-40e3-a309-7649f03fab08"},"vehicle_type_id":"4","last_reported":1690823171,"current_range_meters":14400,"station_id":"ce4bhb92rcd13ifvqen0","pricing_plan_id":"free"},{"bike_id":"dd883591-5b9e-4514-880c-d8fc5a007559","system_id":"levelo_inurba_marseille","lat":43.290104,"lon":5.356111,"is_reserved":false,"is_disabled":false,"rental_uris":{"android":"levelo://app?vid=dd883591-5b9e-4514-880c-d8fc5a007559","ios":"levelo://app?vid=dd883591-5b9e-4514-880c-d8fc5a007559"},"vehicle_type_id":"4","last_reported":1690823171,"current_range_meters":16400,"station_id":"ce4bhb92rcd13ifvqen0","pricing_plan_id":"free"},{"bike_id":"df9f4a5d-f9d0-4faa-8d02-4dc6514b398b","system_id":"levelo_inurba_marseille","lat":43.290103,"lon":5.356114,"is_reserved":false,"is_disabled":false,"rental_uris":{"android":"levelo://app?vid=df9f4a5d-f9d0-4faa-8d02-4dc6514b398b","ios":"levelo://app?vid=df9f4a5d-f9d0-4faa-8d02-4dc6514b398b"},"vehicle_type_id":"4","last_reported":1690823171,"current_range_meters":14000,"station_id":"ce4bhb92rcd13ifvqen0","pricing_plan_id":"free"},{"bike_id":"cbe2e0a9-76bd-4004-a3f1-db3b438251c8","system_id":"levelo_inurba_marseille","lat":43.290104,"lon":5.356111,"is_reserved":false,"is_disabled":false,"rental_uris":{"android":"levelo://app?vid=cbe2e0a9-76bd-4004-a3f1-db3b438251c8","ios":"levelo://app?vid=cbe2e0a9-76bd-4004-a3f1-db3b438251c8"},"vehicle_type_id":"4","last_reported":1690823171,"current_range_meters":29600,"station_id":"ce4bhb92rcd13ifvqen0","pricing_plan_id":"free"},{"bike_id":"f9023d03-3481-49aa-b88c-9943f46026e0","system_id":"levelo_inurba_marseille","lat":43.29005,"lon":5.35608,"is_reserved":false,"is_disabled":false,"rental_uris":{"android":"levelo://app?vid=f9023d03-3481-49aa-b88c-9943f46026e0","ios":"levelo://app?vid=f9023d03-3481-49aa-b88c-9943f46026e0"},"vehicle_type_id":"4","last_reported":1690823171,"current_range_meters":24400,"station_id":"","pricing_plan_id":"free"},{"bike_id":"455c6016-0b77-455c-ba60-726c20845c35","system_id":"levelo_inurba_marseille","lat":43.290104,"lon":5.356111,"is_reserved":false,"is_disabled":false,"rental_uris":{"android":"levelo://app?vid=455c6016-0b77-455c-ba60-726c20845c35","ios":"levelo://app?vid=455c6016-0b77-455c-ba60-726c20845c35"},"vehicle_type_id":"4","last_reported":1690823171,"current_range_meters":5200,"station_id":"ce4bhb92rcd13ifvqen0","pricing_plan_id":"free"},{"bike_id":"134ef223-0af9-48f2-bbd1-4d84dd8cb35c","system_id":"levelo_inurba_marseille","lat":43.290103,"lon":5.356114,"is_reserved":false,"is_disabled":false,"rental_uris":{"android":"levelo://app?vid=134ef223-0af9-48f2-bbd1-4d84dd8cb35c","ios":"levelo://app?vid=134ef223-0af9-48f2-bbd1-4d84dd8cb35c"},"vehicle_type_id":"4","last_reported":1690823171,"current_range_meters":31200,"station_id":"ce4bhb92rcd13ifvqen0","pricing_plan_id":"free"},{"bike_id":"703413dd-9931-4d50-bb30-d89b3c86da62","system_id":"levelo_inurba_marseille","lat":43.290104,"lon":5.356111,"is_reserved":false,"is_disabled":false,"rental_uris":{"android":"levelo://app?vid=703413dd-9931-4d50-bb30-d89b3c86da62","ios":"levelo://app?vid=703413dd-9931-4d50-bb30-d89b3c86da62"},"vehicle_type_id":"4","last_reported":1690823171,"current_range_meters":31600,"station_id":"ce4bhb92rcd13ifvqen0","pricing_plan_id":"free"},{"bike_id":"d8a7f6ad-0dd7-401c-8acd-2d91e11039fb","system_id":"levelo_inurba_marseille","lat":43.29105,"lon":5.38141,"is_reserved":false,"is_disabled":false,"rental_uris":{"android":"levelo://app?vid=d8a7f6ad-0dd7-401c-8acd-2d91e11039fb","ios":"levelo://app?vid=d8a7f6ad-0dd7-401c-8acd-2d91e11039fb"},"vehicle_type_id":"4","last_reported":1690823171,"current_range_meters":29600,"station_id":"","pricing_plan_id":"free"},{"bike_id":"42406da1-5677-4767-9dbd-f388cca7c025","system_id":"levelo_inurba_marseille","lat":43.290995,"lon":5.381361,"is_reserved":false,"is_disabled":false,"rental_uris":{"android":"levelo://app?vid=42406da1-5677-4767-9dbd-f388cca7c025","ios":"levelo://app?vid=42406da1-5677-4767-9dbd-f388cca7c025"},"vehicle_type_id":"4","last_reported":1690823171,"current_range_meters":6400,"station_id":"ce4bh512rcd13ifvqe2g","pricing_plan_id":"free"},{"bike_id":"05bf2cc0-c80b-4d3b-9303-5cea93148e89","system_id":"levelo_inurba_marseille","lat":43.29099,"lon":5.38157,"is_reserved":false,"is_disabled":false,"rental_uris":{"android":"levelo://app?vid=05bf2cc0-c80b-4d3b-9303-5cea93148e89","ios":"levelo://app?vid=05bf2cc0-c80b-4d3b-9303-5cea93148e89"},"vehicle_type_id":"4","last_reported":1690823171,"current_range_meters":31200,"station_id":"ce4bh512rcd13ifvqe2g","pricing_plan_id":"free"},{"bike_id":"5e9555c8-deff-4c90-bb27-5afc8c728d24","system_id":"levelo_inurba_marseille","lat":43.292663,"lon":5.376389,"is_reserved":false,"is_disabled":false,"rental_uris":{"android":"levelo://app?vid=5e9555c8-deff-4c90-bb27-5afc8c728d24","ios":"levelo://app?vid=5e9555c8-deff-4c90-bb27-5afc8c728d24"},"vehicle_type_id":"4","last_reported":1690823171,"current_range_meters":11600,"station_id":"ce4bgi12rcd13ifvqb80","pricing_plan_id":"free"},{"bike_id":"94981819-313e-4f3f-81c6-89e53a47911d","system_id":"levelo_inurba_marseille","lat":43.29795,"lon":5.39341,"is_reserved":false,"is_disabled":false,"rental_uris":{"android":"levelo://app?vid=94981819-313e-4f3f-81c6-89e53a47911d","ios":"levelo://app?vid=94981819-313e-4f3f-81c6-89e53a47911d"},"vehicle_type_id":"4","last_reported":1690823171,"current_range_meters":31200,"station_id":"chh1huq6cuj3fo74tm60","pricing_plan_id":"free"},{"bike_id":"7a5a4027-6494-4c44-8359-70296b7a437e","system_id":"levelo_inurba_marseille","lat":43.295196,"lon":5.39397,"is_reserved":false,"is_disabled":false,"rental_uris":{"android":"levelo://app?vid=7a5a4027-6494-4c44-8359-70296b7a437e","ios":"levelo://app?vid=7a5a4027-6494-4c44-8359-70296b7a437e"},"vehicle_type_id":"4","last_reported":1690823171,"current_range_meters":22400,"station_id":"ce4bh292rcd13ifvqdf0","pricing_plan_id":"free"},{"bike_id":"652579ef-afc0-41a5-8712-73ab8ab899d3","system_id":"levelo_inurba_marseille","lat":43.297815,"lon":5.393548,"is_reserved":false,"is_disabled":false,"rental_uris":{"android":"levelo://app?vid=652579ef-afc0-41a5-8712-73ab8ab899d3","ios":"levelo://app?vid=652579ef-afc0-41a5-8712-73ab8ab899d3"},"vehicle_type_id":"4","last_reported":1690823171,"current_range_meters":22400,"station_id":"chh1huq6cuj3fo74tm60","pricing_plan_id":"free"},{"bike_id":"b44ed188-f913-49fe-9d07-a3c54ca44890","system_id":"levelo_inurba_marseille","lat":43.297815,"lon":5.393548,"is_reserved":false,"is_disabled":false,"rental_uris":{"android":"levelo://app?vid=b44ed188-f913-49fe-9d07-a3c54ca44890","ios":"levelo://app?vid=b44ed188-f913-49fe-9d07-a3c54ca44890"},"vehicle_type_id":"4","last_reported":1690823171,"current_range_meters":31200,"station_id":"chh1huq6cuj3fo74tm60","pricing_plan_id":"free"},{"bike_id":"d6eda751-25f8-4c0b-a26b-40146ed2a814","system_id":"levelo_inurba_marseille","lat":43.297815,"lon":5.393548,"is_reserved":false,"is_disabled":false,"rental_uris":{"android":"levelo://app?vid=d6eda751-25f8-4c0b-a26b-40146ed2a814","ios":"levelo://app?vid=d6eda751-25f8-4c0b-a26b-40146ed2a814"},"vehicle_type_id":"4","last_reported":1690823171,"current_range_meters":30000,"station_id":"chh1huq6cuj3fo74tm60","pricing_plan_id":"free"},{"bike_id":"7e1ba35a-2ec1-4a3d-9d2c-a769890dd1ca","system_id":"levelo_inurba_marseille","lat":43.29524,"lon":5.39036,"is_reserved":false,"is_disabled":false,"rental_uris":{"android":"levelo://app?vid=7e1ba35a-2ec1-4a3d-9d2c-a769890dd1ca","ios":"levelo://app?vid=7e1ba35a-2ec1-4a3d-9d2c-a769890dd1ca"},"vehicle_type_id":"4","last_reported":1690823171,"current_range_meters":19600,"station_id":"ce4bh3p2rcd13ifvqdp0","pricing_plan_id":"free"},{"bike_id":"89faf7a7-7e34-490a-a115-113a08d566a9","system_id":"levelo_inurba_marseille","lat":43.295169,"lon":5.390426,"is_reserved":false,"is_disabled":false,"rental_uris":{"android":"levelo://app?vid=89faf7a7-7e34-490a-a115-113a08d566a9","ios":"levelo://app?vid=89faf7a7-7e34-490a-a115-113a08d566a9"},"vehicle_type_id":"4","last_reported":1690823171,"current_range_meters":1200,"station_id":"ce4bh3p2rcd13ifvqdp0","pricing_plan_id":"free"},{"bike_id":"df9062d1-1aa4-4de3-aab0-b2d65ab1b635","system_id":"levelo_inurba_marseille","lat":43.295169,"lon":5.390426,"is_reserved":false,"is_disabled":false,"rental_uris":{"android":"levelo://app?vid=df9062d1-1aa4-4de3-aab0-b2d65ab1b635","ios":"levelo://app?vid=df9062d1-1aa4-4de3-aab0-b2d65ab1b635"},"vehicle_type_id":"4","last_reported":1690823171,"current_range_meters":24000,"station_id":"ce4bh3p2rcd13ifvqdp0","pricing_plan_id":"free"},{"bike_id":"3dc67022-1cce-4316-8273-958849b9e248","system_id":"levelo_inurba_marseille","lat":43.28856,"lon":5.358371,"is_reserved":false,"is_disabled":false,"rental_uris":{"android":"levelo://app?vid=3dc67022-1cce-4316-8273-958849b9e248","ios":"levelo://app?vid=3dc67022-1cce-4316-8273-958849b9e248"},"vehicle_type_id":"4","last_reported":1690823171,"current_range_meters":19200,"station_id":"ce4bhb12rcd13ifvqem0","pricing_plan_id":"free"},{"bike_id":"6ac19c93-9459-40f3-945f-5411fe458dad","system_id":"levelo_inurba_marseille","lat":43.28856,"lon":5.358371,"is_reserved":false,"is_disabled":false,"rental_uris":{"android":"levelo://app?vid=6ac19c93-9459-40f3-945f-5411fe458dad","ios":"levelo://app?vid=6ac19c93-9459-40f3-945f-5411fe458dad"},"vehicle_type_id":"4","last_reported":1690823171,"current_range_meters":8000,"station_id":"ce4bhb12rcd13ifvqem0","pricing_plan_id":"free"},{"bike_id":"054df242-919c-4658-bdb9-1bda9e9a58bf","system_id":"levelo_inurba_marseille","lat":43.28856,"lon":5.358371,"is_reserved":false,"is_disabled":false,"rental_uris":{"android":"levelo://app?vid=054df242-919c-4658-bdb9-1bda9e9a58bf","ios":"levelo://app?vid=054df242-919c-4658-bdb9-1bda9e9a58bf"},"vehicle_type_id":"4","last_reported":1690823171,"current_range_meters":6000,"station_id":"ce4bhb12rcd13ifvqem0","pricing_plan_id":"free"},{"bike_id":"4088308f-c33d-4a0c-8b83-fb460941414e","system_id":"levelo_inurba_marseille","lat":43.28856,"lon":5.358371,"is_reserved":false,"is_disabled":false,"rental_uris":{"android":"levelo://app?vid=4088308f-c33d-4a0c-8b83-fb460941414e","ios":"levelo://app?vid=4088308f-c33d-4a0c-8b83-fb460941414e"},"vehicle_type_id":"4","last_reported":1690823171,"current_range_meters":27600,"station_id":"ce4bhb12rcd13ifvqem0","pricing_plan_id":"free"},{"bike_id":"689233fd-0863-4392-85bb-fc3c0a3dc220","system_id":"levelo_inurba_marseille","lat":43.28856,"lon":5.358371,"is_reserved":false,"is_disabled":false,"rental_uris":{"android":"levelo://app?vid=689233fd-0863-4392-85bb-fc3c0a3dc220","ios":"levelo://app?vid=689233fd-0863-4392-85bb-fc3c0a3dc220"},"vehicle_type_id":"4","last_reported":1690823171,"current_range_meters":28400,"station_id":"ce4bhb12rcd13ifvqem0","pricing_plan_id":"free"},{"bike_id":"f1d59e8f-7d4a-4d30-9391-7dcae64e2d90","system_id":"levelo_inurba_marseille","lat":43.28846,"lon":5.3586,"is_reserved":false,"is_disabled":false,"rental_uris":{"android":"levelo://app?vid=f1d59e8f-7d4a-4d30-9391-7dcae64e2d90","ios":"levelo://app?vid=f1d59e8f-7d4a-4d30-9391-7dcae64e2d90"},"vehicle_type_id":"4","last_reported":1690823171,"current_range_meters":20000,"station_id":"ce4bhb12rcd13ifvqem0","pricing_plan_id":"free"},{"bike_id":"f34e19e6-c3f3-435e-a4ce-4beef8bd7c1d","system_id":"levelo_inurba_marseille","lat":43.28856,"lon":5.358371,"is_reserved":false,"is_disabled":false,"rental_uris":{"android":"levelo://app?vid=f34e19e6-c3f3-435e-a4ce-4beef8bd7c1d","ios":"levelo://app?vid=f34e19e6-c3f3-435e-a4ce-4beef8bd7c1d"},"vehicle_type_id":"4","last_reported":1690823171,"current_range_meters":4400,"station_id":"ce4bhb12rcd13ifvqem0","pricing_plan_id":"free"},{"bike_id":"fbdb23a6-3345-4beb-a8bc-6ccfe5955c25","system_id":"levelo_inurba_marseille","lat":43.31262,"lon":5.40158,"is_reserved":false,"is_disabled":false,"rental_uris":{"android":"levelo://app?vid=fbdb23a6-3345-4beb-a8bc-6ccfe5955c25","ios":"levelo://app?vid=fbdb23a6-3345-4beb-a8bc-6ccfe5955c25"},"vehicle_type_id":"4","last_reported":1690823171,"current_range_meters":15600,"station_id":"ce4bh092rcd13ifvqd30","pricing_plan_id":"free"},{"bike_id":"0e6d3371-e79d-42d7-ae3a-36d723b0f666","system_id":"levelo_inurba_marseille","lat":43.30937,"lon":5.40139,"is_reserved":false,"is_disabled":false,"rental_uris":{"android":"levelo://app?vid=0e6d3371-e79d-42d7-ae3a-36d723b0f666","ios":"levelo://app?vid=0e6d3371-e79d-42d7-ae3a-36d723b0f666"},"vehicle_type_id":"4","last_reported":1690823171,"current_range_meters":10800,"station_id":"ce4bgvp2rcd13ifvqct0","pricing_plan_id":"free"},{"bike_id":"713638c2-383f-408b-a100-f46b5264c018","system_id":"levelo_inurba_marseille","lat":43.30933,"lon":5.40141,"is_reserved":false,"is_disabled":false,"rental_uris":{"android":"levelo://app?vid=713638c2-383f-408b-a100-f46b5264c018","ios":"levelo://app?vid=713638c2-383f-408b-a100-f46b5264c018"},"vehicle_type_id":"4","last_reported":1690823171,"current_range_meters":24000,"station_id":"ce4bgvp2rcd13ifvqct0","pricing_plan_id":"free"},{"bike_id":"fb895056-5177-439e-b6a1-eccc2cdf2b67","system_id":"levelo_inurba_marseille","lat":43.309371,"lon":5.401449,"is_reserved":false,"is_disabled":false,"rental_uris":{"android":"levelo://app?vid=fb895056-5177-439e-b6a1-eccc2cdf2b67","ios":"levelo://app?vid=fb895056-5177-439e-b6a1-eccc2cdf2b67"},"vehicle_type_id":"4","last_reported":1690823171,"current_range_meters":0,"station_id":"ce4bgvp2rcd13ifvqct0","pricing_plan_id":"free"},{"bike_id":"98f837da-9ab5-43c9-95a6-72732be6afde","system_id":"levelo_inurba_marseille","lat":43.309371,"lon":5.401449,"is_reserved":false,"is_disabled":false,"rental_uris":{"android":"levelo://app?vid=98f837da-9ab5-43c9-95a6-72732be6afde","ios":"levelo://app?vid=98f837da-9ab5-43c9-95a6-72732be6afde"},"vehicle_type_id":"4","last_reported":1690823171,"current_range_meters":10800,"station_id":"ce4bgvp2rcd13ifvqct0","pricing_plan_id":"free"},{"bike_id":"633ee452-b8f0-409b-b45f-a6374b9582ca","system_id":"levelo_inurba_marseille","lat":43.30642,"lon":5.401031,"is_reserved":false,"is_disabled":false,"rental_uris":{"android":"levelo://app?vid=633ee452-b8f0-409b-b45f-a6374b9582ca","ios":"levelo://app?vid=633ee452-b8f0-409b-b45f-a6374b9582ca"},"vehicle_type_id":"4","last_reported":1690823171,"current_range_meters":31200,"station_id":"ce4bh112rcd13ifvqda0","pricing_plan_id":"free"},{"bike_id":"113526cb-7b4e-4a30-a299-462117fd6b3d","system_id":"levelo_inurba_marseille","lat":43.30652,"lon":5.40083,"is_reserved":false,"is_disabled":false,"rental_uris":{"android":"levelo://app?vid=113526cb-7b4e-4a30-a299-462117fd6b3d","ios":"levelo://app?vid=113526cb-7b4e-4a30-a299-462117fd6b3d"},"vehicle_type_id":"4","last_reported":1690823171,"current_range_meters":31200,"station_id":"ce4bh112rcd13ifvqda0","pricing_plan_id":"free"},{"bike_id":"0a82e53c-894b-4ea9-8f67-672e74da643a","system_id":"levelo_inurba_marseille","lat":43.30652,"lon":5.40084,"is_reserved":false,"is_disabled":false,"rental_uris":{"android":"levelo://app?vid=0a82e53c-894b-4ea9-8f67-672e74da643a","ios":"levelo://app?vid=0a82e53c-894b-4ea9-8f67-672e74da643a"},"vehicle_type_id":"4","last_reported":1690823171,"current_range_meters":31200,"station_id":"ce4bh112rcd13ifvqda0","pricing_plan_id":"free"},{"bike_id":"e4570427-9415-4d67-bb4e-bf45760ed4f9","system_id":"levelo_inurba_marseille","lat":43.30642,"lon":5.401031,"is_reserved":false,"is_disabled":false,"rental_uris":{"android":"levelo://app?vid=e4570427-9415-4d67-bb4e-bf45760ed4f9","ios":"levelo://app?vid=e4570427-9415-4d67-bb4e-bf45760ed4f9"},"vehicle_type_id":"4","last_reported":1690823171,"current_range_meters":31200,"station_id":"ce4bh112rcd13ifvqda0","pricing_plan_id":"free"},{"bike_id":"c5951910-93ae-4d3c-854a-a1ae4136f0aa","system_id":"levelo_inurba_marseille","lat":43.30641,"lon":5.40099,"is_reserved":false,"is_disabled":false,"rental_uris":{"android":"levelo://app?vid=c5951910-93ae-4d3c-854a-a1ae4136f0aa","ios":"levelo://app?vid=c5951910-93ae-4d3c-854a-a1ae4136f0aa"},"vehicle_type_id":"4","last_reported":1690823171,"current_range_meters":14000,"station_id":"ce4bh112rcd13ifvqda0","pricing_plan_id":"free"},{"bike_id":"920b6d08-e8f1-473c-9587-b22ed09729b5","system_id":"levelo_inurba_marseille","lat":43.301117,"lon":5.398795,"is_reserved":false,"is_disabled":false,"rental_uris":{"android":"levelo://app?vid=920b6d08-e8f1-473c-9587-b22ed09729b5","ios":"levelo://app?vid=920b6d08-e8f1-473c-9587-b22ed09729b5"},"vehicle_type_id":"4","last_reported":1690823171,"current_range_meters":8800,"station_id":"ce4bh0h2rcd13ifvqd40","pricing_plan_id":"free"},{"bike_id":"a5c5dc46-74a5-46f5-9a5b-13de8c05437b","system_id":"levelo_inurba_marseille","lat":43.30649,"lon":5.40103,"is_reserved":false,"is_disabled":false,"rental_uris":{"android":"levelo://app?vid=a5c5dc46-74a5-46f5-9a5b-13de8c05437b","ios":"levelo://app?vid=a5c5dc46-74a5-46f5-9a5b-13de8c05437b"},"vehicle_type_id":"4","last_reported":1690823171,"current_range_meters":21600,"station_id":"ce4bh112rcd13ifvqda0","pricing_plan_id":"free"},{"bike_id":"e61645df-88a7-45ac-9b18-52b58ec1bd0b","system_id":"levelo_inurba_marseille","lat":43.30136,"lon":5.3988,"is_reserved":false,"is_disabled":false,"rental_uris":{"android":"levelo://app?vid=e61645df-88a7-45ac-9b18-52b58ec1bd0b","ios":"levelo://app?vid=e61645df-88a7-45ac-9b18-52b58ec1bd0b"},"vehicle_type_id":"4","last_reported":1690823171,"current_range_meters":22000,"station_id":"ce4bh0h2rcd13ifvqd40","pricing_plan_id":"free"},{"bike_id":"47be3d7a-068b-4edf-b06c-bac912645b92","system_id":"levelo_inurba_marseille","lat":43.298681,"lon":5.397225,"is_reserved":false,"is_disabled":false,"rental_uris":{"android":"levelo://app?vid=47be3d7a-068b-4edf-b06c-bac912645b92","ios":"levelo://app?vid=47be3d7a-068b-4edf-b06c-bac912645b92"},"vehicle_type_id":"4","last_reported":1690823171,"current_range_meters":31200,"station_id":"ce4bh0h2rcd13ifvqd50","pricing_plan_id":"free"},{"bike_id":"2821bf99-1340-47e0-a943-fdc4b50e9832","system_id":"levelo_inurba_marseille","lat":43.286591,"lon":5.363346,"is_reserved":false,"is_disabled":false,"rental_uris":{"android":"levelo://app?vid=2821bf99-1340-47e0-a943-fdc4b50e9832","ios":"levelo://app?vid=2821bf99-1340-47e0-a943-fdc4b50e9832"},"vehicle_type_id":"4","last_reported":1690823171,"current_range_meters":7200,"station_id":"ce4bhah2rcd13ifvqej0","pricing_plan_id":"free"},{"bike_id":"8d051934-3f56-4c23-95c1-39c0d08fe336","system_id":"levelo_inurba_marseille","lat":43.28704,"lon":5.3739,"is_reserved":false,"is_disabled":false,"rental_uris":{"android":"levelo://app?vid=8d051934-3f56-4c23-95c1-39c0d08fe336","ios":"levelo://app?vid=8d051934-3f56-4c23-95c1-39c0d08fe336"},"vehicle_type_id":"4","last_reported":1690823171,"current_range_meters":21600,"station_id":"ce4bh3p2rcd13ifvqdq0","pricing_plan_id":"free"},{"bike_id":"75199276-b705-4ad7-b6a9-49aeaa84628a","system_id":"levelo_inurba_marseille","lat":43.286593,"lon":5.363346,"is_reserved":false,"is_disabled":false,"rental_uris":{"android":"levelo://app?vid=75199276-b705-4ad7-b6a9-49aeaa84628a","ios":"levelo://app?vid=75199276-b705-4ad7-b6a9-49aeaa84628a"},"vehicle_type_id":"4","last_reported":1690823171,"current_range_meters":31200,"station_id":"ce4bhah2rcd13ifvqej0","pricing_plan_id":"free"},{"bike_id":"c68f77a5-3112-4c4c-8334-e06f39d8d005","system_id":"levelo_inurba_marseille","lat":43.286591,"lon":5.363346,"is_reserved":false,"is_disabled":false,"rental_uris":{"android":"levelo://app?vid=c68f77a5-3112-4c4c-8334-e06f39d8d005","ios":"levelo://app?vid=c68f77a5-3112-4c4c-8334-e06f39d8d005"},"vehicle_type_id":"4","last_reported":1690823171,"current_range_meters":21200,"station_id":"ce4bhah2rcd13ifvqej0","pricing_plan_id":"free"},{"bike_id":"6ea54d7b-effe-48b6-bfcd-6cd6a1a35747","system_id":"levelo_inurba_marseille","lat":43.298681,"lon":5.397225,"is_reserved":false,"is_disabled":false,"rental_uris":{"android":"levelo://app?vid=6ea54d7b-effe-48b6-bfcd-6cd6a1a35747","ios":"levelo://app?vid=6ea54d7b-effe-48b6-bfcd-6cd6a1a35747"},"vehicle_type_id":"4","last_reported":1690823171,"current_range_meters":18400,"station_id":"ce4bh0h2rcd13ifvqd50","pricing_plan_id":"free"},{"bike_id":"2bc0c554-e142-4ebb-a483-71765df7ad5f","system_id":"levelo_inurba_marseille","lat":43.286591,"lon":5.363346,"is_reserved":false,"is_disabled":false,"rental_uris":{"android":"levelo://app?vid=2bc0c554-e142-4ebb-a483-71765df7ad5f","ios":"levelo://app?vid=2bc0c554-e142-4ebb-a483-71765df7ad5f"},"vehicle_type_id":"4","last_reported":1690823171,"current_range_meters":9600,"station_id":"ce4bhah2rcd13ifvqej0","pricing_plan_id":"free"},{"bike_id":"1bf1c219-5ae4-42d8-ab9f-27cebf3a8fab","system_id":"levelo_inurba_marseille","lat":43.298658,"lon":5.397339,"is_reserved":false,"is_disabled":false,"rental_uris":{"android":"levelo://app?vid=1bf1c219-5ae4-42d8-ab9f-27cebf3a8fab","ios":"levelo://app?vid=1bf1c219-5ae4-42d8-ab9f-27cebf3a8fab"},"vehicle_type_id":"4","last_reported":1690823171,"current_range_meters":13600,"station_id":"ce4bh0h2rcd13ifvqd50","pricing_plan_id":"free"},{"bike_id":"68c5e6ec-f469-4076-89f3-b8eaba0b6d3c","system_id":"levelo_inurba_marseille","lat":43.286591,"lon":5.363346,"is_reserved":false,"is_disabled":false,"rental_uris":{"android":"levelo://app?vid=68c5e6ec-f469-4076-89f3-b8eaba0b6d3c","ios":"levelo://app?vid=68c5e6ec-f469-4076-89f3-b8eaba0b6d3c"},"vehicle_type_id":"4","last_reported":1690823171,"current_range_meters":19600,"station_id":"ce4bhah2rcd13ifvqej0","pricing_plan_id":"free"},{"bike_id":"bb19957f-c86e-4548-9d20-9c3ccb3ed965","system_id":"levelo_inurba_marseille","lat":43.295196,"lon":5.39397,"is_reserved":false,"is_disabled":false,"rental_uris":{"android":"levelo://app?vid=bb19957f-c86e-4548-9d20-9c3ccb3ed965","ios":"levelo://app?vid=bb19957f-c86e-4548-9d20-9c3ccb3ed965"},"vehicle_type_id":"4","last_reported":1690823171,"current_range_meters":8400,"station_id":"ce4bh292rcd13ifvqdf0","pricing_plan_id":"free"},{"bike_id":"597ecd00-8c9b-4b9b-bcea-9ab59446867a","system_id":"levelo_inurba_marseille","lat":43.295196,"lon":5.39397,"is_reserved":false,"is_disabled":false,"rental_uris":{"android":"levelo://app?vid=597ecd00-8c9b-4b9b-bcea-9ab59446867a","ios":"levelo://app?vid=597ecd00-8c9b-4b9b-bcea-9ab59446867a"},"vehicle_type_id":"4","last_reported":1690823171,"current_range_meters":11200,"station_id":"ce4bh292rcd13ifvqdf0","pricing_plan_id":"free"},{"bike_id":"e4b467fc-5700-41d4-a165-4235abda9bd2","system_id":"levelo_inurba_marseille","lat":43.298681,"lon":5.397225,"is_reserved":false,"is_disabled":false,"rental_uris":{"android":"levelo://app?vid=e4b467fc-5700-41d4-a165-4235abda9bd2","ios":"levelo://app?vid=e4b467fc-5700-41d4-a165-4235abda9bd2"},"vehicle_type_id":"4","last_reported":1690823171,"current_range_meters":30000,"station_id":"ce4bh0h2rcd13ifvqd50","pricing_plan_id":"free"},{"bike_id":"6b2f92b1-e4f6-45ff-bbc6-49e346e519d9","system_id":"levelo_inurba_marseille","lat":43.29035,"lon":5.38654,"is_reserved":false,"is_disabled":false,"rental_uris":{"android":"levelo://app?vid=6b2f92b1-e4f6-45ff-bbc6-49e346e519d9","ios":"levelo://app?vid=6b2f92b1-e4f6-45ff-bbc6-49e346e519d9"},"vehicle_type_id":"4","last_reported":1690823171,"current_range_meters":17600,"station_id":"ce4bh4p2rcd13ifvqe0g","pricing_plan_id":"free"},{"bike_id":"50a57859-e91e-4685-86d2-a80904a4eeef","system_id":"levelo_inurba_marseille","lat":43.29026,"lon":5.38645,"is_reserved":false,"is_disabled":false,"rental_uris":{"android":"levelo://app?vid=50a57859-e91e-4685-86d2-a80904a4eeef","ios":"levelo://app?vid=50a57859-e91e-4685-86d2-a80904a4eeef"},"vehicle_type_id":"4","last_reported":1690823171,"current_range_meters":24800,"station_id":"","pricing_plan_id":"free"},{"bike_id":"178f5927-da34-4b03-b382-f7f5cfc5e34a","system_id":"levelo_inurba_marseille","lat":43.290336,"lon":5.386425,"is_reserved":false,"is_disabled":false,"rental_uris":{"android":"levelo://app?vid=178f5927-da34-4b03-b382-f7f5cfc5e34a","ios":"levelo://app?vid=178f5927-da34-4b03-b382-f7f5cfc5e34a"},"vehicle_type_id":"4","last_reported":1690823171,"current_range_meters":31200,"station_id":"ce4bh4p2rcd13ifvqe0g","pricing_plan_id":"free"},{"bike_id":"602b68ae-f288-411c-a127-a719bae94c7c","system_id":"levelo_inurba_marseille","lat":43.302759,"lon":5.400793,"is_reserved":false,"is_disabled":false,"rental_uris":{"android":"levelo://app?vid=602b68ae-f288-411c-a127-a719bae94c7c","ios":"levelo://app?vid=602b68ae-f288-411c-a127-a719bae94c7c"},"vehicle_type_id":"4","last_reported":1690823171,"current_range_meters":4800,"station_id":"ce4bgvh2rcd13ifvqcs0","pricing_plan_id":"free"},{"bike_id":"dffbbb1e-4efe-4f89-a62c-66736c5582e0","system_id":"levelo_inurba_marseille","lat":43.286039,"lon":5.370681,"is_reserved":false,"is_disabled":false,"rental_uris":{"android":"levelo://app?vid=dffbbb1e-4efe-4f89-a62c-66736c5582e0","ios":"levelo://app?vid=dffbbb1e-4efe-4f89-a62c-66736c5582e0"},"vehicle_type_id":"4","last_reported":1690823171,"current_range_meters":31200,"station_id":"ce4bht12rcd13ifvqi60","pricing_plan_id":"free"},{"bike_id":"dc3a4fca-0b22-42d8-8a29-5f9ab22c7a08","system_id":"levelo_inurba_marseille","lat":43.286039,"lon":5.370679,"is_reserved":false,"is_disabled":false,"rental_uris":{"android":"levelo://app?vid=dc3a4fca-0b22-42d8-8a29-5f9ab22c7a08","ios":"levelo://app?vid=dc3a4fca-0b22-42d8-8a29-5f9ab22c7a08"},"vehicle_type_id":"4","last_reported":1690823171,"current_range_meters":30000,"station_id":"ce4bht12rcd13ifvqi60","pricing_plan_id":"free"},{"bike_id":"055b2603-dd4e-4245-8bb6-e83964a1f7dc","system_id":"levelo_inurba_marseille","lat":43.286039,"lon":5.370681,"is_reserved":false,"is_disabled":false,"rental_uris":{"android":"levelo://app?vid=055b2603-dd4e-4245-8bb6-e83964a1f7dc","ios":"levelo://app?vid=055b2603-dd4e-4245-8bb6-e83964a1f7dc"},"vehicle_type_id":"4","last_reported":1690823171,"current_range_meters":5600,"station_id":"ce4bht12rcd13ifvqi60","pricing_plan_id":"free"},{"bike_id":"63f9ecc7-33e8-49f0-b369-525276d814eb","system_id":"levelo_inurba_marseille","lat":43.286039,"lon":5.370679,"is_reserved":false,"is_disabled":false,"rental_uris":{"android":"levelo://app?vid=63f9ecc7-33e8-49f0-b369-525276d814eb","ios":"levelo://app?vid=63f9ecc7-33e8-49f0-b369-525276d814eb"},"vehicle_type_id":"4","last_reported":1690823171,"current_range_meters":31200,"station_id":"ce4bht12rcd13ifvqi60","pricing_plan_id":"free"},{"bike_id":"fb953f10-6340-4c69-8795-45bfe1a492e2","system_id":"levelo_inurba_marseille","lat":43.28609,"lon":5.37068,"is_reserved":false,"is_disabled":false,"rental_uris":{"android":"levelo://app?vid=fb953f10-6340-4c69-8795-45bfe1a492e2","ios":"levelo://app?vid=fb953f10-6340-4c69-8795-45bfe1a492e2"},"vehicle_type_id":"4","last_reported":1690823171,"current_range_meters":20000,"station_id":"ce4bht12rcd13ifvqi60","pricing_plan_id":"free"},{"bike_id":"2935bf46-b581-4f15-b008-7019118ec59b","system_id":"levelo_inurba_marseille","lat":43.286039,"lon":5.370681,"is_reserved":false,"is_disabled":false,"rental_uris":{"android":"levelo://app?vid=2935bf46-b581-4f15-b008-7019118ec59b","ios":"levelo://app?vid=2935bf46-b581-4f15-b008-7019118ec59b"},"vehicle_type_id":"4","last_reported":1690823171,"current_range_meters":22800,"station_id":"ce4bht12rcd13ifvqi60","pricing_plan_id":"free"},{"bike_id":"631459f1-2952-4301-bd95-06c1d29762c5","system_id":"levelo_inurba_marseille","lat":43.316517,"lon":5.404375,"is_reserved":false,"is_disabled":false,"rental_uris":{"android":"levelo://app?vid=631459f1-2952-4301-bd95-06c1d29762c5","ios":"levelo://app?vid=631459f1-2952-4301-bd95-06c1d29762c5"},"vehicle_type_id":"4","last_reported":1690823171,"current_range_meters":28800,"station_id":"ce4bh012rcd13ifvqd00","pricing_plan_id":"free"},{"bike_id":"43851695-5d9d-4534-acde-91e1fd520d0b","system_id":"levelo_inurba_marseille","lat":43.31648,"lon":5.4043,"is_reserved":false,"is_disabled":false,"rental_uris":{"android":"levelo://app?vid=43851695-5d9d-4534-acde-91e1fd520d0b","ios":"levelo://app?vid=43851695-5d9d-4534-acde-91e1fd520d0b"},"vehicle_type_id":"4","last_reported":1690823171,"current_range_meters":18400,"station_id":"ce4bh012rcd13ifvqd00","pricing_plan_id":"free"},{"bike_id":"4cd3c046-5634-43a4-88de-f24bcbb0ca3d","system_id":"levelo_inurba_marseille","lat":43.31656,"lon":5.40432,"is_reserved":false,"is_disabled":false,"rental_uris":{"android":"levelo://app?vid=4cd3c046-5634-43a4-88de-f24bcbb0ca3d","ios":"levelo://app?vid=4cd3c046-5634-43a4-88de-f24bcbb0ca3d"},"vehicle_type_id":"4","last_reported":1690823171,"current_range_meters":30400,"station_id":"ce4bh012rcd13ifvqd00","pricing_plan_id":"free"},{"bike_id":"54729caf-c9fb-4366-88c1-90579a86765b","system_id":"levelo_inurba_marseille","lat":43.3165,"lon":5.40434,"is_reserved":false,"is_disabled":false,"rental_uris":{"android":"levelo://app?vid=54729caf-c9fb-4366-88c1-90579a86765b","ios":"levelo://app?vid=54729caf-c9fb-4366-88c1-90579a86765b"},"vehicle_type_id":"4","last_reported":1690823171,"current_range_meters":18000,"station_id":"ce4bh012rcd13ifvqd00","pricing_plan_id":"free"},{"bike_id":"b836f974-c3db-4776-9cd8-f1290a5cef6b","system_id":"levelo_inurba_marseille","lat":43.316523,"lon":5.404367,"is_reserved":false,"is_disabled":false,"rental_uris":{"android":"levelo://app?vid=b836f974-c3db-4776-9cd8-f1290a5cef6b","ios":"levelo://app?vid=b836f974-c3db-4776-9cd8-f1290a5cef6b"},"vehicle_type_id":"4","last_reported":1690823171,"current_range_meters":31200,"station_id":"ce4bh012rcd13ifvqd00","pricing_plan_id":"free"},{"bike_id":"aeee1a69-5ea8-46b6-a77a-f8d3e4f3d119","system_id":"levelo_inurba_marseille","lat":43.31652,"lon":5.40439,"is_reserved":false,"is_disabled":false,"rental_uris":{"android":"levelo://app?vid=aeee1a69-5ea8-46b6-a77a-f8d3e4f3d119","ios":"levelo://app?vid=aeee1a69-5ea8-46b6-a77a-f8d3e4f3d119"},"vehicle_type_id":"4","last_reported":1690823171,"current_range_meters":28400,"station_id":"ce4bh012rcd13ifvqd00","pricing_plan_id":"free"},{"bike_id":"343d7dd2-c91f-4a41-b9e6-25e114012205","system_id":"levelo_inurba_marseille","lat":43.316523,"lon":5.404367,"is_reserved":false,"is_disabled":false,"rental_uris":{"android":"levelo://app?vid=343d7dd2-c91f-4a41-b9e6-25e114012205","ios":"levelo://app?vid=343d7dd2-c91f-4a41-b9e6-25e114012205"},"vehicle_type_id":"4","last_reported":1690823171,"current_range_meters":31600,"station_id":"ce4bh012rcd13ifvqd00","pricing_plan_id":"free"},{"bike_id":"8d9b48d7-7a63-4e54-9159-26ab8980c8b7","system_id":"levelo_inurba_marseille","lat":43.31649,"lon":5.40442,"is_reserved":false,"is_disabled":false,"rental_uris":{"android":"levelo://app?vid=8d9b48d7-7a63-4e54-9159-26ab8980c8b7","ios":"levelo://app?vid=8d9b48d7-7a63-4e54-9159-26ab8980c8b7"},"vehicle_type_id":"4","last_reported":1690823171,"current_range_meters":18400,"station_id":"ce4bh012rcd13ifvqd00","pricing_plan_id":"free"},{"bike_id":"b3950e44-9680-465f-8bc5-2d4642151d2d","system_id":"levelo_inurba_marseille","lat":43.3165,"lon":5.40448,"is_reserved":false,"is_disabled":false,"rental_uris":{"android":"levelo://app?vid=b3950e44-9680-465f-8bc5-2d4642151d2d","ios":"levelo://app?vid=b3950e44-9680-465f-8bc5-2d4642151d2d"},"vehicle_type_id":"4","last_reported":1690823171,"current_range_meters":23200,"station_id":"ce4bh012rcd13ifvqd00","pricing_plan_id":"free"},{"bike_id":"0ecde8c1-c459-40cb-8249-df830959ff6e","system_id":"levelo_inurba_marseille","lat":43.291994,"lon":5.392907,"is_reserved":false,"is_disabled":false,"rental_uris":{"android":"levelo://app?vid=0ecde8c1-c459-40cb-8249-df830959ff6e","ios":"levelo://app?vid=0ecde8c1-c459-40cb-8249-df830959ff6e"},"vehicle_type_id":"4","last_reported":1690823171,"current_range_meters":16000,"station_id":"ce4bh192rcd13ifvqdd0","pricing_plan_id":"free"},{"bike_id":"b1e6a9fa-0020-4151-a593-9b0f793f64d9","system_id":"levelo_inurba_marseille","lat":43.291994,"lon":5.392907,"is_reserved":false,"is_disabled":false,"rental_uris":{"android":"levelo://app?vid=b1e6a9fa-0020-4151-a593-9b0f793f64d9","ios":"levelo://app?vid=b1e6a9fa-0020-4151-a593-9b0f793f64d9"},"vehicle_type_id":"4","last_reported":1690823171,"current_range_meters":5600,"station_id":"ce4bh192rcd13ifvqdd0","pricing_plan_id":"free"},{"bike_id":"ccbd5b2e-f368-479d-b64e-394140411ad0","system_id":"levelo_inurba_marseille","lat":43.304188,"lon":5.412904,"is_reserved":false,"is_disabled":false,"rental_uris":{"android":"levelo://app?vid=ccbd5b2e-f368-479d-b64e-394140411ad0","ios":"levelo://app?vid=ccbd5b2e-f368-479d-b64e-394140411ad0"},"vehicle_type_id":"4","last_reported":1690823171,"current_range_meters":18400,"station_id":"ce4bhop2rcd13ifvqh8g","pricing_plan_id":"free"},{"bike_id":"aa1cdd37-812e-45ae-9ed9-aba177dbed21","system_id":"levelo_inurba_marseille","lat":43.294314,"lon":5.397498,"is_reserved":false,"is_disabled":false,"rental_uris":{"android":"levelo://app?vid=aa1cdd37-812e-45ae-9ed9-aba177dbed21","ios":"levelo://app?vid=aa1cdd37-812e-45ae-9ed9-aba177dbed21"},"vehicle_type_id":"4","last_reported":1690823171,"current_range_meters":14800,"station_id":"ce4bh3h2rcd13ifvqdo0","pricing_plan_id":"free"},{"bike_id":"9ec59962-fc65-4f7e-a4d4-3bf9658bedfb","system_id":"levelo_inurba_marseille","lat":43.29441,"lon":5.39758,"is_reserved":false,"is_disabled":false,"rental_uris":{"android":"levelo://app?vid=9ec59962-fc65-4f7e-a4d4-3bf9658bedfb","ios":"levelo://app?vid=9ec59962-fc65-4f7e-a4d4-3bf9658bedfb"},"vehicle_type_id":"4","last_reported":1690823171,"current_range_meters":12000,"station_id":"","pricing_plan_id":"free"},{"bike_id":"9cb614c2-c450-4433-9bd2-a424693d90ec","system_id":"levelo_inurba_marseille","lat":43.294314,"lon":5.397498,"is_reserved":false,"is_disabled":false,"rental_uris":{"android":"levelo://app?vid=9cb614c2-c450-4433-9bd2-a424693d90ec","ios":"levelo://app?vid=9cb614c2-c450-4433-9bd2-a424693d90ec"},"vehicle_type_id":"4","last_reported":1690823171,"current_range_meters":28000,"station_id":"ce4bh3h2rcd13ifvqdo0","pricing_plan_id":"free"},{"bike_id":"447ab2ed-c2c3-4bcb-b58f-b8f62132c2a1","system_id":"levelo_inurba_marseille","lat":43.294314,"lon":5.397498,"is_reserved":false,"is_disabled":false,"rental_uris":{"android":"levelo://app?vid=447ab2ed-c2c3-4bcb-b58f-b8f62132c2a1","ios":"levelo://app?vid=447ab2ed-c2c3-4bcb-b58f-b8f62132c2a1"},"vehicle_type_id":"4","last_reported":1690823171,"current_range_meters":18400,"station_id":"ce4bh3h2rcd13ifvqdo0","pricing_plan_id":"free"},{"bike_id":"30cf2e84-23f1-4cd9-a5bf-ab668b78a534","system_id":"levelo_inurba_marseille","lat":43.294314,"lon":5.397498,"is_reserved":false,"is_disabled":false,"rental_uris":{"android":"levelo://app?vid=30cf2e84-23f1-4cd9-a5bf-ab668b78a534","ios":"levelo://app?vid=30cf2e84-23f1-4cd9-a5bf-ab668b78a534"},"vehicle_type_id":"4","last_reported":1690823171,"current_range_meters":15200,"station_id":"ce4bh3h2rcd13ifvqdo0","pricing_plan_id":"free"},{"bike_id":"c48df29c-4fc1-42a4-b19b-957c3014f1fb","system_id":"levelo_inurba_marseille","lat":43.285856,"lon":5.350771,"is_reserved":false,"is_disabled":false,"rental_uris":{"android":"levelo://app?vid=c48df29c-4fc1-42a4-b19b-957c3014f1fb","ios":"levelo://app?vid=c48df29c-4fc1-42a4-b19b-957c3014f1fb"},"vehicle_type_id":"4","last_reported":1690823171,"current_range_meters":18000,"station_id":"ce4bhch2rcd13ifvqeug","pricing_plan_id":"free"},{"bike_id":"5b112069-dd75-4a1c-a0d8-84fb8f414b25","system_id":"levelo_inurba_marseille","lat":43.285848,"lon":5.350787,"is_reserved":false,"is_disabled":false,"rental_uris":{"android":"levelo://app?vid=5b112069-dd75-4a1c-a0d8-84fb8f414b25","ios":"levelo://app?vid=5b112069-dd75-4a1c-a0d8-84fb8f414b25"},"vehicle_type_id":"4","last_reported":1690823171,"current_range_meters":20000,"station_id":"ce4bhch2rcd13ifvqeug","pricing_plan_id":"free"},{"bike_id":"c39a68cf-dc74-4157-bd40-24a003e1a391","system_id":"levelo_inurba_marseille","lat":43.283998,"lon":5.375062,"is_reserved":false,"is_disabled":false,"rental_uris":{"android":"levelo://app?vid=c39a68cf-dc74-4157-bd40-24a003e1a391","ios":"levelo://app?vid=c39a68cf-dc74-4157-bd40-24a003e1a391"},"vehicle_type_id":"4","last_reported":1690823171,"current_range_meters":8800,"station_id":"ce4bh412rcd13ifvqds0","pricing_plan_id":"free"},{"bike_id":"bdcdee81-653a-4dbe-abc1-e479b71c2fc6","system_id":"levelo_inurba_marseille","lat":43.283998,"lon":5.375062,"is_reserved":false,"is_disabled":false,"rental_uris":{"android":"levelo://app?vid=bdcdee81-653a-4dbe-abc1-e479b71c2fc6","ios":"levelo://app?vid=bdcdee81-653a-4dbe-abc1-e479b71c2fc6"},"vehicle_type_id":"4","last_reported":1690823171,"current_range_meters":12000,"station_id":"ce4bh412rcd13ifvqds0","pricing_plan_id":"free"},{"bike_id":"a2eb9791-aa1b-4d4f-8771-ec4caa2e8c74","system_id":"levelo_inurba_marseille","lat":43.283998,"lon":5.375062,"is_reserved":false,"is_disabled":false,"rental_uris":{"android":"levelo://app?vid=a2eb9791-aa1b-4d4f-8771-ec4caa2e8c74","ios":"levelo://app?vid=a2eb9791-aa1b-4d4f-8771-ec4caa2e8c74"},"vehicle_type_id":"4","last_reported":1690823171,"current_range_meters":29600,"station_id":"ce4bh412rcd13ifvqds0","pricing_plan_id":"free"},{"bike_id":"5f311514-ffb1-49bb-b8d0-74fe94832ce1","system_id":"levelo_inurba_marseille","lat":43.283998,"lon":5.375062,"is_reserved":false,"is_disabled":false,"rental_uris":{"android":"levelo://app?vid=5f311514-ffb1-49bb-b8d0-74fe94832ce1","ios":"levelo://app?vid=5f311514-ffb1-49bb-b8d0-74fe94832ce1"},"vehicle_type_id":"4","last_reported":1690823171,"current_range_meters":6800,"station_id":"ce4bh412rcd13ifvqds0","pricing_plan_id":"free"},{"bike_id":"6964b73e-8fce-4f01-8982-4379d0fb4e1b","system_id":"levelo_inurba_marseille","lat":43.295713,"lon":5.399639,"is_reserved":false,"is_disabled":false,"rental_uris":{"android":"levelo://app?vid=6964b73e-8fce-4f01-8982-4379d0fb4e1b","ios":"levelo://app?vid=6964b73e-8fce-4f01-8982-4379d0fb4e1b"},"vehicle_type_id":"4","last_reported":1690823171,"current_range_meters":31600,"station_id":"ce4bh312rcd13ifvqdj0","pricing_plan_id":"free"},{"bike_id":"df31c1cf-9570-4284-a3b8-654adcb5b29a","system_id":"levelo_inurba_marseille","lat":43.295713,"lon":5.399639,"is_reserved":false,"is_disabled":false,"rental_uris":{"android":"levelo://app?vid=df31c1cf-9570-4284-a3b8-654adcb5b29a","ios":"levelo://app?vid=df31c1cf-9570-4284-a3b8-654adcb5b29a"},"vehicle_type_id":"4","last_reported":1690823171,"current_range_meters":31200,"station_id":"ce4bh312rcd13ifvqdj0","pricing_plan_id":"free"},{"bike_id":"858e8a45-1fa8-45ad-9920-7c3be06d7cda","system_id":"levelo_inurba_marseille","lat":43.283998,"lon":5.375062,"is_reserved":false,"is_disabled":false,"rental_uris":{"android":"levelo://app?vid=858e8a45-1fa8-45ad-9920-7c3be06d7cda","ios":"levelo://app?vid=858e8a45-1fa8-45ad-9920-7c3be06d7cda"},"vehicle_type_id":"4","last_reported":1690823171,"current_range_meters":5600,"station_id":"ce4bh412rcd13ifvqds0","pricing_plan_id":"free"},{"bike_id":"50f48197-10f2-409f-8c32-060172a480b1","system_id":"levelo_inurba_marseille","lat":43.295713,"lon":5.399639,"is_reserved":false,"is_disabled":false,"rental_uris":{"android":"levelo://app?vid=50f48197-10f2-409f-8c32-060172a480b1","ios":"levelo://app?vid=50f48197-10f2-409f-8c32-060172a480b1"},"vehicle_type_id":"4","last_reported":1690823171,"current_range_meters":22800,"station_id":"ce4bh312rcd13ifvqdj0","pricing_plan_id":"free"},{"bike_id":"7e0a40b2-e2ae-485c-918e-cd1c97ef6aa8","system_id":"levelo_inurba_marseille","lat":43.283998,"lon":5.375062,"is_reserved":false,"is_disabled":false,"rental_uris":{"android":"levelo://app?vid=7e0a40b2-e2ae-485c-918e-cd1c97ef6aa8","ios":"levelo://app?vid=7e0a40b2-e2ae-485c-918e-cd1c97ef6aa8"},"vehicle_type_id":"4","last_reported":1690823171,"current_range_meters":20000,"station_id":"ce4bh412rcd13ifvqds0","pricing_plan_id":"free"},{"bike_id":"bbef3d8a-8a7d-416a-b7b9-9dbba7e61e81","system_id":"levelo_inurba_marseille","lat":43.283998,"lon":5.375062,"is_reserved":false,"is_disabled":false,"rental_uris":{"android":"levelo://app?vid=bbef3d8a-8a7d-416a-b7b9-9dbba7e61e81","ios":"levelo://app?vid=bbef3d8a-8a7d-416a-b7b9-9dbba7e61e81"},"vehicle_type_id":"4","last_reported":1690823171,"current_range_meters":18800,"station_id":"ce4bh412rcd13ifvqds0","pricing_plan_id":"free"},{"bike_id":"93c80590-7ab2-4fb5-b7a3-af69e7d8f89c","system_id":"levelo_inurba_marseille","lat":43.295713,"lon":5.399639,"is_reserved":false,"is_disabled":false,"rental_uris":{"android":"levelo://app?vid=93c80590-7ab2-4fb5-b7a3-af69e7d8f89c","ios":"levelo://app?vid=93c80590-7ab2-4fb5-b7a3-af69e7d8f89c"},"vehicle_type_id":"4","last_reported":1690823171,"current_range_meters":22800,"station_id":"ce4bh312rcd13ifvqdj0","pricing_plan_id":"free"},{"bike_id":"fd691257-47f1-405e-ae22-390a8b51b0f5","system_id":"levelo_inurba_marseille","lat":43.319179,"lon":5.407725,"is_reserved":false,"is_disabled":false,"rental_uris":{"android":"levelo://app?vid=fd691257-47f1-405e-ae22-390a8b51b0f5","ios":"levelo://app?vid=fd691257-47f1-405e-ae22-390a8b51b0f5"},"vehicle_type_id":"4","last_reported":1690823171,"current_range_meters":20800,"station_id":"ce4bhq12rcd13ifvqhig","pricing_plan_id":"free"},{"bike_id":"cdb37a34-c57a-4564-bb23-20049586e04e","system_id":"levelo_inurba_marseille","lat":43.3372,"lon":5.39186,"is_reserved":false,"is_disabled":false,"rental_uris":{"android":"levelo://app?vid=cdb37a34-c57a-4564-bb23-20049586e04e","ios":"levelo://app?vid=cdb37a34-c57a-4564-bb23-20049586e04e"},"vehicle_type_id":"4","last_reported":1690823171,"current_range_meters":3200,"station_id":"ce4bhr92rcd13ifvqhsg","pricing_plan_id":"free"},{"bike_id":"a8ee7c97-ff88-4b2a-bbf3-08c4ed81df2f","system_id":"levelo_inurba_marseille","lat":43.337168,"lon":5.391825,"is_reserved":false,"is_disabled":false,"rental_uris":{"android":"levelo://app?vid=a8ee7c97-ff88-4b2a-bbf3-08c4ed81df2f","ios":"levelo://app?vid=a8ee7c97-ff88-4b2a-bbf3-08c4ed81df2f"},"vehicle_type_id":"4","last_reported":1690823171,"current_range_meters":400,"station_id":"ce4bhr92rcd13ifvqhsg","pricing_plan_id":"free"},{"bike_id":"b35b35ac-779a-433f-a286-0b05a9e80c7f","system_id":"levelo_inurba_marseille","lat":43.33729,"lon":5.39178,"is_reserved":false,"is_disabled":false,"rental_uris":{"android":"levelo://app?vid=b35b35ac-779a-433f-a286-0b05a9e80c7f","ios":"levelo://app?vid=b35b35ac-779a-433f-a286-0b05a9e80c7f"},"vehicle_type_id":"4","last_reported":1690823171,"current_range_meters":20000,"station_id":"ce4bhr92rcd13ifvqhsg","pricing_plan_id":"free"},{"bike_id":"8deb2c34-4e7b-4556-9b7e-0c2271cdd2bd","system_id":"levelo_inurba_marseille","lat":43.323464,"lon":5.406297,"is_reserved":false,"is_disabled":false,"rental_uris":{"android":"levelo://app?vid=8deb2c34-4e7b-4556-9b7e-0c2271cdd2bd","ios":"levelo://app?vid=8deb2c34-4e7b-4556-9b7e-0c2271cdd2bd"},"vehicle_type_id":"4","last_reported":1690823171,"current_range_meters":29600,"station_id":"ce4bhq92rcd13ifvqhjg","pricing_plan_id":"free"},{"bike_id":"a412b8a9-b41c-49ef-8bda-be4d266dcbd2","system_id":"levelo_inurba_marseille","lat":43.32345,"lon":5.40624,"is_reserved":false,"is_disabled":false,"rental_uris":{"android":"levelo://app?vid=a412b8a9-b41c-49ef-8bda-be4d266dcbd2","ios":"levelo://app?vid=a412b8a9-b41c-49ef-8bda-be4d266dcbd2"},"vehicle_type_id":"4","last_reported":1690823171,"current_range_meters":4000,"station_id":"ce4bhq92rcd13ifvqhjg","pricing_plan_id":"free"},{"bike_id":"999c88c7-8488-41d0-a9d7-6a1c426f1e00","system_id":"levelo_inurba_marseille","lat":43.323464,"lon":5.406297,"is_reserved":false,"is_disabled":false,"rental_uris":{"android":"levelo://app?vid=999c88c7-8488-41d0-a9d7-6a1c426f1e00","ios":"levelo://app?vid=999c88c7-8488-41d0-a9d7-6a1c426f1e00"},"vehicle_type_id":"4","last_reported":1690823171,"current_range_meters":28000,"station_id":"ce4bhq92rcd13ifvqhjg","pricing_plan_id":"free"},{"bike_id":"dbada9f9-e33c-4a7d-ab43-1cac4e571e70","system_id":"levelo_inurba_marseille","lat":43.284787,"lon":5.384116,"is_reserved":false,"is_disabled":false,"rental_uris":{"android":"levelo://app?vid=dbada9f9-e33c-4a7d-ab43-1cac4e571e70","ios":"levelo://app?vid=dbada9f9-e33c-4a7d-ab43-1cac4e571e70"},"vehicle_type_id":"4","last_reported":1690823171,"current_range_meters":30800,"station_id":"ce4bh512rcd13ifvqe3g","pricing_plan_id":"free"},{"bike_id":"c4b72fef-d9c1-4299-a363-8eb0c38bebf4","system_id":"levelo_inurba_marseille","lat":43.29804,"lon":5.40413,"is_reserved":false,"is_disabled":false,"rental_uris":{"android":"levelo://app?vid=c4b72fef-d9c1-4299-a363-8eb0c38bebf4","ios":"levelo://app?vid=c4b72fef-d9c1-4299-a363-8eb0c38bebf4"},"vehicle_type_id":"4","last_reported":1690823171,"current_range_meters":17600,"station_id":"","pricing_plan_id":"free"},{"bike_id":"f8597cf7-1b40-4d01-968d-cf8d1f840248","system_id":"levelo_inurba_marseille","lat":43.283494,"lon":5.380945,"is_reserved":false,"is_disabled":false,"rental_uris":{"android":"levelo://app?vid=f8597cf7-1b40-4d01-968d-cf8d1f840248","ios":"levelo://app?vid=f8597cf7-1b40-4d01-968d-cf8d1f840248"},"vehicle_type_id":"4","last_reported":1690823171,"current_range_meters":5200,"station_id":"ce4bh412rcd13ifvqdr0","pricing_plan_id":"free"},{"bike_id":"9e000755-a935-477c-bb6a-2762a55fe67a","system_id":"levelo_inurba_marseille","lat":43.284219,"lon":5.3497,"is_reserved":false,"is_disabled":false,"rental_uris":{"android":"levelo://app?vid=9e000755-a935-477c-bb6a-2762a55fe67a","ios":"levelo://app?vid=9e000755-a935-477c-bb6a-2762a55fe67a"},"vehicle_type_id":"4","last_reported":1690823171,"current_range_meters":31200,"station_id":"ce4bhbh2rcd13ifvqepg","pricing_plan_id":"free"},{"bike_id":"fdf483a8-83bf-46f7-a41d-af6aa8841cc3","system_id":"levelo_inurba_marseille","lat":43.284219,"lon":5.3497,"is_reserved":false,"is_disabled":false,"rental_uris":{"android":"levelo://app?vid=fdf483a8-83bf-46f7-a41d-af6aa8841cc3","ios":"levelo://app?vid=fdf483a8-83bf-46f7-a41d-af6aa8841cc3"},"vehicle_type_id":"4","last_reported":1690823171,"current_range_meters":25600,"station_id":"ce4bhbh2rcd13ifvqepg","pricing_plan_id":"free"},{"bike_id":"d5b35f69-b146-413b-b20d-9ba0b6fe9bea","system_id":"levelo_inurba_marseille","lat":43.28426,"lon":5.34995,"is_reserved":false,"is_disabled":false,"rental_uris":{"android":"levelo://app?vid=d5b35f69-b146-413b-b20d-9ba0b6fe9bea","ios":"levelo://app?vid=d5b35f69-b146-413b-b20d-9ba0b6fe9bea"},"vehicle_type_id":"4","last_reported":1690823171,"current_range_meters":2000,"station_id":"ce4bhbh2rcd13ifvqepg","pricing_plan_id":"free"},{"bike_id":"33334d76-1d62-42a6-834f-28d4c642b76a","system_id":"levelo_inurba_marseille","lat":43.283494,"lon":5.380945,"is_reserved":false,"is_disabled":false,"rental_uris":{"android":"levelo://app?vid=33334d76-1d62-42a6-834f-28d4c642b76a","ios":"levelo://app?vid=33334d76-1d62-42a6-834f-28d4c642b76a"},"vehicle_type_id":"4","last_reported":1690823171,"current_range_meters":10800,"station_id":"ce4bh412rcd13ifvqdr0","pricing_plan_id":"free"},{"bike_id":"a2521efe-0bbe-444d-a7cf-cc11ef9e375b","system_id":"levelo_inurba_marseille","lat":43.284219,"lon":5.3497,"is_reserved":false,"is_disabled":false,"rental_uris":{"android":"levelo://app?vid=a2521efe-0bbe-444d-a7cf-cc11ef9e375b","ios":"levelo://app?vid=a2521efe-0bbe-444d-a7cf-cc11ef9e375b"},"vehicle_type_id":"4","last_reported":1690823171,"current_range_meters":28800,"station_id":"ce4bhbh2rcd13ifvqepg","pricing_plan_id":"free"},{"bike_id":"4a674481-3a4e-4aaf-af1c-1b43c3d2ac9c","system_id":"levelo_inurba_marseille","lat":43.28424,"lon":5.3499,"is_reserved":false,"is_disabled":false,"rental_uris":{"android":"levelo://app?vid=4a674481-3a4e-4aaf-af1c-1b43c3d2ac9c","ios":"levelo://app?vid=4a674481-3a4e-4aaf-af1c-1b43c3d2ac9c"},"vehicle_type_id":"4","last_reported":1690823171,"current_range_meters":27200,"station_id":"ce4bhbh2rcd13ifvqepg","pricing_plan_id":"free"},{"bike_id":"4710d023-c0a3-442b-b682-d68d4b75f0f4","system_id":"levelo_inurba_marseille","lat":43.284219,"lon":5.3497,"is_reserved":false,"is_disabled":false,"rental_uris":{"android":"levelo://app?vid=4710d023-c0a3-442b-b682-d68d4b75f0f4","ios":"levelo://app?vid=4710d023-c0a3-442b-b682-d68d4b75f0f4"},"vehicle_type_id":"4","last_reported":1690823171,"current_range_meters":29600,"station_id":"ce4bhbh2rcd13ifvqepg","pricing_plan_id":"free"},{"bike_id":"f7f5768e-b80f-4da0-8864-86696a8877fb","system_id":"levelo_inurba_marseille","lat":43.32456,"lon":5.40727,"is_reserved":false,"is_disabled":false,"rental_uris":{"android":"levelo://app?vid=f7f5768e-b80f-4da0-8864-86696a8877fb","ios":"levelo://app?vid=f7f5768e-b80f-4da0-8864-86696a8877fb"},"vehicle_type_id":"4","last_reported":1690823171,"current_range_meters":11200,"station_id":"","pricing_plan_id":"free"},{"bike_id":"2d6abe24-6be0-4aac-9a28-93970cb7a252","system_id":"levelo_inurba_marseille","lat":43.289363,"lon":5.396322,"is_reserved":false,"is_disabled":false,"rental_uris":{"android":"levelo://app?vid=2d6abe24-6be0-4aac-9a28-93970cb7a252","ios":"levelo://app?vid=2d6abe24-6be0-4aac-9a28-93970cb7a252"},"vehicle_type_id":"4","last_reported":1690823171,"current_range_meters":25200,"station_id":"ce4bh3h2rcd13ifvqdn0","pricing_plan_id":"free"},{"bike_id":"a8109abe-a44f-4044-bbec-994558227941","system_id":"levelo_inurba_marseille","lat":43.282754,"lon":5.350519,"is_reserved":false,"is_disabled":false,"rental_uris":{"android":"levelo://app?vid=a8109abe-a44f-4044-bbec-994558227941","ios":"levelo://app?vid=a8109abe-a44f-4044-bbec-994558227941"},"vehicle_type_id":"4","last_reported":1690823171,"current_range_meters":21600,"station_id":"ce4bhbp2rcd13ifvqerg","pricing_plan_id":"free"},{"bike_id":"310116e4-c066-4845-b90e-d028b7280339","system_id":"levelo_inurba_marseille","lat":43.282754,"lon":5.350519,"is_reserved":false,"is_disabled":false,"rental_uris":{"android":"levelo://app?vid=310116e4-c066-4845-b90e-d028b7280339","ios":"levelo://app?vid=310116e4-c066-4845-b90e-d028b7280339"},"vehicle_type_id":"4","last_reported":1690823171,"current_range_meters":31600,"station_id":"ce4bhbp2rcd13ifvqerg","pricing_plan_id":"free"},{"bike_id":"bb56563d-418f-4743-a158-5677e8ab3222","system_id":"levelo_inurba_marseille","lat":43.282754,"lon":5.350519,"is_reserved":false,"is_disabled":false,"rental_uris":{"android":"levelo://app?vid=bb56563d-418f-4743-a158-5677e8ab3222","ios":"levelo://app?vid=bb56563d-418f-4743-a158-5677e8ab3222"},"vehicle_type_id":"4","last_reported":1690823171,"current_range_meters":12400,"station_id":"ce4bhbp2rcd13ifvqerg","pricing_plan_id":"free"},{"bike_id":"694f4289-0c61-40d4-87d5-2fc47d3f2703","system_id":"levelo_inurba_marseille","lat":43.282754,"lon":5.350519,"is_reserved":false,"is_disabled":false,"rental_uris":{"android":"levelo://app?vid=694f4289-0c61-40d4-87d5-2fc47d3f2703","ios":"levelo://app?vid=694f4289-0c61-40d4-87d5-2fc47d3f2703"},"vehicle_type_id":"4","last_reported":1690823171,"current_range_meters":4000,"station_id":"ce4bhbp2rcd13ifvqerg","pricing_plan_id":"free"},{"bike_id":"51ef3c98-330d-4731-9dc5-dd44ba1a90c8","system_id":"levelo_inurba_marseille","lat":43.282754,"lon":5.350519,"is_reserved":false,"is_disabled":false,"rental_uris":{"android":"levelo://app?vid=51ef3c98-330d-4731-9dc5-dd44ba1a90c8","ios":"levelo://app?vid=51ef3c98-330d-4731-9dc5-dd44ba1a90c8"},"vehicle_type_id":"4","last_reported":1690823171,"current_range_meters":15200,"station_id":"ce4bhbp2rcd13ifvqerg","pricing_plan_id":"free"},{"bike_id":"02a7029c-9dd9-42b4-9c46-9ce7c9892580","system_id":"levelo_inurba_marseille","lat":43.283502,"lon":5.386471,"is_reserved":false,"is_disabled":false,"rental_uris":{"android":"levelo://app?vid=02a7029c-9dd9-42b4-9c46-9ce7c9892580","ios":"levelo://app?vid=02a7029c-9dd9-42b4-9c46-9ce7c9892580"},"vehicle_type_id":"4","last_reported":1690823171,"current_range_meters":17200,"station_id":"ce4bh492rcd13ifvqdvg","pricing_plan_id":"free"},{"bike_id":"101dad5e-b7ec-4554-83ee-900c0e9ea45a","system_id":"levelo_inurba_marseille","lat":43.28039,"lon":5.369297,"is_reserved":false,"is_disabled":false,"rental_uris":{"android":"levelo://app?vid=101dad5e-b7ec-4554-83ee-900c0e9ea45a","ios":"levelo://app?vid=101dad5e-b7ec-4554-83ee-900c0e9ea45a"},"vehicle_type_id":"4","last_reported":1690823171,"current_range_meters":0,"station_id":"ce4bha12rcd13ifvqef0","pricing_plan_id":"free"},{"bike_id":"087f9e70-cce2-4d29-99b2-1fb296bd8e74","system_id":"levelo_inurba_marseille","lat":43.282754,"lon":5.350519,"is_reserved":false,"is_disabled":false,"rental_uris":{"android":"levelo://app?vid=087f9e70-cce2-4d29-99b2-1fb296bd8e74","ios":"levelo://app?vid=087f9e70-cce2-4d29-99b2-1fb296bd8e74"},"vehicle_type_id":"4","last_reported":1690823171,"current_range_meters":18000,"station_id":"ce4bhbp2rcd13ifvqerg","pricing_plan_id":"free"},{"bike_id":"a4518de3-1874-40d1-bb41-db5c3cbec346","system_id":"levelo_inurba_marseille","lat":43.282744,"lon":5.350533,"is_reserved":false,"is_disabled":false,"rental_uris":{"android":"levelo://app?vid=a4518de3-1874-40d1-bb41-db5c3cbec346","ios":"levelo://app?vid=a4518de3-1874-40d1-bb41-db5c3cbec346"},"vehicle_type_id":"4","last_reported":1690823171,"current_range_meters":14800,"station_id":"ce4bhbp2rcd13ifvqerg","pricing_plan_id":"free"},{"bike_id":"c3ee8847-60a3-4bdb-b2d2-693881697ea2","system_id":"levelo_inurba_marseille","lat":43.282744,"lon":5.350533,"is_reserved":false,"is_disabled":false,"rental_uris":{"android":"levelo://app?vid=c3ee8847-60a3-4bdb-b2d2-693881697ea2","ios":"levelo://app?vid=c3ee8847-60a3-4bdb-b2d2-693881697ea2"},"vehicle_type_id":"4","last_reported":1690823171,"current_range_meters":14800,"station_id":"ce4bhbp2rcd13ifvqerg","pricing_plan_id":"free"},{"bike_id":"d7198089-2643-42c6-bcd3-377cf0c2c0b5","system_id":"levelo_inurba_marseille","lat":43.28039,"lon":5.369297,"is_reserved":false,"is_disabled":false,"rental_uris":{"android":"levelo://app?vid=d7198089-2643-42c6-bcd3-377cf0c2c0b5","ios":"levelo://app?vid=d7198089-2643-42c6-bcd3-377cf0c2c0b5"},"vehicle_type_id":"4","last_reported":1690823171,"current_range_meters":3600,"station_id":"ce4bha12rcd13ifvqef0","pricing_plan_id":"free"},{"bike_id":"0a0b17c5-b899-4b5f-8a36-038b80d08d5e","system_id":"levelo_inurba_marseille","lat":43.28039,"lon":5.369297,"is_reserved":false,"is_disabled":false,"rental_uris":{"android":"levelo://app?vid=0a0b17c5-b899-4b5f-8a36-038b80d08d5e","ios":"levelo://app?vid=0a0b17c5-b899-4b5f-8a36-038b80d08d5e"},"vehicle_type_id":"4","last_reported":1690823171,"current_range_meters":13600,"station_id":"ce4bha12rcd13ifvqef0","pricing_plan_id":"free"},{"bike_id":"f3c9bbbd-022f-4c3d-8889-2b7f08f7751e","system_id":"levelo_inurba_marseille","lat":43.28039,"lon":5.369297,"is_reserved":false,"is_disabled":false,"rental_uris":{"android":"levelo://app?vid=f3c9bbbd-022f-4c3d-8889-2b7f08f7751e","ios":"levelo://app?vid=f3c9bbbd-022f-4c3d-8889-2b7f08f7751e"},"vehicle_type_id":"4","last_reported":1690823171,"current_range_meters":22400,"station_id":"ce4bha12rcd13ifvqef0","pricing_plan_id":"free"},{"bike_id":"1fe7b53e-db39-4fd3-8e1a-d6532501b1a8","system_id":"levelo_inurba_marseille","lat":43.280382,"lon":5.369291,"is_reserved":false,"is_disabled":false,"rental_uris":{"android":"levelo://app?vid=1fe7b53e-db39-4fd3-8e1a-d6532501b1a8","ios":"levelo://app?vid=1fe7b53e-db39-4fd3-8e1a-d6532501b1a8"},"vehicle_type_id":"4","last_reported":1690823171,"current_range_meters":22400,"station_id":"ce4bha12rcd13ifvqef0","pricing_plan_id":"free"},{"bike_id":"645db14d-0eae-4b95-84b8-d84c748cbbae","system_id":"levelo_inurba_marseille","lat":43.28039,"lon":5.369297,"is_reserved":false,"is_disabled":false,"rental_uris":{"android":"levelo://app?vid=645db14d-0eae-4b95-84b8-d84c748cbbae","ios":"levelo://app?vid=645db14d-0eae-4b95-84b8-d84c748cbbae"},"vehicle_type_id":"4","last_reported":1690823171,"current_range_meters":17200,"station_id":"ce4bha12rcd13ifvqef0","pricing_plan_id":"free"},{"bike_id":"96751007-2cf4-4589-bbde-b138e8aaf8fa","system_id":"levelo_inurba_marseille","lat":43.28039,"lon":5.369297,"is_reserved":false,"is_disabled":false,"rental_uris":{"android":"levelo://app?vid=96751007-2cf4-4589-bbde-b138e8aaf8fa","ios":"levelo://app?vid=96751007-2cf4-4589-bbde-b138e8aaf8fa"},"vehicle_type_id":"4","last_reported":1690823171,"current_range_meters":24400,"station_id":"ce4bha12rcd13ifvqef0","pricing_plan_id":"free"},{"bike_id":"c67fd003-011a-42e2-85f2-2714de5997e4","system_id":"levelo_inurba_marseille","lat":43.32502,"lon":5.40824,"is_reserved":false,"is_disabled":false,"rental_uris":{"android":"levelo://app?vid=c67fd003-011a-42e2-85f2-2714de5997e4","ios":"levelo://app?vid=c67fd003-011a-42e2-85f2-2714de5997e4"},"vehicle_type_id":"4","last_reported":1690823171,"current_range_meters":400,"station_id":"","pricing_plan_id":"free"},{"bike_id":"ef84567a-3537-4313-b3b7-89acc275e8e3","system_id":"levelo_inurba_marseille","lat":43.28039,"lon":5.369297,"is_reserved":false,"is_disabled":false,"rental_uris":{"android":"levelo://app?vid=ef84567a-3537-4313-b3b7-89acc275e8e3","ios":"levelo://app?vid=ef84567a-3537-4313-b3b7-89acc275e8e3"},"vehicle_type_id":"4","last_reported":1690823171,"current_range_meters":6400,"station_id":"ce4bha12rcd13ifvqef0","pricing_plan_id":"free"},{"bike_id":"2cd8ced8-5ece-422e-ae8a-f60488db1366","system_id":"levelo_inurba_marseille","lat":43.290412,"lon":5.399633,"is_reserved":false,"is_disabled":false,"rental_uris":{"android":"levelo://app?vid=2cd8ced8-5ece-422e-ae8a-f60488db1366","ios":"levelo://app?vid=2cd8ced8-5ece-422e-ae8a-f60488db1366"},"vehicle_type_id":"4","last_reported":1690823171,"current_range_meters":8800,"station_id":"ce4bh392rcd13ifvqdm0","pricing_plan_id":"free"},{"bike_id":"f9e77593-6b7d-4d54-abff-3f71eedeff00","system_id":"levelo_inurba_marseille","lat":43.28107,"lon":5.37836,"is_reserved":false,"is_disabled":false,"rental_uris":{"android":"levelo://app?vid=f9e77593-6b7d-4d54-abff-3f71eedeff00","ios":"levelo://app?vid=f9e77593-6b7d-4d54-abff-3f71eedeff00"},"vehicle_type_id":"4","last_reported":1690823171,"current_range_meters":23200,"station_id":"ce4bha12rcd13ifvqee0","pricing_plan_id":"free"},{"bike_id":"60b45dc3-1520-4bb2-bff0-cebf8cffb0d2","system_id":"levelo_inurba_marseille","lat":43.28104,"lon":5.37841,"is_reserved":false,"is_disabled":false,"rental_uris":{"android":"levelo://app?vid=60b45dc3-1520-4bb2-bff0-cebf8cffb0d2","ios":"levelo://app?vid=60b45dc3-1520-4bb2-bff0-cebf8cffb0d2"},"vehicle_type_id":"4","last_reported":1690823171,"current_range_meters":5600,"station_id":"ce4bha12rcd13ifvqee0","pricing_plan_id":"free"},{"bike_id":"25db64f1-e5d4-48cb-ae83-576ad9d1461a","system_id":"levelo_inurba_marseille","lat":43.296372,"lon":5.405984,"is_reserved":false,"is_disabled":false,"rental_uris":{"android":"levelo://app?vid=25db64f1-e5d4-48cb-ae83-576ad9d1461a","ios":"levelo://app?vid=25db64f1-e5d4-48cb-ae83-576ad9d1461a"},"vehicle_type_id":"4","last_reported":1690823171,"current_range_meters":18400,"station_id":"","pricing_plan_id":"free"},{"bike_id":"8cadeda5-9ab5-4d50-bc40-b1f884ec9cf5","system_id":"levelo_inurba_marseille","lat":43.282754,"lon":5.350519,"is_reserved":false,"is_disabled":false,"rental_uris":{"android":"levelo://app?vid=8cadeda5-9ab5-4d50-bc40-b1f884ec9cf5","ios":"levelo://app?vid=8cadeda5-9ab5-4d50-bc40-b1f884ec9cf5"},"vehicle_type_id":"4","last_reported":1690823171,"current_range_meters":12800,"station_id":"ce4bhbp2rcd13ifvqerg","pricing_plan_id":"free"},{"bike_id":"159e935e-be25-4c72-b1e2-dfe9f7a06677","system_id":"levelo_inurba_marseille","lat":43.28573,"lon":5.394992,"is_reserved":false,"is_disabled":false,"rental_uris":{"android":"levelo://app?vid=159e935e-be25-4c72-b1e2-dfe9f7a06677","ios":"levelo://app?vid=159e935e-be25-4c72-b1e2-dfe9f7a06677"},"vehicle_type_id":"4","last_reported":1690823171,"current_range_meters":27200,"station_id":"ce4bh292rcd13ifvqdg0","pricing_plan_id":"free"},{"bike_id":"5a63241f-0464-430f-a239-2071644aca5a","system_id":"levelo_inurba_marseille","lat":43.304188,"lon":5.412904,"is_reserved":false,"is_disabled":false,"rental_uris":{"android":"levelo://app?vid=5a63241f-0464-430f-a239-2071644aca5a","ios":"levelo://app?vid=5a63241f-0464-430f-a239-2071644aca5a"},