{"last_updated":1710360436,"ttl":30,"version":"2.2","data":{"bikes":[{"bike_id":"aa02b9d5-cdbe-46cf-9248-cb91ca5c56f3","system_id":"levelo_inurba_marseille","lat":43.312239,"lon":5.368562,"is_reserved":false,"is_disabled":false,"rental_uris":{"android":"levelo://app?vid=aa02b9d5-cdbe-46cf-9248-cb91ca5c56f3","ios":"levelo://app?vid=aa02b9d5-cdbe-46cf-9248-cb91ca5c56f3"},"vehicle_type_id":"4","last_reported":1710360436,"current_range_meters":3200,"station_id":"ce4bgl92rcd13ifvqbq0","pricing_plan_id":"cebpf4jnsgd1na2vs0mg"},{"bike_id":"e6e61583-a681-445d-8d4a-cc48c0887f00","system_id":"levelo_inurba_marseille","lat":43.312239,"lon":5.368562,"is_reserved":false,"is_disabled":false,"rental_uris":{"android":"levelo://app?vid=e6e61583-a681-445d-8d4a-cc48c0887f00","ios":"levelo://app?vid=e6e61583-a681-445d-8d4a-cc48c0887f00"},"vehicle_type_id":"4","last_reported":1710360436,"current_range_meters":21200,"station_id":"ce4bgl92rcd13ifvqbq0","pricing_plan_id":"cebpf4jnsgd1na2vs0mg"},{"bike_id":"23857e83-5d48-4fce-b0a2-a7565dca7932","system_id":"levelo_inurba_marseille","lat":43.314811,"lon":5.373104,"is_reserved":false,"is_disabled":false,"rental_uris":{"android":"levelo://app?vid=23857e83-5d48-4fce-b0a2-a7565dca7932","ios":"levelo://app?vid=23857e83-5d48-4fce-b0a2-a7565dca7932"},"vehicle_type_id":"4","last_reported":1710360436,"current_range_meters":10000,"station_id":"ce4bgt12rcd13ifvqcd0","pricing_plan_id":"cebpf4jnsgd1na2vs0mg"},{"bike_id":"64ced4ba-aaff-4a95-8ef9-3e018386637c","system_id":"levelo_inurba_marseille","lat":43.314811,"lon":5.373103,"is_reserved":false,"is_disabled":false,"rental_uris":{"android":"levelo://app?vid=64ced4ba-aaff-4a95-8ef9-3e018386637c","ios":"levelo://app?vid=64ced4ba-aaff-4a95-8ef9-3e018386637c"},"vehicle_type_id":"4","last_reported":1710360436,"current_range_meters":18000,"station_id":"ce4bgt12rcd13ifvqcd0","pricing_plan_id":"cebpf4jnsgd1na2vs0mg"},{"bike_id":"8407b6a9-831e-4e7b-8475-e92e140c1292","system_id":"levelo_inurba_marseille","lat":43.314811,"lon":5.373103,"is_reserved":false,"is_disabled":false,"rental_uris":{"android":"levelo://app?vid=8407b6a9-831e-4e7b-8475-e92e140c1292","ios":"levelo://app?vid=8407b6a9-831e-4e7b-8475-e92e140c1292"},"vehicle_type_id":"4","last_reported":1710360436,"current_range_meters":14800,"station_id":"ce4bgt12rcd13ifvqcd0","pricing_plan_id":"cebpf4jnsgd1na2vs0mg"},{"bike_id":"9fb019c3-83e3-49c9-bac7-bf3574ee99b4","system_id":"levelo_inurba_marseille","lat":43.309039,"lon":5.371797,"is_reserved":false,"is_disabled":false,"rental_uris":{"android":"levelo://app?vid=9fb019c3-83e3-49c9-bac7-bf3574ee99b4","ios":"levelo://app?vid=9fb019c3-83e3-49c9-bac7-bf3574ee99b4"},"vehicle_type_id":"4","last_reported":1710360436,"current_range_meters":2800,"station_id":"ce4bguh2rcd13ifvqckg","pricing_plan_id":"cebpf4jnsgd1na2vs0mg"},{"bike_id":"9161b166-3719-4125-aae8-75b9182500b8","system_id":"levelo_inurba_marseille","lat":43.305368,"lon":5.367343,"is_reserved":false,"is_disabled":false,"rental_uris":{"android":"levelo://app?vid=9161b166-3719-4125-aae8-75b9182500b8","ios":"levelo://app?vid=9161b166-3719-4125-aae8-75b9182500b8"},"vehicle_type_id":"4","last_reported":1710360436,"current_range_meters":22800,"station_id":"ce4bgrp2rcd13ifvqc9g","pricing_plan_id":"cebpf4jnsgd1na2vs0mg"},{"bike_id":"9692424f-9124-40bc-a162-f0f5d7bdcdb1","system_id":"levelo_inurba_marseille","lat":43.305368,"lon":5.367343,"is_reserved":false,"is_disabled":false,"rental_uris":{"android":"levelo://app?vid=9692424f-9124-40bc-a162-f0f5d7bdcdb1","ios":"levelo://app?vid=9692424f-9124-40bc-a162-f0f5d7bdcdb1"},"vehicle_type_id":"4","last_reported":1710360436,"current_range_meters":20000,"station_id":"ce4bgrp2rcd13ifvqc9g","pricing_plan_id":"cebpf4jnsgd1na2vs0mg"},{"bike_id":"10250c55-2bb2-4d41-a854-9f96952af195","system_id":"levelo_inurba_marseille","lat":43.30537,"lon":5.36541,"is_reserved":false,"is_disabled":false,"rental_uris":{"android":"levelo://app?vid=10250c55-2bb2-4d41-a854-9f96952af195","ios":"levelo://app?vid=10250c55-2bb2-4d41-a854-9f96952af195"},"vehicle_type_id":"4","last_reported":1710360436,"current_range_meters":0,"station_id":"ce4bgs12rcd13ifvqcag","pricing_plan_id":"cebpf4jnsgd1na2vs0mg"},{"bike_id":"023f5ddb-009c-432b-8764-cd0b09638c84","system_id":"levelo_inurba_marseille","lat":43.30528,"lon":5.36718,"is_reserved":false,"is_disabled":false,"rental_uris":{"android":"levelo://app?vid=023f5ddb-009c-432b-8764-cd0b09638c84","ios":"levelo://app?vid=023f5ddb-009c-432b-8764-cd0b09638c84"},"vehicle_type_id":"4","last_reported":1710360436,"current_range_meters":14800,"station_id":"ce4bgrp2rcd13ifvqc9g","pricing_plan_id":"cebpf4jnsgd1na2vs0mg"},{"bike_id":"70bc790c-38b8-4dce-9df1-b7717c09dfc5","system_id":"levelo_inurba_marseille","lat":43.305368,"lon":5.367343,"is_reserved":false,"is_disabled":false,"rental_uris":{"android":"levelo://app?vid=70bc790c-38b8-4dce-9df1-b7717c09dfc5","ios":"levelo://app?vid=70bc790c-38b8-4dce-9df1-b7717c09dfc5"},"vehicle_type_id":"4","last_reported":1710360436,"current_range_meters":3600,"station_id":"ce4bgrp2rcd13ifvqc9g","pricing_plan_id":"cebpf4jnsgd1na2vs0mg"},{"bike_id":"7714f54a-3024-4c2f-b025-bd58f0ff3df3","system_id":"levelo_inurba_marseille","lat":43.305989,"lon":5.37225,"is_reserved":false,"is_disabled":false,"rental_uris":{"android":"levelo://app?vid=7714f54a-3024-4c2f-b025-bd58f0ff3df3","ios":"levelo://app?vid=7714f54a-3024-4c2f-b025-bd58f0ff3df3"},"vehicle_type_id":"4","last_reported":1710360436,"current_range_meters":8400,"station_id":"ce4bgqh2rcd13ifvqc4g","pricing_plan_id":"cebpf4jnsgd1na2vs0mg"},{"bike_id":"4cf18e0b-27e6-4aae-889d-0fcb50f056f1","system_id":"levelo_inurba_marseille","lat":43.305989,"lon":5.37225,"is_reserved":false,"is_disabled":false,"rental_uris":{"android":"levelo://app?vid=4cf18e0b-27e6-4aae-889d-0fcb50f056f1","ios":"levelo://app?vid=4cf18e0b-27e6-4aae-889d-0fcb50f056f1"},"vehicle_type_id":"4","last_reported":1710360436,"current_range_meters":17200,"station_id":"ce4bgqh2rcd13ifvqc4g","pricing_plan_id":"cebpf4jnsgd1na2vs0mg"},{"bike_id":"6edcbdbd-0736-4bd4-a03b-1ddee99fe988","system_id":"levelo_inurba_marseille","lat":43.305989,"lon":5.37225,"is_reserved":false,"is_disabled":false,"rental_uris":{"android":"levelo://app?vid=6edcbdbd-0736-4bd4-a03b-1ddee99fe988","ios":"levelo://app?vid=6edcbdbd-0736-4bd4-a03b-1ddee99fe988"},"vehicle_type_id":"4","last_reported":1710360436,"current_range_meters":18000,"station_id":"ce4bgqh2rcd13ifvqc4g","pricing_plan_id":"cebpf4jnsgd1na2vs0mg"},{"bike_id":"4c8183e9-a8d1-4d7a-9731-d27691c4daa1","system_id":"levelo_inurba_marseille","lat":43.305989,"lon":5.37225,"is_reserved":false,"is_disabled":false,"rental_uris":{"android":"levelo://app?vid=4c8183e9-a8d1-4d7a-9731-d27691c4daa1","ios":"levelo://app?vid=4c8183e9-a8d1-4d7a-9731-d27691c4daa1"},"vehicle_type_id":"4","last_reported":1710360436,"current_range_meters":10400,"station_id":"ce4bgqh2rcd13ifvqc4g","pricing_plan_id":"cebpf4jnsgd1na2vs0mg"},{"bike_id":"10e5f3d2-6e88-46f9-9e24-a3c73c1ba2f1","system_id":"levelo_inurba_marseille","lat":43.306014,"lon":5.372259,"is_reserved":false,"is_disabled":false,"rental_uris":{"android":"levelo://app?vid=10e5f3d2-6e88-46f9-9e24-a3c73c1ba2f1","ios":"levelo://app?vid=10e5f3d2-6e88-46f9-9e24-a3c73c1ba2f1"},"vehicle_type_id":"4","last_reported":1710360436,"current_range_meters":16800,"station_id":"ce4bgqh2rcd13ifvqc4g","pricing_plan_id":"cebpf4jnsgd1na2vs0mg"},{"bike_id":"599e811f-ca31-400b-8069-c64893ef7cf0","system_id":"levelo_inurba_marseille","lat":43.305989,"lon":5.37225,"is_reserved":false,"is_disabled":false,"rental_uris":{"android":"levelo://app?vid=599e811f-ca31-400b-8069-c64893ef7cf0","ios":"levelo://app?vid=599e811f-ca31-400b-8069-c64893ef7cf0"},"vehicle_type_id":"4","last_reported":1710360436,"current_range_meters":12800,"station_id":"ce4bgqh2rcd13ifvqc4g","pricing_plan_id":"cebpf4jnsgd1na2vs0mg"},{"bike_id":"1943fa1d-b29d-45b6-9242-37e2c1d520fe","system_id":"levelo_inurba_marseille","lat":43.305989,"lon":5.37225,"is_reserved":false,"is_disabled":false,"rental_uris":{"android":"levelo://app?vid=1943fa1d-b29d-45b6-9242-37e2c1d520fe","ios":"levelo://app?vid=1943fa1d-b29d-45b6-9242-37e2c1d520fe"},"vehicle_type_id":"4","last_reported":1710360436,"current_range_meters":0,"station_id":"ce4bgqh2rcd13ifvqc4g","pricing_plan_id":"cebpf4jnsgd1na2vs0mg"},{"bike_id":"6df8a519-a704-46e9-b3eb-42b1fb917e85","system_id":"levelo_inurba_marseille","lat":43.31741,"lon":5.37761,"is_reserved":false,"is_disabled":false,"rental_uris":{"android":"levelo://app?vid=6df8a519-a704-46e9-b3eb-42b1fb917e85","ios":"levelo://app?vid=6df8a519-a704-46e9-b3eb-42b1fb917e85"},"vehicle_type_id":"4","last_reported":1710360436,"current_range_meters":22400,"station_id":"ce4bgth2rcd13ifvqch0","pricing_plan_id":"cebpf4jnsgd1na2vs0mg"},{"bike_id":"a53896b8-d508-4de2-94c9-bd5f6f22c745","system_id":"levelo_inurba_marseille","lat":43.303165,"lon":5.36898,"is_reserved":false,"is_disabled":false,"rental_uris":{"android":"levelo://app?vid=a53896b8-d508-4de2-94c9-bd5f6f22c745","ios":"levelo://app?vid=a53896b8-d508-4de2-94c9-bd5f6f22c745"},"vehicle_type_id":"4","last_reported":1710360436,"current_range_meters":24000,"station_id":"ce4bgqh2rcd13ifvqc5g","pricing_plan_id":"cebpf4jnsgd1na2vs0mg"},{"bike_id":"01e6348b-3cdb-4315-9684-4839e24ac177","system_id":"levelo_inurba_marseille","lat":43.30312,"lon":5.36888,"is_reserved":false,"is_disabled":false,"rental_uris":{"android":"levelo://app?vid=01e6348b-3cdb-4315-9684-4839e24ac177","ios":"levelo://app?vid=01e6348b-3cdb-4315-9684-4839e24ac177"},"vehicle_type_id":"4","last_reported":1710360436,"current_range_meters":26400,"station_id":"ce4bgqh2rcd13ifvqc5g","pricing_plan_id":"cebpf4jnsgd1na2vs0mg"},{"bike_id":"f1a1af6d-62ba-49c7-9eb8-24cb0b0fdac9","system_id":"levelo_inurba_marseille","lat":43.315289,"lon":5.380349,"is_reserved":false,"is_disabled":false,"rental_uris":{"android":"levelo://app?vid=f1a1af6d-62ba-49c7-9eb8-24cb0b0fdac9","ios":"levelo://app?vid=f1a1af6d-62ba-49c7-9eb8-24cb0b0fdac9"},"vehicle_type_id":"4","last_reported":1710360436,"current_range_meters":5200,"station_id":"ce4bhsp2rcd13ifvqi50","pricing_plan_id":"cebpf4jnsgd1na2vs0mg"},{"bike_id":"6a72228a-2825-41b9-a3cb-61aa6d088b55","system_id":"levelo_inurba_marseille","lat":43.31535,"lon":5.38036,"is_reserved":false,"is_disabled":false,"rental_uris":{"android":"levelo://app?vid=6a72228a-2825-41b9-a3cb-61aa6d088b55","ios":"levelo://app?vid=6a72228a-2825-41b9-a3cb-61aa6d088b55"},"vehicle_type_id":"4","last_reported":1710360436,"current_range_meters":0,"station_id":"ce4bhsp2rcd13ifvqi50","pricing_plan_id":"cebpf4jnsgd1na2vs0mg"},{"bike_id":"ff47e8ff-077b-4c2d-916e-5582b4b25590","system_id":"levelo_inurba_marseille","lat":43.302606,"lon":5.36902,"is_reserved":false,"is_disabled":false,"rental_uris":{"android":"levelo://app?vid=ff47e8ff-077b-4c2d-916e-5582b4b25590","ios":"levelo://app?vid=ff47e8ff-077b-4c2d-916e-5582b4b25590"},"vehicle_type_id":"4","last_reported":1710360436,"current_range_meters":7600,"station_id":"ce4bgqh2rcd13ifvqc5g","pricing_plan_id":"cebpf4jnsgd1na2vs0mg"},{"bike_id":"654bcbc8-6942-4ce5-8d6a-ebe1e9868859","system_id":"levelo_inurba_marseille","lat":43.301939,"lon":5.366286,"is_reserved":false,"is_disabled":false,"rental_uris":{"android":"levelo://app?vid=654bcbc8-6942-4ce5-8d6a-ebe1e9868859","ios":"levelo://app?vid=654bcbc8-6942-4ce5-8d6a-ebe1e9868859"},"vehicle_type_id":"4","last_reported":1710360436,"current_range_meters":0,"station_id":"ce4bgrh2rcd13ifvqc8g","pricing_plan_id":"cebpf4jnsgd1na2vs0mg"},{"bike_id":"456216b8-d373-4714-a15b-a9b3d86ff9a7","system_id":"levelo_inurba_marseille","lat":43.301939,"lon":5.366286,"is_reserved":false,"is_disabled":false,"rental_uris":{"android":"levelo://app?vid=456216b8-d373-4714-a15b-a9b3d86ff9a7","ios":"levelo://app?vid=456216b8-d373-4714-a15b-a9b3d86ff9a7"},"vehicle_type_id":"4","last_reported":1710360436,"current_range_meters":16000,"station_id":"ce4bgrh2rcd13ifvqc8g","pricing_plan_id":"cebpf4jnsgd1na2vs0mg"},{"bike_id":"85f0d066-41ec-45db-a43e-e0a80f7f8a4d","system_id":"levelo_inurba_marseille","lat":43.308012,"lon":5.381511,"is_reserved":false,"is_disabled":false,"rental_uris":{"android":"levelo://app?vid=85f0d066-41ec-45db-a43e-e0a80f7f8a4d","ios":"levelo://app?vid=85f0d066-41ec-45db-a43e-e0a80f7f8a4d"},"vehicle_type_id":"4","last_reported":1710360436,"current_range_meters":0,"station_id":"ce4bgt12rcd13ifvqce0","pricing_plan_id":"cebpf4jnsgd1na2vs0mg"},{"bike_id":"521e61ff-0483-4c43-a2e3-e5b0efbbdd81","system_id":"levelo_inurba_marseille","lat":43.304606,"lon":5.379026,"is_reserved":false,"is_disabled":false,"rental_uris":{"android":"levelo://app?vid=521e61ff-0483-4c43-a2e3-e5b0efbbdd81","ios":"levelo://app?vid=521e61ff-0483-4c43-a2e3-e5b0efbbdd81"},"vehicle_type_id":"4","last_reported":1710360436,"current_range_meters":0,"station_id":"ce4bgup2rcd13ifvqcn0","pricing_plan_id":"cebpf4jnsgd1na2vs0mg"},{"bike_id":"6068d22f-e2ba-4474-ba2e-a9d2f6b84487","system_id":"levelo_inurba_marseille","lat":43.324771,"lon":5.36557,"is_reserved":false,"is_disabled":false,"rental_uris":{"android":"levelo://app?vid=6068d22f-e2ba-4474-ba2e-a9d2f6b84487","ios":"levelo://app?vid=6068d22f-e2ba-4474-ba2e-a9d2f6b84487"},"vehicle_type_id":"4","last_reported":1710360436,"current_range_meters":0,"station_id":"ce4bhs12rcd13ifvqhvg","pricing_plan_id":"cebpf4jnsgd1na2vs0mg"},{"bike_id":"36b9805d-1b04-4ec6-8f80-ae352e34369c","system_id":"levelo_inurba_marseille","lat":43.324771,"lon":5.36557,"is_reserved":false,"is_disabled":false,"rental_uris":{"android":"levelo://app?vid=36b9805d-1b04-4ec6-8f80-ae352e34369c","ios":"levelo://app?vid=36b9805d-1b04-4ec6-8f80-ae352e34369c"},"vehicle_type_id":"4","last_reported":1710360436,"current_range_meters":1600,"station_id":"ce4bhs12rcd13ifvqhvg","pricing_plan_id":"cebpf4jnsgd1na2vs0mg"},{"bike_id":"2cbe4754-8bed-4fb8-ac7d-a2dfa79db6a5","system_id":"levelo_inurba_marseille","lat":43.32478,"lon":5.36575,"is_reserved":false,"is_disabled":false,"rental_uris":{"android":"levelo://app?vid=2cbe4754-8bed-4fb8-ac7d-a2dfa79db6a5","ios":"levelo://app?vid=2cbe4754-8bed-4fb8-ac7d-a2dfa79db6a5"},"vehicle_type_id":"4","last_reported":1710360436,"current_range_meters":6400,"station_id":"ce4bhs12rcd13ifvqhvg","pricing_plan_id":"cebpf4jnsgd1na2vs0mg"},{"bike_id":"49f2117d-bbb1-42e5-80a2-7a881aecf261","system_id":"levelo_inurba_marseille","lat":43.324771,"lon":5.36557,"is_reserved":false,"is_disabled":false,"rental_uris":{"android":"levelo://app?vid=49f2117d-bbb1-42e5-80a2-7a881aecf261","ios":"levelo://app?vid=49f2117d-bbb1-42e5-80a2-7a881aecf261"},"vehicle_type_id":"4","last_reported":1710360436,"current_range_meters":10400,"station_id":"ce4bhs12rcd13ifvqhvg","pricing_plan_id":"cebpf4jnsgd1na2vs0mg"},{"bike_id":"71f4eaaf-8954-44e2-93bc-76b7e657b03b","system_id":"levelo_inurba_marseille","lat":43.324771,"lon":5.36557,"is_reserved":false,"is_disabled":false,"rental_uris":{"android":"levelo://app?vid=71f4eaaf-8954-44e2-93bc-76b7e657b03b","ios":"levelo://app?vid=71f4eaaf-8954-44e2-93bc-76b7e657b03b"},"vehicle_type_id":"4","last_reported":1710360436,"current_range_meters":12800,"station_id":"ce4bhs12rcd13ifvqhvg","pricing_plan_id":"cebpf4jnsgd1na2vs0mg"},{"bike_id":"ed2f200f-86c1-4eb8-ad3b-d4ae2c5298fd","system_id":"levelo_inurba_marseille","lat":43.324771,"lon":5.36557,"is_reserved":false,"is_disabled":false,"rental_uris":{"android":"levelo://app?vid=ed2f200f-86c1-4eb8-ad3b-d4ae2c5298fd","ios":"levelo://app?vid=ed2f200f-86c1-4eb8-ad3b-d4ae2c5298fd"},"vehicle_type_id":"4","last_reported":1710360436,"current_range_meters":23600,"station_id":"ce4bhs12rcd13ifvqhvg","pricing_plan_id":"cebpf4jnsgd1na2vs0mg"},{"bike_id":"b735f631-99f5-4034-8269-a86a4a969537","system_id":"levelo_inurba_marseille","lat":43.324771,"lon":5.36557,"is_reserved":false,"is_disabled":false,"rental_uris":{"android":"levelo://app?vid=b735f631-99f5-4034-8269-a86a4a969537","ios":"levelo://app?vid=b735f631-99f5-4034-8269-a86a4a969537"},"vehicle_type_id":"4","last_reported":1710360436,"current_range_meters":4000,"station_id":"ce4bhs12rcd13ifvqhvg","pricing_plan_id":"cebpf4jnsgd1na2vs0mg"},{"bike_id":"64568b75-f031-43c1-b864-d2ad6638bde4","system_id":"levelo_inurba_marseille","lat":43.324771,"lon":5.36557,"is_reserved":false,"is_disabled":false,"rental_uris":{"android":"levelo://app?vid=64568b75-f031-43c1-b864-d2ad6638bde4","ios":"levelo://app?vid=64568b75-f031-43c1-b864-d2ad6638bde4"},"vehicle_type_id":"4","last_reported":1710360436,"current_range_meters":4400,"station_id":"ce4bhs12rcd13ifvqhvg","pricing_plan_id":"cebpf4jnsgd1na2vs0mg"},{"bike_id":"69f16bc0-91b1-4cad-91b5-51ae8c8ba203","system_id":"levelo_inurba_marseille","lat":43.32481,"lon":5.365619,"is_reserved":false,"is_disabled":false,"rental_uris":{"android":"levelo://app?vid=69f16bc0-91b1-4cad-91b5-51ae8c8ba203","ios":"levelo://app?vid=69f16bc0-91b1-4cad-91b5-51ae8c8ba203"},"vehicle_type_id":"4","last_reported":1710360436,"current_range_meters":4400,"station_id":"ce4bhs12rcd13ifvqhvg","pricing_plan_id":"cebpf4jnsgd1na2vs0mg"},{"bike_id":"75737f94-0aac-466c-878e-f5152ecd0234","system_id":"levelo_inurba_marseille","lat":43.324771,"lon":5.36557,"is_reserved":false,"is_disabled":false,"rental_uris":{"android":"levelo://app?vid=75737f94-0aac-466c-878e-f5152ecd0234","ios":"levelo://app?vid=75737f94-0aac-466c-878e-f5152ecd0234"},"vehicle_type_id":"4","last_reported":1710360436,"current_range_meters":1600,"station_id":"ce4bhs12rcd13ifvqhvg","pricing_plan_id":"cebpf4jnsgd1na2vs0mg"},{"bike_id":"3e493ae2-c51c-41da-a0b8-fbd174ae9e18","system_id":"levelo_inurba_marseille","lat":43.324834,"lon":5.365739,"is_reserved":false,"is_disabled":false,"rental_uris":{"android":"levelo://app?vid=3e493ae2-c51c-41da-a0b8-fbd174ae9e18","ios":"levelo://app?vid=3e493ae2-c51c-41da-a0b8-fbd174ae9e18"},"vehicle_type_id":"4","last_reported":1710360436,"current_range_meters":5200,"station_id":"ce4bhs12rcd13ifvqhvg","pricing_plan_id":"cebpf4jnsgd1na2vs0mg"},{"bike_id":"2f177a10-dff1-4a4e-be87-c3cc9e449d3e","system_id":"levelo_inurba_marseille","lat":43.324771,"lon":5.36557,"is_reserved":false,"is_disabled":false,"rental_uris":{"android":"levelo://app?vid=2f177a10-dff1-4a4e-be87-c3cc9e449d3e","ios":"levelo://app?vid=2f177a10-dff1-4a4e-be87-c3cc9e449d3e"},"vehicle_type_id":"4","last_reported":1710360436,"current_range_meters":3600,"station_id":"ce4bhs12rcd13ifvqhvg","pricing_plan_id":"cebpf4jnsgd1na2vs0mg"},{"bike_id":"2e3cabf9-3880-4d07-ae3b-af234e57884b","system_id":"levelo_inurba_marseille","lat":43.324771,"lon":5.36557,"is_reserved":false,"is_disabled":false,"rental_uris":{"android":"levelo://app?vid=2e3cabf9-3880-4d07-ae3b-af234e57884b","ios":"levelo://app?vid=2e3cabf9-3880-4d07-ae3b-af234e57884b"},"vehicle_type_id":"4","last_reported":1710360436,"current_range_meters":4400,"station_id":"ce4bhs12rcd13ifvqhvg","pricing_plan_id":"cebpf4jnsgd1na2vs0mg"},{"bike_id":"cfdb109c-b591-4f11-863b-b5c16f3933fe","system_id":"levelo_inurba_marseille","lat":43.324771,"lon":5.36557,"is_reserved":false,"is_disabled":false,"rental_uris":{"android":"levelo://app?vid=cfdb109c-b591-4f11-863b-b5c16f3933fe","ios":"levelo://app?vid=cfdb109c-b591-4f11-863b-b5c16f3933fe"},"vehicle_type_id":"4","last_reported":1710360436,"current_range_meters":20400,"station_id":"ce4bhs12rcd13ifvqhvg","pricing_plan_id":"cebpf4jnsgd1na2vs0mg"},{"bike_id":"80108450-f296-43cc-9cd9-cd48e84285b1","system_id":"levelo_inurba_marseille","lat":43.310804,"lon":5.38359,"is_reserved":false,"is_disabled":false,"rental_uris":{"android":"levelo://app?vid=80108450-f296-43cc-9cd9-cd48e84285b1","ios":"levelo://app?vid=80108450-f296-43cc-9cd9-cd48e84285b1"},"vehicle_type_id":"4","last_reported":1710360436,"current_range_meters":0,"station_id":"ce4bgv92rcd13ifvqcr0","pricing_plan_id":"cebpf4jnsgd1na2vs0mg"},{"bike_id":"9541ffe8-b8d9-48a2-aab0-324a5580c0b6","system_id":"levelo_inurba_marseille","lat":43.310804,"lon":5.38359,"is_reserved":false,"is_disabled":false,"rental_uris":{"android":"levelo://app?vid=9541ffe8-b8d9-48a2-aab0-324a5580c0b6","ios":"levelo://app?vid=9541ffe8-b8d9-48a2-aab0-324a5580c0b6"},"vehicle_type_id":"4","last_reported":1710360436,"current_range_meters":0,"station_id":"ce4bgv92rcd13ifvqcr0","pricing_plan_id":"cebpf4jnsgd1na2vs0mg"},{"bike_id":"7fc755de-a946-48b2-8613-f75e52757226","system_id":"levelo_inurba_marseille","lat":43.30143,"lon":5.37413,"is_reserved":false,"is_disabled":false,"rental_uris":{"android":"levelo://app?vid=7fc755de-a946-48b2-8613-f75e52757226","ios":"levelo://app?vid=7fc755de-a946-48b2-8613-f75e52757226"},"vehicle_type_id":"4","last_reported":1710360436,"current_range_meters":0,"station_id":"ce4bgs92rcd13ifvqcc0","pricing_plan_id":"cebpf4jnsgd1na2vs0mg"},{"bike_id":"ceb14724-9318-4a41-b333-c341bb4f50ad","system_id":"levelo_inurba_marseille","lat":43.319935,"lon":5.381699,"is_reserved":false,"is_disabled":false,"rental_uris":{"android":"levelo://app?vid=ceb14724-9318-4a41-b333-c341bb4f50ad","ios":"levelo://app?vid=ceb14724-9318-4a41-b333-c341bb4f50ad"},"vehicle_type_id":"4","last_reported":1710360436,"current_range_meters":3600,"station_id":"ce4bhr12rcd13ifvqhpg","pricing_plan_id":"cebpf4jnsgd1na2vs0mg"},{"bike_id":"8f31c532-dc42-48e0-893f-3b6c2fa61454","system_id":"levelo_inurba_marseille","lat":43.31996,"lon":5.38146,"is_reserved":false,"is_disabled":false,"rental_uris":{"android":"levelo://app?vid=8f31c532-dc42-48e0-893f-3b6c2fa61454","ios":"levelo://app?vid=8f31c532-dc42-48e0-893f-3b6c2fa61454"},"vehicle_type_id":"4","last_reported":1710360436,"current_range_meters":20000,"station_id":"ce4bhr12rcd13ifvqhpg","pricing_plan_id":"cebpf4jnsgd1na2vs0mg"},{"bike_id":"5f3c95b2-6ced-4bfc-bc25-cab3f7cf72ec","system_id":"levelo_inurba_marseille","lat":43.31993,"lon":5.3815,"is_reserved":false,"is_disabled":false,"rental_uris":{"android":"levelo://app?vid=5f3c95b2-6ced-4bfc-bc25-cab3f7cf72ec","ios":"levelo://app?vid=5f3c95b2-6ced-4bfc-bc25-cab3f7cf72ec"},"vehicle_type_id":"4","last_reported":1710360436,"current_range_meters":2400,"station_id":"ce4bhr12rcd13ifvqhpg","pricing_plan_id":"cebpf4jnsgd1na2vs0mg"},{"bike_id":"108d0463-7484-49b1-90df-fc408c569a32","system_id":"levelo_inurba_marseille","lat":43.31991,"lon":5.38155,"is_reserved":false,"is_disabled":false,"rental_uris":{"android":"levelo://app?vid=108d0463-7484-49b1-90df-fc408c569a32","ios":"levelo://app?vid=108d0463-7484-49b1-90df-fc408c569a32"},"vehicle_type_id":"4","last_reported":1710360436,"current_range_meters":0,"station_id":"ce4bhr12rcd13ifvqhpg","pricing_plan_id":"cebpf4jnsgd1na2vs0mg"},{"bike_id":"1dcc8183-b7cf-4237-af50-833418ba40b6","system_id":"levelo_inurba_marseille","lat":43.319935,"lon":5.381699,"is_reserved":false,"is_disabled":false,"rental_uris":{"android":"levelo://app?vid=1dcc8183-b7cf-4237-af50-833418ba40b6","ios":"levelo://app?vid=1dcc8183-b7cf-4237-af50-833418ba40b6"},"vehicle_type_id":"4","last_reported":1710360436,"current_range_meters":1600,"station_id":"ce4bhr12rcd13ifvqhpg","pricing_plan_id":"cebpf4jnsgd1na2vs0mg"},{"bike_id":"6f5134f5-1bdc-44fd-81d6-314bb0e3cf57","system_id":"levelo_inurba_marseille","lat":43.31995,"lon":5.38154,"is_reserved":false,"is_disabled":false,"rental_uris":{"android":"levelo://app?vid=6f5134f5-1bdc-44fd-81d6-314bb0e3cf57","ios":"levelo://app?vid=6f5134f5-1bdc-44fd-81d6-314bb0e3cf57"},"vehicle_type_id":"4","last_reported":1710360436,"current_range_meters":16400,"station_id":"ce4bhr12rcd13ifvqhpg","pricing_plan_id":"cebpf4jnsgd1na2vs0mg"},{"bike_id":"057221b1-1b0d-4685-8564-80af51651ade","system_id":"levelo_inurba_marseille","lat":43.319935,"lon":5.381699,"is_reserved":false,"is_disabled":false,"rental_uris":{"android":"levelo://app?vid=057221b1-1b0d-4685-8564-80af51651ade","ios":"levelo://app?vid=057221b1-1b0d-4685-8564-80af51651ade"},"vehicle_type_id":"4","last_reported":1710360436,"current_range_meters":10800,"station_id":"ce4bhr12rcd13ifvqhpg","pricing_plan_id":"cebpf4jnsgd1na2vs0mg"},{"bike_id":"0e69524c-e611-4671-8b2f-e073593ad256","system_id":"levelo_inurba_marseille","lat":43.319945,"lon":5.381609,"is_reserved":false,"is_disabled":false,"rental_uris":{"android":"levelo://app?vid=0e69524c-e611-4671-8b2f-e073593ad256","ios":"levelo://app?vid=0e69524c-e611-4671-8b2f-e073593ad256"},"vehicle_type_id":"4","last_reported":1710360436,"current_range_meters":30000,"station_id":"ce4bhr12rcd13ifvqhpg","pricing_plan_id":"cebpf4jnsgd1na2vs0mg"},{"bike_id":"57a9241b-28f8-48d8-a026-cdd2792b633b","system_id":"levelo_inurba_marseille","lat":43.313571,"lon":5.384829,"is_reserved":false,"is_disabled":false,"rental_uris":{"android":"levelo://app?vid=57a9241b-28f8-48d8-a026-cdd2792b633b","ios":"levelo://app?vid=57a9241b-28f8-48d8-a026-cdd2792b633b"},"vehicle_type_id":"4","last_reported":1710360436,"current_range_meters":0,"station_id":"ce4bgt92rcd13ifvqcf0","pricing_plan_id":"cebpf4jnsgd1na2vs0mg"},{"bike_id":"f13569ab-ed18-4b09-887c-f9ccd120fb0d","system_id":"levelo_inurba_marseille","lat":43.313571,"lon":5.384829,"is_reserved":false,"is_disabled":false,"rental_uris":{"android":"levelo://app?vid=f13569ab-ed18-4b09-887c-f9ccd120fb0d","ios":"levelo://app?vid=f13569ab-ed18-4b09-887c-f9ccd120fb0d"},"vehicle_type_id":"4","last_reported":1710360436,"current_range_meters":0,"station_id":"ce4bgt92rcd13ifvqcf0","pricing_plan_id":"cebpf4jnsgd1na2vs0mg"},{"bike_id":"d599bc67-653d-493a-863d-16905d6a4351","system_id":"levelo_inurba_marseille","lat":43.313571,"lon":5.384829,"is_reserved":false,"is_disabled":false,"rental_uris":{"android":"levelo://app?vid=d599bc67-653d-493a-863d-16905d6a4351","ios":"levelo://app?vid=d599bc67-653d-493a-863d-16905d6a4351"},"vehicle_type_id":"4","last_reported":1710360436,"current_range_meters":17200,"station_id":"ce4bgt92rcd13ifvqcf0","pricing_plan_id":"cebpf4jnsgd1na2vs0mg"},{"bike_id":"a40ae8de-7fa2-4031-8726-0264cc1cb3d5","system_id":"levelo_inurba_marseille","lat":43.299423,"lon":5.365493,"is_reserved":false,"is_disabled":false,"rental_uris":{"android":"levelo://app?vid=a40ae8de-7fa2-4031-8726-0264cc1cb3d5","ios":"levelo://app?vid=a40ae8de-7fa2-4031-8726-0264cc1cb3d5"},"vehicle_type_id":"4","last_reported":1710360436,"current_range_meters":0,"station_id":"ce4bgm92rcd13ifvqbr0","pricing_plan_id":"cebpf4jnsgd1na2vs0mg"},{"bike_id":"0bc439dd-235b-47e0-bd1f-e7148d259308","system_id":"levelo_inurba_marseille","lat":43.299222,"lon":5.365554,"is_reserved":false,"is_disabled":false,"rental_uris":{"android":"levelo://app?vid=0bc439dd-235b-47e0-bd1f-e7148d259308","ios":"levelo://app?vid=0bc439dd-235b-47e0-bd1f-e7148d259308"},"vehicle_type_id":"4","last_reported":1710360436,"current_range_meters":14400,"station_id":"ce4bgm92rcd13ifvqbr0","pricing_plan_id":"cebpf4jnsgd1na2vs0mg"},{"bike_id":"d87bb174-15c3-4afb-9b3e-045c8d7fbc4f","system_id":"levelo_inurba_marseille","lat":43.299724,"lon":5.371829,"is_reserved":false,"is_disabled":false,"rental_uris":{"android":"levelo://app?vid=d87bb174-15c3-4afb-9b3e-045c8d7fbc4f","ios":"levelo://app?vid=d87bb174-15c3-4afb-9b3e-045c8d7fbc4f"},"vehicle_type_id":"4","last_reported":1710360436,"current_range_meters":6400,"station_id":"ce4bgr92rcd13ifvqc7g","pricing_plan_id":"cebpf4jnsgd1na2vs0mg"},{"bike_id":"727266ee-550f-403a-a82e-5f3a8cc9ef94","system_id":"levelo_inurba_marseille","lat":43.309353,"lon":5.38513,"is_reserved":false,"is_disabled":false,"rental_uris":{"android":"levelo://app?vid=727266ee-550f-403a-a82e-5f3a8cc9ef94","ios":"levelo://app?vid=727266ee-550f-403a-a82e-5f3a8cc9ef94"},"vehicle_type_id":"4","last_reported":1710360436,"current_range_meters":6000,"station_id":"","pricing_plan_id":"cebpf4jnsgd1na2vs0mg"},{"bike_id":"fc7d2aa0-1c7d-421e-aa16-88cf21ae8dec","system_id":"levelo_inurba_marseille","lat":43.299243,"lon":5.37481,"is_reserved":false,"is_disabled":false,"rental_uris":{"android":"levelo://app?vid=fc7d2aa0-1c7d-421e-aa16-88cf21ae8dec","ios":"levelo://app?vid=fc7d2aa0-1c7d-421e-aa16-88cf21ae8dec"},"vehicle_type_id":"4","last_reported":1710360436,"current_range_meters":15600,"station_id":"ce4bgjh2rcd13ifvqbg0","pricing_plan_id":"cebpf4jnsgd1na2vs0mg"},{"bike_id":"02e36adc-264a-44cf-b731-c3f62c2d7a92","system_id":"levelo_inurba_marseille","lat":43.311571,"lon":5.386803,"is_reserved":false,"is_disabled":false,"rental_uris":{"android":"levelo://app?vid=02e36adc-264a-44cf-b731-c3f62c2d7a92","ios":"levelo://app?vid=02e36adc-264a-44cf-b731-c3f62c2d7a92"},"vehicle_type_id":"4","last_reported":1710360436,"current_range_meters":10800,"station_id":"ce4bgv12rcd13ifvqcp0","pricing_plan_id":"cebpf4jnsgd1na2vs0mg"},{"bike_id":"78ee1c9d-ed11-4b78-8f86-313fbfc7edd3","system_id":"levelo_inurba_marseille","lat":43.305525,"lon":5.384325,"is_reserved":false,"is_disabled":false,"rental_uris":{"android":"levelo://app?vid=78ee1c9d-ed11-4b78-8f86-313fbfc7edd3","ios":"levelo://app?vid=78ee1c9d-ed11-4b78-8f86-313fbfc7edd3"},"vehicle_type_id":"4","last_reported":1710360436,"current_range_meters":21600,"station_id":"ce4bgg92rcd13ifvqb30","pricing_plan_id":"cebpf4jnsgd1na2vs0mg"},{"bike_id":"8a83da41-3cfd-4396-bf0d-a4a217cf5d98","system_id":"levelo_inurba_marseille","lat":43.326237,"lon":5.374743,"is_reserved":false,"is_disabled":false,"rental_uris":{"android":"levelo://app?vid=8a83da41-3cfd-4396-bf0d-a4a217cf5d98","ios":"levelo://app?vid=8a83da41-3cfd-4396-bf0d-a4a217cf5d98"},"vehicle_type_id":"4","last_reported":1710360436,"current_range_meters":23200,"station_id":"","pricing_plan_id":"cebpf4jnsgd1na2vs0mg"},{"bike_id":"e97308af-eb03-4f20-ab06-c2c149561812","system_id":"levelo_inurba_marseille","lat":43.3117,"lon":5.3871,"is_reserved":false,"is_disabled":false,"rental_uris":{"android":"levelo://app?vid=e97308af-eb03-4f20-ab06-c2c149561812","ios":"levelo://app?vid=e97308af-eb03-4f20-ab06-c2c149561812"},"vehicle_type_id":"4","last_reported":1710360436,"current_range_meters":24800,"station_id":"ce4bgv12rcd13ifvqcp0","pricing_plan_id":"cebpf4jnsgd1na2vs0mg"},{"bike_id":"442dc61c-05bd-4cd2-9018-25ca9bc628ff","system_id":"levelo_inurba_marseille","lat":43.31182,"lon":5.38712,"is_reserved":false,"is_disabled":false,"rental_uris":{"android":"levelo://app?vid=442dc61c-05bd-4cd2-9018-25ca9bc628ff","ios":"levelo://app?vid=442dc61c-05bd-4cd2-9018-25ca9bc628ff"},"vehicle_type_id":"4","last_reported":1710360436,"current_range_meters":2000,"station_id":"ce4bgv12rcd13ifvqcp0","pricing_plan_id":"cebpf4jnsgd1na2vs0mg"},{"bike_id":"cc348493-24d1-4325-8cd2-e2e2b0cf5cd8","system_id":"levelo_inurba_marseille","lat":43.299243,"lon":5.374807,"is_reserved":false,"is_disabled":false,"rental_uris":{"android":"levelo://app?vid=cc348493-24d1-4325-8cd2-e2e2b0cf5cd8","ios":"levelo://app?vid=cc348493-24d1-4325-8cd2-e2e2b0cf5cd8"},"vehicle_type_id":"4","last_reported":1710360436,"current_range_meters":18000,"station_id":"ce4bgjh2rcd13ifvqbg0","pricing_plan_id":"cebpf4jnsgd1na2vs0mg"},{"bike_id":"f24b15c8-0fc5-41c6-b162-062c348ceb2a","system_id":"levelo_inurba_marseille","lat":43.311722,"lon":5.387247,"is_reserved":false,"is_disabled":false,"rental_uris":{"android":"levelo://app?vid=f24b15c8-0fc5-41c6-b162-062c348ceb2a","ios":"levelo://app?vid=f24b15c8-0fc5-41c6-b162-062c348ceb2a"},"vehicle_type_id":"4","last_reported":1710360436,"current_range_meters":14800,"station_id":"ce4bgv12rcd13ifvqcp0","pricing_plan_id":"cebpf4jnsgd1na2vs0mg"},{"bike_id":"a35ba342-3af1-4fdc-93df-2881068849a9","system_id":"levelo_inurba_marseille","lat":43.32293,"lon":5.38252,"is_reserved":false,"is_disabled":false,"rental_uris":{"android":"levelo://app?vid=a35ba342-3af1-4fdc-93df-2881068849a9","ios":"levelo://app?vid=a35ba342-3af1-4fdc-93df-2881068849a9"},"vehicle_type_id":"4","last_reported":1710360436,"current_range_meters":12800,"station_id":"ce4bhr12rcd13ifvqhqg","pricing_plan_id":"cebpf4jnsgd1na2vs0mg"},{"bike_id":"e17f286e-276a-477a-ad66-3e999f055e4c","system_id":"levelo_inurba_marseille","lat":43.32285,"lon":5.38262,"is_reserved":false,"is_disabled":false,"rental_uris":{"android":"levelo://app?vid=e17f286e-276a-477a-ad66-3e999f055e4c","ios":"levelo://app?vid=e17f286e-276a-477a-ad66-3e999f055e4c"},"vehicle_type_id":"4","last_reported":1710360436,"current_range_meters":26800,"station_id":"ce4bhr12rcd13ifvqhqg","pricing_plan_id":"cebpf4jnsgd1na2vs0mg"},{"bike_id":"f2491452-d17d-4fd1-b87c-31e465894cd3","system_id":"levelo_inurba_marseille","lat":43.32288,"lon":5.38263,"is_reserved":false,"is_disabled":false,"rental_uris":{"android":"levelo://app?vid=f2491452-d17d-4fd1-b87c-31e465894cd3","ios":"levelo://app?vid=f2491452-d17d-4fd1-b87c-31e465894cd3"},"vehicle_type_id":"4","last_reported":1710360436,"current_range_meters":10800,"station_id":"ce4bhr12rcd13ifvqhqg","pricing_plan_id":"cebpf4jnsgd1na2vs0mg"},{"bike_id":"e2f24066-a9da-4ac3-9953-f3c0e9a735d9","system_id":"levelo_inurba_marseille","lat":43.32287,"lon":5.38265,"is_reserved":false,"is_disabled":false,"rental_uris":{"android":"levelo://app?vid=e2f24066-a9da-4ac3-9953-f3c0e9a735d9","ios":"levelo://app?vid=e2f24066-a9da-4ac3-9953-f3c0e9a735d9"},"vehicle_type_id":"4","last_reported":1710360436,"current_range_meters":9600,"station_id":"ce4bhr12rcd13ifvqhqg","pricing_plan_id":"cebpf4jnsgd1na2vs0mg"},{"bike_id":"a1ea46c0-4921-4767-a801-a177044432f3","system_id":"levelo_inurba_marseille","lat":43.322872,"lon":5.382756,"is_reserved":false,"is_disabled":false,"rental_uris":{"android":"levelo://app?vid=a1ea46c0-4921-4767-a801-a177044432f3","ios":"levelo://app?vid=a1ea46c0-4921-4767-a801-a177044432f3"},"vehicle_type_id":"4","last_reported":1710360436,"current_range_meters":31200,"station_id":"ce4bhr12rcd13ifvqhqg","pricing_plan_id":"cebpf4jnsgd1na2vs0mg"},{"bike_id":"3ff125a5-dff1-4591-b6cc-449dc2424878","system_id":"levelo_inurba_marseille","lat":43.322872,"lon":5.382756,"is_reserved":false,"is_disabled":false,"rental_uris":{"android":"levelo://app?vid=3ff125a5-dff1-4591-b6cc-449dc2424878","ios":"levelo://app?vid=3ff125a5-dff1-4591-b6cc-449dc2424878"},"vehicle_type_id":"4","last_reported":1710360436,"current_range_meters":22800,"station_id":"ce4bhr12rcd13ifvqhqg","pricing_plan_id":"cebpf4jnsgd1na2vs0mg"},{"bike_id":"eaf5350b-08e3-4231-8a58-3cf3fba26ee0","system_id":"levelo_inurba_marseille","lat":43.32288,"lon":5.38268,"is_reserved":false,"is_disabled":false,"rental_uris":{"android":"levelo://app?vid=eaf5350b-08e3-4231-8a58-3cf3fba26ee0","ios":"levelo://app?vid=eaf5350b-08e3-4231-8a58-3cf3fba26ee0"},"vehicle_type_id":"4","last_reported":1710360436,"current_range_meters":28400,"station_id":"ce4bhr12rcd13ifvqhqg","pricing_plan_id":"cebpf4jnsgd1na2vs0mg"},{"bike_id":"36727d06-0af4-4c64-88de-4193d3d2494b","system_id":"levelo_inurba_marseille","lat":43.322872,"lon":5.382756,"is_reserved":false,"is_disabled":false,"rental_uris":{"android":"levelo://app?vid=36727d06-0af4-4c64-88de-4193d3d2494b","ios":"levelo://app?vid=36727d06-0af4-4c64-88de-4193d3d2494b"},"vehicle_type_id":"4","last_reported":1710360436,"current_range_meters":20800,"station_id":"ce4bhr12rcd13ifvqhqg","pricing_plan_id":"cebpf4jnsgd1na2vs0mg"},{"bike_id":"a6148dc8-06a7-4205-865e-96dfde7b6668","system_id":"levelo_inurba_marseille","lat":43.322917,"lon":5.382669,"is_reserved":false,"is_disabled":false,"rental_uris":{"android":"levelo://app?vid=a6148dc8-06a7-4205-865e-96dfde7b6668","ios":"levelo://app?vid=a6148dc8-06a7-4205-865e-96dfde7b6668"},"vehicle_type_id":"4","last_reported":1710360436,"current_range_meters":0,"station_id":"ce4bhr12rcd13ifvqhqg","pricing_plan_id":"cebpf4jnsgd1na2vs0mg"},{"bike_id":"7d711117-8f24-4ca5-af35-2d207110a750","system_id":"levelo_inurba_marseille","lat":43.322872,"lon":5.382756,"is_reserved":false,"is_disabled":false,"rental_uris":{"android":"levelo://app?vid=7d711117-8f24-4ca5-af35-2d207110a750","ios":"levelo://app?vid=7d711117-8f24-4ca5-af35-2d207110a750"},"vehicle_type_id":"4","last_reported":1710360436,"current_range_meters":31200,"station_id":"ce4bhr12rcd13ifvqhqg","pricing_plan_id":"cebpf4jnsgd1na2vs0mg"},{"bike_id":"026c7ff0-2158-432c-a208-7b1b8a8d6e19","system_id":"levelo_inurba_marseille","lat":43.322872,"lon":5.382756,"is_reserved":false,"is_disabled":false,"rental_uris":{"android":"levelo://app?vid=026c7ff0-2158-432c-a208-7b1b8a8d6e19","ios":"levelo://app?vid=026c7ff0-2158-432c-a208-7b1b8a8d6e19"},"vehicle_type_id":"4","last_reported":1710360436,"current_range_meters":19600,"station_id":"ce4bhr12rcd13ifvqhqg","pricing_plan_id":"cebpf4jnsgd1na2vs0mg"},{"bike_id":"3abca3f8-73a4-4a83-9f7a-e9df11291bf3","system_id":"levelo_inurba_marseille","lat":43.322872,"lon":5.382756,"is_reserved":false,"is_disabled":false,"rental_uris":{"android":"levelo://app?vid=3abca3f8-73a4-4a83-9f7a-e9df11291bf3","ios":"levelo://app?vid=3abca3f8-73a4-4a83-9f7a-e9df11291bf3"},"vehicle_type_id":"4","last_reported":1710360436,"current_range_meters":30400,"station_id":"ce4bhr12rcd13ifvqhqg","pricing_plan_id":"cebpf4jnsgd1na2vs0mg"},{"bike_id":"f548446b-7df9-499c-a458-49720886bca1","system_id":"levelo_inurba_marseille","lat":43.322872,"lon":5.382756,"is_reserved":false,"is_disabled":false,"rental_uris":{"android":"levelo://app?vid=f548446b-7df9-499c-a458-49720886bca1","ios":"levelo://app?vid=f548446b-7df9-499c-a458-49720886bca1"},"vehicle_type_id":"4","last_reported":1710360436,"current_range_meters":400,"station_id":"ce4bhr12rcd13ifvqhqg","pricing_plan_id":"cebpf4jnsgd1na2vs0mg"},{"bike_id":"9d0d2793-67b4-4e0d-9337-f818dc6311ea","system_id":"levelo_inurba_marseille","lat":43.322872,"lon":5.382756,"is_reserved":false,"is_disabled":false,"rental_uris":{"android":"levelo://app?vid=9d0d2793-67b4-4e0d-9337-f818dc6311ea","ios":"levelo://app?vid=9d0d2793-67b4-4e0d-9337-f818dc6311ea"},"vehicle_type_id":"4","last_reported":1710360436,"current_range_meters":18800,"station_id":"ce4bhr12rcd13ifvqhqg","pricing_plan_id":"cebpf4jnsgd1na2vs0mg"},{"bike_id":"ae98be3a-bbc8-47f3-ae6d-e18bd6dd4df7","system_id":"levelo_inurba_marseille","lat":43.297163,"lon":5.365866,"is_reserved":false,"is_disabled":false,"rental_uris":{"android":"levelo://app?vid=ae98be3a-bbc8-47f3-ae6d-e18bd6dd4df7","ios":"levelo://app?vid=ae98be3a-bbc8-47f3-ae6d-e18bd6dd4df7"},"vehicle_type_id":"4","last_reported":1710360436,"current_range_meters":0,"station_id":"ce4bgn12rcd13ifvqbt0","pricing_plan_id":"cebpf4jnsgd1na2vs0mg"},{"bike_id":"118afa9f-7f73-417a-8201-d7b53eb7763e","system_id":"levelo_inurba_marseille","lat":43.297163,"lon":5.365866,"is_reserved":false,"is_disabled":false,"rental_uris":{"android":"levelo://app?vid=118afa9f-7f73-417a-8201-d7b53eb7763e","ios":"levelo://app?vid=118afa9f-7f73-417a-8201-d7b53eb7763e"},"vehicle_type_id":"4","last_reported":1710360436,"current_range_meters":28000,"station_id":"ce4bgn12rcd13ifvqbt0","pricing_plan_id":"cebpf4jnsgd1na2vs0mg"},{"bike_id":"f5f68760-1ae1-4190-9659-4d3ef3835d41","system_id":"levelo_inurba_marseille","lat":43.297163,"lon":5.365866,"is_reserved":false,"is_disabled":false,"rental_uris":{"android":"levelo://app?vid=f5f68760-1ae1-4190-9659-4d3ef3835d41","ios":"levelo://app?vid=f5f68760-1ae1-4190-9659-4d3ef3835d41"},"vehicle_type_id":"4","last_reported":1710360436,"current_range_meters":6800,"station_id":"ce4bgn12rcd13ifvqbt0","pricing_plan_id":"cebpf4jnsgd1na2vs0mg"},{"bike_id":"e5577a09-3cc1-4a11-aa98-f07014bf7dc5","system_id":"levelo_inurba_marseille","lat":43.296131,"lon":5.370773,"is_reserved":false,"is_disabled":false,"rental_uris":{"android":"levelo://app?vid=e5577a09-3cc1-4a11-aa98-f07014bf7dc5","ios":"levelo://app?vid=e5577a09-3cc1-4a11-aa98-f07014bf7dc5"},"vehicle_type_id":"4","last_reported":1710360436,"current_range_meters":5600,"station_id":"ce4bgnh2rcd13ifvqc0g","pricing_plan_id":"cebpf4jnsgd1na2vs0mg"},{"bike_id":"de69c84d-ce1d-444d-b0da-704d160d171c","system_id":"levelo_inurba_marseille","lat":43.296131,"lon":5.370773,"is_reserved":false,"is_disabled":false,"rental_uris":{"android":"levelo://app?vid=de69c84d-ce1d-444d-b0da-704d160d171c","ios":"levelo://app?vid=de69c84d-ce1d-444d-b0da-704d160d171c"},"vehicle_type_id":"4","last_reported":1710360436,"current_range_meters":1600,"station_id":"ce4bgnh2rcd13ifvqc0g","pricing_plan_id":"cebpf4jnsgd1na2vs0mg"},{"bike_id":"7410243c-5f02-4202-98d8-ba31e519eec6","system_id":"levelo_inurba_marseille","lat":43.29573,"lon":5.367355,"is_reserved":false,"is_disabled":false,"rental_uris":{"android":"levelo://app?vid=7410243c-5f02-4202-98d8-ba31e519eec6","ios":"levelo://app?vid=7410243c-5f02-4202-98d8-ba31e519eec6"},"vehicle_type_id":"4","last_reported":1710360436,"current_range_meters":0,"station_id":"ce4bgph2rcd13ifvqc2g","pricing_plan_id":"cebpf4jnsgd1na2vs0mg"},{"bike_id":"a4ac3926-4d84-4736-a0cf-2a0a84616a25","system_id":"levelo_inurba_marseille","lat":43.299028,"lon":5.381509,"is_reserved":false,"is_disabled":false,"rental_uris":{"android":"levelo://app?vid=a4ac3926-4d84-4736-a0cf-2a0a84616a25","ios":"levelo://app?vid=a4ac3926-4d84-4736-a0cf-2a0a84616a25"},"vehicle_type_id":"4","last_reported":1710360436,"current_range_meters":14000,"station_id":"ce4bgj12rcd13ifvqbc0","pricing_plan_id":"cebpf4jnsgd1na2vs0mg"},{"bike_id":"11250817-4adb-4363-82f0-1da4d6a4af85","system_id":"levelo_inurba_marseille","lat":43.309589,"lon":5.390258,"is_reserved":false,"is_disabled":false,"rental_uris":{"android":"levelo://app?vid=11250817-4adb-4363-82f0-1da4d6a4af85","ios":"levelo://app?vid=11250817-4adb-4363-82f0-1da4d6a4af85"},"vehicle_type_id":"4","last_reported":1710360436,"current_range_meters":0,"station_id":"ce4bgup2rcd13ifvqco0","pricing_plan_id":"cebpf4jnsgd1na2vs0mg"},{"bike_id":"0b8be291-8d2d-4677-9c35-e80174487718","system_id":"levelo_inurba_marseille","lat":43.294153,"lon":5.386305,"is_reserved":false,"is_disabled":false,"rental_uris":{"android":"levelo://app?vid=0b8be291-8d2d-4677-9c35-e80174487718","ios":"levelo://app?vid=0b8be291-8d2d-4677-9c35-e80174487718"},"vehicle_type_id":"4","last_reported":1710360436,"current_range_meters":0,"station_id":"ce4bh2h2rcd13ifvqdh0","pricing_plan_id":"cebpf4jnsgd1na2vs0mg"},{"bike_id":"c95befb8-49b9-4011-a525-19277ffa86cf","system_id":"levelo_inurba_marseille","lat":43.309589,"lon":5.390258,"is_reserved":false,"is_disabled":false,"rental_uris":{"android":"levelo://app?vid=c95befb8-49b9-4011-a525-19277ffa86cf","ios":"levelo://app?vid=c95befb8-49b9-4011-a525-19277ffa86cf"},"vehicle_type_id":"4","last_reported":1710360436,"current_range_meters":13200,"station_id":"ce4bgup2rcd13ifvqco0","pricing_plan_id":"cebpf4jnsgd1na2vs0mg"},{"bike_id":"c853386d-332a-44e1-b8f3-c868b7c4a285","system_id":"levelo_inurba_marseille","lat":43.317538,"lon":5.390026,"is_reserved":false,"is_disabled":false,"rental_uris":{"android":"levelo://app?vid=c853386d-332a-44e1-b8f3-c868b7c4a285","ios":"levelo://app?vid=c853386d-332a-44e1-b8f3-c868b7c4a285"},"vehicle_type_id":"4","last_reported":1710360436,"current_range_meters":11600,"station_id":"ce4bhqp2rcd13ifvqhng","pricing_plan_id":"cebpf4jnsgd1na2vs0mg"},{"bike_id":"eaa04335-ce5f-4e82-9d4b-09e2bf70fc9e","system_id":"levelo_inurba_marseille","lat":43.3176,"lon":5.3901,"is_reserved":false,"is_disabled":false,"rental_uris":{"android":"levelo://app?vid=eaa04335-ce5f-4e82-9d4b-09e2bf70fc9e","ios":"levelo://app?vid=eaa04335-ce5f-4e82-9d4b-09e2bf70fc9e"},"vehicle_type_id":"4","last_reported":1710360436,"current_range_meters":6000,"station_id":"ce4bhqp2rcd13ifvqhng","pricing_plan_id":"cebpf4jnsgd1na2vs0mg"},{"bike_id":"400fc285-08c8-4b6b-a2e6-e4633d9bd4b4","system_id":"levelo_inurba_marseille","lat":43.31751,"lon":5.390139,"is_reserved":false,"is_disabled":false,"rental_uris":{"android":"levelo://app?vid=400fc285-08c8-4b6b-a2e6-e4633d9bd4b4","ios":"levelo://app?vid=400fc285-08c8-4b6b-a2e6-e4633d9bd4b4"},"vehicle_type_id":"4","last_reported":1710360436,"current_range_meters":2400,"station_id":"ce4bhqp2rcd13ifvqhng","pricing_plan_id":"cebpf4jnsgd1na2vs0mg"},{"bike_id":"1088c83b-edd1-487f-ba9c-9b4dd7f4efbe","system_id":"levelo_inurba_marseille","lat":43.31763,"lon":5.39011,"is_reserved":false,"is_disabled":false,"rental_uris":{"android":"levelo://app?vid=1088c83b-edd1-487f-ba9c-9b4dd7f4efbe","ios":"levelo://app?vid=1088c83b-edd1-487f-ba9c-9b4dd7f4efbe"},"vehicle_type_id":"4","last_reported":1710360436,"current_range_meters":31200,"station_id":"ce4bhqp2rcd13ifvqhng","pricing_plan_id":"cebpf4jnsgd1na2vs0mg"},{"bike_id":"77143e07-9a56-4df7-8659-5c80a8c15c48","system_id":"levelo_inurba_marseille","lat":43.31754,"lon":5.39015,"is_reserved":false,"is_disabled":false,"rental_uris":{"android":"levelo://app?vid=77143e07-9a56-4df7-8659-5c80a8c15c48","ios":"levelo://app?vid=77143e07-9a56-4df7-8659-5c80a8c15c48"},"vehicle_type_id":"4","last_reported":1710360436,"current_range_meters":3600,"station_id":"ce4bhqp2rcd13ifvqhng","pricing_plan_id":"cebpf4jnsgd1na2vs0mg"},{"bike_id":"e7635339-4a3c-42a4-a346-f89d0509c084","system_id":"levelo_inurba_marseille","lat":43.317557,"lon":5.390173,"is_reserved":false,"is_disabled":false,"rental_uris":{"android":"levelo://app?vid=e7635339-4a3c-42a4-a346-f89d0509c084","ios":"levelo://app?vid=e7635339-4a3c-42a4-a346-f89d0509c084"},"vehicle_type_id":"4","last_reported":1710360436,"current_range_meters":27200,"station_id":"ce4bhqp2rcd13ifvqhng","pricing_plan_id":"cebpf4jnsgd1na2vs0mg"},{"bike_id":"a7e9409e-d196-40a9-8913-2226e2a94e30","system_id":"levelo_inurba_marseille","lat":43.3176,"lon":5.39016,"is_reserved":false,"is_disabled":false,"rental_uris":{"android":"levelo://app?vid=a7e9409e-d196-40a9-8913-2226e2a94e30","ios":"levelo://app?vid=a7e9409e-d196-40a9-8913-2226e2a94e30"},"vehicle_type_id":"4","last_reported":1710360436,"current_range_meters":30800,"station_id":"ce4bhqp2rcd13ifvqhng","pricing_plan_id":"cebpf4jnsgd1na2vs0mg"},{"bike_id":"cd364902-762b-4c3e-844f-575971d38c11","system_id":"levelo_inurba_marseille","lat":43.317626,"lon":5.390151,"is_reserved":false,"is_disabled":false,"rental_uris":{"android":"levelo://app?vid=cd364902-762b-4c3e-844f-575971d38c11","ios":"levelo://app?vid=cd364902-762b-4c3e-844f-575971d38c11"},"vehicle_type_id":"4","last_reported":1710360436,"current_range_meters":15200,"station_id":"ce4bhqp2rcd13ifvqhng","pricing_plan_id":"cebpf4jnsgd1na2vs0mg"},{"bike_id":"593c98a4-480b-419b-ae38-a13bb27cf2af","system_id":"levelo_inurba_marseille","lat":43.31755,"lon":5.3902,"is_reserved":false,"is_disabled":false,"rental_uris":{"android":"levelo://app?vid=593c98a4-480b-419b-ae38-a13bb27cf2af","ios":"levelo://app?vid=593c98a4-480b-419b-ae38-a13bb27cf2af"},"vehicle_type_id":"4","last_reported":1710360436,"current_range_meters":2000,"station_id":"ce4bhqp2rcd13ifvqhng","pricing_plan_id":"cebpf4jnsgd1na2vs0mg"},{"bike_id":"73a693a1-684d-4847-a20f-d8c597f7ecd8","system_id":"levelo_inurba_marseille","lat":43.297501,"lon":5.37906,"is_reserved":false,"is_disabled":false,"rental_uris":{"android":"levelo://app?vid=73a693a1-684d-4847-a20f-d8c597f7ecd8","ios":"levelo://app?vid=73a693a1-684d-4847-a20f-d8c597f7ecd8"},"vehicle_type_id":"4","last_reported":1710360436,"current_range_meters":6400,"station_id":"","pricing_plan_id":"cebpf4jnsgd1na2vs0mg"},{"bike_id":"f63c0e12-1219-43b7-8ae3-7050aa802158","system_id":"levelo_inurba_marseille","lat":43.31762,"lon":5.390191,"is_reserved":false,"is_disabled":false,"rental_uris":{"android":"levelo://app?vid=f63c0e12-1219-43b7-8ae3-7050aa802158","ios":"levelo://app?vid=f63c0e12-1219-43b7-8ae3-7050aa802158"},"vehicle_type_id":"4","last_reported":1710360436,"current_range_meters":21600,"station_id":"ce4bhqp2rcd13ifvqhng","pricing_plan_id":"cebpf4jnsgd1na2vs0mg"},{"bike_id":"ce5155a1-f569-4097-982c-1231a70fa71c","system_id":"levelo_inurba_marseille","lat":43.317575,"lon":5.39021,"is_reserved":false,"is_disabled":false,"rental_uris":{"android":"levelo://app?vid=ce5155a1-f569-4097-982c-1231a70fa71c","ios":"levelo://app?vid=ce5155a1-f569-4097-982c-1231a70fa71c"},"vehicle_type_id":"4","last_reported":1710360436,"current_range_meters":10800,"station_id":"ce4bhqp2rcd13ifvqhng","pricing_plan_id":"cebpf4jnsgd1na2vs0mg"},{"bike_id":"15e2991d-aea9-4dea-887a-fc4583d6a5ca","system_id":"levelo_inurba_marseille","lat":43.317557,"lon":5.390173,"is_reserved":false,"is_disabled":false,"rental_uris":{"android":"levelo://app?vid=15e2991d-aea9-4dea-887a-fc4583d6a5ca","ios":"levelo://app?vid=15e2991d-aea9-4dea-887a-fc4583d6a5ca"},"vehicle_type_id":"4","last_reported":1710360436,"current_range_meters":31200,"station_id":"ce4bhqp2rcd13ifvqhng","pricing_plan_id":"cebpf4jnsgd1na2vs0mg"},{"bike_id":"ba3a545d-9fec-4e88-b08a-c63ce08c8c4a","system_id":"levelo_inurba_marseille","lat":43.317557,"lon":5.390173,"is_reserved":false,"is_disabled":false,"rental_uris":{"android":"levelo://app?vid=ba3a545d-9fec-4e88-b08a-c63ce08c8c4a","ios":"levelo://app?vid=ba3a545d-9fec-4e88-b08a-c63ce08c8c4a"},"vehicle_type_id":"4","last_reported":1710360436,"current_range_meters":24800,"station_id":"ce4bhqp2rcd13ifvqhng","pricing_plan_id":"cebpf4jnsgd1na2vs0mg"},{"bike_id":"3327a797-ea28-4477-b200-87d03234b974","system_id":"levelo_inurba_marseille","lat":43.31759,"lon":5.39024,"is_reserved":false,"is_disabled":false,"rental_uris":{"android":"levelo://app?vid=3327a797-ea28-4477-b200-87d03234b974","ios":"levelo://app?vid=3327a797-ea28-4477-b200-87d03234b974"},"vehicle_type_id":"4","last_reported":1710360436,"current_range_meters":27200,"station_id":"ce4bhqp2rcd13ifvqhng","pricing_plan_id":"cebpf4jnsgd1na2vs0mg"},{"bike_id":"c2fa3ed2-c6f8-4246-91ab-6e1b79742c61","system_id":"levelo_inurba_marseille","lat":43.31752,"lon":5.3903,"is_reserved":false,"is_disabled":false,"rental_uris":{"android":"levelo://app?vid=c2fa3ed2-c6f8-4246-91ab-6e1b79742c61","ios":"levelo://app?vid=c2fa3ed2-c6f8-4246-91ab-6e1b79742c61"},"vehicle_type_id":"4","last_reported":1710360436,"current_range_meters":20400,"station_id":"ce4bhqp2rcd13ifvqhng","pricing_plan_id":"cebpf4jnsgd1na2vs0mg"},{"bike_id":"be54da70-120d-4842-b368-fb98c5948978","system_id":"levelo_inurba_marseille","lat":43.297448,"lon":5.379182,"is_reserved":false,"is_disabled":false,"rental_uris":{"android":"levelo://app?vid=be54da70-120d-4842-b368-fb98c5948978","ios":"levelo://app?vid=be54da70-120d-4842-b368-fb98c5948978"},"vehicle_type_id":"4","last_reported":1710360436,"current_range_meters":19200,"station_id":"","pricing_plan_id":"cebpf4jnsgd1na2vs0mg"},{"bike_id":"93bc9728-df59-4a0c-8e89-cf245566b3d4","system_id":"levelo_inurba_marseille","lat":43.298037,"lon":5.381066,"is_reserved":false,"is_disabled":false,"rental_uris":{"android":"levelo://app?vid=93bc9728-df59-4a0c-8e89-cf245566b3d4","ios":"levelo://app?vid=93bc9728-df59-4a0c-8e89-cf245566b3d4"},"vehicle_type_id":"4","last_reported":1710360436,"current_range_meters":7200,"station_id":"ce4bgip2rcd13ifvqbb0","pricing_plan_id":"cebpf4jnsgd1na2vs0mg"},{"bike_id":"1b416606-9578-44d4-b65e-ac2c888673bc","system_id":"levelo_inurba_marseille","lat":43.298037,"lon":5.381066,"is_reserved":false,"is_disabled":false,"rental_uris":{"android":"levelo://app?vid=1b416606-9578-44d4-b65e-ac2c888673bc","ios":"levelo://app?vid=1b416606-9578-44d4-b65e-ac2c888673bc"},"vehicle_type_id":"4","last_reported":1710360436,"current_range_meters":20000,"station_id":"ce4bgip2rcd13ifvqbb0","pricing_plan_id":"cebpf4jnsgd1na2vs0mg"},{"bike_id":"3629103b-1d76-4003-b7bc-4ffbafcc7aff","system_id":"levelo_inurba_marseille","lat":43.295748,"lon":5.37522,"is_reserved":false,"is_disabled":false,"rental_uris":{"android":"levelo://app?vid=3629103b-1d76-4003-b7bc-4ffbafcc7aff","ios":"levelo://app?vid=3629103b-1d76-4003-b7bc-4ffbafcc7aff"},"vehicle_type_id":"4","last_reported":1710360436,"current_range_meters":12800,"station_id":"ce4bgh92rcd13ifvqb50","pricing_plan_id":"cebpf4jnsgd1na2vs0mg"},{"bike_id":"a39baedc-acc5-4958-9df0-5fd800272a7c","system_id":"levelo_inurba_marseille","lat":43.298037,"lon":5.381066,"is_reserved":false,"is_disabled":false,"rental_uris":{"android":"levelo://app?vid=a39baedc-acc5-4958-9df0-5fd800272a7c","ios":"levelo://app?vid=a39baedc-acc5-4958-9df0-5fd800272a7c"},"vehicle_type_id":"4","last_reported":1710360436,"current_range_meters":24000,"station_id":"ce4bgip2rcd13ifvqbb0","pricing_plan_id":"cebpf4jnsgd1na2vs0mg"},{"bike_id":"9ce5fd81-e075-4be5-945e-978e7da5a951","system_id":"levelo_inurba_marseille","lat":43.298037,"lon":5.381066,"is_reserved":false,"is_disabled":false,"rental_uris":{"android":"levelo://app?vid=9ce5fd81-e075-4be5-945e-978e7da5a951","ios":"levelo://app?vid=9ce5fd81-e075-4be5-945e-978e7da5a951"},"vehicle_type_id":"4","last_reported":1710360436,"current_range_meters":27200,"station_id":"ce4bgip2rcd13ifvqbb0","pricing_plan_id":"cebpf4jnsgd1na2vs0mg"},{"bike_id":"ae1e01e7-9ef3-4ca3-bb2b-f13512c846e2","system_id":"levelo_inurba_marseille","lat":43.298037,"lon":5.381066,"is_reserved":false,"is_disabled":false,"rental_uris":{"android":"levelo://app?vid=ae1e01e7-9ef3-4ca3-bb2b-f13512c846e2","ios":"levelo://app?vid=ae1e01e7-9ef3-4ca3-bb2b-f13512c846e2"},"vehicle_type_id":"4","last_reported":1710360436,"current_range_meters":23600,"station_id":"ce4bgip2rcd13ifvqbb0","pricing_plan_id":"cebpf4jnsgd1na2vs0mg"},{"bike_id":"2295ecca-0257-46c1-9ca0-b5d5a5195a37","system_id":"levelo_inurba_marseille","lat":43.304274,"lon":5.388873,"is_reserved":false,"is_disabled":false,"rental_uris":{"android":"levelo://app?vid=2295ecca-0257-46c1-9ca0-b5d5a5195a37","ios":"levelo://app?vid=2295ecca-0257-46c1-9ca0-b5d5a5195a37"},"vehicle_type_id":"4","last_reported":1710360436,"current_range_meters":13200,"station_id":"ce4bgk12rcd13ifvqbi0","pricing_plan_id":"cebpf4jnsgd1na2vs0mg"},{"bike_id":"fc0189d3-2a2b-4048-8e8e-1ea59ad16edf","system_id":"levelo_inurba_marseille","lat":43.29795,"lon":5.38104,"is_reserved":false,"is_disabled":false,"rental_uris":{"android":"levelo://app?vid=fc0189d3-2a2b-4048-8e8e-1ea59ad16edf","ios":"levelo://app?vid=fc0189d3-2a2b-4048-8e8e-1ea59ad16edf"},"vehicle_type_id":"4","last_reported":1710360436,"current_range_meters":24400,"station_id":"ce4bgip2rcd13ifvqbb0","pricing_plan_id":"cebpf4jnsgd1na2vs0mg"},{"bike_id":"f36a85fc-58be-4271-96ba-762aafa5b689","system_id":"levelo_inurba_marseille","lat":43.298037,"lon":5.381066,"is_reserved":false,"is_disabled":false,"rental_uris":{"android":"levelo://app?vid=f36a85fc-58be-4271-96ba-762aafa5b689","ios":"levelo://app?vid=f36a85fc-58be-4271-96ba-762aafa5b689"},"vehicle_type_id":"4","last_reported":1710360436,"current_range_meters":27200,"station_id":"ce4bgip2rcd13ifvqbb0","pricing_plan_id":"cebpf4jnsgd1na2vs0mg"},{"bike_id":"5ab9397a-f4c2-4ef3-8dbf-d3f0c6a1fa16","system_id":"levelo_inurba_marseille","lat":43.296328,"lon":5.377477,"is_reserved":false,"is_disabled":false,"rental_uris":{"android":"levelo://app?vid=5ab9397a-f4c2-4ef3-8dbf-d3f0c6a1fa16","ios":"levelo://app?vid=5ab9397a-f4c2-4ef3-8dbf-d3f0c6a1fa16"},"vehicle_type_id":"4","last_reported":1710360436,"current_range_meters":14000,"station_id":"ce4bgip2rcd13ifvqbb0","pricing_plan_id":"cebpf4jnsgd1na2vs0mg"},{"bike_id":"fede9919-0872-4ad0-8e0c-0044f11af976","system_id":"levelo_inurba_marseille","lat":43.304309,"lon":5.388974,"is_reserved":false,"is_disabled":false,"rental_uris":{"android":"levelo://app?vid=fede9919-0872-4ad0-8e0c-0044f11af976","ios":"levelo://app?vid=fede9919-0872-4ad0-8e0c-0044f11af976"},"vehicle_type_id":"4","last_reported":1710360436,"current_range_meters":0,"station_id":"ce4bgk12rcd13ifvqbi0","pricing_plan_id":"cebpf4jnsgd1na2vs0mg"},{"bike_id":"4a6401b7-62ca-490c-95be-33b23c51bb0e","system_id":"levelo_inurba_marseille","lat":43.30442,"lon":5.38908,"is_reserved":false,"is_disabled":false,"rental_uris":{"android":"levelo://app?vid=4a6401b7-62ca-490c-95be-33b23c51bb0e","ios":"levelo://app?vid=4a6401b7-62ca-490c-95be-33b23c51bb0e"},"vehicle_type_id":"4","last_reported":1710360436,"current_range_meters":10000,"station_id":"ce4bgk12rcd13ifvqbi0","pricing_plan_id":"cebpf4jnsgd1na2vs0mg"},{"bike_id":"53fb2f2a-d593-42a1-821e-4f5667869593","system_id":"levelo_inurba_marseille","lat":43.296203,"lon":5.377217,"is_reserved":false,"is_disabled":false,"rental_uris":{"android":"levelo://app?vid=53fb2f2a-d593-42a1-821e-4f5667869593","ios":"levelo://app?vid=53fb2f2a-d593-42a1-821e-4f5667869593"},"vehicle_type_id":"4","last_reported":1710360436,"current_range_meters":0,"station_id":"ce4bgi92rcd13ifvqb90","pricing_plan_id":"cebpf4jnsgd1na2vs0mg"},{"bike_id":"54f63793-f0db-4bff-a544-8bcc0335b91f","system_id":"levelo_inurba_marseille","lat":43.29614,"lon":5.37726,"is_reserved":false,"is_disabled":false,"rental_uris":{"android":"levelo://app?vid=54f63793-f0db-4bff-a544-8bcc0335b91f","ios":"levelo://app?vid=54f63793-f0db-4bff-a544-8bcc0335b91f"},"vehicle_type_id":"4","last_reported":1710360436,"current_range_meters":0,"station_id":"ce4bgi92rcd13ifvqb90","pricing_plan_id":"cebpf4jnsgd1na2vs0mg"},{"bike_id":"70e20882-3aa9-4208-954d-b7cc032416ee","system_id":"levelo_inurba_marseille","lat":43.29498,"lon":5.374,"is_reserved":false,"is_disabled":false,"rental_uris":{"android":"levelo://app?vid=70e20882-3aa9-4208-954d-b7cc032416ee","ios":"levelo://app?vid=70e20882-3aa9-4208-954d-b7cc032416ee"},"vehicle_type_id":"4","last_reported":1710360436,"current_range_meters":22000,"station_id":"","pricing_plan_id":"cebpf4jnsgd1na2vs0mg"},{"bike_id":"c623da6a-a969-46b8-9bcb-c5ff99456ce6","system_id":"levelo_inurba_marseille","lat":43.32364,"lon":5.38842,"is_reserved":false,"is_disabled":false,"rental_uris":{"android":"levelo://app?vid=c623da6a-a969-46b8-9bcb-c5ff99456ce6","ios":"levelo://app?vid=c623da6a-a969-46b8-9bcb-c5ff99456ce6"},"vehicle_type_id":"4","last_reported":1710360436,"current_range_meters":17600,"station_id":"ce4bhqp2rcd13ifvqhog","pricing_plan_id":"cebpf4jnsgd1na2vs0mg"},{"bike_id":"214513c2-0f8d-4a35-aa55-ac50aeaa598a","system_id":"levelo_inurba_marseille","lat":43.32363,"lon":5.3888,"is_reserved":false,"is_disabled":false,"rental_uris":{"android":"levelo://app?vid=214513c2-0f8d-4a35-aa55-ac50aeaa598a","ios":"levelo://app?vid=214513c2-0f8d-4a35-aa55-ac50aeaa598a"},"vehicle_type_id":"4","last_reported":1710360436,"current_range_meters":23600,"station_id":"ce4bhqp2rcd13ifvqhog","pricing_plan_id":"cebpf4jnsgd1na2vs0mg"},{"bike_id":"f9d8fe70-a8de-437f-8109-ffd6464bca85","system_id":"levelo_inurba_marseille","lat":43.32367,"lon":5.388836,"is_reserved":false,"is_disabled":false,"rental_uris":{"android":"levelo://app?vid=f9d8fe70-a8de-437f-8109-ffd6464bca85","ios":"levelo://app?vid=f9d8fe70-a8de-437f-8109-ffd6464bca85"},"vehicle_type_id":"4","last_reported":1710360436,"current_range_meters":16400,"station_id":"ce4bhqp2rcd13ifvqhog","pricing_plan_id":"cebpf4jnsgd1na2vs0mg"},{"bike_id":"8159511e-5fa4-4496-a97d-f60e6d9f885e","system_id":"levelo_inurba_marseille","lat":43.32364,"lon":5.388804,"is_reserved":false,"is_disabled":false,"rental_uris":{"android":"levelo://app?vid=8159511e-5fa4-4496-a97d-f60e6d9f885e","ios":"levelo://app?vid=8159511e-5fa4-4496-a97d-f60e6d9f885e"},"vehicle_type_id":"4","last_reported":1710360436,"current_range_meters":2800,"station_id":"ce4bhqp2rcd13ifvqhog","pricing_plan_id":"cebpf4jnsgd1na2vs0mg"},{"bike_id":"12289e1e-1c71-4773-991b-0dacf075009f","system_id":"levelo_inurba_marseille","lat":43.32367,"lon":5.38881,"is_reserved":false,"is_disabled":false,"rental_uris":{"android":"levelo://app?vid=12289e1e-1c71-4773-991b-0dacf075009f","ios":"levelo://app?vid=12289e1e-1c71-4773-991b-0dacf075009f"},"vehicle_type_id":"4","last_reported":1710360436,"current_range_meters":24800,"station_id":"ce4bhqp2rcd13ifvqhog","pricing_plan_id":"cebpf4jnsgd1na2vs0mg"},{"bike_id":"a2dba51a-b2d7-4c36-b5ce-152632c4dfd5","system_id":"levelo_inurba_marseille","lat":43.32367,"lon":5.388836,"is_reserved":false,"is_disabled":false,"rental_uris":{"android":"levelo://app?vid=a2dba51a-b2d7-4c36-b5ce-152632c4dfd5","ios":"levelo://app?vid=a2dba51a-b2d7-4c36-b5ce-152632c4dfd5"},"vehicle_type_id":"4","last_reported":1710360436,"current_range_meters":18400,"station_id":"ce4bhqp2rcd13ifvqhog","pricing_plan_id":"cebpf4jnsgd1na2vs0mg"},{"bike_id":"991d7feb-dcd7-453d-a499-fd702ced26e1","system_id":"levelo_inurba_marseille","lat":43.32367,"lon":5.388836,"is_reserved":false,"is_disabled":false,"rental_uris":{"android":"levelo://app?vid=991d7feb-dcd7-453d-a499-fd702ced26e1","ios":"levelo://app?vid=991d7feb-dcd7-453d-a499-fd702ced26e1"},"vehicle_type_id":"4","last_reported":1710360436,"current_range_meters":3600,"station_id":"ce4bhqp2rcd13ifvqhog","pricing_plan_id":"cebpf4jnsgd1na2vs0mg"},{"bike_id":"5de494c9-83f5-4e4b-b484-0a0b7b89b870","system_id":"levelo_inurba_marseille","lat":43.32369,"lon":5.3888,"is_reserved":false,"is_disabled":false,"rental_uris":{"android":"levelo://app?vid=5de494c9-83f5-4e4b-b484-0a0b7b89b870","ios":"levelo://app?vid=5de494c9-83f5-4e4b-b484-0a0b7b89b870"},"vehicle_type_id":"4","last_reported":1710360436,"current_range_meters":400,"station_id":"ce4bhqp2rcd13ifvqhog","pricing_plan_id":"cebpf4jnsgd1na2vs0mg"},{"bike_id":"a0cf9f36-4339-413e-8c34-61c91fe4a834","system_id":"levelo_inurba_marseille","lat":43.32365,"lon":5.38884,"is_reserved":false,"is_disabled":false,"rental_uris":{"android":"levelo://app?vid=a0cf9f36-4339-413e-8c34-61c91fe4a834","ios":"levelo://app?vid=a0cf9f36-4339-413e-8c34-61c91fe4a834"},"vehicle_type_id":"4","last_reported":1710360436,"current_range_meters":8800,"station_id":"ce4bhqp2rcd13ifvqhog","pricing_plan_id":"cebpf4jnsgd1na2vs0mg"},{"bike_id":"e6a60513-e8b7-483d-a0ac-59c1b33b431c","system_id":"levelo_inurba_marseille","lat":43.32367,"lon":5.388836,"is_reserved":false,"is_disabled":false,"rental_uris":{"android":"levelo://app?vid=e6a60513-e8b7-483d-a0ac-59c1b33b431c","ios":"levelo://app?vid=e6a60513-e8b7-483d-a0ac-59c1b33b431c"},"vehicle_type_id":"4","last_reported":1710360436,"current_range_meters":15600,"station_id":"ce4bhqp2rcd13ifvqhog","pricing_plan_id":"cebpf4jnsgd1na2vs0mg"},{"bike_id":"85208358-1d9c-42e8-98c3-73b8b13c7ee8","system_id":"levelo_inurba_marseille","lat":43.32367,"lon":5.38883,"is_reserved":false,"is_disabled":false,"rental_uris":{"android":"levelo://app?vid=85208358-1d9c-42e8-98c3-73b8b13c7ee8","ios":"levelo://app?vid=85208358-1d9c-42e8-98c3-73b8b13c7ee8"},"vehicle_type_id":"4","last_reported":1710360436,"current_range_meters":0,"station_id":"ce4bhqp2rcd13ifvqhog","pricing_plan_id":"cebpf4jnsgd1na2vs0mg"},{"bike_id":"e51693d7-1dd2-401e-9b75-f4e8a3f19ebd","system_id":"levelo_inurba_marseille","lat":43.32367,"lon":5.388836,"is_reserved":false,"is_disabled":false,"rental_uris":{"android":"levelo://app?vid=e51693d7-1dd2-401e-9b75-f4e8a3f19ebd","ios":"levelo://app?vid=e51693d7-1dd2-401e-9b75-f4e8a3f19ebd"},"vehicle_type_id":"4","last_reported":1710360436,"current_range_meters":20400,"station_id":"ce4bhqp2rcd13ifvqhog","pricing_plan_id":"cebpf4jnsgd1na2vs0mg"},{"bike_id":"4d51bd6b-94cd-443c-802c-71a7d7b1f44c","system_id":"levelo_inurba_marseille","lat":43.32367,"lon":5.38884,"is_reserved":false,"is_disabled":false,"rental_uris":{"android":"levelo://app?vid=4d51bd6b-94cd-443c-802c-71a7d7b1f44c","ios":"levelo://app?vid=4d51bd6b-94cd-443c-802c-71a7d7b1f44c"},"vehicle_type_id":"4","last_reported":1710360436,"current_range_meters":14400,"station_id":"ce4bhqp2rcd13ifvqhog","pricing_plan_id":"cebpf4jnsgd1na2vs0mg"},{"bike_id":"049264a0-55e2-4f55-8e43-ef8b86006ff0","system_id":"levelo_inurba_marseille","lat":43.32367,"lon":5.388836,"is_reserved":false,"is_disabled":false,"rental_uris":{"android":"levelo://app?vid=049264a0-55e2-4f55-8e43-ef8b86006ff0","ios":"levelo://app?vid=049264a0-55e2-4f55-8e43-ef8b86006ff0"},"vehicle_type_id":"4","last_reported":1710360436,"current_range_meters":24800,"station_id":"ce4bhqp2rcd13ifvqhog","pricing_plan_id":"cebpf4jnsgd1na2vs0mg"},{"bike_id":"814e9b11-b6da-4c41-a98f-46d81e6f367e","system_id":"levelo_inurba_marseille","lat":43.32367,"lon":5.388836,"is_reserved":false,"is_disabled":false,"rental_uris":{"android":"levelo://app?vid=814e9b11-b6da-4c41-a98f-46d81e6f367e","ios":"levelo://app?vid=814e9b11-b6da-4c41-a98f-46d81e6f367e"},"vehicle_type_id":"4","last_reported":1710360436,"current_range_meters":16000,"station_id":"ce4bhqp2rcd13ifvqhog","pricing_plan_id":"cebpf4jnsgd1na2vs0mg"},{"bike_id":"f14c9a56-6115-4cb7-8920-5b14ab230a3d","system_id":"levelo_inurba_marseille","lat":43.32371,"lon":5.38888,"is_reserved":false,"is_disabled":false,"rental_uris":{"android":"levelo://app?vid=f14c9a56-6115-4cb7-8920-5b14ab230a3d","ios":"levelo://app?vid=f14c9a56-6115-4cb7-8920-5b14ab230a3d"},"vehicle_type_id":"4","last_reported":1710360436,"current_range_meters":8000,"station_id":"ce4bhqp2rcd13ifvqhog","pricing_plan_id":"cebpf4jnsgd1na2vs0mg"},{"bike_id":"0baecd5e-0049-4b19-8872-834ba1edcdb4","system_id":"levelo_inurba_marseille","lat":43.32367,"lon":5.388836,"is_reserved":false,"is_disabled":false,"rental_uris":{"android":"levelo://app?vid=0baecd5e-0049-4b19-8872-834ba1edcdb4","ios":"levelo://app?vid=0baecd5e-0049-4b19-8872-834ba1edcdb4"},"vehicle_type_id":"4","last_reported":1710360436,"current_range_meters":14800,"station_id":"ce4bhqp2rcd13ifvqhog","pricing_plan_id":"cebpf4jnsgd1na2vs0mg"},{"bike_id":"4044296b-25ba-4af3-8f9a-8dffc88f60fe","system_id":"levelo_inurba_marseille","lat":43.296092,"lon":5.38097,"is_reserved":false,"is_disabled":false,"rental_uris":{"android":"levelo://app?vid=4044296b-25ba-4af3-8f9a-8dffc88f60fe","ios":"levelo://app?vid=4044296b-25ba-4af3-8f9a-8dffc88f60fe"},"vehicle_type_id":"4","last_reported":1710360436,"current_range_meters":0,"station_id":"ce4bgl12rcd13ifvqbo0","pricing_plan_id":"cebpf4jnsgd1na2vs0mg"},{"bike_id":"4860da81-3cc9-4cab-992e-bd8ee6e9fe27","system_id":"levelo_inurba_marseille","lat":43.296,"lon":5.38097,"is_reserved":false,"is_disabled":false,"rental_uris":{"android":"levelo://app?vid=4860da81-3cc9-4cab-992e-bd8ee6e9fe27","ios":"levelo://app?vid=4860da81-3cc9-4cab-992e-bd8ee6e9fe27"},"vehicle_type_id":"4","last_reported":1710360436,"current_range_meters":7200,"station_id":"ce4bgl12rcd13ifvqbo0","pricing_plan_id":"cebpf4jnsgd1na2vs0mg"},{"bike_id":"8edd368f-e3a8-4647-b10a-a5dc1b1c8707","system_id":"levelo_inurba_marseille","lat":43.29602,"lon":5.381084,"is_reserved":false,"is_disabled":false,"rental_uris":{"android":"levelo://app?vid=8edd368f-e3a8-4647-b10a-a5dc1b1c8707","ios":"levelo://app?vid=8edd368f-e3a8-4647-b10a-a5dc1b1c8707"},"vehicle_type_id":"4","last_reported":1710360436,"current_range_meters":0,"station_id":"ce4bgl12rcd13ifvqbo0","pricing_plan_id":"cebpf4jnsgd1na2vs0mg"},{"bike_id":"7ebe8153-fb19-407f-bdb8-d57049a98f76","system_id":"levelo_inurba_marseille","lat":43.29599,"lon":5.38106,"is_reserved":false,"is_disabled":false,"rental_uris":{"android":"levelo://app?vid=7ebe8153-fb19-407f-bdb8-d57049a98f76","ios":"levelo://app?vid=7ebe8153-fb19-407f-bdb8-d57049a98f76"},"vehicle_type_id":"4","last_reported":1710360436,"current_range_meters":2800,"station_id":"ce4bgl12rcd13ifvqbo0","pricing_plan_id":"cebpf4jnsgd1na2vs0mg"},{"bike_id":"b4bc833e-abde-4127-898a-ff64b5dab7f8","system_id":"levelo_inurba_marseille","lat":43.292749,"lon":5.368402,"is_reserved":false,"is_disabled":false,"rental_uris":{"android":"levelo://app?vid=b4bc833e-abde-4127-898a-ff64b5dab7f8","ios":"levelo://app?vid=b4bc833e-abde-4127-898a-ff64b5dab7f8"},"vehicle_type_id":"4","last_reported":1710360436,"current_range_meters":0,"station_id":"ce4bhbp2rcd13ifvqesg","pricing_plan_id":"cebpf4jnsgd1na2vs0mg"},{"bike_id":"8170885a-488f-47cf-93ee-0e045697c8e2","system_id":"levelo_inurba_marseille","lat":43.2936,"lon":5.37835,"is_reserved":false,"is_disabled":false,"rental_uris":{"android":"levelo://app?vid=8170885a-488f-47cf-93ee-0e045697c8e2","ios":"levelo://app?vid=8170885a-488f-47cf-93ee-0e045697c8e2"},"vehicle_type_id":"4","last_reported":1710360436,"current_range_meters":2000,"station_id":"ce4bgjh2rcd13ifvqbf0","pricing_plan_id":"cebpf4jnsgd1na2vs0mg"},{"bike_id":"d019e0ce-417a-4a6a-86c1-07453b412888","system_id":"levelo_inurba_marseille","lat":43.293009,"lon":5.374584,"is_reserved":false,"is_disabled":false,"rental_uris":{"android":"levelo://app?vid=d019e0ce-417a-4a6a-86c1-07453b412888","ios":"levelo://app?vid=d019e0ce-417a-4a6a-86c1-07453b412888"},"vehicle_type_id":"4","last_reported":1710360436,"current_range_meters":4400,"station_id":"ce4bgi12rcd13ifvqb70","pricing_plan_id":"cebpf4jnsgd1na2vs0mg"},{"bike_id":"ee162d72-687b-4dc2-9e39-5420a00d0ee3","system_id":"levelo_inurba_marseille","lat":43.30595,"lon":5.39355,"is_reserved":false,"is_disabled":false,"rental_uris":{"android":"levelo://app?vid=ee162d72-687b-4dc2-9e39-5420a00d0ee3","ios":"levelo://app?vid=ee162d72-687b-4dc2-9e39-5420a00d0ee3"},"vehicle_type_id":"4","last_reported":1710360436,"current_range_meters":0,"station_id":"ce4bh0p2rcd13ifvqd80","pricing_plan_id":"cebpf4jnsgd1na2vs0mg"},{"bike_id":"25379f64-9a1d-4edd-b5aa-ebdcc58c10ad","system_id":"levelo_inurba_marseille","lat":43.293009,"lon":5.374584,"is_reserved":false,"is_disabled":false,"rental_uris":{"android":"levelo://app?vid=25379f64-9a1d-4edd-b5aa-ebdcc58c10ad","ios":"levelo://app?vid=25379f64-9a1d-4edd-b5aa-ebdcc58c10ad"},"vehicle_type_id":"4","last_reported":1710360436,"current_range_meters":9600,"station_id":"ce4bgi12rcd13ifvqb70","pricing_plan_id":"cebpf4jnsgd1na2vs0mg"},{"bike_id":"2e5e5e8e-0e2e-46d6-9361-5ce05072f224","system_id":"levelo_inurba_marseille","lat":43.30304,"lon":5.39209,"is_reserved":false,"is_disabled":false,"rental_uris":{"android":"levelo://app?vid=2e5e5e8e-0e2e-46d6-9361-5ce05072f224","ios":"levelo://app?vid=2e5e5e8e-0e2e-46d6-9361-5ce05072f224"},"vehicle_type_id":"4","last_reported":1710360436,"current_range_meters":0,"station_id":"ce4bgkh2rcd13ifvqbk0","pricing_plan_id":"cebpf4jnsgd1na2vs0mg"},{"bike_id":"d2e7809b-417d-497a-ac60-e909d77d1f04","system_id":"levelo_inurba_marseille","lat":43.293757,"lon":5.378413,"is_reserved":false,"is_disabled":false,"rental_uris":{"android":"levelo://app?vid=d2e7809b-417d-497a-ac60-e909d77d1f04","ios":"levelo://app?vid=d2e7809b-417d-497a-ac60-e909d77d1f04"},"vehicle_type_id":"4","last_reported":1710360436,"current_range_meters":0,"station_id":"ce4bgjh2rcd13ifvqbf0","pricing_plan_id":"cebpf4jnsgd1na2vs0mg"},{"bike_id":"cb61f44d-0f89-4133-bdbe-01ab4a6757cc","system_id":"levelo_inurba_marseille","lat":43.293798,"lon":5.378578,"is_reserved":false,"is_disabled":false,"rental_uris":{"android":"levelo://app?vid=cb61f44d-0f89-4133-bdbe-01ab4a6757cc","ios":"levelo://app?vid=cb61f44d-0f89-4133-bdbe-01ab4a6757cc"},"vehicle_type_id":"4","last_reported":1710360436,"current_range_meters":0,"station_id":"ce4bgjh2rcd13ifvqbf0","pricing_plan_id":"cebpf4jnsgd1na2vs0mg"},{"bike_id":"3d67b270-6b8c-4660-9680-3bb604fa2f86","system_id":"levelo_inurba_marseille","lat":43.30085,"lon":5.390856,"is_reserved":false,"is_disabled":false,"rental_uris":{"android":"levelo://app?vid=3d67b270-6b8c-4660-9680-3bb604fa2f86","ios":"levelo://app?vid=3d67b270-6b8c-4660-9680-3bb604fa2f86"},"vehicle_type_id":"4","last_reported":1710360436,"current_range_meters":0,"station_id":"ce4bh192rcd13ifvqdb0","pricing_plan_id":"cebpf4jnsgd1na2vs0mg"},{"bike_id":"d9f88ce4-b1bb-4286-a0b2-2fd118c70b24","system_id":"levelo_inurba_marseille","lat":43.30106,"lon":5.39074,"is_reserved":false,"is_disabled":false,"rental_uris":{"android":"levelo://app?vid=d9f88ce4-b1bb-4286-a0b2-2fd118c70b24","ios":"levelo://app?vid=d9f88ce4-b1bb-4286-a0b2-2fd118c70b24"},"vehicle_type_id":"4","last_reported":1710360436,"current_range_meters":0,"station_id":"","pricing_plan_id":"cebpf4jnsgd1na2vs0mg"},{"bike_id":"4bdb42c5-ecbc-485f-a14d-a108c2ced0f1","system_id":"levelo_inurba_marseille","lat":43.30104,"lon":5.3908,"is_reserved":false,"is_disabled":false,"rental_uris":{"android":"levelo://app?vid=4bdb42c5-ecbc-485f-a14d-a108c2ced0f1","ios":"levelo://app?vid=4bdb42c5-ecbc-485f-a14d-a108c2ced0f1"},"vehicle_type_id":"4","last_reported":1710360436,"current_range_meters":0,"station_id":"ce4bh192rcd13ifvqdb0","pricing_plan_id":"cebpf4jnsgd1na2vs0mg"},{"bike_id":"26304616-23df-45cd-9f97-194b15d312ef","system_id":"levelo_inurba_marseille","lat":43.292311,"lon":5.360731,"is_reserved":false,"is_disabled":false,"rental_uris":{"android":"levelo://app?vid=26304616-23df-45cd-9f97-194b15d312ef","ios":"levelo://app?vid=26304616-23df-45cd-9f97-194b15d312ef"},"vehicle_type_id":"4","last_reported":1710360436,"current_range_meters":27200,"station_id":"ce4bhbh2rcd13ifvqeqg","pricing_plan_id":"cebpf4jnsgd1na2vs0mg"},{"bike_id":"4f8b7c03-c09d-4c2b-8575-f707061e7c3b","system_id":"levelo_inurba_marseille","lat":43.300839,"lon":5.390834,"is_reserved":false,"is_disabled":false,"rental_uris":{"android":"levelo://app?vid=4f8b7c03-c09d-4c2b-8575-f707061e7c3b","ios":"levelo://app?vid=4f8b7c03-c09d-4c2b-8575-f707061e7c3b"},"vehicle_type_id":"4","last_reported":1710360436,"current_range_meters":0,"station_id":"","pricing_plan_id":"cebpf4jnsgd1na2vs0mg"},{"bike_id":"a6a568ad-2942-4bda-b036-c7d17b21a606","system_id":"levelo_inurba_marseille","lat":43.298764,"lon":5.388973,"is_reserved":false,"is_disabled":false,"rental_uris":{"android":"levelo://app?vid=a6a568ad-2942-4bda-b036-c7d17b21a606","ios":"levelo://app?vid=a6a568ad-2942-4bda-b036-c7d17b21a606"},"vehicle_type_id":"4","last_reported":1710360436,"current_range_meters":15600,"station_id":"ce4bh392rcd13ifvqdl0","pricing_plan_id":"cebpf4jnsgd1na2vs0mg"},{"bike_id":"148c1c5f-9e0c-4075-ab66-840228d1e376","system_id":"levelo_inurba_marseille","lat":43.302008,"lon":5.394694,"is_reserved":false,"is_disabled":false,"rental_uris":{"android":"levelo://app?vid=148c1c5f-9e0c-4075-ab66-840228d1e376","ios":"levelo://app?vid=148c1c5f-9e0c-4075-ab66-840228d1e376"},"vehicle_type_id":"4","last_reported":1710360436,"current_range_meters":12400,"station_id":"ce4bh0p2rcd13ifvqd70","pricing_plan_id":"cebpf4jnsgd1na2vs0mg"},{"bike_id":"9a76df40-5a2f-42bc-9271-2cf77c838da0","system_id":"levelo_inurba_marseille","lat":43.291707,"lon":5.371435,"is_reserved":false,"is_disabled":false,"rental_uris":{"android":"levelo://app?vid=9a76df40-5a2f-42bc-9271-2cf77c838da0","ios":"levelo://app?vid=9a76df40-5a2f-42bc-9271-2cf77c838da0"},"vehicle_type_id":"4","last_reported":1710360436,"current_range_meters":0,"station_id":"ce4bha92rcd13ifvqeh0","pricing_plan_id":"cebpf4jnsgd1na2vs0mg"},{"bike_id":"19b748ba-f3ce-4a8b-923b-a5a694f80560","system_id":"levelo_inurba_marseille","lat":43.298764,"lon":5.388973,"is_reserved":false,"is_disabled":false,"rental_uris":{"android":"levelo://app?vid=19b748ba-f3ce-4a8b-923b-a5a694f80560","ios":"levelo://app?vid=19b748ba-f3ce-4a8b-923b-a5a694f80560"},"vehicle_type_id":"4","last_reported":1710360436,"current_range_meters":25600,"station_id":"ce4bh392rcd13ifvqdl0","pricing_plan_id":"cebpf4jnsgd1na2vs0mg"},{"bike_id":"bdf80a15-6546-4dd6-af4b-b5b8d0460fb2","system_id":"levelo_inurba_marseille","lat":43.291697,"lon":5.3715,"is_reserved":false,"is_disabled":false,"rental_uris":{"android":"levelo://app?vid=bdf80a15-6546-4dd6-af4b-b5b8d0460fb2","ios":"levelo://app?vid=bdf80a15-6546-4dd6-af4b-b5b8d0460fb2"},"vehicle_type_id":"4","last_reported":1710360436,"current_range_meters":0,"station_id":"ce4bha92rcd13ifvqeh0","pricing_plan_id":"cebpf4jnsgd1na2vs0mg"},{"bike_id":"473eb893-ccaa-4558-8780-49dfa28a26d2","system_id":"levelo_inurba_marseille","lat":43.298764,"lon":5.388973,"is_reserved":false,"is_disabled":false,"rental_uris":{"android":"levelo://app?vid=473eb893-ccaa-4558-8780-49dfa28a26d2","ios":"levelo://app?vid=473eb893-ccaa-4558-8780-49dfa28a26d2"},"vehicle_type_id":"4","last_reported":1710360436,"current_range_meters":22000,"station_id":"ce4bh392rcd13ifvqdl0","pricing_plan_id":"cebpf4jnsgd1na2vs0mg"},{"bike_id":"3c63b01a-5e01-48a9-bce9-11ab85190113","system_id":"levelo_inurba_marseille","lat":43.298764,"lon":5.388973,"is_reserved":false,"is_disabled":false,"rental_uris":{"android":"levelo://app?vid=3c63b01a-5e01-48a9-bce9-11ab85190113","ios":"levelo://app?vid=3c63b01a-5e01-48a9-bce9-11ab85190113"},"vehicle_type_id":"4","last_reported":1710360436,"current_range_meters":6000,"station_id":"ce4bh392rcd13ifvqdl0","pricing_plan_id":"cebpf4jnsgd1na2vs0mg"},{"bike_id":"03e01d71-a0fd-4e40-b0b7-3c46b9f4caa9","system_id":"levelo_inurba_marseille","lat":43.2988,"lon":5.38919,"is_reserved":false,"is_disabled":false,"rental_uris":{"android":"levelo://app?vid=03e01d71-a0fd-4e40-b0b7-3c46b9f4caa9","ios":"levelo://app?vid=03e01d71-a0fd-4e40-b0b7-3c46b9f4caa9"},"vehicle_type_id":"4","last_reported":1710360436,"current_range_meters":8800,"station_id":"ce4bh392rcd13ifvqdl0","pricing_plan_id":"cebpf4jnsgd1na2vs0mg"},{"bike_id":"34433c93-787f-4306-9da8-502893c7eae2","system_id":"levelo_inurba_marseille","lat":43.298764,"lon":5.388973,"is_reserved":false,"is_disabled":false,"rental_uris":{"android":"levelo://app?vid=34433c93-787f-4306-9da8-502893c7eae2","ios":"levelo://app?vid=34433c93-787f-4306-9da8-502893c7eae2"},"vehicle_type_id":"4","last_reported":1710360436,"current_range_meters":16400,"station_id":"ce4bh392rcd13ifvqdl0","pricing_plan_id":"cebpf4jnsgd1na2vs0mg"},{"bike_id":"7727e2ec-3cdd-49af-9094-43864130feed","system_id":"levelo_inurba_marseille","lat":43.298715,"lon":5.389123,"is_reserved":false,"is_disabled":false,"rental_uris":{"android":"levelo://app?vid=7727e2ec-3cdd-49af-9094-43864130feed","ios":"levelo://app?vid=7727e2ec-3cdd-49af-9094-43864130feed"},"vehicle_type_id":"4","last_reported":1710360436,"current_range_meters":16400,"station_id":"ce4bh392rcd13ifvqdl0","pricing_plan_id":"cebpf4jnsgd1na2vs0mg"},{"bike_id":"f0ac832d-9568-4784-8aaf-0bc752773863","system_id":"levelo_inurba_marseille","lat":43.29865,"lon":5.38908,"is_reserved":false,"is_disabled":false,"rental_uris":{"android":"levelo://app?vid=f0ac832d-9568-4784-8aaf-0bc752773863","ios":"levelo://app?vid=f0ac832d-9568-4784-8aaf-0bc752773863"},"vehicle_type_id":"4","last_reported":1710360436,"current_range_meters":28800,"station_id":"ce4bh392rcd13ifvqdl0","pricing_plan_id":"cebpf4jnsgd1na2vs0mg"},{"bike_id":"7047288c-5cea-4dd8-8b7e-7e3808344ed3","system_id":"levelo_inurba_marseille","lat":43.29873,"lon":5.38918,"is_reserved":false,"is_disabled":false,"rental_uris":{"android":"levelo://app?vid=7047288c-5cea-4dd8-8b7e-7e3808344ed3","ios":"levelo://app?vid=7047288c-5cea-4dd8-8b7e-7e3808344ed3"},"vehicle_type_id":"4","last_reported":1710360436,"current_range_meters":0,"station_id":"ce4bh392rcd13ifvqdl0","pricing_plan_id":"cebpf4jnsgd1na2vs0mg"},{"bike_id":"b255a1cf-2194-4f5f-9b9e-8f8fae9f054c","system_id":"levelo_inurba_marseille","lat":43.29443,"lon":5.38292,"is_reserved":false,"is_disabled":false,"rental_uris":{"android":"levelo://app?vid=b255a1cf-2194-4f5f-9b9e-8f8fae9f054c","ios":"levelo://app?vid=b255a1cf-2194-4f5f-9b9e-8f8fae9f054c"},"vehicle_type_id":"4","last_reported":1710360436,"current_range_meters":9200,"station_id":"","pricing_plan_id":"cebpf4jnsgd1na2vs0mg"},{"bike_id":"70388072-3fb7-4cab-b94d-9d2d5f14b0ba","system_id":"levelo_inurba_marseille","lat":43.29201,"lon":5.35799,"is_reserved":false,"is_disabled":false,"rental_uris":{"android":"levelo://app?vid=70388072-3fb7-4cab-b94d-9d2d5f14b0ba","ios":"levelo://app?vid=70388072-3fb7-4cab-b94d-9d2d5f14b0ba"},"vehicle_type_id":"4","last_reported":1710360436,"current_range_meters":31200,"station_id":"ce4bhb12rcd13ifvqel0","pricing_plan_id":"cebpf4jnsgd1na2vs0mg"},{"bike_id":"73960a28-59ba-49c9-91d5-69ed04f83384","system_id":"levelo_inurba_marseille","lat":43.309047,"lon":5.396551,"is_reserved":false,"is_disabled":false,"rental_uris":{"android":"levelo://app?vid=73960a28-59ba-49c9-91d5-69ed04f83384","ios":"levelo://app?vid=73960a28-59ba-49c9-91d5-69ed04f83384"},"vehicle_type_id":"4","last_reported":1710360436,"current_range_meters":27200,"station_id":"ce4bh012rcd13ifvqcv0","pricing_plan_id":"cebpf4jnsgd1na2vs0mg"},{"bike_id":"1a30b575-d1b0-47b4-a324-1c8e3f2064b1","system_id":"levelo_inurba_marseille","lat":43.29194,"lon":5.35806,"is_reserved":false,"is_disabled":false,"rental_uris":{"android":"levelo://app?vid=1a30b575-d1b0-47b4-a324-1c8e3f2064b1","ios":"levelo://app?vid=1a30b575-d1b0-47b4-a324-1c8e3f2064b1"},"vehicle_type_id":"4","last_reported":1710360436,"current_range_meters":28000,"station_id":"ce4bhb12rcd13ifvqel0","pricing_plan_id":"cebpf4jnsgd1na2vs0mg"},{"bike_id":"a9287f09-456b-4db6-93a8-4534b4b9627d","system_id":"levelo_inurba_marseille","lat":43.29194,"lon":5.35806,"is_reserved":false,"is_disabled":false,"rental_uris":{"android":"levelo://app?vid=a9287f09-456b-4db6-93a8-4534b4b9627d","ios":"levelo://app?vid=a9287f09-456b-4db6-93a8-4534b4b9627d"},"vehicle_type_id":"4","last_reported":1710360436,"current_range_meters":6800,"station_id":"ce4bhb12rcd13ifvqel0","pricing_plan_id":"cebpf4jnsgd1na2vs0mg"},{"bike_id":"277df598-5d08-4f52-9295-2bbac047a220","system_id":"levelo_inurba_marseille","lat":43.29529,"lon":5.385581,"is_reserved":false,"is_disabled":false,"rental_uris":{"android":"levelo://app?vid=277df598-5d08-4f52-9295-2bbac047a220","ios":"levelo://app?vid=277df598-5d08-4f52-9295-2bbac047a220"},"vehicle_type_id":"4","last_reported":1710360436,"current_range_meters":13200,"station_id":"ce4bgih2rcd13ifvqba0","pricing_plan_id":"cebpf4jnsgd1na2vs0mg"},{"bike_id":"8ba9db81-d7f5-4d06-bc74-35e370f6a266","system_id":"levelo_inurba_marseille","lat":43.291994,"lon":5.357886,"is_reserved":false,"is_disabled":false,"rental_uris":{"android":"levelo://app?vid=8ba9db81-d7f5-4d06-bc74-35e370f6a266","ios":"levelo://app?vid=8ba9db81-d7f5-4d06-bc74-35e370f6a266"},"vehicle_type_id":"4","last_reported":1710360436,"current_range_meters":0,"station_id":"ce4bhb12rcd13ifvqel0","pricing_plan_id":"cebpf4jnsgd1na2vs0mg"},{"bike_id":"7336e27a-9cb1-4a53-a5a2-fea884b7f139","system_id":"levelo_inurba_marseille","lat":43.290779,"lon":5.371482,"is_reserved":false,"is_disabled":false,"rental_uris":{"android":"levelo://app?vid=7336e27a-9cb1-4a53-a5a2-fea884b7f139","ios":"levelo://app?vid=7336e27a-9cb1-4a53-a5a2-fea884b7f139"},"vehicle_type_id":"4","last_reported":1710360436,"current_range_meters":16400,"station_id":"ce4bh5p2rcd13ifvqe4g","pricing_plan_id":"cebpf4jnsgd1na2vs0mg"},{"bike_id":"46c1cb65-d5bc-430e-9929-ed224a35523f","system_id":"levelo_inurba_marseille","lat":43.29191,"lon":5.35809,"is_reserved":false,"is_disabled":false,"rental_uris":{"android":"levelo://app?vid=46c1cb65-d5bc-430e-9929-ed224a35523f","ios":"levelo://app?vid=46c1cb65-d5bc-430e-9929-ed224a35523f"},"vehicle_type_id":"4","last_reported":1710360436,"current_range_meters":31200,"station_id":"ce4bhb12rcd13ifvqel0","pricing_plan_id":"cebpf4jnsgd1na2vs0mg"},{"bike_id":"57159437-2105-4af5-9649-b49659bd5024","system_id":"levelo_inurba_marseille","lat":43.29195,"lon":5.35791,"is_reserved":false,"is_disabled":false,"rental_uris":{"android":"levelo://app?vid=57159437-2105-4af5-9649-b49659bd5024","ios":"levelo://app?vid=57159437-2105-4af5-9649-b49659bd5024"},"vehicle_type_id":"4","last_reported":1710360436,"current_range_meters":30400,"station_id":"ce4bhb12rcd13ifvqel0","pricing_plan_id":"cebpf4jnsgd1na2vs0mg"},{"bike_id":"e1299490-cbd8-4dd3-9c53-d338cfaed0f1","system_id":"levelo_inurba_marseille","lat":43.29195,"lon":5.35786,"is_reserved":false,"is_disabled":false,"rental_uris":{"android":"levelo://app?vid=e1299490-cbd8-4dd3-9c53-d338cfaed0f1","ios":"levelo://app?vid=e1299490-cbd8-4dd3-9c53-d338cfaed0f1"},"vehicle_type_id":"4","last_reported":1710360436,"current_range_meters":19600,"station_id":"ce4bhb12rcd13ifvqel0","pricing_plan_id":"cebpf4jnsgd1na2vs0mg"},{"bike_id":"6466c061-daf0-4011-a038-3ab4988a4158","system_id":"levelo_inurba_marseille","lat":43.309038,"lon":5.396546,"is_reserved":false,"is_disabled":false,"rental_uris":{"android":"levelo://app?vid=6466c061-daf0-4011-a038-3ab4988a4158","ios":"levelo://app?vid=6466c061-daf0-4011-a038-3ab4988a4158"},"vehicle_type_id":"4","last_reported":1710360436,"current_range_meters":20800,"station_id":"ce4bh012rcd13ifvqcv0","pricing_plan_id":"cebpf4jnsgd1na2vs0mg"},{"bike_id":"dbaec713-6c5a-4b2d-859c-57e81b198185","system_id":"levelo_inurba_marseille","lat":43.308823,"lon":5.396483,"is_reserved":false,"is_disabled":false,"rental_uris":{"android":"levelo://app?vid=dbaec713-6c5a-4b2d-859c-57e81b198185","ios":"levelo://app?vid=dbaec713-6c5a-4b2d-859c-57e81b198185"},"vehicle_type_id":"4","last_reported":1710360436,"current_range_meters":0,"station_id":"ce4bh012rcd13ifvqcv0","pricing_plan_id":"cebpf4jnsgd1na2vs0mg"},{"bike_id":"ff66d567-844c-450b-8438-ec067cbc66b4","system_id":"levelo_inurba_marseille","lat":43.309047,"lon":5.396551,"is_reserved":false,"is_disabled":false,"rental_uris":{"android":"levelo://app?vid=ff66d567-844c-450b-8438-ec067cbc66b4","ios":"levelo://app?vid=ff66d567-844c-450b-8438-ec067cbc66b4"},"vehicle_type_id":"4","last_reported":1710360436,"current_range_meters":1200,"station_id":"ce4bh012rcd13ifvqcv0","pricing_plan_id":"cebpf4jnsgd1na2vs0mg"},{"bike_id":"eb54f43e-eeba-4b5b-a894-515e732c8e09","system_id":"levelo_inurba_marseille","lat":43.29529,"lon":5.385581,"is_reserved":false,"is_disabled":false,"rental_uris":{"android":"levelo://app?vid=eb54f43e-eeba-4b5b-a894-515e732c8e09","ios":"levelo://app?vid=eb54f43e-eeba-4b5b-a894-515e732c8e09"},"vehicle_type_id":"4","last_reported":1710360436,"current_range_meters":26000,"station_id":"ce4bgih2rcd13ifvqba0","pricing_plan_id":"cebpf4jnsgd1na2vs0mg"},{"bike_id":"3199e820-be26-4bfa-b0b9-3fcfca76759c","system_id":"levelo_inurba_marseille","lat":43.309047,"lon":5.396551,"is_reserved":false,"is_disabled":false,"rental_uris":{"android":"levelo://app?vid=3199e820-be26-4bfa-b0b9-3fcfca76759c","ios":"levelo://app?vid=3199e820-be26-4bfa-b0b9-3fcfca76759c"},"vehicle_type_id":"4","last_reported":1710360436,"current_range_meters":5200,"station_id":"ce4bh012rcd13ifvqcv0","pricing_plan_id":"cebpf4jnsgd1na2vs0mg"},{"bike_id":"5d0802cf-9073-46b9-84de-f04ccbf1c750","system_id":"levelo_inurba_marseille","lat":43.309047,"lon":5.396551,"is_reserved":false,"is_disabled":false,"rental_uris":{"android":"levelo://app?vid=5d0802cf-9073-46b9-84de-f04ccbf1c750","ios":"levelo://app?vid=5d0802cf-9073-46b9-84de-f04ccbf1c750"},"vehicle_type_id":"4","last_reported":1710360436,"current_range_meters":4400,"station_id":"ce4bh012rcd13ifvqcv0","pricing_plan_id":"cebpf4jnsgd1na2vs0mg"},{"bike_id":"799bd1a3-c4aa-46dd-9bc9-819167dff962","system_id":"levelo_inurba_marseille","lat":43.29529,"lon":5.385581,"is_reserved":false,"is_disabled":false,"rental_uris":{"android":"levelo://app?vid=799bd1a3-c4aa-46dd-9bc9-819167dff962","ios":"levelo://app?vid=799bd1a3-c4aa-46dd-9bc9-819167dff962"},"vehicle_type_id":"4","last_reported":1710360436,"current_range_meters":4800,"station_id":"ce4bgih2rcd13ifvqba0","pricing_plan_id":"cebpf4jnsgd1na2vs0mg"},{"bike_id":"765b1346-e382-4a96-b04e-9ad55deeb209","system_id":"levelo_inurba_marseille","lat":43.29529,"lon":5.385581,"is_reserved":false,"is_disabled":false,"rental_uris":{"android":"levelo://app?vid=765b1346-e382-4a96-b04e-9ad55deeb209","ios":"levelo://app?vid=765b1346-e382-4a96-b04e-9ad55deeb209"},"vehicle_type_id":"4","last_reported":1710360436,"current_range_meters":26000,"station_id":"ce4bgih2rcd13ifvqba0","pricing_plan_id":"cebpf4jnsgd1na2vs0mg"},{"bike_id":"47907c6f-9f0b-4d55-93b2-e9754eccf80e","system_id":"levelo_inurba_marseille","lat":43.29538,"lon":5.3854,"is_reserved":false,"is_disabled":false,"rental_uris":{"android":"levelo://app?vid=47907c6f-9f0b-4d55-93b2-e9754eccf80e","ios":"levelo://app?vid=47907c6f-9f0b-4d55-93b2-e9754eccf80e"},"vehicle_type_id":"4","last_reported":1710360436,"current_range_meters":25600,"station_id":"ce4bgih2rcd13ifvqba0","pricing_plan_id":"cebpf4jnsgd1na2vs0mg"},{"bike_id":"cf6a31cc-fd9a-426e-8e02-cd4f6737c338","system_id":"levelo_inurba_marseille","lat":43.29529,"lon":5.385581,"is_reserved":false,"is_disabled":false,"rental_uris":{"android":"levelo://app?vid=cf6a31cc-fd9a-426e-8e02-cd4f6737c338","ios":"levelo://app?vid=cf6a31cc-fd9a-426e-8e02-cd4f6737c338"},"vehicle_type_id":"4","last_reported":1710360436,"current_range_meters":20800,"station_id":"ce4bgih2rcd13ifvqba0","pricing_plan_id":"cebpf4jnsgd1na2vs0mg"},{"bike_id":"f9f886fe-61c8-4af9-a09d-403228c87071","system_id":"levelo_inurba_marseille","lat":43.29529,"lon":5.385581,"is_reserved":false,"is_disabled":false,"rental_uris":{"android":"levelo://app?vid=f9f886fe-61c8-4af9-a09d-403228c87071","ios":"levelo://app?vid=f9f886fe-61c8-4af9-a09d-403228c87071"},"vehicle_type_id":"4","last_reported":1710360436,"current_range_meters":12400,"station_id":"ce4bgih2rcd13ifvqba0","pricing_plan_id":"cebpf4jnsgd1na2vs0mg"},{"bike_id":"9e0f41d8-d52b-47f9-812f-6e8aa8f833a6","system_id":"levelo_inurba_marseille","lat":43.29529,"lon":5.385581,"is_reserved":false,"is_disabled":false,"rental_uris":{"android":"levelo://app?vid=9e0f41d8-d52b-47f9-812f-6e8aa8f833a6","ios":"levelo://app?vid=9e0f41d8-d52b-47f9-812f-6e8aa8f833a6"},"vehicle_type_id":"4","last_reported":1710360436,"current_range_meters":25200,"station_id":"ce4bgih2rcd13ifvqba0","pricing_plan_id":"cebpf4jnsgd1na2vs0mg"},{"bike_id":"0be8f61e-af4c-4cea-ac55-68bcf670a894","system_id":"levelo_inurba_marseille","lat":43.29529,"lon":5.385581,"is_reserved":false,"is_disabled":false,"rental_uris":{"android":"levelo://app?vid=0be8f61e-af4c-4cea-ac55-68bcf670a894","ios":"levelo://app?vid=0be8f61e-af4c-4cea-ac55-68bcf670a894"},"vehicle_type_id":"4","last_reported":1710360436,"current_range_meters":22400,"station_id":"ce4bgih2rcd13ifvqba0","pricing_plan_id":"cebpf4jnsgd1na2vs0mg"},{"bike_id":"cd4275dc-efea-4178-a1c7-94af693bd845","system_id":"levelo_inurba_marseille","lat":43.29529,"lon":5.385581,"is_reserved":false,"is_disabled":false,"rental_uris":{"android":"levelo://app?vid=cd4275dc-efea-4178-a1c7-94af693bd845","ios":"levelo://app?vid=cd4275dc-efea-4178-a1c7-94af693bd845"},"vehicle_type_id":"4","last_reported":1710360436,"current_range_meters":1600,"station_id":"ce4bgih2rcd13ifvqba0","pricing_plan_id":"cebpf4jnsgd1na2vs0mg"},{"bike_id":"f3cbb09e-450c-442e-8a52-4a17c982d225","system_id":"levelo_inurba_marseille","lat":43.29529,"lon":5.385581,"is_reserved":false,"is_disabled":false,"rental_uris":{"android":"levelo://app?vid=f3cbb09e-450c-442e-8a52-4a17c982d225","ios":"levelo://app?vid=f3cbb09e-450c-442e-8a52-4a17c982d225"},"vehicle_type_id":"4","last_reported":1710360436,"current_range_meters":26000,"station_id":"ce4bgih2rcd13ifvqba0","pricing_plan_id":"cebpf4jnsgd1na2vs0mg"},{"bike_id":"76eee499-6652-4c5e-a9d9-295a59f0f053","system_id":"levelo_inurba_marseille","lat":43.292855,"lon":5.379839,"is_reserved":false,"is_disabled":false,"rental_uris":{"android":"levelo://app?vid=76eee499-6652-4c5e-a9d9-295a59f0f053","ios":"levelo://app?vid=76eee499-6652-4c5e-a9d9-295a59f0f053"},"vehicle_type_id":"4","last_reported":1710360436,"current_range_meters":18400,"station_id":"","pricing_plan_id":"cebpf4jnsgd1na2vs0mg"},{"bike_id":"6b0b6f75-686c-4dc7-bd8a-1d6e22c49cc7","system_id":"levelo_inurba_marseille","lat":43.29529,"lon":5.385581,"is_reserved":false,"is_disabled":false,"rental_uris":{"android":"levelo://app?vid=6b0b6f75-686c-4dc7-bd8a-1d6e22c49cc7","ios":"levelo://app?vid=6b0b6f75-686c-4dc7-bd8a-1d6e22c49cc7"},"vehicle_type_id":"4","last_reported":1710360436,"current_range_meters":16000,"station_id":"ce4bgih2rcd13ifvqba0","pricing_plan_id":"cebpf4jnsgd1na2vs0mg"},{"bike_id":"b1757853-e8dd-4fdd-82fe-b2fb7cb26276","system_id":"levelo_inurba_marseille","lat":43.29529,"lon":5.385581,"is_reserved":false,"is_disabled":false,"rental_uris":{"android":"levelo://app?vid=b1757853-e8dd-4fdd-82fe-b2fb7cb26276","ios":"levelo://app?vid=b1757853-e8dd-4fdd-82fe-b2fb7cb26276"},"vehicle_type_id":"4","last_reported":1710360436,"current_range_meters":7600,"station_id":"ce4bgih2rcd13ifvqba0","pricing_plan_id":"cebpf4jnsgd1na2vs0mg"},{"bike_id":"0b87ff22-c1d7-444b-bfb0-86dddd522ac8","system_id":"levelo_inurba_marseille","lat":43.29529,"lon":5.385581,"is_reserved":false,"is_disabled":false,"rental_uris":{"android":"levelo://app?vid=0b87ff22-c1d7-444b-bfb0-86dddd522ac8","ios":"levelo://app?vid=0b87ff22-c1d7-444b-bfb0-86dddd522ac8"},"vehicle_type_id":"4","last_reported":1710360436,"current_range_meters":20800,"station_id":"ce4bgih2rcd13ifvqba0","pricing_plan_id":"cebpf4jnsgd1na2vs0mg"},{"bike_id":"6649d5da-bf3e-4ef1-9d6d-cfb1105dc98b","system_id":"levelo_inurba_marseille","lat":43.29529,"lon":5.385581,"is_reserved":false,"is_disabled":false,"rental_uris":{"android":"levelo://app?vid=6649d5da-bf3e-4ef1-9d6d-cfb1105dc98b","ios":"levelo://app?vid=6649d5da-bf3e-4ef1-9d6d-cfb1105dc98b"},"vehicle_type_id":"4","last_reported":1710360436,"current_range_meters":20800,"station_id":"ce4bgih2rcd13ifvqba0","pricing_plan_id":"cebpf4jnsgd1na2vs0mg"},{"bike_id":"69d0ae78-66c3-4dbd-b598-e042f373afa3","system_id":"levelo_inurba_marseille","lat":43.29529,"lon":5.385581,"is_reserved":false,"is_disabled":false,"rental_uris":{"android":"levelo://app?vid=69d0ae78-66c3-4dbd-b598-e042f373afa3","ios":"levelo://app?vid=69d0ae78-66c3-4dbd-b598-e042f373afa3"},"vehicle_type_id":"4","last_reported":1710360436,"current_range_meters":2800,"station_id":"ce4bgih2rcd13ifvqba0","pricing_plan_id":"cebpf4jnsgd1na2vs0mg"},{"bike_id":"3e953adf-3dfa-4039-934d-83d0d6ca6c78","system_id":"levelo_inurba_marseille","lat":43.29529,"lon":5.385581,"is_reserved":false,"is_disabled":false,"rental_uris":{"android":"levelo://app?vid=3e953adf-3dfa-4039-934d-83d0d6ca6c78","ios":"levelo://app?vid=3e953adf-3dfa-4039-934d-83d0d6ca6c78"},"vehicle_type_id":"4","last_reported":1710360436,"current_range_meters":11600,"station_id":"ce4bgih2rcd13ifvqba0","pricing_plan_id":"cebpf4jnsgd1na2vs0mg"},{"bike_id":"4ae2f4da-fcf4-42d4-995c-4aa8c454f052","system_id":"levelo_inurba_marseille","lat":43.29529,"lon":5.385581,"is_reserved":false,"is_disabled":false,"rental_uris":{"android":"levelo://app?vid=4ae2f4da-fcf4-42d4-995c-4aa8c454f052","ios":"levelo://app?vid=4ae2f4da-fcf4-42d4-995c-4aa8c454f052"},"vehicle_type_id":"4","last_reported":1710360436,"current_range_meters":2800,"station_id":"ce4bgih2rcd13ifvqba0","pricing_plan_id":"cebpf4jnsgd1na2vs0mg"},{"bike_id":"8007bd12-71fe-4ab3-a16c-b8ce01d9b96b","system_id":"levelo_inurba_marseille","lat":43.29529,"lon":5.38552,"is_reserved":false,"is_disabled":false,"rental_uris":{"android":"levelo://app?vid=8007bd12-71fe-4ab3-a16c-b8ce01d9b96b","ios":"levelo://app?vid=8007bd12-71fe-4ab3-a16c-b8ce01d9b96b"},"vehicle_type_id":"4","last_reported":1710360436,"current_range_meters":1600,"station_id":"ce4bgih2rcd13ifvqba0","pricing_plan_id":"cebpf4jnsgd1na2vs0mg"},{"bike_id":"b17a7c85-36d4-468f-b017-e22fa507909a","system_id":"levelo_inurba_marseille","lat":43.29514,"lon":5.38549,"is_reserved":false,"is_disabled":false,"rental_uris":{"android":"levelo://app?vid=b17a7c85-36d4-468f-b017-e22fa507909a","ios":"levelo://app?vid=b17a7c85-36d4-468f-b017-e22fa507909a"},"vehicle_type_id":"4","last_reported":1710360436,"current_range_meters":26000,"station_id":"ce4bgih2rcd13ifvqba0","pricing_plan_id":"cebpf4jnsgd1na2vs0mg"},{"bike_id":"81dc9ead-81ef-49ad-bbbb-75fd09c520db","system_id":"levelo_inurba_marseille","lat":43.302008,"lon":5.394694,"is_reserved":false,"is_disabled":false,"rental_uris":{"android":"levelo://app?vid=81dc9ead-81ef-49ad-bbbb-75fd09c520db","ios":"levelo://app?vid=81dc9ead-81ef-49ad-bbbb-75fd09c520db"},"vehicle_type_id":"4","last_reported":1710360436,"current_range_meters":16400,"station_id":"ce4bh0p2rcd13ifvqd70","pricing_plan_id":"cebpf4jnsgd1na2vs0mg"},{"bike_id":"d395c9f1-f4cc-4d1c-9dc3-ee53234a41e8","system_id":"levelo_inurba_marseille","lat":43.302008,"lon":5.394694,"is_reserved":false,"is_disabled":false,"rental_uris":{"android":"levelo://app?vid=d395c9f1-f4cc-4d1c-9dc3-ee53234a41e8","ios":"levelo://app?vid=d395c9f1-f4cc-4d1c-9dc3-ee53234a41e8"},"vehicle_type_id":"4","last_reported":1710360436,"current_range_meters":22800,"station_id":"ce4bh0p2rcd13ifvqd70","pricing_plan_id":"cebpf4jnsgd1na2vs0mg"},{"bike_id":"00c0ebf9-5113-46dd-b423-7e496e48a7b2","system_id":"levelo_inurba_marseille","lat":43.290624,"lon":5.359245,"is_reserved":false,"is_disabled":false,"rental_uris":{"android":"levelo://app?vid=00c0ebf9-5113-46dd-b423-7e496e48a7b2","ios":"levelo://app?vid=00c0ebf9-5113-46dd-b423-7e496e48a7b2"},"vehicle_type_id":"4","last_reported":1710360436,"current_range_meters":16400,"station_id":"ce4bha92rcd13ifvqeg0","pricing_plan_id":"cebpf4jnsgd1na2vs0mg"},{"bike_id":"892c0061-47ef-4e0e-a0c1-3b32ff5d51ad","system_id":"levelo_inurba_marseille","lat":43.290624,"lon":5.359245,"is_reserved":false,"is_disabled":false,"rental_uris":{"android":"levelo://app?vid=892c0061-47ef-4e0e-a0c1-3b32ff5d51ad","ios":"levelo://app?vid=892c0061-47ef-4e0e-a0c1-3b32ff5d51ad"},"vehicle_type_id":"4","last_reported":1710360436,"current_range_meters":22400,"station_id":"ce4bha92rcd13ifvqeg0","pricing_plan_id":"cebpf4jnsgd1na2vs0mg"},{"bike_id":"414ad2e9-3dc1-4656-9ef2-f27b88ddc9c0","system_id":"levelo_inurba_marseille","lat":43.290631,"lon":5.359244,"is_reserved":false,"is_disabled":false,"rental_uris":{"android":"levelo://app?vid=414ad2e9-3dc1-4656-9ef2-f27b88ddc9c0","ios":"levelo://app?vid=414ad2e9-3dc1-4656-9ef2-f27b88ddc9c0"},"vehicle_type_id":"4","last_reported":1710360436,"current_range_meters":0,"station_id":"ce4bha92rcd13ifvqeg0","pricing_plan_id":"cebpf4jnsgd1na2vs0mg"},{"bike_id":"b1374505-f890-401e-9a47-eb3e0fba34a3","system_id":"levelo_inurba_marseille","lat":43.294153,"lon":5.386305,"is_reserved":false,"is_disabled":false,"rental_uris":{"android":"levelo://app?vid=b1374505-f890-401e-9a47-eb3e0fba34a3","ios":"levelo://app?vid=b1374505-f890-401e-9a47-eb3e0fba34a3"},"vehicle_type_id":"4","last_reported":1710360436,"current_range_meters":5200,"station_id":"ce4bh2h2rcd13ifvqdh0","pricing_plan_id":"cebpf4jnsgd1na2vs0mg"},{"bike_id":"3aae5a46-e752-435c-990f-2ee2a41c8610","system_id":"levelo_inurba_marseille","lat":43.294162,"lon":5.386292,"is_reserved":false,"is_disabled":false,"rental_uris":{"android":"levelo://app?vid=3aae5a46-e752-435c-990f-2ee2a41c8610","ios":"levelo://app?vid=3aae5a46-e752-435c-990f-2ee2a41c8610"},"vehicle_type_id":"4","last_reported":1710360436,"current_range_meters":13600,"station_id":"ce4bh2h2rcd13ifvqdh0","pricing_plan_id":"cebpf4jnsgd1na2vs0mg"},{"bike_id":"6c37f33d-662e-4247-99e8-ecf503b092ee","system_id":"levelo_inurba_marseille","lat":43.29434,"lon":5.38631,"is_reserved":false,"is_disabled":false,"rental_uris":{"android":"levelo://app?vid=6c37f33d-662e-4247-99e8-ecf503b092ee","ios":"levelo://app?vid=6c37f33d-662e-4247-99e8-ecf503b092ee"},"vehicle_type_id":"4","last_reported":1710360436,"current_range_meters":0,"station_id":"ce4bh2h2rcd13ifvqdh0","pricing_plan_id":"cebpf4jnsgd1na2vs0mg"},{"bike_id":"f4a1ca5c-1042-4309-8bd0-1a27425000d0","system_id":"levelo_inurba_marseille","lat":43.294153,"lon":5.386305,"is_reserved":false,"is_disabled":false,"rental_uris":{"android":"levelo://app?vid=f4a1ca5c-1042-4309-8bd0-1a27425000d0","ios":"levelo://app?vid=f4a1ca5c-1042-4309-8bd0-1a27425000d0"},"vehicle_type_id":"4","last_reported":1710360436,"current_range_meters":21200,"station_id":"ce4bh2h2rcd13ifvqdh0","pricing_plan_id":"cebpf4jnsgd1na2vs0mg"},{"bike_id":"c589a665-7c84-4c6c-9473-da7c66c82176","system_id":"levelo_inurba_marseille","lat":43.290319,"lon":5.375732,"is_reserved":false,"is_disabled":false,"rental_uris":{"android":"levelo://app?vid=c589a665-7c84-4c6c-9473-da7c66c82176","ios":"levelo://app?vid=c589a665-7c84-4c6c-9473-da7c66c82176"},"vehicle_type_id":"4","last_reported":1710360436,"current_range_meters":8000,"station_id":"ce4bh692rcd13ifvqe90","pricing_plan_id":"cebpf4jnsgd1na2vs0mg"},{"bike_id":"a7767ad0-e1b3-4864-b9e0-9f9f212fe4e8","system_id":"levelo_inurba_marseille","lat":43.294241,"lon":5.386226,"is_reserved":false,"is_disabled":false,"rental_uris":{"android":"levelo://app?vid=a7767ad0-e1b3-4864-b9e0-9f9f212fe4e8","ios":"levelo://app?vid=a7767ad0-e1b3-4864-b9e0-9f9f212fe4e8"},"vehicle_type_id":"4","last_reported":1710360436,"current_range_meters":0,"station_id":"ce4bh2h2rcd13ifvqdh0","pricing_plan_id":"cebpf4jnsgd1na2vs0mg"},{"bike_id":"946c3da1-67cc-41ff-9d25-5f902008d784","system_id":"levelo_inurba_marseille","lat":43.294153,"lon":5.386305,"is_reserved":false,"is_disabled":false,"rental_uris":{"android":"levelo://app?vid=946c3da1-67cc-41ff-9d25-5f902008d784","ios":"levelo://app?vid=946c3da1-67cc-41ff-9d25-5f902008d784"},"vehicle_type_id":"4","last_reported":1710360436,"current_range_meters":3200,"station_id":"ce4bh2h2rcd13ifvqdh0","pricing_plan_id":"cebpf4jnsgd1na2vs0mg"},{"bike_id":"94a9840a-a476-4618-82fc-e3f308ec7fce","system_id":"levelo_inurba_marseille","lat":43.294153,"lon":5.386305,"is_reserved":false,"is_disabled":false,"rental_uris":{"android":"levelo://app?vid=94a9840a-a476-4618-82fc-e3f308ec7fce","ios":"levelo://app?vid=94a9840a-a476-4618-82fc-e3f308ec7fce"},"vehicle_type_id":"4","last_reported":1710360436,"current_range_meters":1600,"station_id":"ce4bh2h2rcd13ifvqdh0","pricing_plan_id":"cebpf4jnsgd1na2vs0mg"},