{"last_updated":1742105550,"ttl":60,"version":"2.2","data":{"bikes":[{"bike_id":"d8df68d2-4430-45d9-9658-067508ec079b","system_id":"levelo_inurba_marseille","lat":43.29786,"lon":5.39333,"is_reserved":false,"is_disabled":false,"rental_uris":{"android":"levelo://app?vid=d8df68d2-4430-45d9-9658-067508ec079b","ios":"levelo://app?vid=d8df68d2-4430-45d9-9658-067508ec079b"},"vehicle_type_id":"4","last_reported":1742105550,"current_range_meters":2800,"station_id":"chh1huq6cuj3fo74tm60","pricing_plan_id":"cebpf4jnsgd1na2vs0mg"},{"bike_id":"b76967ef-432a-4b0a-a1aa-bc28216361bc","system_id":"levelo_inurba_marseille","lat":43.23193,"lon":5.39984,"is_reserved":false,"is_disabled":false,"rental_uris":{"android":"levelo://app?vid=b76967ef-432a-4b0a-a1aa-bc28216361bc","ios":"levelo://app?vid=b76967ef-432a-4b0a-a1aa-bc28216361bc"},"vehicle_type_id":"4","last_reported":1742105550,"current_range_meters":2800,"station_id":"ce4bhn12rcd13ifvqgqg","pricing_plan_id":"cebpf4jnsgd1na2vs0mg"},{"bike_id":"dfb1890d-a53d-42f7-a687-0bca1634d203","system_id":"levelo_inurba_marseille","lat":43.26992,"lon":5.3869,"is_reserved":false,"is_disabled":false,"rental_uris":{"android":"levelo://app?vid=dfb1890d-a53d-42f7-a687-0bca1634d203","ios":"levelo://app?vid=dfb1890d-a53d-42f7-a687-0bca1634d203"},"vehicle_type_id":"4","last_reported":1742105550,"current_range_meters":2800,"station_id":"","pricing_plan_id":"cebpf4jnsgd1na2vs0mg"},{"bike_id":"8814fbcc-94de-40ec-9529-e8affb23fe2a","system_id":"levelo_inurba_marseille","lat":43.272096,"lon":5.391922,"is_reserved":false,"is_disabled":false,"rental_uris":{"android":"levelo://app?vid=8814fbcc-94de-40ec-9529-e8affb23fe2a","ios":"levelo://app?vid=8814fbcc-94de-40ec-9529-e8affb23fe2a"},"vehicle_type_id":"4","last_reported":1742105550,"current_range_meters":3200,"station_id":"ce4bhhp2rcd13ifvqfm0","pricing_plan_id":"cebpf4jnsgd1na2vs0mg"},{"bike_id":"36cb2c0e-1dcf-4a86-bb36-2625319d6693","system_id":"levelo_inurba_marseille","lat":43.29285,"lon":5.40193,"is_reserved":false,"is_disabled":false,"rental_uris":{"android":"levelo://app?vid=36cb2c0e-1dcf-4a86-bb36-2625319d6693","ios":"levelo://app?vid=36cb2c0e-1dcf-4a86-bb36-2625319d6693"},"vehicle_type_id":"4","last_reported":1742105550,"current_range_meters":3200,"station_id":"","pricing_plan_id":"cebpf4jnsgd1na2vs0mg"},{"bike_id":"2559e6f6-8cd0-4fe9-b95d-6610c20152ba","system_id":"levelo_inurba_marseille","lat":43.32099,"lon":5.36792,"is_reserved":false,"is_disabled":false,"rental_uris":{"android":"levelo://app?vid=2559e6f6-8cd0-4fe9-b95d-6610c20152ba","ios":"levelo://app?vid=2559e6f6-8cd0-4fe9-b95d-6610c20152ba"},"vehicle_type_id":"4","last_reported":1742105550,"current_range_meters":3200,"station_id":"ce4bhrh2rcd13ifvqhug","pricing_plan_id":"cebpf4jnsgd1na2vs0mg"},{"bike_id":"fa95b9c0-5d13-48ec-8fe1-3bef95bd7bed","system_id":"levelo_inurba_marseille","lat":43.24646,"lon":5.38884,"is_reserved":false,"is_disabled":false,"rental_uris":{"android":"levelo://app?vid=fa95b9c0-5d13-48ec-8fe1-3bef95bd7bed","ios":"levelo://app?vid=fa95b9c0-5d13-48ec-8fe1-3bef95bd7bed"},"vehicle_type_id":"4","last_reported":1742105550,"current_range_meters":3200,"station_id":"ce4bhg12rcd13ifvqf60","pricing_plan_id":"cebpf4jnsgd1na2vs0mg"},{"bike_id":"fec664b5-5aea-4011-b14e-ffd8cb914ad9","system_id":"levelo_inurba_marseille","lat":43.29905,"lon":5.3814,"is_reserved":false,"is_disabled":false,"rental_uris":{"android":"levelo://app?vid=fec664b5-5aea-4011-b14e-ffd8cb914ad9","ios":"levelo://app?vid=fec664b5-5aea-4011-b14e-ffd8cb914ad9"},"vehicle_type_id":"4","last_reported":1742105550,"current_range_meters":3200,"station_id":"ce4bgj12rcd13ifvqbc0","pricing_plan_id":"cebpf4jnsgd1na2vs0mg"},{"bike_id":"4e4c9d63-1226-4a73-9d06-6bf043a49124","system_id":"levelo_inurba_marseille","lat":43.31991,"lon":5.38166,"is_reserved":false,"is_disabled":false,"rental_uris":{"android":"levelo://app?vid=4e4c9d63-1226-4a73-9d06-6bf043a49124","ios":"levelo://app?vid=4e4c9d63-1226-4a73-9d06-6bf043a49124"},"vehicle_type_id":"4","last_reported":1742105550,"current_range_meters":3200,"station_id":"ce4bhr12rcd13ifvqhpg","pricing_plan_id":"cebpf4jnsgd1na2vs0mg"},{"bike_id":"3e62e780-e2bd-40fd-9780-79a2e9c047fd","system_id":"levelo_inurba_marseille","lat":43.27911,"lon":5.39617,"is_reserved":false,"is_disabled":false,"rental_uris":{"android":"levelo://app?vid=3e62e780-e2bd-40fd-9780-79a2e9c047fd","ios":"levelo://app?vid=3e62e780-e2bd-40fd-9780-79a2e9c047fd"},"vehicle_type_id":"4","last_reported":1742105550,"current_range_meters":3200,"station_id":"ce4bhf92rcd13ifvqf40","pricing_plan_id":"cebpf4jnsgd1na2vs0mg"},{"bike_id":"b8dc8f59-88b2-4cec-b5bd-26e833ba9750","system_id":"levelo_inurba_marseille","lat":43.32457,"lon":5.3656,"is_reserved":false,"is_disabled":true,"rental_uris":{"android":"levelo://app?vid=b8dc8f59-88b2-4cec-b5bd-26e833ba9750","ios":"levelo://app?vid=b8dc8f59-88b2-4cec-b5bd-26e833ba9750"},"vehicle_type_id":"4","last_reported":1742105550,"current_range_meters":3200,"station_id":"ce4bhs12rcd13ifvqhvg","pricing_plan_id":"cebpf4jnsgd1na2vs0mg"},{"bike_id":"ded77d3e-eff1-40b3-951b-23d801e9f95a","system_id":"levelo_inurba_marseille","lat":43.279135,"lon":5.412205,"is_reserved":false,"is_disabled":false,"rental_uris":{"android":"levelo://app?vid=ded77d3e-eff1-40b3-951b-23d801e9f95a","ios":"levelo://app?vid=ded77d3e-eff1-40b3-951b-23d801e9f95a"},"vehicle_type_id":"4","last_reported":1742105550,"current_range_meters":3600,"station_id":"","pricing_plan_id":"cebpf4jnsgd1na2vs0mg"},{"bike_id":"843036e3-cfe2-4c28-ada7-c83c2bfcbe67","system_id":"levelo_inurba_marseille","lat":43.27175,"lon":5.40993,"is_reserved":false,"is_disabled":false,"rental_uris":{"android":"levelo://app?vid=843036e3-cfe2-4c28-ada7-c83c2bfcbe67","ios":"levelo://app?vid=843036e3-cfe2-4c28-ada7-c83c2bfcbe67"},"vehicle_type_id":"4","last_reported":1742105550,"current_range_meters":3600,"station_id":"ce4bhl12rcd13ifvqgf0","pricing_plan_id":"cebpf4jnsgd1na2vs0mg"},{"bike_id":"6b43488e-49e7-4159-b7e7-54e154d8769f","system_id":"levelo_inurba_marseille","lat":43.230609,"lon":5.354924,"is_reserved":false,"is_disabled":false,"rental_uris":{"android":"levelo://app?vid=6b43488e-49e7-4159-b7e7-54e154d8769f","ios":"levelo://app?vid=6b43488e-49e7-4159-b7e7-54e154d8769f"},"vehicle_type_id":"4","last_reported":1742105550,"current_range_meters":3600,"station_id":"cpo3342slgdg3j2ifvpg","pricing_plan_id":"cebpf4jnsgd1na2vs0mg"},{"bike_id":"3f190474-b31e-490d-8d46-1285e434e147","system_id":"levelo_inurba_marseille","lat":43.29709,"lon":5.36579,"is_reserved":false,"is_disabled":false,"rental_uris":{"android":"levelo://app?vid=3f190474-b31e-490d-8d46-1285e434e147","ios":"levelo://app?vid=3f190474-b31e-490d-8d46-1285e434e147"},"vehicle_type_id":"4","last_reported":1742105550,"current_range_meters":3600,"station_id":"ce4bgn12rcd13ifvqbt0","pricing_plan_id":"cebpf4jnsgd1na2vs0mg"},{"bike_id":"db9c8ed3-724b-489e-877a-fcc8b99bd93f","system_id":"levelo_inurba_marseille","lat":43.29526,"lon":5.3751,"is_reserved":false,"is_disabled":true,"rental_uris":{"android":"levelo://app?vid=db9c8ed3-724b-489e-877a-fcc8b99bd93f","ios":"levelo://app?vid=db9c8ed3-724b-489e-877a-fcc8b99bd93f"},"vehicle_type_id":"4","last_reported":1742105550,"current_range_meters":3600,"station_id":"ce4bgkp2rcd13ifvqbmg","pricing_plan_id":"cebpf4jnsgd1na2vs0mg"},{"bike_id":"f5d879b5-4e8a-4e91-bc2b-907eff703e2f","system_id":"levelo_inurba_marseille","lat":43.24662,"lon":5.3817,"is_reserved":false,"is_disabled":false,"rental_uris":{"android":"levelo://app?vid=f5d879b5-4e8a-4e91-bc2b-907eff703e2f","ios":"levelo://app?vid=f5d879b5-4e8a-4e91-bc2b-907eff703e2f"},"vehicle_type_id":"4","last_reported":1742105550,"current_range_meters":4000,"station_id":"ce4bhih2rcd13ifvqfr0","pricing_plan_id":"cebpf4jnsgd1na2vs0mg"},{"bike_id":"512428d8-7d82-491c-9101-ad0fb4abaf3a","system_id":"levelo_inurba_marseille","lat":43.29711,"lon":5.37706,"is_reserved":false,"is_disabled":false,"rental_uris":{"android":"levelo://app?vid=512428d8-7d82-491c-9101-ad0fb4abaf3a","ios":"levelo://app?vid=512428d8-7d82-491c-9101-ad0fb4abaf3a"},"vehicle_type_id":"4","last_reported":1742105550,"current_range_meters":4000,"station_id":"ce4bgkh2rcd13ifvqbl0","pricing_plan_id":"cebpf4jnsgd1na2vs0mg"},{"bike_id":"44a80c61-0769-4175-8338-62a641670ed0","system_id":"levelo_inurba_marseille","lat":43.28697,"lon":5.39996,"is_reserved":false,"is_disabled":false,"rental_uris":{"android":"levelo://app?vid=44a80c61-0769-4175-8338-62a641670ed0","ios":"levelo://app?vid=44a80c61-0769-4175-8338-62a641670ed0"},"vehicle_type_id":"4","last_reported":1742105550,"current_range_meters":4000,"station_id":"ce4bho92rcd13ifvqh3g","pricing_plan_id":"cebpf4jnsgd1na2vs0mg"},{"bike_id":"d6dc0d2a-774e-4719-aadb-172d44102923","system_id":"levelo_inurba_marseille","lat":43.31175,"lon":5.3874,"is_reserved":false,"is_disabled":false,"rental_uris":{"android":"levelo://app?vid=d6dc0d2a-774e-4719-aadb-172d44102923","ios":"levelo://app?vid=d6dc0d2a-774e-4719-aadb-172d44102923"},"vehicle_type_id":"4","last_reported":1742105550,"current_range_meters":4400,"station_id":"ce4bgv12rcd13ifvqcp0","pricing_plan_id":"cebpf4jnsgd1na2vs0mg"},{"bike_id":"8e9fcaae-31b6-4c25-b85c-1e565f840aab","system_id":"levelo_inurba_marseille","lat":43.24809,"lon":5.37453,"is_reserved":false,"is_disabled":false,"rental_uris":{"android":"levelo://app?vid=8e9fcaae-31b6-4c25-b85c-1e565f840aab","ios":"levelo://app?vid=8e9fcaae-31b6-4c25-b85c-1e565f840aab"},"vehicle_type_id":"4","last_reported":1742105550,"current_range_meters":4400,"station_id":"ce4bhgh2rcd13ifvqfb0","pricing_plan_id":"cebpf4jnsgd1na2vs0mg"},{"bike_id":"f1ed843b-bc46-48dd-95a8-05f206738bbc","system_id":"levelo_inurba_marseille","lat":43.31269,"lon":5.40178,"is_reserved":false,"is_disabled":false,"rental_uris":{"android":"levelo://app?vid=f1ed843b-bc46-48dd-95a8-05f206738bbc","ios":"levelo://app?vid=f1ed843b-bc46-48dd-95a8-05f206738bbc"},"vehicle_type_id":"4","last_reported":1742105550,"current_range_meters":4400,"station_id":"ce4bh092rcd13ifvqd30","pricing_plan_id":"cebpf4jnsgd1na2vs0mg"},{"bike_id":"9d5ec8b3-c7d4-4bbd-8510-b628f6123ba9","system_id":"levelo_inurba_marseille","lat":43.28697,"lon":5.37407,"is_reserved":false,"is_disabled":false,"rental_uris":{"android":"levelo://app?vid=9d5ec8b3-c7d4-4bbd-8510-b628f6123ba9","ios":"levelo://app?vid=9d5ec8b3-c7d4-4bbd-8510-b628f6123ba9"},"vehicle_type_id":"4","last_reported":1742105550,"current_range_meters":4400,"station_id":"ce4bh3p2rcd13ifvqdq0","pricing_plan_id":"cebpf4jnsgd1na2vs0mg"},{"bike_id":"7e8a9298-9353-45b6-95e3-3d4a99bb2969","system_id":"levelo_inurba_marseille","lat":43.28713,"lon":5.3611,"is_reserved":false,"is_disabled":false,"rental_uris":{"android":"levelo://app?vid=7e8a9298-9353-45b6-95e3-3d4a99bb2969","ios":"levelo://app?vid=7e8a9298-9353-45b6-95e3-3d4a99bb2969"},"vehicle_type_id":"4","last_reported":1742105550,"current_range_meters":4400,"station_id":"cki0cbj6b192h4jlfktg","pricing_plan_id":"cebpf4jnsgd1na2vs0mg"},{"bike_id":"9d32fea8-8104-41c0-9b0a-a23ea4c0455d","system_id":"levelo_inurba_marseille","lat":43.24997,"lon":5.38929,"is_reserved":false,"is_disabled":false,"rental_uris":{"android":"levelo://app?vid=9d32fea8-8104-41c0-9b0a-a23ea4c0455d","ios":"levelo://app?vid=9d32fea8-8104-41c0-9b0a-a23ea4c0455d"},"vehicle_type_id":"4","last_reported":1742105550,"current_range_meters":4800,"station_id":"ce4bhgp2rcd13ifvqfd0","pricing_plan_id":"cebpf4jnsgd1na2vs0mg"},{"bike_id":"355fb77e-22da-4ed4-bab8-f395a5c5d15a","system_id":"levelo_inurba_marseille","lat":43.24677,"lon":5.38151,"is_reserved":false,"is_disabled":false,"rental_uris":{"android":"levelo://app?vid=355fb77e-22da-4ed4-bab8-f395a5c5d15a","ios":"levelo://app?vid=355fb77e-22da-4ed4-bab8-f395a5c5d15a"},"vehicle_type_id":"4","last_reported":1742105550,"current_range_meters":4800,"station_id":"ce4bhih2rcd13ifvqfr0","pricing_plan_id":"cebpf4jnsgd1na2vs0mg"},{"bike_id":"2f2455a5-35ed-498f-8b78-b89935e6ad5f","system_id":"levelo_inurba_marseille","lat":43.28923,"lon":5.36411,"is_reserved":false,"is_disabled":false,"rental_uris":{"android":"levelo://app?vid=2f2455a5-35ed-498f-8b78-b89935e6ad5f","ios":"levelo://app?vid=2f2455a5-35ed-498f-8b78-b89935e6ad5f"},"vehicle_type_id":"4","last_reported":1742105550,"current_range_meters":4800,"station_id":"ce4bhc92rcd13ifvqetg","pricing_plan_id":"cebpf4jnsgd1na2vs0mg"},{"bike_id":"bd7fb638-a561-41df-90ca-f32685780427","system_id":"levelo_inurba_marseille","lat":43.22927,"lon":5.35379,"is_reserved":false,"is_disabled":false,"rental_uris":{"android":"levelo://app?vid=bd7fb638-a561-41df-90ca-f32685780427","ios":"levelo://app?vid=bd7fb638-a561-41df-90ca-f32685780427"},"vehicle_type_id":"4","last_reported":1742105550,"current_range_meters":4800,"station_id":"cpo3532slgdg3j2ikp40","pricing_plan_id":"cebpf4jnsgd1na2vs0mg"},{"bike_id":"2ec0f046-4e68-4150-a618-5c892d6b2cb5","system_id":"levelo_inurba_marseille","lat":43.26233,"lon":5.40478,"is_reserved":false,"is_disabled":false,"rental_uris":{"android":"levelo://app?vid=2ec0f046-4e68-4150-a618-5c892d6b2cb5","ios":"levelo://app?vid=2ec0f046-4e68-4150-a618-5c892d6b2cb5"},"vehicle_type_id":"4","last_reported":1742105550,"current_range_meters":4800,"station_id":"ce4bhmh2rcd13ifvqgmg","pricing_plan_id":"cebpf4jnsgd1na2vs0mg"},{"bike_id":"48f968e9-2670-450c-9a50-b12a7ac1907f","system_id":"levelo_inurba_marseille","lat":43.257172,"lon":5.41113,"is_reserved":false,"is_disabled":false,"rental_uris":{"android":"levelo://app?vid=48f968e9-2670-450c-9a50-b12a7ac1907f","ios":"levelo://app?vid=48f968e9-2670-450c-9a50-b12a7ac1907f"},"vehicle_type_id":"4","last_reported":1742105550,"current_range_meters":5600,"station_id":"ce4bhkp2rcd13ifvqgd0","pricing_plan_id":"cebpf4jnsgd1na2vs0mg"},{"bike_id":"ee04f0d7-be84-4b6b-b77c-e161e113ebb7","system_id":"levelo_inurba_marseille","lat":43.23188,"lon":5.39972,"is_reserved":false,"is_disabled":false,"rental_uris":{"android":"levelo://app?vid=ee04f0d7-be84-4b6b-b77c-e161e113ebb7","ios":"levelo://app?vid=ee04f0d7-be84-4b6b-b77c-e161e113ebb7"},"vehicle_type_id":"4","last_reported":1742105550,"current_range_meters":5600,"station_id":"ce4bhn12rcd13ifvqgqg","pricing_plan_id":"cebpf4jnsgd1na2vs0mg"},{"bike_id":"8a5bd971-61c1-4475-933b-dffdb284dd01","system_id":"levelo_inurba_marseille","lat":43.250051,"lon":5.38928,"is_reserved":false,"is_disabled":false,"rental_uris":{"android":"levelo://app?vid=8a5bd971-61c1-4475-933b-dffdb284dd01","ios":"levelo://app?vid=8a5bd971-61c1-4475-933b-dffdb284dd01"},"vehicle_type_id":"4","last_reported":1742105550,"current_range_meters":5600,"station_id":"ce4bhgp2rcd13ifvqfd0","pricing_plan_id":"cebpf4jnsgd1na2vs0mg"},{"bike_id":"73b38ca2-03c0-4c75-a1dc-ce6a9a306785","system_id":"levelo_inurba_marseille","lat":43.3046,"lon":5.38204,"is_reserved":false,"is_disabled":false,"rental_uris":{"android":"levelo://app?vid=73b38ca2-03c0-4c75-a1dc-ce6a9a306785","ios":"levelo://app?vid=73b38ca2-03c0-4c75-a1dc-ce6a9a306785"},"vehicle_type_id":"4","last_reported":1742105550,"current_range_meters":5600,"station_id":"","pricing_plan_id":"cebpf4jnsgd1na2vs0mg"},{"bike_id":"88c2ec9c-c2ee-474d-a6aa-dbb7a53fc0ca","system_id":"levelo_inurba_marseille","lat":43.24177,"lon":5.39739,"is_reserved":false,"is_disabled":true,"rental_uris":{"android":"levelo://app?vid=88c2ec9c-c2ee-474d-a6aa-dbb7a53fc0ca","ios":"levelo://app?vid=88c2ec9c-c2ee-474d-a6aa-dbb7a53fc0ca"},"vehicle_type_id":"4","last_reported":1742105550,"current_range_meters":6000,"station_id":"ce4bhn12rcd13ifvqgpg","pricing_plan_id":"cebpf4jnsgd1na2vs0mg"},{"bike_id":"47d4a37a-03f5-4a8f-b364-54787b5f5319","system_id":"levelo_inurba_marseille","lat":43.24686,"lon":5.38158,"is_reserved":false,"is_disabled":false,"rental_uris":{"android":"levelo://app?vid=47d4a37a-03f5-4a8f-b364-54787b5f5319","ios":"levelo://app?vid=47d4a37a-03f5-4a8f-b364-54787b5f5319"},"vehicle_type_id":"4","last_reported":1742105550,"current_range_meters":6000,"station_id":"ce4bhih2rcd13ifvqfr0","pricing_plan_id":"cebpf4jnsgd1na2vs0mg"},{"bike_id":"9df36ed3-dbc3-4622-8993-b6dab3cbeed9","system_id":"levelo_inurba_marseille","lat":43.28404,"lon":5.37538,"is_reserved":false,"is_disabled":false,"rental_uris":{"android":"levelo://app?vid=9df36ed3-dbc3-4622-8993-b6dab3cbeed9","ios":"levelo://app?vid=9df36ed3-dbc3-4622-8993-b6dab3cbeed9"},"vehicle_type_id":"4","last_reported":1742105550,"current_range_meters":6000,"station_id":"ce4bh412rcd13ifvqds0","pricing_plan_id":"cebpf4jnsgd1na2vs0mg"},{"bike_id":"4248c3f3-69b4-4a67-a409-b80cc4b66177","system_id":"levelo_inurba_marseille","lat":43.28851,"lon":5.35854,"is_reserved":false,"is_disabled":false,"rental_uris":{"android":"levelo://app?vid=4248c3f3-69b4-4a67-a409-b80cc4b66177","ios":"levelo://app?vid=4248c3f3-69b4-4a67-a409-b80cc4b66177"},"vehicle_type_id":"4","last_reported":1742105550,"current_range_meters":6000,"station_id":"ce4bhb12rcd13ifvqem0","pricing_plan_id":"cebpf4jnsgd1na2vs0mg"},{"bike_id":"0effbbb8-a931-404a-a47c-69bda0c677cc","system_id":"levelo_inurba_marseille","lat":43.2293,"lon":5.35369,"is_reserved":false,"is_disabled":false,"rental_uris":{"android":"levelo://app?vid=0effbbb8-a931-404a-a47c-69bda0c677cc","ios":"levelo://app?vid=0effbbb8-a931-404a-a47c-69bda0c677cc"},"vehicle_type_id":"4","last_reported":1742105550,"current_range_meters":6000,"station_id":"cpo3532slgdg3j2ikp40","pricing_plan_id":"cebpf4jnsgd1na2vs0mg"},{"bike_id":"ef0420cd-62d9-46e6-bc23-a8b7c01978bb","system_id":"levelo_inurba_marseille","lat":43.297935,"lon":5.381136,"is_reserved":false,"is_disabled":true,"rental_uris":{"android":"levelo://app?vid=ef0420cd-62d9-46e6-bc23-a8b7c01978bb","ios":"levelo://app?vid=ef0420cd-62d9-46e6-bc23-a8b7c01978bb"},"vehicle_type_id":"4","last_reported":1742105550,"current_range_meters":6000,"station_id":"ce4bgip2rcd13ifvqbb0","pricing_plan_id":"cebpf4jnsgd1na2vs0mg"},{"bike_id":"b04a8ebb-2ab0-40ac-8899-7bbe2c5835d2","system_id":"levelo_inurba_marseille","lat":43.28431,"lon":5.39199,"is_reserved":false,"is_disabled":false,"rental_uris":{"android":"levelo://app?vid=b04a8ebb-2ab0-40ac-8899-7bbe2c5835d2","ios":"levelo://app?vid=b04a8ebb-2ab0-40ac-8899-7bbe2c5835d2"},"vehicle_type_id":"4","last_reported":1742105550,"current_range_meters":6000,"station_id":"ce4bhoh2rcd13ifvqh5g","pricing_plan_id":"cebpf4jnsgd1na2vs0mg"},{"bike_id":"f6beb3a8-428e-4163-af6c-c204d4119a2c","system_id":"levelo_inurba_marseille","lat":43.30257,"lon":5.40057,"is_reserved":false,"is_disabled":false,"rental_uris":{"android":"levelo://app?vid=f6beb3a8-428e-4163-af6c-c204d4119a2c","ios":"levelo://app?vid=f6beb3a8-428e-4163-af6c-c204d4119a2c"},"vehicle_type_id":"4","last_reported":1742105550,"current_range_meters":6400,"station_id":"ce4bgvh2rcd13ifvqcs0","pricing_plan_id":"cebpf4jnsgd1na2vs0mg"},{"bike_id":"38997e69-8de0-4cb4-afa5-15356cdcbafe","system_id":"levelo_inurba_marseille","lat":43.28475,"lon":5.35882,"is_reserved":false,"is_disabled":true,"rental_uris":{"android":"levelo://app?vid=38997e69-8de0-4cb4-afa5-15356cdcbafe","ios":"levelo://app?vid=38997e69-8de0-4cb4-afa5-15356cdcbafe"},"vehicle_type_id":"4","last_reported":1742105550,"current_range_meters":6400,"station_id":"ce4bhah2rcd13ifvqei0","pricing_plan_id":"cebpf4jnsgd1na2vs0mg"},{"bike_id":"edcbf825-8b5a-41fb-b229-f3abf8f1b0de","system_id":"levelo_inurba_marseille","lat":43.30229,"lon":5.40057,"is_reserved":false,"is_disabled":false,"rental_uris":{"android":"levelo://app?vid=edcbf825-8b5a-41fb-b229-f3abf8f1b0de","ios":"levelo://app?vid=edcbf825-8b5a-41fb-b229-f3abf8f1b0de"},"vehicle_type_id":"4","last_reported":1742105550,"current_range_meters":6400,"station_id":"","pricing_plan_id":"cebpf4jnsgd1na2vs0mg"},{"bike_id":"11594366-c0d8-4602-a7db-d580fccc45e1","system_id":"levelo_inurba_marseille","lat":43.2556,"lon":5.38246,"is_reserved":false,"is_disabled":false,"rental_uris":{"android":"levelo://app?vid=11594366-c0d8-4602-a7db-d580fccc45e1","ios":"levelo://app?vid=11594366-c0d8-4602-a7db-d580fccc45e1"},"vehicle_type_id":"4","last_reported":1742105550,"current_range_meters":6400,"station_id":"ce4bhih2rcd13ifvqfs0","pricing_plan_id":"cebpf4jnsgd1na2vs0mg"},{"bike_id":"81e08eee-9562-4095-94b3-d6c4aba4e0b9","system_id":"levelo_inurba_marseille","lat":43.2586,"lon":5.399,"is_reserved":false,"is_disabled":false,"rental_uris":{"android":"levelo://app?vid=81e08eee-9562-4095-94b3-d6c4aba4e0b9","ios":"levelo://app?vid=81e08eee-9562-4095-94b3-d6c4aba4e0b9"},"vehicle_type_id":"4","last_reported":1742105550,"current_range_meters":6400,"station_id":"ce4bhl92rcd13ifvqghg","pricing_plan_id":"cebpf4jnsgd1na2vs0mg"},{"bike_id":"f55d05b4-2c69-4253-a263-97b9a50e00d3","system_id":"levelo_inurba_marseille","lat":43.290218,"lon":5.386443,"is_reserved":false,"is_disabled":false,"rental_uris":{"android":"levelo://app?vid=f55d05b4-2c69-4253-a263-97b9a50e00d3","ios":"levelo://app?vid=f55d05b4-2c69-4253-a263-97b9a50e00d3"},"vehicle_type_id":"4","last_reported":1742105550,"current_range_meters":6400,"station_id":"ce4bh4p2rcd13ifvqe0g","pricing_plan_id":"cebpf4jnsgd1na2vs0mg"},{"bike_id":"9130c1e0-b61f-4347-bc58-fc495208eff8","system_id":"levelo_inurba_marseille","lat":43.27054,"lon":5.40278,"is_reserved":false,"is_disabled":false,"rental_uris":{"android":"levelo://app?vid=9130c1e0-b61f-4347-bc58-fc495208eff8","ios":"levelo://app?vid=9130c1e0-b61f-4347-bc58-fc495208eff8"},"vehicle_type_id":"4","last_reported":1742105550,"current_range_meters":6400,"station_id":"ce4bhk92rcd13ifvqgc0","pricing_plan_id":"cebpf4jnsgd1na2vs0mg"},{"bike_id":"44b961f5-0abd-42a2-8a84-c383b60b2449","system_id":"levelo_inurba_marseille","lat":43.25102,"lon":5.4032,"is_reserved":false,"is_disabled":false,"rental_uris":{"android":"levelo://app?vid=44b961f5-0abd-42a2-8a84-c383b60b2449","ios":"levelo://app?vid=44b961f5-0abd-42a2-8a84-c383b60b2449"},"vehicle_type_id":"4","last_reported":1742105550,"current_range_meters":6400,"station_id":"ce4bhlh2rcd13ifvqgig","pricing_plan_id":"cebpf4jnsgd1na2vs0mg"},{"bike_id":"ae101444-9461-4e76-a90e-2e5eacdcafbc","system_id":"levelo_inurba_marseille","lat":43.27955,"lon":5.38696,"is_reserved":false,"is_disabled":true,"rental_uris":{"android":"levelo://app?vid=ae101444-9461-4e76-a90e-2e5eacdcafbc","ios":"levelo://app?vid=ae101444-9461-4e76-a90e-2e5eacdcafbc"},"vehicle_type_id":"4","last_reported":1742105550,"current_range_meters":6800,"station_id":"ce4bhg12rcd13ifvqf80","pricing_plan_id":"cebpf4jnsgd1na2vs0mg"},{"bike_id":"fce291b7-ea10-4d8e-ada9-0a02184bf6fd","system_id":"levelo_inurba_marseille","lat":43.25068,"lon":5.39523,"is_reserved":false,"is_disabled":false,"rental_uris":{"android":"levelo://app?vid=fce291b7-ea10-4d8e-ada9-0a02184bf6fd","ios":"levelo://app?vid=fce291b7-ea10-4d8e-ada9-0a02184bf6fd"},"vehicle_type_id":"4","last_reported":1742105550,"current_range_meters":6800,"station_id":"ce4bhm12rcd13ifvqgkg","pricing_plan_id":"cebpf4jnsgd1na2vs0mg"},{"bike_id":"11877a08-1209-410f-8a57-ef814c57a390","system_id":"levelo_inurba_marseille","lat":43.24167,"lon":5.363986,"is_reserved":false,"is_disabled":false,"rental_uris":{"android":"levelo://app?vid=11877a08-1209-410f-8a57-ef814c57a390","ios":"levelo://app?vid=11877a08-1209-410f-8a57-ef814c57a390"},"vehicle_type_id":"4","last_reported":1742105550,"current_range_meters":6800,"station_id":"cpo36qri1sfpv3e86is0","pricing_plan_id":"cebpf4jnsgd1na2vs0mg"},{"bike_id":"0d6a21d1-0e77-4e06-8586-cba50478cc81","system_id":"levelo_inurba_marseille","lat":43.28338,"lon":5.38105,"is_reserved":false,"is_disabled":false,"rental_uris":{"android":"levelo://app?vid=0d6a21d1-0e77-4e06-8586-cba50478cc81","ios":"levelo://app?vid=0d6a21d1-0e77-4e06-8586-cba50478cc81"},"vehicle_type_id":"4","last_reported":1742105550,"current_range_meters":6800,"station_id":"ce4bh412rcd13ifvqdr0","pricing_plan_id":"cebpf4jnsgd1na2vs0mg"},{"bike_id":"385ae15c-2c3c-4490-a507-5eb20fb883a5","system_id":"levelo_inurba_marseille","lat":43.25936,"lon":5.4089,"is_reserved":false,"is_disabled":false,"rental_uris":{"android":"levelo://app?vid=385ae15c-2c3c-4490-a507-5eb20fb883a5","ios":"levelo://app?vid=385ae15c-2c3c-4490-a507-5eb20fb883a5"},"vehicle_type_id":"4","last_reported":1742105550,"current_range_meters":6800,"station_id":"ce4bhm92rcd13ifvqglg","pricing_plan_id":"cebpf4jnsgd1na2vs0mg"},{"bike_id":"2d620b5c-b595-4c06-8170-0b3ad251fbe9","system_id":"levelo_inurba_marseille","lat":43.27654,"lon":5.38904,"is_reserved":false,"is_disabled":false,"rental_uris":{"android":"levelo://app?vid=2d620b5c-b595-4c06-8170-0b3ad251fbe9","ios":"levelo://app?vid=2d620b5c-b595-4c06-8170-0b3ad251fbe9"},"vehicle_type_id":"4","last_reported":1742105550,"current_range_meters":6800,"station_id":"ce4bhi12rcd13ifvqfo0","pricing_plan_id":"cebpf4jnsgd1na2vs0mg"},{"bike_id":"9fdfc49a-56cd-4c13-bd0e-fa5e770f32e4","system_id":"levelo_inurba_marseille","lat":43.284167,"lon":5.34994,"is_reserved":false,"is_disabled":false,"rental_uris":{"android":"levelo://app?vid=9fdfc49a-56cd-4c13-bd0e-fa5e770f32e4","ios":"levelo://app?vid=9fdfc49a-56cd-4c13-bd0e-fa5e770f32e4"},"vehicle_type_id":"4","last_reported":1742105550,"current_range_meters":6800,"station_id":"ce4bhbh2rcd13ifvqepg","pricing_plan_id":"cebpf4jnsgd1na2vs0mg"},{"bike_id":"832d4ee6-23fb-4c75-9bc5-6a2d919c8c55","system_id":"levelo_inurba_marseille","lat":43.259499,"lon":5.408901,"is_reserved":false,"is_disabled":false,"rental_uris":{"android":"levelo://app?vid=832d4ee6-23fb-4c75-9bc5-6a2d919c8c55","ios":"levelo://app?vid=832d4ee6-23fb-4c75-9bc5-6a2d919c8c55"},"vehicle_type_id":"4","last_reported":1742105550,"current_range_meters":6800,"station_id":"ce4bhm92rcd13ifvqglg","pricing_plan_id":"cebpf4jnsgd1na2vs0mg"},{"bike_id":"6f143c5b-933e-4a51-97d8-72a3705988b8","system_id":"levelo_inurba_marseille","lat":43.32234,"lon":5.37956,"is_reserved":false,"is_disabled":false,"rental_uris":{"android":"levelo://app?vid=6f143c5b-933e-4a51-97d8-72a3705988b8","ios":"levelo://app?vid=6f143c5b-933e-4a51-97d8-72a3705988b8"},"vehicle_type_id":"4","last_reported":1742105550,"current_range_meters":6800,"station_id":"","pricing_plan_id":"cebpf4jnsgd1na2vs0mg"},{"bike_id":"0ab69b64-2bc6-40ff-a351-b107bc084411","system_id":"levelo_inurba_marseille","lat":43.32467,"lon":5.36548,"is_reserved":false,"is_disabled":false,"rental_uris":{"android":"levelo://app?vid=0ab69b64-2bc6-40ff-a351-b107bc084411","ios":"levelo://app?vid=0ab69b64-2bc6-40ff-a351-b107bc084411"},"vehicle_type_id":"4","last_reported":1742105550,"current_range_meters":7200,"station_id":"ce4bhs12rcd13ifvqhvg","pricing_plan_id":"cebpf4jnsgd1na2vs0mg"},{"bike_id":"a51e83ee-53b4-4965-b5bb-694ae883e860","system_id":"levelo_inurba_marseille","lat":43.262132,"lon":5.374466,"is_reserved":false,"is_disabled":true,"rental_uris":{"android":"levelo://app?vid=a51e83ee-53b4-4965-b5bb-694ae883e860","ios":"levelo://app?vid=a51e83ee-53b4-4965-b5bb-694ae883e860"},"vehicle_type_id":"4","last_reported":1742105550,"current_range_meters":7200,"station_id":"ce4bhgp2rcd13ifvqfc0","pricing_plan_id":"cebpf4jnsgd1na2vs0mg"},{"bike_id":"fbf567e3-5f70-4225-b8aa-78c40d84b621","system_id":"levelo_inurba_marseille","lat":43.30934,"lon":5.40158,"is_reserved":false,"is_disabled":false,"rental_uris":{"android":"levelo://app?vid=fbf567e3-5f70-4225-b8aa-78c40d84b621","ios":"levelo://app?vid=fbf567e3-5f70-4225-b8aa-78c40d84b621"},"vehicle_type_id":"4","last_reported":1742105550,"current_range_meters":7200,"station_id":"ce4bgvp2rcd13ifvqct0","pricing_plan_id":"cebpf4jnsgd1na2vs0mg"},{"bike_id":"aa795381-5174-4265-abe3-ddbff84516c8","system_id":"levelo_inurba_marseille","lat":43.301384,"lon":5.374104,"is_reserved":false,"is_disabled":true,"rental_uris":{"android":"levelo://app?vid=aa795381-5174-4265-abe3-ddbff84516c8","ios":"levelo://app?vid=aa795381-5174-4265-abe3-ddbff84516c8"},"vehicle_type_id":"4","last_reported":1742105550,"current_range_meters":7200,"station_id":"ce4bgs92rcd13ifvqcc0","pricing_plan_id":"cebpf4jnsgd1na2vs0mg"},{"bike_id":"4de18644-c864-45d6-854f-3446d52b46e5","system_id":"levelo_inurba_marseille","lat":43.27446,"lon":5.39404,"is_reserved":false,"is_disabled":false,"rental_uris":{"android":"levelo://app?vid=4de18644-c864-45d6-854f-3446d52b46e5","ios":"levelo://app?vid=4de18644-c864-45d6-854f-3446d52b46e5"},"vehicle_type_id":"4","last_reported":1742105550,"current_range_meters":7200,"station_id":"ce4bhdp2rcd13ifvqf20","pricing_plan_id":"cebpf4jnsgd1na2vs0mg"},{"bike_id":"2ada218c-4e3e-433b-a33e-91e0fed6090b","system_id":"levelo_inurba_marseille","lat":43.29443,"lon":5.39787,"is_reserved":false,"is_disabled":true,"rental_uris":{"android":"levelo://app?vid=2ada218c-4e3e-433b-a33e-91e0fed6090b","ios":"levelo://app?vid=2ada218c-4e3e-433b-a33e-91e0fed6090b"},"vehicle_type_id":"4","last_reported":1742105550,"current_range_meters":7200,"station_id":"ce4bh3h2rcd13ifvqdo0","pricing_plan_id":"cebpf4jnsgd1na2vs0mg"},{"bike_id":"1999cecf-f38c-4961-9580-ef6a50d3e0be","system_id":"levelo_inurba_marseille","lat":43.24169,"lon":5.36404,"is_reserved":false,"is_disabled":false,"rental_uris":{"android":"levelo://app?vid=1999cecf-f38c-4961-9580-ef6a50d3e0be","ios":"levelo://app?vid=1999cecf-f38c-4961-9580-ef6a50d3e0be"},"vehicle_type_id":"4","last_reported":1742105550,"current_range_meters":7200,"station_id":"cpo36qri1sfpv3e86is0","pricing_plan_id":"cebpf4jnsgd1na2vs0mg"},{"bike_id":"aba9da38-9143-4174-8a8b-6a4119e46777","system_id":"levelo_inurba_marseille","lat":43.2656,"lon":5.39041,"is_reserved":false,"is_disabled":false,"rental_uris":{"android":"levelo://app?vid=aba9da38-9143-4174-8a8b-6a4119e46777","ios":"levelo://app?vid=aba9da38-9143-4174-8a8b-6a4119e46777"},"vehicle_type_id":"4","last_reported":1742105550,"current_range_meters":7200,"station_id":"ce4bhe12rcd13ifvqf30","pricing_plan_id":"cebpf4jnsgd1na2vs0mg"},{"bike_id":"d7dfc6a7-2f34-445e-b0ad-54029530dc1c","system_id":"levelo_inurba_marseille","lat":43.23127,"lon":5.43719,"is_reserved":false,"is_disabled":false,"rental_uris":{"android":"levelo://app?vid=d7dfc6a7-2f34-445e-b0ad-54029530dc1c","ios":"levelo://app?vid=d7dfc6a7-2f34-445e-b0ad-54029530dc1c"},"vehicle_type_id":"4","last_reported":1742105550,"current_range_meters":7200,"station_id":"ce4bhmp2rcd13ifvqgog","pricing_plan_id":"cebpf4jnsgd1na2vs0mg"},{"bike_id":"57fac6ac-4b34-4928-aed7-5535a0028327","system_id":"levelo_inurba_marseille","lat":43.303236,"lon":5.40436,"is_reserved":false,"is_disabled":false,"rental_uris":{"android":"levelo://app?vid=57fac6ac-4b34-4928-aed7-5535a0028327","ios":"levelo://app?vid=57fac6ac-4b34-4928-aed7-5535a0028327"},"vehicle_type_id":"4","last_reported":1742105550,"current_range_meters":7200,"station_id":"ce4bh012rcd13ifvqd10","pricing_plan_id":"cebpf4jnsgd1na2vs0mg"},{"bike_id":"2d7448ad-d15a-4c5e-8dbc-5383e88d7973","system_id":"levelo_inurba_marseille","lat":43.2871,"lon":5.399918,"is_reserved":false,"is_disabled":false,"rental_uris":{"android":"levelo://app?vid=2d7448ad-d15a-4c5e-8dbc-5383e88d7973","ios":"levelo://app?vid=2d7448ad-d15a-4c5e-8dbc-5383e88d7973"},"vehicle_type_id":"4","last_reported":1742105550,"current_range_meters":8000,"station_id":"ce4bho92rcd13ifvqh3g","pricing_plan_id":"cebpf4jnsgd1na2vs0mg"},{"bike_id":"1ac0ebad-6828-4242-99b2-14a9f8209f79","system_id":"levelo_inurba_marseille","lat":43.23184,"lon":5.35569,"is_reserved":false,"is_disabled":false,"rental_uris":{"android":"levelo://app?vid=1ac0ebad-6828-4242-99b2-14a9f8209f79","ios":"levelo://app?vid=1ac0ebad-6828-4242-99b2-14a9f8209f79"},"vehicle_type_id":"4","last_reported":1742105550,"current_range_meters":8000,"station_id":"ce4bhu92rcd13ifvqi70","pricing_plan_id":"cebpf4jnsgd1na2vs0mg"},{"bike_id":"676e66c6-8e50-404c-b512-5f94c7d6a8fc","system_id":"levelo_inurba_marseille","lat":43.241696,"lon":5.36402,"is_reserved":false,"is_disabled":false,"rental_uris":{"android":"levelo://app?vid=676e66c6-8e50-404c-b512-5f94c7d6a8fc","ios":"levelo://app?vid=676e66c6-8e50-404c-b512-5f94c7d6a8fc"},"vehicle_type_id":"4","last_reported":1742105550,"current_range_meters":8000,"station_id":"cpo36qri1sfpv3e86is0","pricing_plan_id":"cebpf4jnsgd1na2vs0mg"},{"bike_id":"a368ec29-4619-427b-b3cd-dd9e3edf5231","system_id":"levelo_inurba_marseille","lat":43.341454,"lon":5.409149,"is_reserved":false,"is_disabled":false,"rental_uris":{"android":"levelo://app?vid=a368ec29-4619-427b-b3cd-dd9e3edf5231","ios":"levelo://app?vid=a368ec29-4619-427b-b3cd-dd9e3edf5231"},"vehicle_type_id":"4","last_reported":1742105550,"current_range_meters":8000,"station_id":"ce4bhqh2rcd13ifvqhlg","pricing_plan_id":"cebpf4jnsgd1na2vs0mg"},{"bike_id":"12d698f7-f420-413d-9f6a-b251fbe646b0","system_id":"levelo_inurba_marseille","lat":43.313291,"lon":5.39695,"is_reserved":false,"is_disabled":false,"rental_uris":{"android":"levelo://app?vid=12d698f7-f420-413d-9f6a-b251fbe646b0","ios":"levelo://app?vid=12d698f7-f420-413d-9f6a-b251fbe646b0"},"vehicle_type_id":"4","last_reported":1742105550,"current_range_meters":8000,"station_id":"ce4bgvp2rcd13ifvqcu0","pricing_plan_id":"cebpf4jnsgd1na2vs0mg"},{"bike_id":"b614f100-11d7-4ef9-8f84-7c5dea0b786b","system_id":"levelo_inurba_marseille","lat":43.26947,"lon":5.4031,"is_reserved":false,"is_disabled":false,"rental_uris":{"android":"levelo://app?vid=b614f100-11d7-4ef9-8f84-7c5dea0b786b","ios":"levelo://app?vid=b614f100-11d7-4ef9-8f84-7c5dea0b786b"},"vehicle_type_id":"4","last_reported":1742105550,"current_range_meters":8000,"station_id":"cjm6bp8fraef2m0cb0m0","pricing_plan_id":"cebpf4jnsgd1na2vs0mg"},{"bike_id":"5738ac90-9a58-41cf-9eef-d814f659b9ea","system_id":"levelo_inurba_marseille","lat":43.29251,"lon":5.40913,"is_reserved":false,"is_disabled":false,"rental_uris":{"android":"levelo://app?vid=5738ac90-9a58-41cf-9eef-d814f659b9ea","ios":"levelo://app?vid=5738ac90-9a58-41cf-9eef-d814f659b9ea"},"vehicle_type_id":"4","last_reported":1742105550,"current_range_meters":8000,"station_id":"ce4bh192rcd13ifvqdc0","pricing_plan_id":"cebpf4jnsgd1na2vs0mg"},{"bike_id":"3034db0c-7cfa-4361-a8e5-85d8b0635402","system_id":"levelo_inurba_marseille","lat":43.23955,"lon":5.3665,"is_reserved":false,"is_disabled":false,"rental_uris":{"android":"levelo://app?vid=3034db0c-7cfa-4361-a8e5-85d8b0635402","ios":"levelo://app?vid=3034db0c-7cfa-4361-a8e5-85d8b0635402"},"vehicle_type_id":"4","last_reported":1742105550,"current_range_meters":8000,"station_id":"ce4bhi12rcd13ifvqfp0","pricing_plan_id":"cebpf4jnsgd1na2vs0mg"},{"bike_id":"efb53dda-871b-483c-8dec-e716116f9234","system_id":"levelo_inurba_marseille","lat":43.31067,"lon":5.36803,"is_reserved":false,"is_disabled":false,"rental_uris":{"android":"levelo://app?vid=efb53dda-871b-483c-8dec-e716116f9234","ios":"levelo://app?vid=efb53dda-871b-483c-8dec-e716116f9234"},"vehicle_type_id":"4","last_reported":1742105550,"current_range_meters":8000,"station_id":"","pricing_plan_id":"cebpf4jnsgd1na2vs0mg"},{"bike_id":"e0834956-e6d7-4bc3-862d-e76e3f887cbb","system_id":"levelo_inurba_marseille","lat":43.23054,"lon":5.355,"is_reserved":false,"is_disabled":false,"rental_uris":{"android":"levelo://app?vid=e0834956-e6d7-4bc3-862d-e76e3f887cbb","ios":"levelo://app?vid=e0834956-e6d7-4bc3-862d-e76e3f887cbb"},"vehicle_type_id":"4","last_reported":1742105550,"current_range_meters":8000,"station_id":"cpo3342slgdg3j2ifvpg","pricing_plan_id":"cebpf4jnsgd1na2vs0mg"},{"bike_id":"92bd2e8f-197b-47ad-8530-ee4394b2ecce","system_id":"levelo_inurba_marseille","lat":43.24166,"lon":5.36391,"is_reserved":false,"is_disabled":false,"rental_uris":{"android":"levelo://app?vid=92bd2e8f-197b-47ad-8530-ee4394b2ecce","ios":"levelo://app?vid=92bd2e8f-197b-47ad-8530-ee4394b2ecce"},"vehicle_type_id":"4","last_reported":1742105550,"current_range_meters":8000,"station_id":"cpo36qri1sfpv3e86is0","pricing_plan_id":"cebpf4jnsgd1na2vs0mg"},{"bike_id":"6a8b053a-dae5-4a64-969e-0511d2f85636","system_id":"levelo_inurba_marseille","lat":43.27915,"lon":5.39582,"is_reserved":false,"is_disabled":false,"rental_uris":{"android":"levelo://app?vid=6a8b053a-dae5-4a64-969e-0511d2f85636","ios":"levelo://app?vid=6a8b053a-dae5-4a64-969e-0511d2f85636"},"vehicle_type_id":"4","last_reported":1742105550,"current_range_meters":8000,"station_id":"ce4bhf92rcd13ifvqf40","pricing_plan_id":"cebpf4jnsgd1na2vs0mg"},{"bike_id":"eefe4114-201f-4897-b136-02e7b1e76e54","system_id":"levelo_inurba_marseille","lat":43.27822,"lon":5.39203,"is_reserved":false,"is_disabled":false,"rental_uris":{"android":"levelo://app?vid=eefe4114-201f-4897-b136-02e7b1e76e54","ios":"levelo://app?vid=eefe4114-201f-4897-b136-02e7b1e76e54"},"vehicle_type_id":"4","last_reported":1742105550,"current_range_meters":8400,"station_id":"ce4bhjp2rcd13ifvqga0","pricing_plan_id":"cebpf4jnsgd1na2vs0mg"},{"bike_id":"0b7bfdb8-fd03-4687-9225-8085184f929c","system_id":"levelo_inurba_marseille","lat":43.323584,"lon":5.367631,"is_reserved":false,"is_disabled":false,"rental_uris":{"android":"levelo://app?vid=0b7bfdb8-fd03-4687-9225-8085184f929c","ios":"levelo://app?vid=0b7bfdb8-fd03-4687-9225-8085184f929c"},"vehicle_type_id":"4","last_reported":1742105550,"current_range_meters":8400,"station_id":"ce4bhsh2rcd13ifvqi2g","pricing_plan_id":"cebpf4jnsgd1na2vs0mg"},{"bike_id":"63cfaea5-f172-409c-93d3-875ff9136d61","system_id":"levelo_inurba_marseille","lat":43.24659,"lon":5.38174,"is_reserved":false,"is_disabled":false,"rental_uris":{"android":"levelo://app?vid=63cfaea5-f172-409c-93d3-875ff9136d61","ios":"levelo://app?vid=63cfaea5-f172-409c-93d3-875ff9136d61"},"vehicle_type_id":"4","last_reported":1742105550,"current_range_meters":8400,"station_id":"ce4bhih2rcd13ifvqfr0","pricing_plan_id":"cebpf4jnsgd1na2vs0mg"},{"bike_id":"f086f384-feec-4968-a0b6-7828464e346f","system_id":"levelo_inurba_marseille","lat":43.28404,"lon":5.37527,"is_reserved":false,"is_disabled":false,"rental_uris":{"android":"levelo://app?vid=f086f384-feec-4968-a0b6-7828464e346f","ios":"levelo://app?vid=f086f384-feec-4968-a0b6-7828464e346f"},"vehicle_type_id":"4","last_reported":1742105550,"current_range_meters":8400,"station_id":"ce4bh412rcd13ifvqds0","pricing_plan_id":"cebpf4jnsgd1na2vs0mg"},{"bike_id":"29418239-f2c3-4f1d-917b-29d450f41bd5","system_id":"levelo_inurba_marseille","lat":43.27142,"lon":5.4101,"is_reserved":false,"is_disabled":false,"rental_uris":{"android":"levelo://app?vid=29418239-f2c3-4f1d-917b-29d450f41bd5","ios":"levelo://app?vid=29418239-f2c3-4f1d-917b-29d450f41bd5"},"vehicle_type_id":"4","last_reported":1742105550,"current_range_meters":8400,"station_id":"ce4bhl12rcd13ifvqgf0","pricing_plan_id":"cebpf4jnsgd1na2vs0mg"},{"bike_id":"290fed96-c961-40dd-8907-eaa6ef861c1c","system_id":"levelo_inurba_marseille","lat":43.250853,"lon":5.395257,"is_reserved":false,"is_disabled":false,"rental_uris":{"android":"levelo://app?vid=290fed96-c961-40dd-8907-eaa6ef861c1c","ios":"levelo://app?vid=290fed96-c961-40dd-8907-eaa6ef861c1c"},"vehicle_type_id":"4","last_reported":1742105550,"current_range_meters":8400,"station_id":"ce4bhm12rcd13ifvqgkg","pricing_plan_id":"cebpf4jnsgd1na2vs0mg"},{"bike_id":"aeb33a8c-3eb5-49ca-a679-9b37e4bd34e9","system_id":"levelo_inurba_marseille","lat":43.28615,"lon":5.35116,"is_reserved":false,"is_disabled":false,"rental_uris":{"android":"levelo://app?vid=aeb33a8c-3eb5-49ca-a679-9b37e4bd34e9","ios":"levelo://app?vid=aeb33a8c-3eb5-49ca-a679-9b37e4bd34e9"},"vehicle_type_id":"4","last_reported":1742105550,"current_range_meters":8400,"station_id":"ce4bhch2rcd13ifvqeug","pricing_plan_id":"cebpf4jnsgd1na2vs0mg"},{"bike_id":"3f432b0d-0f32-42df-8569-f0ac2b001f29","system_id":"levelo_inurba_marseille","lat":43.27554,"lon":5.38452,"is_reserved":false,"is_disabled":false,"rental_uris":{"android":"levelo://app?vid=3f432b0d-0f32-42df-8569-f0ac2b001f29","ios":"levelo://app?vid=3f432b0d-0f32-42df-8569-f0ac2b001f29"},"vehicle_type_id":"4","last_reported":1742105550,"current_range_meters":8400,"station_id":"ce4bhh92rcd13ifvqfi0","pricing_plan_id":"cebpf4jnsgd1na2vs0mg"},{"bike_id":"e52b41b5-52df-4c67-a85c-3cebb3bf7504","system_id":"levelo_inurba_marseille","lat":43.32359,"lon":5.36767,"is_reserved":false,"is_disabled":false,"rental_uris":{"android":"levelo://app?vid=e52b41b5-52df-4c67-a85c-3cebb3bf7504","ios":"levelo://app?vid=e52b41b5-52df-4c67-a85c-3cebb3bf7504"},"vehicle_type_id":"4","last_reported":1742105550,"current_range_meters":8400,"station_id":"ce4bhsh2rcd13ifvqi2g","pricing_plan_id":"cebpf4jnsgd1na2vs0mg"},{"bike_id":"09b66478-04cf-48d8-b314-6c9366086808","system_id":"levelo_inurba_marseille","lat":43.27991,"lon":5.4002,"is_reserved":false,"is_disabled":false,"rental_uris":{"android":"levelo://app?vid=09b66478-04cf-48d8-b314-6c9366086808","ios":"levelo://app?vid=09b66478-04cf-48d8-b314-6c9366086808"},"vehicle_type_id":"4","last_reported":1742105550,"current_range_meters":8400,"station_id":"ce4bho92rcd13ifvqh4g","pricing_plan_id":"cebpf4jnsgd1na2vs0mg"},{"bike_id":"2a4bde41-3836-4902-847c-4480240ed828","system_id":"levelo_inurba_marseille","lat":43.29262,"lon":5.4089,"is_reserved":false,"is_disabled":false,"rental_uris":{"android":"levelo://app?vid=2a4bde41-3836-4902-847c-4480240ed828","ios":"levelo://app?vid=2a4bde41-3836-4902-847c-4480240ed828"},"vehicle_type_id":"4","last_reported":1742105550,"current_range_meters":8400,"station_id":"ce4bh192rcd13ifvqdc0","pricing_plan_id":"cebpf4jnsgd1na2vs0mg"},{"bike_id":"cd599479-cb87-429c-83a1-742e20b1c9d7","system_id":"levelo_inurba_marseille","lat":43.23186,"lon":5.39991,"is_reserved":false,"is_disabled":false,"rental_uris":{"android":"levelo://app?vid=cd599479-cb87-429c-83a1-742e20b1c9d7","ios":"levelo://app?vid=cd599479-cb87-429c-83a1-742e20b1c9d7"},"vehicle_type_id":"4","last_reported":1742105550,"current_range_meters":8400,"station_id":"ce4bhn12rcd13ifvqgqg","pricing_plan_id":"cebpf4jnsgd1na2vs0mg"},{"bike_id":"9625f194-a853-4767-bda8-0eedb08b2cb3","system_id":"levelo_inurba_marseille","lat":43.28702,"lon":5.39998,"is_reserved":false,"is_disabled":true,"rental_uris":{"android":"levelo://app?vid=9625f194-a853-4767-bda8-0eedb08b2cb3","ios":"levelo://app?vid=9625f194-a853-4767-bda8-0eedb08b2cb3"},"vehicle_type_id":"4","last_reported":1742105550,"current_range_meters":8400,"station_id":"ce4bho92rcd13ifvqh3g","pricing_plan_id":"cebpf4jnsgd1na2vs0mg"},{"bike_id":"71d6b220-48b3-44b0-9feb-d7bbfca6b232","system_id":"levelo_inurba_marseille","lat":43.254926,"lon":5.376533,"is_reserved":false,"is_disabled":true,"rental_uris":{"android":"levelo://app?vid=71d6b220-48b3-44b0-9feb-d7bbfca6b232","ios":"levelo://app?vid=71d6b220-48b3-44b0-9feb-d7bbfca6b232"},"vehicle_type_id":"4","last_reported":1742105550,"current_range_meters":8400,"station_id":"ce4bhh12rcd13ifvqff0","pricing_plan_id":"cebpf4jnsgd1na2vs0mg"},{"bike_id":"f963442a-0589-4b19-b986-18c57487dbc8","system_id":"levelo_inurba_marseille","lat":43.30883,"lon":5.39618,"is_reserved":false,"is_disabled":false,"rental_uris":{"android":"levelo://app?vid=f963442a-0589-4b19-b986-18c57487dbc8","ios":"levelo://app?vid=f963442a-0589-4b19-b986-18c57487dbc8"},"vehicle_type_id":"4","last_reported":1742105550,"current_range_meters":8400,"station_id":"ce4bh012rcd13ifvqcv0","pricing_plan_id":"cebpf4jnsgd1na2vs0mg"},{"bike_id":"ba62375a-ac56-4ac5-a2c7-b9b588e36fd2","system_id":"levelo_inurba_marseille","lat":43.28694,"lon":5.38608,"is_reserved":false,"is_disabled":false,"rental_uris":{"android":"levelo://app?vid=ba62375a-ac56-4ac5-a2c7-b9b588e36fd2","ios":"levelo://app?vid=ba62375a-ac56-4ac5-a2c7-b9b588e36fd2"},"vehicle_type_id":"4","last_reported":1742105550,"current_range_meters":8400,"station_id":"","pricing_plan_id":"cebpf4jnsgd1na2vs0mg"},{"bike_id":"4a6cc52f-9e23-468b-bd66-2f0d340cc8d4","system_id":"levelo_inurba_marseille","lat":43.29533,"lon":5.42314,"is_reserved":false,"is_disabled":false,"rental_uris":{"android":"levelo://app?vid=4a6cc52f-9e23-468b-bd66-2f0d340cc8d4","ios":"levelo://app?vid=4a6cc52f-9e23-468b-bd66-2f0d340cc8d4"},"vehicle_type_id":"4","last_reported":1742105550,"current_range_meters":8400,"station_id":"ce4bhph2rcd13ifvqhdg","pricing_plan_id":"cebpf4jnsgd1na2vs0mg"},{"bike_id":"d75eeb82-70da-457d-92ab-0d1cfee5e5ea","system_id":"levelo_inurba_marseille","lat":43.28854,"lon":5.35848,"is_reserved":false,"is_disabled":false,"rental_uris":{"android":"levelo://app?vid=d75eeb82-70da-457d-92ab-0d1cfee5e5ea","ios":"levelo://app?vid=d75eeb82-70da-457d-92ab-0d1cfee5e5ea"},"vehicle_type_id":"4","last_reported":1742105550,"current_range_meters":8400,"station_id":"ce4bhb12rcd13ifvqem0","pricing_plan_id":"cebpf4jnsgd1na2vs0mg"},{"bike_id":"4a9b676b-9d2d-4ea0-9681-800479b958a2","system_id":"levelo_inurba_marseille","lat":43.28337,"lon":5.38107,"is_reserved":false,"is_disabled":false,"rental_uris":{"android":"levelo://app?vid=4a9b676b-9d2d-4ea0-9681-800479b958a2","ios":"levelo://app?vid=4a9b676b-9d2d-4ea0-9681-800479b958a2"},"vehicle_type_id":"4","last_reported":1742105550,"current_range_meters":8400,"station_id":"ce4bh412rcd13ifvqdr0","pricing_plan_id":"cebpf4jnsgd1na2vs0mg"},{"bike_id":"7ca575cc-8da4-4f79-994a-4ad8952a39a0","system_id":"levelo_inurba_marseille","lat":43.31332,"lon":5.39732,"is_reserved":false,"is_disabled":false,"rental_uris":{"android":"levelo://app?vid=7ca575cc-8da4-4f79-994a-4ad8952a39a0","ios":"levelo://app?vid=7ca575cc-8da4-4f79-994a-4ad8952a39a0"},"vehicle_type_id":"4","last_reported":1742105550,"current_range_meters":8400,"station_id":"ce4bgvp2rcd13ifvqcu0","pricing_plan_id":"cebpf4jnsgd1na2vs0mg"},{"bike_id":"c5f3baa5-071e-49c9-a279-6962d03083ac","system_id":"levelo_inurba_marseille","lat":43.30404,"lon":5.36774,"is_reserved":false,"is_disabled":false,"rental_uris":{"android":"levelo://app?vid=c5f3baa5-071e-49c9-a279-6962d03083ac","ios":"levelo://app?vid=c5f3baa5-071e-49c9-a279-6962d03083ac"},"vehicle_type_id":"4","last_reported":1742105550,"current_range_meters":8800,"station_id":"","pricing_plan_id":"cebpf4jnsgd1na2vs0mg"},{"bike_id":"5f7f03a2-add7-44f0-9ebb-8428c5f0e58a","system_id":"levelo_inurba_marseille","lat":43.259304,"lon":5.409138,"is_reserved":false,"is_disabled":false,"rental_uris":{"android":"levelo://app?vid=5f7f03a2-add7-44f0-9ebb-8428c5f0e58a","ios":"levelo://app?vid=5f7f03a2-add7-44f0-9ebb-8428c5f0e58a"},"vehicle_type_id":"4","last_reported":1742105550,"current_range_meters":8800,"station_id":"ce4bhm92rcd13ifvqglg","pricing_plan_id":"cebpf4jnsgd1na2vs0mg"},{"bike_id":"7e991d4b-08eb-4827-979c-0a7f37d72fcd","system_id":"levelo_inurba_marseille","lat":43.27967,"lon":5.38705,"is_reserved":false,"is_disabled":false,"rental_uris":{"android":"levelo://app?vid=7e991d4b-08eb-4827-979c-0a7f37d72fcd","ios":"levelo://app?vid=7e991d4b-08eb-4827-979c-0a7f37d72fcd"},"vehicle_type_id":"4","last_reported":1742105550,"current_range_meters":8800,"station_id":"ce4bhg12rcd13ifvqf80","pricing_plan_id":"cebpf4jnsgd1na2vs0mg"},{"bike_id":"a7fae52d-b2c9-4f8a-929c-bc0921d6683d","system_id":"levelo_inurba_marseille","lat":43.29228,"lon":5.36088,"is_reserved":false,"is_disabled":false,"rental_uris":{"android":"levelo://app?vid=a7fae52d-b2c9-4f8a-929c-bc0921d6683d","ios":"levelo://app?vid=a7fae52d-b2c9-4f8a-929c-bc0921d6683d"},"vehicle_type_id":"4","last_reported":1742105550,"current_range_meters":8800,"station_id":"ce4bhbh2rcd13ifvqeqg","pricing_plan_id":"cebpf4jnsgd1na2vs0mg"},{"bike_id":"3f51f1f5-7a39-4364-adc9-c4c0ef6e90b0","system_id":"levelo_inurba_marseille","lat":43.28605,"lon":5.35104,"is_reserved":false,"is_disabled":false,"rental_uris":{"android":"levelo://app?vid=3f51f1f5-7a39-4364-adc9-c4c0ef6e90b0","ios":"levelo://app?vid=3f51f1f5-7a39-4364-adc9-c4c0ef6e90b0"},"vehicle_type_id":"4","last_reported":1742105550,"current_range_meters":8800,"station_id":"ce4bhch2rcd13ifvqeug","pricing_plan_id":"cebpf4jnsgd1na2vs0mg"},{"bike_id":"18c8db15-8d7e-4e3c-9e7e-4d3e5d1543de","system_id":"levelo_inurba_marseille","lat":43.31489,"lon":5.37301,"is_reserved":false,"is_disabled":false,"rental_uris":{"android":"levelo://app?vid=18c8db15-8d7e-4e3c-9e7e-4d3e5d1543de","ios":"levelo://app?vid=18c8db15-8d7e-4e3c-9e7e-4d3e5d1543de"},"vehicle_type_id":"4","last_reported":1742105550,"current_range_meters":8800,"station_id":"ce4bgt12rcd13ifvqcd0","pricing_plan_id":"cebpf4jnsgd1na2vs0mg"},{"bike_id":"f2b7b04e-8089-4d6c-9db8-5e21bca75c26","system_id":"levelo_inurba_marseille","lat":43.278348,"lon":5.391953,"is_reserved":false,"is_disabled":true,"rental_uris":{"android":"levelo://app?vid=f2b7b04e-8089-4d6c-9db8-5e21bca75c26","ios":"levelo://app?vid=f2b7b04e-8089-4d6c-9db8-5e21bca75c26"},"vehicle_type_id":"4","last_reported":1742105550,"current_range_meters":8800,"station_id":"ce4bhjp2rcd13ifvqga0","pricing_plan_id":"cebpf4jnsgd1na2vs0mg"},{"bike_id":"93a51a03-a5f8-4519-8b9f-c700371cf425","system_id":"levelo_inurba_marseille","lat":43.309387,"lon":5.401361,"is_reserved":false,"is_disabled":false,"rental_uris":{"android":"levelo://app?vid=93a51a03-a5f8-4519-8b9f-c700371cf425","ios":"levelo://app?vid=93a51a03-a5f8-4519-8b9f-c700371cf425"},"vehicle_type_id":"4","last_reported":1742105550,"current_range_meters":8800,"station_id":"ce4bgvp2rcd13ifvqct0","pricing_plan_id":"cebpf4jnsgd1na2vs0mg"},{"bike_id":"9d9a42b8-e582-4188-a2b3-bf4b810d9218","system_id":"levelo_inurba_marseille","lat":43.313254,"lon":5.396933,"is_reserved":false,"is_disabled":false,"rental_uris":{"android":"levelo://app?vid=9d9a42b8-e582-4188-a2b3-bf4b810d9218","ios":"levelo://app?vid=9d9a42b8-e582-4188-a2b3-bf4b810d9218"},"vehicle_type_id":"4","last_reported":1742105550,"current_range_meters":9200,"station_id":"ce4bgvp2rcd13ifvqcu0","pricing_plan_id":"cebpf4jnsgd1na2vs0mg"},{"bike_id":"1b10bad2-dc66-4a43-85a7-d37466a8bfa0","system_id":"levelo_inurba_marseille","lat":43.28922,"lon":5.384015,"is_reserved":false,"is_disabled":false,"rental_uris":{"android":"levelo://app?vid=1b10bad2-dc66-4a43-85a7-d37466a8bfa0","ios":"levelo://app?vid=1b10bad2-dc66-4a43-85a7-d37466a8bfa0"},"vehicle_type_id":"4","last_reported":1742105550,"current_range_meters":9200,"station_id":"ce4bh612rcd13ifvqe6g","pricing_plan_id":"cebpf4jnsgd1na2vs0mg"},{"bike_id":"f2438fe8-2ed8-4b20-b587-85b311f47d3c","system_id":"levelo_inurba_marseille","lat":43.2756,"lon":5.38451,"is_reserved":false,"is_disabled":false,"rental_uris":{"android":"levelo://app?vid=f2438fe8-2ed8-4b20-b587-85b311f47d3c","ios":"levelo://app?vid=f2438fe8-2ed8-4b20-b587-85b311f47d3c"},"vehicle_type_id":"4","last_reported":1742105550,"current_range_meters":9200,"station_id":"ce4bhh92rcd13ifvqfi0","pricing_plan_id":"cebpf4jnsgd1na2vs0mg"},{"bike_id":"025c19db-f6c0-4050-ad47-54692572acc1","system_id":"levelo_inurba_marseille","lat":43.30923,"lon":5.40175,"is_reserved":false,"is_disabled":false,"rental_uris":{"android":"levelo://app?vid=025c19db-f6c0-4050-ad47-54692572acc1","ios":"levelo://app?vid=025c19db-f6c0-4050-ad47-54692572acc1"},"vehicle_type_id":"4","last_reported":1742105550,"current_range_meters":9200,"station_id":"ce4bgvp2rcd13ifvqct0","pricing_plan_id":"cebpf4jnsgd1na2vs0mg"},{"bike_id":"b79fb99a-9a33-46ce-be17-95ffa87072bc","system_id":"levelo_inurba_marseille","lat":43.28934,"lon":5.3838,"is_reserved":false,"is_disabled":false,"rental_uris":{"android":"levelo://app?vid=b79fb99a-9a33-46ce-be17-95ffa87072bc","ios":"levelo://app?vid=b79fb99a-9a33-46ce-be17-95ffa87072bc"},"vehicle_type_id":"4","last_reported":1742105550,"current_range_meters":9200,"station_id":"ce4bh612rcd13ifvqe6g","pricing_plan_id":"cebpf4jnsgd1na2vs0mg"},{"bike_id":"da5c19d6-027d-49a1-a221-0d80233850bb","system_id":"levelo_inurba_marseille","lat":43.27553,"lon":5.38437,"is_reserved":false,"is_disabled":false,"rental_uris":{"android":"levelo://app?vid=da5c19d6-027d-49a1-a221-0d80233850bb","ios":"levelo://app?vid=da5c19d6-027d-49a1-a221-0d80233850bb"},"vehicle_type_id":"4","last_reported":1742105550,"current_range_meters":9200,"station_id":"ce4bhh92rcd13ifvqfi0","pricing_plan_id":"cebpf4jnsgd1na2vs0mg"},{"bike_id":"cf2dddd4-7d4d-49f9-8a6b-f39f56ed4d68","system_id":"levelo_inurba_marseille","lat":43.30924,"lon":5.40149,"is_reserved":false,"is_disabled":false,"rental_uris":{"android":"levelo://app?vid=cf2dddd4-7d4d-49f9-8a6b-f39f56ed4d68","ios":"levelo://app?vid=cf2dddd4-7d4d-49f9-8a6b-f39f56ed4d68"},"vehicle_type_id":"4","last_reported":1742105550,"current_range_meters":9200,"station_id":"ce4bgvp2rcd13ifvqct0","pricing_plan_id":"cebpf4jnsgd1na2vs0mg"},{"bike_id":"ff0d48ac-8f25-43a0-baa9-6915da64ed96","system_id":"levelo_inurba_marseille","lat":43.27985,"lon":5.40035,"is_reserved":false,"is_disabled":false,"rental_uris":{"android":"levelo://app?vid=ff0d48ac-8f25-43a0-baa9-6915da64ed96","ios":"levelo://app?vid=ff0d48ac-8f25-43a0-baa9-6915da64ed96"},"vehicle_type_id":"4","last_reported":1742105550,"current_range_meters":9200,"station_id":"ce4bho92rcd13ifvqh4g","pricing_plan_id":"cebpf4jnsgd1na2vs0mg"},{"bike_id":"2127c283-3bf3-4081-9791-ba201cf5a542","system_id":"levelo_inurba_marseille","lat":43.30479,"lon":5.37344,"is_reserved":false,"is_disabled":false,"rental_uris":{"android":"levelo://app?vid=2127c283-3bf3-4081-9791-ba201cf5a542","ios":"levelo://app?vid=2127c283-3bf3-4081-9791-ba201cf5a542"},"vehicle_type_id":"4","last_reported":1742105550,"current_range_meters":9200,"station_id":"","pricing_plan_id":"cebpf4jnsgd1na2vs0mg"},{"bike_id":"2888920d-5337-4dad-b80c-b748fa94c0d3","system_id":"levelo_inurba_marseille","lat":43.24641,"lon":5.38908,"is_reserved":false,"is_disabled":false,"rental_uris":{"android":"levelo://app?vid=2888920d-5337-4dad-b80c-b748fa94c0d3","ios":"levelo://app?vid=2888920d-5337-4dad-b80c-b748fa94c0d3"},"vehicle_type_id":"4","last_reported":1742105550,"current_range_meters":9200,"station_id":"ce4bhg12rcd13ifvqf60","pricing_plan_id":"cebpf4jnsgd1na2vs0mg"},{"bike_id":"dce4e035-bed2-408e-b97a-d6936e40fbc2","system_id":"levelo_inurba_marseille","lat":43.28719,"lon":5.37937,"is_reserved":false,"is_disabled":false,"rental_uris":{"android":"levelo://app?vid=dce4e035-bed2-408e-b97a-d6936e40fbc2","ios":"levelo://app?vid=dce4e035-bed2-408e-b97a-d6936e40fbc2"},"vehicle_type_id":"4","last_reported":1742105550,"current_range_meters":9200,"station_id":"ce4bh9p2rcd13ifvqec0","pricing_plan_id":"cebpf4jnsgd1na2vs0mg"},{"bike_id":"743c9fbf-42df-4986-bc8c-9b4a2bc386be","system_id":"levelo_inurba_marseille","lat":43.24049,"lon":5.37766,"is_reserved":false,"is_disabled":false,"rental_uris":{"android":"levelo://app?vid=743c9fbf-42df-4986-bc8c-9b4a2bc386be","ios":"levelo://app?vid=743c9fbf-42df-4986-bc8c-9b4a2bc386be"},"vehicle_type_id":"4","last_reported":1742105550,"current_range_meters":9200,"station_id":"ce4bhnp2rcd13ifvqgvg","pricing_plan_id":"cebpf4jnsgd1na2vs0mg"},{"bike_id":"1333c740-f33c-46ca-97eb-8a4943e3534d","system_id":"levelo_inurba_marseille","lat":43.29133,"lon":5.38483,"is_reserved":false,"is_disabled":false,"rental_uris":{"android":"levelo://app?vid=1333c740-f33c-46ca-97eb-8a4943e3534d","ios":"levelo://app?vid=1333c740-f33c-46ca-97eb-8a4943e3534d"},"vehicle_type_id":"4","last_reported":1742105550,"current_range_meters":9200,"station_id":"","pricing_plan_id":"cebpf4jnsgd1na2vs0mg"},{"bike_id":"b723aca3-8e78-42dc-aea3-2292da138d59","system_id":"levelo_inurba_marseille","lat":43.2305,"lon":5.35506,"is_reserved":false,"is_disabled":false,"rental_uris":{"android":"levelo://app?vid=b723aca3-8e78-42dc-aea3-2292da138d59","ios":"levelo://app?vid=b723aca3-8e78-42dc-aea3-2292da138d59"},"vehicle_type_id":"4","last_reported":1742105550,"current_range_meters":9200,"station_id":"cpo3342slgdg3j2ifvpg","pricing_plan_id":"cebpf4jnsgd1na2vs0mg"},{"bike_id":"fedd60d3-96c9-41c7-b5e1-2a4253c71d0d","system_id":"levelo_inurba_marseille","lat":43.29265,"lon":5.40134,"is_reserved":false,"is_disabled":false,"rental_uris":{"android":"levelo://app?vid=fedd60d3-96c9-41c7-b5e1-2a4253c71d0d","ios":"levelo://app?vid=fedd60d3-96c9-41c7-b5e1-2a4253c71d0d"},"vehicle_type_id":"4","last_reported":1742105550,"current_range_meters":9200,"station_id":"ce4bh312rcd13ifvqdk0","pricing_plan_id":"cebpf4jnsgd1na2vs0mg"},{"bike_id":"c1ccf9ca-98f0-4eaf-9c83-bb7b5133d125","system_id":"levelo_inurba_marseille","lat":43.321044,"lon":5.367675,"is_reserved":false,"is_disabled":false,"rental_uris":{"android":"levelo://app?vid=c1ccf9ca-98f0-4eaf-9c83-bb7b5133d125","ios":"levelo://app?vid=c1ccf9ca-98f0-4eaf-9c83-bb7b5133d125"},"vehicle_type_id":"4","last_reported":1742105550,"current_range_meters":9200,"station_id":"ce4bhrh2rcd13ifvqhug","pricing_plan_id":"cebpf4jnsgd1na2vs0mg"},{"bike_id":"051f8d0f-3233-4330-b3cc-3f3cb6e82ba6","system_id":"levelo_inurba_marseille","lat":43.2862,"lon":5.35094,"is_reserved":false,"is_disabled":false,"rental_uris":{"android":"levelo://app?vid=051f8d0f-3233-4330-b3cc-3f3cb6e82ba6","ios":"levelo://app?vid=051f8d0f-3233-4330-b3cc-3f3cb6e82ba6"},"vehicle_type_id":"4","last_reported":1742105550,"current_range_meters":9200,"station_id":"ce4bhch2rcd13ifvqeug","pricing_plan_id":"cebpf4jnsgd1na2vs0mg"},{"bike_id":"2ea8de52-16e7-467f-a5b0-ffa7811f8be8","system_id":"levelo_inurba_marseille","lat":43.308866,"lon":5.396387,"is_reserved":false,"is_disabled":false,"rental_uris":{"android":"levelo://app?vid=2ea8de52-16e7-467f-a5b0-ffa7811f8be8","ios":"levelo://app?vid=2ea8de52-16e7-467f-a5b0-ffa7811f8be8"},"vehicle_type_id":"4","last_reported":1742105550,"current_range_meters":9200,"station_id":"ce4bh012rcd13ifvqcv0","pricing_plan_id":"cebpf4jnsgd1na2vs0mg"},{"bike_id":"31710fca-ccfa-43a5-ac6f-5ec923018ebf","system_id":"levelo_inurba_marseille","lat":43.27399,"lon":5.42061,"is_reserved":false,"is_disabled":false,"rental_uris":{"android":"levelo://app?vid=31710fca-ccfa-43a5-ac6f-5ec923018ebf","ios":"levelo://app?vid=31710fca-ccfa-43a5-ac6f-5ec923018ebf"},"vehicle_type_id":"4","last_reported":1742105550,"current_range_meters":9200,"station_id":"","pricing_plan_id":"cebpf4jnsgd1na2vs0mg"},{"bike_id":"0102a975-ca16-4d1e-8694-d919e87a2584","system_id":"levelo_inurba_marseille","lat":43.2956,"lon":5.42286,"is_reserved":false,"is_disabled":false,"rental_uris":{"android":"levelo://app?vid=0102a975-ca16-4d1e-8694-d919e87a2584","ios":"levelo://app?vid=0102a975-ca16-4d1e-8694-d919e87a2584"},"vehicle_type_id":"4","last_reported":1742105550,"current_range_meters":9600,"station_id":"ce4bhph2rcd13ifvqhdg","pricing_plan_id":"cebpf4jnsgd1na2vs0mg"},{"bike_id":"7485381a-b59a-4a9e-838c-17767e7d7a89","system_id":"levelo_inurba_marseille","lat":43.284059,"lon":5.375365,"is_reserved":false,"is_disabled":false,"rental_uris":{"android":"levelo://app?vid=7485381a-b59a-4a9e-838c-17767e7d7a89","ios":"levelo://app?vid=7485381a-b59a-4a9e-838c-17767e7d7a89"},"vehicle_type_id":"4","last_reported":1742105550,"current_range_meters":9600,"station_id":"ce4bh412rcd13ifvqds0","pricing_plan_id":"cebpf4jnsgd1na2vs0mg"},{"bike_id":"d42219f3-8e55-4fc6-a0b8-66df6e2e70b1","system_id":"levelo_inurba_marseille","lat":43.239621,"lon":5.366242,"is_reserved":false,"is_disabled":false,"rental_uris":{"android":"levelo://app?vid=d42219f3-8e55-4fc6-a0b8-66df6e2e70b1","ios":"levelo://app?vid=d42219f3-8e55-4fc6-a0b8-66df6e2e70b1"},"vehicle_type_id":"4","last_reported":1742105550,"current_range_meters":9600,"station_id":"ce4bhi12rcd13ifvqfp0","pricing_plan_id":"cebpf4jnsgd1na2vs0mg"},{"bike_id":"10044722-9baa-416e-a6f1-7ac67f5372b1","system_id":"levelo_inurba_marseille","lat":43.29277,"lon":5.38805,"is_reserved":false,"is_disabled":true,"rental_uris":{"android":"levelo://app?vid=10044722-9baa-416e-a6f1-7ac67f5372b1","ios":"levelo://app?vid=10044722-9baa-416e-a6f1-7ac67f5372b1"},"vehicle_type_id":"4","last_reported":1742105550,"current_range_meters":9600,"station_id":"","pricing_plan_id":"cebpf4jnsgd1na2vs0mg"},{"bike_id":"e2eeef0a-6097-43b2-ac9f-071e43b60347","system_id":"levelo_inurba_marseille","lat":43.28391,"lon":5.37522,"is_reserved":false,"is_disabled":false,"rental_uris":{"android":"levelo://app?vid=e2eeef0a-6097-43b2-ac9f-071e43b60347","ios":"levelo://app?vid=e2eeef0a-6097-43b2-ac9f-071e43b60347"},"vehicle_type_id":"4","last_reported":1742105550,"current_range_meters":9600,"station_id":"ce4bh412rcd13ifvqds0","pricing_plan_id":"cebpf4jnsgd1na2vs0mg"},{"bike_id":"6582e7c2-5aa5-4e6a-abc5-fa241e74aeb6","system_id":"levelo_inurba_marseille","lat":43.299,"lon":5.436685,"is_reserved":false,"is_disabled":false,"rental_uris":{"android":"levelo://app?vid=6582e7c2-5aa5-4e6a-abc5-fa241e74aeb6","ios":"levelo://app?vid=6582e7c2-5aa5-4e6a-abc5-fa241e74aeb6"},"vehicle_type_id":"4","last_reported":1742105550,"current_range_meters":9600,"station_id":"ce4bhpp2rcd13ifvqhfg","pricing_plan_id":"cebpf4jnsgd1na2vs0mg"},{"bike_id":"90c707aa-0edc-4e94-a911-252e6bd4d4c2","system_id":"levelo_inurba_marseille","lat":43.28616,"lon":5.35106,"is_reserved":false,"is_disabled":false,"rental_uris":{"android":"levelo://app?vid=90c707aa-0edc-4e94-a911-252e6bd4d4c2","ios":"levelo://app?vid=90c707aa-0edc-4e94-a911-252e6bd4d4c2"},"vehicle_type_id":"4","last_reported":1742105550,"current_range_meters":9600,"station_id":"ce4bhch2rcd13ifvqeug","pricing_plan_id":"cebpf4jnsgd1na2vs0mg"},{"bike_id":"18d3ed1c-c694-4948-9b37-a03a4a3d941f","system_id":"levelo_inurba_marseille","lat":43.2902,"lon":5.38638,"is_reserved":false,"is_disabled":false,"rental_uris":{"android":"levelo://app?vid=18d3ed1c-c694-4948-9b37-a03a4a3d941f","ios":"levelo://app?vid=18d3ed1c-c694-4948-9b37-a03a4a3d941f"},"vehicle_type_id":"4","last_reported":1742105550,"current_range_meters":9600,"station_id":"ce4bh4p2rcd13ifvqe0g","pricing_plan_id":"cebpf4jnsgd1na2vs0mg"},{"bike_id":"0cfb871d-6db7-4065-aadf-d165b878f28a","system_id":"levelo_inurba_marseille","lat":43.29014,"lon":5.38139,"is_reserved":false,"is_disabled":false,"rental_uris":{"android":"levelo://app?vid=0cfb871d-6db7-4065-aadf-d165b878f28a","ios":"levelo://app?vid=0cfb871d-6db7-4065-aadf-d165b878f28a"},"vehicle_type_id":"4","last_reported":1742105550,"current_range_meters":9200,"station_id":"ce4bh4p2rcd13ifvqe1g","pricing_plan_id":"cebpf4jnsgd1na2vs0mg"},{"bike_id":"42690a8a-121f-4c86-9b16-a0db890b98b0","system_id":"levelo_inurba_marseille","lat":43.29036,"lon":5.38663,"is_reserved":false,"is_disabled":false,"rental_uris":{"android":"levelo://app?vid=42690a8a-121f-4c86-9b16-a0db890b98b0","ios":"levelo://app?vid=42690a8a-121f-4c86-9b16-a0db890b98b0"},"vehicle_type_id":"4","last_reported":1742105550,"current_range_meters":9600,"station_id":"ce4bh4p2rcd13ifvqe0g","pricing_plan_id":"cebpf4jnsgd1na2vs0mg"},{"bike_id":"9c153339-ffc3-4e73-9dd4-5e83c5bb119e","system_id":"levelo_inurba_marseille","lat":43.23182,"lon":5.39984,"is_reserved":false,"is_disabled":false,"rental_uris":{"android":"levelo://app?vid=9c153339-ffc3-4e73-9dd4-5e83c5bb119e","ios":"levelo://app?vid=9c153339-ffc3-4e73-9dd4-5e83c5bb119e"},"vehicle_type_id":"4","last_reported":1742105550,"current_range_meters":9600,"station_id":"ce4bhn12rcd13ifvqgqg","pricing_plan_id":"cebpf4jnsgd1na2vs0mg"},{"bike_id":"3a766561-d5df-4bb1-accb-85c347f27a70","system_id":"levelo_inurba_marseille","lat":43.33716,"lon":5.39198,"is_reserved":false,"is_disabled":false,"rental_uris":{"android":"levelo://app?vid=3a766561-d5df-4bb1-accb-85c347f27a70","ios":"levelo://app?vid=3a766561-d5df-4bb1-accb-85c347f27a70"},"vehicle_type_id":"4","last_reported":1742105550,"current_range_meters":9600,"station_id":"ce4bhr92rcd13ifvqhsg","pricing_plan_id":"cebpf4jnsgd1na2vs0mg"},{"bike_id":"368be43e-fb47-48c7-9b84-f4dbc2b3c504","system_id":"levelo_inurba_marseille","lat":43.2845,"lon":5.35875,"is_reserved":false,"is_disabled":false,"rental_uris":{"android":"levelo://app?vid=368be43e-fb47-48c7-9b84-f4dbc2b3c504","ios":"levelo://app?vid=368be43e-fb47-48c7-9b84-f4dbc2b3c504"},"vehicle_type_id":"4","last_reported":1742105550,"current_range_meters":9600,"station_id":"ce4bhah2rcd13ifvqei0","pricing_plan_id":"cebpf4jnsgd1na2vs0mg"},{"bike_id":"dd3cd798-787d-4c31-b0e6-37631fe69a4a","system_id":"levelo_inurba_marseille","lat":43.27825,"lon":5.40731,"is_reserved":false,"is_disabled":false,"rental_uris":{"android":"levelo://app?vid=dd3cd798-787d-4c31-b0e6-37631fe69a4a","ios":"levelo://app?vid=dd3cd798-787d-4c31-b0e6-37631fe69a4a"},"vehicle_type_id":"4","last_reported":1742105550,"current_range_meters":10000,"station_id":"ce4bhnh2rcd13ifvqgtg","pricing_plan_id":"cebpf4jnsgd1na2vs0mg"},{"bike_id":"71b342b8-694b-40d5-99e8-310baf77a970","system_id":"levelo_inurba_marseille","lat":43.23052,"lon":5.35507,"is_reserved":false,"is_disabled":false,"rental_uris":{"android":"levelo://app?vid=71b342b8-694b-40d5-99e8-310baf77a970","ios":"levelo://app?vid=71b342b8-694b-40d5-99e8-310baf77a970"},"vehicle_type_id":"4","last_reported":1742105550,"current_range_meters":10000,"station_id":"cpo3342slgdg3j2ifvpg","pricing_plan_id":"cebpf4jnsgd1na2vs0mg"},{"bike_id":"ff3a37fb-1033-4b8c-8576-9b75cf79661e","system_id":"levelo_inurba_marseille","lat":43.30315,"lon":5.36913,"is_reserved":false,"is_disabled":false,"rental_uris":{"android":"levelo://app?vid=ff3a37fb-1033-4b8c-8576-9b75cf79661e","ios":"levelo://app?vid=ff3a37fb-1033-4b8c-8576-9b75cf79661e"},"vehicle_type_id":"4","last_reported":1742105550,"current_range_meters":10000,"station_id":"ce4bgqh2rcd13ifvqc5g","pricing_plan_id":"cebpf4jnsgd1na2vs0mg"},{"bike_id":"fc071de1-2cc0-488a-a43e-f8037a5a9a49","system_id":"levelo_inurba_marseille","lat":43.230649,"lon":5.35495,"is_reserved":false,"is_disabled":false,"rental_uris":{"android":"levelo://app?vid=fc071de1-2cc0-488a-a43e-f8037a5a9a49","ios":"levelo://app?vid=fc071de1-2cc0-488a-a43e-f8037a5a9a49"},"vehicle_type_id":"4","last_reported":1742105550,"current_range_meters":10000,"station_id":"cpo3342slgdg3j2ifvpg","pricing_plan_id":"cebpf4jnsgd1na2vs0mg"},{"bike_id":"b91aa42b-b9b3-44eb-b091-2d40a57ed7d6","system_id":"levelo_inurba_marseille","lat":43.29275,"lon":5.40889,"is_reserved":false,"is_disabled":false,"rental_uris":{"android":"levelo://app?vid=b91aa42b-b9b3-44eb-b091-2d40a57ed7d6","ios":"levelo://app?vid=b91aa42b-b9b3-44eb-b091-2d40a57ed7d6"},"vehicle_type_id":"4","last_reported":1742105550,"current_range_meters":10000,"station_id":"ce4bh192rcd13ifvqdc0","pricing_plan_id":"cebpf4jnsgd1na2vs0mg"},{"bike_id":"8f3e9ead-d898-42b5-a79e-bc7f63bcd93a","system_id":"levelo_inurba_marseille","lat":43.28269,"lon":5.35057,"is_reserved":false,"is_disabled":false,"rental_uris":{"android":"levelo://app?vid=8f3e9ead-d898-42b5-a79e-bc7f63bcd93a","ios":"levelo://app?vid=8f3e9ead-d898-42b5-a79e-bc7f63bcd93a"},"vehicle_type_id":"4","last_reported":1742105550,"current_range_meters":10000,"station_id":"ce4bhbp2rcd13ifvqerg","pricing_plan_id":"cebpf4jnsgd1na2vs0mg"},{"bike_id":"174c9c66-b172-484e-b7f9-5752aa18aabf","system_id":"levelo_inurba_marseille","lat":43.230656,"lon":5.35498,"is_reserved":false,"is_disabled":false,"rental_uris":{"android":"levelo://app?vid=174c9c66-b172-484e-b7f9-5752aa18aabf","ios":"levelo://app?vid=174c9c66-b172-484e-b7f9-5752aa18aabf"},"vehicle_type_id":"4","last_reported":1742105550,"current_range_meters":10000,"station_id":"cpo3342slgdg3j2ifvpg","pricing_plan_id":"cebpf4jnsgd1na2vs0mg"},{"bike_id":"97cc4e14-6bcb-4367-a677-19a31192f88f","system_id":"levelo_inurba_marseille","lat":43.30862,"lon":5.37196,"is_reserved":false,"is_disabled":false,"rental_uris":{"android":"levelo://app?vid=97cc4e14-6bcb-4367-a677-19a31192f88f","ios":"levelo://app?vid=97cc4e14-6bcb-4367-a677-19a31192f88f"},"vehicle_type_id":"4","last_reported":1742105550,"current_range_meters":10000,"station_id":"","pricing_plan_id":"cebpf4jnsgd1na2vs0mg"},{"bike_id":"0162ff87-7148-49d2-82e1-db37eca7d49d","system_id":"levelo_inurba_marseille","lat":43.286153,"lon":5.350993,"is_reserved":false,"is_disabled":false,"rental_uris":{"android":"levelo://app?vid=0162ff87-7148-49d2-82e1-db37eca7d49d","ios":"levelo://app?vid=0162ff87-7148-49d2-82e1-db37eca7d49d"},"vehicle_type_id":"4","last_reported":1742105550,"current_range_meters":10000,"station_id":"ce4bhch2rcd13ifvqeug","pricing_plan_id":"cebpf4jnsgd1na2vs0mg"},{"bike_id":"40ac78b7-73af-437f-9369-cc2660832141","system_id":"levelo_inurba_marseille","lat":43.29676,"lon":5.36567,"is_reserved":false,"is_disabled":false,"rental_uris":{"android":"levelo://app?vid=40ac78b7-73af-437f-9369-cc2660832141","ios":"levelo://app?vid=40ac78b7-73af-437f-9369-cc2660832141"},"vehicle_type_id":"4","last_reported":1742105550,"current_range_meters":10000,"station_id":"ce4bgn12rcd13ifvqbt0","pricing_plan_id":"cebpf4jnsgd1na2vs0mg"},{"bike_id":"0d751fe3-4aed-4fa6-80ca-bc2d51140685","system_id":"levelo_inurba_marseille","lat":43.281002,"lon":5.378356,"is_reserved":false,"is_disabled":false,"rental_uris":{"android":"levelo://app?vid=0d751fe3-4aed-4fa6-80ca-bc2d51140685","ios":"levelo://app?vid=0d751fe3-4aed-4fa6-80ca-bc2d51140685"},"vehicle_type_id":"4","last_reported":1742105550,"current_range_meters":10000,"station_id":"ce4bha12rcd13ifvqee0","pricing_plan_id":"cebpf4jnsgd1na2vs0mg"},{"bike_id":"2490f20d-dc1c-4755-a5b7-15009392146f","system_id":"levelo_inurba_marseille","lat":43.29869,"lon":5.39729,"is_reserved":false,"is_disabled":false,"rental_uris":{"android":"levelo://app?vid=2490f20d-dc1c-4755-a5b7-15009392146f","ios":"levelo://app?vid=2490f20d-dc1c-4755-a5b7-15009392146f"},"vehicle_type_id":"4","last_reported":1742105550,"current_range_meters":10000,"station_id":"ce4bh0h2rcd13ifvqd50","pricing_plan_id":"cebpf4jnsgd1na2vs0mg"},{"bike_id":"c192d6fc-f07c-49a1-bd67-de60e24c5223","system_id":"levelo_inurba_marseille","lat":43.27889,"lon":5.37999,"is_reserved":false,"is_disabled":false,"rental_uris":{"android":"levelo://app?vid=c192d6fc-f07c-49a1-bd67-de60e24c5223","ios":"levelo://app?vid=c192d6fc-f07c-49a1-bd67-de60e24c5223"},"vehicle_type_id":"4","last_reported":1742105550,"current_range_meters":10000,"station_id":"ce4bhf92rcd13ifvqf50","pricing_plan_id":"cebpf4jnsgd1na2vs0mg"},{"bike_id":"486239e7-dd67-42d3-9c83-43abe67b8550","system_id":"levelo_inurba_marseille","lat":43.31321,"lon":5.39718,"is_reserved":false,"is_disabled":false,"rental_uris":{"android":"levelo://app?vid=486239e7-dd67-42d3-9c83-43abe67b8550","ios":"levelo://app?vid=486239e7-dd67-42d3-9c83-43abe67b8550"},"vehicle_type_id":"4","last_reported":1742105550,"current_range_meters":10000,"station_id":"ce4bgvp2rcd13ifvqcu0","pricing_plan_id":"cebpf4jnsgd1na2vs0mg"},{"bike_id":"dabc5740-01e5-4dfd-b5c3-33816c157c08","system_id":"levelo_inurba_marseille","lat":43.230993,"lon":5.354783,"is_reserved":false,"is_disabled":false,"rental_uris":{"android":"levelo://app?vid=dabc5740-01e5-4dfd-b5c3-33816c157c08","ios":"levelo://app?vid=dabc5740-01e5-4dfd-b5c3-33816c157c08"},"vehicle_type_id":"4","last_reported":1742105550,"current_range_meters":10800,"station_id":"","pricing_plan_id":"cebpf4jnsgd1na2vs0mg"},{"bike_id":"e45b0fd7-4e87-4303-b524-8302e30de230","system_id":"levelo_inurba_marseille","lat":43.24656,"lon":5.38163,"is_reserved":false,"is_disabled":false,"rental_uris":{"android":"levelo://app?vid=e45b0fd7-4e87-4303-b524-8302e30de230","ios":"levelo://app?vid=e45b0fd7-4e87-4303-b524-8302e30de230"},"vehicle_type_id":"4","last_reported":1742105550,"current_range_meters":10800,"station_id":"ce4bhih2rcd13ifvqfr0","pricing_plan_id":"cebpf4jnsgd1na2vs0mg"},{"bike_id":"f876773a-fec2-4503-8f9a-c65b00603ae5","system_id":"levelo_inurba_marseille","lat":43.24076,"lon":5.37751,"is_reserved":false,"is_disabled":false,"rental_uris":{"android":"levelo://app?vid=f876773a-fec2-4503-8f9a-c65b00603ae5","ios":"levelo://app?vid=f876773a-fec2-4503-8f9a-c65b00603ae5"},"vehicle_type_id":"4","last_reported":1742105550,"current_range_meters":10800,"station_id":"ce4bhnp2rcd13ifvqgvg","pricing_plan_id":"cebpf4jnsgd1na2vs0mg"},{"bike_id":"d29954b9-94a9-4d4b-8f2a-4f834cdcd24e","system_id":"levelo_inurba_marseille","lat":43.30583,"lon":5.40099,"is_reserved":false,"is_disabled":false,"rental_uris":{"android":"levelo://app?vid=d29954b9-94a9-4d4b-8f2a-4f834cdcd24e","ios":"levelo://app?vid=d29954b9-94a9-4d4b-8f2a-4f834cdcd24e"},"vehicle_type_id":"4","last_reported":1742105550,"current_range_meters":10800,"station_id":"","pricing_plan_id":"cebpf4jnsgd1na2vs0mg"},{"bike_id":"d833f426-b66d-48bf-ae51-72b9b0c84c90","system_id":"levelo_inurba_marseille","lat":43.3236,"lon":5.3889,"is_reserved":false,"is_disabled":false,"rental_uris":{"android":"levelo://app?vid=d833f426-b66d-48bf-ae51-72b9b0c84c90","ios":"levelo://app?vid=d833f426-b66d-48bf-ae51-72b9b0c84c90"},"vehicle_type_id":"4","last_reported":1742105550,"current_range_meters":10800,"station_id":"ce4bhqp2rcd13ifvqhog","pricing_plan_id":"cebpf4jnsgd1na2vs0mg"},{"bike_id":"c79bb127-8198-4096-96ea-1444569e00c1","system_id":"levelo_inurba_marseille","lat":43.239544,"lon":5.366254,"is_reserved":false,"is_disabled":true,"rental_uris":{"android":"levelo://app?vid=c79bb127-8198-4096-96ea-1444569e00c1","ios":"levelo://app?vid=c79bb127-8198-4096-96ea-1444569e00c1"},"vehicle_type_id":"4","last_reported":1742105550,"current_range_meters":10800,"station_id":"ce4bhi12rcd13ifvqfp0","pricing_plan_id":"cebpf4jnsgd1na2vs0mg"},{"bike_id":"e8e1131d-a2a0-46d6-b372-ab52c07492c6","system_id":"levelo_inurba_marseille","lat":43.27632,"lon":5.42462,"is_reserved":false,"is_disabled":false,"rental_uris":{"android":"levelo://app?vid=e8e1131d-a2a0-46d6-b372-ab52c07492c6","ios":"levelo://app?vid=e8e1131d-a2a0-46d6-b372-ab52c07492c6"},"vehicle_type_id":"4","last_reported":1742105550,"current_range_meters":10800,"station_id":"","pricing_plan_id":"cebpf4jnsgd1na2vs0mg"},{"bike_id":"084e9cd0-ba7b-4410-911b-bd29122b16f6","system_id":"levelo_inurba_marseille","lat":43.24165,"lon":5.36404,"is_reserved":false,"is_disabled":false,"rental_uris":{"android":"levelo://app?vid=084e9cd0-ba7b-4410-911b-bd29122b16f6","ios":"levelo://app?vid=084e9cd0-ba7b-4410-911b-bd29122b16f6"},"vehicle_type_id":"4","last_reported":1742105550,"current_range_meters":10800,"station_id":"cpo36qri1sfpv3e86is0","pricing_plan_id":"cebpf4jnsgd1na2vs0mg"},{"bike_id":"60e31e2b-2ab2-4ccb-8ace-5173b6293679","system_id":"levelo_inurba_marseille","lat":43.2736,"lon":5.36247,"is_reserved":false,"is_disabled":false,"rental_uris":{"android":"levelo://app?vid=60e31e2b-2ab2-4ccb-8ace-5173b6293679","ios":"levelo://app?vid=60e31e2b-2ab2-4ccb-8ace-5173b6293679"},"vehicle_type_id":"4","last_reported":1742105550,"current_range_meters":10800,"station_id":"ce4bhbh2rcd13ifvqeo0","pricing_plan_id":"cebpf4jnsgd1na2vs0mg"},{"bike_id":"42bd844d-ab8d-4e3b-96e4-4d7bb2af26ce","system_id":"levelo_inurba_marseille","lat":43.2655,"lon":5.37297,"is_reserved":false,"is_disabled":false,"rental_uris":{"android":"levelo://app?vid=42bd844d-ab8d-4e3b-96e4-4d7bb2af26ce","ios":"levelo://app?vid=42bd844d-ab8d-4e3b-96e4-4d7bb2af26ce"},"vehicle_type_id":"4","last_reported":1742105550,"current_range_meters":10800,"station_id":"ce4bhg12rcd13ifvqf70","pricing_plan_id":"cebpf4jnsgd1na2vs0mg"},{"bike_id":"d95316d7-ae0b-470d-8c1a-3d7196e53821","system_id":"levelo_inurba_marseille","lat":43.269485,"lon":5.386331,"is_reserved":false,"is_disabled":false,"rental_uris":{"android":"levelo://app?vid=d95316d7-ae0b-470d-8c1a-3d7196e53821","ios":"levelo://app?vid=d95316d7-ae0b-470d-8c1a-3d7196e53821"},"vehicle_type_id":"4","last_reported":1742105550,"current_range_meters":10800,"station_id":"ce4bhh92rcd13ifvqfh0","pricing_plan_id":"cebpf4jnsgd1na2vs0mg"},{"bike_id":"38df4f91-9f88-442d-beb0-dfcd47d64f9c","system_id":"levelo_inurba_marseille","lat":43.30915,"lon":5.40208,"is_reserved":false,"is_disabled":false,"rental_uris":{"android":"levelo://app?vid=38df4f91-9f88-442d-beb0-dfcd47d64f9c","ios":"levelo://app?vid=38df4f91-9f88-442d-beb0-dfcd47d64f9c"},"vehicle_type_id":"4","last_reported":1742105550,"current_range_meters":10800,"station_id":"ce4bgvp2rcd13ifvqct0","pricing_plan_id":"cebpf4jnsgd1na2vs0mg"},{"bike_id":"0b855e7a-94a0-4d59-b2cd-9118b12050a9","system_id":"levelo_inurba_marseille","lat":43.28459,"lon":5.35884,"is_reserved":false,"is_disabled":false,"rental_uris":{"android":"levelo://app?vid=0b855e7a-94a0-4d59-b2cd-9118b12050a9","ios":"levelo://app?vid=0b855e7a-94a0-4d59-b2cd-9118b12050a9"},"vehicle_type_id":"4","last_reported":1742105550,"current_range_meters":11200,"station_id":"ce4bhah2rcd13ifvqei0","pricing_plan_id":"cebpf4jnsgd1na2vs0mg"},{"bike_id":"138e620c-f578-4ef6-a1cc-4efaf81ff921","system_id":"levelo_inurba_marseille","lat":43.246724,"lon":5.38156,"is_reserved":false,"is_disabled":false,"rental_uris":{"android":"levelo://app?vid=138e620c-f578-4ef6-a1cc-4efaf81ff921","ios":"levelo://app?vid=138e620c-f578-4ef6-a1cc-4efaf81ff921"},"vehicle_type_id":"4","last_reported":1742105550,"current_range_meters":11200,"station_id":"ce4bhih2rcd13ifvqfr0","pricing_plan_id":"cebpf4jnsgd1na2vs0mg"},{"bike_id":"30a3f5aa-8adb-417a-a2c9-dedb0fb285b3","system_id":"levelo_inurba_marseille","lat":43.28963,"lon":5.37845,"is_reserved":false,"is_disabled":true,"rental_uris":{"android":"levelo://app?vid=30a3f5aa-8adb-417a-a2c9-dedb0fb285b3","ios":"levelo://app?vid=30a3f5aa-8adb-417a-a2c9-dedb0fb285b3"},"vehicle_type_id":"4","last_reported":1742105550,"current_range_meters":11200,"station_id":"ce4bh9p2rcd13ifvqed0","pricing_plan_id":"cebpf4jnsgd1na2vs0mg"},{"bike_id":"e1329997-2479-4ac3-aca2-3b0dfb3b0a3a","system_id":"levelo_inurba_marseille","lat":43.28941,"lon":5.36396,"is_reserved":false,"is_disabled":false,"rental_uris":{"android":"levelo://app?vid=e1329997-2479-4ac3-aca2-3b0dfb3b0a3a","ios":"levelo://app?vid=e1329997-2479-4ac3-aca2-3b0dfb3b0a3a"},"vehicle_type_id":"4","last_reported":1742105550,"current_range_meters":11200,"station_id":"ce4bhc92rcd13ifvqetg","pricing_plan_id":"cebpf4jnsgd1na2vs0mg"},{"bike_id":"35b0a354-cc06-4650-875b-c6511effcf13","system_id":"levelo_inurba_marseille","lat":43.26053,"lon":5.39388,"is_reserved":false,"is_disabled":false,"rental_uris":{"android":"levelo://app?vid=35b0a354-cc06-4650-875b-c6511effcf13","ios":"levelo://app?vid=35b0a354-cc06-4650-875b-c6511effcf13"},"vehicle_type_id":"4","last_reported":1742105550,"current_range_meters":11200,"station_id":"ce4bhh92rcd13ifvqfj0","pricing_plan_id":"cebpf4jnsgd1na2vs0mg"},{"bike_id":"009278f1-8ee2-46f6-ac7b-9e2ce59c6dcb","system_id":"levelo_inurba_marseille","lat":43.29022,"lon":5.3865,"is_reserved":false,"is_disabled":false,"rental_uris":{"android":"levelo://app?vid=009278f1-8ee2-46f6-ac7b-9e2ce59c6dcb","ios":"levelo://app?vid=009278f1-8ee2-46f6-ac7b-9e2ce59c6dcb"},"vehicle_type_id":"4","last_reported":1742105550,"current_range_meters":11200,"station_id":"ce4bh4p2rcd13ifvqe0g","pricing_plan_id":"cebpf4jnsgd1na2vs0mg"},{"bike_id":"ec4c8fc9-399f-4f5a-b345-e19e03d811c3","system_id":"levelo_inurba_marseille","lat":43.27199,"lon":5.40982,"is_reserved":false,"is_disabled":true,"rental_uris":{"android":"levelo://app?vid=ec4c8fc9-399f-4f5a-b345-e19e03d811c3","ios":"levelo://app?vid=ec4c8fc9-399f-4f5a-b345-e19e03d811c3"},"vehicle_type_id":"4","last_reported":1742105550,"current_range_meters":11200,"station_id":"ce4bhl12rcd13ifvqgf0","pricing_plan_id":"cebpf4jnsgd1na2vs0mg"},{"bike_id":"9d8efe52-4253-46af-b40f-bf8652412f63","system_id":"levelo_inurba_marseille","lat":43.29494,"lon":5.39408,"is_reserved":false,"is_disabled":true,"rental_uris":{"android":"levelo://app?vid=9d8efe52-4253-46af-b40f-bf8652412f63","ios":"levelo://app?vid=9d8efe52-4253-46af-b40f-bf8652412f63"},"vehicle_type_id":"4","last_reported":1742105550,"current_range_meters":11200,"station_id":"ce4bh292rcd13ifvqdf0","pricing_plan_id":"cebpf4jnsgd1na2vs0mg"},{"bike_id":"38de9398-607b-4e38-b181-28a0e85a0172","system_id":"levelo_inurba_marseille","lat":43.290285,"lon":5.386595,"is_reserved":false,"is_disabled":true,"rental_uris":{"android":"levelo://app?vid=38de9398-607b-4e38-b181-28a0e85a0172","ios":"levelo://app?vid=38de9398-607b-4e38-b181-28a0e85a0172"},"vehicle_type_id":"4","last_reported":1742105550,"current_range_meters":11200,"station_id":"ce4bh4p2rcd13ifvqe0g","pricing_plan_id":"cebpf4jnsgd1na2vs0mg"},{"bike_id":"66d6e7ef-3ad0-49a5-bdf1-094ad3c64950","system_id":"levelo_inurba_marseille","lat":43.246636,"lon":5.381575,"is_reserved":false,"is_disabled":false,"rental_uris":{"android":"levelo://app?vid=66d6e7ef-3ad0-49a5-bdf1-094ad3c64950","ios":"levelo://app?vid=66d6e7ef-3ad0-49a5-bdf1-094ad3c64950"},"vehicle_type_id":"4","last_reported":1742105550,"current_range_meters":11200,"station_id":"ce4bhih2rcd13ifvqfr0","pricing_plan_id":"cebpf4jnsgd1na2vs0mg"},{"bike_id":"3f3e844d-8056-4826-a519-e24eec72528f","system_id":"levelo_inurba_marseille","lat":43.3067,"lon":5.36535,"is_reserved":false,"is_disabled":false,"rental_uris":{"android":"levelo://app?vid=3f3e844d-8056-4826-a519-e24eec72528f","ios":"levelo://app?vid=3f3e844d-8056-4826-a519-e24eec72528f"},"vehicle_type_id":"4","last_reported":1742105550,"current_range_meters":11200,"station_id":"","pricing_plan_id":"cebpf4jnsgd1na2vs0mg"},{"bike_id":"1e9f3f53-e48b-47c9-8a7a-3842fe9d86ab","system_id":"levelo_inurba_marseille","lat":43.2872,"lon":5.40017,"is_reserved":false,"is_disabled":true,"rental_uris":{"android":"levelo://app?vid=1e9f3f53-e48b-47c9-8a7a-3842fe9d86ab","ios":"levelo://app?vid=1e9f3f53-e48b-47c9-8a7a-3842fe9d86ab"},"vehicle_type_id":"4","last_reported":1742105550,"current_range_meters":11200,"station_id":"ce4bho92rcd13ifvqh3g","pricing_plan_id":"cebpf4jnsgd1na2vs0mg"},{"bike_id":"1d7f8ff5-bcc8-4b92-a03a-ea3818b4617e","system_id":"levelo_inurba_marseille","lat":43.29064,"lon":5.38139,"is_reserved":false,"is_disabled":true,"rental_uris":{"android":"levelo://app?vid=1d7f8ff5-bcc8-4b92-a03a-ea3818b4617e","ios":"levelo://app?vid=1d7f8ff5-bcc8-4b92-a03a-ea3818b4617e"},"vehicle_type_id":"4","last_reported":1742105550,"current_range_meters":11600,"station_id":"ce4bh512rcd13ifvqe2g","pricing_plan_id":"cebpf4jnsgd1na2vs0mg"},{"bike_id":"27dfb30f-0a0d-485f-9153-1d5597c150ca","system_id":"levelo_inurba_marseille","lat":43.30878,"lon":5.37208,"is_reserved":false,"is_disabled":false,"rental_uris":{"android":"levelo://app?vid=27dfb30f-0a0d-485f-9153-1d5597c150ca","ios":"levelo://app?vid=27dfb30f-0a0d-485f-9153-1d5597c150ca"},"vehicle_type_id":"4","last_reported":1742105550,"current_range_meters":11600,"station_id":"ce4bguh2rcd13ifvqckg","pricing_plan_id":"cebpf4jnsgd1na2vs0mg"},{"bike_id":"e047eb05-c84e-4eb9-a430-24d024850b6f","system_id":"levelo_inurba_marseille","lat":43.22935,"lon":5.35391,"is_reserved":false,"is_disabled":false,"rental_uris":{"android":"levelo://app?vid=e047eb05-c84e-4eb9-a430-24d024850b6f","ios":"levelo://app?vid=e047eb05-c84e-4eb9-a430-24d024850b6f"},"vehicle_type_id":"4","last_reported":1742105550,"current_range_meters":11600,"station_id":"cpo3532slgdg3j2ikp40","pricing_plan_id":"cebpf4jnsgd1na2vs0mg"},{"bike_id":"7099c38a-2986-4dc9-9398-307b562f7d30","system_id":"levelo_inurba_marseille","lat":43.25934,"lon":5.40908,"is_reserved":false,"is_disabled":false,"rental_uris":{"android":"levelo://app?vid=7099c38a-2986-4dc9-9398-307b562f7d30","ios":"levelo://app?vid=7099c38a-2986-4dc9-9398-307b562f7d30"},"vehicle_type_id":"4","last_reported":1742105550,"current_range_meters":11600,"station_id":"ce4bhm92rcd13ifvqglg","pricing_plan_id":"cebpf4jnsgd1na2vs0mg"},{"bike_id":"3c528f7f-712c-435c-b5d4-a5694a485d73","system_id":"levelo_inurba_marseille","lat":43.29896,"lon":5.43658,"is_reserved":false,"is_disabled":false,"rental_uris":{"android":"levelo://app?vid=3c528f7f-712c-435c-b5d4-a5694a485d73","ios":"levelo://app?vid=3c528f7f-712c-435c-b5d4-a5694a485d73"},"vehicle_type_id":"4","last_reported":1742105550,"current_range_meters":11600,"station_id":"ce4bhpp2rcd13ifvqhfg","pricing_plan_id":"cebpf4jnsgd1na2vs0mg"},{"bike_id":"798e4424-938e-4a81-9e7c-4246567321c5","system_id":"levelo_inurba_marseille","lat":43.247348,"lon":5.411502,"is_reserved":false,"is_disabled":false,"rental_uris":{"android":"levelo://app?vid=798e4424-938e-4a81-9e7c-4246567321c5","ios":"levelo://app?vid=798e4424-938e-4a81-9e7c-4246567321c5"},"vehicle_type_id":"4","last_reported":1742105550,"current_range_meters":11600,"station_id":"","pricing_plan_id":"cebpf4jnsgd1na2vs0mg"},{"bike_id":"ac4d3e73-41f2-4554-991d-5ef3a12238de","system_id":"levelo_inurba_marseille","lat":43.27323,"lon":5.39076,"is_reserved":false,"is_disabled":false,"rental_uris":{"android":"levelo://app?vid=ac4d3e73-41f2-4554-991d-5ef3a12238de","ios":"levelo://app?vid=ac4d3e73-41f2-4554-991d-5ef3a12238de"},"vehicle_type_id":"4","last_reported":1742105550,"current_range_meters":11600,"station_id":"ce4bhgp2rcd13ifvqfe0","pricing_plan_id":"cebpf4jnsgd1na2vs0mg"},{"bike_id":"97af83c3-ddee-4269-abac-dfe69820a791","system_id":"levelo_inurba_marseille","lat":43.30932,"lon":5.40177,"is_reserved":false,"is_disabled":false,"rental_uris":{"android":"levelo://app?vid=97af83c3-ddee-4269-abac-dfe69820a791","ios":"levelo://app?vid=97af83c3-ddee-4269-abac-dfe69820a791"},"vehicle_type_id":"4","last_reported":1742105550,"current_range_meters":11600,"station_id":"ce4bgvp2rcd13ifvqct0","pricing_plan_id":"cebpf4jnsgd1na2vs0mg"},{"bike_id":"a2df54e8-18e4-4021-8fec-e9c5b477e7ad","system_id":"levelo_inurba_marseille","lat":43.2465,"lon":5.38905,"is_reserved":false,"is_disabled":false,"rental_uris":{"android":"levelo://app?vid=a2df54e8-18e4-4021-8fec-e9c5b477e7ad","ios":"levelo://app?vid=a2df54e8-18e4-4021-8fec-e9c5b477e7ad"},"vehicle_type_id":"4","last_reported":1742105550,"current_range_meters":11600,"station_id":"ce4bhg12rcd13ifvqf60","pricing_plan_id":"cebpf4jnsgd1na2vs0mg"},{"bike_id":"af1ca41c-cae3-4bfb-8326-7a6345ec0883","system_id":"levelo_inurba_marseille","lat":43.30469,"lon":5.37912,"is_reserved":false,"is_disabled":false,"rental_uris":{"android":"levelo://app?vid=af1ca41c-cae3-4bfb-8326-7a6345ec0883","ios":"levelo://app?vid=af1ca41c-cae3-4bfb-8326-7a6345ec0883"},"vehicle_type_id":"4","last_reported":1742105550,"current_range_meters":12000,"station_id":"ce4bgup2rcd13ifvqcn0","pricing_plan_id":"cebpf4jnsgd1na2vs0mg"},{"bike_id":"43e238d9-8ae0-45b5-b091-a70c3ad7de96","system_id":"levelo_inurba_marseille","lat":43.29025,"lon":5.38654,"is_reserved":false,"is_disabled":false,"rental_uris":{"android":"levelo://app?vid=43e238d9-8ae0-45b5-b091-a70c3ad7de96","ios":"levelo://app?vid=43e238d9-8ae0-45b5-b091-a70c3ad7de96"},"vehicle_type_id":"4","last_reported":1742105550,"current_range_meters":12000,"station_id":"ce4bh4p2rcd13ifvqe0g","pricing_plan_id":"cebpf4jnsgd1na2vs0mg"},{"bike_id":"10a5dfbf-3aa3-4cf3-ac17-cd4d12fd6782","system_id":"levelo_inurba_marseille","lat":43.32322,"lon":5.36694,"is_reserved":false,"is_disabled":false,"rental_uris":{"android":"levelo://app?vid=10a5dfbf-3aa3-4cf3-ac17-cd4d12fd6782","ios":"levelo://app?vid=10a5dfbf-3aa3-4cf3-ac17-cd4d12fd6782"},"vehicle_type_id":"4","last_reported":1742105550,"current_range_meters":12000,"station_id":"","pricing_plan_id":"cebpf4jnsgd1na2vs0mg"},{"bike_id":"f07d3688-725c-41a9-996a-4490c49d77e9","system_id":"levelo_inurba_marseille","lat":43.29491,"lon":5.42291,"is_reserved":false,"is_disabled":false,"rental_uris":{"android":"levelo://app?vid=f07d3688-725c-41a9-996a-4490c49d77e9","ios":"levelo://app?vid=f07d3688-725c-41a9-996a-4490c49d77e9"},"vehicle_type_id":"4","last_reported":1742105550,"current_range_meters":12000,"station_id":"","pricing_plan_id":"cebpf4jnsgd1na2vs0mg"},{"bike_id":"3268e7a9-85dc-4e76-b2d6-ce004b62be95","system_id":"levelo_inurba_marseille","lat":43.26054,"lon":5.39402,"is_reserved":false,"is_disabled":false,"rental_uris":{"android":"levelo://app?vid=3268e7a9-85dc-4e76-b2d6-ce004b62be95","ios":"levelo://app?vid=3268e7a9-85dc-4e76-b2d6-ce004b62be95"},"vehicle_type_id":"4","last_reported":1742105550,"current_range_meters":12000,"station_id":"ce4bhh92rcd13ifvqfj0","pricing_plan_id":"cebpf4jnsgd1na2vs0mg"},{"bike_id":"1559ed1f-4039-425c-b3d7-1da981a02f75","system_id":"levelo_inurba_marseille","lat":43.23052,"lon":5.35513,"is_reserved":false,"is_disabled":false,"rental_uris":{"android":"levelo://app?vid=1559ed1f-4039-425c-b3d7-1da981a02f75","ios":"levelo://app?vid=1559ed1f-4039-425c-b3d7-1da981a02f75"},"vehicle_type_id":"4","last_reported":1742105550,"current_range_meters":12000,"station_id":"cpo3342slgdg3j2ifvpg","pricing_plan_id":"cebpf4jnsgd1na2vs0mg"},{"bike_id":"7ce91338-9f41-428e-ba9d-3166c279dfc0","system_id":"levelo_inurba_marseille","lat":43.274192,"lon":5.394006,"is_reserved":false,"is_disabled":false,"rental_uris":{"android":"levelo://app?vid=7ce91338-9f41-428e-ba9d-3166c279dfc0","ios":"levelo://app?vid=7ce91338-9f41-428e-ba9d-3166c279dfc0"},"vehicle_type_id":"4","last_reported":1742105550,"current_range_meters":12400,"station_id":"ce4bhdp2rcd13ifvqf20","pricing_plan_id":"cebpf4jnsgd1na2vs0mg"},{"bike_id":"edb15430-61d6-4a41-a23f-1601cb074b35","system_id":"levelo_inurba_marseille","lat":43.24669,"lon":5.381643,"is_reserved":false,"is_disabled":false,"rental_uris":{"android":"levelo://app?vid=edb15430-61d6-4a41-a23f-1601cb074b35","ios":"levelo://app?vid=edb15430-61d6-4a41-a23f-1601cb074b35"},"vehicle_type_id":"4","last_reported":1742105550,"current_range_meters":12400,"station_id":"ce4bhih2rcd13ifvqfr0","pricing_plan_id":"cebpf4jnsgd1na2vs0mg"},{"bike_id":"b087fba8-269e-4109-9c0a-77de2f9cf2f2","system_id":"levelo_inurba_marseille","lat":43.3234,"lon":5.36576,"is_reserved":false,"is_disabled":false,"rental_uris":{"android":"levelo://app?vid=b087fba8-269e-4109-9c0a-77de2f9cf2f2","ios":"levelo://app?vid=b087fba8-269e-4109-9c0a-77de2f9cf2f2"},"vehicle_type_id":"4","last_reported":1742105550,"current_range_meters":12400,"station_id":"ce4bhsh2rcd13ifvqi2g","pricing_plan_id":"cebpf4jnsgd1na2vs0mg"},{"bike_id":"b881a216-a8e0-47ad-9c6d-ce879391627c","system_id":"levelo_inurba_marseille","lat":43.29952,"lon":5.36599,"is_reserved":false,"is_disabled":true,"rental_uris":{"android":"levelo://app?vid=b881a216-a8e0-47ad-9c6d-ce879391627c","ios":"levelo://app?vid=b881a216-a8e0-47ad-9c6d-ce879391627c"},"vehicle_type_id":"4","last_reported":1742105550,"current_range_meters":12400,"station_id":"ce4bgm92rcd13ifvqbr0","pricing_plan_id":"cebpf4jnsgd1na2vs0mg"},{"bike_id":"a2d154dc-4f06-4a75-8ce7-188e454dc183","system_id":"levelo_inurba_marseille","lat":43.28459,"lon":5.35882,"is_reserved":false,"is_disabled":false,"rental_uris":{"android":"levelo://app?vid=a2d154dc-4f06-4a75-8ce7-188e454dc183","ios":"levelo://app?vid=a2d154dc-4f06-4a75-8ce7-188e454dc183"},"vehicle_type_id":"4","last_reported":1742105550,"current_range_meters":12400,"station_id":"ce4bhah2rcd13ifvqei0","pricing_plan_id":"cebpf4jnsgd1na2vs0mg"},{"bike_id":"00e7db59-0c40-496b-9dd3-52777264748b","system_id":"levelo_inurba_marseille","lat":43.28457,"lon":5.35911,"is_reserved":false,"is_disabled":false,"rental_uris":{"android":"levelo://app?vid=00e7db59-0c40-496b-9dd3-52777264748b","ios":"levelo://app?vid=00e7db59-0c40-496b-9dd3-52777264748b"},"vehicle_type_id":"4","last_reported":1742105550,"current_range_meters":12400,"station_id":"ce4bhah2rcd13ifvqei0","pricing_plan_id":"cebpf4jnsgd1na2vs0mg"},{"bike_id":"eb513426-d93c-4bf7-8db2-ca65749b4156","system_id":"levelo_inurba_marseille","lat":43.289285,"lon":5.383911,"is_reserved":false,"is_disabled":false,"rental_uris":{"android":"levelo://app?vid=eb513426-d93c-4bf7-8db2-ca65749b4156","ios":"levelo://app?vid=eb513426-d93c-4bf7-8db2-ca65749b4156"},"vehicle_type_id":"4","last_reported":1742105550,"current_range_meters":12400,"station_id":"ce4bh612rcd13ifvqe6g","pricing_plan_id":"cebpf4jnsgd1na2vs0mg"},{"bike_id":"9fb29984-4002-448d-833e-af2a3ce13467","system_id":"levelo_inurba_marseille","lat":43.29728,"lon":5.377,"is_reserved":false,"is_disabled":true,"rental_uris":{"android":"levelo://app?vid=9fb29984-4002-448d-833e-af2a3ce13467","ios":"levelo://app?vid=9fb29984-4002-448d-833e-af2a3ce13467"},"vehicle_type_id":"4","last_reported":1742105550,"current_range_meters":12400,"station_id":"ce4bgkh2rcd13ifvqbl0","pricing_plan_id":"cebpf4jnsgd1na2vs0mg"},{"bike_id":"a3a51211-f375-4ec8-8c79-002411d6b25b","system_id":"levelo_inurba_marseille","lat":43.27562,"lon":5.38441,"is_reserved":false,"is_disabled":false,"rental_uris":{"android":"levelo://app?vid=a3a51211-f375-4ec8-8c79-002411d6b25b","ios":"levelo://app?vid=a3a51211-f375-4ec8-8c79-002411d6b25b"},"vehicle_type_id":"4","last_reported":1742105550,"current_range_meters":12800,"station_id":"ce4bhh92rcd13ifvqfi0","pricing_plan_id":"cebpf4jnsgd1na2vs0mg"},{"bike_id":"dd13278e-8d1f-42d4-8b7b-3a1d74196da5","system_id":"levelo_inurba_marseille","lat":43.2847,"lon":5.35881,"is_reserved":false,"is_disabled":false,"rental_uris":{"android":"levelo://app?vid=dd13278e-8d1f-42d4-8b7b-3a1d74196da5","ios":"levelo://app?vid=dd13278e-8d1f-42d4-8b7b-3a1d74196da5"},"vehicle_type_id":"4","last_reported":1742105550,"current_range_meters":12800,"station_id":"ce4bhah2rcd13ifvqei0","pricing_plan_id":"cebpf4jnsgd1na2vs0mg"},{"bike_id":"6748acf3-f330-4f18-8531-112bd36e68be","system_id":"levelo_inurba_marseille","lat":43.31161,"lon":5.38736,"is_reserved":false,"is_disabled":false,"rental_uris":{"android":"levelo://app?vid=6748acf3-f330-4f18-8531-112bd36e68be","ios":"levelo://app?vid=6748acf3-f330-4f18-8531-112bd36e68be"},"vehicle_type_id":"4","last_reported":1742105550,"current_range_meters":12800,"station_id":"ce4bgv12rcd13ifvqcp0","pricing_plan_id":"cebpf4jnsgd1na2vs0mg"},{"bike_id":"298f6027-c19e-48d6-9e3b-008264dc74c8","system_id":"levelo_inurba_marseille","lat":43.27558,"lon":5.38413,"is_reserved":false,"is_disabled":false,"rental_uris":{"android":"levelo://app?vid=298f6027-c19e-48d6-9e3b-008264dc74c8","ios":"levelo://app?vid=298f6027-c19e-48d6-9e3b-008264dc74c8"},"vehicle_type_id":"4","last_reported":1742105550,"current_range_meters":12800,"station_id":"ce4bhh92rcd13ifvqfi0","pricing_plan_id":"cebpf4jnsgd1na2vs0mg"},{"bike_id":"1f9a9668-f20a-4b32-9dce-dfb024996834","system_id":"levelo_inurba_marseille","lat":43.29009,"lon":5.38646,"is_reserved":false,"is_disabled":true,"rental_uris":{"android":"levelo://app?vid=1f9a9668-f20a-4b32-9dce-dfb024996834","ios":"levelo://app?vid=1f9a9668-f20a-4b32-9dce-dfb024996834"},"vehicle_type_id":"4","last_reported":1742105550,"current_range_meters":12800,"station_id":"ce4bh4p2rcd13ifvqe0g","pricing_plan_id":"cebpf4jnsgd1na2vs0mg"},{"bike_id":"243d0cb2-0c37-4dc5-8f48-53c857829217","system_id":"levelo_inurba_marseille","lat":43.303119,"lon":5.369021,"is_reserved":false,"is_disabled":false,"rental_uris":{"android":"levelo://app?vid=243d0cb2-0c37-4dc5-8f48-53c857829217","ios":"levelo://app?vid=243d0cb2-0c37-4dc5-8f48-53c857829217"},"vehicle_type_id":"4","last_reported":1742105550,"current_range_meters":12800,"station_id":"ce4bgqh2rcd13ifvqc5g","pricing_plan_id":"cebpf4jnsgd1na2vs0mg"},{"bike_id":"e36bb259-d306-4fc1-93bd-307e3f002f20","system_id":"levelo_inurba_marseille","lat":43.30221,"lon":5.4001,"is_reserved":false,"is_disabled":false,"rental_uris":{"android":"levelo://app?vid=e36bb259-d306-4fc1-93bd-307e3f002f20","ios":"levelo://app?vid=e36bb259-d306-4fc1-93bd-307e3f002f20"},"vehicle_type_id":"4","last_reported":1742105550,"current_range_meters":13600,"station_id":"ce4bgvh2rcd13ifvqcs0","pricing_plan_id":"cebpf4jnsgd1na2vs0mg"},{"bike_id":"5a61a616-683f-484d-83ae-d7f61143d634","system_id":"levelo_inurba_marseille","lat":43.2952,"lon":5.42477,"is_reserved":false,"is_disabled":false,"rental_uris":{"android":"levelo://app?vid=5a61a616-683f-484d-83ae-d7f61143d634","ios":"levelo://app?vid=5a61a616-683f-484d-83ae-d7f61143d634"},"vehicle_type_id":"4","last_reported":1742105550,"current_range_meters":13600,"station_id":"","pricing_plan_id":"cebpf4jnsgd1na2vs0mg"},{"bike_id":"7cfe97bf-9009-419e-9a53-361ce612d663","system_id":"levelo_inurba_marseille","lat":43.28692,"lon":5.37401,"is_reserved":false,"is_disabled":true,"rental_uris":{"android":"levelo://app?vid=7cfe97bf-9009-419e-9a53-361ce612d663","ios":"levelo://app?vid=7cfe97bf-9009-419e-9a53-361ce612d663"},"vehicle_type_id":"4","last_reported":1742105550,"current_range_meters":13600,"station_id":"ce4bh3p2rcd13ifvqdq0","pricing_plan_id":"cebpf4jnsgd1na2vs0mg"},{"bike_id":"8a7afd3a-f457-4f41-aec7-7267469e5c57","system_id":"levelo_inurba_marseille","lat":43.249916,"lon":5.389292,"is_reserved":false,"is_disabled":false,"rental_uris":{"android":"levelo://app?vid=8a7afd3a-f457-4f41-aec7-7267469e5c57","ios":"levelo://app?vid=8a7afd3a-f457-4f41-aec7-7267469e5c57"},"vehicle_type_id":"4","last_reported":1742105550,"current_range_meters":13600,"station_id":"ce4bhgp2rcd13ifvqfd0","pricing_plan_id":"cebpf4jnsgd1na2vs0mg"},{"bike_id":"6f2aadaa-d8be-4737-b312-41d1575596f5","system_id":"levelo_inurba_marseille","lat":43.241689,"lon":5.364025,"is_reserved":false,"is_disabled":false,"rental_uris":{"android":"levelo://app?vid=6f2aadaa-d8be-4737-b312-41d1575596f5","ios":"levelo://app?vid=6f2aadaa-d8be-4737-b312-41d1575596f5"},"vehicle_type_id":"4","last_reported":1742105550,"current_range_meters":13600,"station_id":"cpo36qri1sfpv3e86is0","pricing_plan_id":"cebpf4jnsgd1na2vs0mg"},{"bike_id":"49fea2c2-9361-4fb5-954f-b44bbf354e43","system_id":"levelo_inurba_marseille","lat":43.32354,"lon":5.36766,"is_reserved":false,"is_disabled":false,"rental_uris":{"android":"levelo://app?vid=49fea2c2-9361-4fb5-954f-b44bbf354e43","ios":"levelo://app?vid=49fea2c2-9361-4fb5-954f-b44bbf354e43"},"vehicle_type_id":"4","last_reported":1742105550,"current_range_meters":13600,"station_id":"ce4bhsh2rcd13ifvqi2g","pricing_plan_id":"cebpf4jnsgd1na2vs0mg"},{"bike_id":"f2a391a3-d18b-462d-ab42-b7c2223bf635","system_id":"levelo_inurba_marseille","lat":43.258624,"lon":5.398966,"is_reserved":false,"is_disabled":false,"rental_uris":{"android":"levelo://app?vid=f2a391a3-d18b-462d-ab42-b7c2223bf635","ios":"levelo://app?vid=f2a391a3-d18b-462d-ab42-b7c2223bf635"},"vehicle_type_id":"4","last_reported":1742105550,"current_range_meters":14000,"station_id":"ce4bhl92rcd13ifvqghg","pricing_plan_id":"cebpf4jnsgd1na2vs0mg"},{"bike_id":"aed74199-7807-44bd-b02a-5f8e0602dcc2","system_id":"levelo_inurba_marseille","lat":43.31266,"lon":5.40175,"is_reserved":false,"is_disabled":false,"rental_uris":{"android":"levelo://app?vid=aed74199-7807-44bd-b02a-5f8e0602dcc2","ios":"levelo://app?vid=aed74199-7807-44bd-b02a-5f8e0602dcc2"},"vehicle_type_id":"4","last_reported":1742105550,"current_range_meters":14000,"station_id":"ce4bh092rcd13ifvqd30","pricing_plan_id":"cebpf4jnsgd1na2vs0mg"},{"bike_id":"ce157c99-2b38-44c1-b6a5-db708ae225d5","system_id":"levelo_inurba_marseille","lat":43.24069,"lon":5.37745,"is_reserved":false,"is_disabled":false,"rental_uris":{"android":"levelo://app?vid=ce157c99-2b38-44c1-b6a5-db708ae225d5","ios":"levelo://app?vid=ce157c99-2b38-44c1-b6a5-db708ae225d5"},"vehicle_type_id":"4","last_reported":1742105550,"current_range_meters":14000,"station_id":"ce4bhnp2rcd13ifvqgvg","pricing_plan_id":"cebpf4jnsgd1na2vs0mg"},{"bike_id":"760b38d2-79b4-4c3c-b4bb-02586e46e837","system_id":"levelo_inurba_marseille","lat":43.30805,"lon":5.38161,"is_reserved":false,"is_disabled":true,"rental_uris":{"android":"levelo://app?vid=760b38d2-79b4-4c3c-b4bb-02586e46e837","ios":"levelo://app?vid=760b38d2-79b4-4c3c-b4bb-02586e46e837"},"vehicle_type_id":"4","last_reported":1742105550,"current_range_meters":14000,"station_id":"ce4bgt12rcd13ifvqce0","pricing_plan_id":"cebpf4jnsgd1na2vs0mg"},{"bike_id":"ea3faa2e-2727-4cd3-a354-57574da4893b","system_id":"levelo_inurba_marseille","lat":43.241652,"lon":5.364014,"is_reserved":false,"is_disabled":false,"rental_uris":{"android":"levelo://app?vid=ea3faa2e-2727-4cd3-a354-57574da4893b","ios":"levelo://app?vid=ea3faa2e-2727-4cd3-a354-57574da4893b"},"vehicle_type_id":"4","last_reported":1742105550,"current_range_meters":14000,"station_id":"cpo36qri1sfpv3e86is0","pricing_plan_id":"cebpf4jnsgd1na2vs0mg"},{"bike_id":"c68d68c2-ac2f-4c31-889e-0d5a224874ff","system_id":"levelo_inurba_marseille","lat":43.313274,"lon":5.396938,"is_reserved":false,"is_disabled":false,"rental_uris":{"android":"levelo://app?vid=c68d68c2-ac2f-4c31-889e-0d5a224874ff","ios":"levelo://app?vid=c68d68c2-ac2f-4c31-889e-0d5a224874ff"},"vehicle_type_id":"4","last_reported":1742105550,"current_range_meters":14000,"station_id":"ce4bgvp2rcd13ifvqcu0","pricing_plan_id":"cebpf4jnsgd1na2vs0mg"},{"bike_id":"41d856e8-014d-42b4-85e9-2a0a980f469f","system_id":"levelo_inurba_marseille","lat":43.23181,"lon":5.3556,"is_reserved":false,"is_disabled":false,"rental_uris":{"android":"levelo://app?vid=41d856e8-014d-42b4-85e9-2a0a980f469f","ios":"levelo://app?vid=41d856e8-014d-42b4-85e9-2a0a980f469f"},"vehicle_type_id":"4","last_reported":1742105550,"current_range_meters":14400,"station_id":"ce4bhu92rcd13ifvqi70","pricing_plan_id":"cebpf4jnsgd1na2vs0mg"},{"bike_id":"9390d6a8-c9ea-41fe-8da0-48e992b63d01","system_id":"levelo_inurba_marseille","lat":43.24661,"lon":5.38159,"is_reserved":false,"is_disabled":false,"rental_uris":{"android":"levelo://app?vid=9390d6a8-c9ea-41fe-8da0-48e992b63d01","ios":"levelo://app?vid=9390d6a8-c9ea-41fe-8da0-48e992b63d01"},