{"last_updated":1704906422,"ttl":30,"version":"2.2","data":{"bikes":[{"bike_id":"4b6e1dc2-a3ab-4749-bc7c-43f578d76344","system_id":"levelo_inurba_marseille","lat":43.30915,"lon":5.36851,"is_reserved":false,"is_disabled":false,"rental_uris":{"android":"levelo://app?vid=4b6e1dc2-a3ab-4749-bc7c-43f578d76344","ios":"levelo://app?vid=4b6e1dc2-a3ab-4749-bc7c-43f578d76344"},"vehicle_type_id":"4","last_reported":1704906422,"current_range_meters":31600,"station_id":"ce4bgn92rcd13ifvqbvg","pricing_plan_id":"free"},{"bike_id":"0ef08877-2f61-4e12-bc62-676dfcf0c455","system_id":"levelo_inurba_marseille","lat":43.309076,"lon":5.368465,"is_reserved":false,"is_disabled":false,"rental_uris":{"android":"levelo://app?vid=0ef08877-2f61-4e12-bc62-676dfcf0c455","ios":"levelo://app?vid=0ef08877-2f61-4e12-bc62-676dfcf0c455"},"vehicle_type_id":"4","last_reported":1704906422,"current_range_meters":31600,"station_id":"ce4bgn92rcd13ifvqbvg","pricing_plan_id":"free"},{"bike_id":"a18c9f18-dd23-4fa3-ae4c-750a813ec2dd","system_id":"levelo_inurba_marseille","lat":43.313604,"lon":5.37344,"is_reserved":false,"is_disabled":false,"rental_uris":{"android":"levelo://app?vid=a18c9f18-dd23-4fa3-ae4c-750a813ec2dd","ios":"levelo://app?vid=a18c9f18-dd23-4fa3-ae4c-750a813ec2dd"},"vehicle_type_id":"4","last_reported":1704906422,"current_range_meters":1200,"station_id":"","pricing_plan_id":"free"},{"bike_id":"7b3b699f-3f99-4e35-89af-d56ef1f73cc7","system_id":"levelo_inurba_marseille","lat":43.31531,"lon":5.37284,"is_reserved":false,"is_disabled":false,"rental_uris":{"android":"levelo://app?vid=7b3b699f-3f99-4e35-89af-d56ef1f73cc7","ios":"levelo://app?vid=7b3b699f-3f99-4e35-89af-d56ef1f73cc7"},"vehicle_type_id":"4","last_reported":1704906422,"current_range_meters":18800,"station_id":"","pricing_plan_id":"free"},{"bike_id":"7ea78f98-f736-46aa-b8e0-7b70196c1152","system_id":"levelo_inurba_marseille","lat":43.31501,"lon":5.3731,"is_reserved":false,"is_disabled":false,"rental_uris":{"android":"levelo://app?vid=7ea78f98-f736-46aa-b8e0-7b70196c1152","ios":"levelo://app?vid=7ea78f98-f736-46aa-b8e0-7b70196c1152"},"vehicle_type_id":"4","last_reported":1704906422,"current_range_meters":0,"station_id":"ce4bgt12rcd13ifvqcd0","pricing_plan_id":"free"},{"bike_id":"0185ddeb-087b-4a98-9650-e45785b415da","system_id":"levelo_inurba_marseille","lat":43.309055,"lon":5.37184,"is_reserved":false,"is_disabled":false,"rental_uris":{"android":"levelo://app?vid=0185ddeb-087b-4a98-9650-e45785b415da","ios":"levelo://app?vid=0185ddeb-087b-4a98-9650-e45785b415da"},"vehicle_type_id":"4","last_reported":1704906422,"current_range_meters":13200,"station_id":"ce4bguh2rcd13ifvqckg","pricing_plan_id":"free"},{"bike_id":"96e41e62-928d-421c-bcd3-8fe116dab8ce","system_id":"levelo_inurba_marseille","lat":43.309039,"lon":5.371797,"is_reserved":false,"is_disabled":false,"rental_uris":{"android":"levelo://app?vid=96e41e62-928d-421c-bcd3-8fe116dab8ce","ios":"levelo://app?vid=96e41e62-928d-421c-bcd3-8fe116dab8ce"},"vehicle_type_id":"4","last_reported":1704906422,"current_range_meters":27200,"station_id":"ce4bguh2rcd13ifvqckg","pricing_plan_id":"free"},{"bike_id":"faf36a57-daf3-4815-b65f-d52938c50dc5","system_id":"levelo_inurba_marseille","lat":43.309039,"lon":5.371797,"is_reserved":false,"is_disabled":false,"rental_uris":{"android":"levelo://app?vid=faf36a57-daf3-4815-b65f-d52938c50dc5","ios":"levelo://app?vid=faf36a57-daf3-4815-b65f-d52938c50dc5"},"vehicle_type_id":"4","last_reported":1704906422,"current_range_meters":20800,"station_id":"ce4bguh2rcd13ifvqckg","pricing_plan_id":"free"},{"bike_id":"d62fa29d-5221-421d-bc91-de284abae286","system_id":"levelo_inurba_marseille","lat":43.30528,"lon":5.36716,"is_reserved":false,"is_disabled":false,"rental_uris":{"android":"levelo://app?vid=d62fa29d-5221-421d-bc91-de284abae286","ios":"levelo://app?vid=d62fa29d-5221-421d-bc91-de284abae286"},"vehicle_type_id":"4","last_reported":1704906422,"current_range_meters":8400,"station_id":"ce4bgrp2rcd13ifvqc9g","pricing_plan_id":"free"},{"bike_id":"98cb0443-4bf9-48f7-82db-85b01bacce21","system_id":"levelo_inurba_marseille","lat":43.306028,"lon":5.372379,"is_reserved":false,"is_disabled":false,"rental_uris":{"android":"levelo://app?vid=98cb0443-4bf9-48f7-82db-85b01bacce21","ios":"levelo://app?vid=98cb0443-4bf9-48f7-82db-85b01bacce21"},"vehicle_type_id":"4","last_reported":1704906422,"current_range_meters":26400,"station_id":"ce4bgqh2rcd13ifvqc4g","pricing_plan_id":"free"},{"bike_id":"1526b2c5-35be-4568-bdbb-98921410343c","system_id":"levelo_inurba_marseille","lat":43.307945,"lon":5.376487,"is_reserved":false,"is_disabled":false,"rental_uris":{"android":"levelo://app?vid=1526b2c5-35be-4568-bdbb-98921410343c","ios":"levelo://app?vid=1526b2c5-35be-4568-bdbb-98921410343c"},"vehicle_type_id":"4","last_reported":1704906422,"current_range_meters":25200,"station_id":"ce4bgv92rcd13ifvqcq0","pricing_plan_id":"free"},{"bike_id":"df3816d3-56be-41ae-b13d-6f8c12bf94a3","system_id":"levelo_inurba_marseille","lat":43.307945,"lon":5.376487,"is_reserved":false,"is_disabled":false,"rental_uris":{"android":"levelo://app?vid=df3816d3-56be-41ae-b13d-6f8c12bf94a3","ios":"levelo://app?vid=df3816d3-56be-41ae-b13d-6f8c12bf94a3"},"vehicle_type_id":"4","last_reported":1704906422,"current_range_meters":26400,"station_id":"ce4bgv92rcd13ifvqcq0","pricing_plan_id":"free"},{"bike_id":"76214b38-9e6e-4bad-96c1-613e7fe752be","system_id":"levelo_inurba_marseille","lat":43.31688,"lon":5.3774,"is_reserved":false,"is_disabled":false,"rental_uris":{"android":"levelo://app?vid=76214b38-9e6e-4bad-96c1-613e7fe752be","ios":"levelo://app?vid=76214b38-9e6e-4bad-96c1-613e7fe752be"},"vehicle_type_id":"4","last_reported":1704906422,"current_range_meters":2400,"station_id":"ce4bgth2rcd13ifvqch0","pricing_plan_id":"free"},{"bike_id":"4fb6c33f-6a2d-4cb9-b5f5-71a4f8b0b1b3","system_id":"levelo_inurba_marseille","lat":43.317075,"lon":5.377367,"is_reserved":false,"is_disabled":false,"rental_uris":{"android":"levelo://app?vid=4fb6c33f-6a2d-4cb9-b5f5-71a4f8b0b1b3","ios":"levelo://app?vid=4fb6c33f-6a2d-4cb9-b5f5-71a4f8b0b1b3"},"vehicle_type_id":"4","last_reported":1704906422,"current_range_meters":26800,"station_id":"ce4bgth2rcd13ifvqch0","pricing_plan_id":"free"},{"bike_id":"02bd2f5d-3028-4510-a827-0528b23466f8","system_id":"levelo_inurba_marseille","lat":43.317015,"lon":5.37752,"is_reserved":false,"is_disabled":false,"rental_uris":{"android":"levelo://app?vid=02bd2f5d-3028-4510-a827-0528b23466f8","ios":"levelo://app?vid=02bd2f5d-3028-4510-a827-0528b23466f8"},"vehicle_type_id":"4","last_reported":1704906422,"current_range_meters":6000,"station_id":"ce4bgth2rcd13ifvqch0","pricing_plan_id":"free"},{"bike_id":"dd5387d2-458c-4283-9f14-5702c861ee74","system_id":"levelo_inurba_marseille","lat":43.317075,"lon":5.377367,"is_reserved":false,"is_disabled":false,"rental_uris":{"android":"levelo://app?vid=dd5387d2-458c-4283-9f14-5702c861ee74","ios":"levelo://app?vid=dd5387d2-458c-4283-9f14-5702c861ee74"},"vehicle_type_id":"4","last_reported":1704906422,"current_range_meters":31600,"station_id":"ce4bgth2rcd13ifvqch0","pricing_plan_id":"free"},{"bike_id":"08bfdbf3-d1a7-4f71-a445-3b9b4b73206d","system_id":"levelo_inurba_marseille","lat":43.303091,"lon":5.369134,"is_reserved":false,"is_disabled":false,"rental_uris":{"android":"levelo://app?vid=08bfdbf3-d1a7-4f71-a445-3b9b4b73206d","ios":"levelo://app?vid=08bfdbf3-d1a7-4f71-a445-3b9b4b73206d"},"vehicle_type_id":"4","last_reported":1704906422,"current_range_meters":21200,"station_id":"ce4bgqh2rcd13ifvqc5g","pricing_plan_id":"free"},{"bike_id":"6f3c2b8c-46cb-4b99-9ab3-ae5ac9928f90","system_id":"levelo_inurba_marseille","lat":43.30304,"lon":5.368987,"is_reserved":false,"is_disabled":false,"rental_uris":{"android":"levelo://app?vid=6f3c2b8c-46cb-4b99-9ab3-ae5ac9928f90","ios":"levelo://app?vid=6f3c2b8c-46cb-4b99-9ab3-ae5ac9928f90"},"vehicle_type_id":"4","last_reported":1704906422,"current_range_meters":30800,"station_id":"ce4bgqh2rcd13ifvqc5g","pricing_plan_id":"free"},{"bike_id":"5ed3f59f-d48e-4bab-bc3c-234b662415de","system_id":"levelo_inurba_marseille","lat":43.301939,"lon":5.366286,"is_reserved":false,"is_disabled":false,"rental_uris":{"android":"levelo://app?vid=5ed3f59f-d48e-4bab-bc3c-234b662415de","ios":"levelo://app?vid=5ed3f59f-d48e-4bab-bc3c-234b662415de"},"vehicle_type_id":"4","last_reported":1704906422,"current_range_meters":30400,"station_id":"ce4bgrh2rcd13ifvqc8g","pricing_plan_id":"free"},{"bike_id":"04a024e0-4b53-4c20-8352-c0f508231d08","system_id":"levelo_inurba_marseille","lat":43.308012,"lon":5.381511,"is_reserved":false,"is_disabled":false,"rental_uris":{"android":"levelo://app?vid=04a024e0-4b53-4c20-8352-c0f508231d08","ios":"levelo://app?vid=04a024e0-4b53-4c20-8352-c0f508231d08"},"vehicle_type_id":"4","last_reported":1704906422,"current_range_meters":18800,"station_id":"ce4bgt12rcd13ifvqce0","pricing_plan_id":"free"},{"bike_id":"c2416e95-ee83-40ef-a1da-4bb26caeaf38","system_id":"levelo_inurba_marseille","lat":43.308012,"lon":5.381511,"is_reserved":false,"is_disabled":false,"rental_uris":{"android":"levelo://app?vid=c2416e95-ee83-40ef-a1da-4bb26caeaf38","ios":"levelo://app?vid=c2416e95-ee83-40ef-a1da-4bb26caeaf38"},"vehicle_type_id":"4","last_reported":1704906422,"current_range_meters":21200,"station_id":"ce4bgt12rcd13ifvqce0","pricing_plan_id":"free"},{"bike_id":"55f6bfba-c9c9-4912-9af1-217120dcea7b","system_id":"levelo_inurba_marseille","lat":43.300827,"lon":5.365856,"is_reserved":false,"is_disabled":false,"rental_uris":{"android":"levelo://app?vid=55f6bfba-c9c9-4912-9af1-217120dcea7b","ios":"levelo://app?vid=55f6bfba-c9c9-4912-9af1-217120dcea7b"},"vehicle_type_id":"4","last_reported":1704906422,"current_range_meters":12400,"station_id":"","pricing_plan_id":"free"},{"bike_id":"27050468-80ab-4876-b586-40007ecb05d7","system_id":"levelo_inurba_marseille","lat":43.304606,"lon":5.379026,"is_reserved":false,"is_disabled":false,"rental_uris":{"android":"levelo://app?vid=27050468-80ab-4876-b586-40007ecb05d7","ios":"levelo://app?vid=27050468-80ab-4876-b586-40007ecb05d7"},"vehicle_type_id":"4","last_reported":1704906422,"current_range_meters":18800,"station_id":"ce4bgup2rcd13ifvqcn0","pricing_plan_id":"free"},{"bike_id":"592186ea-9749-4077-a128-39abeba103d1","system_id":"levelo_inurba_marseille","lat":43.32475,"lon":5.36571,"is_reserved":false,"is_disabled":false,"rental_uris":{"android":"levelo://app?vid=592186ea-9749-4077-a128-39abeba103d1","ios":"levelo://app?vid=592186ea-9749-4077-a128-39abeba103d1"},"vehicle_type_id":"4","last_reported":1704906422,"current_range_meters":31200,"station_id":"ce4bhs12rcd13ifvqhvg","pricing_plan_id":"free"},{"bike_id":"89beb1a2-23eb-45e2-8353-0e17f68a926f","system_id":"levelo_inurba_marseille","lat":43.301429,"lon":5.37413,"is_reserved":false,"is_disabled":false,"rental_uris":{"android":"levelo://app?vid=89beb1a2-23eb-45e2-8353-0e17f68a926f","ios":"levelo://app?vid=89beb1a2-23eb-45e2-8353-0e17f68a926f"},"vehicle_type_id":"4","last_reported":1704906422,"current_range_meters":27200,"station_id":"ce4bgs92rcd13ifvqcc0","pricing_plan_id":"free"},{"bike_id":"651d9b4e-0831-4231-aff7-aa4c04676e3c","system_id":"levelo_inurba_marseille","lat":43.30143,"lon":5.37413,"is_reserved":false,"is_disabled":false,"rental_uris":{"android":"levelo://app?vid=651d9b4e-0831-4231-aff7-aa4c04676e3c","ios":"levelo://app?vid=651d9b4e-0831-4231-aff7-aa4c04676e3c"},"vehicle_type_id":"4","last_reported":1704906422,"current_range_meters":31600,"station_id":"ce4bgs92rcd13ifvqcc0","pricing_plan_id":"free"},{"bike_id":"a068158a-9173-4c1d-8787-ce5d6e910f70","system_id":"levelo_inurba_marseille","lat":43.301429,"lon":5.37413,"is_reserved":false,"is_disabled":false,"rental_uris":{"android":"levelo://app?vid=a068158a-9173-4c1d-8787-ce5d6e910f70","ios":"levelo://app?vid=a068158a-9173-4c1d-8787-ce5d6e910f70"},"vehicle_type_id":"4","last_reported":1704906422,"current_range_meters":19600,"station_id":"ce4bgs92rcd13ifvqcc0","pricing_plan_id":"free"},{"bike_id":"601df30f-393f-46d0-bf48-af3987c8f1a9","system_id":"levelo_inurba_marseille","lat":43.30143,"lon":5.37413,"is_reserved":false,"is_disabled":false,"rental_uris":{"android":"levelo://app?vid=601df30f-393f-46d0-bf48-af3987c8f1a9","ios":"levelo://app?vid=601df30f-393f-46d0-bf48-af3987c8f1a9"},"vehicle_type_id":"4","last_reported":1704906422,"current_range_meters":15200,"station_id":"ce4bgs92rcd13ifvqcc0","pricing_plan_id":"free"},{"bike_id":"f8610476-36bf-463a-848b-e94b63a4af72","system_id":"levelo_inurba_marseille","lat":43.319935,"lon":5.381699,"is_reserved":false,"is_disabled":false,"rental_uris":{"android":"levelo://app?vid=f8610476-36bf-463a-848b-e94b63a4af72","ios":"levelo://app?vid=f8610476-36bf-463a-848b-e94b63a4af72"},"vehicle_type_id":"4","last_reported":1704906422,"current_range_meters":20000,"station_id":"ce4bhr12rcd13ifvqhpg","pricing_plan_id":"free"},{"bike_id":"99d3f481-c70e-4d1c-9ab8-aac121e1bbd9","system_id":"levelo_inurba_marseille","lat":43.319935,"lon":5.381699,"is_reserved":false,"is_disabled":false,"rental_uris":{"android":"levelo://app?vid=99d3f481-c70e-4d1c-9ab8-aac121e1bbd9","ios":"levelo://app?vid=99d3f481-c70e-4d1c-9ab8-aac121e1bbd9"},"vehicle_type_id":"4","last_reported":1704906422,"current_range_meters":17600,"station_id":"ce4bhr12rcd13ifvqhpg","pricing_plan_id":"free"},{"bike_id":"b684d691-467e-460f-ba67-e75a660a7265","system_id":"levelo_inurba_marseille","lat":43.319935,"lon":5.381699,"is_reserved":false,"is_disabled":false,"rental_uris":{"android":"levelo://app?vid=b684d691-467e-460f-ba67-e75a660a7265","ios":"levelo://app?vid=b684d691-467e-460f-ba67-e75a660a7265"},"vehicle_type_id":"4","last_reported":1704906422,"current_range_meters":24000,"station_id":"ce4bhr12rcd13ifvqhpg","pricing_plan_id":"free"},{"bike_id":"48609f9a-0ce0-4ca4-a91d-2c5a5c59ae6d","system_id":"levelo_inurba_marseille","lat":43.313571,"lon":5.384829,"is_reserved":false,"is_disabled":false,"rental_uris":{"android":"levelo://app?vid=48609f9a-0ce0-4ca4-a91d-2c5a5c59ae6d","ios":"levelo://app?vid=48609f9a-0ce0-4ca4-a91d-2c5a5c59ae6d"},"vehicle_type_id":"4","last_reported":1704906422,"current_range_meters":10400,"station_id":"ce4bgt92rcd13ifvqcf0","pricing_plan_id":"free"},{"bike_id":"908e7970-8673-4c27-a9ba-b952f9479dff","system_id":"levelo_inurba_marseille","lat":43.31358,"lon":5.38495,"is_reserved":false,"is_disabled":false,"rental_uris":{"android":"levelo://app?vid=908e7970-8673-4c27-a9ba-b952f9479dff","ios":"levelo://app?vid=908e7970-8673-4c27-a9ba-b952f9479dff"},"vehicle_type_id":"4","last_reported":1704906422,"current_range_meters":400,"station_id":"ce4bgt92rcd13ifvqcf0","pricing_plan_id":"free"},{"bike_id":"3f492e43-d29a-42dc-b178-704ad2ed2df9","system_id":"levelo_inurba_marseille","lat":43.299724,"lon":5.371829,"is_reserved":false,"is_disabled":false,"rental_uris":{"android":"levelo://app?vid=3f492e43-d29a-42dc-b178-704ad2ed2df9","ios":"levelo://app?vid=3f492e43-d29a-42dc-b178-704ad2ed2df9"},"vehicle_type_id":"4","last_reported":1704906422,"current_range_meters":31600,"station_id":"ce4bgr92rcd13ifvqc7g","pricing_plan_id":"free"},{"bike_id":"2037f85c-a29a-41c5-848a-84e7556d894c","system_id":"levelo_inurba_marseille","lat":43.313571,"lon":5.384829,"is_reserved":false,"is_disabled":false,"rental_uris":{"android":"levelo://app?vid=2037f85c-a29a-41c5-848a-84e7556d894c","ios":"levelo://app?vid=2037f85c-a29a-41c5-848a-84e7556d894c"},"vehicle_type_id":"4","last_reported":1704906422,"current_range_meters":29600,"station_id":"ce4bgt92rcd13ifvqcf0","pricing_plan_id":"free"},{"bike_id":"d1204c53-6399-4e3b-8082-c34b00f92f1b","system_id":"levelo_inurba_marseille","lat":43.299724,"lon":5.371829,"is_reserved":false,"is_disabled":false,"rental_uris":{"android":"levelo://app?vid=d1204c53-6399-4e3b-8082-c34b00f92f1b","ios":"levelo://app?vid=d1204c53-6399-4e3b-8082-c34b00f92f1b"},"vehicle_type_id":"4","last_reported":1704906422,"current_range_meters":8000,"station_id":"ce4bgr92rcd13ifvqc7g","pricing_plan_id":"free"},{"bike_id":"1b81f974-04a7-4c56-8e21-9f0261285010","system_id":"levelo_inurba_marseille","lat":43.299222,"lon":5.365554,"is_reserved":false,"is_disabled":false,"rental_uris":{"android":"levelo://app?vid=1b81f974-04a7-4c56-8e21-9f0261285010","ios":"levelo://app?vid=1b81f974-04a7-4c56-8e21-9f0261285010"},"vehicle_type_id":"4","last_reported":1704906422,"current_range_meters":16800,"station_id":"ce4bgm92rcd13ifvqbr0","pricing_plan_id":"free"},{"bike_id":"ab935591-9bf9-44a9-b6cf-aa4613b3fc36","system_id":"levelo_inurba_marseille","lat":43.299724,"lon":5.371829,"is_reserved":false,"is_disabled":false,"rental_uris":{"android":"levelo://app?vid=ab935591-9bf9-44a9-b6cf-aa4613b3fc36","ios":"levelo://app?vid=ab935591-9bf9-44a9-b6cf-aa4613b3fc36"},"vehicle_type_id":"4","last_reported":1704906422,"current_range_meters":10000,"station_id":"ce4bgr92rcd13ifvqc7g","pricing_plan_id":"free"},{"bike_id":"850059aa-6dee-4f08-ab39-49441383cbcd","system_id":"levelo_inurba_marseille","lat":43.299209,"lon":5.365547,"is_reserved":false,"is_disabled":false,"rental_uris":{"android":"levelo://app?vid=850059aa-6dee-4f08-ab39-49441383cbcd","ios":"levelo://app?vid=850059aa-6dee-4f08-ab39-49441383cbcd"},"vehicle_type_id":"4","last_reported":1704906422,"current_range_meters":19600,"station_id":"ce4bgm92rcd13ifvqbr0","pricing_plan_id":"free"},{"bike_id":"fe8e4414-d28d-462d-835c-8bc2fab66661","system_id":"levelo_inurba_marseille","lat":43.299724,"lon":5.371829,"is_reserved":false,"is_disabled":false,"rental_uris":{"android":"levelo://app?vid=fe8e4414-d28d-462d-835c-8bc2fab66661","ios":"levelo://app?vid=fe8e4414-d28d-462d-835c-8bc2fab66661"},"vehicle_type_id":"4","last_reported":1704906422,"current_range_meters":8800,"station_id":"ce4bgr92rcd13ifvqc7g","pricing_plan_id":"free"},{"bike_id":"bbe1dca9-b476-444e-adb9-3278d795f5c9","system_id":"levelo_inurba_marseille","lat":43.299724,"lon":5.371829,"is_reserved":false,"is_disabled":false,"rental_uris":{"android":"levelo://app?vid=bbe1dca9-b476-444e-adb9-3278d795f5c9","ios":"levelo://app?vid=bbe1dca9-b476-444e-adb9-3278d795f5c9"},"vehicle_type_id":"4","last_reported":1704906422,"current_range_meters":31600,"station_id":"ce4bgr92rcd13ifvqc7g","pricing_plan_id":"free"},{"bike_id":"99ca1916-c57a-4c17-a583-7f8ba7d5acf9","system_id":"levelo_inurba_marseille","lat":43.299209,"lon":5.365547,"is_reserved":false,"is_disabled":false,"rental_uris":{"android":"levelo://app?vid=99ca1916-c57a-4c17-a583-7f8ba7d5acf9","ios":"levelo://app?vid=99ca1916-c57a-4c17-a583-7f8ba7d5acf9"},"vehicle_type_id":"4","last_reported":1704906422,"current_range_meters":21600,"station_id":"ce4bgm92rcd13ifvqbr0","pricing_plan_id":"free"},{"bike_id":"c6f9859b-e807-4392-a2dc-3eed9cafd896","system_id":"levelo_inurba_marseille","lat":43.299724,"lon":5.371829,"is_reserved":false,"is_disabled":false,"rental_uris":{"android":"levelo://app?vid=c6f9859b-e807-4392-a2dc-3eed9cafd896","ios":"levelo://app?vid=c6f9859b-e807-4392-a2dc-3eed9cafd896"},"vehicle_type_id":"4","last_reported":1704906422,"current_range_meters":28400,"station_id":"ce4bgr92rcd13ifvqc7g","pricing_plan_id":"free"},{"bike_id":"b2a895a0-04eb-4f19-b95d-d13639c2dedd","system_id":"levelo_inurba_marseille","lat":43.299724,"lon":5.371829,"is_reserved":false,"is_disabled":false,"rental_uris":{"android":"levelo://app?vid=b2a895a0-04eb-4f19-b95d-d13639c2dedd","ios":"levelo://app?vid=b2a895a0-04eb-4f19-b95d-d13639c2dedd"},"vehicle_type_id":"4","last_reported":1704906422,"current_range_meters":32000,"station_id":"ce4bgr92rcd13ifvqc7g","pricing_plan_id":"free"},{"bike_id":"314f905a-4b50-49a8-b916-9760950461cc","system_id":"levelo_inurba_marseille","lat":43.299724,"lon":5.371829,"is_reserved":false,"is_disabled":false,"rental_uris":{"android":"levelo://app?vid=314f905a-4b50-49a8-b916-9760950461cc","ios":"levelo://app?vid=314f905a-4b50-49a8-b916-9760950461cc"},"vehicle_type_id":"4","last_reported":1704906422,"current_range_meters":32000,"station_id":"ce4bgr92rcd13ifvqc7g","pricing_plan_id":"free"},{"bike_id":"787af485-e2b8-49eb-9d6b-1b8a93f01f0e","system_id":"levelo_inurba_marseille","lat":43.299209,"lon":5.365547,"is_reserved":false,"is_disabled":false,"rental_uris":{"android":"levelo://app?vid=787af485-e2b8-49eb-9d6b-1b8a93f01f0e","ios":"levelo://app?vid=787af485-e2b8-49eb-9d6b-1b8a93f01f0e"},"vehicle_type_id":"4","last_reported":1704906422,"current_range_meters":11600,"station_id":"ce4bgm92rcd13ifvqbr0","pricing_plan_id":"free"},{"bike_id":"eb4827a0-9d69-48bd-8898-3e6f89f12c66","system_id":"levelo_inurba_marseille","lat":43.299209,"lon":5.365547,"is_reserved":false,"is_disabled":false,"rental_uris":{"android":"levelo://app?vid=eb4827a0-9d69-48bd-8898-3e6f89f12c66","ios":"levelo://app?vid=eb4827a0-9d69-48bd-8898-3e6f89f12c66"},"vehicle_type_id":"4","last_reported":1704906422,"current_range_meters":20000,"station_id":"ce4bgm92rcd13ifvqbr0","pricing_plan_id":"free"},{"bike_id":"5e3ae350-92fc-4f1a-91e5-fca6c6157e9c","system_id":"levelo_inurba_marseille","lat":43.314305,"lon":5.385497,"is_reserved":false,"is_disabled":false,"rental_uris":{"android":"levelo://app?vid=5e3ae350-92fc-4f1a-91e5-fca6c6157e9c","ios":"levelo://app?vid=5e3ae350-92fc-4f1a-91e5-fca6c6157e9c"},"vehicle_type_id":"4","last_reported":1704906422,"current_range_meters":8000,"station_id":"","pricing_plan_id":"free"},{"bike_id":"a3eb446b-c211-4940-a3c5-46335af9ce65","system_id":"levelo_inurba_marseille","lat":43.298433,"lon":5.362774,"is_reserved":false,"is_disabled":false,"rental_uris":{"android":"levelo://app?vid=a3eb446b-c211-4940-a3c5-46335af9ce65","ios":"levelo://app?vid=a3eb446b-c211-4940-a3c5-46335af9ce65"},"vehicle_type_id":"4","last_reported":1704906422,"current_range_meters":17200,"station_id":"ce4bgpp2rcd13ifvqc3g","pricing_plan_id":"free"},{"bike_id":"e473ced8-923b-437b-97bf-2e5990400ae9","system_id":"levelo_inurba_marseille","lat":43.305364,"lon":5.384119,"is_reserved":false,"is_disabled":false,"rental_uris":{"android":"levelo://app?vid=e473ced8-923b-437b-97bf-2e5990400ae9","ios":"levelo://app?vid=e473ced8-923b-437b-97bf-2e5990400ae9"},"vehicle_type_id":"4","last_reported":1704906422,"current_range_meters":26400,"station_id":"ce4bgg92rcd13ifvqb30","pricing_plan_id":"free"},{"bike_id":"d681b643-9357-413d-8d3c-fb7ef97e932a","system_id":"levelo_inurba_marseille","lat":43.305364,"lon":5.384119,"is_reserved":false,"is_disabled":false,"rental_uris":{"android":"levelo://app?vid=d681b643-9357-413d-8d3c-fb7ef97e932a","ios":"levelo://app?vid=d681b643-9357-413d-8d3c-fb7ef97e932a"},"vehicle_type_id":"4","last_reported":1704906422,"current_range_meters":14000,"station_id":"ce4bgg92rcd13ifvqb30","pricing_plan_id":"free"},{"bike_id":"0a4c8bd4-ec03-4f8d-b71a-478a46f333fa","system_id":"levelo_inurba_marseille","lat":43.298433,"lon":5.362774,"is_reserved":false,"is_disabled":false,"rental_uris":{"android":"levelo://app?vid=0a4c8bd4-ec03-4f8d-b71a-478a46f333fa","ios":"levelo://app?vid=0a4c8bd4-ec03-4f8d-b71a-478a46f333fa"},"vehicle_type_id":"4","last_reported":1704906422,"current_range_meters":9200,"station_id":"ce4bgpp2rcd13ifvqc3g","pricing_plan_id":"free"},{"bike_id":"a6021900-4850-4e39-95ba-ceb590a0b42b","system_id":"levelo_inurba_marseille","lat":43.298433,"lon":5.362774,"is_reserved":false,"is_disabled":false,"rental_uris":{"android":"levelo://app?vid=a6021900-4850-4e39-95ba-ceb590a0b42b","ios":"levelo://app?vid=a6021900-4850-4e39-95ba-ceb590a0b42b"},"vehicle_type_id":"4","last_reported":1704906422,"current_range_meters":31600,"station_id":"ce4bgpp2rcd13ifvqc3g","pricing_plan_id":"free"},{"bike_id":"847622eb-fbf7-41bb-9f24-e9ae639dad0b","system_id":"levelo_inurba_marseille","lat":43.298433,"lon":5.362774,"is_reserved":false,"is_disabled":false,"rental_uris":{"android":"levelo://app?vid=847622eb-fbf7-41bb-9f24-e9ae639dad0b","ios":"levelo://app?vid=847622eb-fbf7-41bb-9f24-e9ae639dad0b"},"vehicle_type_id":"4","last_reported":1704906422,"current_range_meters":31600,"station_id":"ce4bgpp2rcd13ifvqc3g","pricing_plan_id":"free"},{"bike_id":"6f18dabb-706c-4dc8-8bf2-ee29c6e52962","system_id":"levelo_inurba_marseille","lat":43.31176,"lon":5.38705,"is_reserved":false,"is_disabled":false,"rental_uris":{"android":"levelo://app?vid=6f18dabb-706c-4dc8-8bf2-ee29c6e52962","ios":"levelo://app?vid=6f18dabb-706c-4dc8-8bf2-ee29c6e52962"},"vehicle_type_id":"4","last_reported":1704906422,"current_range_meters":0,"station_id":"ce4bgv12rcd13ifvqcp0","pricing_plan_id":"free"},{"bike_id":"65bcf89b-5a8e-4a0b-b593-e01af4c3c63b","system_id":"levelo_inurba_marseille","lat":43.31178,"lon":5.387135,"is_reserved":false,"is_disabled":false,"rental_uris":{"android":"levelo://app?vid=65bcf89b-5a8e-4a0b-b593-e01af4c3c63b","ios":"levelo://app?vid=65bcf89b-5a8e-4a0b-b593-e01af4c3c63b"},"vehicle_type_id":"4","last_reported":1704906422,"current_range_meters":4800,"station_id":"ce4bgv12rcd13ifvqcp0","pricing_plan_id":"free"},{"bike_id":"2433ad23-0cb6-4abb-84e5-1813221efd2c","system_id":"levelo_inurba_marseille","lat":43.29911,"lon":5.37477,"is_reserved":false,"is_disabled":false,"rental_uris":{"android":"levelo://app?vid=2433ad23-0cb6-4abb-84e5-1813221efd2c","ios":"levelo://app?vid=2433ad23-0cb6-4abb-84e5-1813221efd2c"},"vehicle_type_id":"4","last_reported":1704906422,"current_range_meters":400,"station_id":"ce4bgjh2rcd13ifvqbg0","pricing_plan_id":"free"},{"bike_id":"3dbc93fa-56f0-4f16-8189-67eee1f94289","system_id":"levelo_inurba_marseille","lat":43.299243,"lon":5.374807,"is_reserved":false,"is_disabled":false,"rental_uris":{"android":"levelo://app?vid=3dbc93fa-56f0-4f16-8189-67eee1f94289","ios":"levelo://app?vid=3dbc93fa-56f0-4f16-8189-67eee1f94289"},"vehicle_type_id":"4","last_reported":1704906422,"current_range_meters":30800,"station_id":"ce4bgjh2rcd13ifvqbg0","pricing_plan_id":"free"},{"bike_id":"de209335-a413-4ff9-91c0-4ee62b655e8b","system_id":"levelo_inurba_marseille","lat":43.297794,"lon":5.370888,"is_reserved":false,"is_disabled":false,"rental_uris":{"android":"levelo://app?vid=de209335-a413-4ff9-91c0-4ee62b655e8b","ios":"levelo://app?vid=de209335-a413-4ff9-91c0-4ee62b655e8b"},"vehicle_type_id":"4","last_reported":1704906422,"current_range_meters":9200,"station_id":"ce4bgop2rcd13ifvqc1g","pricing_plan_id":"free"},{"bike_id":"c66cfca1-be92-45d3-a59a-2a6dda3093b7","system_id":"levelo_inurba_marseille","lat":43.32287,"lon":5.38258,"is_reserved":false,"is_disabled":false,"rental_uris":{"android":"levelo://app?vid=c66cfca1-be92-45d3-a59a-2a6dda3093b7","ios":"levelo://app?vid=c66cfca1-be92-45d3-a59a-2a6dda3093b7"},"vehicle_type_id":"4","last_reported":1704906422,"current_range_meters":10400,"station_id":"ce4bhr12rcd13ifvqhqg","pricing_plan_id":"free"},{"bike_id":"2aa84d53-1e8a-45b2-af0c-37ef83aea9ae","system_id":"levelo_inurba_marseille","lat":43.322872,"lon":5.382756,"is_reserved":false,"is_disabled":false,"rental_uris":{"android":"levelo://app?vid=2aa84d53-1e8a-45b2-af0c-37ef83aea9ae","ios":"levelo://app?vid=2aa84d53-1e8a-45b2-af0c-37ef83aea9ae"},"vehicle_type_id":"4","last_reported":1704906422,"current_range_meters":29600,"station_id":"ce4bhr12rcd13ifvqhqg","pricing_plan_id":"free"},{"bike_id":"72905f78-9c33-4138-8385-d331d9223abd","system_id":"levelo_inurba_marseille","lat":43.328203,"lon":5.366813,"is_reserved":false,"is_disabled":false,"rental_uris":{"android":"levelo://app?vid=72905f78-9c33-4138-8385-d331d9223abd","ios":"levelo://app?vid=72905f78-9c33-4138-8385-d331d9223abd"},"vehicle_type_id":"4","last_reported":1704906422,"current_range_meters":31200,"station_id":"ce4bhs92rcd13ifvqi0g","pricing_plan_id":"free"},{"bike_id":"d68ce626-ef98-4d52-b3b3-f34d703a806b","system_id":"levelo_inurba_marseille","lat":43.32821,"lon":5.36666,"is_reserved":false,"is_disabled":false,"rental_uris":{"android":"levelo://app?vid=d68ce626-ef98-4d52-b3b3-f34d703a806b","ios":"levelo://app?vid=d68ce626-ef98-4d52-b3b3-f34d703a806b"},"vehicle_type_id":"4","last_reported":1704906422,"current_range_meters":21200,"station_id":"ce4bhs92rcd13ifvqi0g","pricing_plan_id":"free"},{"bike_id":"331410e4-8362-40e5-8b58-6a53f46a25bd","system_id":"levelo_inurba_marseille","lat":43.32824,"lon":5.36675,"is_reserved":false,"is_disabled":false,"rental_uris":{"android":"levelo://app?vid=331410e4-8362-40e5-8b58-6a53f46a25bd","ios":"levelo://app?vid=331410e4-8362-40e5-8b58-6a53f46a25bd"},"vehicle_type_id":"4","last_reported":1704906422,"current_range_meters":10800,"station_id":"ce4bhs92rcd13ifvqi0g","pricing_plan_id":"free"},{"bike_id":"66addf4b-70b7-4ac4-8e17-37956e9ecfbb","system_id":"levelo_inurba_marseille","lat":43.32824,"lon":5.36673,"is_reserved":false,"is_disabled":false,"rental_uris":{"android":"levelo://app?vid=66addf4b-70b7-4ac4-8e17-37956e9ecfbb","ios":"levelo://app?vid=66addf4b-70b7-4ac4-8e17-37956e9ecfbb"},"vehicle_type_id":"4","last_reported":1704906422,"current_range_meters":24400,"station_id":"ce4bhs92rcd13ifvqi0g","pricing_plan_id":"free"},{"bike_id":"387c1dff-fb7e-4547-838e-1af3f69c4219","system_id":"levelo_inurba_marseille","lat":43.32826,"lon":5.36674,"is_reserved":false,"is_disabled":false,"rental_uris":{"android":"levelo://app?vid=387c1dff-fb7e-4547-838e-1af3f69c4219","ios":"levelo://app?vid=387c1dff-fb7e-4547-838e-1af3f69c4219"},"vehicle_type_id":"4","last_reported":1704906422,"current_range_meters":31200,"station_id":"ce4bhs92rcd13ifvqi0g","pricing_plan_id":"free"},{"bike_id":"fb45f142-a2e6-4b54-b6fd-5660ca2c1fe5","system_id":"levelo_inurba_marseille","lat":43.328267,"lon":5.366793,"is_reserved":false,"is_disabled":false,"rental_uris":{"android":"levelo://app?vid=fb45f142-a2e6-4b54-b6fd-5660ca2c1fe5","ios":"levelo://app?vid=fb45f142-a2e6-4b54-b6fd-5660ca2c1fe5"},"vehicle_type_id":"4","last_reported":1704906422,"current_range_meters":22000,"station_id":"ce4bhs92rcd13ifvqi0g","pricing_plan_id":"free"},{"bike_id":"b417e045-2acd-45ab-8543-5d87cc32d878","system_id":"levelo_inurba_marseille","lat":43.32828,"lon":5.36639,"is_reserved":false,"is_disabled":false,"rental_uris":{"android":"levelo://app?vid=b417e045-2acd-45ab-8543-5d87cc32d878","ios":"levelo://app?vid=b417e045-2acd-45ab-8543-5d87cc32d878"},"vehicle_type_id":"4","last_reported":1704906422,"current_range_meters":29600,"station_id":"ce4bhs92rcd13ifvqi0g","pricing_plan_id":"free"},{"bike_id":"a70069dc-f773-452d-9d3a-320d0014d11e","system_id":"levelo_inurba_marseille","lat":43.328287,"lon":5.3668,"is_reserved":false,"is_disabled":false,"rental_uris":{"android":"levelo://app?vid=a70069dc-f773-452d-9d3a-320d0014d11e","ios":"levelo://app?vid=a70069dc-f773-452d-9d3a-320d0014d11e"},"vehicle_type_id":"4","last_reported":1704906422,"current_range_meters":17600,"station_id":"ce4bhs92rcd13ifvqi0g","pricing_plan_id":"free"},{"bike_id":"e1e3a1c2-ded9-4b32-80b4-852bd4467a76","system_id":"levelo_inurba_marseille","lat":43.3283,"lon":5.36684,"is_reserved":false,"is_disabled":false,"rental_uris":{"android":"levelo://app?vid=e1e3a1c2-ded9-4b32-80b4-852bd4467a76","ios":"levelo://app?vid=e1e3a1c2-ded9-4b32-80b4-852bd4467a76"},"vehicle_type_id":"4","last_reported":1704906422,"current_range_meters":20800,"station_id":"ce4bhs92rcd13ifvqi0g","pricing_plan_id":"free"},{"bike_id":"1f1a5220-6426-49f4-89de-c9c79ed6428d","system_id":"levelo_inurba_marseille","lat":43.32831,"lon":5.36681,"is_reserved":false,"is_disabled":false,"rental_uris":{"android":"levelo://app?vid=1f1a5220-6426-49f4-89de-c9c79ed6428d","ios":"levelo://app?vid=1f1a5220-6426-49f4-89de-c9c79ed6428d"},"vehicle_type_id":"4","last_reported":1704906422,"current_range_meters":9600,"station_id":"ce4bhs92rcd13ifvqi0g","pricing_plan_id":"free"},{"bike_id":"7b9958fe-cb69-4b86-8077-c6eefd22d5f1","system_id":"levelo_inurba_marseille","lat":43.32833,"lon":5.3667,"is_reserved":false,"is_disabled":false,"rental_uris":{"android":"levelo://app?vid=7b9958fe-cb69-4b86-8077-c6eefd22d5f1","ios":"levelo://app?vid=7b9958fe-cb69-4b86-8077-c6eefd22d5f1"},"vehicle_type_id":"4","last_reported":1704906422,"current_range_meters":30000,"station_id":"ce4bhs92rcd13ifvqi0g","pricing_plan_id":"free"},{"bike_id":"1d95f2f3-b636-406f-813f-b56de5fe38df","system_id":"levelo_inurba_marseille","lat":43.297163,"lon":5.365866,"is_reserved":false,"is_disabled":false,"rental_uris":{"android":"levelo://app?vid=1d95f2f3-b636-406f-813f-b56de5fe38df","ios":"levelo://app?vid=1d95f2f3-b636-406f-813f-b56de5fe38df"},"vehicle_type_id":"4","last_reported":1704906422,"current_range_meters":29600,"station_id":"ce4bgn12rcd13ifvqbt0","pricing_plan_id":"free"},{"bike_id":"b8fbb973-1224-431d-bdcd-4299f539ebd5","system_id":"levelo_inurba_marseille","lat":43.297163,"lon":5.365866,"is_reserved":false,"is_disabled":false,"rental_uris":{"android":"levelo://app?vid=b8fbb973-1224-431d-bdcd-4299f539ebd5","ios":"levelo://app?vid=b8fbb973-1224-431d-bdcd-4299f539ebd5"},"vehicle_type_id":"4","last_reported":1704906422,"current_range_meters":25200,"station_id":"ce4bgn12rcd13ifvqbt0","pricing_plan_id":"free"},{"bike_id":"0d0b8ebd-1bea-4493-acaa-cea0e925fbec","system_id":"levelo_inurba_marseille","lat":43.297163,"lon":5.365866,"is_reserved":false,"is_disabled":false,"rental_uris":{"android":"levelo://app?vid=0d0b8ebd-1bea-4493-acaa-cea0e925fbec","ios":"levelo://app?vid=0d0b8ebd-1bea-4493-acaa-cea0e925fbec"},"vehicle_type_id":"4","last_reported":1704906422,"current_range_meters":0,"station_id":"ce4bgn12rcd13ifvqbt0","pricing_plan_id":"free"},{"bike_id":"2c69cc6b-92a9-4ceb-ba5c-3e2e485f4d71","system_id":"levelo_inurba_marseille","lat":43.297163,"lon":5.365866,"is_reserved":false,"is_disabled":false,"rental_uris":{"android":"levelo://app?vid=2c69cc6b-92a9-4ceb-ba5c-3e2e485f4d71","ios":"levelo://app?vid=2c69cc6b-92a9-4ceb-ba5c-3e2e485f4d71"},"vehicle_type_id":"4","last_reported":1704906422,"current_range_meters":23600,"station_id":"ce4bgn12rcd13ifvqbt0","pricing_plan_id":"free"},{"bike_id":"87f7b8ef-0ce8-47fa-8017-7f951413f6cd","system_id":"levelo_inurba_marseille","lat":43.297163,"lon":5.365866,"is_reserved":false,"is_disabled":false,"rental_uris":{"android":"levelo://app?vid=87f7b8ef-0ce8-47fa-8017-7f951413f6cd","ios":"levelo://app?vid=87f7b8ef-0ce8-47fa-8017-7f951413f6cd"},"vehicle_type_id":"4","last_reported":1704906422,"current_range_meters":10400,"station_id":"ce4bgn12rcd13ifvqbt0","pricing_plan_id":"free"},{"bike_id":"3fb57a49-4ca5-4ab6-b045-08513a721a6c","system_id":"levelo_inurba_marseille","lat":43.297163,"lon":5.365866,"is_reserved":false,"is_disabled":false,"rental_uris":{"android":"levelo://app?vid=3fb57a49-4ca5-4ab6-b045-08513a721a6c","ios":"levelo://app?vid=3fb57a49-4ca5-4ab6-b045-08513a721a6c"},"vehicle_type_id":"4","last_reported":1704906422,"current_range_meters":2400,"station_id":"ce4bgn12rcd13ifvqbt0","pricing_plan_id":"free"},{"bike_id":"0e21c0e1-cd91-41f5-a668-23429ce9066e","system_id":"levelo_inurba_marseille","lat":43.296801,"lon":5.372822,"is_reserved":false,"is_disabled":false,"rental_uris":{"android":"levelo://app?vid=0e21c0e1-cd91-41f5-a668-23429ce9066e","ios":"levelo://app?vid=0e21c0e1-cd91-41f5-a668-23429ce9066e"},"vehicle_type_id":"4","last_reported":1704906422,"current_range_meters":10800,"station_id":"","pricing_plan_id":"free"},{"bike_id":"63fcb21e-c98b-485f-87d0-a5a4f09790ba","system_id":"levelo_inurba_marseille","lat":43.278128,"lon":5.407195,"is_reserved":false,"is_disabled":false,"rental_uris":{"android":"levelo://app?vid=63fcb21e-c98b-485f-87d0-a5a4f09790ba","ios":"levelo://app?vid=63fcb21e-c98b-485f-87d0-a5a4f09790ba"},"vehicle_type_id":"4","last_reported":1704906422,"current_range_meters":18400,"station_id":"ce4bhnh2rcd13ifvqgtg","pricing_plan_id":"free"},{"bike_id":"9911e3a4-c69e-4e07-8397-0050554fc56e","system_id":"levelo_inurba_marseille","lat":43.296211,"lon":5.371499,"is_reserved":false,"is_disabled":false,"rental_uris":{"android":"levelo://app?vid=9911e3a4-c69e-4e07-8397-0050554fc56e","ios":"levelo://app?vid=9911e3a4-c69e-4e07-8397-0050554fc56e"},"vehicle_type_id":"4","last_reported":1704906422,"current_range_meters":21600,"station_id":"ce4bgnh2rcd13ifvqc0g","pricing_plan_id":"free"},{"bike_id":"7e6efe82-d906-492e-8f5e-02d0dbccd0b5","system_id":"levelo_inurba_marseille","lat":43.296129,"lon":5.370777,"is_reserved":false,"is_disabled":false,"rental_uris":{"android":"levelo://app?vid=7e6efe82-d906-492e-8f5e-02d0dbccd0b5","ios":"levelo://app?vid=7e6efe82-d906-492e-8f5e-02d0dbccd0b5"},"vehicle_type_id":"4","last_reported":1704906422,"current_range_meters":31600,"station_id":"ce4bgnh2rcd13ifvqc0g","pricing_plan_id":"free"},{"bike_id":"d5cb347d-b54e-4875-bd56-b688e71c5630","system_id":"levelo_inurba_marseille","lat":43.296921,"lon":5.376579,"is_reserved":false,"is_disabled":false,"rental_uris":{"android":"levelo://app?vid=d5cb347d-b54e-4875-bd56-b688e71c5630","ios":"levelo://app?vid=d5cb347d-b54e-4875-bd56-b688e71c5630"},"vehicle_type_id":"4","last_reported":1704906422,"current_range_meters":19600,"station_id":"ce4bgkh2rcd13ifvqbl0","pricing_plan_id":"free"},{"bike_id":"517a699b-c418-4908-bfd4-dccad595de8d","system_id":"levelo_inurba_marseille","lat":43.296935,"lon":5.376544,"is_reserved":false,"is_disabled":false,"rental_uris":{"android":"levelo://app?vid=517a699b-c418-4908-bfd4-dccad595de8d","ios":"levelo://app?vid=517a699b-c418-4908-bfd4-dccad595de8d"},"vehicle_type_id":"4","last_reported":1704906422,"current_range_meters":2000,"station_id":"ce4bgkh2rcd13ifvqbl0","pricing_plan_id":"free"},{"bike_id":"138fa170-c81c-4a94-bd20-f14d068bf312","system_id":"levelo_inurba_marseille","lat":43.299028,"lon":5.381509,"is_reserved":false,"is_disabled":false,"rental_uris":{"android":"levelo://app?vid=138fa170-c81c-4a94-bd20-f14d068bf312","ios":"levelo://app?vid=138fa170-c81c-4a94-bd20-f14d068bf312"},"vehicle_type_id":"4","last_reported":1704906422,"current_range_meters":29600,"station_id":"ce4bgj12rcd13ifvqbc0","pricing_plan_id":"free"},{"bike_id":"25d24fe8-1204-443b-b64c-712f5baefd8c","system_id":"levelo_inurba_marseille","lat":43.299028,"lon":5.381509,"is_reserved":false,"is_disabled":false,"rental_uris":{"android":"levelo://app?vid=25d24fe8-1204-443b-b64c-712f5baefd8c","ios":"levelo://app?vid=25d24fe8-1204-443b-b64c-712f5baefd8c"},"vehicle_type_id":"4","last_reported":1704906422,"current_range_meters":32000,"station_id":"ce4bgj12rcd13ifvqbc0","pricing_plan_id":"free"},{"bike_id":"56c0e1b0-011a-4ba4-b6d0-a126b1585ce5","system_id":"levelo_inurba_marseille","lat":43.317557,"lon":5.390173,"is_reserved":false,"is_disabled":false,"rental_uris":{"android":"levelo://app?vid=56c0e1b0-011a-4ba4-b6d0-a126b1585ce5","ios":"levelo://app?vid=56c0e1b0-011a-4ba4-b6d0-a126b1585ce5"},"vehicle_type_id":"4","last_reported":1704906422,"current_range_meters":18000,"station_id":"ce4bhqp2rcd13ifvqhng","pricing_plan_id":"free"},{"bike_id":"e5fe3264-2519-4d05-acee-04964fbbcb57","system_id":"levelo_inurba_marseille","lat":43.317557,"lon":5.390173,"is_reserved":false,"is_disabled":false,"rental_uris":{"android":"levelo://app?vid=e5fe3264-2519-4d05-acee-04964fbbcb57","ios":"levelo://app?vid=e5fe3264-2519-4d05-acee-04964fbbcb57"},"vehicle_type_id":"4","last_reported":1704906422,"current_range_meters":15200,"station_id":"ce4bhqp2rcd13ifvqhng","pricing_plan_id":"free"},{"bike_id":"b2d2861c-5741-4856-85d5-bf34fbf49052","system_id":"levelo_inurba_marseille","lat":43.298037,"lon":5.381066,"is_reserved":false,"is_disabled":false,"rental_uris":{"android":"levelo://app?vid=b2d2861c-5741-4856-85d5-bf34fbf49052","ios":"levelo://app?vid=b2d2861c-5741-4856-85d5-bf34fbf49052"},"vehicle_type_id":"4","last_reported":1704906422,"current_range_meters":400,"station_id":"ce4bgip2rcd13ifvqbb0","pricing_plan_id":"free"},{"bike_id":"dbc72d36-96f2-4906-928d-76d0a132934b","system_id":"levelo_inurba_marseille","lat":43.295748,"lon":5.37522,"is_reserved":false,"is_disabled":false,"rental_uris":{"android":"levelo://app?vid=dbc72d36-96f2-4906-928d-76d0a132934b","ios":"levelo://app?vid=dbc72d36-96f2-4906-928d-76d0a132934b"},"vehicle_type_id":"4","last_reported":1704906422,"current_range_meters":24400,"station_id":"ce4bgh92rcd13ifvqb50","pricing_plan_id":"free"},{"bike_id":"9b623831-8785-42cc-912d-2e306d481a8a","system_id":"levelo_inurba_marseille","lat":43.304274,"lon":5.388873,"is_reserved":false,"is_disabled":false,"rental_uris":{"android":"levelo://app?vid=9b623831-8785-42cc-912d-2e306d481a8a","ios":"levelo://app?vid=9b623831-8785-42cc-912d-2e306d481a8a"},"vehicle_type_id":"4","last_reported":1704906422,"current_range_meters":21200,"station_id":"ce4bgk12rcd13ifvqbi0","pricing_plan_id":"free"},{"bike_id":"07f766f2-2e4d-406b-9fe8-9649b2c9d85c","system_id":"levelo_inurba_marseille","lat":43.304278,"lon":5.388868,"is_reserved":false,"is_disabled":false,"rental_uris":{"android":"levelo://app?vid=07f766f2-2e4d-406b-9fe8-9649b2c9d85c","ios":"levelo://app?vid=07f766f2-2e4d-406b-9fe8-9649b2c9d85c"},"vehicle_type_id":"4","last_reported":1704906422,"current_range_meters":3200,"station_id":"ce4bgk12rcd13ifvqbi0","pricing_plan_id":"free"},{"bike_id":"4550fc15-cdb6-476d-a665-2f05f44a215a","system_id":"levelo_inurba_marseille","lat":43.304278,"lon":5.388868,"is_reserved":false,"is_disabled":false,"rental_uris":{"android":"levelo://app?vid=4550fc15-cdb6-476d-a665-2f05f44a215a","ios":"levelo://app?vid=4550fc15-cdb6-476d-a665-2f05f44a215a"},"vehicle_type_id":"4","last_reported":1704906422,"current_range_meters":26000,"station_id":"ce4bgk12rcd13ifvqbi0","pricing_plan_id":"free"},{"bike_id":"0bc2059e-4f36-46e3-91b9-f1d6fbfb3cce","system_id":"levelo_inurba_marseille","lat":43.29608,"lon":5.37721,"is_reserved":false,"is_disabled":false,"rental_uris":{"android":"levelo://app?vid=0bc2059e-4f36-46e3-91b9-f1d6fbfb3cce","ios":"levelo://app?vid=0bc2059e-4f36-46e3-91b9-f1d6fbfb3cce"},"vehicle_type_id":"4","last_reported":1704906422,"current_range_meters":14800,"station_id":"ce4bgi92rcd13ifvqb90","pricing_plan_id":"free"},{"bike_id":"396c9290-10d2-4729-916a-b0adacf07737","system_id":"levelo_inurba_marseille","lat":43.29968,"lon":5.38475,"is_reserved":false,"is_disabled":false,"rental_uris":{"android":"levelo://app?vid=396c9290-10d2-4729-916a-b0adacf07737","ios":"levelo://app?vid=396c9290-10d2-4729-916a-b0adacf07737"},"vehicle_type_id":"4","last_reported":1704906422,"current_range_meters":19200,"station_id":"ce4bgj92rcd13ifvqbd0","pricing_plan_id":"free"},{"bike_id":"6678fa41-c754-4129-9642-ed4455e2e696","system_id":"levelo_inurba_marseille","lat":43.299697,"lon":5.38484,"is_reserved":false,"is_disabled":false,"rental_uris":{"android":"levelo://app?vid=6678fa41-c754-4129-9642-ed4455e2e696","ios":"levelo://app?vid=6678fa41-c754-4129-9642-ed4455e2e696"},"vehicle_type_id":"4","last_reported":1704906422,"current_range_meters":14800,"station_id":"ce4bgj92rcd13ifvqbd0","pricing_plan_id":"free"},{"bike_id":"f901c090-403f-483f-9f95-98d4f30c780d","system_id":"levelo_inurba_marseille","lat":43.29973,"lon":5.38491,"is_reserved":false,"is_disabled":false,"rental_uris":{"android":"levelo://app?vid=f901c090-403f-483f-9f95-98d4f30c780d","ios":"levelo://app?vid=f901c090-403f-483f-9f95-98d4f30c780d"},"vehicle_type_id":"4","last_reported":1704906422,"current_range_meters":0,"station_id":"ce4bgj92rcd13ifvqbd0","pricing_plan_id":"free"},{"bike_id":"499d0a7a-e394-4be0-bf4a-be955bd79bca","system_id":"levelo_inurba_marseille","lat":43.29967,"lon":5.3849,"is_reserved":false,"is_disabled":false,"rental_uris":{"android":"levelo://app?vid=499d0a7a-e394-4be0-bf4a-be955bd79bca","ios":"levelo://app?vid=499d0a7a-e394-4be0-bf4a-be955bd79bca"},"vehicle_type_id":"4","last_reported":1704906422,"current_range_meters":4400,"station_id":"ce4bgj92rcd13ifvqbd0","pricing_plan_id":"free"},{"bike_id":"5e32d011-9f4f-4938-9853-0ebe07845c43","system_id":"levelo_inurba_marseille","lat":43.2996,"lon":5.38489,"is_reserved":false,"is_disabled":false,"rental_uris":{"android":"levelo://app?vid=5e32d011-9f4f-4938-9853-0ebe07845c43","ios":"levelo://app?vid=5e32d011-9f4f-4938-9853-0ebe07845c43"},"vehicle_type_id":"4","last_reported":1704906422,"current_range_meters":2400,"station_id":"ce4bgj92rcd13ifvqbd0","pricing_plan_id":"free"},{"bike_id":"a8990d41-69cc-460b-8d8d-75843677bed7","system_id":"levelo_inurba_marseille","lat":43.299635,"lon":5.384955,"is_reserved":false,"is_disabled":false,"rental_uris":{"android":"levelo://app?vid=a8990d41-69cc-460b-8d8d-75843677bed7","ios":"levelo://app?vid=a8990d41-69cc-460b-8d8d-75843677bed7"},"vehicle_type_id":"4","last_reported":1704906422,"current_range_meters":22400,"station_id":"ce4bgj92rcd13ifvqbd0","pricing_plan_id":"free"},{"bike_id":"2c4f2901-90f2-4a97-82d5-99accc70868b","system_id":"levelo_inurba_marseille","lat":43.299724,"lon":5.384848,"is_reserved":false,"is_disabled":false,"rental_uris":{"android":"levelo://app?vid=2c4f2901-90f2-4a97-82d5-99accc70868b","ios":"levelo://app?vid=2c4f2901-90f2-4a97-82d5-99accc70868b"},"vehicle_type_id":"4","last_reported":1704906422,"current_range_meters":25600,"station_id":"ce4bgj92rcd13ifvqbd0","pricing_plan_id":"free"},{"bike_id":"73d1a4f5-4830-4eba-9b95-37df2d6f9b63","system_id":"levelo_inurba_marseille","lat":43.299724,"lon":5.384848,"is_reserved":false,"is_disabled":false,"rental_uris":{"android":"levelo://app?vid=73d1a4f5-4830-4eba-9b95-37df2d6f9b63","ios":"levelo://app?vid=73d1a4f5-4830-4eba-9b95-37df2d6f9b63"},"vehicle_type_id":"4","last_reported":1704906422,"current_range_meters":15200,"station_id":"ce4bgj92rcd13ifvqbd0","pricing_plan_id":"free"},{"bike_id":"cb8deda7-bcad-4fed-9b4c-1683374e5db6","system_id":"levelo_inurba_marseille","lat":43.283494,"lon":5.380945,"is_reserved":false,"is_disabled":false,"rental_uris":{"android":"levelo://app?vid=cb8deda7-bcad-4fed-9b4c-1683374e5db6","ios":"levelo://app?vid=cb8deda7-bcad-4fed-9b4c-1683374e5db6"},"vehicle_type_id":"4","last_reported":1704906422,"current_range_meters":0,"station_id":"ce4bh412rcd13ifvqdr0","pricing_plan_id":"free"},{"bike_id":"ae74013b-ca92-46de-a444-0a4f51933a85","system_id":"levelo_inurba_marseille","lat":43.32361,"lon":5.38867,"is_reserved":false,"is_disabled":false,"rental_uris":{"android":"levelo://app?vid=ae74013b-ca92-46de-a444-0a4f51933a85","ios":"levelo://app?vid=ae74013b-ca92-46de-a444-0a4f51933a85"},"vehicle_type_id":"4","last_reported":1704906422,"current_range_meters":3600,"station_id":"ce4bhqp2rcd13ifvqhog","pricing_plan_id":"free"},{"bike_id":"b553f938-0c90-42c0-818c-ed6fee16dfe9","system_id":"levelo_inurba_marseille","lat":43.323667,"lon":5.388707,"is_reserved":false,"is_disabled":false,"rental_uris":{"android":"levelo://app?vid=b553f938-0c90-42c0-818c-ed6fee16dfe9","ios":"levelo://app?vid=b553f938-0c90-42c0-818c-ed6fee16dfe9"},"vehicle_type_id":"4","last_reported":1704906422,"current_range_meters":6400,"station_id":"ce4bhqp2rcd13ifvqhog","pricing_plan_id":"free"},{"bike_id":"a7119a50-c648-43d6-a298-784d8f27e91c","system_id":"levelo_inurba_marseille","lat":43.323634,"lon":5.388761,"is_reserved":false,"is_disabled":false,"rental_uris":{"android":"levelo://app?vid=a7119a50-c648-43d6-a298-784d8f27e91c","ios":"levelo://app?vid=a7119a50-c648-43d6-a298-784d8f27e91c"},"vehicle_type_id":"4","last_reported":1704906422,"current_range_meters":18800,"station_id":"","pricing_plan_id":"free"},{"bike_id":"1eec63a5-d851-4bb3-9e9e-79960d82514b","system_id":"levelo_inurba_marseille","lat":43.32367,"lon":5.388836,"is_reserved":false,"is_disabled":false,"rental_uris":{"android":"levelo://app?vid=1eec63a5-d851-4bb3-9e9e-79960d82514b","ios":"levelo://app?vid=1eec63a5-d851-4bb3-9e9e-79960d82514b"},"vehicle_type_id":"4","last_reported":1704906422,"current_range_meters":21600,"station_id":"ce4bhqp2rcd13ifvqhog","pricing_plan_id":"free"},{"bike_id":"be7361aa-80f1-438b-9ce8-d142d1e331c4","system_id":"levelo_inurba_marseille","lat":43.32367,"lon":5.388836,"is_reserved":false,"is_disabled":false,"rental_uris":{"android":"levelo://app?vid=be7361aa-80f1-438b-9ce8-d142d1e331c4","ios":"levelo://app?vid=be7361aa-80f1-438b-9ce8-d142d1e331c4"},"vehicle_type_id":"4","last_reported":1704906422,"current_range_meters":27200,"station_id":"ce4bhqp2rcd13ifvqhog","pricing_plan_id":"free"},{"bike_id":"b95f006a-69b2-46c0-b433-dc02fe786662","system_id":"levelo_inurba_marseille","lat":43.29602,"lon":5.381084,"is_reserved":false,"is_disabled":false,"rental_uris":{"android":"levelo://app?vid=b95f006a-69b2-46c0-b433-dc02fe786662","ios":"levelo://app?vid=b95f006a-69b2-46c0-b433-dc02fe786662"},"vehicle_type_id":"4","last_reported":1704906422,"current_range_meters":5200,"station_id":"ce4bgl12rcd13ifvqbo0","pricing_plan_id":"free"},{"bike_id":"3190d662-8119-41bb-90b3-097ba4d1b57a","system_id":"levelo_inurba_marseille","lat":43.29602,"lon":5.381084,"is_reserved":false,"is_disabled":false,"rental_uris":{"android":"levelo://app?vid=3190d662-8119-41bb-90b3-097ba4d1b57a","ios":"levelo://app?vid=3190d662-8119-41bb-90b3-097ba4d1b57a"},"vehicle_type_id":"4","last_reported":1704906422,"current_range_meters":14800,"station_id":"ce4bgl12rcd13ifvqbo0","pricing_plan_id":"free"},{"bike_id":"f713a5d2-cd2c-4874-978d-634f7fd13d60","system_id":"levelo_inurba_marseille","lat":43.32319,"lon":5.389899,"is_reserved":false,"is_disabled":false,"rental_uris":{"android":"levelo://app?vid=f713a5d2-cd2c-4874-978d-634f7fd13d60","ios":"levelo://app?vid=f713a5d2-cd2c-4874-978d-634f7fd13d60"},"vehicle_type_id":"4","last_reported":1704906422,"current_range_meters":27600,"station_id":"","pricing_plan_id":"free"},{"bike_id":"662144d0-2285-4161-9562-b41ed9e6d89d","system_id":"levelo_inurba_marseille","lat":43.293259,"lon":5.371586,"is_reserved":false,"is_disabled":false,"rental_uris":{"android":"levelo://app?vid=662144d0-2285-4161-9562-b41ed9e6d89d","ios":"levelo://app?vid=662144d0-2285-4161-9562-b41ed9e6d89d"},"vehicle_type_id":"4","last_reported":1704906422,"current_range_meters":25600,"station_id":"ce4bgh92rcd13ifvqb40","pricing_plan_id":"free"},{"bike_id":"c1668b6e-f380-48ca-b9ab-70443ecdefb1","system_id":"levelo_inurba_marseille","lat":43.293259,"lon":5.371586,"is_reserved":false,"is_disabled":false,"rental_uris":{"android":"levelo://app?vid=c1668b6e-f380-48ca-b9ab-70443ecdefb1","ios":"levelo://app?vid=c1668b6e-f380-48ca-b9ab-70443ecdefb1"},"vehicle_type_id":"4","last_reported":1704906422,"current_range_meters":12000,"station_id":"ce4bgh92rcd13ifvqb40","pricing_plan_id":"free"},{"bike_id":"9bf5fa83-16e5-49e4-8689-0f5d2f74e35a","system_id":"levelo_inurba_marseille","lat":43.292749,"lon":5.368402,"is_reserved":false,"is_disabled":false,"rental_uris":{"android":"levelo://app?vid=9bf5fa83-16e5-49e4-8689-0f5d2f74e35a","ios":"levelo://app?vid=9bf5fa83-16e5-49e4-8689-0f5d2f74e35a"},"vehicle_type_id":"4","last_reported":1704906422,"current_range_meters":12400,"station_id":"ce4bhbp2rcd13ifvqesg","pricing_plan_id":"free"},{"bike_id":"14e984fc-ba8c-40ae-8a39-7277b7dafce3","system_id":"levelo_inurba_marseille","lat":43.292749,"lon":5.368402,"is_reserved":false,"is_disabled":false,"rental_uris":{"android":"levelo://app?vid=14e984fc-ba8c-40ae-8a39-7277b7dafce3","ios":"levelo://app?vid=14e984fc-ba8c-40ae-8a39-7277b7dafce3"},"vehicle_type_id":"4","last_reported":1704906422,"current_range_meters":21200,"station_id":"ce4bhbp2rcd13ifvqesg","pricing_plan_id":"free"},{"bike_id":"bb3c3786-8622-4e60-997f-612ae44867fd","system_id":"levelo_inurba_marseille","lat":43.2936,"lon":5.37835,"is_reserved":false,"is_disabled":false,"rental_uris":{"android":"levelo://app?vid=bb3c3786-8622-4e60-997f-612ae44867fd","ios":"levelo://app?vid=bb3c3786-8622-4e60-997f-612ae44867fd"},"vehicle_type_id":"4","last_reported":1704906422,"current_range_meters":15600,"station_id":"ce4bgjh2rcd13ifvqbf0","pricing_plan_id":"free"},{"bike_id":"4b3ad707-082c-432c-a608-32efb54f6d67","system_id":"levelo_inurba_marseille","lat":43.2936,"lon":5.37835,"is_reserved":false,"is_disabled":false,"rental_uris":{"android":"levelo://app?vid=4b3ad707-082c-432c-a608-32efb54f6d67","ios":"levelo://app?vid=4b3ad707-082c-432c-a608-32efb54f6d67"},"vehicle_type_id":"4","last_reported":1704906422,"current_range_meters":30000,"station_id":"ce4bgjh2rcd13ifvqbf0","pricing_plan_id":"free"},{"bike_id":"f1751d8f-524e-4514-af6c-ee5e82727254","system_id":"levelo_inurba_marseille","lat":43.2936,"lon":5.37835,"is_reserved":false,"is_disabled":false,"rental_uris":{"android":"levelo://app?vid=f1751d8f-524e-4514-af6c-ee5e82727254","ios":"levelo://app?vid=f1751d8f-524e-4514-af6c-ee5e82727254"},"vehicle_type_id":"4","last_reported":1704906422,"current_range_meters":21200,"station_id":"ce4bgjh2rcd13ifvqbf0","pricing_plan_id":"free"},{"bike_id":"97263914-da63-400a-86a1-627a97abc2be","system_id":"levelo_inurba_marseille","lat":43.30085,"lon":5.390856,"is_reserved":false,"is_disabled":false,"rental_uris":{"android":"levelo://app?vid=97263914-da63-400a-86a1-627a97abc2be","ios":"levelo://app?vid=97263914-da63-400a-86a1-627a97abc2be"},"vehicle_type_id":"4","last_reported":1704906422,"current_range_meters":23200,"station_id":"ce4bh192rcd13ifvqdb0","pricing_plan_id":"free"},{"bike_id":"1689a640-14b5-4b8c-984b-472808ac5005","system_id":"levelo_inurba_marseille","lat":43.292311,"lon":5.360731,"is_reserved":false,"is_disabled":false,"rental_uris":{"android":"levelo://app?vid=1689a640-14b5-4b8c-984b-472808ac5005","ios":"levelo://app?vid=1689a640-14b5-4b8c-984b-472808ac5005"},"vehicle_type_id":"4","last_reported":1704906422,"current_range_meters":0,"station_id":"ce4bhbh2rcd13ifvqeqg","pricing_plan_id":"free"},{"bike_id":"98c9ec4f-323d-4133-a467-6930e127b274","system_id":"levelo_inurba_marseille","lat":43.29878,"lon":5.38899,"is_reserved":false,"is_disabled":false,"rental_uris":{"android":"levelo://app?vid=98c9ec4f-323d-4133-a467-6930e127b274","ios":"levelo://app?vid=98c9ec4f-323d-4133-a467-6930e127b274"},"vehicle_type_id":"4","last_reported":1704906422,"current_range_meters":11200,"station_id":"","pricing_plan_id":"free"},{"bike_id":"d553b684-aaa3-4167-864a-fa0146e0bc77","system_id":"levelo_inurba_marseille","lat":43.29169,"lon":5.37166,"is_reserved":false,"is_disabled":false,"rental_uris":{"android":"levelo://app?vid=d553b684-aaa3-4167-864a-fa0146e0bc77","ios":"levelo://app?vid=d553b684-aaa3-4167-864a-fa0146e0bc77"},"vehicle_type_id":"4","last_reported":1704906422,"current_range_meters":21200,"station_id":"ce4bha92rcd13ifvqeh0","pricing_plan_id":"free"},{"bike_id":"f0060b7e-61a0-4273-8fca-e18a057637ce","system_id":"levelo_inurba_marseille","lat":43.298687,"lon":5.388983,"is_reserved":false,"is_disabled":false,"rental_uris":{"android":"levelo://app?vid=f0060b7e-61a0-4273-8fca-e18a057637ce","ios":"levelo://app?vid=f0060b7e-61a0-4273-8fca-e18a057637ce"},"vehicle_type_id":"4","last_reported":1704906422,"current_range_meters":25600,"station_id":"","pricing_plan_id":"free"},{"bike_id":"0bae42c3-c8eb-4185-8dd9-69ea4a7f6de3","system_id":"levelo_inurba_marseille","lat":43.291671,"lon":5.371575,"is_reserved":false,"is_disabled":false,"rental_uris":{"android":"levelo://app?vid=0bae42c3-c8eb-4185-8dd9-69ea4a7f6de3","ios":"levelo://app?vid=0bae42c3-c8eb-4185-8dd9-69ea4a7f6de3"},"vehicle_type_id":"4","last_reported":1704906422,"current_range_meters":1600,"station_id":"ce4bha92rcd13ifvqeh0","pricing_plan_id":"free"},{"bike_id":"281d1413-69fa-46e0-b68a-f11447c4f4cd","system_id":"levelo_inurba_marseille","lat":43.298702,"lon":5.389013,"is_reserved":false,"is_disabled":false,"rental_uris":{"android":"levelo://app?vid=281d1413-69fa-46e0-b68a-f11447c4f4cd","ios":"levelo://app?vid=281d1413-69fa-46e0-b68a-f11447c4f4cd"},"vehicle_type_id":"4","last_reported":1704906422,"current_range_meters":6400,"station_id":"","pricing_plan_id":"free"},{"bike_id":"50c8b788-6776-454f-aac7-ebb850b9c846","system_id":"levelo_inurba_marseille","lat":43.2987,"lon":5.38903,"is_reserved":false,"is_disabled":false,"rental_uris":{"android":"levelo://app?vid=50c8b788-6776-454f-aac7-ebb850b9c846","ios":"levelo://app?vid=50c8b788-6776-454f-aac7-ebb850b9c846"},"vehicle_type_id":"4","last_reported":1704906422,"current_range_meters":12400,"station_id":"","pricing_plan_id":"free"},{"bike_id":"f2c67a5a-4a68-404c-9ec3-f2ebbb4cbcc4","system_id":"levelo_inurba_marseille","lat":43.29872,"lon":5.38908,"is_reserved":false,"is_disabled":false,"rental_uris":{"android":"levelo://app?vid=f2c67a5a-4a68-404c-9ec3-f2ebbb4cbcc4","ios":"levelo://app?vid=f2c67a5a-4a68-404c-9ec3-f2ebbb4cbcc4"},"vehicle_type_id":"4","last_reported":1704906422,"current_range_meters":25600,"station_id":"","pricing_plan_id":"free"},{"bike_id":"e4980b17-89a3-43dc-9307-57d9c78c1e5c","system_id":"levelo_inurba_marseille","lat":43.291671,"lon":5.371575,"is_reserved":false,"is_disabled":false,"rental_uris":{"android":"levelo://app?vid=e4980b17-89a3-43dc-9307-57d9c78c1e5c","ios":"levelo://app?vid=e4980b17-89a3-43dc-9307-57d9c78c1e5c"},"vehicle_type_id":"4","last_reported":1704906422,"current_range_meters":18000,"station_id":"ce4bha92rcd13ifvqeh0","pricing_plan_id":"free"},{"bike_id":"0e91187a-6ad8-4ed4-9f51-b5ba4d7e94bc","system_id":"levelo_inurba_marseille","lat":43.309038,"lon":5.396546,"is_reserved":false,"is_disabled":false,"rental_uris":{"android":"levelo://app?vid=0e91187a-6ad8-4ed4-9f51-b5ba4d7e94bc","ios":"levelo://app?vid=0e91187a-6ad8-4ed4-9f51-b5ba4d7e94bc"},"vehicle_type_id":"4","last_reported":1704906422,"current_range_meters":21200,"station_id":"ce4bh012rcd13ifvqcv0","pricing_plan_id":"free"},{"bike_id":"b94dd58c-7108-4ee7-9934-6d4edfc3e651","system_id":"levelo_inurba_marseille","lat":43.313291,"lon":5.396838,"is_reserved":false,"is_disabled":false,"rental_uris":{"android":"levelo://app?vid=b94dd58c-7108-4ee7-9934-6d4edfc3e651","ios":"levelo://app?vid=b94dd58c-7108-4ee7-9934-6d4edfc3e651"},"vehicle_type_id":"4","last_reported":1704906422,"current_range_meters":31600,"station_id":"ce4bgvp2rcd13ifvqcu0","pricing_plan_id":"free"},{"bike_id":"a5713514-3d1b-4465-beb3-691d74673058","system_id":"levelo_inurba_marseille","lat":43.313291,"lon":5.396838,"is_reserved":false,"is_disabled":false,"rental_uris":{"android":"levelo://app?vid=a5713514-3d1b-4465-beb3-691d74673058","ios":"levelo://app?vid=a5713514-3d1b-4465-beb3-691d74673058"},"vehicle_type_id":"4","last_reported":1704906422,"current_range_meters":25200,"station_id":"ce4bgvp2rcd13ifvqcu0","pricing_plan_id":"free"},{"bike_id":"dfe9148b-70e4-4c90-8005-29b0f0ae8b33","system_id":"levelo_inurba_marseille","lat":43.313291,"lon":5.396838,"is_reserved":false,"is_disabled":false,"rental_uris":{"android":"levelo://app?vid=dfe9148b-70e4-4c90-8005-29b0f0ae8b33","ios":"levelo://app?vid=dfe9148b-70e4-4c90-8005-29b0f0ae8b33"},"vehicle_type_id":"4","last_reported":1704906422,"current_range_meters":22400,"station_id":"ce4bgvp2rcd13ifvqcu0","pricing_plan_id":"free"},{"bike_id":"43e3c829-2deb-43ef-8b69-a848c378c386","system_id":"levelo_inurba_marseille","lat":43.313291,"lon":5.396838,"is_reserved":false,"is_disabled":false,"rental_uris":{"android":"levelo://app?vid=43e3c829-2deb-43ef-8b69-a848c378c386","ios":"levelo://app?vid=43e3c829-2deb-43ef-8b69-a848c378c386"},"vehicle_type_id":"4","last_reported":1704906422,"current_range_meters":24000,"station_id":"ce4bgvp2rcd13ifvqcu0","pricing_plan_id":"free"},{"bike_id":"01ac5db9-31fe-45fc-bbd8-7c35d2ccc61c","system_id":"levelo_inurba_marseille","lat":43.313291,"lon":5.396838,"is_reserved":false,"is_disabled":false,"rental_uris":{"android":"levelo://app?vid=01ac5db9-31fe-45fc-bbd8-7c35d2ccc61c","ios":"levelo://app?vid=01ac5db9-31fe-45fc-bbd8-7c35d2ccc61c"},"vehicle_type_id":"4","last_reported":1704906422,"current_range_meters":28800,"station_id":"ce4bgvp2rcd13ifvqcu0","pricing_plan_id":"free"},{"bike_id":"176d1df5-a38a-4d45-8b2f-d7656ca94d14","system_id":"levelo_inurba_marseille","lat":43.313291,"lon":5.396838,"is_reserved":false,"is_disabled":false,"rental_uris":{"android":"levelo://app?vid=176d1df5-a38a-4d45-8b2f-d7656ca94d14","ios":"levelo://app?vid=176d1df5-a38a-4d45-8b2f-d7656ca94d14"},"vehicle_type_id":"4","last_reported":1704906422,"current_range_meters":30800,"station_id":"ce4bgvp2rcd13ifvqcu0","pricing_plan_id":"free"},{"bike_id":"6b70db17-dbd3-4663-8539-f70094ff9478","system_id":"levelo_inurba_marseille","lat":43.29529,"lon":5.385581,"is_reserved":false,"is_disabled":false,"rental_uris":{"android":"levelo://app?vid=6b70db17-dbd3-4663-8539-f70094ff9478","ios":"levelo://app?vid=6b70db17-dbd3-4663-8539-f70094ff9478"},"vehicle_type_id":"4","last_reported":1704906422,"current_range_meters":26800,"station_id":"ce4bgih2rcd13ifvqba0","pricing_plan_id":"free"},{"bike_id":"11b3a9f1-5982-4202-b242-87436ebf16e5","system_id":"levelo_inurba_marseille","lat":43.29534,"lon":5.38535,"is_reserved":false,"is_disabled":false,"rental_uris":{"android":"levelo://app?vid=11b3a9f1-5982-4202-b242-87436ebf16e5","ios":"levelo://app?vid=11b3a9f1-5982-4202-b242-87436ebf16e5"},"vehicle_type_id":"4","last_reported":1704906422,"current_range_meters":20400,"station_id":"ce4bgih2rcd13ifvqba0","pricing_plan_id":"free"},{"bike_id":"c2e951d6-13b4-4ce1-b82b-4bcd4a7cbf40","system_id":"levelo_inurba_marseille","lat":43.29536,"lon":5.3854,"is_reserved":false,"is_disabled":false,"rental_uris":{"android":"levelo://app?vid=c2e951d6-13b4-4ce1-b82b-4bcd4a7cbf40","ios":"levelo://app?vid=c2e951d6-13b4-4ce1-b82b-4bcd4a7cbf40"},"vehicle_type_id":"4","last_reported":1704906422,"current_range_meters":12000,"station_id":"ce4bgih2rcd13ifvqba0","pricing_plan_id":"free"},{"bike_id":"be90ba04-5808-4205-b920-d52557eadd1a","system_id":"levelo_inurba_marseille","lat":43.29529,"lon":5.385581,"is_reserved":false,"is_disabled":false,"rental_uris":{"android":"levelo://app?vid=be90ba04-5808-4205-b920-d52557eadd1a","ios":"levelo://app?vid=be90ba04-5808-4205-b920-d52557eadd1a"},"vehicle_type_id":"4","last_reported":1704906422,"current_range_meters":21200,"station_id":"ce4bgih2rcd13ifvqba0","pricing_plan_id":"free"},{"bike_id":"b9470094-4555-4f89-9bb3-8b648ab442a3","system_id":"levelo_inurba_marseille","lat":43.295376,"lon":5.385495,"is_reserved":false,"is_disabled":false,"rental_uris":{"android":"levelo://app?vid=b9470094-4555-4f89-9bb3-8b648ab442a3","ios":"levelo://app?vid=b9470094-4555-4f89-9bb3-8b648ab442a3"},"vehicle_type_id":"4","last_reported":1704906422,"current_range_meters":13600,"station_id":"","pricing_plan_id":"free"},{"bike_id":"5f170b87-c1c7-4f81-b93e-3bcb5dfa7cd2","system_id":"levelo_inurba_marseille","lat":43.29529,"lon":5.385581,"is_reserved":false,"is_disabled":false,"rental_uris":{"android":"levelo://app?vid=5f170b87-c1c7-4f81-b93e-3bcb5dfa7cd2","ios":"levelo://app?vid=5f170b87-c1c7-4f81-b93e-3bcb5dfa7cd2"},"vehicle_type_id":"4","last_reported":1704906422,"current_range_meters":400,"station_id":"ce4bgih2rcd13ifvqba0","pricing_plan_id":"free"},{"bike_id":"0086f517-ba76-43ea-9022-6d30d9e257c2","system_id":"levelo_inurba_marseille","lat":43.29529,"lon":5.385581,"is_reserved":false,"is_disabled":false,"rental_uris":{"android":"levelo://app?vid=0086f517-ba76-43ea-9022-6d30d9e257c2","ios":"levelo://app?vid=0086f517-ba76-43ea-9022-6d30d9e257c2"},"vehicle_type_id":"4","last_reported":1704906422,"current_range_meters":5600,"station_id":"ce4bgih2rcd13ifvqba0","pricing_plan_id":"free"},{"bike_id":"2da80a90-d481-442e-86dd-1a7dfec4f4b2","system_id":"levelo_inurba_marseille","lat":43.29529,"lon":5.385581,"is_reserved":false,"is_disabled":false,"rental_uris":{"android":"levelo://app?vid=2da80a90-d481-442e-86dd-1a7dfec4f4b2","ios":"levelo://app?vid=2da80a90-d481-442e-86dd-1a7dfec4f4b2"},"vehicle_type_id":"4","last_reported":1704906422,"current_range_meters":18000,"station_id":"ce4bgih2rcd13ifvqba0","pricing_plan_id":"free"},{"bike_id":"b0bb7f8e-f321-4014-916b-53695db66922","system_id":"levelo_inurba_marseille","lat":43.29529,"lon":5.385581,"is_reserved":false,"is_disabled":false,"rental_uris":{"android":"levelo://app?vid=b0bb7f8e-f321-4014-916b-53695db66922","ios":"levelo://app?vid=b0bb7f8e-f321-4014-916b-53695db66922"},"vehicle_type_id":"4","last_reported":1704906422,"current_range_meters":24400,"station_id":"ce4bgih2rcd13ifvqba0","pricing_plan_id":"free"},{"bike_id":"60dae863-2eb9-46fc-ae8d-13c182b67f0b","system_id":"levelo_inurba_marseille","lat":43.290779,"lon":5.371482,"is_reserved":false,"is_disabled":false,"rental_uris":{"android":"levelo://app?vid=60dae863-2eb9-46fc-ae8d-13c182b67f0b","ios":"levelo://app?vid=60dae863-2eb9-46fc-ae8d-13c182b67f0b"},"vehicle_type_id":"4","last_reported":1704906422,"current_range_meters":24400,"station_id":"ce4bh5p2rcd13ifvqe4g","pricing_plan_id":"free"},{"bike_id":"c3916efd-d4d9-47ea-9285-41e504371f18","system_id":"levelo_inurba_marseille","lat":43.29061,"lon":5.37153,"is_reserved":false,"is_disabled":false,"rental_uris":{"android":"levelo://app?vid=c3916efd-d4d9-47ea-9285-41e504371f18","ios":"levelo://app?vid=c3916efd-d4d9-47ea-9285-41e504371f18"},"vehicle_type_id":"4","last_reported":1704906422,"current_range_meters":28400,"station_id":"ce4bh5p2rcd13ifvqe4g","pricing_plan_id":"free"},{"bike_id":"98401347-8136-49aa-8529-5b2d70211762","system_id":"levelo_inurba_marseille","lat":43.290779,"lon":5.371482,"is_reserved":false,"is_disabled":false,"rental_uris":{"android":"levelo://app?vid=98401347-8136-49aa-8529-5b2d70211762","ios":"levelo://app?vid=98401347-8136-49aa-8529-5b2d70211762"},"vehicle_type_id":"4","last_reported":1704906422,"current_range_meters":20000,"station_id":"ce4bh5p2rcd13ifvqe4g","pricing_plan_id":"free"},{"bike_id":"6a00b293-4f12-4ce8-9e93-b6bde95ae43b","system_id":"levelo_inurba_marseille","lat":43.2916,"lon":5.37911,"is_reserved":false,"is_disabled":false,"rental_uris":{"android":"levelo://app?vid=6a00b293-4f12-4ce8-9e93-b6bde95ae43b","ios":"levelo://app?vid=6a00b293-4f12-4ce8-9e93-b6bde95ae43b"},"vehicle_type_id":"4","last_reported":1704906422,"current_range_meters":800,"station_id":"","pricing_plan_id":"free"},{"bike_id":"c5a4bf93-58dc-46f5-8dba-4acbda88ae0b","system_id":"levelo_inurba_marseille","lat":43.290447,"lon":5.359147,"is_reserved":false,"is_disabled":false,"rental_uris":{"android":"levelo://app?vid=c5a4bf93-58dc-46f5-8dba-4acbda88ae0b","ios":"levelo://app?vid=c5a4bf93-58dc-46f5-8dba-4acbda88ae0b"},"vehicle_type_id":"4","last_reported":1704906422,"current_range_meters":0,"station_id":"ce4bha92rcd13ifvqeg0","pricing_plan_id":"free"},{"bike_id":"7d18e6b4-372c-492d-806b-6e1ee7baf4d0","system_id":"levelo_inurba_marseille","lat":43.294153,"lon":5.386305,"is_reserved":false,"is_disabled":false,"rental_uris":{"android":"levelo://app?vid=7d18e6b4-372c-492d-806b-6e1ee7baf4d0","ios":"levelo://app?vid=7d18e6b4-372c-492d-806b-6e1ee7baf4d0"},"vehicle_type_id":"4","last_reported":1704906422,"current_range_meters":23200,"station_id":"ce4bh2h2rcd13ifvqdh0","pricing_plan_id":"free"},{"bike_id":"ac7c06e6-0f3c-41b6-babe-919e7370120e","system_id":"levelo_inurba_marseille","lat":43.294153,"lon":5.386305,"is_reserved":false,"is_disabled":false,"rental_uris":{"android":"levelo://app?vid=ac7c06e6-0f3c-41b6-babe-919e7370120e","ios":"levelo://app?vid=ac7c06e6-0f3c-41b6-babe-919e7370120e"},"vehicle_type_id":"4","last_reported":1704906422,"current_range_meters":7600,"station_id":"ce4bh2h2rcd13ifvqdh0","pricing_plan_id":"free"},{"bike_id":"fd859e14-f6cf-4479-bad4-aabd55efd40b","system_id":"levelo_inurba_marseille","lat":43.294162,"lon":5.386292,"is_reserved":false,"is_disabled":false,"rental_uris":{"android":"levelo://app?vid=fd859e14-f6cf-4479-bad4-aabd55efd40b","ios":"levelo://app?vid=fd859e14-f6cf-4479-bad4-aabd55efd40b"},"vehicle_type_id":"4","last_reported":1704906422,"current_range_meters":21200,"station_id":"ce4bh2h2rcd13ifvqdh0","pricing_plan_id":"free"},{"bike_id":"ce95a6d9-34c5-4f4b-bac0-9cb58e192a2a","system_id":"levelo_inurba_marseille","lat":43.294153,"lon":5.386305,"is_reserved":false,"is_disabled":false,"rental_uris":{"android":"levelo://app?vid=ce95a6d9-34c5-4f4b-bac0-9cb58e192a2a","ios":"levelo://app?vid=ce95a6d9-34c5-4f4b-bac0-9cb58e192a2a"},"vehicle_type_id":"4","last_reported":1704906422,"current_range_meters":6400,"station_id":"ce4bh2h2rcd13ifvqdh0","pricing_plan_id":"free"},{"bike_id":"1fe457b1-e68e-43d1-a4a1-dae4aa997ee5","system_id":"levelo_inurba_marseille","lat":43.294162,"lon":5.386292,"is_reserved":false,"is_disabled":false,"rental_uris":{"android":"levelo://app?vid=1fe457b1-e68e-43d1-a4a1-dae4aa997ee5","ios":"levelo://app?vid=1fe457b1-e68e-43d1-a4a1-dae4aa997ee5"},"vehicle_type_id":"4","last_reported":1704906422,"current_range_meters":8800,"station_id":"ce4bh2h2rcd13ifvqdh0","pricing_plan_id":"free"},{"bike_id":"2523ff21-e22f-4ca8-89c5-f30442ce6f72","system_id":"levelo_inurba_marseille","lat":43.289184,"lon":5.366408,"is_reserved":false,"is_disabled":false,"rental_uris":{"android":"levelo://app?vid=2523ff21-e22f-4ca8-89c5-f30442ce6f72","ios":"levelo://app?vid=2523ff21-e22f-4ca8-89c5-f30442ce6f72"},"vehicle_type_id":"4","last_reported":1704906422,"current_range_meters":14000,"station_id":"ce4bhap2rcd13ifvqek0","pricing_plan_id":"free"},{"bike_id":"1780c3e0-400d-46de-a398-0bf6995cf452","system_id":"levelo_inurba_marseille","lat":43.294162,"lon":5.386292,"is_reserved":false,"is_disabled":false,"rental_uris":{"android":"levelo://app?vid=1780c3e0-400d-46de-a398-0bf6995cf452","ios":"levelo://app?vid=1780c3e0-400d-46de-a398-0bf6995cf452"},"vehicle_type_id":"4","last_reported":1704906422,"current_range_meters":24000,"station_id":"ce4bh2h2rcd13ifvqdh0","pricing_plan_id":"free"},{"bike_id":"8391d312-7e49-45e0-b2b7-2af1b5b409f8","system_id":"levelo_inurba_marseille","lat":43.292642,"lon":5.384254,"is_reserved":false,"is_disabled":false,"rental_uris":{"android":"levelo://app?vid=8391d312-7e49-45e0-b2b7-2af1b5b409f8","ios":"levelo://app?vid=8391d312-7e49-45e0-b2b7-2af1b5b409f8"},"vehicle_type_id":"4","last_reported":1704906422,"current_range_meters":23200,"station_id":"ce4bh692rcd13ifvqea0","pricing_plan_id":"free"},{"bike_id":"91d5f6be-887e-41cd-a5bf-13bee2ea49f1","system_id":"levelo_inurba_marseille","lat":43.292644,"lon":5.384257,"is_reserved":false,"is_disabled":false,"rental_uris":{"android":"levelo://app?vid=91d5f6be-887e-41cd-a5bf-13bee2ea49f1","ios":"levelo://app?vid=91d5f6be-887e-41cd-a5bf-13bee2ea49f1"},"vehicle_type_id":"4","last_reported":1704906422,"current_range_meters":7200,"station_id":"ce4bh692rcd13ifvqea0","pricing_plan_id":"free"},{"bike_id":"2d194559-a062-4abd-9c3b-b9f2d9bf6b7f","system_id":"levelo_inurba_marseille","lat":43.292642,"lon":5.384254,"is_reserved":false,"is_disabled":false,"rental_uris":{"android":"levelo://app?vid=2d194559-a062-4abd-9c3b-b9f2d9bf6b7f","ios":"levelo://app?vid=2d194559-a062-4abd-9c3b-b9f2d9bf6b7f"},"vehicle_type_id":"4","last_reported":1704906422,"current_range_meters":18000,"station_id":"ce4bh692rcd13ifvqea0","pricing_plan_id":"free"},{"bike_id":"aca4709b-34ee-4518-a994-9d41888cf725","system_id":"levelo_inurba_marseille","lat":43.290104,"lon":5.356111,"is_reserved":false,"is_disabled":false,"rental_uris":{"android":"levelo://app?vid=aca4709b-34ee-4518-a994-9d41888cf725","ios":"levelo://app?vid=aca4709b-34ee-4518-a994-9d41888cf725"},"vehicle_type_id":"4","last_reported":1704906422,"current_range_meters":29200,"station_id":"ce4bhb92rcd13ifvqen0","pricing_plan_id":"free"},{"bike_id":"ba725be5-db68-43e0-8ff5-60a02c88fa02","system_id":"levelo_inurba_marseille","lat":43.28856,"lon":5.358371,"is_reserved":false,"is_disabled":false,"rental_uris":{"android":"levelo://app?vid=ba725be5-db68-43e0-8ff5-60a02c88fa02","ios":"levelo://app?vid=ba725be5-db68-43e0-8ff5-60a02c88fa02"},"vehicle_type_id":"4","last_reported":1704906422,"current_range_meters":5600,"station_id":"ce4bhb12rcd13ifvqem0","pricing_plan_id":"free"},{"bike_id":"8a0bba71-75d1-42e3-b09a-db00253b0235","system_id":"levelo_inurba_marseille","lat":43.290104,"lon":5.356111,"is_reserved":false,"is_disabled":false,"rental_uris":{"android":"levelo://app?vid=8a0bba71-75d1-42e3-b09a-db00253b0235","ios":"levelo://app?vid=8a0bba71-75d1-42e3-b09a-db00253b0235"},"vehicle_type_id":"4","last_reported":1704906422,"current_range_meters":30800,"station_id":"ce4bhb92rcd13ifvqen0","pricing_plan_id":"free"},{"bike_id":"726028c9-27eb-4830-83d1-7566d14011a6","system_id":"levelo_inurba_marseille","lat":43.290104,"lon":5.356111,"is_reserved":false,"is_disabled":false,"rental_uris":{"android":"levelo://app?vid=726028c9-27eb-4830-83d1-7566d14011a6","ios":"levelo://app?vid=726028c9-27eb-4830-83d1-7566d14011a6"},"vehicle_type_id":"4","last_reported":1704906422,"current_range_meters":28000,"station_id":"ce4bhb92rcd13ifvqen0","pricing_plan_id":"free"},{"bike_id":"d64e6734-481a-460c-8f87-4cddb5adb000","system_id":"levelo_inurba_marseille","lat":43.297869,"lon":5.393344,"is_reserved":false,"is_disabled":false,"rental_uris":{"android":"levelo://app?vid=d64e6734-481a-460c-8f87-4cddb5adb000","ios":"levelo://app?vid=d64e6734-481a-460c-8f87-4cddb5adb000"},"vehicle_type_id":"4","last_reported":1704906422,"current_range_meters":3600,"station_id":"chh1huq6cuj3fo74tm60","pricing_plan_id":"free"},{"bike_id":"a8163997-9359-4690-abf4-12ab471eb0fb","system_id":"levelo_inurba_marseille","lat":43.295169,"lon":5.390426,"is_reserved":false,"is_disabled":false,"rental_uris":{"android":"levelo://app?vid=a8163997-9359-4690-abf4-12ab471eb0fb","ios":"levelo://app?vid=a8163997-9359-4690-abf4-12ab471eb0fb"},"vehicle_type_id":"4","last_reported":1704906422,"current_range_meters":15600,"station_id":"ce4bh3p2rcd13ifvqdp0","pricing_plan_id":"free"},{"bike_id":"d59ac3d8-4b92-49f1-9485-d1300ed56a73","system_id":"levelo_inurba_marseille","lat":43.28982,"lon":5.37835,"is_reserved":false,"is_disabled":false,"rental_uris":{"android":"levelo://app?vid=d59ac3d8-4b92-49f1-9485-d1300ed56a73","ios":"levelo://app?vid=d59ac3d8-4b92-49f1-9485-d1300ed56a73"},"vehicle_type_id":"4","last_reported":1704906422,"current_range_meters":15200,"station_id":"","pricing_plan_id":"free"},{"bike_id":"4d3c7795-3af4-43cc-91d4-59a272daa4cb","system_id":"levelo_inurba_marseille","lat":43.304521,"lon":5.398527,"is_reserved":false,"is_disabled":false,"rental_uris":{"android":"levelo://app?vid=4d3c7795-3af4-43cc-91d4-59a272daa4cb","ios":"levelo://app?vid=4d3c7795-3af4-43cc-91d4-59a272daa4cb"},"vehicle_type_id":"4","last_reported":1704906422,"current_range_meters":0,"station_id":"","pricing_plan_id":"free"},{"bike_id":"604d70e1-4bfc-4c1a-ad50-5c45b428d61e","system_id":"levelo_inurba_marseille","lat":43.33019,"lon":5.39044,"is_reserved":false,"is_disabled":false,"rental_uris":{"android":"levelo://app?vid=604d70e1-4bfc-4c1a-ad50-5c45b428d61e","ios":"levelo://app?vid=604d70e1-4bfc-4c1a-ad50-5c45b428d61e"},"vehicle_type_id":"4","last_reported":1704906422,"current_range_meters":28000,"station_id":"ce4bhr92rcd13ifvqhrg","pricing_plan_id":"free"},{"bike_id":"b4b1d330-9cae-432f-bbe4-7ca5957c66dd","system_id":"levelo_inurba_marseille","lat":43.33026,"lon":5.39036,"is_reserved":false,"is_disabled":false,"rental_uris":{"android":"levelo://app?vid=b4b1d330-9cae-432f-bbe4-7ca5957c66dd","ios":"levelo://app?vid=b4b1d330-9cae-432f-bbe4-7ca5957c66dd"},"vehicle_type_id":"4","last_reported":1704906422,"current_range_meters":18400,"station_id":"","pricing_plan_id":"free"},{"bike_id":"c8dfd4e1-b8a2-4a47-81f8-65e2d2497f1d","system_id":"levelo_inurba_marseille","lat":43.33023,"lon":5.39043,"is_reserved":false,"is_disabled":false,"rental_uris":{"android":"levelo://app?vid=c8dfd4e1-b8a2-4a47-81f8-65e2d2497f1d","ios":"levelo://app?vid=c8dfd4e1-b8a2-4a47-81f8-65e2d2497f1d"},"vehicle_type_id":"4","last_reported":1704906422,"current_range_meters":30800,"station_id":"","pricing_plan_id":"free"},{"bike_id":"29877edf-f914-4818-a395-be7aee9e9d72","system_id":"levelo_inurba_marseille","lat":43.33023,"lon":5.39043,"is_reserved":false,"is_disabled":false,"rental_uris":{"android":"levelo://app?vid=29877edf-f914-4818-a395-be7aee9e9d72","ios":"levelo://app?vid=29877edf-f914-4818-a395-be7aee9e9d72"},"vehicle_type_id":"4","last_reported":1704906422,"current_range_meters":24400,"station_id":"","pricing_plan_id":"free"},{"bike_id":"2cb1ec6e-f171-4e99-95c8-8438e1ab3ae1","system_id":"levelo_inurba_marseille","lat":43.295169,"lon":5.390426,"is_reserved":false,"is_disabled":false,"rental_uris":{"android":"levelo://app?vid=2cb1ec6e-f171-4e99-95c8-8438e1ab3ae1","ios":"levelo://app?vid=2cb1ec6e-f171-4e99-95c8-8438e1ab3ae1"},"vehicle_type_id":"4","last_reported":1704906422,"current_range_meters":12800,"station_id":"ce4bh3p2rcd13ifvqdp0","pricing_plan_id":"free"},{"bike_id":"25b061e7-822d-4702-9183-ffe59f1e856c","system_id":"levelo_inurba_marseille","lat":43.295169,"lon":5.390426,"is_reserved":false,"is_disabled":false,"rental_uris":{"android":"levelo://app?vid=25b061e7-822d-4702-9183-ffe59f1e856c","ios":"levelo://app?vid=25b061e7-822d-4702-9183-ffe59f1e856c"},"vehicle_type_id":"4","last_reported":1704906422,"current_range_meters":9200,"station_id":"ce4bh3p2rcd13ifvqdp0","pricing_plan_id":"free"},{"bike_id":"36e99f4f-12e4-488c-9f4c-1880fee0a483","system_id":"levelo_inurba_marseille","lat":43.295169,"lon":5.390426,"is_reserved":false,"is_disabled":false,"rental_uris":{"android":"levelo://app?vid=36e99f4f-12e4-488c-9f4c-1880fee0a483","ios":"levelo://app?vid=36e99f4f-12e4-488c-9f4c-1880fee0a483"},"vehicle_type_id":"4","last_reported":1704906422,"current_range_meters":28000,"station_id":"ce4bh3p2rcd13ifvqdp0","pricing_plan_id":"free"},{"bike_id":"e8e042a8-a9bf-4539-b4d6-cc4f96965c87","system_id":"levelo_inurba_marseille","lat":43.295169,"lon":5.390426,"is_reserved":false,"is_disabled":false,"rental_uris":{"android":"levelo://app?vid=e8e042a8-a9bf-4539-b4d6-cc4f96965c87","ios":"levelo://app?vid=e8e042a8-a9bf-4539-b4d6-cc4f96965c87"},"vehicle_type_id":"4","last_reported":1704906422,"current_range_meters":26000,"station_id":"ce4bh3p2rcd13ifvqdp0","pricing_plan_id":"free"},{"bike_id":"604b645e-f410-4a3f-94f6-1ebbb945934f","system_id":"levelo_inurba_marseille","lat":43.290995,"lon":5.381361,"is_reserved":false,"is_disabled":false,"rental_uris":{"android":"levelo://app?vid=604b645e-f410-4a3f-94f6-1ebbb945934f","ios":"levelo://app?vid=604b645e-f410-4a3f-94f6-1ebbb945934f"},"vehicle_type_id":"4","last_reported":1704906422,"current_range_meters":8800,"station_id":"ce4bh512rcd13ifvqe2g","pricing_plan_id":"free"},{"bike_id":"48f760c6-6788-4165-92f3-2b6e70251f60","system_id":"levelo_inurba_marseille","lat":43.33091,"lon":5.38995,"is_reserved":false,"is_disabled":false,"rental_uris":{"android":"levelo://app?vid=48f760c6-6788-4165-92f3-2b6e70251f60","ios":"levelo://app?vid=48f760c6-6788-4165-92f3-2b6e70251f60"},"vehicle_type_id":"4","last_reported":1704906422,"current_range_meters":0,"station_id":"","pricing_plan_id":"free"},{"bike_id":"87efb1e3-3a04-4a04-8a2c-7950735911ef","system_id":"levelo_inurba_marseille","lat":43.330903,"lon":5.389993,"is_reserved":false,"is_disabled":false,"rental_uris":{"android":"levelo://app?vid=87efb1e3-3a04-4a04-8a2c-7950735911ef","ios":"levelo://app?vid=87efb1e3-3a04-4a04-8a2c-7950735911ef"},"vehicle_type_id":"4","last_reported":1704906422,"current_range_meters":18400,"station_id":"","pricing_plan_id":"free"},{"bike_id":"0ecda9cd-640a-4f58-9515-73a4eabfed51","system_id":"levelo_inurba_marseille","lat":43.28856,"lon":5.358371,"is_reserved":false,"is_disabled":false,"rental_uris":{"android":"levelo://app?vid=0ecda9cd-640a-4f58-9515-73a4eabfed51","ios":"levelo://app?vid=0ecda9cd-640a-4f58-9515-73a4eabfed51"},"vehicle_type_id":"4","last_reported":1704906422,"current_range_meters":1600,"station_id":"ce4bhb12rcd13ifvqem0","pricing_plan_id":"free"},{"bike_id":"c9594090-0ca0-41b1-b555-24ec6e8d3c12","system_id":"levelo_inurba_marseille","lat":43.312609,"lon":5.401662,"is_reserved":false,"is_disabled":false,"rental_uris":{"android":"levelo://app?vid=c9594090-0ca0-41b1-b555-24ec6e8d3c12","ios":"levelo://app?vid=c9594090-0ca0-41b1-b555-24ec6e8d3c12"},"vehicle_type_id":"4","last_reported":1704906422,"current_range_meters":6800,"station_id":"ce4bh092rcd13ifvqd30","pricing_plan_id":"free"},{"bike_id":"3a2dadde-cbfd-4b36-b816-189f6376d23d","system_id":"levelo_inurba_marseille","lat":43.309371,"lon":5.401449,"is_reserved":false,"is_disabled":false,"rental_uris":{"android":"levelo://app?vid=3a2dadde-cbfd-4b36-b816-189f6376d23d","ios":"levelo://app?vid=3a2dadde-cbfd-4b36-b816-189f6376d23d"},"vehicle_type_id":"4","last_reported":1704906422,"current_range_meters":13200,"station_id":"ce4bgvp2rcd13ifvqct0","pricing_plan_id":"free"},{"bike_id":"4c54f7a5-7474-4c47-9e5c-56de5d3403f2","system_id":"levelo_inurba_marseille","lat":43.30642,"lon":5.401031,"is_reserved":false,"is_disabled":false,"rental_uris":{"android":"levelo://app?vid=4c54f7a5-7474-4c47-9e5c-56de5d3403f2","ios":"levelo://app?vid=4c54f7a5-7474-4c47-9e5c-56de5d3403f2"},"vehicle_type_id":"4","last_reported":1704906422,"current_range_meters":16400,"station_id":"ce4bh112rcd13ifvqda0","pricing_plan_id":"free"},{"bike_id":"73d0718b-9a59-40d0-8681-0f298f37ae41","system_id":"levelo_inurba_marseille","lat":43.309371,"lon":5.401449,"is_reserved":false,"is_disabled":false,"rental_uris":{"android":"levelo://app?vid=73d0718b-9a59-40d0-8681-0f298f37ae41","ios":"levelo://app?vid=73d0718b-9a59-40d0-8681-0f298f37ae41"},"vehicle_type_id":"4","last_reported":1704906422,"current_range_meters":26000,"station_id":"ce4bgvp2rcd13ifvqct0","pricing_plan_id":"free"},{"bike_id":"64aa8de2-e219-47eb-bc12-df867da2f2ae","system_id":"levelo_inurba_marseille","lat":43.30933,"lon":5.40145,"is_reserved":false,"is_disabled":false,"rental_uris":{"android":"levelo://app?vid=64aa8de2-e219-47eb-bc12-df867da2f2ae","ios":"levelo://app?vid=64aa8de2-e219-47eb-bc12-df867da2f2ae"},"vehicle_type_id":"4","last_reported":1704906422,"current_range_meters":0,"station_id":"ce4bgvp2rcd13ifvqct0","pricing_plan_id":"free"},{"bike_id":"72728aa1-17ce-43fd-a168-4bafd97f0ce8","system_id":"levelo_inurba_marseille","lat":43.309371,"lon":5.401449,"is_reserved":false,"is_disabled":false,"rental_uris":{"android":"levelo://app?vid=72728aa1-17ce-43fd-a168-4bafd97f0ce8","ios":"levelo://app?vid=72728aa1-17ce-43fd-a168-4bafd97f0ce8"},"vehicle_type_id":"4","last_reported":1704906422,"current_range_meters":12800,"station_id":"ce4bgvp2rcd13ifvqct0","pricing_plan_id":"free"},{"bike_id":"d977fa02-4383-45bb-b005-e18c525e392a","system_id":"levelo_inurba_marseille","lat":43.33753,"lon":5.37436,"is_reserved":false,"is_disabled":false,"rental_uris":{"android":"levelo://app?vid=d977fa02-4383-45bb-b005-e18c525e392a","ios":"levelo://app?vid=d977fa02-4383-45bb-b005-e18c525e392a"},"vehicle_type_id":"4","last_reported":1704906422,"current_range_meters":28000,"station_id":"","pricing_plan_id":"free"},{"bike_id":"e6b414c9-54ac-4a4b-905d-e8b009155f7d","system_id":"levelo_inurba_marseille","lat":43.33755,"lon":5.37446,"is_reserved":false,"is_disabled":false,"rental_uris":{"android":"levelo://app?vid=e6b414c9-54ac-4a4b-905d-e8b009155f7d","ios":"levelo://app?vid=e6b414c9-54ac-4a4b-905d-e8b009155f7d"},"vehicle_type_id":"4","last_reported":1704906422,"current_range_meters":28400,"station_id":"","pricing_plan_id":"free"},{"bike_id":"fe953ad4-5350-4528-917e-b859656b552a","system_id":"levelo_inurba_marseille","lat":43.33756,"lon":5.37444,"is_reserved":false,"is_disabled":false,"rental_uris":{"android":"levelo://app?vid=fe953ad4-5350-4528-917e-b859656b552a","ios":"levelo://app?vid=fe953ad4-5350-4528-917e-b859656b552a"},"vehicle_type_id":"4","last_reported":1704906422,"current_range_meters":27600,"station_id":"","pricing_plan_id":"free"},{"bike_id":"86ed0b9a-fd7d-4bb5-8dc7-4505511acb9c","system_id":"levelo_inurba_marseille","lat":43.306412,"lon":5.401035,"is_reserved":false,"is_disabled":false,"rental_uris":{"android":"levelo://app?vid=86ed0b9a-fd7d-4bb5-8dc7-4505511acb9c","ios":"levelo://app?vid=86ed0b9a-fd7d-4bb5-8dc7-4505511acb9c"},"vehicle_type_id":"4","last_reported":1704906422,"current_range_meters":24800,"station_id":"ce4bh112rcd13ifvqda0","pricing_plan_id":"free"},{"bike_id":"13b2434c-fe54-4332-939a-d1c392ba47eb","system_id":"levelo_inurba_marseille","lat":43.301117,"lon":5.398795,"is_reserved":false,"is_disabled":false,"rental_uris":{"android":"levelo://app?vid=13b2434c-fe54-4332-939a-d1c392ba47eb","ios":"levelo://app?vid=13b2434c-fe54-4332-939a-d1c392ba47eb"},"vehicle_type_id":"4","last_reported":1704906422,"current_range_meters":20800,"station_id":"ce4bh0h2rcd13ifvqd40","pricing_plan_id":"free"},{"bike_id":"966fb8da-438f-43b7-a731-2a946654bd01","system_id":"levelo_inurba_marseille","lat":43.301117,"lon":5.398795,"is_reserved":false,"is_disabled":false,"rental_uris":{"android":"levelo://app?vid=966fb8da-438f-43b7-a731-2a946654bd01","ios":"levelo://app?vid=966fb8da-438f-43b7-a731-2a946654bd01"},"vehicle_type_id":"4","last_reported":1704906422,"current_range_meters":31200,"station_id":"ce4bh0h2rcd13ifvqd40","pricing_plan_id":"free"},{"bike_id":"363b8ab8-b4a8-4909-9e28-cf8341992285","system_id":"levelo_inurba_marseille","lat":43.301117,"lon":5.398795,"is_reserved":false,"is_disabled":false,"rental_uris":{"android":"levelo://app?vid=363b8ab8-b4a8-4909-9e28-cf8341992285","ios":"levelo://app?vid=363b8ab8-b4a8-4909-9e28-cf8341992285"},"vehicle_type_id":"4","last_reported":1704906422,"current_range_meters":1200,"station_id":"ce4bh0h2rcd13ifvqd40","pricing_plan_id":"free"},{"bike_id":"2030bf65-f7ea-4321-909f-a16bad25df28","system_id":"levelo_inurba_marseille","lat":43.30137,"lon":5.39872,"is_reserved":false,"is_disabled":false,"rental_uris":{"android":"levelo://app?vid=2030bf65-f7ea-4321-909f-a16bad25df28","ios":"levelo://app?vid=2030bf65-f7ea-4321-909f-a16bad25df28"},"vehicle_type_id":"4","last_reported":1704906422,"current_range_meters":0,"station_id":"ce4bh0h2rcd13ifvqd40","pricing_plan_id":"free"},{"bike_id":"f2859a0f-d913-4f70-8224-c20ffb98162c","system_id":"levelo_inurba_marseille","lat":43.30129,"lon":5.398693,"is_reserved":false,"is_disabled":false,"rental_uris":{"android":"levelo://app?vid=f2859a0f-d913-4f70-8224-c20ffb98162c","ios":"levelo://app?vid=f2859a0f-d913-4f70-8224-c20ffb98162c"},"vehicle_type_id":"4","last_reported":1704906422,"current_range_meters":23200,"station_id":"ce4bh0h2rcd13ifvqd40","pricing_plan_id":"free"},{"bike_id":"b9951328-d439-4cc4-aef2-dd3e27269887","system_id":"levelo_inurba_marseille","lat":43.28727,"lon":5.36078,"is_reserved":false,"is_disabled":false,"rental_uris":{"android":"levelo://app?vid=b9951328-d439-4cc4-aef2-dd3e27269887","ios":"levelo://app?vid=b9951328-d439-4cc4-aef2-dd3e27269887"},"vehicle_type_id":"4","last_reported":1704906422,"current_range_meters":16000,"station_id":"cki0cbj6b192h4jlfktg","pricing_plan_id":"free"},{"bike_id":"f816511f-4333-47e0-96cd-49d5ae266af3","system_id":"levelo_inurba_marseille","lat":43.28727,"lon":5.36078,"is_reserved":false,"is_disabled":false,"rental_uris":{"android":"levelo://app?vid=f816511f-4333-47e0-96cd-49d5ae266af3","ios":"levelo://app?vid=f816511f-4333-47e0-96cd-49d5ae266af3"},"vehicle_type_id":"4","last_reported":1704906422,"current_range_meters":24400,"station_id":"cki0cbj6b192h4jlfktg","pricing_plan_id":"free"},{"bike_id":"73c6a29a-5703-4785-b199-43be71b43eb0","system_id":"levelo_inurba_marseille","lat":43.28727,"lon":5.36078,"is_reserved":false,"is_disabled":false,"rental_uris":{"android":"levelo://app?vid=73c6a29a-5703-4785-b199-43be71b43eb0","ios":"levelo://app?vid=73c6a29a-5703-4785-b199-43be71b43eb0"},"vehicle_type_id":"4","last_reported":1704906422,"current_range_meters":0,"station_id":"cki0cbj6b192h4jlfktg","pricing_plan_id":"free"},{"bike_id":"30788206-b931-4dc3-99ab-9953653bbfe0","system_id":"levelo_inurba_marseille","lat":43.28727,"lon":5.36078,"is_reserved":false,"is_disabled":false,"rental_uris":{"android":"levelo://app?vid=30788206-b931-4dc3-99ab-9953653bbfe0","ios":"levelo://app?vid=30788206-b931-4dc3-99ab-9953653bbfe0"},"vehicle_type_id":"4","last_reported":1704906422,"current_range_meters":17200,"station_id":"cki0cbj6b192h4jlfktg","pricing_plan_id":"free"},{"bike_id":"314e6389-13f9-4b9f-96ae-8aaebd48cc90","system_id":"levelo_inurba_marseille","lat":43.28727,"lon":5.36078,"is_reserved":false,"is_disabled":false,"rental_uris":{"android":"levelo://app?vid=314e6389-13f9-4b9f-96ae-8aaebd48cc90","ios":"levelo://app?vid=314e6389-13f9-4b9f-96ae-8aaebd48cc90"},"vehicle_type_id":"4","last_reported":1704906422,"current_range_meters":24400,"station_id":"cki0cbj6b192h4jlfktg","pricing_plan_id":"free"},{"bike_id":"9a073bc4-b367-4e43-bb76-115086445da8","system_id":"levelo_inurba_marseille","lat":43.28727,"lon":5.36078,"is_reserved":false,"is_disabled":false,"rental_uris":{"android":"levelo://app?vid=9a073bc4-b367-4e43-bb76-115086445da8","ios":"levelo://app?vid=9a073bc4-b367-4e43-bb76-115086445da8"},"vehicle_type_id":"4","last_reported":1704906422,"current_range_meters":31200,"station_id":"cki0cbj6b192h4jlfktg","pricing_plan_id":"free"},{"bike_id":"9251ba89-8469-4e7d-9d25-c5c7d4e68fb0","system_id":"levelo_inurba_marseille","lat":43.287137,"lon":5.360887,"is_reserved":false,"is_disabled":false,"rental_uris":{"android":"levelo://app?vid=9251ba89-8469-4e7d-9d25-c5c7d4e68fb0","ios":"levelo://app?vid=9251ba89-8469-4e7d-9d25-c5c7d4e68fb0"},"vehicle_type_id":"4","last_reported":1704906422,"current_range_meters":14400,"station_id":"cki0cbj6b192h4jlfktg","pricing_plan_id":"free"},{"bike_id":"d0888323-9fd3-4717-87da-698052e7b721","system_id":"levelo_inurba_marseille","lat":43.298681,"lon":5.397225,"is_reserved":false,"is_disabled":false,"rental_uris":{"android":"levelo://app?vid=d0888323-9fd3-4717-87da-698052e7b721","ios":"levelo://app?vid=d0888323-9fd3-4717-87da-698052e7b721"},"vehicle_type_id":"4","last_reported":1704906422,"current_range_meters":4800,"station_id":"ce4bh0h2rcd13ifvqd50","pricing_plan_id":"free"},{"bike_id":"3daa416b-231e-48d2-8df2-6b01eb28dc3d","system_id":"levelo_inurba_marseille","lat":43.298681,"lon":5.397225,"is_reserved":false,"is_disabled":false,"rental_uris":{"android":"levelo://app?vid=3daa416b-231e-48d2-8df2-6b01eb28dc3d","ios":"levelo://app?vid=3daa416b-231e-48d2-8df2-6b01eb28dc3d"},"vehicle_type_id":"4","last_reported":1704906422,"current_range_meters":24400,"station_id":"ce4bh0h2rcd13ifvqd50","pricing_plan_id":"free"},{"bike_id":"e4540110-dd14-4196-a9d7-5edc3b762d2e","system_id":"levelo_inurba_marseille","lat":43.286591,"lon":5.363346,"is_reserved":false,"is_disabled":false,"rental_uris":{"android":"levelo://app?vid=e4540110-dd14-4196-a9d7-5edc3b762d2e","ios":"levelo://app?vid=e4540110-dd14-4196-a9d7-5edc3b762d2e"},"vehicle_type_id":"4","last_reported":1704906422,"current_range_meters":20000,"station_id":"ce4bhah2rcd13ifvqej0","pricing_plan_id":"free"},{"bike_id":"44e670d1-080d-4991-94ed-4adcd3a60d49","system_id":"levelo_inurba_marseille","lat":43.286591,"lon":5.363346,"is_reserved":false,"is_disabled":false,"rental_uris":{"android":"levelo://app?vid=44e670d1-080d-4991-94ed-4adcd3a60d49","ios":"levelo://app?vid=44e670d1-080d-4991-94ed-4adcd3a60d49"},"vehicle_type_id":"4","last_reported":1704906422,"current_range_meters":31600,"station_id":"ce4bhah2rcd13ifvqej0","pricing_plan_id":"free"},{"bike_id":"ae353a63-0597-4bd3-a8e4-79090a0f42f6","system_id":"levelo_inurba_marseille","lat":43.298681,"lon":5.397225,"is_reserved":false,"is_disabled":false,"rental_uris":{"android":"levelo://app?vid=ae353a63-0597-4bd3-a8e4-79090a0f42f6","ios":"levelo://app?vid=ae353a63-0597-4bd3-a8e4-79090a0f42f6"},"vehicle_type_id":"4","last_reported":1704906422,"current_range_meters":7200,"station_id":"ce4bh0h2rcd13ifvqd50","pricing_plan_id":"free"},{"bike_id":"355d80a8-6536-4657-9d1c-13ed04bb3f70","system_id":"levelo_inurba_marseille","lat":43.286591,"lon":5.363346,"is_reserved":false,"is_disabled":false,"rental_uris":{"android":"levelo://app?vid=355d80a8-6536-4657-9d1c-13ed04bb3f70","ios":"levelo://app?vid=355d80a8-6536-4657-9d1c-13ed04bb3f70"},"vehicle_type_id":"4","last_reported":1704906422,"current_range_meters":28800,"station_id":"ce4bhah2rcd13ifvqej0","pricing_plan_id":"free"},{"bike_id":"df5ef9f5-54f8-4827-a93d-f1c5fed8d8da","system_id":"levelo_inurba_marseille","lat":43.286591,"lon":5.363346,"is_reserved":false,"is_disabled":false,"rental_uris":{"android":"levelo://app?vid=df5ef9f5-54f8-4827-a93d-f1c5fed8d8da","ios":"levelo://app?vid=df5ef9f5-54f8-4827-a93d-f1c5fed8d8da"},"vehicle_type_id":"4","last_reported":1704906422,"current_range_meters":4000,"station_id":"ce4bhah2rcd13ifvqej0","pricing_plan_id":"free"},{"bike_id":"db62b8fe-0de8-4175-ae0b-6229eb6509ff","system_id":"levelo_inurba_marseille","lat":43.286591,"lon":5.363346,"is_reserved":false,"is_disabled":false,"rental_uris":{"android":"levelo://app?vid=db62b8fe-0de8-4175-ae0b-6229eb6509ff","ios":"levelo://app?vid=db62b8fe-0de8-4175-ae0b-6229eb6509ff"},"vehicle_type_id":"4","last_reported":1704906422,"current_range_meters":22800,"station_id":"ce4bhah2rcd13ifvqej0","pricing_plan_id":"free"},{"bike_id":"9399e244-b7d1-4649-b313-f82074485075","system_id":"levelo_inurba_marseille","lat":43.286961,"lon":5.373785,"is_reserved":false,"is_disabled":false,"rental_uris":{"android":"levelo://app?vid=9399e244-b7d1-4649-b313-f82074485075","ios":"levelo://app?vid=9399e244-b7d1-4649-b313-f82074485075"},"vehicle_type_id":"4","last_reported":1704906422,"current_range_meters":29200,"station_id":"ce4bh3p2rcd13ifvqdq0","pricing_plan_id":"free"},{"bike_id":"c29b2c80-062b-4795-9f81-26b54b807b2a","system_id":"levelo_inurba_marseille","lat":43.2953,"lon":5.39403,"is_reserved":false,"is_disabled":false,"rental_uris":{"android":"levelo://app?vid=c29b2c80-062b-4795-9f81-26b54b807b2a","ios":"levelo://app?vid=c29b2c80-062b-4795-9f81-26b54b807b2a"},"vehicle_type_id":"4","last_reported":1704906422,"current_range_meters":21600,"station_id":"ce4bh292rcd13ifvqdf0","pricing_plan_id":"free"},{"bike_id":"b336c01b-6264-4fbc-9add-396d1b851950","system_id":"levelo_inurba_marseille","lat":43.286591,"lon":5.363346,"is_reserved":false,"is_disabled":false,"rental_uris":{"android":"levelo://app?vid=b336c01b-6264-4fbc-9add-396d1b851950","ios":"levelo://app?vid=b336c01b-6264-4fbc-9add-396d1b851950"},"vehicle_type_id":"4","last_reported":1704906422,"current_range_meters":12400,"station_id":"ce4bhah2rcd13ifvqej0","pricing_plan_id":"free"},{"bike_id":"7971ffc0-b2a2-4bb4-b513-7aaffba6d6f1","system_id":"levelo_inurba_marseille","lat":43.295196,"lon":5.39397,"is_reserved":false,"is_disabled":false,"rental_uris":{"android":"levelo://app?vid=7971ffc0-b2a2-4bb4-b513-7aaffba6d6f1","ios":"levelo://app?vid=7971ffc0-b2a2-4bb4-b513-7aaffba6d6f1"},"vehicle_type_id":"4","last_reported":1704906422,"current_range_meters":10400,"station_id":"ce4bh292rcd13ifvqdf0","pricing_plan_id":"free"},{"bike_id":"e1e70628-d557-4d29-92f2-e44b1c16ce6b","system_id":"levelo_inurba_marseille","lat":43.302759,"lon":5.400793,"is_reserved":false,"is_disabled":false,"rental_uris":{"android":"levelo://app?vid=e1e70628-d557-4d29-92f2-e44b1c16ce6b","ios":"levelo://app?vid=e1e70628-d557-4d29-92f2-e44b1c16ce6b"},"vehicle_type_id":"4","last_reported":1704906422,"current_range_meters":1600,"station_id":"ce4bgvh2rcd13ifvqcs0","pricing_plan_id":"free"},{"bike_id":"de68c2e5-d613-4e00-af6f-1fdb6400b7bc","system_id":"levelo_inurba_marseille","lat":43.302759,"lon":5.400793,"is_reserved":false,"is_disabled":false,"rental_uris":{"android":"levelo://app?vid=de68c2e5-d613-4e00-af6f-1fdb6400b7bc","ios":"levelo://app?vid=de68c2e5-d613-4e00-af6f-1fdb6400b7bc"},"vehicle_type_id":"4","last_reported":1704906422,"current_range_meters":21200,"station_id":"ce4bgvh2rcd13ifvqcs0","pricing_plan_id":"free"},{"bike_id":"2796a74d-53a8-452a-a3a6-79043c36da56","system_id":"levelo_inurba_marseille","lat":43.302759,"lon":5.400793,"is_reserved":false,"is_disabled":false,"rental_uris":{"android":"levelo://app?vid=2796a74d-53a8-452a-a3a6-79043c36da56","ios":"levelo://app?vid=2796a74d-53a8-452a-a3a6-79043c36da56"},"vehicle_type_id":"4","last_reported":1704906422,"current_range_meters":6800,"station_id":"ce4bgvh2rcd13ifvqcs0","pricing_plan_id":"free"},{"bike_id":"196177a3-c3d6-4923-ac77-a1b0917f3cf4","system_id":"levelo_inurba_marseille","lat":43.286153,"lon":5.37056,"is_reserved":false,"is_disabled":false,"rental_uris":{"android":"levelo://app?vid=196177a3-c3d6-4923-ac77-a1b0917f3cf4","ios":"levelo://app?vid=196177a3-c3d6-4923-ac77-a1b0917f3cf4"},"vehicle_type_id":"4","last_reported":1704906422,"current_range_meters":4400,"station_id":"ce4bht12rcd13ifvqi60","pricing_plan_id":"free"},{"bike_id":"50646e67-b002-4bc3-9b29-b8228c9efda6","system_id":"levelo_inurba_marseille","lat":43.286039,"lon":5.370681,"is_reserved":false,"is_disabled":false,"rental_uris":{"android":"levelo://app?vid=50646e67-b002-4bc3-9b29-b8228c9efda6","ios":"levelo://app?vid=50646e67-b002-4bc3-9b29-b8228c9efda6"},"vehicle_type_id":"4","last_reported":1704906422,"current_range_meters":20000,"station_id":"ce4bht12rcd13ifvqi60","pricing_plan_id":"free"},{"bike_id":"54e402ad-16fb-4fef-9da2-7f4d339cf26c","system_id":"levelo_inurba_marseille","lat":43.286039,"lon":5.370681,"is_reserved":false,"is_disabled":false,"rental_uris":{"android":"levelo://app?vid=54e402ad-16fb-4fef-9da2-7f4d339cf26c","ios":"levelo://app?vid=54e402ad-16fb-4fef-9da2-7f4d339cf26c"},"vehicle_type_id":"4","last_reported":1704906422,"current_range_meters":4400,"station_id":"ce4bht12rcd13ifvqi60","pricing_plan_id":"free"},{"bike_id":"c78f60a4-a0de-4178-889a-d6c9519b6780","system_id":"levelo_inurba_marseille","lat":43.286039,"lon":5.370679,"is_reserved":false,"is_disabled":false,"rental_uris":{"android":"levelo://app?vid=c78f60a4-a0de-4178-889a-d6c9519b6780","ios":"levelo://app?vid=c78f60a4-a0de-4178-889a-d6c9519b6780"},"vehicle_type_id":"4","last_reported":1704906422,"current_range_meters":27600,"station_id":"ce4bht12rcd13ifvqi60","pricing_plan_id":"free"},{"bike_id":"7decb80d-eca5-4339-a198-1b80f0174d10","system_id":"levelo_inurba_marseille","lat":43.286039,"lon":5.370681,"is_reserved":false,"is_disabled":false,"rental_uris":{"android":"levelo://app?vid=7decb80d-eca5-4339-a198-1b80f0174d10","ios":"levelo://app?vid=7decb80d-eca5-4339-a198-1b80f0174d10"},"vehicle_type_id":"4","last_reported":1704906422,"current_range_meters":19200,"station_id":"ce4bht12rcd13ifvqi60","pricing_plan_id":"free"},{"bike_id":"48d0e444-6c56-42ba-b0f8-aebaa0561d05","system_id":"levelo_inurba_marseille","lat":43.290871,"lon":5.388469,"is_reserved":false,"is_disabled":false,"rental_uris":{"android":"levelo://app?vid=48d0e444-6c56-42ba-b0f8-aebaa0561d05","ios":"levelo://app?vid=48d0e444-6c56-42ba-b0f8-aebaa0561d05"},"vehicle_type_id":"4","last_reported":1704906422,"current_range_meters":6000,"station_id":"","pricing_plan_id":"free"},{"bike_id":"fba7347a-4d86-4363-badb-883d44bfc9c3","system_id":"levelo_inurba_marseille","lat":43.316828,"lon":5.404723,"is_reserved":false,"is_disabled":false,"rental_uris":{"android":"levelo://app?vid=fba7347a-4d86-4363-badb-883d44bfc9c3","ios":"levelo://app?vid=fba7347a-4d86-4363-badb-883d44bfc9c3"},"vehicle_type_id":"4","last_reported":1704906422,"current_range_meters":25600,"station_id":"ce4bh012rcd13ifvqd00","pricing_plan_id":"free"},{"bike_id":"8da58d59-6a90-476b-8a0b-8186a6034c1c","system_id":"levelo_inurba_marseille","lat":43.291994,"lon":5.392907,"is_reserved":false,"is_disabled":false,"rental_uris":{"android":"levelo://app?vid=8da58d59-6a90-476b-8a0b-8186a6034c1c","ios":"levelo://app?vid=8da58d59-6a90-476b-8a0b-8186a6034c1c"},"vehicle_type_id":"4","last_reported":1704906422,"current_range_meters":10000,"station_id":"ce4bh192rcd13ifvqdd0","pricing_plan_id":"free"},{"bike_id":"1616a6dc-71cc-41c6-9876-66c7c42667d2","system_id":"levelo_inurba_marseille","lat":43.292,"lon":5.39322,"is_reserved":false,"is_disabled":false,"rental_uris":{"android":"levelo://app?vid=1616a6dc-71cc-41c6-9876-66c7c42667d2","ios":"levelo://app?vid=1616a6dc-71cc-41c6-9876-66c7c42667d2"},"vehicle_type_id":"4","last_reported":1704906422,"current_range_meters":18800,"station_id":"ce4bh192rcd13ifvqdd0","pricing_plan_id":"free"},{"bike_id":"6f978e25-1aa8-484a-805c-1779914332a3","system_id":"levelo_inurba_marseille","lat":43.29196,"lon":5.39319,"is_reserved":false,"is_disabled":false,"rental_uris":{"android":"levelo://app?vid=6f978e25-1aa8-484a-805c-1779914332a3","ios":"levelo://app?vid=6f978e25-1aa8-484a-805c-1779914332a3"},"vehicle_type_id":"4","last_reported":1704906422,"current_range_meters":22800,"station_id":"ce4bh192rcd13ifvqdd0","pricing_plan_id":"free"},{"bike_id":"191e2df6-8ddf-40de-b589-4dc9af938cf8","system_id":"levelo_inurba_marseille","lat":43.29197,"lon":5.39323,"is_reserved":false,"is_disabled":false,"rental_uris":{"android":"levelo://app?vid=191e2df6-8ddf-40de-b589-4dc9af938cf8","ios":"levelo://app?vid=191e2df6-8ddf-40de-b589-4dc9af938cf8"},"vehicle_type_id":"4","last_reported":1704906422,"current_range_meters":17200,"station_id":"ce4bh192rcd13ifvqdd0","pricing_plan_id":"free"},