{"last_updated":1721840814,"ttl":30,"version":"2.2","data":{"bikes":[{"bike_id":"a2610bec-28cf-4e46-bfa7-b619ea248969","system_id":"levelo_inurba_marseille","lat":43.31257,"lon":5.36767,"is_reserved":false,"is_disabled":false,"rental_uris":{"android":"levelo://app?vid=a2610bec-28cf-4e46-bfa7-b619ea248969","ios":"levelo://app?vid=a2610bec-28cf-4e46-bfa7-b619ea248969"},"vehicle_type_id":"4","last_reported":1721840815,"current_range_meters":2000,"station_id":"","pricing_plan_id":"cebpf4jnsgd1na2vs0mg"},{"bike_id":"0ae9dc76-5f52-4050-bd0a-1651070ee211","system_id":"levelo_inurba_marseille","lat":43.31254,"lon":5.36816,"is_reserved":false,"is_disabled":false,"rental_uris":{"android":"levelo://app?vid=0ae9dc76-5f52-4050-bd0a-1651070ee211","ios":"levelo://app?vid=0ae9dc76-5f52-4050-bd0a-1651070ee211"},"vehicle_type_id":"4","last_reported":1721840815,"current_range_meters":6800,"station_id":"ce4bgl92rcd13ifvqbq0","pricing_plan_id":"cebpf4jnsgd1na2vs0mg"},{"bike_id":"39d8016b-f6a5-44cf-9dde-57e70b99fab6","system_id":"levelo_inurba_marseille","lat":43.31243,"lon":5.36825,"is_reserved":false,"is_disabled":false,"rental_uris":{"android":"levelo://app?vid=39d8016b-f6a5-44cf-9dde-57e70b99fab6","ios":"levelo://app?vid=39d8016b-f6a5-44cf-9dde-57e70b99fab6"},"vehicle_type_id":"4","last_reported":1721840815,"current_range_meters":19200,"station_id":"ce4bgl92rcd13ifvqbq0","pricing_plan_id":"cebpf4jnsgd1na2vs0mg"},{"bike_id":"4918642a-1d06-4372-a80e-2d30b148db40","system_id":"levelo_inurba_marseille","lat":43.312239,"lon":5.368562,"is_reserved":false,"is_disabled":false,"rental_uris":{"android":"levelo://app?vid=4918642a-1d06-4372-a80e-2d30b148db40","ios":"levelo://app?vid=4918642a-1d06-4372-a80e-2d30b148db40"},"vehicle_type_id":"4","last_reported":1721840815,"current_range_meters":31200,"station_id":"ce4bgl92rcd13ifvqbq0","pricing_plan_id":"cebpf4jnsgd1na2vs0mg"},{"bike_id":"c3726df5-a6ae-47a0-9862-febf8756dfa5","system_id":"levelo_inurba_marseille","lat":43.312239,"lon":5.368562,"is_reserved":false,"is_disabled":false,"rental_uris":{"android":"levelo://app?vid=c3726df5-a6ae-47a0-9862-febf8756dfa5","ios":"levelo://app?vid=c3726df5-a6ae-47a0-9862-febf8756dfa5"},"vehicle_type_id":"4","last_reported":1721840815,"current_range_meters":0,"station_id":"ce4bgl92rcd13ifvqbq0","pricing_plan_id":"cebpf4jnsgd1na2vs0mg"},{"bike_id":"517e4ab3-fb4f-4caf-b7b8-9016f6bf755b","system_id":"levelo_inurba_marseille","lat":43.309076,"lon":5.368465,"is_reserved":false,"is_disabled":false,"rental_uris":{"android":"levelo://app?vid=517e4ab3-fb4f-4caf-b7b8-9016f6bf755b","ios":"levelo://app?vid=517e4ab3-fb4f-4caf-b7b8-9016f6bf755b"},"vehicle_type_id":"4","last_reported":1721840815,"current_range_meters":13200,"station_id":"ce4bgn92rcd13ifvqbvg","pricing_plan_id":"cebpf4jnsgd1na2vs0mg"},{"bike_id":"d311086d-04af-4870-a14f-e9bb95fed39e","system_id":"levelo_inurba_marseille","lat":43.314811,"lon":5.373103,"is_reserved":false,"is_disabled":false,"rental_uris":{"android":"levelo://app?vid=d311086d-04af-4870-a14f-e9bb95fed39e","ios":"levelo://app?vid=d311086d-04af-4870-a14f-e9bb95fed39e"},"vehicle_type_id":"4","last_reported":1721840815,"current_range_meters":2800,"station_id":"ce4bgt12rcd13ifvqcd0","pricing_plan_id":"cebpf4jnsgd1na2vs0mg"},{"bike_id":"5e5582d6-56c4-49b3-87ed-f675ca75b06f","system_id":"levelo_inurba_marseille","lat":43.314811,"lon":5.373104,"is_reserved":false,"is_disabled":false,"rental_uris":{"android":"levelo://app?vid=5e5582d6-56c4-49b3-87ed-f675ca75b06f","ios":"levelo://app?vid=5e5582d6-56c4-49b3-87ed-f675ca75b06f"},"vehicle_type_id":"4","last_reported":1721840815,"current_range_meters":800,"station_id":"ce4bgt12rcd13ifvqcd0","pricing_plan_id":"cebpf4jnsgd1na2vs0mg"},{"bike_id":"3748e580-4673-47ce-adc0-2e3dccf6ebeb","system_id":"levelo_inurba_marseille","lat":43.319145,"lon":5.367145,"is_reserved":false,"is_disabled":false,"rental_uris":{"android":"levelo://app?vid=3748e580-4673-47ce-adc0-2e3dccf6ebeb","ios":"levelo://app?vid=3748e580-4673-47ce-adc0-2e3dccf6ebeb"},"vehicle_type_id":"4","last_reported":1721840815,"current_range_meters":7200,"station_id":"","pricing_plan_id":"cebpf4jnsgd1na2vs0mg"},{"bike_id":"69e00a78-4c40-4ba2-8314-e836cc15ff83","system_id":"levelo_inurba_marseille","lat":43.305989,"lon":5.37225,"is_reserved":false,"is_disabled":false,"rental_uris":{"android":"levelo://app?vid=69e00a78-4c40-4ba2-8314-e836cc15ff83","ios":"levelo://app?vid=69e00a78-4c40-4ba2-8314-e836cc15ff83"},"vehicle_type_id":"4","last_reported":1721840815,"current_range_meters":400,"station_id":"ce4bgqh2rcd13ifvqc4g","pricing_plan_id":"cebpf4jnsgd1na2vs0mg"},{"bike_id":"616015b4-b02c-4eb1-a75e-f3577af6eca5","system_id":"levelo_inurba_marseille","lat":43.304851,"lon":5.367162,"is_reserved":false,"is_disabled":false,"rental_uris":{"android":"levelo://app?vid=616015b4-b02c-4eb1-a75e-f3577af6eca5","ios":"levelo://app?vid=616015b4-b02c-4eb1-a75e-f3577af6eca5"},"vehicle_type_id":"4","last_reported":1721840815,"current_range_meters":0,"station_id":"","pricing_plan_id":"cebpf4jnsgd1na2vs0mg"},{"bike_id":"f96dfd77-f5bf-4294-8346-3c351954e0c8","system_id":"levelo_inurba_marseille","lat":43.311125,"lon":5.377624,"is_reserved":false,"is_disabled":false,"rental_uris":{"android":"levelo://app?vid=f96dfd77-f5bf-4294-8346-3c351954e0c8","ios":"levelo://app?vid=f96dfd77-f5bf-4294-8346-3c351954e0c8"},"vehicle_type_id":"4","last_reported":1721840815,"current_range_meters":14000,"station_id":"ce4bgt92rcd13ifvqcg0","pricing_plan_id":"cebpf4jnsgd1na2vs0mg"},{"bike_id":"9d826917-ef39-467e-8006-c1673ea956be","system_id":"levelo_inurba_marseille","lat":43.317075,"lon":5.377367,"is_reserved":false,"is_disabled":false,"rental_uris":{"android":"levelo://app?vid=9d826917-ef39-467e-8006-c1673ea956be","ios":"levelo://app?vid=9d826917-ef39-467e-8006-c1673ea956be"},"vehicle_type_id":"4","last_reported":1721840815,"current_range_meters":0,"station_id":"ce4bgth2rcd13ifvqch0","pricing_plan_id":"cebpf4jnsgd1na2vs0mg"},{"bike_id":"c8820a8e-4854-4e22-9ecc-07f750a6461d","system_id":"levelo_inurba_marseille","lat":43.321581,"lon":5.362839,"is_reserved":false,"is_disabled":false,"rental_uris":{"android":"levelo://app?vid=c8820a8e-4854-4e22-9ecc-07f750a6461d","ios":"levelo://app?vid=c8820a8e-4854-4e22-9ecc-07f750a6461d"},"vehicle_type_id":"4","last_reported":1721840815,"current_range_meters":2000,"station_id":"","pricing_plan_id":"cebpf4jnsgd1na2vs0mg"},{"bike_id":"27935241-03bc-4a4e-8686-e423ba1ba646","system_id":"levelo_inurba_marseille","lat":43.30309,"lon":5.36889,"is_reserved":false,"is_disabled":false,"rental_uris":{"android":"levelo://app?vid=27935241-03bc-4a4e-8686-e423ba1ba646","ios":"levelo://app?vid=27935241-03bc-4a4e-8686-e423ba1ba646"},"vehicle_type_id":"4","last_reported":1721840815,"current_range_meters":0,"station_id":"ce4bgqh2rcd13ifvqc5g","pricing_plan_id":"cebpf4jnsgd1na2vs0mg"},{"bike_id":"4e522689-8893-49ba-aefd-db672a7511b3","system_id":"levelo_inurba_marseille","lat":43.301939,"lon":5.366286,"is_reserved":false,"is_disabled":false,"rental_uris":{"android":"levelo://app?vid=4e522689-8893-49ba-aefd-db672a7511b3","ios":"levelo://app?vid=4e522689-8893-49ba-aefd-db672a7511b3"},"vehicle_type_id":"4","last_reported":1721840815,"current_range_meters":800,"station_id":"ce4bgrh2rcd13ifvqc8g","pricing_plan_id":"cebpf4jnsgd1na2vs0mg"},{"bike_id":"39648bce-fb73-4dc0-9510-be34dcbad233","system_id":"levelo_inurba_marseille","lat":43.301939,"lon":5.366286,"is_reserved":false,"is_disabled":false,"rental_uris":{"android":"levelo://app?vid=39648bce-fb73-4dc0-9510-be34dcbad233","ios":"levelo://app?vid=39648bce-fb73-4dc0-9510-be34dcbad233"},"vehicle_type_id":"4","last_reported":1721840815,"current_range_meters":14000,"station_id":"ce4bgrh2rcd13ifvqc8g","pricing_plan_id":"cebpf4jnsgd1na2vs0mg"},{"bike_id":"a44692b7-92a7-4baa-9b2d-a9bb428da3ab","system_id":"levelo_inurba_marseille","lat":43.30812,"lon":5.381387,"is_reserved":false,"is_disabled":false,"rental_uris":{"android":"levelo://app?vid=a44692b7-92a7-4baa-9b2d-a9bb428da3ab","ios":"levelo://app?vid=a44692b7-92a7-4baa-9b2d-a9bb428da3ab"},"vehicle_type_id":"4","last_reported":1721840815,"current_range_meters":0,"station_id":"ce4bgt12rcd13ifvqce0","pricing_plan_id":"cebpf4jnsgd1na2vs0mg"},{"bike_id":"a4799be7-f6ce-45b9-9c7a-ac3d442144af","system_id":"levelo_inurba_marseille","lat":43.324771,"lon":5.36557,"is_reserved":false,"is_disabled":false,"rental_uris":{"android":"levelo://app?vid=a4799be7-f6ce-45b9-9c7a-ac3d442144af","ios":"levelo://app?vid=a4799be7-f6ce-45b9-9c7a-ac3d442144af"},"vehicle_type_id":"4","last_reported":1721840815,"current_range_meters":24800,"station_id":"ce4bhs12rcd13ifvqhvg","pricing_plan_id":"cebpf4jnsgd1na2vs0mg"},{"bike_id":"7d21e837-9d2d-446e-95d2-4352698d4947","system_id":"levelo_inurba_marseille","lat":43.319935,"lon":5.381699,"is_reserved":false,"is_disabled":false,"rental_uris":{"android":"levelo://app?vid=7d21e837-9d2d-446e-95d2-4352698d4947","ios":"levelo://app?vid=7d21e837-9d2d-446e-95d2-4352698d4947"},"vehicle_type_id":"4","last_reported":1721840815,"current_range_meters":11200,"station_id":"ce4bhr12rcd13ifvqhpg","pricing_plan_id":"cebpf4jnsgd1na2vs0mg"},{"bike_id":"fb845670-4d93-4e26-a3d4-0549f7f4d8aa","system_id":"levelo_inurba_marseille","lat":43.30332,"lon":5.37931,"is_reserved":false,"is_disabled":false,"rental_uris":{"android":"levelo://app?vid=fb845670-4d93-4e26-a3d4-0549f7f4d8aa","ios":"levelo://app?vid=fb845670-4d93-4e26-a3d4-0549f7f4d8aa"},"vehicle_type_id":"4","last_reported":1721840815,"current_range_meters":14000,"station_id":"","pricing_plan_id":"cebpf4jnsgd1na2vs0mg"},{"bike_id":"ef0d4235-55fa-4356-8d0f-28c2fb28a3a3","system_id":"levelo_inurba_marseille","lat":43.299724,"lon":5.371829,"is_reserved":false,"is_disabled":false,"rental_uris":{"android":"levelo://app?vid=ef0d4235-55fa-4356-8d0f-28c2fb28a3a3","ios":"levelo://app?vid=ef0d4235-55fa-4356-8d0f-28c2fb28a3a3"},"vehicle_type_id":"4","last_reported":1721840815,"current_range_meters":0,"station_id":"ce4bgr92rcd13ifvqc7g","pricing_plan_id":"cebpf4jnsgd1na2vs0mg"},{"bike_id":"6f58e76e-0d4f-43c8-bf30-42ca37bea3fe","system_id":"levelo_inurba_marseille","lat":43.299724,"lon":5.371829,"is_reserved":false,"is_disabled":false,"rental_uris":{"android":"levelo://app?vid=6f58e76e-0d4f-43c8-bf30-42ca37bea3fe","ios":"levelo://app?vid=6f58e76e-0d4f-43c8-bf30-42ca37bea3fe"},"vehicle_type_id":"4","last_reported":1721840815,"current_range_meters":0,"station_id":"ce4bgr92rcd13ifvqc7g","pricing_plan_id":"cebpf4jnsgd1na2vs0mg"},{"bike_id":"00e4cb07-4424-4cec-904b-feb75d116710","system_id":"levelo_inurba_marseille","lat":43.299724,"lon":5.371829,"is_reserved":false,"is_disabled":false,"rental_uris":{"android":"levelo://app?vid=00e4cb07-4424-4cec-904b-feb75d116710","ios":"levelo://app?vid=00e4cb07-4424-4cec-904b-feb75d116710"},"vehicle_type_id":"4","last_reported":1721840815,"current_range_meters":18000,"station_id":"ce4bgr92rcd13ifvqc7g","pricing_plan_id":"cebpf4jnsgd1na2vs0mg"},{"bike_id":"9353cebe-2b6b-4361-a87b-c1bd826eaf9e","system_id":"levelo_inurba_marseille","lat":43.299724,"lon":5.371829,"is_reserved":false,"is_disabled":false,"rental_uris":{"android":"levelo://app?vid=9353cebe-2b6b-4361-a87b-c1bd826eaf9e","ios":"levelo://app?vid=9353cebe-2b6b-4361-a87b-c1bd826eaf9e"},"vehicle_type_id":"4","last_reported":1721840815,"current_range_meters":0,"station_id":"ce4bgr92rcd13ifvqc7g","pricing_plan_id":"cebpf4jnsgd1na2vs0mg"},{"bike_id":"b7a63376-efe0-403b-b9f6-8c114c813350","system_id":"levelo_inurba_marseille","lat":43.29857,"lon":5.36295,"is_reserved":false,"is_disabled":false,"rental_uris":{"android":"levelo://app?vid=b7a63376-efe0-403b-b9f6-8c114c813350","ios":"levelo://app?vid=b7a63376-efe0-403b-b9f6-8c114c813350"},"vehicle_type_id":"4","last_reported":1721840815,"current_range_meters":8000,"station_id":"ce4bgpp2rcd13ifvqc3g","pricing_plan_id":"cebpf4jnsgd1na2vs0mg"},{"bike_id":"be26297c-d83b-4be5-856f-f4f93c923644","system_id":"levelo_inurba_marseille","lat":43.29857,"lon":5.3629,"is_reserved":false,"is_disabled":false,"rental_uris":{"android":"levelo://app?vid=be26297c-d83b-4be5-856f-f4f93c923644","ios":"levelo://app?vid=be26297c-d83b-4be5-856f-f4f93c923644"},"vehicle_type_id":"4","last_reported":1721840815,"current_range_meters":31200,"station_id":"ce4bgpp2rcd13ifvqc3g","pricing_plan_id":"cebpf4jnsgd1na2vs0mg"},{"bike_id":"b3c97d5e-b6ba-43c6-af10-30c8437cef6b","system_id":"levelo_inurba_marseille","lat":43.309465,"lon":5.386325,"is_reserved":false,"is_disabled":false,"rental_uris":{"android":"levelo://app?vid=b3c97d5e-b6ba-43c6-af10-30c8437cef6b","ios":"levelo://app?vid=b3c97d5e-b6ba-43c6-af10-30c8437cef6b"},"vehicle_type_id":"4","last_reported":1721840815,"current_range_meters":1600,"station_id":"","pricing_plan_id":"cebpf4jnsgd1na2vs0mg"},{"bike_id":"2fda33e9-8828-44ef-962c-7ddd0a4b61c0","system_id":"levelo_inurba_marseille","lat":43.29854,"lon":5.36291,"is_reserved":false,"is_disabled":false,"rental_uris":{"android":"levelo://app?vid=2fda33e9-8828-44ef-962c-7ddd0a4b61c0","ios":"levelo://app?vid=2fda33e9-8828-44ef-962c-7ddd0a4b61c0"},"vehicle_type_id":"4","last_reported":1721840815,"current_range_meters":0,"station_id":"ce4bgpp2rcd13ifvqc3g","pricing_plan_id":"cebpf4jnsgd1na2vs0mg"},{"bike_id":"813fab3a-d1e8-47b2-a26f-321db5598426","system_id":"levelo_inurba_marseille","lat":43.298433,"lon":5.362774,"is_reserved":false,"is_disabled":false,"rental_uris":{"android":"levelo://app?vid=813fab3a-d1e8-47b2-a26f-321db5598426","ios":"levelo://app?vid=813fab3a-d1e8-47b2-a26f-321db5598426"},"vehicle_type_id":"4","last_reported":1721840815,"current_range_meters":22000,"station_id":"ce4bgpp2rcd13ifvqc3g","pricing_plan_id":"cebpf4jnsgd1na2vs0mg"},{"bike_id":"9a17889f-2af9-4a6d-b208-cddccf273372","system_id":"levelo_inurba_marseille","lat":43.29852,"lon":5.36293,"is_reserved":false,"is_disabled":false,"rental_uris":{"android":"levelo://app?vid=9a17889f-2af9-4a6d-b208-cddccf273372","ios":"levelo://app?vid=9a17889f-2af9-4a6d-b208-cddccf273372"},"vehicle_type_id":"4","last_reported":1721840815,"current_range_meters":21200,"station_id":"ce4bgpp2rcd13ifvqc3g","pricing_plan_id":"cebpf4jnsgd1na2vs0mg"},{"bike_id":"9f7cd668-0a66-49c0-8d52-2d0337f8cd2c","system_id":"levelo_inurba_marseille","lat":43.298433,"lon":5.362774,"is_reserved":false,"is_disabled":false,"rental_uris":{"android":"levelo://app?vid=9f7cd668-0a66-49c0-8d52-2d0337f8cd2c","ios":"levelo://app?vid=9f7cd668-0a66-49c0-8d52-2d0337f8cd2c"},"vehicle_type_id":"4","last_reported":1721840815,"current_range_meters":3600,"station_id":"ce4bgpp2rcd13ifvqc3g","pricing_plan_id":"cebpf4jnsgd1na2vs0mg"},{"bike_id":"819cd1a5-ad74-44ce-ba54-07f5551c8b82","system_id":"levelo_inurba_marseille","lat":43.29849,"lon":5.36288,"is_reserved":false,"is_disabled":false,"rental_uris":{"android":"levelo://app?vid=819cd1a5-ad74-44ce-ba54-07f5551c8b82","ios":"levelo://app?vid=819cd1a5-ad74-44ce-ba54-07f5551c8b82"},"vehicle_type_id":"4","last_reported":1721840815,"current_range_meters":24400,"station_id":"ce4bgpp2rcd13ifvqc3g","pricing_plan_id":"cebpf4jnsgd1na2vs0mg"},{"bike_id":"adda6741-911e-49f8-8417-538c69a6f9b7","system_id":"levelo_inurba_marseille","lat":43.29849,"lon":5.36288,"is_reserved":false,"is_disabled":false,"rental_uris":{"android":"levelo://app?vid=adda6741-911e-49f8-8417-538c69a6f9b7","ios":"levelo://app?vid=adda6741-911e-49f8-8417-538c69a6f9b7"},"vehicle_type_id":"4","last_reported":1721840815,"current_range_meters":8000,"station_id":"ce4bgpp2rcd13ifvqc3g","pricing_plan_id":"cebpf4jnsgd1na2vs0mg"},{"bike_id":"71f8871f-fb96-4db5-8ab3-8c4caf86c00e","system_id":"levelo_inurba_marseille","lat":43.298433,"lon":5.362774,"is_reserved":false,"is_disabled":false,"rental_uris":{"android":"levelo://app?vid=71f8871f-fb96-4db5-8ab3-8c4caf86c00e","ios":"levelo://app?vid=71f8871f-fb96-4db5-8ab3-8c4caf86c00e"},"vehicle_type_id":"4","last_reported":1721840815,"current_range_meters":26800,"station_id":"ce4bgpp2rcd13ifvqc3g","pricing_plan_id":"cebpf4jnsgd1na2vs0mg"},{"bike_id":"f6eb12c4-fa2e-47ff-b827-a24a7b9eef57","system_id":"levelo_inurba_marseille","lat":43.298433,"lon":5.362774,"is_reserved":false,"is_disabled":false,"rental_uris":{"android":"levelo://app?vid=f6eb12c4-fa2e-47ff-b827-a24a7b9eef57","ios":"levelo://app?vid=f6eb12c4-fa2e-47ff-b827-a24a7b9eef57"},"vehicle_type_id":"4","last_reported":1721840815,"current_range_meters":11200,"station_id":"ce4bgpp2rcd13ifvqc3g","pricing_plan_id":"cebpf4jnsgd1na2vs0mg"},{"bike_id":"7e3bfe80-4e35-4786-b15e-2981a0d38183","system_id":"levelo_inurba_marseille","lat":43.305364,"lon":5.384119,"is_reserved":false,"is_disabled":false,"rental_uris":{"android":"levelo://app?vid=7e3bfe80-4e35-4786-b15e-2981a0d38183","ios":"levelo://app?vid=7e3bfe80-4e35-4786-b15e-2981a0d38183"},"vehicle_type_id":"4","last_reported":1721840815,"current_range_meters":6400,"station_id":"ce4bgg92rcd13ifvqb30","pricing_plan_id":"cebpf4jnsgd1na2vs0mg"},{"bike_id":"20be9daf-cc13-4b7a-90e9-4a461fa1f7fa","system_id":"levelo_inurba_marseille","lat":43.311722,"lon":5.387247,"is_reserved":false,"is_disabled":false,"rental_uris":{"android":"levelo://app?vid=20be9daf-cc13-4b7a-90e9-4a461fa1f7fa","ios":"levelo://app?vid=20be9daf-cc13-4b7a-90e9-4a461fa1f7fa"},"vehicle_type_id":"4","last_reported":1721840815,"current_range_meters":800,"station_id":"ce4bgv12rcd13ifvqcp0","pricing_plan_id":"cebpf4jnsgd1na2vs0mg"},{"bike_id":"adb70895-7233-42cc-8a88-09997f27039a","system_id":"levelo_inurba_marseille","lat":43.311722,"lon":5.387247,"is_reserved":false,"is_disabled":false,"rental_uris":{"android":"levelo://app?vid=adb70895-7233-42cc-8a88-09997f27039a","ios":"levelo://app?vid=adb70895-7233-42cc-8a88-09997f27039a"},"vehicle_type_id":"4","last_reported":1721840815,"current_range_meters":20800,"station_id":"ce4bgv12rcd13ifvqcp0","pricing_plan_id":"cebpf4jnsgd1na2vs0mg"},{"bike_id":"fb061fec-fc51-41ad-bb33-4eb88c9bd7d5","system_id":"levelo_inurba_marseille","lat":43.299243,"lon":5.37481,"is_reserved":false,"is_disabled":false,"rental_uris":{"android":"levelo://app?vid=fb061fec-fc51-41ad-bb33-4eb88c9bd7d5","ios":"levelo://app?vid=fb061fec-fc51-41ad-bb33-4eb88c9bd7d5"},"vehicle_type_id":"4","last_reported":1721840815,"current_range_meters":6000,"station_id":"ce4bgjh2rcd13ifvqbg0","pricing_plan_id":"cebpf4jnsgd1na2vs0mg"},{"bike_id":"3f18cf7c-2e51-480b-8035-4882bb22d2f8","system_id":"levelo_inurba_marseille","lat":43.29776,"lon":5.37103,"is_reserved":false,"is_disabled":false,"rental_uris":{"android":"levelo://app?vid=3f18cf7c-2e51-480b-8035-4882bb22d2f8","ios":"levelo://app?vid=3f18cf7c-2e51-480b-8035-4882bb22d2f8"},"vehicle_type_id":"4","last_reported":1721840815,"current_range_meters":0,"station_id":"ce4bgop2rcd13ifvqc1g","pricing_plan_id":"cebpf4jnsgd1na2vs0mg"},{"bike_id":"b175610a-4c59-44ad-a3af-c3e4b597556f","system_id":"levelo_inurba_marseille","lat":43.32283,"lon":5.38275,"is_reserved":false,"is_disabled":false,"rental_uris":{"android":"levelo://app?vid=b175610a-4c59-44ad-a3af-c3e4b597556f","ios":"levelo://app?vid=b175610a-4c59-44ad-a3af-c3e4b597556f"},"vehicle_type_id":"4","last_reported":1721840815,"current_range_meters":18000,"station_id":"ce4bhr12rcd13ifvqhqg","pricing_plan_id":"cebpf4jnsgd1na2vs0mg"},{"bike_id":"1614262e-56fd-488c-a857-b3806b56d4a1","system_id":"levelo_inurba_marseille","lat":43.322872,"lon":5.382756,"is_reserved":false,"is_disabled":false,"rental_uris":{"android":"levelo://app?vid=1614262e-56fd-488c-a857-b3806b56d4a1","ios":"levelo://app?vid=1614262e-56fd-488c-a857-b3806b56d4a1"},"vehicle_type_id":"4","last_reported":1721840815,"current_range_meters":30000,"station_id":"ce4bhr12rcd13ifvqhqg","pricing_plan_id":"cebpf4jnsgd1na2vs0mg"},{"bike_id":"c35b388e-e3c9-4fcc-91b7-5672aa48325d","system_id":"levelo_inurba_marseille","lat":43.32299,"lon":5.38262,"is_reserved":false,"is_disabled":false,"rental_uris":{"android":"levelo://app?vid=c35b388e-e3c9-4fcc-91b7-5672aa48325d","ios":"levelo://app?vid=c35b388e-e3c9-4fcc-91b7-5672aa48325d"},"vehicle_type_id":"4","last_reported":1721840815,"current_range_meters":18800,"station_id":"ce4bhr12rcd13ifvqhqg","pricing_plan_id":"cebpf4jnsgd1na2vs0mg"},{"bike_id":"6e533d20-82e6-4a36-b9da-fc0457b09927","system_id":"levelo_inurba_marseille","lat":43.29869,"lon":5.37655,"is_reserved":false,"is_disabled":false,"rental_uris":{"android":"levelo://app?vid=6e533d20-82e6-4a36-b9da-fc0457b09927","ios":"levelo://app?vid=6e533d20-82e6-4a36-b9da-fc0457b09927"},"vehicle_type_id":"4","last_reported":1721840815,"current_range_meters":14000,"station_id":"","pricing_plan_id":"cebpf4jnsgd1na2vs0mg"},{"bike_id":"0d660518-463a-4a75-add9-bdf5a5b9b153","system_id":"levelo_inurba_marseille","lat":43.29587,"lon":5.36731,"is_reserved":false,"is_disabled":false,"rental_uris":{"android":"levelo://app?vid=0d660518-463a-4a75-add9-bdf5a5b9b153","ios":"levelo://app?vid=0d660518-463a-4a75-add9-bdf5a5b9b153"},"vehicle_type_id":"4","last_reported":1721840815,"current_range_meters":14800,"station_id":"ce4bgph2rcd13ifvqc2g","pricing_plan_id":"cebpf4jnsgd1na2vs0mg"},{"bike_id":"d2ad9636-5027-4968-9fae-b5469009fe15","system_id":"levelo_inurba_marseille","lat":43.29573,"lon":5.367355,"is_reserved":false,"is_disabled":false,"rental_uris":{"android":"levelo://app?vid=d2ad9636-5027-4968-9fae-b5469009fe15","ios":"levelo://app?vid=d2ad9636-5027-4968-9fae-b5469009fe15"},"vehicle_type_id":"4","last_reported":1721840815,"current_range_meters":5600,"station_id":"ce4bgph2rcd13ifvqc2g","pricing_plan_id":"cebpf4jnsgd1na2vs0mg"},{"bike_id":"5bf5cf81-0b08-477e-894d-6170e7275dec","system_id":"levelo_inurba_marseille","lat":43.309589,"lon":5.390258,"is_reserved":false,"is_disabled":false,"rental_uris":{"android":"levelo://app?vid=5bf5cf81-0b08-477e-894d-6170e7275dec","ios":"levelo://app?vid=5bf5cf81-0b08-477e-894d-6170e7275dec"},"vehicle_type_id":"4","last_reported":1721840815,"current_range_meters":4800,"station_id":"ce4bgup2rcd13ifvqco0","pricing_plan_id":"cebpf4jnsgd1na2vs0mg"},{"bike_id":"8ee96e4c-c16b-4fe0-841e-5d2e52b8ab5d","system_id":"levelo_inurba_marseille","lat":43.296921,"lon":5.376579,"is_reserved":false,"is_disabled":false,"rental_uris":{"android":"levelo://app?vid=8ee96e4c-c16b-4fe0-841e-5d2e52b8ab5d","ios":"levelo://app?vid=8ee96e4c-c16b-4fe0-841e-5d2e52b8ab5d"},"vehicle_type_id":"4","last_reported":1721840815,"current_range_meters":8800,"station_id":"ce4bgkh2rcd13ifvqbl0","pricing_plan_id":"cebpf4jnsgd1na2vs0mg"},{"bike_id":"6c4548a6-637c-484d-ad43-882bf56c20ff","system_id":"levelo_inurba_marseille","lat":43.309589,"lon":5.390258,"is_reserved":false,"is_disabled":false,"rental_uris":{"android":"levelo://app?vid=6c4548a6-637c-484d-ad43-882bf56c20ff","ios":"levelo://app?vid=6c4548a6-637c-484d-ad43-882bf56c20ff"},"vehicle_type_id":"4","last_reported":1721840815,"current_range_meters":8000,"station_id":"ce4bgup2rcd13ifvqco0","pricing_plan_id":"cebpf4jnsgd1na2vs0mg"},{"bike_id":"7086e267-d387-4e3d-ab62-b63143d19c9c","system_id":"levelo_inurba_marseille","lat":43.30947,"lon":5.390377,"is_reserved":false,"is_disabled":false,"rental_uris":{"android":"levelo://app?vid=7086e267-d387-4e3d-ab62-b63143d19c9c","ios":"levelo://app?vid=7086e267-d387-4e3d-ab62-b63143d19c9c"},"vehicle_type_id":"4","last_reported":1721840815,"current_range_meters":6400,"station_id":"ce4bgup2rcd13ifvqco0","pricing_plan_id":"cebpf4jnsgd1na2vs0mg"},{"bike_id":"bbb423c2-8d87-4a05-9265-9bb4d8516eff","system_id":"levelo_inurba_marseille","lat":43.309589,"lon":5.390258,"is_reserved":false,"is_disabled":false,"rental_uris":{"android":"levelo://app?vid=bbb423c2-8d87-4a05-9265-9bb4d8516eff","ios":"levelo://app?vid=bbb423c2-8d87-4a05-9265-9bb4d8516eff"},"vehicle_type_id":"4","last_reported":1721840815,"current_range_meters":24800,"station_id":"ce4bgup2rcd13ifvqco0","pricing_plan_id":"cebpf4jnsgd1na2vs0mg"},{"bike_id":"6ca708be-126e-47f6-a9ba-263cfacac002","system_id":"levelo_inurba_marseille","lat":43.31762,"lon":5.39014,"is_reserved":false,"is_disabled":false,"rental_uris":{"android":"levelo://app?vid=6ca708be-126e-47f6-a9ba-263cfacac002","ios":"levelo://app?vid=6ca708be-126e-47f6-a9ba-263cfacac002"},"vehicle_type_id":"4","last_reported":1721840815,"current_range_meters":0,"station_id":"ce4bhqp2rcd13ifvqhng","pricing_plan_id":"cebpf4jnsgd1na2vs0mg"},{"bike_id":"edfc5c60-c839-4400-ba42-642eb6ba32f4","system_id":"levelo_inurba_marseille","lat":43.317557,"lon":5.390173,"is_reserved":false,"is_disabled":false,"rental_uris":{"android":"levelo://app?vid=edfc5c60-c839-4400-ba42-642eb6ba32f4","ios":"levelo://app?vid=edfc5c60-c839-4400-ba42-642eb6ba32f4"},"vehicle_type_id":"4","last_reported":1721840815,"current_range_meters":28400,"station_id":"ce4bhqp2rcd13ifvqhng","pricing_plan_id":"cebpf4jnsgd1na2vs0mg"},{"bike_id":"88f6075b-2791-4510-82bd-dc3b007cb264","system_id":"levelo_inurba_marseille","lat":43.291994,"lon":5.357886,"is_reserved":false,"is_disabled":false,"rental_uris":{"android":"levelo://app?vid=88f6075b-2791-4510-82bd-dc3b007cb264","ios":"levelo://app?vid=88f6075b-2791-4510-82bd-dc3b007cb264"},"vehicle_type_id":"4","last_reported":1721840815,"current_range_meters":7600,"station_id":"ce4bhb12rcd13ifvqel0","pricing_plan_id":"cebpf4jnsgd1na2vs0mg"},{"bike_id":"2d343623-030a-41b1-8bc6-5df3d63da842","system_id":"levelo_inurba_marseille","lat":43.295748,"lon":5.37522,"is_reserved":false,"is_disabled":false,"rental_uris":{"android":"levelo://app?vid=2d343623-030a-41b1-8bc6-5df3d63da842","ios":"levelo://app?vid=2d343623-030a-41b1-8bc6-5df3d63da842"},"vehicle_type_id":"4","last_reported":1721840815,"current_range_meters":0,"station_id":"ce4bgh92rcd13ifvqb50","pricing_plan_id":"cebpf4jnsgd1na2vs0mg"},{"bike_id":"0b87d497-ac42-4715-a4e5-c6f9380801b5","system_id":"levelo_inurba_marseille","lat":43.29564,"lon":5.37504,"is_reserved":false,"is_disabled":false,"rental_uris":{"android":"levelo://app?vid=0b87d497-ac42-4715-a4e5-c6f9380801b5","ios":"levelo://app?vid=0b87d497-ac42-4715-a4e5-c6f9380801b5"},"vehicle_type_id":"4","last_reported":1721840815,"current_range_meters":22800,"station_id":"ce4bgh92rcd13ifvqb50","pricing_plan_id":"cebpf4jnsgd1na2vs0mg"},{"bike_id":"4fb11fdd-b7e6-49c4-ac88-331d3e318ef4","system_id":"levelo_inurba_marseille","lat":43.304274,"lon":5.388873,"is_reserved":false,"is_disabled":false,"rental_uris":{"android":"levelo://app?vid=4fb11fdd-b7e6-49c4-ac88-331d3e318ef4","ios":"levelo://app?vid=4fb11fdd-b7e6-49c4-ac88-331d3e318ef4"},"vehicle_type_id":"4","last_reported":1721840815,"current_range_meters":21600,"station_id":"ce4bgk12rcd13ifvqbi0","pricing_plan_id":"cebpf4jnsgd1na2vs0mg"},{"bike_id":"0b8d018d-74aa-421d-8e55-12bebafbe814","system_id":"levelo_inurba_marseille","lat":43.29527,"lon":5.37459,"is_reserved":false,"is_disabled":false,"rental_uris":{"android":"levelo://app?vid=0b8d018d-74aa-421d-8e55-12bebafbe814","ios":"levelo://app?vid=0b8d018d-74aa-421d-8e55-12bebafbe814"},"vehicle_type_id":"4","last_reported":1721840815,"current_range_meters":8000,"station_id":"ce4bhch2rcd13ifvqeug","pricing_plan_id":"cebpf4jnsgd1na2vs0mg"},{"bike_id":"d881069e-2a0d-48f1-b79f-3f60168d6ab8","system_id":"levelo_inurba_marseille","lat":43.299707,"lon":5.384859,"is_reserved":false,"is_disabled":false,"rental_uris":{"android":"levelo://app?vid=d881069e-2a0d-48f1-b79f-3f60168d6ab8","ios":"levelo://app?vid=d881069e-2a0d-48f1-b79f-3f60168d6ab8"},"vehicle_type_id":"4","last_reported":1721840815,"current_range_meters":0,"station_id":"ce4bgj92rcd13ifvqbd0","pricing_plan_id":"cebpf4jnsgd1na2vs0mg"},{"bike_id":"ba516dca-06ea-434d-a73a-cd434e6e8b80","system_id":"levelo_inurba_marseille","lat":43.299724,"lon":5.384848,"is_reserved":false,"is_disabled":false,"rental_uris":{"android":"levelo://app?vid=ba516dca-06ea-434d-a73a-cd434e6e8b80","ios":"levelo://app?vid=ba516dca-06ea-434d-a73a-cd434e6e8b80"},"vehicle_type_id":"4","last_reported":1721840815,"current_range_meters":8400,"station_id":"ce4bgj92rcd13ifvqbd0","pricing_plan_id":"cebpf4jnsgd1na2vs0mg"},{"bike_id":"a299f5ae-9190-4b47-be1b-b668bc08a586","system_id":"levelo_inurba_marseille","lat":43.299724,"lon":5.384848,"is_reserved":false,"is_disabled":false,"rental_uris":{"android":"levelo://app?vid=a299f5ae-9190-4b47-be1b-b668bc08a586","ios":"levelo://app?vid=a299f5ae-9190-4b47-be1b-b668bc08a586"},"vehicle_type_id":"4","last_reported":1721840815,"current_range_meters":12800,"station_id":"ce4bgj92rcd13ifvqbd0","pricing_plan_id":"cebpf4jnsgd1na2vs0mg"},{"bike_id":"e9a097b5-00d5-4d82-b2f6-d7d77f9d26d1","system_id":"levelo_inurba_marseille","lat":43.30398,"lon":5.38923,"is_reserved":false,"is_disabled":false,"rental_uris":{"android":"levelo://app?vid=e9a097b5-00d5-4d82-b2f6-d7d77f9d26d1","ios":"levelo://app?vid=e9a097b5-00d5-4d82-b2f6-d7d77f9d26d1"},"vehicle_type_id":"4","last_reported":1721840815,"current_range_meters":20400,"station_id":"ce4bgk12rcd13ifvqbi0","pricing_plan_id":"cebpf4jnsgd1na2vs0mg"},{"bike_id":"994a90db-3a13-48ba-b6b6-55a257bc241b","system_id":"levelo_inurba_marseille","lat":43.299724,"lon":5.384848,"is_reserved":false,"is_disabled":false,"rental_uris":{"android":"levelo://app?vid=994a90db-3a13-48ba-b6b6-55a257bc241b","ios":"levelo://app?vid=994a90db-3a13-48ba-b6b6-55a257bc241b"},"vehicle_type_id":"4","last_reported":1721840815,"current_range_meters":25200,"station_id":"ce4bgj92rcd13ifvqbd0","pricing_plan_id":"cebpf4jnsgd1na2vs0mg"},{"bike_id":"0a3bfca3-b4b6-4797-a96e-3a75d2a2db84","system_id":"levelo_inurba_marseille","lat":43.31468,"lon":5.392177,"is_reserved":false,"is_disabled":false,"rental_uris":{"android":"levelo://app?vid=0a3bfca3-b4b6-4797-a96e-3a75d2a2db84","ios":"levelo://app?vid=0a3bfca3-b4b6-4797-a96e-3a75d2a2db84"},"vehicle_type_id":"4","last_reported":1721840815,"current_range_meters":800,"station_id":"","pricing_plan_id":"cebpf4jnsgd1na2vs0mg"},{"bike_id":"57f10317-3cee-409e-824c-e2b09bede6f9","system_id":"levelo_inurba_marseille","lat":43.299707,"lon":5.384859,"is_reserved":false,"is_disabled":false,"rental_uris":{"android":"levelo://app?vid=57f10317-3cee-409e-824c-e2b09bede6f9","ios":"levelo://app?vid=57f10317-3cee-409e-824c-e2b09bede6f9"},"vehicle_type_id":"4","last_reported":1721840815,"current_range_meters":4800,"station_id":"ce4bgj92rcd13ifvqbd0","pricing_plan_id":"cebpf4jnsgd1na2vs0mg"},{"bike_id":"7e12d51b-a167-416c-9b4b-39201b061813","system_id":"levelo_inurba_marseille","lat":43.299724,"lon":5.384848,"is_reserved":false,"is_disabled":false,"rental_uris":{"android":"levelo://app?vid=7e12d51b-a167-416c-9b4b-39201b061813","ios":"levelo://app?vid=7e12d51b-a167-416c-9b4b-39201b061813"},"vehicle_type_id":"4","last_reported":1721840815,"current_range_meters":16400,"station_id":"ce4bgj92rcd13ifvqbd0","pricing_plan_id":"cebpf4jnsgd1na2vs0mg"},{"bike_id":"6ea82ded-e771-44ff-96b0-4adb0d64dae0","system_id":"levelo_inurba_marseille","lat":43.32367,"lon":5.388836,"is_reserved":false,"is_disabled":false,"rental_uris":{"android":"levelo://app?vid=6ea82ded-e771-44ff-96b0-4adb0d64dae0","ios":"levelo://app?vid=6ea82ded-e771-44ff-96b0-4adb0d64dae0"},"vehicle_type_id":"4","last_reported":1721840815,"current_range_meters":11600,"station_id":"ce4bhqp2rcd13ifvqhog","pricing_plan_id":"cebpf4jnsgd1na2vs0mg"},{"bike_id":"f7e8fffd-e6a7-45ba-83b5-8f2f76a0c040","system_id":"levelo_inurba_marseille","lat":43.32367,"lon":5.388836,"is_reserved":false,"is_disabled":false,"rental_uris":{"android":"levelo://app?vid=f7e8fffd-e6a7-45ba-83b5-8f2f76a0c040","ios":"levelo://app?vid=f7e8fffd-e6a7-45ba-83b5-8f2f76a0c040"},"vehicle_type_id":"4","last_reported":1721840815,"current_range_meters":10000,"station_id":"ce4bhqp2rcd13ifvqhog","pricing_plan_id":"cebpf4jnsgd1na2vs0mg"},{"bike_id":"46d1c264-d195-41b2-a3e3-a713aedf1258","system_id":"levelo_inurba_marseille","lat":43.32367,"lon":5.388836,"is_reserved":false,"is_disabled":false,"rental_uris":{"android":"levelo://app?vid=46d1c264-d195-41b2-a3e3-a713aedf1258","ios":"levelo://app?vid=46d1c264-d195-41b2-a3e3-a713aedf1258"},"vehicle_type_id":"4","last_reported":1721840815,"current_range_meters":6800,"station_id":"ce4bhqp2rcd13ifvqhog","pricing_plan_id":"cebpf4jnsgd1na2vs0mg"},{"bike_id":"21f90b15-9877-40c5-8972-c3cd86d10bfa","system_id":"levelo_inurba_marseille","lat":43.292749,"lon":5.368402,"is_reserved":false,"is_disabled":false,"rental_uris":{"android":"levelo://app?vid=21f90b15-9877-40c5-8972-c3cd86d10bfa","ios":"levelo://app?vid=21f90b15-9877-40c5-8972-c3cd86d10bfa"},"vehicle_type_id":"4","last_reported":1721840815,"current_range_meters":0,"station_id":"ce4bhbp2rcd13ifvqesg","pricing_plan_id":"cebpf4jnsgd1na2vs0mg"},{"bike_id":"ec9a68bf-5344-4f1f-830c-84eed28d22ee","system_id":"levelo_inurba_marseille","lat":43.29309,"lon":5.37177,"is_reserved":false,"is_disabled":false,"rental_uris":{"android":"levelo://app?vid=ec9a68bf-5344-4f1f-830c-84eed28d22ee","ios":"levelo://app?vid=ec9a68bf-5344-4f1f-830c-84eed28d22ee"},"vehicle_type_id":"4","last_reported":1721840815,"current_range_meters":0,"station_id":"ce4bgh92rcd13ifvqb40","pricing_plan_id":"cebpf4jnsgd1na2vs0mg"},{"bike_id":"f6461e5b-7a6c-460c-9fa2-c5a889f706df","system_id":"levelo_inurba_marseille","lat":43.29307,"lon":5.3718,"is_reserved":false,"is_disabled":false,"rental_uris":{"android":"levelo://app?vid=f6461e5b-7a6c-460c-9fa2-c5a889f706df","ios":"levelo://app?vid=f6461e5b-7a6c-460c-9fa2-c5a889f706df"},"vehicle_type_id":"4","last_reported":1721840815,"current_range_meters":22800,"station_id":"ce4bgh92rcd13ifvqb40","pricing_plan_id":"cebpf4jnsgd1na2vs0mg"},{"bike_id":"d400ab91-abd6-48f1-bfd4-df0432b8202b","system_id":"levelo_inurba_marseille","lat":43.29303,"lon":5.37176,"is_reserved":false,"is_disabled":false,"rental_uris":{"android":"levelo://app?vid=d400ab91-abd6-48f1-bfd4-df0432b8202b","ios":"levelo://app?vid=d400ab91-abd6-48f1-bfd4-df0432b8202b"},"vehicle_type_id":"4","last_reported":1721840815,"current_range_meters":29600,"station_id":"ce4bgh92rcd13ifvqb40","pricing_plan_id":"cebpf4jnsgd1na2vs0mg"},{"bike_id":"4f292737-9435-4e25-9253-5a8404c6247f","system_id":"levelo_inurba_marseille","lat":43.292749,"lon":5.368402,"is_reserved":false,"is_disabled":false,"rental_uris":{"android":"levelo://app?vid=4f292737-9435-4e25-9253-5a8404c6247f","ios":"levelo://app?vid=4f292737-9435-4e25-9253-5a8404c6247f"},"vehicle_type_id":"4","last_reported":1721840815,"current_range_meters":3200,"station_id":"ce4bhbp2rcd13ifvqesg","pricing_plan_id":"cebpf4jnsgd1na2vs0mg"},{"bike_id":"b8a86062-db27-48d6-b7f6-ae9e2f78fc49","system_id":"levelo_inurba_marseille","lat":43.305994,"lon":5.393687,"is_reserved":false,"is_disabled":false,"rental_uris":{"android":"levelo://app?vid=b8a86062-db27-48d6-b7f6-ae9e2f78fc49","ios":"levelo://app?vid=b8a86062-db27-48d6-b7f6-ae9e2f78fc49"},"vehicle_type_id":"4","last_reported":1721840815,"current_range_meters":0,"station_id":"ce4bh0p2rcd13ifvqd80","pricing_plan_id":"cebpf4jnsgd1na2vs0mg"},{"bike_id":"5738a010-1dee-48a6-955f-1abac4fa341c","system_id":"levelo_inurba_marseille","lat":43.305994,"lon":5.393687,"is_reserved":false,"is_disabled":false,"rental_uris":{"android":"levelo://app?vid=5738a010-1dee-48a6-955f-1abac4fa341c","ios":"levelo://app?vid=5738a010-1dee-48a6-955f-1abac4fa341c"},"vehicle_type_id":"4","last_reported":1721840815,"current_range_meters":17200,"station_id":"ce4bh0p2rcd13ifvqd80","pricing_plan_id":"cebpf4jnsgd1na2vs0mg"},{"bike_id":"061443a4-20fa-404c-bd38-fb709c10fdd6","system_id":"levelo_inurba_marseille","lat":43.303153,"lon":5.392153,"is_reserved":false,"is_disabled":false,"rental_uris":{"android":"levelo://app?vid=061443a4-20fa-404c-bd38-fb709c10fdd6","ios":"levelo://app?vid=061443a4-20fa-404c-bd38-fb709c10fdd6"},"vehicle_type_id":"4","last_reported":1721840815,"current_range_meters":0,"station_id":"ce4bgkh2rcd13ifvqbk0","pricing_plan_id":"cebpf4jnsgd1na2vs0mg"},{"bike_id":"4fa00d51-6eed-44dd-982f-fd6b3f96eca5","system_id":"levelo_inurba_marseille","lat":43.30311,"lon":5.39217,"is_reserved":false,"is_disabled":false,"rental_uris":{"android":"levelo://app?vid=4fa00d51-6eed-44dd-982f-fd6b3f96eca5","ios":"levelo://app?vid=4fa00d51-6eed-44dd-982f-fd6b3f96eca5"},"vehicle_type_id":"4","last_reported":1721840815,"current_range_meters":0,"station_id":"ce4bgkh2rcd13ifvqbk0","pricing_plan_id":"cebpf4jnsgd1na2vs0mg"},{"bike_id":"cdccfb31-c2d2-4508-a732-36e62e5e0e28","system_id":"levelo_inurba_marseille","lat":43.293782,"lon":5.37863,"is_reserved":false,"is_disabled":false,"rental_uris":{"android":"levelo://app?vid=cdccfb31-c2d2-4508-a732-36e62e5e0e28","ios":"levelo://app?vid=cdccfb31-c2d2-4508-a732-36e62e5e0e28"},"vehicle_type_id":"4","last_reported":1721840815,"current_range_meters":0,"station_id":"ce4bgjh2rcd13ifvqbf0","pricing_plan_id":"cebpf4jnsgd1na2vs0mg"},{"bike_id":"9bfb6d71-77bb-4154-a126-82ad92135381","system_id":"levelo_inurba_marseille","lat":43.29229,"lon":5.36068,"is_reserved":false,"is_disabled":false,"rental_uris":{"android":"levelo://app?vid=9bfb6d71-77bb-4154-a126-82ad92135381","ios":"levelo://app?vid=9bfb6d71-77bb-4154-a126-82ad92135381"},"vehicle_type_id":"4","last_reported":1721840815,"current_range_meters":31200,"station_id":"ce4bhbh2rcd13ifvqeqg","pricing_plan_id":"cebpf4jnsgd1na2vs0mg"},{"bike_id":"ac1975a6-8d8e-42b5-b90f-269edc96dbad","system_id":"levelo_inurba_marseille","lat":43.292311,"lon":5.360731,"is_reserved":false,"is_disabled":false,"rental_uris":{"android":"levelo://app?vid=ac1975a6-8d8e-42b5-b90f-269edc96dbad","ios":"levelo://app?vid=ac1975a6-8d8e-42b5-b90f-269edc96dbad"},"vehicle_type_id":"4","last_reported":1721840815,"current_range_meters":5200,"station_id":"ce4bhbh2rcd13ifvqeqg","pricing_plan_id":"cebpf4jnsgd1na2vs0mg"},{"bike_id":"5d97eb39-0290-4604-87bb-3e18d5036077","system_id":"levelo_inurba_marseille","lat":43.292311,"lon":5.360731,"is_reserved":false,"is_disabled":false,"rental_uris":{"android":"levelo://app?vid=5d97eb39-0290-4604-87bb-3e18d5036077","ios":"levelo://app?vid=5d97eb39-0290-4604-87bb-3e18d5036077"},"vehicle_type_id":"4","last_reported":1721840815,"current_range_meters":10000,"station_id":"ce4bhbh2rcd13ifvqeqg","pricing_plan_id":"cebpf4jnsgd1na2vs0mg"},{"bike_id":"c2d4589f-9f8a-4c65-9bf4-43cb542f2ca4","system_id":"levelo_inurba_marseille","lat":43.292311,"lon":5.360731,"is_reserved":false,"is_disabled":false,"rental_uris":{"android":"levelo://app?vid=c2d4589f-9f8a-4c65-9bf4-43cb542f2ca4","ios":"levelo://app?vid=c2d4589f-9f8a-4c65-9bf4-43cb542f2ca4"},"vehicle_type_id":"4","last_reported":1721840815,"current_range_meters":7200,"station_id":"ce4bhbh2rcd13ifvqeqg","pricing_plan_id":"cebpf4jnsgd1na2vs0mg"},{"bike_id":"664a32e8-aa10-4d4d-876f-d1aa1ac3e17d","system_id":"levelo_inurba_marseille","lat":43.292311,"lon":5.360731,"is_reserved":false,"is_disabled":false,"rental_uris":{"android":"levelo://app?vid=664a32e8-aa10-4d4d-876f-d1aa1ac3e17d","ios":"levelo://app?vid=664a32e8-aa10-4d4d-876f-d1aa1ac3e17d"},"vehicle_type_id":"4","last_reported":1721840815,"current_range_meters":12400,"station_id":"ce4bhbh2rcd13ifvqeqg","pricing_plan_id":"cebpf4jnsgd1na2vs0mg"},{"bike_id":"6ae4118f-32b2-41b3-92eb-5652f1f0326a","system_id":"levelo_inurba_marseille","lat":43.29227,"lon":5.36057,"is_reserved":false,"is_disabled":false,"rental_uris":{"android":"levelo://app?vid=6ae4118f-32b2-41b3-92eb-5652f1f0326a","ios":"levelo://app?vid=6ae4118f-32b2-41b3-92eb-5652f1f0326a"},"vehicle_type_id":"4","last_reported":1721840815,"current_range_meters":0,"station_id":"ce4bhbh2rcd13ifvqeqg","pricing_plan_id":"cebpf4jnsgd1na2vs0mg"},{"bike_id":"3226accd-03d8-462e-8991-c902e5d5d83d","system_id":"levelo_inurba_marseille","lat":43.326527,"lon":5.38868,"is_reserved":false,"is_disabled":false,"rental_uris":{"android":"levelo://app?vid=3226accd-03d8-462e-8991-c902e5d5d83d","ios":"levelo://app?vid=3226accd-03d8-462e-8991-c902e5d5d83d"},"vehicle_type_id":"4","last_reported":1721840815,"current_range_meters":22400,"station_id":"","pricing_plan_id":"cebpf4jnsgd1na2vs0mg"},{"bike_id":"e0cc331d-02f0-423c-ad35-042d5a4f1c4e","system_id":"levelo_inurba_marseille","lat":43.29224,"lon":5.36068,"is_reserved":false,"is_disabled":false,"rental_uris":{"android":"levelo://app?vid=e0cc331d-02f0-423c-ad35-042d5a4f1c4e","ios":"levelo://app?vid=e0cc331d-02f0-423c-ad35-042d5a4f1c4e"},"vehicle_type_id":"4","last_reported":1721840815,"current_range_meters":31200,"station_id":"ce4bhbh2rcd13ifvqeqg","pricing_plan_id":"cebpf4jnsgd1na2vs0mg"},{"bike_id":"745b5dad-5870-4120-bb53-c1f86e30cf70","system_id":"levelo_inurba_marseille","lat":43.292311,"lon":5.360731,"is_reserved":false,"is_disabled":false,"rental_uris":{"android":"levelo://app?vid=745b5dad-5870-4120-bb53-c1f86e30cf70","ios":"levelo://app?vid=745b5dad-5870-4120-bb53-c1f86e30cf70"},"vehicle_type_id":"4","last_reported":1721840815,"current_range_meters":6000,"station_id":"ce4bhbh2rcd13ifvqeqg","pricing_plan_id":"cebpf4jnsgd1na2vs0mg"},{"bike_id":"20dbd9eb-7b9e-4c54-aa1c-5d46d4e2d23a","system_id":"levelo_inurba_marseille","lat":43.292311,"lon":5.360731,"is_reserved":false,"is_disabled":false,"rental_uris":{"android":"levelo://app?vid=20dbd9eb-7b9e-4c54-aa1c-5d46d4e2d23a","ios":"levelo://app?vid=20dbd9eb-7b9e-4c54-aa1c-5d46d4e2d23a"},"vehicle_type_id":"4","last_reported":1721840815,"current_range_meters":0,"station_id":"ce4bhbh2rcd13ifvqeqg","pricing_plan_id":"cebpf4jnsgd1na2vs0mg"},{"bike_id":"fafa8b91-09fd-4e15-baee-dc675441859a","system_id":"levelo_inurba_marseille","lat":43.2922,"lon":5.36061,"is_reserved":false,"is_disabled":false,"rental_uris":{"android":"levelo://app?vid=fafa8b91-09fd-4e15-baee-dc675441859a","ios":"levelo://app?vid=fafa8b91-09fd-4e15-baee-dc675441859a"},"vehicle_type_id":"4","last_reported":1721840815,"current_range_meters":0,"station_id":"ce4bhbh2rcd13ifvqeqg","pricing_plan_id":"cebpf4jnsgd1na2vs0mg"},{"bike_id":"0953bfae-a725-4115-b4a2-319bd8f986c5","system_id":"levelo_inurba_marseille","lat":43.292181,"lon":5.360477,"is_reserved":false,"is_disabled":false,"rental_uris":{"android":"levelo://app?vid=0953bfae-a725-4115-b4a2-319bd8f986c5","ios":"levelo://app?vid=0953bfae-a725-4115-b4a2-319bd8f986c5"},"vehicle_type_id":"4","last_reported":1721840815,"current_range_meters":0,"station_id":"ce4bhbh2rcd13ifvqeqg","pricing_plan_id":"cebpf4jnsgd1na2vs0mg"},{"bike_id":"29373e90-a7c7-416f-869f-3064946fa695","system_id":"levelo_inurba_marseille","lat":43.29208,"lon":5.35919,"is_reserved":false,"is_disabled":false,"rental_uris":{"android":"levelo://app?vid=29373e90-a7c7-416f-869f-3064946fa695","ios":"levelo://app?vid=29373e90-a7c7-416f-869f-3064946fa695"},"vehicle_type_id":"4","last_reported":1721840815,"current_range_meters":18000,"station_id":"","pricing_plan_id":"cebpf4jnsgd1na2vs0mg"},{"bike_id":"93f8aaec-3d7d-4a9e-a9ce-73c4d3562764","system_id":"levelo_inurba_marseille","lat":43.309047,"lon":5.396551,"is_reserved":false,"is_disabled":false,"rental_uris":{"android":"levelo://app?vid=93f8aaec-3d7d-4a9e-a9ce-73c4d3562764","ios":"levelo://app?vid=93f8aaec-3d7d-4a9e-a9ce-73c4d3562764"},"vehicle_type_id":"4","last_reported":1721840815,"current_range_meters":18800,"station_id":"ce4bh012rcd13ifvqcv0","pricing_plan_id":"cebpf4jnsgd1na2vs0mg"},{"bike_id":"f482c8aa-9db1-425b-b45e-3f069629ec61","system_id":"levelo_inurba_marseille","lat":43.309047,"lon":5.396551,"is_reserved":false,"is_disabled":false,"rental_uris":{"android":"levelo://app?vid=f482c8aa-9db1-425b-b45e-3f069629ec61","ios":"levelo://app?vid=f482c8aa-9db1-425b-b45e-3f069629ec61"},"vehicle_type_id":"4","last_reported":1721840815,"current_range_meters":0,"station_id":"ce4bh012rcd13ifvqcv0","pricing_plan_id":"cebpf4jnsgd1na2vs0mg"},{"bike_id":"9536ba07-d8ed-449e-8d75-5a1b4d90cf89","system_id":"levelo_inurba_marseille","lat":43.313291,"lon":5.396838,"is_reserved":false,"is_disabled":false,"rental_uris":{"android":"levelo://app?vid=9536ba07-d8ed-449e-8d75-5a1b4d90cf89","ios":"levelo://app?vid=9536ba07-d8ed-449e-8d75-5a1b4d90cf89"},"vehicle_type_id":"4","last_reported":1721840815,"current_range_meters":3200,"station_id":"ce4bgvp2rcd13ifvqcu0","pricing_plan_id":"cebpf4jnsgd1na2vs0mg"},{"bike_id":"a8b999d0-947d-4bf7-850f-8bcc22330758","system_id":"levelo_inurba_marseille","lat":43.309047,"lon":5.396551,"is_reserved":false,"is_disabled":false,"rental_uris":{"android":"levelo://app?vid=a8b999d0-947d-4bf7-850f-8bcc22330758","ios":"levelo://app?vid=a8b999d0-947d-4bf7-850f-8bcc22330758"},"vehicle_type_id":"4","last_reported":1721840815,"current_range_meters":24000,"station_id":"ce4bh012rcd13ifvqcv0","pricing_plan_id":"cebpf4jnsgd1na2vs0mg"},{"bike_id":"58950146-4db1-49f7-bd89-cb5c3a783174","system_id":"levelo_inurba_marseille","lat":43.309047,"lon":5.396551,"is_reserved":false,"is_disabled":false,"rental_uris":{"android":"levelo://app?vid=58950146-4db1-49f7-bd89-cb5c3a783174","ios":"levelo://app?vid=58950146-4db1-49f7-bd89-cb5c3a783174"},"vehicle_type_id":"4","last_reported":1721840815,"current_range_meters":0,"station_id":"ce4bh012rcd13ifvqcv0","pricing_plan_id":"cebpf4jnsgd1na2vs0mg"},{"bike_id":"60a8ea61-2f24-4464-acc6-dc082ddcd718","system_id":"levelo_inurba_marseille","lat":43.309038,"lon":5.396546,"is_reserved":false,"is_disabled":false,"rental_uris":{"android":"levelo://app?vid=60a8ea61-2f24-4464-acc6-dc082ddcd718","ios":"levelo://app?vid=60a8ea61-2f24-4464-acc6-dc082ddcd718"},"vehicle_type_id":"4","last_reported":1721840815,"current_range_meters":2000,"station_id":"ce4bh012rcd13ifvqcv0","pricing_plan_id":"cebpf4jnsgd1na2vs0mg"},{"bike_id":"9e32e460-cb6d-4db8-9bc4-ee134a5e7492","system_id":"levelo_inurba_marseille","lat":43.29529,"lon":5.385581,"is_reserved":false,"is_disabled":false,"rental_uris":{"android":"levelo://app?vid=9e32e460-cb6d-4db8-9bc4-ee134a5e7492","ios":"levelo://app?vid=9e32e460-cb6d-4db8-9bc4-ee134a5e7492"},"vehicle_type_id":"4","last_reported":1721840815,"current_range_meters":5600,"station_id":"ce4bgih2rcd13ifvqba0","pricing_plan_id":"cebpf4jnsgd1na2vs0mg"},{"bike_id":"2d46f0f0-c213-43be-9f56-e2c428d6a388","system_id":"levelo_inurba_marseille","lat":43.29529,"lon":5.385581,"is_reserved":false,"is_disabled":false,"rental_uris":{"android":"levelo://app?vid=2d46f0f0-c213-43be-9f56-e2c428d6a388","ios":"levelo://app?vid=2d46f0f0-c213-43be-9f56-e2c428d6a388"},"vehicle_type_id":"4","last_reported":1721840815,"current_range_meters":10000,"station_id":"ce4bgih2rcd13ifvqba0","pricing_plan_id":"cebpf4jnsgd1na2vs0mg"},{"bike_id":"73077304-12b5-4625-9a1c-12c61d747112","system_id":"levelo_inurba_marseille","lat":43.29529,"lon":5.385581,"is_reserved":false,"is_disabled":false,"rental_uris":{"android":"levelo://app?vid=73077304-12b5-4625-9a1c-12c61d747112","ios":"levelo://app?vid=73077304-12b5-4625-9a1c-12c61d747112"},"vehicle_type_id":"4","last_reported":1721840815,"current_range_meters":10400,"station_id":"ce4bgih2rcd13ifvqba0","pricing_plan_id":"cebpf4jnsgd1na2vs0mg"},{"bike_id":"c6b01c6e-4199-4dbf-bd8a-505c4e3abbb9","system_id":"levelo_inurba_marseille","lat":43.314499,"lon":5.398327,"is_reserved":false,"is_disabled":false,"rental_uris":{"android":"levelo://app?vid=c6b01c6e-4199-4dbf-bd8a-505c4e3abbb9","ios":"levelo://app?vid=c6b01c6e-4199-4dbf-bd8a-505c4e3abbb9"},"vehicle_type_id":"4","last_reported":1721840815,"current_range_meters":10000,"station_id":"","pricing_plan_id":"cebpf4jnsgd1na2vs0mg"},{"bike_id":"b73d8c91-c2d1-4270-ae25-b0e31c1c6c36","system_id":"levelo_inurba_marseille","lat":43.312609,"lon":5.401662,"is_reserved":false,"is_disabled":false,"rental_uris":{"android":"levelo://app?vid=b73d8c91-c2d1-4270-ae25-b0e31c1c6c36","ios":"levelo://app?vid=b73d8c91-c2d1-4270-ae25-b0e31c1c6c36"},"vehicle_type_id":"4","last_reported":1721840815,"current_range_meters":9200,"station_id":"ce4bh092rcd13ifvqd30","pricing_plan_id":"cebpf4jnsgd1na2vs0mg"},{"bike_id":"62d5b86b-3829-4c43-926b-162bce3bffb8","system_id":"levelo_inurba_marseille","lat":43.290631,"lon":5.359244,"is_reserved":false,"is_disabled":false,"rental_uris":{"android":"levelo://app?vid=62d5b86b-3829-4c43-926b-162bce3bffb8","ios":"levelo://app?vid=62d5b86b-3829-4c43-926b-162bce3bffb8"},"vehicle_type_id":"4","last_reported":1721840815,"current_range_meters":9200,"station_id":"ce4bha92rcd13ifvqeg0","pricing_plan_id":"cebpf4jnsgd1na2vs0mg"},{"bike_id":"88f279e7-3b85-41e8-ac36-c6eb978c7e0f","system_id":"levelo_inurba_marseille","lat":43.29416,"lon":5.38623,"is_reserved":false,"is_disabled":false,"rental_uris":{"android":"levelo://app?vid=88f279e7-3b85-41e8-ac36-c6eb978c7e0f","ios":"levelo://app?vid=88f279e7-3b85-41e8-ac36-c6eb978c7e0f"},"vehicle_type_id":"4","last_reported":1721840815,"current_range_meters":0,"station_id":"ce4bh2h2rcd13ifvqdh0","pricing_plan_id":"cebpf4jnsgd1na2vs0mg"},{"bike_id":"ce875380-e738-4fb8-937a-ecfac1cfe65c","system_id":"levelo_inurba_marseille","lat":43.289184,"lon":5.366408,"is_reserved":false,"is_disabled":false,"rental_uris":{"android":"levelo://app?vid=ce875380-e738-4fb8-937a-ecfac1cfe65c","ios":"levelo://app?vid=ce875380-e738-4fb8-937a-ecfac1cfe65c"},"vehicle_type_id":"4","last_reported":1721840815,"current_range_meters":8000,"station_id":"ce4bhap2rcd13ifvqek0","pricing_plan_id":"cebpf4jnsgd1na2vs0mg"},{"bike_id":"ae4e5374-0a53-47e8-95a3-1f5fc45c3c73","system_id":"levelo_inurba_marseille","lat":43.29418,"lon":5.38628,"is_reserved":false,"is_disabled":false,"rental_uris":{"android":"levelo://app?vid=ae4e5374-0a53-47e8-95a3-1f5fc45c3c73","ios":"levelo://app?vid=ae4e5374-0a53-47e8-95a3-1f5fc45c3c73"},"vehicle_type_id":"4","last_reported":1721840815,"current_range_meters":0,"station_id":"ce4bh2h2rcd13ifvqdh0","pricing_plan_id":"cebpf4jnsgd1na2vs0mg"},{"bike_id":"48a0c646-eb23-48ac-9120-dcc57d70dda6","system_id":"levelo_inurba_marseille","lat":43.294162,"lon":5.386292,"is_reserved":false,"is_disabled":false,"rental_uris":{"android":"levelo://app?vid=48a0c646-eb23-48ac-9120-dcc57d70dda6","ios":"levelo://app?vid=48a0c646-eb23-48ac-9120-dcc57d70dda6"},"vehicle_type_id":"4","last_reported":1721840815,"current_range_meters":28400,"station_id":"ce4bh2h2rcd13ifvqdh0","pricing_plan_id":"cebpf4jnsgd1na2vs0mg"},{"bike_id":"36d38776-d247-430f-b04e-c2ceeee3b793","system_id":"levelo_inurba_marseille","lat":43.29415,"lon":5.38629,"is_reserved":false,"is_disabled":false,"rental_uris":{"android":"levelo://app?vid=36d38776-d247-430f-b04e-c2ceeee3b793","ios":"levelo://app?vid=36d38776-d247-430f-b04e-c2ceeee3b793"},"vehicle_type_id":"4","last_reported":1721840815,"current_range_meters":0,"station_id":"ce4bh2h2rcd13ifvqdh0","pricing_plan_id":"cebpf4jnsgd1na2vs0mg"},{"bike_id":"cda38f24-ed59-4c4d-be85-638ad5c98f78","system_id":"levelo_inurba_marseille","lat":43.289184,"lon":5.366408,"is_reserved":false,"is_disabled":false,"rental_uris":{"android":"levelo://app?vid=cda38f24-ed59-4c4d-be85-638ad5c98f78","ios":"levelo://app?vid=cda38f24-ed59-4c4d-be85-638ad5c98f78"},"vehicle_type_id":"4","last_reported":1721840815,"current_range_meters":4800,"station_id":"ce4bhap2rcd13ifvqek0","pricing_plan_id":"cebpf4jnsgd1na2vs0mg"},{"bike_id":"88247ce3-a588-4cd0-91d1-d0fbc15db061","system_id":"levelo_inurba_marseille","lat":43.289184,"lon":5.366408,"is_reserved":false,"is_disabled":false,"rental_uris":{"android":"levelo://app?vid=88247ce3-a588-4cd0-91d1-d0fbc15db061","ios":"levelo://app?vid=88247ce3-a588-4cd0-91d1-d0fbc15db061"},"vehicle_type_id":"4","last_reported":1721840815,"current_range_meters":800,"station_id":"ce4bhap2rcd13ifvqek0","pricing_plan_id":"cebpf4jnsgd1na2vs0mg"},{"bike_id":"a004195f-dae7-4823-91ce-d0367ebd9bfe","system_id":"levelo_inurba_marseille","lat":43.28937,"lon":5.36637,"is_reserved":false,"is_disabled":false,"rental_uris":{"android":"levelo://app?vid=a004195f-dae7-4823-91ce-d0367ebd9bfe","ios":"levelo://app?vid=a004195f-dae7-4823-91ce-d0367ebd9bfe"},"vehicle_type_id":"4","last_reported":1721840815,"current_range_meters":0,"station_id":"ce4bhap2rcd13ifvqek0","pricing_plan_id":"cebpf4jnsgd1na2vs0mg"},{"bike_id":"84a920c1-452b-416c-8ce2-54facd74c4db","system_id":"levelo_inurba_marseille","lat":43.289408,"lon":5.363958,"is_reserved":false,"is_disabled":false,"rental_uris":{"android":"levelo://app?vid=84a920c1-452b-416c-8ce2-54facd74c4db","ios":"levelo://app?vid=84a920c1-452b-416c-8ce2-54facd74c4db"},"vehicle_type_id":"4","last_reported":1721840815,"current_range_meters":0,"station_id":"ce4bhc92rcd13ifvqetg","pricing_plan_id":"cebpf4jnsgd1na2vs0mg"},{"bike_id":"31bb2d77-ab53-4b17-9686-bba0df21f61f","system_id":"levelo_inurba_marseille","lat":43.28929,"lon":5.364013,"is_reserved":false,"is_disabled":false,"rental_uris":{"android":"levelo://app?vid=31bb2d77-ab53-4b17-9686-bba0df21f61f","ios":"levelo://app?vid=31bb2d77-ab53-4b17-9686-bba0df21f61f"},"vehicle_type_id":"4","last_reported":1721840815,"current_range_meters":0,"station_id":"ce4bhc92rcd13ifvqetg","pricing_plan_id":"cebpf4jnsgd1na2vs0mg"},{"bike_id":"3daf2ecd-b201-4f82-85e1-ead61d9b93f5","system_id":"levelo_inurba_marseille","lat":43.304274,"lon":5.397513,"is_reserved":false,"is_disabled":false,"rental_uris":{"android":"levelo://app?vid=3daf2ecd-b201-4f82-85e1-ead61d9b93f5","ios":"levelo://app?vid=3daf2ecd-b201-4f82-85e1-ead61d9b93f5"},"vehicle_type_id":"4","last_reported":1721840815,"current_range_meters":18800,"station_id":"ce4bh092rcd13ifvqd20","pricing_plan_id":"cebpf4jnsgd1na2vs0mg"},{"bike_id":"5debd9a4-cf6f-4556-8a22-2dd4a16054b8","system_id":"levelo_inurba_marseille","lat":43.304296,"lon":5.397513,"is_reserved":false,"is_disabled":false,"rental_uris":{"android":"levelo://app?vid=5debd9a4-cf6f-4556-8a22-2dd4a16054b8","ios":"levelo://app?vid=5debd9a4-cf6f-4556-8a22-2dd4a16054b8"},"vehicle_type_id":"4","last_reported":1721840815,"current_range_meters":4000,"station_id":"ce4bh092rcd13ifvqd20","pricing_plan_id":"cebpf4jnsgd1na2vs0mg"},{"bike_id":"fe6b6f4a-8e46-41e9-8ba5-503d928204d7","system_id":"levelo_inurba_marseille","lat":43.292599,"lon":5.384402,"is_reserved":false,"is_disabled":false,"rental_uris":{"android":"levelo://app?vid=fe6b6f4a-8e46-41e9-8ba5-503d928204d7","ios":"levelo://app?vid=fe6b6f4a-8e46-41e9-8ba5-503d928204d7"},"vehicle_type_id":"4","last_reported":1721840815,"current_range_meters":400,"station_id":"ce4bh692rcd13ifvqea0","pricing_plan_id":"cebpf4jnsgd1na2vs0mg"},{"bike_id":"cbcce8a5-fc8d-4345-9584-8964417e884e","system_id":"levelo_inurba_marseille","lat":43.29256,"lon":5.38444,"is_reserved":false,"is_disabled":false,"rental_uris":{"android":"levelo://app?vid=cbcce8a5-fc8d-4345-9584-8964417e884e","ios":"levelo://app?vid=cbcce8a5-fc8d-4345-9584-8964417e884e"},"vehicle_type_id":"4","last_reported":1721840815,"current_range_meters":24800,"station_id":"ce4bh692rcd13ifvqea0","pricing_plan_id":"cebpf4jnsgd1na2vs0mg"},{"bike_id":"3d68de40-0283-4a83-ac8a-38278f7f7ae5","system_id":"levelo_inurba_marseille","lat":43.29254,"lon":5.38443,"is_reserved":false,"is_disabled":false,"rental_uris":{"android":"levelo://app?vid=3d68de40-0283-4a83-ac8a-38278f7f7ae5","ios":"levelo://app?vid=3d68de40-0283-4a83-ac8a-38278f7f7ae5"},"vehicle_type_id":"4","last_reported":1721840815,"current_range_meters":8000,"station_id":"ce4bh692rcd13ifvqea0","pricing_plan_id":"cebpf4jnsgd1na2vs0mg"},{"bike_id":"ae1c6144-7620-42cc-8406-ee7c57752228","system_id":"levelo_inurba_marseille","lat":43.290104,"lon":5.356111,"is_reserved":false,"is_disabled":false,"rental_uris":{"android":"levelo://app?vid=ae1c6144-7620-42cc-8406-ee7c57752228","ios":"levelo://app?vid=ae1c6144-7620-42cc-8406-ee7c57752228"},"vehicle_type_id":"4","last_reported":1721840815,"current_range_meters":13600,"station_id":"ce4bhb92rcd13ifvqen0","pricing_plan_id":"cebpf4jnsgd1na2vs0mg"},{"bike_id":"97e54871-3b31-4aaa-ac1c-7133df257700","system_id":"levelo_inurba_marseille","lat":43.290104,"lon":5.356111,"is_reserved":false,"is_disabled":false,"rental_uris":{"android":"levelo://app?vid=97e54871-3b31-4aaa-ac1c-7133df257700","ios":"levelo://app?vid=97e54871-3b31-4aaa-ac1c-7133df257700"},"vehicle_type_id":"4","last_reported":1721840815,"current_range_meters":0,"station_id":"ce4bhb92rcd13ifvqen0","pricing_plan_id":"cebpf4jnsgd1na2vs0mg"},{"bike_id":"4cbeff6f-7a27-488e-a460-77d4fa52c7c3","system_id":"levelo_inurba_marseille","lat":43.290104,"lon":5.356111,"is_reserved":false,"is_disabled":false,"rental_uris":{"android":"levelo://app?vid=4cbeff6f-7a27-488e-a460-77d4fa52c7c3","ios":"levelo://app?vid=4cbeff6f-7a27-488e-a460-77d4fa52c7c3"},"vehicle_type_id":"4","last_reported":1721840815,"current_range_meters":10000,"station_id":"ce4bhb92rcd13ifvqen0","pricing_plan_id":"cebpf4jnsgd1na2vs0mg"},{"bike_id":"0c246f1f-2b6a-43bf-9d57-22ab7028c592","system_id":"levelo_inurba_marseille","lat":43.290103,"lon":5.356114,"is_reserved":false,"is_disabled":false,"rental_uris":{"android":"levelo://app?vid=0c246f1f-2b6a-43bf-9d57-22ab7028c592","ios":"levelo://app?vid=0c246f1f-2b6a-43bf-9d57-22ab7028c592"},"vehicle_type_id":"4","last_reported":1721840815,"current_range_meters":1600,"station_id":"ce4bhb92rcd13ifvqen0","pricing_plan_id":"cebpf4jnsgd1na2vs0mg"},{"bike_id":"45eb6b2f-e61f-467d-81e0-bb8891ce735b","system_id":"levelo_inurba_marseille","lat":43.290104,"lon":5.356111,"is_reserved":false,"is_disabled":false,"rental_uris":{"android":"levelo://app?vid=45eb6b2f-e61f-467d-81e0-bb8891ce735b","ios":"levelo://app?vid=45eb6b2f-e61f-467d-81e0-bb8891ce735b"},"vehicle_type_id":"4","last_reported":1721840815,"current_range_meters":4400,"station_id":"ce4bhb92rcd13ifvqen0","pricing_plan_id":"cebpf4jnsgd1na2vs0mg"},{"bike_id":"a640fcb2-791c-4a55-b8da-263a8f135ab5","system_id":"levelo_inurba_marseille","lat":43.290103,"lon":5.356114,"is_reserved":false,"is_disabled":false,"rental_uris":{"android":"levelo://app?vid=a640fcb2-791c-4a55-b8da-263a8f135ab5","ios":"levelo://app?vid=a640fcb2-791c-4a55-b8da-263a8f135ab5"},"vehicle_type_id":"4","last_reported":1721840815,"current_range_meters":400,"station_id":"ce4bhb92rcd13ifvqen0","pricing_plan_id":"cebpf4jnsgd1na2vs0mg"},{"bike_id":"43e44771-fcc1-4f18-b3a1-cdef5fbd98ad","system_id":"levelo_inurba_marseille","lat":43.290103,"lon":5.356114,"is_reserved":false,"is_disabled":false,"rental_uris":{"android":"levelo://app?vid=43e44771-fcc1-4f18-b3a1-cdef5fbd98ad","ios":"levelo://app?vid=43e44771-fcc1-4f18-b3a1-cdef5fbd98ad"},"vehicle_type_id":"4","last_reported":1721840815,"current_range_meters":4000,"station_id":"ce4bhb92rcd13ifvqen0","pricing_plan_id":"cebpf4jnsgd1na2vs0mg"},{"bike_id":"66ecf19f-d016-4da3-91cb-cf9b13f0661f","system_id":"levelo_inurba_marseille","lat":43.290103,"lon":5.356114,"is_reserved":false,"is_disabled":false,"rental_uris":{"android":"levelo://app?vid=66ecf19f-d016-4da3-91cb-cf9b13f0661f","ios":"levelo://app?vid=66ecf19f-d016-4da3-91cb-cf9b13f0661f"},"vehicle_type_id":"4","last_reported":1721840815,"current_range_meters":3200,"station_id":"ce4bhb92rcd13ifvqen0","pricing_plan_id":"cebpf4jnsgd1na2vs0mg"},{"bike_id":"a15205e5-f61b-4415-b24e-f630ea1640c1","system_id":"levelo_inurba_marseille","lat":43.290104,"lon":5.356111,"is_reserved":false,"is_disabled":false,"rental_uris":{"android":"levelo://app?vid=a15205e5-f61b-4415-b24e-f630ea1640c1","ios":"levelo://app?vid=a15205e5-f61b-4415-b24e-f630ea1640c1"},"vehicle_type_id":"4","last_reported":1721840815,"current_range_meters":800,"station_id":"ce4bhb92rcd13ifvqen0","pricing_plan_id":"cebpf4jnsgd1na2vs0mg"},{"bike_id":"96ce16cd-6f52-44d7-b986-80c02be7dbc2","system_id":"levelo_inurba_marseille","lat":43.290103,"lon":5.356114,"is_reserved":false,"is_disabled":false,"rental_uris":{"android":"levelo://app?vid=96ce16cd-6f52-44d7-b986-80c02be7dbc2","ios":"levelo://app?vid=96ce16cd-6f52-44d7-b986-80c02be7dbc2"},"vehicle_type_id":"4","last_reported":1721840815,"current_range_meters":10800,"station_id":"ce4bhb92rcd13ifvqen0","pricing_plan_id":"cebpf4jnsgd1na2vs0mg"},{"bike_id":"bf141512-9f0e-479a-b25b-2e88e59a0f08","system_id":"levelo_inurba_marseille","lat":43.290104,"lon":5.356111,"is_reserved":false,"is_disabled":false,"rental_uris":{"android":"levelo://app?vid=bf141512-9f0e-479a-b25b-2e88e59a0f08","ios":"levelo://app?vid=bf141512-9f0e-479a-b25b-2e88e59a0f08"},"vehicle_type_id":"4","last_reported":1721840815,"current_range_meters":26000,"station_id":"ce4bhb92rcd13ifvqen0","pricing_plan_id":"cebpf4jnsgd1na2vs0mg"},{"bike_id":"47cf519e-e4d6-4df5-8ad7-3b3ad4cefd7c","system_id":"levelo_inurba_marseille","lat":43.290104,"lon":5.356111,"is_reserved":false,"is_disabled":false,"rental_uris":{"android":"levelo://app?vid=47cf519e-e4d6-4df5-8ad7-3b3ad4cefd7c","ios":"levelo://app?vid=47cf519e-e4d6-4df5-8ad7-3b3ad4cefd7c"},"vehicle_type_id":"4","last_reported":1721840815,"current_range_meters":400,"station_id":"ce4bhb92rcd13ifvqen0","pricing_plan_id":"cebpf4jnsgd1na2vs0mg"},{"bike_id":"9d220aca-b4e7-4df4-9e48-1c71799cef22","system_id":"levelo_inurba_marseille","lat":43.290104,"lon":5.356111,"is_reserved":false,"is_disabled":false,"rental_uris":{"android":"levelo://app?vid=9d220aca-b4e7-4df4-9e48-1c71799cef22","ios":"levelo://app?vid=9d220aca-b4e7-4df4-9e48-1c71799cef22"},"vehicle_type_id":"4","last_reported":1721840815,"current_range_meters":26400,"station_id":"ce4bhb92rcd13ifvqen0","pricing_plan_id":"cebpf4jnsgd1na2vs0mg"},{"bike_id":"b2729fef-15e1-47d0-bc88-c4a8f322ac5d","system_id":"levelo_inurba_marseille","lat":43.290103,"lon":5.356114,"is_reserved":false,"is_disabled":false,"rental_uris":{"android":"levelo://app?vid=b2729fef-15e1-47d0-bc88-c4a8f322ac5d","ios":"levelo://app?vid=b2729fef-15e1-47d0-bc88-c4a8f322ac5d"},"vehicle_type_id":"4","last_reported":1721840815,"current_range_meters":5200,"station_id":"ce4bhb92rcd13ifvqen0","pricing_plan_id":"cebpf4jnsgd1na2vs0mg"},{"bike_id":"ddcf22a3-f534-482f-a971-8f862565c476","system_id":"levelo_inurba_marseille","lat":43.33022,"lon":5.39036,"is_reserved":false,"is_disabled":false,"rental_uris":{"android":"levelo://app?vid=ddcf22a3-f534-482f-a971-8f862565c476","ios":"levelo://app?vid=ddcf22a3-f534-482f-a971-8f862565c476"},"vehicle_type_id":"4","last_reported":1721840815,"current_range_meters":18400,"station_id":"ce4bhr92rcd13ifvqhrg","pricing_plan_id":"cebpf4jnsgd1na2vs0mg"},{"bike_id":"4b0ed977-14c3-4f8b-b7c1-89ecee9bd03e","system_id":"levelo_inurba_marseille","lat":43.295169,"lon":5.390426,"is_reserved":false,"is_disabled":false,"rental_uris":{"android":"levelo://app?vid=4b0ed977-14c3-4f8b-b7c1-89ecee9bd03e","ios":"levelo://app?vid=4b0ed977-14c3-4f8b-b7c1-89ecee9bd03e"},"vehicle_type_id":"4","last_reported":1721840815,"current_range_meters":0,"station_id":"ce4bh3p2rcd13ifvqdp0","pricing_plan_id":"cebpf4jnsgd1na2vs0mg"},{"bike_id":"b77551c8-7e86-42bd-b9bb-45d5bd9f406c","system_id":"levelo_inurba_marseille","lat":43.29518,"lon":5.39033,"is_reserved":false,"is_disabled":false,"rental_uris":{"android":"levelo://app?vid=b77551c8-7e86-42bd-b9bb-45d5bd9f406c","ios":"levelo://app?vid=b77551c8-7e86-42bd-b9bb-45d5bd9f406c"},"vehicle_type_id":"4","last_reported":1721840815,"current_range_meters":0,"station_id":"ce4bh3p2rcd13ifvqdp0","pricing_plan_id":"cebpf4jnsgd1na2vs0mg"},{"bike_id":"4455f61e-c421-4aa4-95f5-562690c9db1c","system_id":"levelo_inurba_marseille","lat":43.33027,"lon":5.3904,"is_reserved":false,"is_disabled":false,"rental_uris":{"android":"levelo://app?vid=4455f61e-c421-4aa4-95f5-562690c9db1c","ios":"levelo://app?vid=4455f61e-c421-4aa4-95f5-562690c9db1c"},"vehicle_type_id":"4","last_reported":1721840815,"current_range_meters":0,"station_id":"ce4bhr92rcd13ifvqhrg","pricing_plan_id":"cebpf4jnsgd1na2vs0mg"},{"bike_id":"149ad317-2977-4c2d-b9af-065d2c29d5b4","system_id":"levelo_inurba_marseille","lat":43.309737,"lon":5.400651,"is_reserved":false,"is_disabled":false,"rental_uris":{"android":"levelo://app?vid=149ad317-2977-4c2d-b9af-065d2c29d5b4","ios":"levelo://app?vid=149ad317-2977-4c2d-b9af-065d2c29d5b4"},"vehicle_type_id":"4","last_reported":1721840815,"current_range_meters":17200,"station_id":"","pricing_plan_id":"cebpf4jnsgd1na2vs0mg"},{"bike_id":"0e6af578-25f1-4d0e-bb5a-9efd047adce4","system_id":"levelo_inurba_marseille","lat":43.28856,"lon":5.358371,"is_reserved":false,"is_disabled":false,"rental_uris":{"android":"levelo://app?vid=0e6af578-25f1-4d0e-bb5a-9efd047adce4","ios":"levelo://app?vid=0e6af578-25f1-4d0e-bb5a-9efd047adce4"},"vehicle_type_id":"4","last_reported":1721840815,"current_range_meters":3200,"station_id":"ce4bhb12rcd13ifvqem0","pricing_plan_id":"cebpf4jnsgd1na2vs0mg"},{"bike_id":"da7b5a2e-e560-47be-b1bb-5703e2782ec2","system_id":"levelo_inurba_marseille","lat":43.28856,"lon":5.358371,"is_reserved":false,"is_disabled":false,"rental_uris":{"android":"levelo://app?vid=da7b5a2e-e560-47be-b1bb-5703e2782ec2","ios":"levelo://app?vid=da7b5a2e-e560-47be-b1bb-5703e2782ec2"},"vehicle_type_id":"4","last_reported":1721840815,"current_range_meters":23600,"station_id":"ce4bhb12rcd13ifvqem0","pricing_plan_id":"cebpf4jnsgd1na2vs0mg"},{"bike_id":"95c4f63a-4158-4035-ab6c-f8e247454e2c","system_id":"levelo_inurba_marseille","lat":43.28856,"lon":5.358371,"is_reserved":false,"is_disabled":false,"rental_uris":{"android":"levelo://app?vid=95c4f63a-4158-4035-ab6c-f8e247454e2c","ios":"levelo://app?vid=95c4f63a-4158-4035-ab6c-f8e247454e2c"},"vehicle_type_id":"4","last_reported":1721840815,"current_range_meters":15600,"station_id":"ce4bhb12rcd13ifvqem0","pricing_plan_id":"cebpf4jnsgd1na2vs0mg"},{"bike_id":"8384b05c-312f-4d42-bf24-07cabff7f832","system_id":"levelo_inurba_marseille","lat":43.28856,"lon":5.358371,"is_reserved":false,"is_disabled":false,"rental_uris":{"android":"levelo://app?vid=8384b05c-312f-4d42-bf24-07cabff7f832","ios":"levelo://app?vid=8384b05c-312f-4d42-bf24-07cabff7f832"},"vehicle_type_id":"4","last_reported":1721840815,"current_range_meters":19600,"station_id":"ce4bhb12rcd13ifvqem0","pricing_plan_id":"cebpf4jnsgd1na2vs0mg"},{"bike_id":"6ffdfe0e-fe0c-4242-a29a-c9b7fbbfe01d","system_id":"levelo_inurba_marseille","lat":43.28856,"lon":5.358371,"is_reserved":false,"is_disabled":false,"rental_uris":{"android":"levelo://app?vid=6ffdfe0e-fe0c-4242-a29a-c9b7fbbfe01d","ios":"levelo://app?vid=6ffdfe0e-fe0c-4242-a29a-c9b7fbbfe01d"},"vehicle_type_id":"4","last_reported":1721840815,"current_range_meters":31200,"station_id":"ce4bhb12rcd13ifvqem0","pricing_plan_id":"cebpf4jnsgd1na2vs0mg"},{"bike_id":"7d12f137-3bba-441e-90ca-93569d1fdd43","system_id":"levelo_inurba_marseille","lat":43.309371,"lon":5.401449,"is_reserved":false,"is_disabled":false,"rental_uris":{"android":"levelo://app?vid=7d12f137-3bba-441e-90ca-93569d1fdd43","ios":"levelo://app?vid=7d12f137-3bba-441e-90ca-93569d1fdd43"},"vehicle_type_id":"4","last_reported":1721840815,"current_range_meters":5600,"station_id":"ce4bgvp2rcd13ifvqct0","pricing_plan_id":"cebpf4jnsgd1na2vs0mg"},{"bike_id":"8c963968-4362-4288-b08a-9ba7c924d718","system_id":"levelo_inurba_marseille","lat":43.31273,"lon":5.40175,"is_reserved":false,"is_disabled":false,"rental_uris":{"android":"levelo://app?vid=8c963968-4362-4288-b08a-9ba7c924d718","ios":"levelo://app?vid=8c963968-4362-4288-b08a-9ba7c924d718"},"vehicle_type_id":"4","last_reported":1721840815,"current_range_meters":0,"station_id":"ce4bh092rcd13ifvqd30","pricing_plan_id":"cebpf4jnsgd1na2vs0mg"},{"bike_id":"5a7e6812-a728-46ab-93db-c30764c02b15","system_id":"levelo_inurba_marseille","lat":43.309371,"lon":5.401449,"is_reserved":false,"is_disabled":false,"rental_uris":{"android":"levelo://app?vid=5a7e6812-a728-46ab-93db-c30764c02b15","ios":"levelo://app?vid=5a7e6812-a728-46ab-93db-c30764c02b15"},"vehicle_type_id":"4","last_reported":1721840815,"current_range_meters":0,"station_id":"ce4bgvp2rcd13ifvqct0","pricing_plan_id":"cebpf4jnsgd1na2vs0mg"},{"bike_id":"e755b64d-f743-44ec-9334-3fbb5595db02","system_id":"levelo_inurba_marseille","lat":43.306412,"lon":5.401035,"is_reserved":false,"is_disabled":false,"rental_uris":{"android":"levelo://app?vid=e755b64d-f743-44ec-9334-3fbb5595db02","ios":"levelo://app?vid=e755b64d-f743-44ec-9334-3fbb5595db02"},"vehicle_type_id":"4","last_reported":1721840815,"current_range_meters":4000,"station_id":"ce4bh112rcd13ifvqda0","pricing_plan_id":"cebpf4jnsgd1na2vs0mg"},{"bike_id":"a8bcd689-a053-4396-8dac-1547dd105e6c","system_id":"levelo_inurba_marseille","lat":43.30135,"lon":5.39844,"is_reserved":false,"is_disabled":false,"rental_uris":{"android":"levelo://app?vid=a8bcd689-a053-4396-8dac-1547dd105e6c","ios":"levelo://app?vid=a8bcd689-a053-4396-8dac-1547dd105e6c"},"vehicle_type_id":"4","last_reported":1721840815,"current_range_meters":2400,"station_id":"ce4bh0h2rcd13ifvqd40","pricing_plan_id":"cebpf4jnsgd1na2vs0mg"},{"bike_id":"a3699814-ee9e-4fde-97ec-579ba178c63f","system_id":"levelo_inurba_marseille","lat":43.3014,"lon":5.39855,"is_reserved":false,"is_disabled":false,"rental_uris":{"android":"levelo://app?vid=a3699814-ee9e-4fde-97ec-579ba178c63f","ios":"levelo://app?vid=a3699814-ee9e-4fde-97ec-579ba178c63f"},"vehicle_type_id":"4","last_reported":1721840815,"current_range_meters":0,"station_id":"ce4bh0h2rcd13ifvqd40","pricing_plan_id":"cebpf4jnsgd1na2vs0mg"},{"bike_id":"34136700-7ecb-4fea-b97e-39fb0f25093e","system_id":"levelo_inurba_marseille","lat":43.30128,"lon":5.39854,"is_reserved":false,"is_disabled":false,"rental_uris":{"android":"levelo://app?vid=34136700-7ecb-4fea-b97e-39fb0f25093e","ios":"levelo://app?vid=34136700-7ecb-4fea-b97e-39fb0f25093e"},"vehicle_type_id":"4","last_reported":1721840815,"current_range_meters":400,"station_id":"ce4bh0h2rcd13ifvqd40","pricing_plan_id":"cebpf4jnsgd1na2vs0mg"},{"bike_id":"28d20113-c9b1-428c-8ad2-5c6fbe47c7dd","system_id":"levelo_inurba_marseille","lat":43.301117,"lon":5.398795,"is_reserved":false,"is_disabled":false,"rental_uris":{"android":"levelo://app?vid=28d20113-c9b1-428c-8ad2-5c6fbe47c7dd","ios":"levelo://app?vid=28d20113-c9b1-428c-8ad2-5c6fbe47c7dd"},"vehicle_type_id":"4","last_reported":1721840815,"current_range_meters":0,"station_id":"ce4bh0h2rcd13ifvqd40","pricing_plan_id":"cebpf4jnsgd1na2vs0mg"},{"bike_id":"877c6254-0940-4027-a737-a5d3d0e52191","system_id":"levelo_inurba_marseille","lat":43.30135,"lon":5.39874,"is_reserved":false,"is_disabled":false,"rental_uris":{"android":"levelo://app?vid=877c6254-0940-4027-a737-a5d3d0e52191","ios":"levelo://app?vid=877c6254-0940-4027-a737-a5d3d0e52191"},"vehicle_type_id":"4","last_reported":1721840815,"current_range_meters":13600,"station_id":"ce4bh0h2rcd13ifvqd40","pricing_plan_id":"cebpf4jnsgd1na2vs0mg"},{"bike_id":"2ccfe909-9c99-4796-baad-51795142588d","system_id":"levelo_inurba_marseille","lat":43.28727,"lon":5.36078,"is_reserved":false,"is_disabled":false,"rental_uris":{"android":"levelo://app?vid=2ccfe909-9c99-4796-baad-51795142588d","ios":"levelo://app?vid=2ccfe909-9c99-4796-baad-51795142588d"},"vehicle_type_id":"4","last_reported":1721840815,"current_range_meters":3600,"station_id":"cki0cbj6b192h4jlfktg","pricing_plan_id":"cebpf4jnsgd1na2vs0mg"},{"bike_id":"37f44347-a0aa-4c1c-8bdd-83ef59019687","system_id":"levelo_inurba_marseille","lat":43.30127,"lon":5.39874,"is_reserved":false,"is_disabled":false,"rental_uris":{"android":"levelo://app?vid=37f44347-a0aa-4c1c-8bdd-83ef59019687","ios":"levelo://app?vid=37f44347-a0aa-4c1c-8bdd-83ef59019687"},"vehicle_type_id":"4","last_reported":1721840815,"current_range_meters":0,"station_id":"ce4bh0h2rcd13ifvqd40","pricing_plan_id":"cebpf4jnsgd1na2vs0mg"},{"bike_id":"0f84b4e1-c4d4-400f-b355-32571f0cc696","system_id":"levelo_inurba_marseille","lat":43.28727,"lon":5.36078,"is_reserved":false,"is_disabled":false,"rental_uris":{"android":"levelo://app?vid=0f84b4e1-c4d4-400f-b355-32571f0cc696","ios":"levelo://app?vid=0f84b4e1-c4d4-400f-b355-32571f0cc696"},"vehicle_type_id":"4","last_reported":1721840815,"current_range_meters":3200,"station_id":"cki0cbj6b192h4jlfktg","pricing_plan_id":"cebpf4jnsgd1na2vs0mg"},{"bike_id":"27542867-2b46-4f3c-9b0d-48d6c4da2636","system_id":"levelo_inurba_marseille","lat":43.286961,"lon":5.373785,"is_reserved":false,"is_disabled":false,"rental_uris":{"android":"levelo://app?vid=27542867-2b46-4f3c-9b0d-48d6c4da2636","ios":"levelo://app?vid=27542867-2b46-4f3c-9b0d-48d6c4da2636"},"vehicle_type_id":"4","last_reported":1721840815,"current_range_meters":24800,"station_id":"ce4bh3p2rcd13ifvqdq0","pricing_plan_id":"cebpf4jnsgd1na2vs0mg"},{"bike_id":"1c1e6623-218b-4b67-8f78-67f3eccb66b7","system_id":"levelo_inurba_marseille","lat":43.286961,"lon":5.373785,"is_reserved":false,"is_disabled":false,"rental_uris":{"android":"levelo://app?vid=1c1e6623-218b-4b67-8f78-67f3eccb66b7","ios":"levelo://app?vid=1c1e6623-218b-4b67-8f78-67f3eccb66b7"},"vehicle_type_id":"4","last_reported":1721840815,"current_range_meters":13600,"station_id":"ce4bh3p2rcd13ifvqdq0","pricing_plan_id":"cebpf4jnsgd1na2vs0mg"},{"bike_id":"c4c82386-5c37-47d5-9d95-c40e9cdd3986","system_id":"levelo_inurba_marseille","lat":43.286961,"lon":5.373785,"is_reserved":false,"is_disabled":false,"rental_uris":{"android":"levelo://app?vid=c4c82386-5c37-47d5-9d95-c40e9cdd3986","ios":"levelo://app?vid=c4c82386-5c37-47d5-9d95-c40e9cdd3986"},"vehicle_type_id":"4","last_reported":1721840815,"current_range_meters":4800,"station_id":"ce4bh3p2rcd13ifvqdq0","pricing_plan_id":"cebpf4jnsgd1na2vs0mg"},{"bike_id":"0db75cb9-dd8f-46da-bb49-2be5aa96338a","system_id":"levelo_inurba_marseille","lat":43.28709,"lon":5.37394,"is_reserved":false,"is_disabled":false,"rental_uris":{"android":"levelo://app?vid=0db75cb9-dd8f-46da-bb49-2be5aa96338a","ios":"levelo://app?vid=0db75cb9-dd8f-46da-bb49-2be5aa96338a"},"vehicle_type_id":"4","last_reported":1721840815,"current_range_meters":0,"station_id":"ce4bh3p2rcd13ifvqdq0","pricing_plan_id":"cebpf4jnsgd1na2vs0mg"},{"bike_id":"e35062dd-3614-49d6-99c2-e0e26de8a79f","system_id":"levelo_inurba_marseille","lat":43.286961,"lon":5.373785,"is_reserved":false,"is_disabled":false,"rental_uris":{"android":"levelo://app?vid=e35062dd-3614-49d6-99c2-e0e26de8a79f","ios":"levelo://app?vid=e35062dd-3614-49d6-99c2-e0e26de8a79f"},"vehicle_type_id":"4","last_reported":1721840815,"current_range_meters":0,"station_id":"ce4bh3p2rcd13ifvqdq0","pricing_plan_id":"cebpf4jnsgd1na2vs0mg"},{"bike_id":"2c985ab9-9087-4e47-bc0a-4995cf03cda1","system_id":"levelo_inurba_marseille","lat":43.286593,"lon":5.363346,"is_reserved":false,"is_disabled":false,"rental_uris":{"android":"levelo://app?vid=2c985ab9-9087-4e47-bc0a-4995cf03cda1","ios":"levelo://app?vid=2c985ab9-9087-4e47-bc0a-4995cf03cda1"},"vehicle_type_id":"4","last_reported":1721840815,"current_range_meters":0,"station_id":"ce4bhah2rcd13ifvqej0","pricing_plan_id":"cebpf4jnsgd1na2vs0mg"},{"bike_id":"e5d8653f-04bd-4824-91d6-66173b98699a","system_id":"levelo_inurba_marseille","lat":43.286961,"lon":5.373785,"is_reserved":false,"is_disabled":false,"rental_uris":{"android":"levelo://app?vid=e5d8653f-04bd-4824-91d6-66173b98699a","ios":"levelo://app?vid=e5d8653f-04bd-4824-91d6-66173b98699a"},"vehicle_type_id":"4","last_reported":1721840815,"current_range_meters":800,"station_id":"ce4bh3p2rcd13ifvqdq0","pricing_plan_id":"cebpf4jnsgd1na2vs0mg"},{"bike_id":"f5077e45-b370-42fd-a659-96edc1a99818","system_id":"levelo_inurba_marseille","lat":43.286961,"lon":5.373785,"is_reserved":false,"is_disabled":false,"rental_uris":{"android":"levelo://app?vid=f5077e45-b370-42fd-a659-96edc1a99818","ios":"levelo://app?vid=f5077e45-b370-42fd-a659-96edc1a99818"},"vehicle_type_id":"4","last_reported":1721840815,"current_range_meters":10400,"station_id":"ce4bh3p2rcd13ifvqdq0","pricing_plan_id":"cebpf4jnsgd1na2vs0mg"},{"bike_id":"ee7e75e5-cae2-4923-aa98-617d49d7c7fa","system_id":"levelo_inurba_marseille","lat":43.29031,"lon":5.38622,"is_reserved":false,"is_disabled":false,"rental_uris":{"android":"levelo://app?vid=ee7e75e5-cae2-4923-aa98-617d49d7c7fa","ios":"levelo://app?vid=ee7e75e5-cae2-4923-aa98-617d49d7c7fa"},"vehicle_type_id":"4","last_reported":1721840815,"current_range_meters":15200,"station_id":"ce4bh4p2rcd13ifvqe0g","pricing_plan_id":"cebpf4jnsgd1na2vs0mg"},{"bike_id":"cc7dab12-dc97-4f23-bd62-18d1baaea576","system_id":"levelo_inurba_marseille","lat":43.28929,"lon":5.383923,"is_reserved":false,"is_disabled":false,"rental_uris":{"android":"levelo://app?vid=cc7dab12-dc97-4f23-bd62-18d1baaea576","ios":"levelo://app?vid=cc7dab12-dc97-4f23-bd62-18d1baaea576"},"vehicle_type_id":"4","last_reported":1721840815,"current_range_meters":0,"station_id":"ce4bh612rcd13ifvqe6g","pricing_plan_id":"cebpf4jnsgd1na2vs0mg"},{"bike_id":"a3182aae-9468-4f32-af5f-bd44f4e2fc0d","system_id":"levelo_inurba_marseille","lat":43.28931,"lon":5.38398,"is_reserved":false,"is_disabled":false,"rental_uris":{"android":"levelo://app?vid=a3182aae-9468-4f32-af5f-bd44f4e2fc0d","ios":"levelo://app?vid=a3182aae-9468-4f32-af5f-bd44f4e2fc0d"},"vehicle_type_id":"4","last_reported":1721840815,"current_range_meters":0,"station_id":"ce4bh612rcd13ifvqe6g","pricing_plan_id":"cebpf4jnsgd1na2vs0mg"},{"bike_id":"c2bb4c10-91e4-43e5-af83-a11270c620a1","system_id":"levelo_inurba_marseille","lat":43.289307,"lon":5.38406,"is_reserved":false,"is_disabled":false,"rental_uris":{"android":"levelo://app?vid=c2bb4c10-91e4-43e5-af83-a11270c620a1","ios":"levelo://app?vid=c2bb4c10-91e4-43e5-af83-a11270c620a1"},"vehicle_type_id":"4","last_reported":1721840815,"current_range_meters":22000,"station_id":"ce4bh612rcd13ifvqe6g","pricing_plan_id":"cebpf4jnsgd1na2vs0mg"},{"bike_id":"cd4d936b-d39f-472a-8e74-4f4bac90e012","system_id":"levelo_inurba_marseille","lat":43.29028,"lon":5.38646,"is_reserved":false,"is_disabled":false,"rental_uris":{"android":"levelo://app?vid=cd4d936b-d39f-472a-8e74-4f4bac90e012","ios":"levelo://app?vid=cd4d936b-d39f-472a-8e74-4f4bac90e012"},"vehicle_type_id":"4","last_reported":1721840815,"current_range_meters":0,"station_id":"ce4bh4p2rcd13ifvqe0g","pricing_plan_id":"cebpf4jnsgd1na2vs0mg"},{"bike_id":"b504f9a3-0dd0-4dfd-a27a-dd9ba194956a","system_id":"levelo_inurba_marseille","lat":43.30263,"lon":5.40074,"is_reserved":false,"is_disabled":false,"rental_uris":{"android":"levelo://app?vid=b504f9a3-0dd0-4dfd-a27a-dd9ba194956a","ios":"levelo://app?vid=b504f9a3-0dd0-4dfd-a27a-dd9ba194956a"},"vehicle_type_id":"4","last_reported":1721840815,"current_range_meters":24800,"station_id":"ce4bgvh2rcd13ifvqcs0","pricing_plan_id":"cebpf4jnsgd1na2vs0mg"},{"bike_id":"6782ee84-d004-4390-85e3-2c76e053f244","system_id":"levelo_inurba_marseille","lat":43.302759,"lon":5.400793,"is_reserved":false,"is_disabled":false,"rental_uris":{"android":"levelo://app?vid=6782ee84-d004-4390-85e3-2c76e053f244","ios":"levelo://app?vid=6782ee84-d004-4390-85e3-2c76e053f244"},"vehicle_type_id":"4","last_reported":1721840815,"current_range_meters":16000,"station_id":"ce4bgvh2rcd13ifvqcs0","pricing_plan_id":"cebpf4jnsgd1na2vs0mg"},{"bike_id":"05d299b0-1c63-4669-965d-668887004545","system_id":"levelo_inurba_marseille","lat":43.287184,"lon":5.37937,"is_reserved":false,"is_disabled":false,"rental_uris":{"android":"levelo://app?vid=05d299b0-1c63-4669-965d-668887004545","ios":"levelo://app?vid=05d299b0-1c63-4669-965d-668887004545"},"vehicle_type_id":"4","last_reported":1721840815,"current_range_meters":3200,"station_id":"ce4bh9p2rcd13ifvqec0","pricing_plan_id":"cebpf4jnsgd1na2vs0mg"},{"bike_id":"d56812fe-2e55-4c84-a5c8-c6d9c10ff642","system_id":"levelo_inurba_marseille","lat":43.28671,"lon":5.38035,"is_reserved":false,"is_disabled":false,"rental_uris":{"android":"levelo://app?vid=d56812fe-2e55-4c84-a5c8-c6d9c10ff642","ios":"levelo://app?vid=d56812fe-2e55-4c84-a5c8-c6d9c10ff642"},"vehicle_type_id":"4","last_reported":1721840815,"current_range_meters":26000,"station_id":"","pricing_plan_id":"cebpf4jnsgd1na2vs0mg"},{"bike_id":"a34df47f-a870-4fbb-9790-467e40e66b41","system_id":"levelo_inurba_marseille","lat":43.316821,"lon":5.404737,"is_reserved":false,"is_disabled":false,"rental_uris":{"android":"levelo://app?vid=a34df47f-a870-4fbb-9790-467e40e66b41","ios":"levelo://app?vid=a34df47f-a870-4fbb-9790-467e40e66b41"},"vehicle_type_id":"4","last_reported":1721840815,"current_range_meters":0,"station_id":"ce4bh012rcd13ifvqd00","pricing_plan_id":"cebpf4jnsgd1na2vs0mg"},{"bike_id":"e3bc6fe5-993e-4cdc-93df-143ba8598600","system_id":"levelo_inurba_marseille","lat":43.28463,"lon":5.35891,"is_reserved":false,"is_disabled":false,"rental_uris":{"android":"levelo://app?vid=e3bc6fe5-993e-4cdc-93df-143ba8598600","ios":"levelo://app?vid=e3bc6fe5-993e-4cdc-93df-143ba8598600"},"vehicle_type_id":"4","last_reported":1721840815,"current_range_meters":0,"station_id":"ce4bhah2rcd13ifvqei0","pricing_plan_id":"cebpf4jnsgd1na2vs0mg"},{"bike_id":"fff880e2-c7b2-4dad-991e-96440d4cf513","system_id":"levelo_inurba_marseille","lat":43.28461,"lon":5.359,"is_reserved":false,"is_disabled":false,"rental_uris":{"android":"levelo://app?vid=fff880e2-c7b2-4dad-991e-96440d4cf513","ios":"levelo://app?vid=fff880e2-c7b2-4dad-991e-96440d4cf513"},"vehicle_type_id":"4","last_reported":1721840815,"current_range_meters":19600,"station_id":"ce4bhah2rcd13ifvqei0","pricing_plan_id":"cebpf4jnsgd1na2vs0mg"},{"bike_id":"1fdc669f-fa74-410e-80dc-4fcce78d751b","system_id":"levelo_inurba_marseille","lat":43.28623,"lon":5.35112,"is_reserved":false,"is_disabled":false,"rental_uris":{"android":"levelo://app?vid=1fdc669f-fa74-410e-80dc-4fcce78d751b","ios":"levelo://app?vid=1fdc669f-fa74-410e-80dc-4fcce78d751b"},"vehicle_type_id":"4","last_reported":1721840815,"current_range_meters":6000,"station_id":"ce4bhch2rcd13ifvqeug","pricing_plan_id":"cebpf4jnsgd1na2vs0mg"},{"bike_id":"e22737a5-75eb-41d5-a903-613f485fe7df","system_id":"levelo_inurba_marseille","lat":43.28626,"lon":5.351013,"is_reserved":false,"is_disabled":false,"rental_uris":{"android":"levelo://app?vid=e22737a5-75eb-41d5-a903-613f485fe7df","ios":"levelo://app?vid=e22737a5-75eb-41d5-a903-613f485fe7df"},"vehicle_type_id":"4","last_reported":1721840815,"current_range_meters":16800,"station_id":"ce4bhch2rcd13ifvqeug","pricing_plan_id":"cebpf4jnsgd1na2vs0mg"},{"bike_id":"a79a814a-edcc-4a0c-8b18-ac19a5408b34","system_id":"levelo_inurba_marseille","lat":43.28623,"lon":5.35104,"is_reserved":false,"is_disabled":false,"rental_uris":{"android":"levelo://app?vid=a79a814a-edcc-4a0c-8b18-ac19a5408b34","ios":"levelo://app?vid=a79a814a-edcc-4a0c-8b18-ac19a5408b34"},"vehicle_type_id":"4","last_reported":1721840815,"current_range_meters":28800,"station_id":"ce4bhch2rcd13ifvqeug","pricing_plan_id":"cebpf4jnsgd1na2vs0mg"},{"bike_id":"6795650a-e0a3-4730-97fe-c63eddbde8bd","system_id":"levelo_inurba_marseille","lat":43.28623,"lon":5.35103,"is_reserved":false,"is_disabled":false,"rental_uris":{"android":"levelo://app?vid=6795650a-e0a3-4730-97fe-c63eddbde8bd","ios":"levelo://app?vid=6795650a-e0a3-4730-97fe-c63eddbde8bd"},"vehicle_type_id":"4","last_reported":1721840815,"current_range_meters":25200,"station_id":"ce4bhch2rcd13ifvqeug","pricing_plan_id":"cebpf4jnsgd1na2vs0mg"},{"bike_id":"6043bbcf-8363-4b64-9f6b-6fbb1e6f44c8","system_id":"levelo_inurba_marseille","lat":43.2862,"lon":5.35112,"is_reserved":false,"is_disabled":false,"rental_uris":{"android":"levelo://app?vid=6043bbcf-8363-4b64-9f6b-6fbb1e6f44c8","ios":"levelo://app?vid=6043bbcf-8363-4b64-9f6b-6fbb1e6f44c8"},"vehicle_type_id":"4","last_reported":1721840815,"current_range_meters":1200,"station_id":"ce4bhch2rcd13ifvqeug","pricing_plan_id":"cebpf4jnsgd1na2vs0mg"},{"bike_id":"453dfb71-e5d5-44f3-8e4a-405b63886319","system_id":"levelo_inurba_marseille","lat":43.2862,"lon":5.3511,"is_reserved":false,"is_disabled":false,"rental_uris":{"android":"levelo://app?vid=453dfb71-e5d5-44f3-8e4a-405b63886319","ios":"levelo://app?vid=453dfb71-e5d5-44f3-8e4a-405b63886319"},"vehicle_type_id":"4","last_reported":1721840815,"current_range_meters":0,"station_id":"ce4bhch2rcd13ifvqeug","pricing_plan_id":"cebpf4jnsgd1na2vs0mg"},{"bike_id":"02ae4a17-b48a-4c22-8c3f-3b5f5579ffad","system_id":"levelo_inurba_marseille","lat":43.28621,"lon":5.35103,"is_reserved":false,"is_disabled":false,"rental_uris":{"android":"levelo://app?vid=02ae4a17-b48a-4c22-8c3f-3b5f5579ffad","ios":"levelo://app?vid=02ae4a17-b48a-4c22-8c3f-3b5f5579ffad"},"vehicle_type_id":"4","last_reported":1721840815,"current_range_meters":0,"station_id":"ce4bhch2rcd13ifvqeug","pricing_plan_id":"cebpf4jnsgd1na2vs0mg"},{"bike_id":"d420d931-2b50-41dc-8ecd-f27b6d2f2bdb","system_id":"levelo_inurba_marseille","lat":43.28619,"lon":5.35107,"is_reserved":false,"is_disabled":false,"rental_uris":{"android":"levelo://app?vid=d420d931-2b50-41dc-8ecd-f27b6d2f2bdb","ios":"levelo://app?vid=d420d931-2b50-41dc-8ecd-f27b6d2f2bdb"},"vehicle_type_id":"4","last_reported":1721840815,"current_range_meters":7200,"station_id":"ce4bhch2rcd13ifvqeug","pricing_plan_id":"cebpf4jnsgd1na2vs0mg"},{"bike_id":"f3a6505c-21ba-4dbb-b05f-ed121ed2b821","system_id":"levelo_inurba_marseille","lat":43.28619,"lon":5.35106,"is_reserved":false,"is_disabled":false,"rental_uris":{"android":"levelo://app?vid=f3a6505c-21ba-4dbb-b05f-ed121ed2b821","ios":"levelo://app?vid=f3a6505c-21ba-4dbb-b05f-ed121ed2b821"},"vehicle_type_id":"4","last_reported":1721840815,"current_range_meters":23600,"station_id":"ce4bhch2rcd13ifvqeug","pricing_plan_id":"cebpf4jnsgd1na2vs0mg"},{"bike_id":"308afc0f-1828-46ab-a193-74e3e61e2394","system_id":"levelo_inurba_marseille","lat":43.28618,"lon":5.35106,"is_reserved":false,"is_disabled":false,"rental_uris":{"android":"levelo://app?vid=308afc0f-1828-46ab-a193-74e3e61e2394","ios":"levelo://app?vid=308afc0f-1828-46ab-a193-74e3e61e2394"},"vehicle_type_id":"4","last_reported":1721840815,"current_range_meters":1600,"station_id":"ce4bhch2rcd13ifvqeug","pricing_plan_id":"cebpf4jnsgd1na2vs0mg"},{"bike_id":"72edaba6-0339-4e98-abaf-31a65ad9383a","system_id":"levelo_inurba_marseille","lat":43.28617,"lon":5.35109,"is_reserved":false,"is_disabled":false,"rental_uris":{"android":"levelo://app?vid=72edaba6-0339-4e98-abaf-31a65ad9383a","ios":"levelo://app?vid=72edaba6-0339-4e98-abaf-31a65ad9383a"},"vehicle_type_id":"4","last_reported":1721840815,"current_range_meters":15600,"station_id":"ce4bhch2rcd13ifvqeug","pricing_plan_id":"cebpf4jnsgd1na2vs0mg"},{"bike_id":"60236913-ac72-420c-b24b-b29cfbc8971e","system_id":"levelo_inurba_marseille","lat":43.285856,"lon":5.350771,"is_reserved":false,"is_disabled":false,"rental_uris":{"android":"levelo://app?vid=60236913-ac72-420c-b24b-b29cfbc8971e","ios":"levelo://app?vid=60236913-ac72-420c-b24b-b29cfbc8971e"},"vehicle_type_id":"4","last_reported":1721840815,"current_range_meters":17200,"station_id":"ce4bhch2rcd13ifvqeug","pricing_plan_id":"cebpf4jnsgd1na2vs0mg"},{"bike_id":"3560dd01-d999-4b17-b00b-3e03c083bff7","system_id":"levelo_inurba_marseille","lat":43.28618,"lon":5.35104,"is_reserved":false,"is_disabled":false,"rental_uris":{"android":"levelo://app?vid=3560dd01-d999-4b17-b00b-3e03c083bff7","ios":"levelo://app?vid=3560dd01-d999-4b17-b00b-3e03c083bff7"},"vehicle_type_id":"4","last_reported":1721840815,"current_range_meters":23200,"station_id":"ce4bhch2rcd13ifvqeug","pricing_plan_id":"cebpf4jnsgd1na2vs0mg"},{"bike_id":"8953a488-2799-44bf-a870-1e54586c3216","system_id":"levelo_inurba_marseille","lat":43.28618,"lon":5.35104,"is_reserved":false,"is_disabled":false,"rental_uris":{"android":"levelo://app?vid=8953a488-2799-44bf-a870-1e54586c3216","ios":"levelo://app?vid=8953a488-2799-44bf-a870-1e54586c3216"},"vehicle_type_id":"4","last_reported":1721840815,"current_range_meters":18800,"station_id":"ce4bhch2rcd13ifvqeug","pricing_plan_id":"cebpf4jnsgd1na2vs0mg"},{"bike_id":"e633c9dd-09e1-42f0-9bdf-c8884c158a82","system_id":"levelo_inurba_marseille","lat":43.28617,"lon":5.35107,"is_reserved":false,"is_disabled":false,"rental_uris":{"android":"levelo://app?vid=e633c9dd-09e1-42f0-9bdf-c8884c158a82","ios":"levelo://app?vid=e633c9dd-09e1-42f0-9bdf-c8884c158a82"},"vehicle_type_id":"4","last_reported":1721840815,"current_range_meters":5600,"station_id":"ce4bhch2rcd13ifvqeug","pricing_plan_id":"cebpf4jnsgd1na2vs0mg"},{"bike_id":"6f061303-2c4a-4294-aedd-e3ae6c4c136a","system_id":"levelo_inurba_marseille","lat":43.286178,"lon":5.351041,"is_reserved":false,"is_disabled":false,"rental_uris":{"android":"levelo://app?vid=6f061303-2c4a-4294-aedd-e3ae6c4c136a","ios":"levelo://app?vid=6f061303-2c4a-4294-aedd-e3ae6c4c136a"},"vehicle_type_id":"4","last_reported":1721840815,"current_range_meters":0,"station_id":"","pricing_plan_id":"cebpf4jnsgd1na2vs0mg"},{"bike_id":"ee966998-f497-45eb-9fbf-d3052db215cd","system_id":"levelo_inurba_marseille","lat":43.28617,"lon":5.35106,"is_reserved":false,"is_disabled":false,"rental_uris":{"android":"levelo://app?vid=ee966998-f497-45eb-9fbf-d3052db215cd","ios":"levelo://app?vid=ee966998-f497-45eb-9fbf-d3052db215cd"},"vehicle_type_id":"4","last_reported":1721840815,"current_range_meters":28800,"station_id":"ce4bhch2rcd13ifvqeug","pricing_plan_id":"cebpf4jnsgd1na2vs0mg"},{"bike_id":"78c29226-d7e5-4b11-968c-b027458c71f5","system_id":"levelo_inurba_marseille","lat":43.28617,"lon":5.35106,"is_reserved":false,"is_disabled":false,"rental_uris":{"android":"levelo://app?vid=78c29226-d7e5-4b11-968c-b027458c71f5","ios":"levelo://app?vid=78c29226-d7e5-4b11-968c-b027458c71f5"},"vehicle_type_id":"4","last_reported":1721840815,"current_range_meters":28000,"station_id":"ce4bhch2rcd13ifvqeug","pricing_plan_id":"cebpf4jnsgd1na2vs0mg"},{"bike_id":"5862d44e-d49f-4c80-b712-0fe720766e49","system_id":"levelo_inurba_marseille","lat":43.28618,"lon":5.35102,"is_reserved":false,"is_disabled":false,"rental_uris":{"android":"levelo://app?vid=5862d44e-d49f-4c80-b712-0fe720766e49","ios":"levelo://app?vid=5862d44e-d49f-4c80-b712-0fe720766e49"},"vehicle_type_id":"4","last_reported":1721840815,"current_range_meters":14000,"station_id":"ce4bhch2rcd13ifvqeug","pricing_plan_id":"cebpf4jnsgd1na2vs0mg"},{"bike_id":"59c0719f-253f-4cd8-9973-61cd443aded5","system_id":"levelo_inurba_marseille","lat":43.28616,"lon":5.35108,"is_reserved":false,"is_disabled":false,"rental_uris":{"android":"levelo://app?vid=59c0719f-253f-4cd8-9973-61cd443aded5","ios":"levelo://app?vid=59c0719f-253f-4cd8-9973-61cd443aded5"},"vehicle_type_id":"4","last_reported":1721840815,"current_range_meters":16000,"station_id":"ce4bhch2rcd13ifvqeug","pricing_plan_id":"cebpf4jnsgd1na2vs0mg"},{"bike_id":"e7e923d4-2466-4dbd-8e81-decc5d0f7237","system_id":"levelo_inurba_marseille","lat":43.28615,"lon":5.35108,"is_reserved":false,"is_disabled":false,"rental_uris":{"android":"levelo://app?vid=e7e923d4-2466-4dbd-8e81-decc5d0f7237","ios":"levelo://app?vid=e7e923d4-2466-4dbd-8e81-decc5d0f7237"},"vehicle_type_id":"4","last_reported":1721840815,"current_range_meters":10400,"station_id":"ce4bhch2rcd13ifvqeug","pricing_plan_id":"cebpf4jnsgd1na2vs0mg"},{"bike_id":"a8be2ad2-d508-40b6-af0e-734d3f1b8dfb","system_id":"levelo_inurba_marseille","lat":43.28615,"lon":5.35107,"is_reserved":false,"is_disabled":false,"rental_uris":{"android":"levelo://app?vid=a8be2ad2-d508-40b6-af0e-734d3f1b8dfb","ios":"levelo://app?vid=a8be2ad2-d508-40b6-af0e-734d3f1b8dfb"},"vehicle_type_id":"4","last_reported":1721840815,"current_range_meters":6000,"station_id":"ce4bhch2rcd13ifvqeug","pricing_plan_id":"cebpf4jnsgd1na2vs0mg"},{"bike_id":"29fa3516-7b50-4173-b54c-6b558753b101","system_id":"levelo_inurba_marseille","lat":43.28615,"lon":5.35107,"is_reserved":false,"is_disabled":false,"rental_uris":{"android":"levelo://app?vid=29fa3516-7b50-4173-b54c-6b558753b101","ios":"levelo://app?vid=29fa3516-7b50-4173-b54c-6b558753b101"},"vehicle_type_id":"4","last_reported":1721840815,"current_range_meters":7200,"station_id":"ce4bhch2rcd13ifvqeug","pricing_plan_id":"cebpf4jnsgd1na2vs0mg"},{"bike_id":"1607d6a2-d762-40d6-9836-5611e1511bc6","system_id":"levelo_inurba_marseille","lat":43.28614,"lon":5.35105,"is_reserved":false,"is_disabled":false,"rental_uris":{"android":"levelo://app?vid=1607d6a2-d762-40d6-9836-5611e1511bc6","ios":"levelo://app?vid=1607d6a2-d762-40d6-9836-5611e1511bc6"},"vehicle_type_id":"4","last_reported":1721840815,"current_range_meters":0,"station_id":"ce4bhch2rcd13ifvqeug","pricing_plan_id":"cebpf4jnsgd1na2vs0mg"},{"bike_id":"c727f625-b83e-4ab6-84e6-7492ac66973a","system_id":"levelo_inurba_marseille","lat":43.28614,"lon":5.35105,"is_reserved":false,"is_disabled":false,"rental_uris":{"android":"levelo://app?vid=c727f625-b83e-4ab6-84e6-7492ac66973a","ios":"levelo://app?vid=c727f625-b83e-4ab6-84e6-7492ac66973a"},"vehicle_type_id":"4","last_reported":1721840815,"current_range_meters":14400,"station_id":"ce4bhch2rcd13ifvqeug","pricing_plan_id":"cebpf4jnsgd1na2vs0mg"},{"bike_id":"043abe5b-fd6c-4d09-800b-d7a3bf296c41","system_id":"levelo_inurba_marseille","lat":43.286134,"lon":5.351058,"is_reserved":false,"is_disabled":false,"rental_uris":{"android":"levelo://app?vid=043abe5b-fd6c-4d09-800b-d7a3bf296c41","ios":"levelo://app?vid=043abe5b-fd6c-4d09-800b-d7a3bf296c41"},"vehicle_type_id":"4","last_reported":1721840815,"current_range_meters":0,"station_id":"ce4bhch2rcd13ifvqeug","pricing_plan_id":"cebpf4jnsgd1na2vs0mg"},{"bike_id":"910e81e3-e3c0-4d87-81b2-65cb4356fbf7","system_id":"levelo_inurba_marseille","lat":43.28613,"lon":5.35105,"is_reserved":false,"is_disabled":false,"rental_uris":{"android":"levelo://app?vid=910e81e3-e3c0-4d87-81b2-65cb4356fbf7","ios":"levelo://app?vid=910e81e3-e3c0-4d87-81b2-65cb4356fbf7"},"vehicle_type_id":"4","last_reported":1721840815,"current_range_meters":15600,"station_id":"ce4bhch2rcd13ifvqeug","pricing_plan_id":"cebpf4jnsgd1na2vs0mg"},{"bike_id":"dd579a96-db29-4992-b0c8-cdca5ce0bbe2","system_id":"levelo_inurba_marseille","lat":43.28613,"lon":5.35105,"is_reserved":false,"is_disabled":false,"rental_uris":{"android":"levelo://app?vid=dd579a96-db29-4992-b0c8-cdca5ce0bbe2","ios":"levelo://app?vid=dd579a96-db29-4992-b0c8-cdca5ce0bbe2"},"vehicle_type_id":"4","last_reported":1721840815,"current_range_meters":16400,"station_id":"ce4bhch2rcd13ifvqeug","pricing_plan_id":"cebpf4jnsgd1na2vs0mg"},{"bike_id":"9694fb5e-0455-4dfc-b392-004ded5a8d75","system_id":"levelo_inurba_marseille","lat":43.28614,"lon":5.35101,"is_reserved":false,"is_disabled":false,"rental_uris":{"android":"levelo://app?vid=9694fb5e-0455-4dfc-b392-004ded5a8d75","ios":"levelo://app?vid=9694fb5e-0455-4dfc-b392-004ded5a8d75"},"vehicle_type_id":"4","last_reported":1721840815,"current_range_meters":22800,"station_id":"ce4bhch2rcd13ifvqeug","pricing_plan_id":"cebpf4jnsgd1na2vs0mg"},{"bike_id":"c502a806-2720-4684-84ce-9bf27228042d","system_id":"levelo_inurba_marseille","lat":43.285856,"lon":5.350771,"is_reserved":false,"is_disabled":false,"rental_uris":{"android":"levelo://app?vid=c502a806-2720-4684-84ce-9bf27228042d","ios":"levelo://app?vid=c502a806-2720-4684-84ce-9bf27228042d"},"vehicle_type_id":"4","last_reported":1721840815,"current_range_meters":5600,"station_id":"ce4bhch2rcd13ifvqeug","pricing_plan_id":"cebpf4jnsgd1na2vs0mg"},{"bike_id":"60b78faf-9d38-485b-b4c9-7a6f50196695","system_id":"levelo_inurba_marseille","lat":43.28613,"lon":5.35102,"is_reserved":false,"is_disabled":false,"rental_uris":{"android":"levelo://app?vid=60b78faf-9d38-485b-b4c9-7a6f50196695","ios":"levelo://app?vid=60b78faf-9d38-485b-b4c9-7a6f50196695"},"vehicle_type_id":"4","last_reported":1721840815,"current_range_meters":6800,"station_id":"ce4bhch2rcd13ifvqeug","pricing_plan_id":"cebpf4jnsgd1na2vs0mg"},{"bike_id":"8a6df779-d1c0-436b-8a32-114e814e864a","system_id":"levelo_inurba_marseille","lat":43.336134,"lon":5.410341,"is_reserved":false,"is_disabled":false,"rental_uris":{"android":"levelo://app?vid=8a6df779-d1c0-436b-8a32-114e814e864a","ios":"levelo://app?vid=8a6df779-d1c0-436b-8a32-114e814e864a"},"vehicle_type_id":"4","last_reported":1721840815,"current_range_meters":7600,"station_id":"ce4bhqh2rcd13ifvqhmg","pricing_plan_id":"cebpf4jnsgd1na2vs0mg"},{"bike_id":"d66110d2-03d2-46e5-aaf4-0c7a0b5842bd","system_id":"levelo_inurba_marseille","lat":43.28612,"lon":5.35103,"is_reserved":false,"is_disabled":false,"rental_uris":{"android":"levelo://app?vid=d66110d2-03d2-46e5-aaf4-0c7a0b5842bd","ios":"levelo://app?vid=d66110d2-03d2-46e5-aaf4-0c7a0b5842bd"},"vehicle_type_id":"4","last_reported":1721840815,"current_range_meters":16000,"station_id":"ce4bhch2rcd13ifvqeug","pricing_plan_id":"cebpf4jnsgd1na2vs0mg"},{"bike_id":"bf6e798c-8110-4eb1-81d1-69d6341f77a4","system_id":"levelo_inurba_marseille","lat":43.285856,"lon":5.350771,"is_reserved":false,"is_disabled":false,"rental_uris":{"android":"levelo://app?vid=bf6e798c-8110-4eb1-81d1-69d6341f77a4","ios":"levelo://app?vid=bf6e798c-8110-4eb1-81d1-69d6341f77a4"},"vehicle_type_id":"4","last_reported":1721840815,"current_range_meters":26000,"station_id":"ce4bhch2rcd13ifvqeug","pricing_plan_id":"cebpf4jnsgd1na2vs0mg"},{"bike_id":"e76bd22e-5ede-46fa-878b-3b243f853219","system_id":"levelo_inurba_marseille","lat":43.2861,"lon":5.35108,"is_reserved":false,"is_disabled":false,"rental_uris":{"android":"levelo://app?vid=e76bd22e-5ede-46fa-878b-3b243f853219","ios":"levelo://app?vid=e76bd22e-5ede-46fa-878b-3b243f853219"},"vehicle_type_id":"4","last_reported":1721840815,"current_range_meters":20000,"station_id":"ce4bhch2rcd13ifvqeug","pricing_plan_id":"cebpf4jnsgd1na2vs0mg"},{"bike_id":"10c54cc8-d60a-44b0-ba82-49c1f1f1df17","system_id":"levelo_inurba_marseille","lat":43.286108,"lon":5.351019,"is_reserved":false,"is_disabled":false,"rental_uris":{"android":"levelo://app?vid=10c54cc8-d60a-44b0-ba82-49c1f1f1df17","ios":"levelo://app?vid=10c54cc8-d60a-44b0-ba82-49c1f1f1df17"},"vehicle_type_id":"4","last_reported":1721840815,"current_range_meters":4800,"station_id":"ce4bhch2rcd13ifvqeug","pricing_plan_id":"cebpf4jnsgd1na2vs0mg"},{"bike_id":"9cfd22ec-7720-48e7-8f8d-2d56d56815a9","system_id":"levelo_inurba_marseille","lat":43.2861,"lon":5.35098,"is_reserved":false,"is_disabled":false,"rental_uris":{"android":"levelo://app?vid=9cfd22ec-7720-48e7-8f8d-2d56d56815a9","ios":"levelo://app?vid=9cfd22ec-7720-48e7-8f8d-2d56d56815a9"},"vehicle_type_id":"4","last_reported":1721840815,"current_range_meters":7200,"station_id":"ce4bhch2rcd13ifvqeug","pricing_plan_id":"cebpf4jnsgd1na2vs0mg"},{"bike_id":"32d76d0d-3079-486e-afcc-932541041fdf","system_id":"levelo_inurba_marseille","lat":43.283998,"lon":5.375062,"is_reserved":false,"is_disabled":false,"rental_uris":{"android":"levelo://app?vid=32d76d0d-3079-486e-afcc-932541041fdf","ios":"levelo://app?vid=32d76d0d-3079-486e-afcc-932541041fdf"},"vehicle_type_id":"4","last_reported":1721840815,"current_range_meters":11600,"station_id":"ce4bh412rcd13ifvqds0","pricing_plan_id":"cebpf4jnsgd1na2vs0mg"},{"bike_id":"5689cd21-72d9-46c5-a410-74e3b25838e5","system_id":"levelo_inurba_marseille","lat":43.28414,"lon":5.37528,"is_reserved":false,"is_disabled":false,"rental_uris":{"android":"levelo://app?vid=5689cd21-72d9-46c5-a410-74e3b25838e5","ios":"levelo://app?vid=5689cd21-72d9-46c5-a410-74e3b25838e5"},"vehicle_type_id":"4","last_reported":1721840815,"current_range_meters":0,"station_id":"ce4bh412rcd13ifvqds0","pricing_plan_id":"cebpf4jnsgd1na2vs0mg"},{"bike_id":"3b9176e4-e238-455c-bd68-097f20f52a93","system_id":"levelo_inurba_marseille","lat":43.28779,"lon":5.38852,"is_reserved":false,"is_disabled":false,"rental_uris":{"android":"levelo://app?vid=3b9176e4-e238-455c-bd68-097f20f52a93","ios":"levelo://app?vid=3b9176e4-e238-455c-bd68-097f20f52a93"},"vehicle_type_id":"4","last_reported":1721840815,"current_range_meters":4800,"station_id":"","pricing_plan_id":"cebpf4jnsgd1na2vs0mg"},{"bike_id":"d1622a34-14e6-471d-9aea-6f9a0efb2d61","system_id":"levelo_inurba_marseille","lat":43.28674,"lon":5.38664,"is_reserved":false,"is_disabled":false,"rental_uris":{"android":"levelo://app?vid=d1622a34-14e6-471d-9aea-6f9a0efb2d61","ios":"levelo://app?vid=d1622a34-14e6-471d-9aea-6f9a0efb2d61"},"vehicle_type_id":"4","last_reported":1721840815,"current_range_meters":0,"station_id":"ce4bh492rcd13ifvqdug","pricing_plan_id":"cebpf4jnsgd1na2vs0mg"},{"bike_id":"7b75f278-b51b-4a61-a586-080b69167e16","system_id":"levelo_inurba_marseille","lat":43.323464,"lon":5.406297,"is_reserved":false,"is_disabled":false,"rental_uris":{"android":"levelo://app?vid=7b75f278-b51b-4a61-a586-080b69167e16","ios":"levelo://app?vid=7b75f278-b51b-4a61-a586-080b69167e16"},"vehicle_type_id":"4","last_reported":1721840815,"current_range_meters":400,"station_id":"ce4bhq92rcd13ifvqhjg","pricing_plan_id":"cebpf4jnsgd1na2vs0mg"},{"bike_id":"80c2cc52-fbf7-4408-ad52-a62b6776fced","system_id":"levelo_inurba_marseille","lat":43.337237,"lon":5.391795,"is_reserved":false,"is_disabled":false,"rental_uris":{"android":"levelo://app?vid=80c2cc52-fbf7-4408-ad52-a62b6776fced","ios":"levelo://app?vid=80c2cc52-fbf7-4408-ad52-a62b6776fced"},"vehicle_type_id":"4","last_reported":1721840815,"current_range_meters":11200,"station_id":"ce4bhr92rcd13ifvqhsg","pricing_plan_id":"cebpf4jnsgd1na2vs0mg"},