{"last_updated":1784470738,"ttl":60,"version":"2.2","data":{"bikes":[{"bike_id":"ba0c28b1-8732-48e2-8079-f25b2b3fbc3c","system_id":"levelo_inurba_marseille","lat":43.337444,"lon":5.374475,"is_reserved":false,"is_disabled":false,"rental_uris":{"android":"levelo://app?vid=ba0c28b1-8732-48e2-8079-f25b2b3fbc3c","ios":"levelo://app?vid=ba0c28b1-8732-48e2-8079-f25b2b3fbc3c"},"vehicle_type_id":"4","last_reported":1784470738,"current_range_meters":0,"station_id":"","pricing_plan_id":"cebpf4jnsgd1na2vs0mg"},{"bike_id":"b24e008d-76fe-4304-bdb8-1a62b93995b0","system_id":"levelo_inurba_marseille","lat":43.22534,"lon":5.3483,"is_reserved":false,"is_disabled":false,"rental_uris":{"android":"levelo://app?vid=b24e008d-76fe-4304-bdb8-1a62b93995b0","ios":"levelo://app?vid=b24e008d-76fe-4304-bdb8-1a62b93995b0"},"vehicle_type_id":"4","last_reported":1784470738,"current_range_meters":39200,"station_id":"st_cvj5dfep6f1abm77gieg","pricing_plan_id":"cebpf4jnsgd1na2vs0mg"},{"bike_id":"a966e85f-68d2-4c23-8395-3915ebf05c3e","system_id":"levelo_inurba_marseille","lat":43.33538,"lon":5.37468,"is_reserved":false,"is_disabled":false,"rental_uris":{"android":"levelo://app?vid=a966e85f-68d2-4c23-8395-3915ebf05c3e","ios":"levelo://app?vid=a966e85f-68d2-4c23-8395-3915ebf05c3e"},"vehicle_type_id":"4","last_reported":1784470738,"current_range_meters":11200,"station_id":"st_d46tts09ee8s73dlu43g","pricing_plan_id":"cebpf4jnsgd1na2vs0mg"},{"bike_id":"63dc20ac-90f4-4eae-ac6c-d24ae13a7929","system_id":"levelo_inurba_marseille","lat":43.25359,"lon":5.4217,"is_reserved":false,"is_disabled":false,"rental_uris":{"android":"levelo://app?vid=63dc20ac-90f4-4eae-ac6c-d24ae13a7929","ios":"levelo://app?vid=63dc20ac-90f4-4eae-ac6c-d24ae13a7929"},"vehicle_type_id":"4","last_reported":1784470738,"current_range_meters":28800,"station_id":"st_d2m65c5bi1j21697t3ng","pricing_plan_id":"cebpf4jnsgd1na2vs0mg"},{"bike_id":"cf6913d9-0ec5-410a-adca-5d6c74ca8bcd","system_id":"levelo_inurba_marseille","lat":43.290042,"lon":5.356139,"is_reserved":false,"is_disabled":true,"rental_uris":{"android":"levelo://app?vid=cf6913d9-0ec5-410a-adca-5d6c74ca8bcd","ios":"levelo://app?vid=cf6913d9-0ec5-410a-adca-5d6c74ca8bcd"},"vehicle_type_id":"4","last_reported":1784470738,"current_range_meters":1200,"station_id":"ce4bhb92rcd13ifvqen0","pricing_plan_id":"cebpf4jnsgd1na2vs0mg"},{"bike_id":"0318b887-08f7-4570-b775-4e7bcbc9f0a8","system_id":"levelo_inurba_marseille","lat":43.29857,"lon":5.36275,"is_reserved":false,"is_disabled":false,"rental_uris":{"android":"levelo://app?vid=0318b887-08f7-4570-b775-4e7bcbc9f0a8","ios":"levelo://app?vid=0318b887-08f7-4570-b775-4e7bcbc9f0a8"},"vehicle_type_id":"4","last_reported":1784470738,"current_range_meters":12400,"station_id":"ce4bgpp2rcd13ifvqc3g","pricing_plan_id":"cebpf4jnsgd1na2vs0mg"},{"bike_id":"5a8d9266-f0fd-4ab9-8de4-43bb599823d5","system_id":"levelo_inurba_marseille","lat":43.2622,"lon":5.38763,"is_reserved":false,"is_disabled":false,"rental_uris":{"android":"levelo://app?vid=5a8d9266-f0fd-4ab9-8de4-43bb599823d5","ios":"levelo://app?vid=5a8d9266-f0fd-4ab9-8de4-43bb599823d5"},"vehicle_type_id":"4","last_reported":1784470738,"current_range_meters":24000,"station_id":"st_d8gjfg747rts73coq3b0","pricing_plan_id":"cebpf4jnsgd1na2vs0mg"},{"bike_id":"d82ff212-3daa-4ef7-97b1-31e890a6719e","system_id":"levelo_inurba_marseille","lat":43.24176,"lon":5.36398,"is_reserved":false,"is_disabled":false,"rental_uris":{"android":"levelo://app?vid=d82ff212-3daa-4ef7-97b1-31e890a6719e","ios":"levelo://app?vid=d82ff212-3daa-4ef7-97b1-31e890a6719e"},"vehicle_type_id":"4","last_reported":1784470738,"current_range_meters":30000,"station_id":"cpo36qri1sfpv3e86is0","pricing_plan_id":"cebpf4jnsgd1na2vs0mg"},{"bike_id":"bd92f994-a17d-4118-9a43-e1227719ef9a","system_id":"levelo_inurba_marseille","lat":43.29624,"lon":5.40591,"is_reserved":false,"is_disabled":true,"rental_uris":{"android":"levelo://app?vid=bd92f994-a17d-4118-9a43-e1227719ef9a","ios":"levelo://app?vid=bd92f994-a17d-4118-9a43-e1227719ef9a"},"vehicle_type_id":"4","last_reported":1784470738,"current_range_meters":2000,"station_id":"ce4bh0h2rcd13ifvqd60","pricing_plan_id":"cebpf4jnsgd1na2vs0mg"},{"bike_id":"edc293ec-aaef-4cc0-903d-983aa4cb3d2f","system_id":"levelo_inurba_marseille","lat":43.30919,"lon":5.36736,"is_reserved":false,"is_disabled":true,"rental_uris":{"android":"levelo://app?vid=edc293ec-aaef-4cc0-903d-983aa4cb3d2f","ios":"levelo://app?vid=edc293ec-aaef-4cc0-903d-983aa4cb3d2f"},"vehicle_type_id":"4","last_reported":1784470738,"current_range_meters":1600,"station_id":"","pricing_plan_id":"cebpf4jnsgd1na2vs0mg"},{"bike_id":"f88b334c-27a5-4495-93d8-9a1c5e18cfaa","system_id":"levelo_inurba_marseille","lat":43.25524,"lon":5.37658,"is_reserved":false,"is_disabled":false,"rental_uris":{"android":"levelo://app?vid=f88b334c-27a5-4495-93d8-9a1c5e18cfaa","ios":"levelo://app?vid=f88b334c-27a5-4495-93d8-9a1c5e18cfaa"},"vehicle_type_id":"4","last_reported":1784470738,"current_range_meters":33200,"station_id":"ce4bhh12rcd13ifvqff0","pricing_plan_id":"cebpf4jnsgd1na2vs0mg"},{"bike_id":"9da5cadf-cdd1-429b-9b5e-9173177dfcc4","system_id":"levelo_inurba_marseille","lat":43.24386,"lon":5.3707,"is_reserved":false,"is_disabled":false,"rental_uris":{"android":"levelo://app?vid=9da5cadf-cdd1-429b-9b5e-9173177dfcc4","ios":"levelo://app?vid=9da5cadf-cdd1-429b-9b5e-9173177dfcc4"},"vehicle_type_id":"4","last_reported":1784470738,"current_range_meters":8400,"station_id":"ce4bhhh2rcd13ifvqfk0","pricing_plan_id":"cebpf4jnsgd1na2vs0mg"},{"bike_id":"c89aa343-60b5-4ff9-a41b-42cf3b5b8fe5","system_id":"levelo_inurba_marseille","lat":43.29225,"lon":5.36056,"is_reserved":false,"is_disabled":false,"rental_uris":{"android":"levelo://app?vid=c89aa343-60b5-4ff9-a41b-42cf3b5b8fe5","ios":"levelo://app?vid=c89aa343-60b5-4ff9-a41b-42cf3b5b8fe5"},"vehicle_type_id":"4","last_reported":1784470738,"current_range_meters":39200,"station_id":"","pricing_plan_id":"cebpf4jnsgd1na2vs0mg"},{"bike_id":"e71494cd-d4a8-436a-a5c6-260a2924500e","system_id":"levelo_inurba_marseille","lat":43.26229,"lon":5.38776,"is_reserved":false,"is_disabled":true,"rental_uris":{"android":"levelo://app?vid=e71494cd-d4a8-436a-a5c6-260a2924500e","ios":"levelo://app?vid=e71494cd-d4a8-436a-a5c6-260a2924500e"},"vehicle_type_id":"4","last_reported":1784470738,"current_range_meters":25200,"station_id":"st_d8gjfg747rts73coq3b0","pricing_plan_id":"cebpf4jnsgd1na2vs0mg"},{"bike_id":"661a48b2-2a3b-4341-ba7f-18771415c6d8","system_id":"levelo_inurba_marseille","lat":43.27067,"lon":5.38302,"is_reserved":false,"is_disabled":false,"rental_uris":{"android":"levelo://app?vid=661a48b2-2a3b-4341-ba7f-18771415c6d8","ios":"levelo://app?vid=661a48b2-2a3b-4341-ba7f-18771415c6d8"},"vehicle_type_id":"4","last_reported":1784470738,"current_range_meters":39200,"station_id":"st_d3n2fo6cfp8s73cte1j0","pricing_plan_id":"cebpf4jnsgd1na2vs0mg"},{"bike_id":"80ef3a4a-1855-4d8a-9848-be3a53762315","system_id":"levelo_inurba_marseille","lat":43.31527,"lon":5.38037,"is_reserved":false,"is_disabled":false,"rental_uris":{"android":"levelo://app?vid=80ef3a4a-1855-4d8a-9848-be3a53762315","ios":"levelo://app?vid=80ef3a4a-1855-4d8a-9848-be3a53762315"},"vehicle_type_id":"4","last_reported":1784470738,"current_range_meters":11200,"station_id":"ce4bhsp2rcd13ifvqi50","pricing_plan_id":"cebpf4jnsgd1na2vs0mg"},{"bike_id":"bedff844-9130-492b-a7c3-37d670bbb559","system_id":"levelo_inurba_marseille","lat":43.32361,"lon":5.36735,"is_reserved":false,"is_disabled":false,"rental_uris":{"android":"levelo://app?vid=bedff844-9130-492b-a7c3-37d670bbb559","ios":"levelo://app?vid=bedff844-9130-492b-a7c3-37d670bbb559"},"vehicle_type_id":"4","last_reported":1784470738,"current_range_meters":38800,"station_id":"ce4bhsh2rcd13ifvqi2g","pricing_plan_id":"cebpf4jnsgd1na2vs0mg"},{"bike_id":"71d76cfb-9f7d-4301-bb45-b0e6adabc94d","system_id":"levelo_inurba_marseille","lat":43.24391,"lon":5.3706,"is_reserved":false,"is_disabled":false,"rental_uris":{"android":"levelo://app?vid=71d76cfb-9f7d-4301-bb45-b0e6adabc94d","ios":"levelo://app?vid=71d76cfb-9f7d-4301-bb45-b0e6adabc94d"},"vehicle_type_id":"4","last_reported":1784470738,"current_range_meters":39200,"station_id":"ce4bhhh2rcd13ifvqfk0","pricing_plan_id":"cebpf4jnsgd1na2vs0mg"},{"bike_id":"1c737b42-96c3-4960-bd7e-7484bd7a13bc","system_id":"levelo_inurba_marseille","lat":43.2849,"lon":5.38427,"is_reserved":false,"is_disabled":false,"rental_uris":{"android":"levelo://app?vid=1c737b42-96c3-4960-bd7e-7484bd7a13bc","ios":"levelo://app?vid=1c737b42-96c3-4960-bd7e-7484bd7a13bc"},"vehicle_type_id":"4","last_reported":1784470738,"current_range_meters":10000,"station_id":"ce4bh512rcd13ifvqe3g","pricing_plan_id":"cebpf4jnsgd1na2vs0mg"},{"bike_id":"782b1af0-c1a6-4cbf-a06c-7d7141b4ffdc","system_id":"levelo_inurba_marseille","lat":43.23163,"lon":5.43733,"is_reserved":false,"is_disabled":false,"rental_uris":{"android":"levelo://app?vid=782b1af0-c1a6-4cbf-a06c-7d7141b4ffdc","ios":"levelo://app?vid=782b1af0-c1a6-4cbf-a06c-7d7141b4ffdc"},"vehicle_type_id":"4","last_reported":1784470738,"current_range_meters":31200,"station_id":"ce4bhmp2rcd13ifvqgog","pricing_plan_id":"cebpf4jnsgd1na2vs0mg"},{"bike_id":"4a2b6d62-8189-440a-9a99-ef8458bda7c9","system_id":"levelo_inurba_marseille","lat":43.30393,"lon":5.41302,"is_reserved":false,"is_disabled":false,"rental_uris":{"android":"levelo://app?vid=4a2b6d62-8189-440a-9a99-ef8458bda7c9","ios":"levelo://app?vid=4a2b6d62-8189-440a-9a99-ef8458bda7c9"},"vehicle_type_id":"4","last_reported":1784470738,"current_range_meters":39200,"station_id":"ce4bhop2rcd13ifvqh8g","pricing_plan_id":"cebpf4jnsgd1na2vs0mg"},{"bike_id":"32ed2206-662d-4dc8-8aec-718d76ff8fe4","system_id":"levelo_inurba_marseille","lat":43.27997,"lon":5.41658,"is_reserved":false,"is_disabled":false,"rental_uris":{"android":"levelo://app?vid=32ed2206-662d-4dc8-8aec-718d76ff8fe4","ios":"levelo://app?vid=32ed2206-662d-4dc8-8aec-718d76ff8fe4"},"vehicle_type_id":"4","last_reported":1784470738,"current_range_meters":36800,"station_id":"ce4bho12rcd13ifvqh1g","pricing_plan_id":"cebpf4jnsgd1na2vs0mg"},{"bike_id":"0ecdb674-3c3c-46be-9a7b-0387e7579f88","system_id":"levelo_inurba_marseille","lat":43.24464,"lon":5.42526,"is_reserved":false,"is_disabled":false,"rental_uris":{"android":"levelo://app?vid=0ecdb674-3c3c-46be-9a7b-0387e7579f88","ios":"levelo://app?vid=0ecdb674-3c3c-46be-9a7b-0387e7579f88"},"vehicle_type_id":"4","last_reported":1784470738,"current_range_meters":28800,"station_id":"st_d4a3vfp97mjs738cd8kg","pricing_plan_id":"cebpf4jnsgd1na2vs0mg"},{"bike_id":"129ac767-2638-4c48-b9ca-8da71d89525b","system_id":"levelo_inurba_marseille","lat":43.23896,"lon":5.37458,"is_reserved":false,"is_disabled":false,"rental_uris":{"android":"levelo://app?vid=129ac767-2638-4c48-b9ca-8da71d89525b","ios":"levelo://app?vid=129ac767-2638-4c48-b9ca-8da71d89525b"},"vehicle_type_id":"4","last_reported":1784470738,"current_range_meters":28000,"station_id":"st_d6sm7csbq4hs73f8fpjg","pricing_plan_id":"cebpf4jnsgd1na2vs0mg"},{"bike_id":"7ba6887d-b423-4472-957a-7da860d5a0bc","system_id":"levelo_inurba_marseille","lat":43.26219,"lon":5.37448,"is_reserved":false,"is_disabled":false,"rental_uris":{"android":"levelo://app?vid=7ba6887d-b423-4472-957a-7da860d5a0bc","ios":"levelo://app?vid=7ba6887d-b423-4472-957a-7da860d5a0bc"},"vehicle_type_id":"4","last_reported":1784470738,"current_range_meters":14400,"station_id":"ce4bhgp2rcd13ifvqfc0","pricing_plan_id":"cebpf4jnsgd1na2vs0mg"},{"bike_id":"975c186b-c045-4c4c-ba94-63d3ae86730e","system_id":"levelo_inurba_marseille","lat":43.27319,"lon":5.39081,"is_reserved":false,"is_disabled":false,"rental_uris":{"android":"levelo://app?vid=975c186b-c045-4c4c-ba94-63d3ae86730e","ios":"levelo://app?vid=975c186b-c045-4c4c-ba94-63d3ae86730e"},"vehicle_type_id":"4","last_reported":1784470738,"current_range_meters":11200,"station_id":"ce4bhgp2rcd13ifvqfe0","pricing_plan_id":"cebpf4jnsgd1na2vs0mg"},{"bike_id":"cd51f461-b6b3-4a67-8a6c-7f85b9f282bd","system_id":"levelo_inurba_marseille","lat":43.24816,"lon":5.38213,"is_reserved":false,"is_disabled":false,"rental_uris":{"android":"levelo://app?vid=cd51f461-b6b3-4a67-8a6c-7f85b9f282bd","ios":"levelo://app?vid=cd51f461-b6b3-4a67-8a6c-7f85b9f282bd"},"vehicle_type_id":"4","last_reported":1784470738,"current_range_meters":29600,"station_id":"","pricing_plan_id":"cebpf4jnsgd1na2vs0mg"},{"bike_id":"96e13f4d-c14b-492b-af7c-351af14ebdc7","system_id":"levelo_inurba_marseille","lat":43.26201,"lon":5.37936,"is_reserved":false,"is_disabled":false,"rental_uris":{"android":"levelo://app?vid=96e13f4d-c14b-492b-af7c-351af14ebdc7","ios":"levelo://app?vid=96e13f4d-c14b-492b-af7c-351af14ebdc7"},"vehicle_type_id":"4","last_reported":1784470738,"current_range_meters":22800,"station_id":"ce4bhjp2rcd13ifvqg90","pricing_plan_id":"cebpf4jnsgd1na2vs0mg"},{"bike_id":"ef6880d0-6944-4f6a-8f40-6662368b8f75","system_id":"levelo_inurba_marseille","lat":43.31722,"lon":5.43715,"is_reserved":false,"is_disabled":false,"rental_uris":{"android":"levelo://app?vid=ef6880d0-6944-4f6a-8f40-6662368b8f75","ios":"levelo://app?vid=ef6880d0-6944-4f6a-8f40-6662368b8f75"},"vehicle_type_id":"4","last_reported":1784470738,"current_range_meters":39200,"station_id":"ce4bhp92rcd13ifvqhcg","pricing_plan_id":"cebpf4jnsgd1na2vs0mg"},{"bike_id":"7aaec82f-406e-4f46-aa12-4d0042bca2c7","system_id":"levelo_inurba_marseille","lat":43.29967,"lon":5.37203,"is_reserved":false,"is_disabled":false,"rental_uris":{"android":"levelo://app?vid=7aaec82f-406e-4f46-aa12-4d0042bca2c7","ios":"levelo://app?vid=7aaec82f-406e-4f46-aa12-4d0042bca2c7"},"vehicle_type_id":"4","last_reported":1784470738,"current_range_meters":28000,"station_id":"ce4bgr92rcd13ifvqc7g","pricing_plan_id":"cebpf4jnsgd1na2vs0mg"},{"bike_id":"69aa3890-8355-4668-9d7c-2b996f0dde78","system_id":"levelo_inurba_marseille","lat":43.29778,"lon":5.42787,"is_reserved":false,"is_disabled":false,"rental_uris":{"android":"levelo://app?vid=69aa3890-8355-4668-9d7c-2b996f0dde78","ios":"levelo://app?vid=69aa3890-8355-4668-9d7c-2b996f0dde78"},"vehicle_type_id":"4","last_reported":1784470738,"current_range_meters":38400,"station_id":"st_d3md5207bmas73dh9klg","pricing_plan_id":"cebpf4jnsgd1na2vs0mg"},{"bike_id":"d183c213-4177-4bf2-b9e0-24872be8a9c8","system_id":"levelo_inurba_marseille","lat":43.2848,"lon":5.48388,"is_reserved":false,"is_disabled":false,"rental_uris":{"android":"levelo://app?vid=d183c213-4177-4bf2-b9e0-24872be8a9c8","ios":"levelo://app?vid=d183c213-4177-4bf2-b9e0-24872be8a9c8"},"vehicle_type_id":"4","last_reported":1784470738,"current_range_meters":14000,"station_id":"st_d3svhcjqgbts73a3dn0g","pricing_plan_id":"cebpf4jnsgd1na2vs0mg"},{"bike_id":"f90ed45b-f166-4362-87cb-12768c2dae00","system_id":"levelo_inurba_marseille","lat":43.27593,"lon":5.3615,"is_reserved":false,"is_disabled":false,"rental_uris":{"android":"levelo://app?vid=f90ed45b-f166-4362-87cb-12768c2dae00","ios":"levelo://app?vid=f90ed45b-f166-4362-87cb-12768c2dae00"},"vehicle_type_id":"4","last_reported":1784470738,"current_range_meters":27200,"station_id":"ce4bgj92rcd13ifvqbe0","pricing_plan_id":"cebpf4jnsgd1na2vs0mg"},{"bike_id":"de007cee-b02a-488c-aba4-bbeef406c383","system_id":"levelo_inurba_marseille","lat":43.25505,"lon":5.40087,"is_reserved":false,"is_disabled":false,"rental_uris":{"android":"levelo://app?vid=de007cee-b02a-488c-aba4-bbeef406c383","ios":"levelo://app?vid=de007cee-b02a-488c-aba4-bbeef406c383"},"vehicle_type_id":"4","last_reported":1784470738,"current_range_meters":2800,"station_id":"","pricing_plan_id":"cebpf4jnsgd1na2vs0mg"},{"bike_id":"faa76770-d365-4673-b1a8-39345d686969","system_id":"levelo_inurba_marseille","lat":43.21746,"lon":5.34604,"is_reserved":false,"is_disabled":false,"rental_uris":{"android":"levelo://app?vid=faa76770-d365-4673-b1a8-39345d686969","ios":"levelo://app?vid=faa76770-d365-4673-b1a8-39345d686969"},"vehicle_type_id":"4","last_reported":1784470738,"current_range_meters":22800,"station_id":"st_cvj6r9ubvosntc0bgbag","pricing_plan_id":"cebpf4jnsgd1na2vs0mg"},{"bike_id":"5b140ca2-b769-446c-acb6-6062f258100b","system_id":"levelo_inurba_marseille","lat":43.2439,"lon":5.37051,"is_reserved":false,"is_disabled":true,"rental_uris":{"android":"levelo://app?vid=5b140ca2-b769-446c-acb6-6062f258100b","ios":"levelo://app?vid=5b140ca2-b769-446c-acb6-6062f258100b"},"vehicle_type_id":"4","last_reported":1784470738,"current_range_meters":0,"station_id":"ce4bhhh2rcd13ifvqfk0","pricing_plan_id":"cebpf4jnsgd1na2vs0mg"},{"bike_id":"17e4be99-494c-4c9f-8720-fc080f3b6be4","system_id":"levelo_inurba_marseille","lat":43.2986,"lon":5.37567,"is_reserved":false,"is_disabled":false,"rental_uris":{"android":"levelo://app?vid=17e4be99-494c-4c9f-8720-fc080f3b6be4","ios":"levelo://app?vid=17e4be99-494c-4c9f-8720-fc080f3b6be4"},"vehicle_type_id":"4","last_reported":1784470738,"current_range_meters":3600,"station_id":"","pricing_plan_id":"cebpf4jnsgd1na2vs0mg"},{"bike_id":"2360e7da-0fd7-4b6c-bec7-a31db8c43509","system_id":"levelo_inurba_marseille","lat":43.2512,"lon":5.40323,"is_reserved":false,"is_disabled":false,"rental_uris":{"android":"levelo://app?vid=2360e7da-0fd7-4b6c-bec7-a31db8c43509","ios":"levelo://app?vid=2360e7da-0fd7-4b6c-bec7-a31db8c43509"},"vehicle_type_id":"4","last_reported":1784470738,"current_range_meters":40000,"station_id":"ce4bhlh2rcd13ifvqgig","pricing_plan_id":"cebpf4jnsgd1na2vs0mg"},{"bike_id":"f6254e25-8b35-43bb-b15f-8f04815c6d08","system_id":"levelo_inurba_marseille","lat":43.28862,"lon":5.35841,"is_reserved":false,"is_disabled":false,"rental_uris":{"android":"levelo://app?vid=f6254e25-8b35-43bb-b15f-8f04815c6d08","ios":"levelo://app?vid=f6254e25-8b35-43bb-b15f-8f04815c6d08"},"vehicle_type_id":"4","last_reported":1784470738,"current_range_meters":8000,"station_id":"ce4bhb12rcd13ifvqem0","pricing_plan_id":"cebpf4jnsgd1na2vs0mg"},{"bike_id":"427e3030-b092-4e35-96c1-fc349e74e6b4","system_id":"levelo_inurba_marseille","lat":43.3089,"lon":5.37191,"is_reserved":false,"is_disabled":false,"rental_uris":{"android":"levelo://app?vid=427e3030-b092-4e35-96c1-fc349e74e6b4","ios":"levelo://app?vid=427e3030-b092-4e35-96c1-fc349e74e6b4"},"vehicle_type_id":"4","last_reported":1784470738,"current_range_meters":22000,"station_id":"ce4bguh2rcd13ifvqckg","pricing_plan_id":"cebpf4jnsgd1na2vs0mg"},{"bike_id":"45230f89-3bc2-419d-bb18-e12e80346d71","system_id":"levelo_inurba_marseille","lat":43.30544,"lon":5.36569,"is_reserved":false,"is_disabled":false,"rental_uris":{"android":"levelo://app?vid=45230f89-3bc2-419d-bb18-e12e80346d71","ios":"levelo://app?vid=45230f89-3bc2-419d-bb18-e12e80346d71"},"vehicle_type_id":"4","last_reported":1784470738,"current_range_meters":10800,"station_id":"ce4bgs12rcd13ifvqcag","pricing_plan_id":"cebpf4jnsgd1na2vs0mg"},{"bike_id":"787d00bc-83f6-4de6-a3ba-e71db7a7b4ca","system_id":"levelo_inurba_marseille","lat":43.28941,"lon":5.36636,"is_reserved":false,"is_disabled":false,"rental_uris":{"android":"levelo://app?vid=787d00bc-83f6-4de6-a3ba-e71db7a7b4ca","ios":"levelo://app?vid=787d00bc-83f6-4de6-a3ba-e71db7a7b4ca"},"vehicle_type_id":"4","last_reported":1784470738,"current_range_meters":9200,"station_id":"ce4bhap2rcd13ifvqek0","pricing_plan_id":"cebpf4jnsgd1na2vs0mg"},{"bike_id":"92f9377a-62ba-495b-8de9-1750140cdb94","system_id":"levelo_inurba_marseille","lat":43.29628,"lon":5.37146,"is_reserved":false,"is_disabled":true,"rental_uris":{"android":"levelo://app?vid=92f9377a-62ba-495b-8de9-1750140cdb94","ios":"levelo://app?vid=92f9377a-62ba-495b-8de9-1750140cdb94"},"vehicle_type_id":"4","last_reported":1784470738,"current_range_meters":27200,"station_id":"","pricing_plan_id":"cebpf4jnsgd1na2vs0mg"},{"bike_id":"0f837419-d525-47df-b2ab-06c7b7a92041","system_id":"levelo_inurba_marseille","lat":43.30542,"lon":5.3671,"is_reserved":false,"is_disabled":false,"rental_uris":{"android":"levelo://app?vid=0f837419-d525-47df-b2ab-06c7b7a92041","ios":"levelo://app?vid=0f837419-d525-47df-b2ab-06c7b7a92041"},"vehicle_type_id":"4","last_reported":1784470738,"current_range_meters":4400,"station_id":"ce4bgrp2rcd13ifvqc9g","pricing_plan_id":"cebpf4jnsgd1na2vs0mg"},{"bike_id":"7ea1ded3-f995-4c90-b149-2ccadc33248d","system_id":"levelo_inurba_marseille","lat":43.27192,"lon":5.40995,"is_reserved":false,"is_disabled":false,"rental_uris":{"android":"levelo://app?vid=7ea1ded3-f995-4c90-b149-2ccadc33248d","ios":"levelo://app?vid=7ea1ded3-f995-4c90-b149-2ccadc33248d"},"vehicle_type_id":"4","last_reported":1784470738,"current_range_meters":28800,"station_id":"ce4bhl12rcd13ifvqgf0","pricing_plan_id":"cebpf4jnsgd1na2vs0mg"},{"bike_id":"2d188c4e-a3df-4e4e-a646-744514a14dbc","system_id":"levelo_inurba_marseille","lat":43.30215,"lon":5.39462,"is_reserved":false,"is_disabled":true,"rental_uris":{"android":"levelo://app?vid=2d188c4e-a3df-4e4e-a646-744514a14dbc","ios":"levelo://app?vid=2d188c4e-a3df-4e4e-a646-744514a14dbc"},"vehicle_type_id":"4","last_reported":1784470738,"current_range_meters":0,"station_id":"ce4bh0p2rcd13ifvqd70","pricing_plan_id":"cebpf4jnsgd1na2vs0mg"},{"bike_id":"db9c468b-40a8-485f-af95-e2e6c5947f21","system_id":"levelo_inurba_marseille","lat":43.23061,"lon":5.35505,"is_reserved":false,"is_disabled":false,"rental_uris":{"android":"levelo://app?vid=db9c468b-40a8-485f-af95-e2e6c5947f21","ios":"levelo://app?vid=db9c468b-40a8-485f-af95-e2e6c5947f21"},"vehicle_type_id":"4","last_reported":1784470738,"current_range_meters":25600,"station_id":"cpo3342slgdg3j2ifvpg","pricing_plan_id":"cebpf4jnsgd1na2vs0mg"},{"bike_id":"c2e7fe27-d2b0-440e-b62d-ead50feed951","system_id":"levelo_inurba_marseille","lat":43.29488,"lon":5.43312,"is_reserved":false,"is_disabled":false,"rental_uris":{"android":"levelo://app?vid=c2e7fe27-d2b0-440e-b62d-ead50feed951","ios":"levelo://app?vid=c2e7fe27-d2b0-440e-b62d-ead50feed951"},"vehicle_type_id":"4","last_reported":1784470738,"current_range_meters":3600,"station_id":"st_d3j5ugp08ojc73fj9d10","pricing_plan_id":"cebpf4jnsgd1na2vs0mg"},{"bike_id":"68487660-d0f8-4357-a041-ea23c3836a53","system_id":"levelo_inurba_marseille","lat":43.26196,"lon":5.3745,"is_reserved":false,"is_disabled":false,"rental_uris":{"android":"levelo://app?vid=68487660-d0f8-4357-a041-ea23c3836a53","ios":"levelo://app?vid=68487660-d0f8-4357-a041-ea23c3836a53"},"vehicle_type_id":"4","last_reported":1784470738,"current_range_meters":36800,"station_id":"ce4bhgp2rcd13ifvqfc0","pricing_plan_id":"cebpf4jnsgd1na2vs0mg"},{"bike_id":"370017f3-4502-4a5f-8a09-0609addfedbc","system_id":"levelo_inurba_marseille","lat":43.28278,"lon":5.35066,"is_reserved":false,"is_disabled":false,"rental_uris":{"android":"levelo://app?vid=370017f3-4502-4a5f-8a09-0609addfedbc","ios":"levelo://app?vid=370017f3-4502-4a5f-8a09-0609addfedbc"},"vehicle_type_id":"4","last_reported":1784470738,"current_range_meters":16000,"station_id":"ce4bhbp2rcd13ifvqerg","pricing_plan_id":"cebpf4jnsgd1na2vs0mg"},{"bike_id":"2623e023-e953-40ac-8068-15d2169ca99d","system_id":"levelo_inurba_marseille","lat":43.287,"lon":5.46677,"is_reserved":false,"is_disabled":false,"rental_uris":{"android":"levelo://app?vid=2623e023-e953-40ac-8068-15d2169ca99d","ios":"levelo://app?vid=2623e023-e953-40ac-8068-15d2169ca99d"},"vehicle_type_id":"4","last_reported":1784470738,"current_range_meters":38000,"station_id":"st_d6tc3vkotcvc738tfjhg","pricing_plan_id":"cebpf4jnsgd1na2vs0mg"},{"bike_id":"1fabaaec-ee49-484e-a010-c578e8dd69a9","system_id":"levelo_inurba_marseille","lat":43.31253,"lon":5.36872,"is_reserved":false,"is_disabled":false,"rental_uris":{"android":"levelo://app?vid=1fabaaec-ee49-484e-a010-c578e8dd69a9","ios":"levelo://app?vid=1fabaaec-ee49-484e-a010-c578e8dd69a9"},"vehicle_type_id":"4","last_reported":1784470738,"current_range_meters":9600,"station_id":"ce4bgl92rcd13ifvqbq0","pricing_plan_id":"cebpf4jnsgd1na2vs0mg"},{"bike_id":"b82b6211-05c8-4ba4-b46a-21ddb7ad321f","system_id":"levelo_inurba_marseille","lat":43.28076,"lon":5.39659,"is_reserved":false,"is_disabled":false,"rental_uris":{"android":"levelo://app?vid=b82b6211-05c8-4ba4-b46a-21ddb7ad321f","ios":"levelo://app?vid=b82b6211-05c8-4ba4-b46a-21ddb7ad321f"},"vehicle_type_id":"4","last_reported":1784470738,"current_range_meters":22800,"station_id":"ce4bho12rcd13ifvqh2g","pricing_plan_id":"cebpf4jnsgd1na2vs0mg"},{"bike_id":"90fd9e21-a9e5-4ba9-ba28-3da8875c3ef6","system_id":"levelo_inurba_marseille","lat":43.27881,"lon":5.35544,"is_reserved":false,"is_disabled":false,"rental_uris":{"android":"levelo://app?vid=90fd9e21-a9e5-4ba9-ba28-3da8875c3ef6","ios":"levelo://app?vid=90fd9e21-a9e5-4ba9-ba28-3da8875c3ef6"},"vehicle_type_id":"4","last_reported":1784470738,"current_range_meters":28000,"station_id":"","pricing_plan_id":"cebpf4jnsgd1na2vs0mg"},{"bike_id":"20b1fb0d-c2f0-4d89-8010-342bb96ac097","system_id":"levelo_inurba_marseille","lat":43.28273,"lon":5.35082,"is_reserved":false,"is_disabled":false,"rental_uris":{"android":"levelo://app?vid=20b1fb0d-c2f0-4d89-8010-342bb96ac097","ios":"levelo://app?vid=20b1fb0d-c2f0-4d89-8010-342bb96ac097"},"vehicle_type_id":"4","last_reported":1784470738,"current_range_meters":20400,"station_id":"ce4bhbp2rcd13ifvqerg","pricing_plan_id":"cebpf4jnsgd1na2vs0mg"},{"bike_id":"0596fa10-ae30-4785-bbd0-3b44150b1060","system_id":"levelo_inurba_marseille","lat":43.21755,"lon":5.34604,"is_reserved":false,"is_disabled":false,"rental_uris":{"android":"levelo://app?vid=0596fa10-ae30-4785-bbd0-3b44150b1060","ios":"levelo://app?vid=0596fa10-ae30-4785-bbd0-3b44150b1060"},"vehicle_type_id":"4","last_reported":1784470738,"current_range_meters":14400,"station_id":"st_cvj6r9ubvosntc0bgbag","pricing_plan_id":"cebpf4jnsgd1na2vs0mg"},{"bike_id":"f8955ac0-4fb0-43de-bef9-e6c33ea71dd3","system_id":"levelo_inurba_marseille","lat":43.28835,"lon":5.35842,"is_reserved":false,"is_disabled":false,"rental_uris":{"android":"levelo://app?vid=f8955ac0-4fb0-43de-bef9-e6c33ea71dd3","ios":"levelo://app?vid=f8955ac0-4fb0-43de-bef9-e6c33ea71dd3"},"vehicle_type_id":"4","last_reported":1784470738,"current_range_meters":27600,"station_id":"ce4bhb12rcd13ifvqem0","pricing_plan_id":"cebpf4jnsgd1na2vs0mg"},{"bike_id":"1aba4b2e-71a6-4e82-8e9d-0b35db6f35c2","system_id":"levelo_inurba_marseille","lat":43.24163,"lon":5.36411,"is_reserved":false,"is_disabled":false,"rental_uris":{"android":"levelo://app?vid=1aba4b2e-71a6-4e82-8e9d-0b35db6f35c2","ios":"levelo://app?vid=1aba4b2e-71a6-4e82-8e9d-0b35db6f35c2"},"vehicle_type_id":"4","last_reported":1784470738,"current_range_meters":39200,"station_id":"cpo36qri1sfpv3e86is0","pricing_plan_id":"cebpf4jnsgd1na2vs0mg"},{"bike_id":"863d0357-9100-4091-8be6-61d932e4e898","system_id":"levelo_inurba_marseille","lat":43.33756,"lon":5.37458,"is_reserved":false,"is_disabled":false,"rental_uris":{"android":"levelo://app?vid=863d0357-9100-4091-8be6-61d932e4e898","ios":"levelo://app?vid=863d0357-9100-4091-8be6-61d932e4e898"},"vehicle_type_id":"4","last_reported":1784470738,"current_range_meters":35600,"station_id":"","pricing_plan_id":"cebpf4jnsgd1na2vs0mg"},{"bike_id":"0d249168-c1b9-4fc1-a9ca-ee81dcabf286","system_id":"levelo_inurba_marseille","lat":43.30835,"lon":5.40423,"is_reserved":false,"is_disabled":false,"rental_uris":{"android":"levelo://app?vid=0d249168-c1b9-4fc1-a9ca-ee81dcabf286","ios":"levelo://app?vid=0d249168-c1b9-4fc1-a9ca-ee81dcabf286"},"vehicle_type_id":"4","last_reported":1784470738,"current_range_meters":9600,"station_id":"","pricing_plan_id":"cebpf4jnsgd1na2vs0mg"},{"bike_id":"c7fbfc9d-2a3e-4d5e-965d-909ab1f3650c","system_id":"levelo_inurba_marseille","lat":43.26565,"lon":5.39038,"is_reserved":false,"is_disabled":false,"rental_uris":{"android":"levelo://app?vid=c7fbfc9d-2a3e-4d5e-965d-909ab1f3650c","ios":"levelo://app?vid=c7fbfc9d-2a3e-4d5e-965d-909ab1f3650c"},"vehicle_type_id":"4","last_reported":1784470738,"current_range_meters":8000,"station_id":"ce4bhe12rcd13ifvqf30","pricing_plan_id":"cebpf4jnsgd1na2vs0mg"},{"bike_id":"479f6d73-289e-4a64-9a92-081a85c0df32","system_id":"levelo_inurba_marseille","lat":43.25107,"lon":5.40327,"is_reserved":false,"is_disabled":false,"rental_uris":{"android":"levelo://app?vid=479f6d73-289e-4a64-9a92-081a85c0df32","ios":"levelo://app?vid=479f6d73-289e-4a64-9a92-081a85c0df32"},"vehicle_type_id":"4","last_reported":1784470738,"current_range_meters":39200,"station_id":"ce4bhlh2rcd13ifvqgig","pricing_plan_id":"cebpf4jnsgd1na2vs0mg"},{"bike_id":"e81d39c5-de88-4670-b269-6cb2da305080","system_id":"levelo_inurba_marseille","lat":43.28146,"lon":5.42644,"is_reserved":false,"is_disabled":false,"rental_uris":{"android":"levelo://app?vid=e81d39c5-de88-4670-b269-6cb2da305080","ios":"levelo://app?vid=e81d39c5-de88-4670-b269-6cb2da305080"},"vehicle_type_id":"4","last_reported":1784470738,"current_range_meters":39200,"station_id":"ce4bhnh2rcd13ifvqgug","pricing_plan_id":"cebpf4jnsgd1na2vs0mg"},{"bike_id":"ba07a798-4c67-4313-b402-e91154e3ab4a","system_id":"levelo_inurba_marseille","lat":43.24814,"lon":5.37442,"is_reserved":false,"is_disabled":false,"rental_uris":{"android":"levelo://app?vid=ba07a798-4c67-4313-b402-e91154e3ab4a","ios":"levelo://app?vid=ba07a798-4c67-4313-b402-e91154e3ab4a"},"vehicle_type_id":"4","last_reported":1784470738,"current_range_meters":19600,"station_id":"ce4bhgh2rcd13ifvqfb0","pricing_plan_id":"cebpf4jnsgd1na2vs0mg"},{"bike_id":"8ba7f2d6-52d3-4c56-b19a-19a142e62779","system_id":"levelo_inurba_marseille","lat":43.24068,"lon":5.3776,"is_reserved":false,"is_disabled":false,"rental_uris":{"android":"levelo://app?vid=8ba7f2d6-52d3-4c56-b19a-19a142e62779","ios":"levelo://app?vid=8ba7f2d6-52d3-4c56-b19a-19a142e62779"},"vehicle_type_id":"4","last_reported":1784470738,"current_range_meters":9600,"station_id":"ce4bhnp2rcd13ifvqgvg","pricing_plan_id":"cebpf4jnsgd1na2vs0mg"},{"bike_id":"ffdafddb-edce-478b-b283-0a15f46a5cac","system_id":"levelo_inurba_marseille","lat":43.25872,"lon":5.39887,"is_reserved":false,"is_disabled":false,"rental_uris":{"android":"levelo://app?vid=ffdafddb-edce-478b-b283-0a15f46a5cac","ios":"levelo://app?vid=ffdafddb-edce-478b-b283-0a15f46a5cac"},"vehicle_type_id":"4","last_reported":1784470738,"current_range_meters":36400,"station_id":"ce4bhl92rcd13ifvqghg","pricing_plan_id":"cebpf4jnsgd1na2vs0mg"},{"bike_id":"89cff262-c5e9-4593-893a-092328a93f9f","system_id":"levelo_inurba_marseille","lat":43.29453,"lon":5.398,"is_reserved":false,"is_disabled":false,"rental_uris":{"android":"levelo://app?vid=89cff262-c5e9-4593-893a-092328a93f9f","ios":"levelo://app?vid=89cff262-c5e9-4593-893a-092328a93f9f"},"vehicle_type_id":"4","last_reported":1784470738,"current_range_meters":20800,"station_id":"ce4bh3h2rcd13ifvqdo0","pricing_plan_id":"cebpf4jnsgd1na2vs0mg"},{"bike_id":"bde78a4d-39ea-4cb6-9d46-82e419dd2bd6","system_id":"levelo_inurba_marseille","lat":43.26551,"lon":5.37305,"is_reserved":false,"is_disabled":false,"rental_uris":{"android":"levelo://app?vid=bde78a4d-39ea-4cb6-9d46-82e419dd2bd6","ios":"levelo://app?vid=bde78a4d-39ea-4cb6-9d46-82e419dd2bd6"},"vehicle_type_id":"4","last_reported":1784470738,"current_range_meters":24800,"station_id":"ce4bhg12rcd13ifvqf70","pricing_plan_id":"cebpf4jnsgd1na2vs0mg"},{"bike_id":"6a73d93c-6339-46f5-8ebc-d03b3464630c","system_id":"levelo_inurba_marseille","lat":43.2637,"lon":5.41066,"is_reserved":false,"is_disabled":false,"rental_uris":{"android":"levelo://app?vid=6a73d93c-6339-46f5-8ebc-d03b3464630c","ios":"levelo://app?vid=6a73d93c-6339-46f5-8ebc-d03b3464630c"},"vehicle_type_id":"4","last_reported":1784470738,"current_range_meters":32000,"station_id":"st_d4e5ca6na9uc73bfl5fg","pricing_plan_id":"cebpf4jnsgd1na2vs0mg"},{"bike_id":"edc8c877-03ca-4d22-a963-8aec0501358e","system_id":"levelo_inurba_marseille","lat":43.21727,"lon":5.34624,"is_reserved":false,"is_disabled":false,"rental_uris":{"android":"levelo://app?vid=edc8c877-03ca-4d22-a963-8aec0501358e","ios":"levelo://app?vid=edc8c877-03ca-4d22-a963-8aec0501358e"},"vehicle_type_id":"4","last_reported":1784470738,"current_range_meters":39200,"station_id":"st_cvj6r9ubvosntc0bgbag","pricing_plan_id":"cebpf4jnsgd1na2vs0mg"},{"bike_id":"f68023ce-5f61-45e8-beb8-d3b87ec1a04a","system_id":"levelo_inurba_marseille","lat":43.279995,"lon":5.40013,"is_reserved":false,"is_disabled":true,"rental_uris":{"android":"levelo://app?vid=f68023ce-5f61-45e8-beb8-d3b87ec1a04a","ios":"levelo://app?vid=f68023ce-5f61-45e8-beb8-d3b87ec1a04a"},"vehicle_type_id":"4","last_reported":1784470738,"current_range_meters":34800,"station_id":"ce4bho92rcd13ifvqh4g","pricing_plan_id":"cebpf4jnsgd1na2vs0mg"},{"bike_id":"505c470b-ac37-49d3-b636-d6566f7a1192","system_id":"levelo_inurba_marseille","lat":43.24813,"lon":5.3745,"is_reserved":false,"is_disabled":false,"rental_uris":{"android":"levelo://app?vid=505c470b-ac37-49d3-b636-d6566f7a1192","ios":"levelo://app?vid=505c470b-ac37-49d3-b636-d6566f7a1192"},"vehicle_type_id":"4","last_reported":1784470738,"current_range_meters":28000,"station_id":"ce4bhgh2rcd13ifvqfb0","pricing_plan_id":"cebpf4jnsgd1na2vs0mg"},{"bike_id":"cefbabb6-7320-4e76-8a82-572c441ce5d6","system_id":"levelo_inurba_marseille","lat":43.29007,"lon":5.35629,"is_reserved":false,"is_disabled":false,"rental_uris":{"android":"levelo://app?vid=cefbabb6-7320-4e76-8a82-572c441ce5d6","ios":"levelo://app?vid=cefbabb6-7320-4e76-8a82-572c441ce5d6"},"vehicle_type_id":"4","last_reported":1784470738,"current_range_meters":36800,"station_id":"ce4bhb92rcd13ifvqen0","pricing_plan_id":"cebpf4jnsgd1na2vs0mg"},{"bike_id":"3ca8e552-bcf9-4c72-bda5-adc146bba89e","system_id":"levelo_inurba_marseille","lat":43.2828,"lon":5.35049,"is_reserved":false,"is_disabled":false,"rental_uris":{"android":"levelo://app?vid=3ca8e552-bcf9-4c72-bda5-adc146bba89e","ios":"levelo://app?vid=3ca8e552-bcf9-4c72-bda5-adc146bba89e"},"vehicle_type_id":"4","last_reported":1784470738,"current_range_meters":12800,"station_id":"ce4bhbp2rcd13ifvqerg","pricing_plan_id":"cebpf4jnsgd1na2vs0mg"},{"bike_id":"ca64845e-18c6-462d-bd1b-9645706947c2","system_id":"levelo_inurba_marseille","lat":43.25011,"lon":5.38938,"is_reserved":false,"is_disabled":false,"rental_uris":{"android":"levelo://app?vid=ca64845e-18c6-462d-bd1b-9645706947c2","ios":"levelo://app?vid=ca64845e-18c6-462d-bd1b-9645706947c2"},"vehicle_type_id":"4","last_reported":1784470738,"current_range_meters":20800,"station_id":"ce4bhgp2rcd13ifvqfd0","pricing_plan_id":"cebpf4jnsgd1na2vs0mg"},{"bike_id":"4120c7d7-1403-4d50-96ed-9b7731a97efc","system_id":"levelo_inurba_marseille","lat":43.32116,"lon":5.3677,"is_reserved":false,"is_disabled":false,"rental_uris":{"android":"levelo://app?vid=4120c7d7-1403-4d50-96ed-9b7731a97efc","ios":"levelo://app?vid=4120c7d7-1403-4d50-96ed-9b7731a97efc"},"vehicle_type_id":"4","last_reported":1784470738,"current_range_meters":24400,"station_id":"ce4bhrh2rcd13ifvqhug","pricing_plan_id":"cebpf4jnsgd1na2vs0mg"},{"bike_id":"5880de66-90ea-4fe0-8180-726fca845ec7","system_id":"levelo_inurba_marseille","lat":43.22937,"lon":5.35386,"is_reserved":false,"is_disabled":false,"rental_uris":{"android":"levelo://app?vid=5880de66-90ea-4fe0-8180-726fca845ec7","ios":"levelo://app?vid=5880de66-90ea-4fe0-8180-726fca845ec7"},"vehicle_type_id":"4","last_reported":1784470738,"current_range_meters":19200,"station_id":"cpo3532slgdg3j2ikp40","pricing_plan_id":"cebpf4jnsgd1na2vs0mg"},{"bike_id":"9f9b38e4-b113-4500-8f99-fc753adb0647","system_id":"levelo_inurba_marseille","lat":43.30544,"lon":5.36567,"is_reserved":false,"is_disabled":false,"rental_uris":{"android":"levelo://app?vid=9f9b38e4-b113-4500-8f99-fc753adb0647","ios":"levelo://app?vid=9f9b38e4-b113-4500-8f99-fc753adb0647"},"vehicle_type_id":"4","last_reported":1784470738,"current_range_meters":21600,"station_id":"ce4bgs12rcd13ifvqcag","pricing_plan_id":"cebpf4jnsgd1na2vs0mg"},{"bike_id":"369bc3f2-b577-4850-95a4-0a56227bff1c","system_id":"levelo_inurba_marseille","lat":43.3014,"lon":5.39861,"is_reserved":false,"is_disabled":false,"rental_uris":{"android":"levelo://app?vid=369bc3f2-b577-4850-95a4-0a56227bff1c","ios":"levelo://app?vid=369bc3f2-b577-4850-95a4-0a56227bff1c"},"vehicle_type_id":"4","last_reported":1784470738,"current_range_meters":38000,"station_id":"ce4bh0h2rcd13ifvqd40","pricing_plan_id":"cebpf4jnsgd1na2vs0mg"},{"bike_id":"7e62a1e7-e43e-4c6d-97fe-eb42228edf6d","system_id":"levelo_inurba_marseille","lat":43.26545,"lon":5.39379,"is_reserved":false,"is_disabled":false,"rental_uris":{"android":"levelo://app?vid=7e62a1e7-e43e-4c6d-97fe-eb42228edf6d","ios":"levelo://app?vid=7e62a1e7-e43e-4c6d-97fe-eb42228edf6d"},"vehicle_type_id":"4","last_reported":1784470738,"current_range_meters":8000,"station_id":"","pricing_plan_id":"cebpf4jnsgd1na2vs0mg"},{"bike_id":"5496493b-3cdb-4bc5-8edf-06e3f0624b4f","system_id":"levelo_inurba_marseille","lat":43.27677,"lon":5.38879,"is_reserved":false,"is_disabled":false,"rental_uris":{"android":"levelo://app?vid=5496493b-3cdb-4bc5-8edf-06e3f0624b4f","ios":"levelo://app?vid=5496493b-3cdb-4bc5-8edf-06e3f0624b4f"},"vehicle_type_id":"4","last_reported":1784470738,"current_range_meters":37600,"station_id":"ce4bhi12rcd13ifvqfo0","pricing_plan_id":"cebpf4jnsgd1na2vs0mg"},{"bike_id":"32f1426e-4a2e-46e1-8b91-800ee9257883","system_id":"levelo_inurba_marseille","lat":43.26373,"lon":5.41094,"is_reserved":false,"is_disabled":false,"rental_uris":{"android":"levelo://app?vid=32f1426e-4a2e-46e1-8b91-800ee9257883","ios":"levelo://app?vid=32f1426e-4a2e-46e1-8b91-800ee9257883"},"vehicle_type_id":"4","last_reported":1784470738,"current_range_meters":31200,"station_id":"st_d4e5ca6na9uc73bfl5fg","pricing_plan_id":"cebpf4jnsgd1na2vs0mg"},{"bike_id":"7f598db7-7bdf-43ca-940a-3e1072b1241f","system_id":"levelo_inurba_marseille","lat":43.29227,"lon":5.36074,"is_reserved":false,"is_disabled":false,"rental_uris":{"android":"levelo://app?vid=7f598db7-7bdf-43ca-940a-3e1072b1241f","ios":"levelo://app?vid=7f598db7-7bdf-43ca-940a-3e1072b1241f"},"vehicle_type_id":"4","last_reported":1784470738,"current_range_meters":30400,"station_id":"","pricing_plan_id":"cebpf4jnsgd1na2vs0mg"},{"bike_id":"48b89ee5-e923-4e38-99f5-a3099d9d1497","system_id":"levelo_inurba_marseille","lat":43.28528,"lon":5.44113,"is_reserved":false,"is_disabled":false,"rental_uris":{"android":"levelo://app?vid=48b89ee5-e923-4e38-99f5-a3099d9d1497","ios":"levelo://app?vid=48b89ee5-e923-4e38-99f5-a3099d9d1497"},"vehicle_type_id":"4","last_reported":1784470738,"current_range_meters":4000,"station_id":"st_d3j3df2ikq2c7380ej80","pricing_plan_id":"cebpf4jnsgd1na2vs0mg"},{"bike_id":"3e516dae-3bc6-43cf-be8e-7513eb0189e1","system_id":"levelo_inurba_marseille","lat":43.255,"lon":5.37646,"is_reserved":false,"is_disabled":false,"rental_uris":{"android":"levelo://app?vid=3e516dae-3bc6-43cf-be8e-7513eb0189e1","ios":"levelo://app?vid=3e516dae-3bc6-43cf-be8e-7513eb0189e1"},"vehicle_type_id":"4","last_reported":1784470738,"current_range_meters":39200,"station_id":"ce4bhh12rcd13ifvqff0","pricing_plan_id":"cebpf4jnsgd1na2vs0mg"},{"bike_id":"24cd3240-e518-4e87-93f2-0d78c0915c9d","system_id":"levelo_inurba_marseille","lat":43.23059,"lon":5.35496,"is_reserved":false,"is_disabled":false,"rental_uris":{"android":"levelo://app?vid=24cd3240-e518-4e87-93f2-0d78c0915c9d","ios":"levelo://app?vid=24cd3240-e518-4e87-93f2-0d78c0915c9d"},"vehicle_type_id":"4","last_reported":1784470738,"current_range_meters":15200,"station_id":"cpo3342slgdg3j2ifvpg","pricing_plan_id":"cebpf4jnsgd1na2vs0mg"},{"bike_id":"81587832-75ed-49cd-91c3-f57f9b8cec45","system_id":"levelo_inurba_marseille","lat":43.29016,"lon":5.35938,"is_reserved":false,"is_disabled":true,"rental_uris":{"android":"levelo://app?vid=81587832-75ed-49cd-91c3-f57f9b8cec45","ios":"levelo://app?vid=81587832-75ed-49cd-91c3-f57f9b8cec45"},"vehicle_type_id":"4","last_reported":1784470738,"current_range_meters":39200,"station_id":"ce4bha92rcd13ifvqeg0","pricing_plan_id":"cebpf4jnsgd1na2vs0mg"},{"bike_id":"7dcd8242-1227-4b0a-be5f-ea8497f155e0","system_id":"levelo_inurba_marseille","lat":43.26203,"lon":5.37928,"is_reserved":false,"is_disabled":false,"rental_uris":{"android":"levelo://app?vid=7dcd8242-1227-4b0a-be5f-ea8497f155e0","ios":"levelo://app?vid=7dcd8242-1227-4b0a-be5f-ea8497f155e0"},"vehicle_type_id":"4","last_reported":1784470738,"current_range_meters":18800,"station_id":"ce4bhjp2rcd13ifvqg90","pricing_plan_id":"cebpf4jnsgd1na2vs0mg"},{"bike_id":"d3eb53bc-2e3d-491b-b384-a019f6e261e8","system_id":"levelo_inurba_marseille","lat":43.2919,"lon":5.35808,"is_reserved":false,"is_disabled":false,"rental_uris":{"android":"levelo://app?vid=d3eb53bc-2e3d-491b-b384-a019f6e261e8","ios":"levelo://app?vid=d3eb53bc-2e3d-491b-b384-a019f6e261e8"},"vehicle_type_id":"4","last_reported":1784470738,"current_range_meters":18000,"station_id":"ce4bhb12rcd13ifvqel0","pricing_plan_id":"cebpf4jnsgd1na2vs0mg"},{"bike_id":"f3934305-9637-4bc9-84df-610e5ca478ee","system_id":"levelo_inurba_marseille","lat":43.28727,"lon":5.38407,"is_reserved":false,"is_disabled":false,"rental_uris":{"android":"levelo://app?vid=f3934305-9637-4bc9-84df-610e5ca478ee","ios":"levelo://app?vid=f3934305-9637-4bc9-84df-610e5ca478ee"},"vehicle_type_id":"4","last_reported":1784470738,"current_range_meters":24000,"station_id":"","pricing_plan_id":"cebpf4jnsgd1na2vs0mg"},{"bike_id":"ef85100c-c168-423a-855b-1fd0fc13c88a","system_id":"levelo_inurba_marseille","lat":43.2375,"lon":5.37798,"is_reserved":false,"is_disabled":false,"rental_uris":{"android":"levelo://app?vid=ef85100c-c168-423a-855b-1fd0fc13c88a","ios":"levelo://app?vid=ef85100c-c168-423a-855b-1fd0fc13c88a"},"vehicle_type_id":"4","last_reported":1784470738,"current_range_meters":28400,"station_id":"","pricing_plan_id":"cebpf4jnsgd1na2vs0mg"},{"bike_id":"3a0d4a93-cd14-4253-907e-beacdb1fa887","system_id":"levelo_inurba_marseille","lat":43.27619,"lon":5.35851,"is_reserved":false,"is_disabled":false,"rental_uris":{"android":"levelo://app?vid=3a0d4a93-cd14-4253-907e-beacdb1fa887","ios":"levelo://app?vid=3a0d4a93-cd14-4253-907e-beacdb1fa887"},"vehicle_type_id":"4","last_reported":1784470738,"current_range_meters":17600,"station_id":"","pricing_plan_id":"cebpf4jnsgd1na2vs0mg"},{"bike_id":"8af0df7e-cc30-46ec-af42-8ca23109e3a3","system_id":"levelo_inurba_marseille","lat":43.29487,"lon":5.43306,"is_reserved":false,"is_disabled":false,"rental_uris":{"android":"levelo://app?vid=8af0df7e-cc30-46ec-af42-8ca23109e3a3","ios":"levelo://app?vid=8af0df7e-cc30-46ec-af42-8ca23109e3a3"},"vehicle_type_id":"4","last_reported":1784470738,"current_range_meters":27600,"station_id":"st_d3j5ugp08ojc73fj9d10","pricing_plan_id":"cebpf4jnsgd1na2vs0mg"},{"bike_id":"e0b96ede-7743-41d8-824b-0110d15513b3","system_id":"levelo_inurba_marseille","lat":43.29228,"lon":5.3609,"is_reserved":false,"is_disabled":false,"rental_uris":{"android":"levelo://app?vid=e0b96ede-7743-41d8-824b-0110d15513b3","ios":"levelo://app?vid=e0b96ede-7743-41d8-824b-0110d15513b3"},"vehicle_type_id":"4","last_reported":1784470738,"current_range_meters":20400,"station_id":"","pricing_plan_id":"cebpf4jnsgd1na2vs0mg"},{"bike_id":"52220134-2e65-4994-ab54-da9f32706096","system_id":"levelo_inurba_marseille","lat":43.2509,"lon":5.39521,"is_reserved":false,"is_disabled":false,"rental_uris":{"android":"levelo://app?vid=52220134-2e65-4994-ab54-da9f32706096","ios":"levelo://app?vid=52220134-2e65-4994-ab54-da9f32706096"},"vehicle_type_id":"4","last_reported":1784470738,"current_range_meters":23200,"station_id":"ce4bhm12rcd13ifvqgkg","pricing_plan_id":"cebpf4jnsgd1na2vs0mg"},{"bike_id":"a396063a-bcec-4a86-b8ea-f67372d97eca","system_id":"levelo_inurba_marseille","lat":43.29583,"lon":5.36723,"is_reserved":false,"is_disabled":false,"rental_uris":{"android":"levelo://app?vid=a396063a-bcec-4a86-b8ea-f67372d97eca","ios":"levelo://app?vid=a396063a-bcec-4a86-b8ea-f67372d97eca"},"vehicle_type_id":"4","last_reported":1784470738,"current_range_meters":24800,"station_id":"","pricing_plan_id":"cebpf4jnsgd1na2vs0mg"},{"bike_id":"3d8cbe1d-6667-4b8b-8481-ba19f433bbb5","system_id":"levelo_inurba_marseille","lat":43.26501,"lon":5.3952,"is_reserved":false,"is_disabled":false,"rental_uris":{"android":"levelo://app?vid=3d8cbe1d-6667-4b8b-8481-ba19f433bbb5","ios":"levelo://app?vid=3d8cbe1d-6667-4b8b-8481-ba19f433bbb5"},"vehicle_type_id":"4","last_reported":1784470738,"current_range_meters":6000,"station_id":"ce4bhi12rcd13ifvqfq0","pricing_plan_id":"cebpf4jnsgd1na2vs0mg"},{"bike_id":"7ff8118f-6c81-4cdf-8a1d-4753d954065d","system_id":"levelo_inurba_marseille","lat":43.29582,"lon":5.37964,"is_reserved":false,"is_disabled":false,"rental_uris":{"android":"levelo://app?vid=7ff8118f-6c81-4cdf-8a1d-4753d954065d","ios":"levelo://app?vid=7ff8118f-6c81-4cdf-8a1d-4753d954065d"},"vehicle_type_id":"4","last_reported":1784470738,"current_range_meters":2800,"station_id":"","pricing_plan_id":"cebpf4jnsgd1na2vs0mg"},{"bike_id":"002f0f77-2509-42be-9859-c934948b6004","system_id":"levelo_inurba_marseille","lat":43.32349,"lon":5.36743,"is_reserved":false,"is_disabled":false,"rental_uris":{"android":"levelo://app?vid=002f0f77-2509-42be-9859-c934948b6004","ios":"levelo://app?vid=002f0f77-2509-42be-9859-c934948b6004"},"vehicle_type_id":"4","last_reported":1784470738,"current_range_meters":11600,"station_id":"ce4bhsh2rcd13ifvqi2g","pricing_plan_id":"cebpf4jnsgd1na2vs0mg"},{"bike_id":"092620de-3229-49c7-bf01-0e2c75aae87c","system_id":"levelo_inurba_marseille","lat":43.290307,"lon":5.359146,"is_reserved":false,"is_disabled":false,"rental_uris":{"android":"levelo://app?vid=092620de-3229-49c7-bf01-0e2c75aae87c","ios":"levelo://app?vid=092620de-3229-49c7-bf01-0e2c75aae87c"},"vehicle_type_id":"4","last_reported":1784470738,"current_range_meters":39200,"station_id":"ce4bha92rcd13ifvqeg0","pricing_plan_id":"cebpf4jnsgd1na2vs0mg"},{"bike_id":"856d3995-0ba9-43fb-ab35-ba0d246e5139","system_id":"levelo_inurba_marseille","lat":43.24165,"lon":5.36391,"is_reserved":false,"is_disabled":false,"rental_uris":{"android":"levelo://app?vid=856d3995-0ba9-43fb-ab35-ba0d246e5139","ios":"levelo://app?vid=856d3995-0ba9-43fb-ab35-ba0d246e5139"},"vehicle_type_id":"4","last_reported":1784470738,"current_range_meters":22400,"station_id":"cpo36qri1sfpv3e86is0","pricing_plan_id":"cebpf4jnsgd1na2vs0mg"},{"bike_id":"258c79c8-115b-43a8-9763-ee7a5585ee7a","system_id":"levelo_inurba_marseille","lat":43.23197,"lon":5.35547,"is_reserved":false,"is_disabled":false,"rental_uris":{"android":"levelo://app?vid=258c79c8-115b-43a8-9763-ee7a5585ee7a","ios":"levelo://app?vid=258c79c8-115b-43a8-9763-ee7a5585ee7a"},"vehicle_type_id":"4","last_reported":1784470738,"current_range_meters":34000,"station_id":"ce4bhu92rcd13ifvqi70","pricing_plan_id":"cebpf4jnsgd1na2vs0mg"},{"bike_id":"e8ba5a2e-0320-415a-b20a-64f5285376e3","system_id":"levelo_inurba_marseille","lat":43.31517,"lon":5.37277,"is_reserved":false,"is_disabled":false,"rental_uris":{"android":"levelo://app?vid=e8ba5a2e-0320-415a-b20a-64f5285376e3","ios":"levelo://app?vid=e8ba5a2e-0320-415a-b20a-64f5285376e3"},"vehicle_type_id":"4","last_reported":1784470738,"current_range_meters":39200,"station_id":"ce4bgt12rcd13ifvqcd0","pricing_plan_id":"cebpf4jnsgd1na2vs0mg"},{"bike_id":"71dbc3e0-0ab5-4118-84e4-0f3d8268030b","system_id":"levelo_inurba_marseille","lat":43.21748,"lon":5.34593,"is_reserved":false,"is_disabled":false,"rental_uris":{"android":"levelo://app?vid=71dbc3e0-0ab5-4118-84e4-0f3d8268030b","ios":"levelo://app?vid=71dbc3e0-0ab5-4118-84e4-0f3d8268030b"},"vehicle_type_id":"4","last_reported":1784470738,"current_range_meters":12400,"station_id":"st_cvj6r9ubvosntc0bgbag","pricing_plan_id":"cebpf4jnsgd1na2vs0mg"},{"bike_id":"874b8daf-fd28-4b0c-ad41-540b837e3d96","system_id":"levelo_inurba_marseille","lat":43.31722,"lon":5.37753,"is_reserved":false,"is_disabled":false,"rental_uris":{"android":"levelo://app?vid=874b8daf-fd28-4b0c-ad41-540b837e3d96","ios":"levelo://app?vid=874b8daf-fd28-4b0c-ad41-540b837e3d96"},"vehicle_type_id":"4","last_reported":1784470738,"current_range_meters":27600,"station_id":"ce4bgth2rcd13ifvqch0","pricing_plan_id":"cebpf4jnsgd1na2vs0mg"},{"bike_id":"a7c42e62-f2d7-4f0f-96f4-b9d2418cea29","system_id":"levelo_inurba_marseille","lat":43.29643,"lon":5.40579,"is_reserved":false,"is_disabled":true,"rental_uris":{"android":"levelo://app?vid=a7c42e62-f2d7-4f0f-96f4-b9d2418cea29","ios":"levelo://app?vid=a7c42e62-f2d7-4f0f-96f4-b9d2418cea29"},"vehicle_type_id":"4","last_reported":1784470738,"current_range_meters":16800,"station_id":"ce4bh0h2rcd13ifvqd60","pricing_plan_id":"cebpf4jnsgd1na2vs0mg"},{"bike_id":"6b28d726-da17-43d5-bcda-effbbb66d552","system_id":"levelo_inurba_marseille","lat":43.26218,"lon":5.4167,"is_reserved":false,"is_disabled":false,"rental_uris":{"android":"levelo://app?vid=6b28d726-da17-43d5-bcda-effbbb66d552","ios":"levelo://app?vid=6b28d726-da17-43d5-bcda-effbbb66d552"},"vehicle_type_id":"4","last_reported":1784470738,"current_range_meters":28400,"station_id":"","pricing_plan_id":"cebpf4jnsgd1na2vs0mg"},{"bike_id":"92714dcf-74f8-4e15-ae26-b140a8d6daf3","system_id":"levelo_inurba_marseille","lat":43.21753,"lon":5.34599,"is_reserved":false,"is_disabled":false,"rental_uris":{"android":"levelo://app?vid=92714dcf-74f8-4e15-ae26-b140a8d6daf3","ios":"levelo://app?vid=92714dcf-74f8-4e15-ae26-b140a8d6daf3"},"vehicle_type_id":"4","last_reported":1784470738,"current_range_meters":6000,"station_id":"st_cvj6r9ubvosntc0bgbag","pricing_plan_id":"cebpf4jnsgd1na2vs0mg"},{"bike_id":"4eca7258-56e3-4c6d-be1a-95a80fcd0b55","system_id":"levelo_inurba_marseille","lat":43.27616,"lon":5.36108,"is_reserved":false,"is_disabled":false,"rental_uris":{"android":"levelo://app?vid=4eca7258-56e3-4c6d-be1a-95a80fcd0b55","ios":"levelo://app?vid=4eca7258-56e3-4c6d-be1a-95a80fcd0b55"},"vehicle_type_id":"4","last_reported":1784470738,"current_range_meters":10800,"station_id":"ce4bgj92rcd13ifvqbe0","pricing_plan_id":"cebpf4jnsgd1na2vs0mg"},{"bike_id":"80aab92c-8bc2-4649-ab28-9669d10e174a","system_id":"levelo_inurba_marseille","lat":43.30439,"lon":5.3891,"is_reserved":false,"is_disabled":false,"rental_uris":{"android":"levelo://app?vid=80aab92c-8bc2-4649-ab28-9669d10e174a","ios":"levelo://app?vid=80aab92c-8bc2-4649-ab28-9669d10e174a"},"vehicle_type_id":"4","last_reported":1784470738,"current_range_meters":35600,"station_id":"ce4bgk12rcd13ifvqbi0","pricing_plan_id":"cebpf4jnsgd1na2vs0mg"},{"bike_id":"b4b931be-dc1b-418f-81ae-dfed9ea374e7","system_id":"levelo_inurba_marseille","lat":43.29075,"lon":5.37121,"is_reserved":false,"is_disabled":false,"rental_uris":{"android":"levelo://app?vid=b4b931be-dc1b-418f-81ae-dfed9ea374e7","ios":"levelo://app?vid=b4b931be-dc1b-418f-81ae-dfed9ea374e7"},"vehicle_type_id":"4","last_reported":1784470738,"current_range_meters":6800,"station_id":"ce4bh5p2rcd13ifvqe4g","pricing_plan_id":"cebpf4jnsgd1na2vs0mg"},{"bike_id":"f0f2e140-b589-424b-8bbd-e5e54db0c5ba","system_id":"levelo_inurba_marseille","lat":43.290444,"lon":5.359081,"is_reserved":false,"is_disabled":false,"rental_uris":{"android":"levelo://app?vid=f0f2e140-b589-424b-8bbd-e5e54db0c5ba","ios":"levelo://app?vid=f0f2e140-b589-424b-8bbd-e5e54db0c5ba"},"vehicle_type_id":"4","last_reported":1784470738,"current_range_meters":18000,"station_id":"ce4bha92rcd13ifvqeg0","pricing_plan_id":"cebpf4jnsgd1na2vs0mg"},{"bike_id":"0f6ff1da-c9e3-42e7-a8d3-8280d1c0addc","system_id":"levelo_inurba_marseille","lat":43.33718,"lon":5.37415,"is_reserved":false,"is_disabled":false,"rental_uris":{"android":"levelo://app?vid=0f6ff1da-c9e3-42e7-a8d3-8280d1c0addc","ios":"levelo://app?vid=0f6ff1da-c9e3-42e7-a8d3-8280d1c0addc"},"vehicle_type_id":"4","last_reported":1784470738,"current_range_meters":28000,"station_id":"","pricing_plan_id":"cebpf4jnsgd1na2vs0mg"},{"bike_id":"1e628dec-3141-48e0-b510-1c285ab03f4c","system_id":"levelo_inurba_marseille","lat":43.26416,"lon":5.41065,"is_reserved":false,"is_disabled":false,"rental_uris":{"android":"levelo://app?vid=1e628dec-3141-48e0-b510-1c285ab03f4c","ios":"levelo://app?vid=1e628dec-3141-48e0-b510-1c285ab03f4c"},"vehicle_type_id":"4","last_reported":1784470738,"current_range_meters":36400,"station_id":"","pricing_plan_id":"cebpf4jnsgd1na2vs0mg"},{"bike_id":"8337f5b4-2806-4bc0-9f71-af183adb5db8","system_id":"levelo_inurba_marseille","lat":43.23822,"lon":5.43512,"is_reserved":false,"is_disabled":false,"rental_uris":{"android":"levelo://app?vid=8337f5b4-2806-4bc0-9f71-af183adb5db8","ios":"levelo://app?vid=8337f5b4-2806-4bc0-9f71-af183adb5db8"},"vehicle_type_id":"4","last_reported":1784470738,"current_range_meters":4000,"station_id":"","pricing_plan_id":"cebpf4jnsgd1na2vs0mg"},{"bike_id":"0d69c6ad-1581-485b-8bcd-d541c4976ef8","system_id":"levelo_inurba_marseille","lat":43.3188,"lon":5.36831,"is_reserved":false,"is_disabled":false,"rental_uris":{"android":"levelo://app?vid=0d69c6ad-1581-485b-8bcd-d541c4976ef8","ios":"levelo://app?vid=0d69c6ad-1581-485b-8bcd-d541c4976ef8"},"vehicle_type_id":"4","last_reported":1784470738,"current_range_meters":8800,"station_id":"st_d6o2h0d0559c73evc1b0","pricing_plan_id":"cebpf4jnsgd1na2vs0mg"},{"bike_id":"2aa96627-2af3-4a12-af65-007616bd3d82","system_id":"levelo_inurba_marseille","lat":43.21748,"lon":5.34602,"is_reserved":false,"is_disabled":false,"rental_uris":{"android":"levelo://app?vid=2aa96627-2af3-4a12-af65-007616bd3d82","ios":"levelo://app?vid=2aa96627-2af3-4a12-af65-007616bd3d82"},"vehicle_type_id":"4","last_reported":1784470738,"current_range_meters":12000,"station_id":"st_cvj6r9ubvosntc0bgbag","pricing_plan_id":"cebpf4jnsgd1na2vs0mg"},{"bike_id":"ad193227-d210-4e9a-af26-3f25b41f58db","system_id":"levelo_inurba_marseille","lat":43.23912,"lon":5.37469,"is_reserved":false,"is_disabled":false,"rental_uris":{"android":"levelo://app?vid=ad193227-d210-4e9a-af26-3f25b41f58db","ios":"levelo://app?vid=ad193227-d210-4e9a-af26-3f25b41f58db"},"vehicle_type_id":"4","last_reported":1784470738,"current_range_meters":38000,"station_id":"st_d6sm7csbq4hs73f8fpjg","pricing_plan_id":"cebpf4jnsgd1na2vs0mg"},{"bike_id":"ee06a958-7f2b-4eb7-a6b1-2d3112db17a0","system_id":"levelo_inurba_marseille","lat":43.31124,"lon":5.37785,"is_reserved":false,"is_disabled":false,"rental_uris":{"android":"levelo://app?vid=ee06a958-7f2b-4eb7-a6b1-2d3112db17a0","ios":"levelo://app?vid=ee06a958-7f2b-4eb7-a6b1-2d3112db17a0"},"vehicle_type_id":"4","last_reported":1784470738,"current_range_meters":37600,"station_id":"ce4bgt92rcd13ifvqcg0","pricing_plan_id":"cebpf4jnsgd1na2vs0mg"},{"bike_id":"0d6773b1-c615-4f4c-97bb-571269f349e4","system_id":"levelo_inurba_marseille","lat":43.29199,"lon":5.39316,"is_reserved":false,"is_disabled":false,"rental_uris":{"android":"levelo://app?vid=0d6773b1-c615-4f4c-97bb-571269f349e4","ios":"levelo://app?vid=0d6773b1-c615-4f4c-97bb-571269f349e4"},"vehicle_type_id":"4","last_reported":1784470738,"current_range_meters":17200,"station_id":"ce4bh192rcd13ifvqdd0","pricing_plan_id":"cebpf4jnsgd1na2vs0mg"},{"bike_id":"cbd1af33-22af-4a36-b577-59adc5154703","system_id":"levelo_inurba_marseille","lat":43.25935,"lon":5.40908,"is_reserved":false,"is_disabled":false,"rental_uris":{"android":"levelo://app?vid=cbd1af33-22af-4a36-b577-59adc5154703","ios":"levelo://app?vid=cbd1af33-22af-4a36-b577-59adc5154703"},"vehicle_type_id":"4","last_reported":1784470738,"current_range_meters":17200,"station_id":"ce4bhm92rcd13ifvqglg","pricing_plan_id":"cebpf4jnsgd1na2vs0mg"},{"bike_id":"fbc2ea7e-7aa8-46c6-911e-98977f78f06c","system_id":"levelo_inurba_marseille","lat":43.26688,"lon":5.38268,"is_reserved":false,"is_disabled":false,"rental_uris":{"android":"levelo://app?vid=fbc2ea7e-7aa8-46c6-911e-98977f78f06c","ios":"levelo://app?vid=fbc2ea7e-7aa8-46c6-911e-98977f78f06c"},"vehicle_type_id":"4","last_reported":1784470738,"current_range_meters":38800,"station_id":"ce4bhg92rcd13ifvqf90","pricing_plan_id":"cebpf4jnsgd1na2vs0mg"},{"bike_id":"942148f9-90f2-4171-8f05-98ba0ca85bcb","system_id":"levelo_inurba_marseille","lat":43.28477,"lon":5.48398,"is_reserved":false,"is_disabled":false,"rental_uris":{"android":"levelo://app?vid=942148f9-90f2-4171-8f05-98ba0ca85bcb","ios":"levelo://app?vid=942148f9-90f2-4171-8f05-98ba0ca85bcb"},"vehicle_type_id":"4","last_reported":1784470738,"current_range_meters":37600,"station_id":"st_d3svhcjqgbts73a3dn0g","pricing_plan_id":"cebpf4jnsgd1na2vs0mg"},{"bike_id":"97d120bb-ef10-49a9-98fd-ea2eae127c57","system_id":"levelo_inurba_marseille","lat":43.23181,"lon":5.39985,"is_reserved":false,"is_disabled":false,"rental_uris":{"android":"levelo://app?vid=97d120bb-ef10-49a9-98fd-ea2eae127c57","ios":"levelo://app?vid=97d120bb-ef10-49a9-98fd-ea2eae127c57"},"vehicle_type_id":"4","last_reported":1784470738,"current_range_meters":39200,"station_id":"ce4bhn12rcd13ifvqgqg","pricing_plan_id":"cebpf4jnsgd1na2vs0mg"},{"bike_id":"9fc6575b-81e7-4fbd-8017-de2e5333d1bf","system_id":"levelo_inurba_marseille","lat":43.26848,"lon":5.39365,"is_reserved":false,"is_disabled":false,"rental_uris":{"android":"levelo://app?vid=9fc6575b-81e7-4fbd-8017-de2e5333d1bf","ios":"levelo://app?vid=9fc6575b-81e7-4fbd-8017-de2e5333d1bf"},"vehicle_type_id":"4","last_reported":1784470738,"current_range_meters":19600,"station_id":"","pricing_plan_id":"cebpf4jnsgd1na2vs0mg"},{"bike_id":"fa288643-b967-4c77-8362-0941ea5afa2f","system_id":"levelo_inurba_marseille","lat":43.23201,"lon":5.35545,"is_reserved":false,"is_disabled":false,"rental_uris":{"android":"levelo://app?vid=fa288643-b967-4c77-8362-0941ea5afa2f","ios":"levelo://app?vid=fa288643-b967-4c77-8362-0941ea5afa2f"},"vehicle_type_id":"4","last_reported":1784470738,"current_range_meters":39200,"station_id":"ce4bhu92rcd13ifvqi70","pricing_plan_id":"cebpf4jnsgd1na2vs0mg"},{"bike_id":"2a93def1-9840-4751-b465-b53bb0ce6123","system_id":"levelo_inurba_marseille","lat":43.22555,"lon":5.41625,"is_reserved":false,"is_disabled":false,"rental_uris":{"android":"levelo://app?vid=2a93def1-9840-4751-b465-b53bb0ce6123","ios":"levelo://app?vid=2a93def1-9840-4751-b465-b53bb0ce6123"},"vehicle_type_id":"4","last_reported":1784470738,"current_range_meters":6400,"station_id":"st_d2o4gvlbi1j2169b742g","pricing_plan_id":"cebpf4jnsgd1na2vs0mg"},{"bike_id":"f7ea5209-b0ab-4a9c-9a7d-182271a365ee","system_id":"levelo_inurba_marseille","lat":43.25576,"lon":5.38241,"is_reserved":false,"is_disabled":false,"rental_uris":{"android":"levelo://app?vid=f7ea5209-b0ab-4a9c-9a7d-182271a365ee","ios":"levelo://app?vid=f7ea5209-b0ab-4a9c-9a7d-182271a365ee"},"vehicle_type_id":"4","last_reported":1784470738,"current_range_meters":35200,"station_id":"ce4bhih2rcd13ifvqfs0","pricing_plan_id":"cebpf4jnsgd1na2vs0mg"},{"bike_id":"d2b08bfe-8d05-4397-91e9-fe938a2b845f","system_id":"levelo_inurba_marseille","lat":43.27501,"lon":5.42439,"is_reserved":false,"is_disabled":false,"rental_uris":{"android":"levelo://app?vid=d2b08bfe-8d05-4397-91e9-fe938a2b845f","ios":"levelo://app?vid=d2b08bfe-8d05-4397-91e9-fe938a2b845f"},"vehicle_type_id":"4","last_reported":1784470738,"current_range_meters":28400,"station_id":"ce4bhn92rcd13ifvqgrg","pricing_plan_id":"cebpf4jnsgd1na2vs0mg"},{"bike_id":"03fcd601-c201-4cc6-a5f6-b2a687e2f004","system_id":"levelo_inurba_marseille","lat":43.29197,"lon":5.36321,"is_reserved":false,"is_disabled":false,"rental_uris":{"android":"levelo://app?vid=03fcd601-c201-4cc6-a5f6-b2a687e2f004","ios":"levelo://app?vid=03fcd601-c201-4cc6-a5f6-b2a687e2f004"},"vehicle_type_id":"4","last_reported":1784470738,"current_range_meters":27200,"station_id":"","pricing_plan_id":"cebpf4jnsgd1na2vs0mg"},{"bike_id":"85c6f96b-abeb-41c4-b8e0-2980ab917c26","system_id":"levelo_inurba_marseille","lat":43.24468,"lon":5.42542,"is_reserved":false,"is_disabled":false,"rental_uris":{"android":"levelo://app?vid=85c6f96b-abeb-41c4-b8e0-2980ab917c26","ios":"levelo://app?vid=85c6f96b-abeb-41c4-b8e0-2980ab917c26"},"vehicle_type_id":"4","last_reported":1784470738,"current_range_meters":25200,"station_id":"st_d4a3vfp97mjs738cd8kg","pricing_plan_id":"cebpf4jnsgd1na2vs0mg"},{"bike_id":"e97d923d-d560-461e-94e7-6b746b3d8d92","system_id":"levelo_inurba_marseille","lat":43.32118,"lon":5.36763,"is_reserved":false,"is_disabled":false,"rental_uris":{"android":"levelo://app?vid=e97d923d-d560-461e-94e7-6b746b3d8d92","ios":"levelo://app?vid=e97d923d-d560-461e-94e7-6b746b3d8d92"},"vehicle_type_id":"4","last_reported":1784470738,"current_range_meters":22800,"station_id":"ce4bhrh2rcd13ifvqhug","pricing_plan_id":"cebpf4jnsgd1na2vs0mg"},{"bike_id":"b7aa1f7e-f948-4c85-8ebb-7af17d93841d","system_id":"levelo_inurba_marseille","lat":43.25224,"lon":5.40077,"is_reserved":false,"is_disabled":false,"rental_uris":{"android":"levelo://app?vid=b7aa1f7e-f948-4c85-8ebb-7af17d93841d","ios":"levelo://app?vid=b7aa1f7e-f948-4c85-8ebb-7af17d93841d"},"vehicle_type_id":"4","last_reported":1784470738,"current_range_meters":38000,"station_id":"","pricing_plan_id":"cebpf4jnsgd1na2vs0mg"},{"bike_id":"d56488c1-b78a-40ca-a296-b51941bf34bf","system_id":"levelo_inurba_marseille","lat":43.2847,"lon":5.35892,"is_reserved":false,"is_disabled":false,"rental_uris":{"android":"levelo://app?vid=d56488c1-b78a-40ca-a296-b51941bf34bf","ios":"levelo://app?vid=d56488c1-b78a-40ca-a296-b51941bf34bf"},"vehicle_type_id":"4","last_reported":1784470738,"current_range_meters":26000,"station_id":"ce4bhah2rcd13ifvqei0","pricing_plan_id":"cebpf4jnsgd1na2vs0mg"},{"bike_id":"a73f2824-04af-4eb1-8696-07548fb915c6","system_id":"levelo_inurba_marseille","lat":43.2707,"lon":5.42288,"is_reserved":false,"is_disabled":false,"rental_uris":{"android":"levelo://app?vid=a73f2824-04af-4eb1-8696-07548fb915c6","ios":"levelo://app?vid=a73f2824-04af-4eb1-8696-07548fb915c6"},"vehicle_type_id":"4","last_reported":1784470738,"current_range_meters":32800,"station_id":"ce4bhk92rcd13ifvqgb0","pricing_plan_id":"cebpf4jnsgd1na2vs0mg"},{"bike_id":"5f7a7770-0584-499a-80c2-89ed18615f65","system_id":"levelo_inurba_marseille","lat":43.28078,"lon":5.39647,"is_reserved":false,"is_disabled":false,"rental_uris":{"android":"levelo://app?vid=5f7a7770-0584-499a-80c2-89ed18615f65","ios":"levelo://app?vid=5f7a7770-0584-499a-80c2-89ed18615f65"},"vehicle_type_id":"4","last_reported":1784470738,"current_range_meters":6400,"station_id":"ce4bho12rcd13ifvqh2g","pricing_plan_id":"cebpf4jnsgd1na2vs0mg"},{"bike_id":"e845caaf-6f62-4afe-898b-175d7eec4dd5","system_id":"levelo_inurba_marseille","lat":43.29024,"lon":5.35932,"is_reserved":false,"is_disabled":false,"rental_uris":{"android":"levelo://app?vid=e845caaf-6f62-4afe-898b-175d7eec4dd5","ios":"levelo://app?vid=e845caaf-6f62-4afe-898b-175d7eec4dd5"},"vehicle_type_id":"4","last_reported":1784470738,"current_range_meters":7200,"station_id":"ce4bha92rcd13ifvqeg0","pricing_plan_id":"cebpf4jnsgd1na2vs0mg"},{"bike_id":"160b0153-3c70-4a0e-b0da-4ad40e9a3569","system_id":"levelo_inurba_marseille","lat":43.2339,"lon":5.41233,"is_reserved":false,"is_disabled":false,"rental_uris":{"android":"levelo://app?vid=160b0153-3c70-4a0e-b0da-4ad40e9a3569","ios":"levelo://app?vid=160b0153-3c70-4a0e-b0da-4ad40e9a3569"},"vehicle_type_id":"4","last_reported":1784470738,"current_range_meters":36400,"station_id":"st_d75pvndhf9lc73cqq3eg","pricing_plan_id":"cebpf4jnsgd1na2vs0mg"},{"bike_id":"adbf58a5-750c-44b0-bf9c-92bf4abd2cfa","system_id":"levelo_inurba_marseille","lat":43.28727,"lon":5.36091,"is_reserved":false,"is_disabled":false,"rental_uris":{"android":"levelo://app?vid=adbf58a5-750c-44b0-bf9c-92bf4abd2cfa","ios":"levelo://app?vid=adbf58a5-750c-44b0-bf9c-92bf4abd2cfa"},"vehicle_type_id":"4","last_reported":1784470738,"current_range_meters":16800,"station_id":"cki0cbj6b192h4jlfktg","pricing_plan_id":"cebpf4jnsgd1na2vs0mg"},{"bike_id":"266bb6db-e90e-4ddc-a5e9-a55463e560bf","system_id":"levelo_inurba_marseille","lat":43.27667,"lon":5.3889,"is_reserved":false,"is_disabled":false,"rental_uris":{"android":"levelo://app?vid=266bb6db-e90e-4ddc-a5e9-a55463e560bf","ios":"levelo://app?vid=266bb6db-e90e-4ddc-a5e9-a55463e560bf"},"vehicle_type_id":"4","last_reported":1784470738,"current_range_meters":29600,"station_id":"ce4bhi12rcd13ifvqfo0","pricing_plan_id":"cebpf4jnsgd1na2vs0mg"},{"bike_id":"3d4aa178-44db-467e-a1bd-4fcdf991f22c","system_id":"levelo_inurba_marseille","lat":43.31713,"lon":5.43714,"is_reserved":false,"is_disabled":false,"rental_uris":{"android":"levelo://app?vid=3d4aa178-44db-467e-a1bd-4fcdf991f22c","ios":"levelo://app?vid=3d4aa178-44db-467e-a1bd-4fcdf991f22c"},"vehicle_type_id":"4","last_reported":1784470738,"current_range_meters":37600,"station_id":"ce4bhp92rcd13ifvqhcg","pricing_plan_id":"cebpf4jnsgd1na2vs0mg"},{"bike_id":"78b472ae-7ca1-438d-a65f-f93d06645001","system_id":"levelo_inurba_marseille","lat":43.29214,"lon":5.36049,"is_reserved":false,"is_disabled":true,"rental_uris":{"android":"levelo://app?vid=78b472ae-7ca1-438d-a65f-f93d06645001","ios":"levelo://app?vid=78b472ae-7ca1-438d-a65f-f93d06645001"},"vehicle_type_id":"4","last_reported":1784470738,"current_range_meters":38000,"station_id":"","pricing_plan_id":"cebpf4jnsgd1na2vs0mg"},{"bike_id":"993396ba-f633-494c-a5b6-3a5af16d2144","system_id":"levelo_inurba_marseille","lat":43.28412,"lon":5.34993,"is_reserved":false,"is_disabled":false,"rental_uris":{"android":"levelo://app?vid=993396ba-f633-494c-a5b6-3a5af16d2144","ios":"levelo://app?vid=993396ba-f633-494c-a5b6-3a5af16d2144"},"vehicle_type_id":"4","last_reported":1784470738,"current_range_meters":7200,"station_id":"ce4bhbh2rcd13ifvqepg","pricing_plan_id":"cebpf4jnsgd1na2vs0mg"},{"bike_id":"f8d67695-e685-47b3-a110-267a17765b6d","system_id":"levelo_inurba_marseille","lat":43.27611,"lon":5.36117,"is_reserved":false,"is_disabled":false,"rental_uris":{"android":"levelo://app?vid=f8d67695-e685-47b3-a110-267a17765b6d","ios":"levelo://app?vid=f8d67695-e685-47b3-a110-267a17765b6d"},"vehicle_type_id":"4","last_reported":1784470738,"current_range_meters":20000,"station_id":"ce4bgj92rcd13ifvqbe0","pricing_plan_id":"cebpf4jnsgd1na2vs0mg"},{"bike_id":"bf010752-4ee2-4816-b256-1fb00bbe1bcc","system_id":"levelo_inurba_marseille","lat":43.28626,"lon":5.35104,"is_reserved":false,"is_disabled":false,"rental_uris":{"android":"levelo://app?vid=bf010752-4ee2-4816-b256-1fb00bbe1bcc","ios":"levelo://app?vid=bf010752-4ee2-4816-b256-1fb00bbe1bcc"},"vehicle_type_id":"4","last_reported":1784470738,"current_range_meters":13600,"station_id":"ce4bhch2rcd13ifvqeug","pricing_plan_id":"cebpf4jnsgd1na2vs0mg"},{"bike_id":"90d7e792-3d18-4c48-b793-6fbf1f3797e9","system_id":"levelo_inurba_marseille","lat":43.28418,"lon":5.34993,"is_reserved":false,"is_disabled":false,"rental_uris":{"android":"levelo://app?vid=90d7e792-3d18-4c48-b793-6fbf1f3797e9","ios":"levelo://app?vid=90d7e792-3d18-4c48-b793-6fbf1f3797e9"},"vehicle_type_id":"4","last_reported":1784470738,"current_range_meters":29600,"station_id":"ce4bhbh2rcd13ifvqepg","pricing_plan_id":"cebpf4jnsgd1na2vs0mg"},{"bike_id":"f31e71a2-8328-4ff9-9288-61f910dee152","system_id":"levelo_inurba_marseille","lat":43.26508,"lon":5.39549,"is_reserved":false,"is_disabled":false,"rental_uris":{"android":"levelo://app?vid=f31e71a2-8328-4ff9-9288-61f910dee152","ios":"levelo://app?vid=f31e71a2-8328-4ff9-9288-61f910dee152"},"vehicle_type_id":"4","last_reported":1784470738,"current_range_meters":36400,"station_id":"ce4bhi12rcd13ifvqfq0","pricing_plan_id":"cebpf4jnsgd1na2vs0mg"},{"bike_id":"348caf77-82d6-4562-a72e-c7becae0b0ae","system_id":"levelo_inurba_marseille","lat":43.230549,"lon":5.354901,"is_reserved":false,"is_disabled":false,"rental_uris":{"android":"levelo://app?vid=348caf77-82d6-4562-a72e-c7becae0b0ae","ios":"levelo://app?vid=348caf77-82d6-4562-a72e-c7becae0b0ae"},"vehicle_type_id":"4","last_reported":1784470738,"current_range_meters":36800,"station_id":"cpo3342slgdg3j2ifvpg","pricing_plan_id":"cebpf4jnsgd1na2vs0mg"},{"bike_id":"88b3333d-68df-42df-8ef7-a9a4f08abce5","system_id":"levelo_inurba_marseille","lat":43.22917,"lon":5.41513,"is_reserved":false,"is_disabled":false,"rental_uris":{"android":"levelo://app?vid=88b3333d-68df-42df-8ef7-a9a4f08abce5","ios":"levelo://app?vid=88b3333d-68df-42df-8ef7-a9a4f08abce5"},"vehicle_type_id":"4","last_reported":1784470738,"current_range_meters":18800,"station_id":"","pricing_plan_id":"cebpf4jnsgd1na2vs0mg"},{"bike_id":"50cc7a1f-02fb-419d-8d81-6e9140eed09a","system_id":"levelo_inurba_marseille","lat":43.26218,"lon":5.37461,"is_reserved":false,"is_disabled":false,"rental_uris":{"android":"levelo://app?vid=50cc7a1f-02fb-419d-8d81-6e9140eed09a","ios":"levelo://app?vid=50cc7a1f-02fb-419d-8d81-6e9140eed09a"},"vehicle_type_id":"4","last_reported":1784470738,"current_range_meters":36800,"station_id":"ce4bhgp2rcd13ifvqfc0","pricing_plan_id":"cebpf4jnsgd1na2vs0mg"},{"bike_id":"6dc303ad-c645-41ff-bd15-9564ddff83e6","system_id":"levelo_inurba_marseille","lat":43.26709,"lon":5.38259,"is_reserved":false,"is_disabled":false,"rental_uris":{"android":"levelo://app?vid=6dc303ad-c645-41ff-bd15-9564ddff83e6","ios":"levelo://app?vid=6dc303ad-c645-41ff-bd15-9564ddff83e6"},"vehicle_type_id":"4","last_reported":1784470738,"current_range_meters":20800,"station_id":"ce4bhg92rcd13ifvqf90","pricing_plan_id":"cebpf4jnsgd1na2vs0mg"},{"bike_id":"c1c9acfe-6d78-4708-94a0-de44436be310","system_id":"levelo_inurba_marseille","lat":43.28267,"lon":5.3506,"is_reserved":false,"is_disabled":false,"rental_uris":{"android":"levelo://app?vid=c1c9acfe-6d78-4708-94a0-de44436be310","ios":"levelo://app?vid=c1c9acfe-6d78-4708-94a0-de44436be310"},"vehicle_type_id":"4","last_reported":1784470738,"current_range_meters":38800,"station_id":"ce4bhbp2rcd13ifvqerg","pricing_plan_id":"cebpf4jnsgd1na2vs0mg"},{"bike_id":"b9bf91b1-f6c3-4792-a380-5b253e1ff4ad","system_id":"levelo_inurba_marseille","lat":43.23194,"lon":5.35551,"is_reserved":false,"is_disabled":false,"rental_uris":{"android":"levelo://app?vid=b9bf91b1-f6c3-4792-a380-5b253e1ff4ad","ios":"levelo://app?vid=b9bf91b1-f6c3-4792-a380-5b253e1ff4ad"},"vehicle_type_id":"4","last_reported":1784470738,"current_range_meters":28800,"station_id":"ce4bhu92rcd13ifvqi70","pricing_plan_id":"cebpf4jnsgd1na2vs0mg"},{"bike_id":"3331c6c8-0e15-49d1-8915-53d26d8aa8c2","system_id":"levelo_inurba_marseille","lat":43.30595,"lon":5.37218,"is_reserved":false,"is_disabled":false,"rental_uris":{"android":"levelo://app?vid=3331c6c8-0e15-49d1-8915-53d26d8aa8c2","ios":"levelo://app?vid=3331c6c8-0e15-49d1-8915-53d26d8aa8c2"},"vehicle_type_id":"4","last_reported":1784470738,"current_range_meters":31200,"station_id":"ce4bgqh2rcd13ifvqc4g","pricing_plan_id":"cebpf4jnsgd1na2vs0mg"},{"bike_id":"924a1626-5fd2-481c-9ed9-8d01de5a6be3","system_id":"levelo_inurba_marseille","lat":43.30573,"lon":5.38188,"is_reserved":false,"is_disabled":false,"rental_uris":{"android":"levelo://app?vid=924a1626-5fd2-481c-9ed9-8d01de5a6be3","ios":"levelo://app?vid=924a1626-5fd2-481c-9ed9-8d01de5a6be3"},"vehicle_type_id":"4","last_reported":1784470738,"current_range_meters":16400,"station_id":"","pricing_plan_id":"cebpf4jnsgd1na2vs0mg"},{"bike_id":"4f54c651-15d1-492f-8d09-70f1f809ad4f","system_id":"levelo_inurba_marseille","lat":43.27487,"lon":5.42556,"is_reserved":false,"is_disabled":false,"rental_uris":{"android":"levelo://app?vid=4f54c651-15d1-492f-8d09-70f1f809ad4f","ios":"levelo://app?vid=4f54c651-15d1-492f-8d09-70f1f809ad4f"},"vehicle_type_id":"4","last_reported":1784470738,"current_range_meters":16000,"station_id":"st_d8t4bh7nbrqs73arha60","pricing_plan_id":"cebpf4jnsgd1na2vs0mg"},{"bike_id":"7065528a-f292-4b1d-9927-6e05933d2cf0","system_id":"levelo_inurba_marseille","lat":43.22563,"lon":5.41622,"is_reserved":false,"is_disabled":false,"rental_uris":{"android":"levelo://app?vid=7065528a-f292-4b1d-9927-6e05933d2cf0","ios":"levelo://app?vid=7065528a-f292-4b1d-9927-6e05933d2cf0"},"vehicle_type_id":"4","last_reported":1784470738,"current_range_meters":23200,"station_id":"st_d2o4gvlbi1j2169b742g","pricing_plan_id":"cebpf4jnsgd1na2vs0mg"},{"bike_id":"91a04297-7b90-4c43-be22-a09de7a78c99","system_id":"levelo_inurba_marseille","lat":43.30437,"lon":5.38893,"is_reserved":false,"is_disabled":false,"rental_uris":{"android":"levelo://app?vid=91a04297-7b90-4c43-be22-a09de7a78c99","ios":"levelo://app?vid=91a04297-7b90-4c43-be22-a09de7a78c99"},"vehicle_type_id":"4","last_reported":1784470738,"current_range_meters":39200,"station_id":"ce4bgk12rcd13ifvqbi0","pricing_plan_id":"cebpf4jnsgd1na2vs0mg"},{"bike_id":"3fa828c7-61f5-4f5a-b57c-e863a75aba78","system_id":"levelo_inurba_marseille","lat":43.28729,"lon":5.36097,"is_reserved":false,"is_disabled":false,"rental_uris":{"android":"levelo://app?vid=3fa828c7-61f5-4f5a-b57c-e863a75aba78","ios":"levelo://app?vid=3fa828c7-61f5-4f5a-b57c-e863a75aba78"},"vehicle_type_id":"4","last_reported":1784470738,"current_range_meters":25600,"station_id":"cki0cbj6b192h4jlfktg","pricing_plan_id":"cebpf4jnsgd1na2vs0mg"},{"bike_id":"d1e65726-5d96-4169-8440-e64ee8c0cb5f","system_id":"levelo_inurba_marseille","lat":43.28256,"lon":5.35058,"is_reserved":false,"is_disabled":false,"rental_uris":{"android":"levelo://app?vid=d1e65726-5d96-4169-8440-e64ee8c0cb5f","ios":"levelo://app?vid=d1e65726-5d96-4169-8440-e64ee8c0cb5f"},"vehicle_type_id":"4","last_reported":1784470738,"current_range_meters":20400,"station_id":"ce4bhbp2rcd13ifvqerg","pricing_plan_id":"cebpf4jnsgd1na2vs0mg"},{"bike_id":"e35b3037-ccf2-48a7-b6f2-14a77143bba4","system_id":"levelo_inurba_marseille","lat":43.32364,"lon":5.3674,"is_reserved":false,"is_disabled":false,"rental_uris":{"android":"levelo://app?vid=e35b3037-ccf2-48a7-b6f2-14a77143bba4","ios":"levelo://app?vid=e35b3037-ccf2-48a7-b6f2-14a77143bba4"},"vehicle_type_id":"4","last_reported":1784470738,"current_range_meters":27200,"station_id":"ce4bhsh2rcd13ifvqi2g","pricing_plan_id":"cebpf4jnsgd1na2vs0mg"},{"bike_id":"be4a3f11-c544-4ac8-9fa9-fda2935d84ab","system_id":"levelo_inurba_marseille","lat":43.29587,"lon":5.36752,"is_reserved":false,"is_disabled":false,"rental_uris":{"android":"levelo://app?vid=be4a3f11-c544-4ac8-9fa9-fda2935d84ab","ios":"levelo://app?vid=be4a3f11-c544-4ac8-9fa9-fda2935d84ab"},"vehicle_type_id":"4","last_reported":1784470738,"current_range_meters":37600,"station_id":"","pricing_plan_id":"cebpf4jnsgd1na2vs0mg"},{"bike_id":"f46ca526-f9cd-4571-808f-516a0c71ffbb","system_id":"levelo_inurba_marseille","lat":43.32495,"lon":5.38298,"is_reserved":false,"is_disabled":false,"rental_uris":{"android":"levelo://app?vid=f46ca526-f9cd-4571-808f-516a0c71ffbb","ios":"levelo://app?vid=f46ca526-f9cd-4571-808f-516a0c71ffbb"},"vehicle_type_id":"4","last_reported":1784470738,"current_range_meters":22800,"station_id":"st_d4asgbiv49dc73anf9m0","pricing_plan_id":"cebpf4jnsgd1na2vs0mg"},{"bike_id":"e50cac17-67cd-4143-a123-3af190277272","system_id":"levelo_inurba_marseille","lat":43.30415,"lon":5.41288,"is_reserved":false,"is_disabled":false,"rental_uris":{"android":"levelo://app?vid=e50cac17-67cd-4143-a123-3af190277272","ios":"levelo://app?vid=e50cac17-67cd-4143-a123-3af190277272"},"vehicle_type_id":"4","last_reported":1784470738,"current_range_meters":38400,"station_id":"ce4bhop2rcd13ifvqh8g","pricing_plan_id":"cebpf4jnsgd1na2vs0mg"},{"bike_id":"6b0ed2bd-393c-49aa-9a4b-b9c98027e6ee","system_id":"levelo_inurba_marseille","lat":43.3136,"lon":5.38499,"is_reserved":false,"is_disabled":false,"rental_uris":{"android":"levelo://app?vid=6b0ed2bd-393c-49aa-9a4b-b9c98027e6ee","ios":"levelo://app?vid=6b0ed2bd-393c-49aa-9a4b-b9c98027e6ee"},"vehicle_type_id":"4","last_reported":1784470738,"current_range_meters":34800,"station_id":"ce4bgt92rcd13ifvqcf0","pricing_plan_id":"cebpf4jnsgd1na2vs0mg"},{"bike_id":"d3763a0c-6ecc-4e5b-830e-5883d835d782","system_id":"levelo_inurba_marseille","lat":43.317,"lon":5.4374,"is_reserved":false,"is_disabled":false,"rental_uris":{"android":"levelo://app?vid=d3763a0c-6ecc-4e5b-830e-5883d835d782","ios":"levelo://app?vid=d3763a0c-6ecc-4e5b-830e-5883d835d782"},"vehicle_type_id":"4","last_reported":1784470738,"current_range_meters":16000,"station_id":"ce4bhp92rcd13ifvqhcg","pricing_plan_id":"cebpf4jnsgd1na2vs0mg"},{"bike_id":"2d3e69d2-558b-4a81-9733-0750aa7726ab","system_id":"levelo_inurba_marseille","lat":43.23052,"lon":5.35484,"is_reserved":false,"is_disabled":true,"rental_uris":{"android":"levelo://app?vid=2d3e69d2-558b-4a81-9733-0750aa7726ab","ios":"levelo://app?vid=2d3e69d2-558b-4a81-9733-0750aa7726ab"},"vehicle_type_id":"4","last_reported":1784470738,"current_range_meters":0,"station_id":"cpo3342slgdg3j2ifvpg","pricing_plan_id":"cebpf4jnsgd1na2vs0mg"},{"bike_id":"e0b59b94-4abf-4e2b-8eca-155fc1c0b722","system_id":"levelo_inurba_marseille","lat":43.23082,"lon":5.355,"is_reserved":false,"is_disabled":false,"rental_uris":{"android":"levelo://app?vid=e0b59b94-4abf-4e2b-8eca-155fc1c0b722","ios":"levelo://app?vid=e0b59b94-4abf-4e2b-8eca-155fc1c0b722"},"vehicle_type_id":"4","last_reported":1784470738,"current_range_meters":39200,"station_id":"cpo3342slgdg3j2ifvpg","pricing_plan_id":"cebpf4jnsgd1na2vs0mg"},{"bike_id":"01e7462b-b9cf-469e-92a6-2a1201a0f2a3","system_id":"levelo_inurba_marseille","lat":43.30481,"lon":5.39869,"is_reserved":false,"is_disabled":true,"rental_uris":{"android":"levelo://app?vid=01e7462b-b9cf-469e-92a6-2a1201a0f2a3","ios":"levelo://app?vid=01e7462b-b9cf-469e-92a6-2a1201a0f2a3"},"vehicle_type_id":"4","last_reported":1784470738,"current_range_meters":800,"station_id":"","pricing_plan_id":"cebpf4jnsgd1na2vs0mg"},{"bike_id":"38064a1e-6d93-4f2e-8009-0a00cec0ae55","system_id":"levelo_inurba_marseille","lat":43.25819,"lon":5.39444,"is_reserved":false,"is_disabled":false,"rental_uris":{"android":"levelo://app?vid=38064a1e-6d93-4f2e-8009-0a00cec0ae55","ios":"levelo://app?vid=38064a1e-6d93-4f2e-8009-0a00cec0ae55"},"vehicle_type_id":"4","last_reported":1784470738,"current_range_meters":16800,"station_id":"ce4bhip2rcd13ifvqft0","pricing_plan_id":"cebpf4jnsgd1na2vs0mg"},{"bike_id":"832dc34b-f41e-4c1a-811a-29ef030a33c5","system_id":"levelo_inurba_marseille","lat":43.25194,"lon":5.3732,"is_reserved":false,"is_disabled":false,"rental_uris":{"android":"levelo://app?vid=832dc34b-f41e-4c1a-811a-29ef030a33c5","ios":"levelo://app?vid=832dc34b-f41e-4c1a-811a-29ef030a33c5"},"vehicle_type_id":"4","last_reported":1784470738,"current_range_meters":22800,"station_id":"","pricing_plan_id":"cebpf4jnsgd1na2vs0mg"},{"bike_id":"9c82ad3f-8f05-4cbf-8160-772f7f7f563b","system_id":"levelo_inurba_marseille","lat":43.28618,"lon":5.35105,"is_reserved":false,"is_disabled":false,"rental_uris":{"android":"levelo://app?vid=9c82ad3f-8f05-4cbf-8160-772f7f7f563b","ios":"levelo://app?vid=9c82ad3f-8f05-4cbf-8160-772f7f7f563b"},"vehicle_type_id":"4","last_reported":1784470738,"current_range_meters":39200,"station_id":"ce4bhch2rcd13ifvqeug","pricing_plan_id":"cebpf4jnsgd1na2vs0mg"},{"bike_id":"8b6331b3-2914-4282-8a4c-45cca24291f2","system_id":"levelo_inurba_marseille","lat":43.30929,"lon":5.40152,"is_reserved":false,"is_disabled":false,"rental_uris":{"android":"levelo://app?vid=8b6331b3-2914-4282-8a4c-45cca24291f2","ios":"levelo://app?vid=8b6331b3-2914-4282-8a4c-45cca24291f2"},"vehicle_type_id":"4","last_reported":1784470738,"current_range_meters":22000,"station_id":"","pricing_plan_id":"cebpf4jnsgd1na2vs0mg"},{"bike_id":"c362fbc2-034b-4063-9c43-47678f83b8a2","system_id":"levelo_inurba_marseille","lat":43.29934,"lon":5.36558,"is_reserved":false,"is_disabled":false,"rental_uris":{"android":"levelo://app?vid=c362fbc2-034b-4063-9c43-47678f83b8a2","ios":"levelo://app?vid=c362fbc2-034b-4063-9c43-47678f83b8a2"},"vehicle_type_id":"4","last_reported":1784470738,"current_range_meters":28400,"station_id":"ce4bgm92rcd13ifvqbr0","pricing_plan_id":"cebpf4jnsgd1na2vs0mg"},{"bike_id":"e79fc27b-c3ce-4e8c-8725-fa4d3ca4f135","system_id":"levelo_inurba_marseille","lat":43.27367,"lon":5.36265,"is_reserved":false,"is_disabled":false,"rental_uris":{"android":"levelo://app?vid=e79fc27b-c3ce-4e8c-8725-fa4d3ca4f135","ios":"levelo://app?vid=e79fc27b-c3ce-4e8c-8725-fa4d3ca4f135"},"vehicle_type_id":"4","last_reported":1784470738,"current_range_meters":20800,"station_id":"ce4bhbh2rcd13ifvqeo0","pricing_plan_id":"cebpf4jnsgd1na2vs0mg"},{"bike_id":"0d3e100f-48fe-47e1-bef7-0a1dcfcc4955","system_id":"levelo_inurba_marseille","lat":43.33719,"lon":5.39174,"is_reserved":false,"is_disabled":false,"rental_uris":{"android":"levelo://app?vid=0d3e100f-48fe-47e1-bef7-0a1dcfcc4955","ios":"levelo://app?vid=0d3e100f-48fe-47e1-bef7-0a1dcfcc4955"},"vehicle_type_id":"4","last_reported":1784470738,"current_range_meters":39200,"station_id":"ce4bhr92rcd13ifvqhsg","pricing_plan_id":"cebpf4jnsgd1na2vs0mg"},{"bike_id":"b40295ff-9d2c-4089-bef4-b5e486c88f69","system_id":"levelo_inurba_marseille","lat":43.28148,"lon":5.42636,"is_reserved":false,"is_disabled":false,"rental_uris":{"android":"levelo://app?vid=b40295ff-9d2c-4089-bef4-b5e486c88f69","ios":"levelo://app?vid=b40295ff-9d2c-4089-bef4-b5e486c88f69"},"vehicle_type_id":"4","last_reported":1784470738,"current_range_meters":24000,"station_id":"ce4bhnh2rcd13ifvqgug","pricing_plan_id":"cebpf4jnsgd1na2vs0mg"},{"bike_id":"9533a5cc-79d3-4919-953a-f90a8976566d","system_id":"levelo_inurba_marseille","lat":43.268,"lon":5.39434,"is_reserved":false,"is_disabled":false,"rental_uris":{"android":"levelo://app?vid=9533a5cc-79d3-4919-953a-f90a8976566d","ios":"levelo://app?vid=9533a5cc-79d3-4919-953a-f90a8976566d"},"vehicle_type_id":"4","last_reported":1784470738,"current_range_meters":9200,"station_id":"ce4bhh12rcd13ifvqfg0","pricing_plan_id":"cebpf4jnsgd1na2vs0mg"},{"bike_id":"33c127dd-f2d9-4761-99df-e77adf64b379","system_id":"levelo_inurba_marseille","lat":43.259903,"lon":5.394552,"is_reserved":false,"is_disabled":false,"rental_uris":{"android":"levelo://app?vid=33c127dd-f2d9-4761-99df-e77adf64b379","ios":"levelo://app?vid=33c127dd-f2d9-4761-99df-e77adf64b379"},"vehicle_type_id":"4","last_reported":1784470738,"current_range_meters":34000,"station_id":"ce4bhh12rcd13ifvqfg0","pricing_plan_id":"cebpf4jnsgd1na2vs0mg"},{"bike_id":"62cd5391-7ca1-421e-8e86-ad884682acc5","system_id":"levelo_inurba_marseille","lat":43.27996,"lon":5.40022,"is_reserved":false,"is_disabled":false,"rental_uris":{"android":"levelo://app?vid=62cd5391-7ca1-421e-8e86-ad884682acc5","ios":"levelo://app?vid=62cd5391-7ca1-421e-8e86-ad884682acc5"},"vehicle_type_id":"4","last_reported":1784470738,"current_range_meters":8800,"station_id":"ce4bho92rcd13ifvqh4g","pricing_plan_id":"cebpf4jnsgd1na2vs0mg"},{"bike_id":"62cd5bb0-0aa0-46dd-be69-c705d329a10a","system_id":"levelo_inurba_marseille","lat":43.23211,"lon":5.35555,"is_reserved":false,"is_disabled":false,"rental_uris":{"android":"levelo://app?vid=62cd5bb0-0aa0-46dd-be69-c705d329a10a","ios":"levelo://app?vid=62cd5bb0-0aa0-46dd-be69-c705d329a10a"},"vehicle_type_id":"4","last_reported":1784470738,"current_range_meters":39200,"station_id":"ce4bhu92rcd13ifvqi70","pricing_plan_id":"cebpf4jnsgd1na2vs0mg"},{"bike_id":"af9cb856-2a1a-4801-80cc-f305db9e72a7","system_id":"levelo_inurba_marseille","lat":43.25949,"lon":5.40895,"is_reserved":false,"is_disabled":false,"rental_uris":{"android":"levelo://app?vid=af9cb856-2a1a-4801-80cc-f305db9e72a7","ios":"levelo://app?vid=af9cb856-2a1a-4801-80cc-f305db9e72a7"},"vehicle_type_id":"4","last_reported":1784470738,"current_range_meters":37600,"station_id":"ce4bhm92rcd13ifvqglg","pricing_plan_id":"cebpf4jnsgd1na2vs0mg"},{"bike_id":"dfac0429-a154-4284-9b71-592f8fff0c6c","system_id":"levelo_inurba_marseille","lat":43.2417,"lon":5.36401,"is_reserved":false,"is_disabled":false,"rental_uris":{"android":"levelo://app?vid=dfac0429-a154-4284-9b71-592f8fff0c6c","ios":"levelo://app?vid=dfac0429-a154-4284-9b71-592f8fff0c6c"},"vehicle_type_id":"4","last_reported":1784470738,"current_range_meters":30800,"station_id":"cpo36qri1sfpv3e86is0","pricing_plan_id":"cebpf4jnsgd1na2vs0mg"},{"bike_id":"e05a549a-22b6-4781-bccb-18fe170e569b","system_id":"levelo_inurba_marseille","lat":43.27426,"lon":5.39417,"is_reserved":false,"is_disabled":false,"rental_uris":{"android":"levelo://app?vid=e05a549a-22b6-4781-bccb-18fe170e569b","ios":"levelo://app?vid=e05a549a-22b6-4781-bccb-18fe170e569b"},"vehicle_type_id":"4","last_reported":1784470738,"current_range_meters":30000,"station_id":"ce4bhdp2rcd13ifvqf20","pricing_plan_id":"cebpf4jnsgd1na2vs0mg"},{"bike_id":"bf92e73f-5ebb-482e-9b16-38b660c0b75a","system_id":"levelo_inurba_marseille","lat":43.21734,"lon":5.34603,"is_reserved":false,"is_disabled":true,"rental_uris":{"android":"levelo://app?vid=bf92e73f-5ebb-482e-9b16-38b660c0b75a","ios":"levelo://app?vid=bf92e73f-5ebb-482e-9b16-38b660c0b75a"},"vehicle_type_id":"4","last_reported":1784470738,"current_range_meters":5600,"station_id":"st_cvj6r9ubvosntc0bgbag","pricing_plan_id":"cebpf4jnsgd1na2vs0mg"},{"bike_id":"98bce0f5-25e4-4db3-b698-d3dcf6d7b213","system_id":"levelo_inurba_marseille","lat":43.24803,"lon":5.37447,"is_reserved":false,"is_disabled":false,"rental_uris":{"android":"levelo://app?vid=98bce0f5-25e4-4db3-b698-d3dcf6d7b213","ios":"levelo://app?vid=98bce0f5-25e4-4db3-b698-d3dcf6d7b213"},"vehicle_type_id":"4","last_reported":1784470738,"current_range_meters":21600,"station_id":"ce4bhgh2rcd13ifvqfb0","pricing_plan_id":"cebpf4jnsgd1na2vs0mg"},{"bike_id":"0ccdd5d1-13a3-4cc4-beee-acb9a334278d","system_id":"levelo_inurba_marseille","lat":43.23201,"lon":5.35549,"is_reserved":false,"is_disabled":false,"rental_uris":{"android":"levelo://app?vid=0ccdd5d1-13a3-4cc4-beee-acb9a334278d","ios":"levelo://app?vid=0ccdd5d1-13a3-4cc4-beee-acb9a334278d"},"vehicle_type_id":"4","last_reported":1784470738,"current_range_meters":39200,"station_id":"ce4bhu92rcd13ifvqi70","pricing_plan_id":"cebpf4jnsgd1na2vs0mg"},{"bike_id":"ed25373e-a7cc-4ffa-bb01-0b8e073362da","system_id":"levelo_inurba_marseille","lat":43.31228,"lon":5.36888,"is_reserved":false,"is_disabled":false,"rental_uris":{"android":"levelo://app?vid=ed25373e-a7cc-4ffa-bb01-0b8e073362da","ios":"levelo://app?vid=ed25373e-a7cc-4ffa-bb01-0b8e073362da"},"vehicle_type_id":"4","last_reported":1784470738,"current_range_meters":38000,"station_id":"ce4bgl92rcd13ifvqbq0","pricing_plan_id":"cebpf4jnsgd1na2vs0mg"},{"bike_id":"013f3ad7-a941-43dd-8c4c-fd8ebcfb4ce9","system_id":"levelo_inurba_marseille","lat":43.2958,"lon":5.37517,"is_reserved":false,"is_disabled":false,"rental_uris":{"android":"levelo://app?vid=013f3ad7-a941-43dd-8c4c-fd8ebcfb4ce9","ios":"levelo://app?vid=013f3ad7-a941-43dd-8c4c-fd8ebcfb4ce9"},"vehicle_type_id":"4","last_reported":1784470738,"current_range_meters":3600,"station_id":"ce4bgh92rcd13ifvqb50","pricing_plan_id":"cebpf4jnsgd1na2vs0mg"},{"bike_id":"3ce46721-3bce-4a5c-a8cf-0762eca1ee9b","system_id":"levelo_inurba_marseille","lat":43.32468,"lon":5.36566,"is_reserved":false,"is_disabled":false,"rental_uris":{"android":"levelo://app?vid=3ce46721-3bce-4a5c-a8cf-0762eca1ee9b","ios":"levelo://app?vid=3ce46721-3bce-4a5c-a8cf-0762eca1ee9b"},"vehicle_type_id":"4","last_reported":1784470738,"current_range_meters":37600,"station_id":"ce4bhs12rcd13ifvqhvg","pricing_plan_id":"cebpf4jnsgd1na2vs0mg"},{"bike_id":"213d3253-63ab-4220-a737-37ba0aee6ca3","system_id":"levelo_inurba_marseille","lat":43.24393,"lon":5.37076,"is_reserved":false,"is_disabled":false,"rental_uris":{"android":"levelo://app?vid=213d3253-63ab-4220-a737-37ba0aee6ca3","ios":"levelo://app?vid=213d3253-63ab-4220-a737-37ba0aee6ca3"},"vehicle_type_id":"4","last_reported":1784470738,"current_range_meters":3600,"station_id":"ce4bhhh2rcd13ifvqfk0","pricing_plan_id":"cebpf4jnsgd1na2vs0mg"},{"bike_id":"bf94bbb1-0344-4a40-9e3a-5c4e2673d65c","system_id":"levelo_inurba_marseille","lat":43.29933,"lon":5.36522,"is_reserved":false,"is_disabled":false,"rental_uris":{"android":"levelo://app?vid=bf94bbb1-0344-4a40-9e3a-5c4e2673d65c","ios":"levelo://app?vid=bf94bbb1-0344-4a40-9e3a-5c4e2673d65c"},"vehicle_type_id":"4","last_reported":1784470738,"current_range_meters":31200,"station_id":"ce4bgm92rcd13ifvqbr0","pricing_plan_id":"cebpf4jnsgd1na2vs0mg"},{"bike_id":"e33e7e56-b1af-4e57-9514-4de84c42a5c6","system_id":"levelo_inurba_marseille","lat":43.23961,"lon":5.36644,"is_reserved":false,"is_disabled":true,"rental_uris":{"android":"levelo://app?vid=e33e7e56-b1af-4e57-9514-4de84c42a5c6","ios":"levelo://app?vid=e33e7e56-b1af-4e57-9514-4de84c42a5c6"},"vehicle_type_id":"4","last_reported":1784470738,"current_range_meters":22000,"station_id":"ce4bhi12rcd13ifvqfp0","pricing_plan_id":"cebpf4jnsgd1na2vs0mg"},{"bike_id":"ecdd5ecc-31fe-47f7-804a-8619df791b9e","system_id":"levelo_inurba_marseille","lat":43.21749,"lon":5.34606,"is_reserved":false,"is_disabled":false,"rental_uris":{"android":"levelo://app?vid=ecdd5ecc-31fe-47f7-804a-8619df791b9e","ios":"levelo://app?vid=ecdd5ecc-31fe-47f7-804a-8619df791b9e"},"vehicle_type_id":"4","last_reported":1784470738,"current_range_meters":3600,"station_id":"st_cvj6r9ubvosntc0bgbag","pricing_plan_id":"cebpf4jnsgd1na2vs0mg"},{"bike_id":"75ae76fc-4dd7-4feb-9ce7-6f0960be90fd","system_id":"levelo_inurba_marseille","lat":43.28275,"lon":5.35055,"is_reserved":false,"is_disabled":false,"rental_uris":{"android":"levelo://app?vid=75ae76fc-4dd7-4feb-9ce7-6f0960be90fd","ios":"levelo://app?vid=75ae76fc-4dd7-4feb-9ce7-6f0960be90fd"},"vehicle_type_id":"4","last_reported":1784470738,"current_range_meters":37600,"station_id":"ce4bhbp2rcd13ifvqerg","pricing_plan_id":"cebpf4jnsgd1na2vs0mg"},{"bike_id":"7604574c-06cb-407e-9e16-b7858411e1bc","system_id":"levelo_inurba_marseille","lat":43.27814,"lon":5.40702,"is_reserved":false,"is_disabled":true,"rental_uris":{"android":"levelo://app?vid=7604574c-06cb-407e-9e16-b7858411e1bc","ios":"levelo://app?vid=7604574c-06cb-407e-9e16-b7858411e1bc"},"vehicle_type_id":"4","last_reported":1784470738,"current_range_meters":16400,"station_id":"ce4bhnh2rcd13ifvqgtg","pricing_plan_id":"cebpf4jnsgd1na2vs0mg"},{"bike_id":"600d3649-4b6d-473c-a715-d27921e00684","system_id":"levelo_inurba_marseille","lat":43.23192,"lon":5.3556,"is_reserved":false,"is_disabled":false,"rental_uris":{"android":"levelo://app?vid=600d3649-4b6d-473c-a715-d27921e00684","ios":"levelo://app?vid=600d3649-4b6d-473c-a715-d27921e00684"},"vehicle_type_id":"4","last_reported":1784470738,"current_range_meters":18800,"station_id":"ce4bhu92rcd13ifvqi70","pricing_plan_id":"cebpf4jnsgd1na2vs0mg"},{"bike_id":"4f5d180b-7df1-4bec-b4f8-45c82ca3cddb","system_id":"levelo_inurba_marseille","lat":43.28499,"lon":5.48389,"is_reserved":false,"is_disabled":false,"rental_uris":{"android":"levelo://app?vid=4f5d180b-7df1-4bec-b4f8-45c82ca3cddb","ios":"levelo://app?vid=4f5d180b-7df1-4bec-b4f8-45c82ca3cddb"},"vehicle_type_id":"4","last_reported":1784470738,"current_range_meters":27200,"station_id":"st_d3svhcjqgbts73a3dn0g","pricing_plan_id":"cebpf4jnsgd1na2vs0mg"},{"bike_id":"8601b829-59f8-4eab-bab2-2f8e891d8617","system_id":"levelo_inurba_marseille","lat":43.254993,"lon":5.376487,"is_reserved":false,"is_disabled":false,"rental_uris":{"android":"levelo://app?vid=8601b829-59f8-4eab-bab2-2f8e891d8617","ios":"levelo://app?vid=8601b829-59f8-4eab-bab2-2f8e891d8617"},"vehicle_type_id":"4","last_reported":1784470738,"current_range_meters":20400,"station_id":"ce4bhh12rcd13ifvqff0","pricing_plan_id":"cebpf4jnsgd1na2vs0mg"},{"bike_id":"bfa7fe7a-6064-4879-8c62-7ef101665a61","system_id":"levelo_inurba_marseille","lat":43.23895,"lon":5.37462,"is_reserved":false,"is_disabled":false,"rental_uris":{"android":"levelo://app?vid=bfa7fe7a-6064-4879-8c62-7ef101665a61","ios":"levelo://app?vid=bfa7fe7a-6064-4879-8c62-7ef101665a61"},"vehicle_type_id":"4","last_reported":1784470738,"current_range_meters":39200,"station_id":"st_d6sm7csbq4hs73f8fpjg","pricing_plan_id":"cebpf4jnsgd1na2vs0mg"},{"bike_id":"5c86d26e-fc15-401d-adac-561cb979e7f8","system_id":"levelo_inurba_marseille","lat":43.23179,"lon":5.39996,"is_reserved":false,"is_disabled":false,"rental_uris":{"android":"levelo://app?vid=5c86d26e-fc15-401d-adac-561cb979e7f8","ios":"levelo://app?vid=5c86d26e-fc15-401d-adac-561cb979e7f8"},"vehicle_type_id":"4","last_reported":1784470738,"current_range_meters":14400,"station_id":"ce4bhn12rcd13ifvqgqg","pricing_plan_id":"cebpf4jnsgd1na2vs0mg"},{"bike_id":"e629d55d-d325-468a-a546-25d1aac08d9e","system_id":"levelo_inurba_marseille","lat":43.29193,"lon":5.35804,"is_reserved":false,"is_disabled":false,"rental_uris":{"android":"levelo://app?vid=e629d55d-d325-468a-a546-25d1aac08d9e","ios":"levelo://app?vid=e629d55d-d325-468a-a546-25d1aac08d9e"},"vehicle_type_id":"4","last_reported":1784470738,"current_range_meters":21600,"station_id":"ce4bhb12rcd13ifvqel0","pricing_plan_id":"cebpf4jnsgd1na2vs0mg"},{"bike_id":"7831cc1a-fbf3-4173-99d9-80200bcfb81a","system_id":"levelo_inurba_marseille","lat":43.24674,"lon":5.38162,"is_reserved":false,"is_disabled":false,"rental_uris":{"android":"levelo://app?vid=7831cc1a-fbf3-4173-99d9-80200bcfb81a","ios":"levelo://app?vid=7831cc1a-fbf3-4173-99d9-80200bcfb81a"},"vehicle_type_id":"4","last_reported":1784470738,"current_range_meters":31200,"station_id":"ce4bhih2rcd13ifvqfr0","pricing_plan_id":"cebpf4jnsgd1na2vs0mg"},{"bike_id":"4223b944-0efc-4568-a1a5-2784bd868764","system_id":"levelo_inurba_marseille","lat":43.21744,"lon":5.34604,"is_reserved":false,"is_disabled":false,"rental_uris":{"android":"levelo://app?vid=4223b944-0efc-4568-a1a5-2784bd868764","ios":"levelo://app?vid=4223b944-0efc-4568-a1a5-2784bd868764"},"vehicle_type_id":"4","last_reported":1784470738,"current_range_meters":12000,"station_id":"st_cvj6r9ubvosntc0bgbag","pricing_plan_id":"cebpf4jnsgd1na2vs0mg"},{"bike_id":"9df5e7f3-1cb9-43a4-9683-68d4da00ac21","system_id":"levelo_inurba_marseille","lat":43.25,"lon":5.38902,"is_reserved":false,"is_disabled":false,"rental_uris":{"android":"levelo://app?vid=9df5e7f3-1cb9-43a4-9683-68d4da00ac21","ios":"levelo://app?vid=9df5e7f3-1cb9-43a4-9683-68d4da00ac21"},"vehicle_type_id":"4","last_reported":1784470738,"current_range_meters":11200,"station_id":"ce4bhgp2rcd13ifvqfd0","pricing_plan_id":"cebpf4jnsgd1na2vs0mg"},{"bike_id":"5450c789-a3b5-4b2b-b675-738dbe9d501d","system_id":"levelo_inurba_marseille","lat":43.26208,"lon":5.37443,"is_reserved":false,"is_disabled":false,"rental_uris":{"android":"levelo://app?vid=5450c789-a3b5-4b2b-b675-738dbe9d501d","ios":"levelo://app?vid=5450c789-a3b5-4b2b-b675-738dbe9d501d"},"vehicle_type_id":"4","last_reported":1784470738,"current_range_meters":38400,"station_id":"ce4bhgp2rcd13ifvqfc0","pricing_plan_id":"cebpf4jnsgd1na2vs0mg"},{"bike_id":"7ae0bf89-94c1-4ac8-bdab-62772f51f504","system_id":"levelo_inurba_marseille","lat":43.30796,"lon":5.3764,"is_reserved":false,"is_disabled":false,"rental_uris":{"android":"levelo://app?vid=7ae0bf89-94c1-4ac8-bdab-62772f51f504","ios":"levelo://app?vid=7ae0bf89-94c1-4ac8-bdab-62772f51f504"},"vehicle_type_id":"4","last_reported":1784470738,"current_range_meters":39200,"station_id":"ce4bgv92rcd13ifvqcq0","pricing_plan_id":"cebpf4jnsgd1na2vs0mg"},{"bike_id":"6dcae072-db9d-47d6-8753-8b202b7aab14","system_id":"levelo_inurba_marseille","lat":43.26387,"lon":5.4109,"is_reserved":false,"is_disabled":false,"rental_uris":{"android":"levelo://app?vid=6dcae072-db9d-47d6-8753-8b202b7aab14","ios":"levelo://app?vid=6dcae072-db9d-47d6-8753-8b202b7aab14"},"vehicle_type_id":"4","last_reported":1784470738,"current_range_meters":28000,"station_id":"st_d4e5ca6na9uc73bfl5fg","pricing_plan_id":"cebpf4jnsgd1na2vs0mg"},{"bike_id":"4deb96f7-77bc-4d03-b05f-9badc81e8841","system_id":"levelo_inurba_marseille","lat":43.225225,"lon":5.34832,"is_reserved":false,"is_disabled":false,"rental_uris":{"android":"levelo://app?vid=4deb96f7-77bc-4d03-b05f-9badc81e8841","ios":"levelo://app?vid=4deb96f7-77bc-4d03-b05f-9badc81e8841"},"vehicle_type_id":"4","last_reported":1784470738,"current_range_meters":16000,"station_id":"st_cvj5dfep6f1abm77gieg","pricing_plan_id":"cebpf4jnsgd1na2vs0mg"},{"bike_id":"659a68bc-86a6-4daf-9f1f-d3e7a32b91b8","system_id":"levelo_inurba_marseille","lat":43.23192,"lon":5.35562,"is_reserved":false,"is_disabled":false,"rental_uris":{"android":"levelo://app?vid=659a68bc-86a6-4daf-9f1f-d3e7a32b91b8","ios":"levelo://app?vid=659a68bc-86a6-4daf-9f1f-d3e7a32b91b8"},"vehicle_type_id":"4","last_reported":1784470738,"current_range_meters":36800,"station_id":"ce4bhu92rcd13ifvqi70","pricing_plan_id":"cebpf4jnsgd1na2vs0mg"},{"bike_id":"a2adc6d8-2983-4c98-9f50-01e11326eb14","system_id":"levelo_inurba_marseille","lat":43.29864,"lon":5.36284,"is_reserved":false,"is_disabled":false,"rental_uris":{"android":"levelo://app?vid=a2adc6d8-2983-4c98-9f50-01e11326eb14","ios":"levelo://app?vid=a2adc6d8-2983-4c98-9f50-01e11326eb14"},"vehicle_type_id":"4","last_reported":1784470738,"current_range_meters":38000,"station_id":"ce4bgpp2rcd13ifvqc3g","pricing_plan_id":"cebpf4jnsgd1na2vs0mg"},{"bike_id":"3149bb10-8899-40f2-9fa5-1d3497f02be3","system_id":"levelo_inurba_marseille","lat":43.29013,"lon":5.35602,"is_reserved":false,"is_disabled":false,"rental_uris":{"android":"levelo://app?vid=3149bb10-8899-40f2-9fa5-1d3497f02be3","ios":"levelo://app?vid=3149bb10-8899-40f2-9fa5-1d3497f02be3"},"vehicle_type_id":"4","last_reported":1784470738,"current_range_meters":8000,"station_id":"ce4bhb92rcd13ifvqen0","pricing_plan_id":"cebpf4jnsgd1na2vs0mg"},{"bike_id":"19a24c92-086c-4d17-81bc-ecdfd478113f","system_id":"levelo_inurba_marseille","lat":43.27981,"lon":5.38746,"is_reserved":false,"is_disabled":false,"rental_uris":{"android":"levelo://app?vid=19a24c92-086c-4d17-81bc-ecdfd478113f","ios":"levelo://app?vid=19a24c92-086c-4d17-81bc-ecdfd478113f"},"vehicle_type_id":"4","last_reported":1784470738,"current_range_meters":25600,"station_id":"ce4bhg12rcd13ifvqf80","pricing_plan_id":"cebpf4jnsgd1na2vs0mg"},{"bike_id":"e9b6fa96-e389-47f2-b497-d6544dab07f1","system_id":"levelo_inurba_marseille","lat":43.28907,"lon":5.36649,"is_reserved":false,"is_disabled":false,"rental_uris":{"android":"levelo://app?vid=e9b6fa96-e389-47f2-b497-d6544dab07f1","ios":"levelo://app?vid=e9b6fa96-e389-47f2-b497-d6544dab07f1"},"vehicle_type_id":"4","last_reported":1784470738,"current_range_meters":17600,"station_id":"ce4bhap2rcd13ifvqek0","pricing_plan_id":"cebpf4jnsgd1na2vs0mg"},{"bike_id":"d74108d3-d543-454b-97af-d06941c42c19","system_id":"levelo_inurba_marseille","lat":43.26933,"lon":5.38912,"is_reserved":false,"is_disabled":false,"rental_uris":{"android":"levelo://app?vid=d74108d3-d543-454b-97af-d06941c42c19","ios":"levelo://app?vid=d74108d3-d543-454b-97af-d06941c42c19"},"vehicle_type_id":"4","last_reported":1784470738,"current_range_meters":40000,"station_id":"ce4bhhh2rcd13ifvqfl0","pricing_plan_id":"cebpf4jnsgd1na2vs0mg"},{"bike_id":"0fd64a27-ac7d-4f5f-833c-0919e9d92b60","system_id":"levelo_inurba_marseille","lat":43.21189,"lon":5.35067,"is_reserved":false,"is_disabled":false,"rental_uris":{"android":"levelo://app?vid=0fd64a27-ac7d-4f5f-833c-0919e9d92b60","ios":"levelo://app?vid=0fd64a27-ac7d-4f5f-833c-0919e9d92b60"},"vehicle_type_id":"4","last_reported":1784470738,"current_range_meters":10000,"station_id":"st_cvj6sg6p6f1abm77japg","pricing_plan_id":"cebpf4jnsgd1na2vs0mg"},{"bike_id":"5a29e6f3-d0ba-49e7-af5d-f8e60471c1fc","system_id":"levelo_inurba_marseille","lat":43.27454,"lon":5.42496,"is_reserved":false,"is_disabled":true,"rental_uris":{"android":"levelo://app?vid=5a29e6f3-d0ba-49e7-af5d-f8e60471c1fc","ios":"levelo://app?vid=5a29e6f3-d0ba-49e7-af5d-f8e60471c1fc"},"vehicle_type_id":"4","last_reported":1784470738,"current_range_meters":2800,"station_id":"st_d8t4bh7nbrqs73arha60","pricing_plan_id":"cebpf4jnsgd1na2vs0mg"},{"bike_id":"6e2d7e69-8df1-40a6-90f7-e69b5c931535","system_id":"levelo_inurba_marseille","lat":43.229331,"lon":5.353792,"is_reserved":false,"is_disabled":false,"rental_uris":{"android":"levelo://app?vid=6e2d7e69-8df1-40a6-90f7-e69b5c931535","ios":"levelo://app?vid=6e2d7e69-8df1-40a6-90f7-e69b5c931535"},"vehicle_type_id":"4","last_reported":1784470738,"current_range_meters":22800,"station_id":"st_cvj5dfep6f1abm77gieg","pricing_plan_id":"cebpf4jnsgd1na2vs0mg"},{"bike_id":"d3b82640-d84c-42c7-8c57-b5a14f4fcab5","system_id":"levelo_inurba_marseille","lat":43.30887,"lon":5.37196,"is_reserved":false,"is_disabled":false,"rental_uris":{"android":"levelo://app?vid=d3b82640-d84c-42c7-8c57-b5a14f4fcab5","ios":"levelo://app?vid=d3b82640-d84c-42c7-8c57-b5a14f4fcab5"},"vehicle_type_id":"4","last_reported":1784470738,"current_range_meters":31200,"station_id":"ce4bguh2rcd13ifvqckg","pricing_plan_id":"cebpf4jnsgd1na2vs0mg"},{"bike_id":"caee839e-3dfa-4533-aac6-88c6d8bfd134","system_id":"levelo_inurba_marseille","lat":43.31129,"lon":5.46442,"is_reserved":false,"is_disabled":false,"rental_uris":{"android":"levelo://app?vid=caee839e-3dfa-4533-aac6-88c6d8bfd134","ios":"levelo://app?vid=caee839e-3dfa-4533-aac6-88c6d8bfd134"},"vehicle_type_id":"4","last_reported":1784470738,"current_range_meters":12800,"station_id":"","pricing_plan_id":"cebpf4jnsgd1na2vs0mg"},