{"last_updated":1745997030,"ttl":60,"version":"2.2","data":{"bikes":[{"bike_id":"a53ac44d-3031-4c58-a0e6-9beae4086c62","system_id":"levelo_inurba_marseille","lat":43.29042,"lon":5.3996,"is_reserved":false,"is_disabled":true,"rental_uris":{"android":"levelo://app?vid=a53ac44d-3031-4c58-a0e6-9beae4086c62","ios":"levelo://app?vid=a53ac44d-3031-4c58-a0e6-9beae4086c62"},"vehicle_type_id":"4","last_reported":1745997030,"current_range_meters":2800,"station_id":"ce4bh392rcd13ifvqdm0","pricing_plan_id":"cebpf4jnsgd1na2vs0mg"},{"bike_id":"cf0073c9-7d2b-4f17-8801-31f9037460e6","system_id":"levelo_inurba_marseille","lat":43.30184,"lon":5.36624,"is_reserved":false,"is_disabled":false,"rental_uris":{"android":"levelo://app?vid=cf0073c9-7d2b-4f17-8801-31f9037460e6","ios":"levelo://app?vid=cf0073c9-7d2b-4f17-8801-31f9037460e6"},"vehicle_type_id":"4","last_reported":1745997030,"current_range_meters":2800,"station_id":"ce4bgrh2rcd13ifvqc8g","pricing_plan_id":"cebpf4jnsgd1na2vs0mg"},{"bike_id":"672a6a9b-16c0-4898-8964-08b2766bfb0e","system_id":"levelo_inurba_marseille","lat":43.2509,"lon":5.39526,"is_reserved":false,"is_disabled":false,"rental_uris":{"android":"levelo://app?vid=672a6a9b-16c0-4898-8964-08b2766bfb0e","ios":"levelo://app?vid=672a6a9b-16c0-4898-8964-08b2766bfb0e"},"vehicle_type_id":"4","last_reported":1745997030,"current_range_meters":2800,"station_id":"ce4bhm12rcd13ifvqgkg","pricing_plan_id":"cebpf4jnsgd1na2vs0mg"},{"bike_id":"c30ab31e-1f1a-4874-94cb-82d2bc24b76c","system_id":"levelo_inurba_marseille","lat":43.30951,"lon":5.39039,"is_reserved":false,"is_disabled":false,"rental_uris":{"android":"levelo://app?vid=c30ab31e-1f1a-4874-94cb-82d2bc24b76c","ios":"levelo://app?vid=c30ab31e-1f1a-4874-94cb-82d2bc24b76c"},"vehicle_type_id":"4","last_reported":1745997030,"current_range_meters":2800,"station_id":"ce4bgup2rcd13ifvqco0","pricing_plan_id":"cebpf4jnsgd1na2vs0mg"},{"bike_id":"775481df-05c4-4f0e-8a67-b66aedbeddcf","system_id":"levelo_inurba_marseille","lat":43.24181,"lon":5.3981,"is_reserved":false,"is_disabled":false,"rental_uris":{"android":"levelo://app?vid=775481df-05c4-4f0e-8a67-b66aedbeddcf","ios":"levelo://app?vid=775481df-05c4-4f0e-8a67-b66aedbeddcf"},"vehicle_type_id":"4","last_reported":1745997030,"current_range_meters":3200,"station_id":"ce4bhn12rcd13ifvqgpg","pricing_plan_id":"cebpf4jnsgd1na2vs0mg"},{"bike_id":"260981a5-60d4-4b38-97de-5fb58feade6c","system_id":"levelo_inurba_marseille","lat":43.240708,"lon":5.377641,"is_reserved":false,"is_disabled":false,"rental_uris":{"android":"levelo://app?vid=260981a5-60d4-4b38-97de-5fb58feade6c","ios":"levelo://app?vid=260981a5-60d4-4b38-97de-5fb58feade6c"},"vehicle_type_id":"4","last_reported":1745997030,"current_range_meters":3200,"station_id":"ce4bhnp2rcd13ifvqgvg","pricing_plan_id":"cebpf4jnsgd1na2vs0mg"},{"bike_id":"c847c66a-5d4b-43a0-b8ce-3c816716271e","system_id":"levelo_inurba_marseille","lat":43.29,"lon":5.35609,"is_reserved":false,"is_disabled":true,"rental_uris":{"android":"levelo://app?vid=c847c66a-5d4b-43a0-b8ce-3c816716271e","ios":"levelo://app?vid=c847c66a-5d4b-43a0-b8ce-3c816716271e"},"vehicle_type_id":"4","last_reported":1745997030,"current_range_meters":3200,"station_id":"ce4bhb92rcd13ifvqen0","pricing_plan_id":"cebpf4jnsgd1na2vs0mg"},{"bike_id":"f4f3d45c-ca6b-4daa-9e02-299e4301416d","system_id":"levelo_inurba_marseille","lat":43.313377,"lon":5.367203,"is_reserved":false,"is_disabled":false,"rental_uris":{"android":"levelo://app?vid=f4f3d45c-ca6b-4daa-9e02-299e4301416d","ios":"levelo://app?vid=f4f3d45c-ca6b-4daa-9e02-299e4301416d"},"vehicle_type_id":"4","last_reported":1745997030,"current_range_meters":3200,"station_id":"ce4bgr92rcd13ifvqc6g","pricing_plan_id":"cebpf4jnsgd1na2vs0mg"},{"bike_id":"d6fd7863-7cc4-45aa-bfea-985dd53bc2dc","system_id":"levelo_inurba_marseille","lat":43.24088,"lon":5.37748,"is_reserved":false,"is_disabled":false,"rental_uris":{"android":"levelo://app?vid=d6fd7863-7cc4-45aa-bfea-985dd53bc2dc","ios":"levelo://app?vid=d6fd7863-7cc4-45aa-bfea-985dd53bc2dc"},"vehicle_type_id":"4","last_reported":1745997030,"current_range_meters":3200,"station_id":"ce4bhnp2rcd13ifvqgvg","pricing_plan_id":"cebpf4jnsgd1na2vs0mg"},{"bike_id":"dc0f4ab9-c4b9-4616-bf36-5f4c14e2ea12","system_id":"levelo_inurba_marseille","lat":43.23145,"lon":5.43715,"is_reserved":false,"is_disabled":false,"rental_uris":{"android":"levelo://app?vid=dc0f4ab9-c4b9-4616-bf36-5f4c14e2ea12","ios":"levelo://app?vid=dc0f4ab9-c4b9-4616-bf36-5f4c14e2ea12"},"vehicle_type_id":"4","last_reported":1745997030,"current_range_meters":3600,"station_id":"ce4bhmp2rcd13ifvqgog","pricing_plan_id":"cebpf4jnsgd1na2vs0mg"},{"bike_id":"a4da0df6-08ac-4a21-b55f-4c4df575fa3f","system_id":"levelo_inurba_marseille","lat":43.30147,"lon":5.37375,"is_reserved":false,"is_disabled":false,"rental_uris":{"android":"levelo://app?vid=a4da0df6-08ac-4a21-b55f-4c4df575fa3f","ios":"levelo://app?vid=a4da0df6-08ac-4a21-b55f-4c4df575fa3f"},"vehicle_type_id":"4","last_reported":1745997030,"current_range_meters":3600,"station_id":"ce4bgs92rcd13ifvqcc0","pricing_plan_id":"cebpf4jnsgd1na2vs0mg"},{"bike_id":"4e921bd6-7318-4e59-bc63-645afd4ef569","system_id":"levelo_inurba_marseille","lat":43.24156,"lon":5.36415,"is_reserved":false,"is_disabled":false,"rental_uris":{"android":"levelo://app?vid=4e921bd6-7318-4e59-bc63-645afd4ef569","ios":"levelo://app?vid=4e921bd6-7318-4e59-bc63-645afd4ef569"},"vehicle_type_id":"4","last_reported":1745997030,"current_range_meters":3600,"station_id":"cpo36qri1sfpv3e86is0","pricing_plan_id":"cebpf4jnsgd1na2vs0mg"},{"bike_id":"b039c152-f87b-436a-9b54-3e5c0bb27b9c","system_id":"levelo_inurba_marseille","lat":43.28933,"lon":5.39632,"is_reserved":false,"is_disabled":false,"rental_uris":{"android":"levelo://app?vid=b039c152-f87b-436a-9b54-3e5c0bb27b9c","ios":"levelo://app?vid=b039c152-f87b-436a-9b54-3e5c0bb27b9c"},"vehicle_type_id":"4","last_reported":1745997030,"current_range_meters":3600,"station_id":"ce4bh3h2rcd13ifvqdn0","pricing_plan_id":"cebpf4jnsgd1na2vs0mg"},{"bike_id":"62f1feb1-79b3-4f99-86aa-7a78b9e383d0","system_id":"levelo_inurba_marseille","lat":43.29798,"lon":5.38104,"is_reserved":false,"is_disabled":false,"rental_uris":{"android":"levelo://app?vid=62f1feb1-79b3-4f99-86aa-7a78b9e383d0","ios":"levelo://app?vid=62f1feb1-79b3-4f99-86aa-7a78b9e383d0"},"vehicle_type_id":"4","last_reported":1745997030,"current_range_meters":4400,"station_id":"ce4bgip2rcd13ifvqbb0","pricing_plan_id":"cebpf4jnsgd1na2vs0mg"},{"bike_id":"edc68454-2cd2-4da4-8ea4-02eb28749099","system_id":"levelo_inurba_marseille","lat":43.3019,"lon":5.36629,"is_reserved":false,"is_disabled":false,"rental_uris":{"android":"levelo://app?vid=edc68454-2cd2-4da4-8ea4-02eb28749099","ios":"levelo://app?vid=edc68454-2cd2-4da4-8ea4-02eb28749099"},"vehicle_type_id":"4","last_reported":1745997030,"current_range_meters":4000,"station_id":"ce4bgrh2rcd13ifvqc8g","pricing_plan_id":"cebpf4jnsgd1na2vs0mg"},{"bike_id":"7e0931b7-f458-44ed-bd13-1db1040caecc","system_id":"levelo_inurba_marseille","lat":43.27491,"lon":5.42449,"is_reserved":false,"is_disabled":false,"rental_uris":{"android":"levelo://app?vid=7e0931b7-f458-44ed-bd13-1db1040caecc","ios":"levelo://app?vid=7e0931b7-f458-44ed-bd13-1db1040caecc"},"vehicle_type_id":"4","last_reported":1745997030,"current_range_meters":4000,"station_id":"ce4bhn92rcd13ifvqgrg","pricing_plan_id":"cebpf4jnsgd1na2vs0mg"},{"bike_id":"d202ae7d-47a3-4fd9-be61-3c9251cb9a5c","system_id":"levelo_inurba_marseille","lat":43.26783,"lon":5.39414,"is_reserved":false,"is_disabled":false,"rental_uris":{"android":"levelo://app?vid=d202ae7d-47a3-4fd9-be61-3c9251cb9a5c","ios":"levelo://app?vid=d202ae7d-47a3-4fd9-be61-3c9251cb9a5c"},"vehicle_type_id":"4","last_reported":1745997030,"current_range_meters":3600,"station_id":"ce4bhh12rcd13ifvqfg0","pricing_plan_id":"cebpf4jnsgd1na2vs0mg"},{"bike_id":"c78abdf1-a26f-4005-90c0-54df6519587b","system_id":"levelo_inurba_marseille","lat":43.31338,"lon":5.36712,"is_reserved":false,"is_disabled":false,"rental_uris":{"android":"levelo://app?vid=c78abdf1-a26f-4005-90c0-54df6519587b","ios":"levelo://app?vid=c78abdf1-a26f-4005-90c0-54df6519587b"},"vehicle_type_id":"4","last_reported":1745997030,"current_range_meters":4000,"station_id":"ce4bgr92rcd13ifvqc6g","pricing_plan_id":"cebpf4jnsgd1na2vs0mg"},{"bike_id":"aee3e833-e535-4370-ae33-f02b54b387f3","system_id":"levelo_inurba_marseille","lat":43.309505,"lon":5.3904,"is_reserved":false,"is_disabled":false,"rental_uris":{"android":"levelo://app?vid=aee3e833-e535-4370-ae33-f02b54b387f3","ios":"levelo://app?vid=aee3e833-e535-4370-ae33-f02b54b387f3"},"vehicle_type_id":"4","last_reported":1745997030,"current_range_meters":4000,"station_id":"ce4bgup2rcd13ifvqco0","pricing_plan_id":"cebpf4jnsgd1na2vs0mg"},{"bike_id":"6cb88dbe-b279-41fd-8fa4-663de3733e5c","system_id":"levelo_inurba_marseille","lat":43.29197,"lon":5.39335,"is_reserved":false,"is_disabled":false,"rental_uris":{"android":"levelo://app?vid=6cb88dbe-b279-41fd-8fa4-663de3733e5c","ios":"levelo://app?vid=6cb88dbe-b279-41fd-8fa4-663de3733e5c"},"vehicle_type_id":"4","last_reported":1745997030,"current_range_meters":4400,"station_id":"ce4bh192rcd13ifvqdd0","pricing_plan_id":"cebpf4jnsgd1na2vs0mg"},{"bike_id":"51ac460c-c23f-45b1-8fdc-9fc33cd0ee4c","system_id":"levelo_inurba_marseille","lat":43.27935,"lon":5.41047,"is_reserved":false,"is_disabled":false,"rental_uris":{"android":"levelo://app?vid=51ac460c-c23f-45b1-8fdc-9fc33cd0ee4c","ios":"levelo://app?vid=51ac460c-c23f-45b1-8fdc-9fc33cd0ee4c"},"vehicle_type_id":"4","last_reported":1745997030,"current_range_meters":4400,"station_id":"ce4bhnp2rcd13ifvqh0g","pricing_plan_id":"cebpf4jnsgd1na2vs0mg"},{"bike_id":"0caaa682-70e7-4136-ad1e-28347c22b9f6","system_id":"levelo_inurba_marseille","lat":43.30954,"lon":5.39032,"is_reserved":false,"is_disabled":false,"rental_uris":{"android":"levelo://app?vid=0caaa682-70e7-4136-ad1e-28347c22b9f6","ios":"levelo://app?vid=0caaa682-70e7-4136-ad1e-28347c22b9f6"},"vehicle_type_id":"4","last_reported":1745997030,"current_range_meters":4400,"station_id":"ce4bgup2rcd13ifvqco0","pricing_plan_id":"cebpf4jnsgd1na2vs0mg"},{"bike_id":"646ac322-893c-400d-9763-6847b62d2886","system_id":"levelo_inurba_marseille","lat":43.26701,"lon":5.38278,"is_reserved":false,"is_disabled":false,"rental_uris":{"android":"levelo://app?vid=646ac322-893c-400d-9763-6847b62d2886","ios":"levelo://app?vid=646ac322-893c-400d-9763-6847b62d2886"},"vehicle_type_id":"4","last_reported":1745997030,"current_range_meters":4800,"station_id":"ce4bhg92rcd13ifvqf90","pricing_plan_id":"cebpf4jnsgd1na2vs0mg"},{"bike_id":"1b02f6ac-0c86-478b-9e80-c6da74c14e38","system_id":"levelo_inurba_marseille","lat":43.24162,"lon":5.36401,"is_reserved":false,"is_disabled":false,"rental_uris":{"android":"levelo://app?vid=1b02f6ac-0c86-478b-9e80-c6da74c14e38","ios":"levelo://app?vid=1b02f6ac-0c86-478b-9e80-c6da74c14e38"},"vehicle_type_id":"4","last_reported":1745997030,"current_range_meters":4800,"station_id":"","pricing_plan_id":"cebpf4jnsgd1na2vs0mg"},{"bike_id":"e5b4b90d-e268-4de2-98f4-f6d0513f8801","system_id":"levelo_inurba_marseille","lat":43.26555,"lon":5.42207,"is_reserved":false,"is_disabled":false,"rental_uris":{"android":"levelo://app?vid=e5b4b90d-e268-4de2-98f4-f6d0513f8801","ios":"levelo://app?vid=e5b4b90d-e268-4de2-98f4-f6d0513f8801"},"vehicle_type_id":"4","last_reported":1745997030,"current_range_meters":4800,"station_id":"","pricing_plan_id":"cebpf4jnsgd1na2vs0mg"},{"bike_id":"ccc26a95-624c-4379-a9e3-c62b2ff06227","system_id":"levelo_inurba_marseille","lat":43.29089,"lon":5.38135,"is_reserved":false,"is_disabled":false,"rental_uris":{"android":"levelo://app?vid=ccc26a95-624c-4379-a9e3-c62b2ff06227","ios":"levelo://app?vid=ccc26a95-624c-4379-a9e3-c62b2ff06227"},"vehicle_type_id":"4","last_reported":1745997030,"current_range_meters":4400,"station_id":"ce4bh512rcd13ifvqe2g","pricing_plan_id":"cebpf4jnsgd1na2vs0mg"},{"bike_id":"79c82bfc-1a0a-4524-b2f0-6ef22b9d2014","system_id":"levelo_inurba_marseille","lat":43.26787,"lon":5.39411,"is_reserved":false,"is_disabled":false,"rental_uris":{"android":"levelo://app?vid=79c82bfc-1a0a-4524-b2f0-6ef22b9d2014","ios":"levelo://app?vid=79c82bfc-1a0a-4524-b2f0-6ef22b9d2014"},"vehicle_type_id":"4","last_reported":1745997030,"current_range_meters":4800,"station_id":"ce4bhh12rcd13ifvqfg0","pricing_plan_id":"cebpf4jnsgd1na2vs0mg"},{"bike_id":"76b65062-d41f-442f-a979-e10376090b7d","system_id":"levelo_inurba_marseille","lat":43.28616,"lon":5.35105,"is_reserved":false,"is_disabled":false,"rental_uris":{"android":"levelo://app?vid=76b65062-d41f-442f-a979-e10376090b7d","ios":"levelo://app?vid=76b65062-d41f-442f-a979-e10376090b7d"},"vehicle_type_id":"4","last_reported":1745997030,"current_range_meters":5600,"station_id":"ce4bhch2rcd13ifvqeug","pricing_plan_id":"cebpf4jnsgd1na2vs0mg"},{"bike_id":"f1e3c12a-02a3-4893-b9e1-1aacd74f3f49","system_id":"levelo_inurba_marseille","lat":43.32117,"lon":5.36759,"is_reserved":false,"is_disabled":false,"rental_uris":{"android":"levelo://app?vid=f1e3c12a-02a3-4893-b9e1-1aacd74f3f49","ios":"levelo://app?vid=f1e3c12a-02a3-4893-b9e1-1aacd74f3f49"},"vehicle_type_id":"4","last_reported":1745997030,"current_range_meters":6000,"station_id":"ce4bhrh2rcd13ifvqhug","pricing_plan_id":"cebpf4jnsgd1na2vs0mg"},{"bike_id":"dbdacbe4-4534-4d90-9d33-96b20d3b7463","system_id":"levelo_inurba_marseille","lat":43.292192,"lon":5.400167,"is_reserved":false,"is_disabled":false,"rental_uris":{"android":"levelo://app?vid=dbdacbe4-4534-4d90-9d33-96b20d3b7463","ios":"levelo://app?vid=dbdacbe4-4534-4d90-9d33-96b20d3b7463"},"vehicle_type_id":"4","last_reported":1745997030,"current_range_meters":6000,"station_id":"","pricing_plan_id":"cebpf4jnsgd1na2vs0mg"},{"bike_id":"4577a91f-e368-43c1-b24d-0d2a382b9199","system_id":"levelo_inurba_marseille","lat":43.29279,"lon":5.4012,"is_reserved":false,"is_disabled":false,"rental_uris":{"android":"levelo://app?vid=4577a91f-e368-43c1-b24d-0d2a382b9199","ios":"levelo://app?vid=4577a91f-e368-43c1-b24d-0d2a382b9199"},"vehicle_type_id":"4","last_reported":1745997030,"current_range_meters":6000,"station_id":"ce4bh312rcd13ifvqdk0","pricing_plan_id":"cebpf4jnsgd1na2vs0mg"},{"bike_id":"738568dc-408d-4c2d-88de-35ad23a92b23","system_id":"levelo_inurba_marseille","lat":43.24161,"lon":5.363949,"is_reserved":false,"is_disabled":false,"rental_uris":{"android":"levelo://app?vid=738568dc-408d-4c2d-88de-35ad23a92b23","ios":"levelo://app?vid=738568dc-408d-4c2d-88de-35ad23a92b23"},"vehicle_type_id":"4","last_reported":1745997030,"current_range_meters":6000,"station_id":"cpo36qri1sfpv3e86is0","pricing_plan_id":"cebpf4jnsgd1na2vs0mg"},{"bike_id":"2c1b33dc-6037-49cc-a203-b73517cb14ac","system_id":"levelo_inurba_marseille","lat":43.28663,"lon":5.454833,"is_reserved":false,"is_disabled":false,"rental_uris":{"android":"levelo://app?vid=2c1b33dc-6037-49cc-a203-b73517cb14ac","ios":"levelo://app?vid=2c1b33dc-6037-49cc-a203-b73517cb14ac"},"vehicle_type_id":"4","last_reported":1745997030,"current_range_meters":6400,"station_id":"","pricing_plan_id":"cebpf4jnsgd1na2vs0mg"},{"bike_id":"6f38b2ef-8c68-4c77-9fb6-fb95536bec70","system_id":"levelo_inurba_marseille","lat":43.26231,"lon":5.4045,"is_reserved":false,"is_disabled":false,"rental_uris":{"android":"levelo://app?vid=6f38b2ef-8c68-4c77-9fb6-fb95536bec70","ios":"levelo://app?vid=6f38b2ef-8c68-4c77-9fb6-fb95536bec70"},"vehicle_type_id":"4","last_reported":1745997030,"current_range_meters":6400,"station_id":"ce4bhmh2rcd13ifvqgmg","pricing_plan_id":"cebpf4jnsgd1na2vs0mg"},{"bike_id":"55ab0c10-5a51-4e46-bb6a-0ec9427efbe1","system_id":"levelo_inurba_marseille","lat":43.321777,"lon":5.382975,"is_reserved":false,"is_disabled":false,"rental_uris":{"android":"levelo://app?vid=55ab0c10-5a51-4e46-bb6a-0ec9427efbe1","ios":"levelo://app?vid=55ab0c10-5a51-4e46-bb6a-0ec9427efbe1"},"vehicle_type_id":"4","last_reported":1745997030,"current_range_meters":6400,"station_id":"ce4bhr12rcd13ifvqhqg","pricing_plan_id":"cebpf4jnsgd1na2vs0mg"},{"bike_id":"12272519-edfa-4f4d-9934-35c95b3db974","system_id":"levelo_inurba_marseille","lat":43.31209,"lon":5.36834,"is_reserved":false,"is_disabled":false,"rental_uris":{"android":"levelo://app?vid=12272519-edfa-4f4d-9934-35c95b3db974","ios":"levelo://app?vid=12272519-edfa-4f4d-9934-35c95b3db974"},"vehicle_type_id":"4","last_reported":1745997030,"current_range_meters":6000,"station_id":"ce4bgl92rcd13ifvqbq0","pricing_plan_id":"cebpf4jnsgd1na2vs0mg"},{"bike_id":"a99c69af-11af-4084-b981-f99dcf2cc5c5","system_id":"levelo_inurba_marseille","lat":43.29511,"lon":5.394,"is_reserved":false,"is_disabled":false,"rental_uris":{"android":"levelo://app?vid=a99c69af-11af-4084-b981-f99dcf2cc5c5","ios":"levelo://app?vid=a99c69af-11af-4084-b981-f99dcf2cc5c5"},"vehicle_type_id":"4","last_reported":1745997030,"current_range_meters":6000,"station_id":"ce4bh292rcd13ifvqdf0","pricing_plan_id":"cebpf4jnsgd1na2vs0mg"},{"bike_id":"f9baf2cc-ac85-4d36-b45e-aae0918a3b15","system_id":"levelo_inurba_marseille","lat":43.2694,"lon":5.40265,"is_reserved":false,"is_disabled":false,"rental_uris":{"android":"levelo://app?vid=f9baf2cc-ac85-4d36-b45e-aae0918a3b15","ios":"levelo://app?vid=f9baf2cc-ac85-4d36-b45e-aae0918a3b15"},"vehicle_type_id":"4","last_reported":1745997030,"current_range_meters":6400,"station_id":"cjm6bp8fraef2m0cb0m0","pricing_plan_id":"cebpf4jnsgd1na2vs0mg"},{"bike_id":"7c49a9c0-b25b-4eee-944b-cbe00df8be68","system_id":"levelo_inurba_marseille","lat":43.30545,"lon":5.365493,"is_reserved":false,"is_disabled":false,"rental_uris":{"android":"levelo://app?vid=7c49a9c0-b25b-4eee-944b-cbe00df8be68","ios":"levelo://app?vid=7c49a9c0-b25b-4eee-944b-cbe00df8be68"},"vehicle_type_id":"4","last_reported":1745997030,"current_range_meters":6400,"station_id":"ce4bgs12rcd13ifvqcag","pricing_plan_id":"cebpf4jnsgd1na2vs0mg"},{"bike_id":"8d1bbdaa-d699-483b-a28a-8744f208e5f3","system_id":"levelo_inurba_marseille","lat":43.30312,"lon":5.36492,"is_reserved":false,"is_disabled":false,"rental_uris":{"android":"levelo://app?vid=8d1bbdaa-d699-483b-a28a-8744f208e5f3","ios":"levelo://app?vid=8d1bbdaa-d699-483b-a28a-8744f208e5f3"},"vehicle_type_id":"4","last_reported":1745997030,"current_range_meters":6400,"station_id":"","pricing_plan_id":"cebpf4jnsgd1na2vs0mg"},{"bike_id":"b2894329-a128-4342-b00c-33e416579142","system_id":"levelo_inurba_marseille","lat":43.24049,"lon":5.3777,"is_reserved":false,"is_disabled":false,"rental_uris":{"android":"levelo://app?vid=b2894329-a128-4342-b00c-33e416579142","ios":"levelo://app?vid=b2894329-a128-4342-b00c-33e416579142"},"vehicle_type_id":"4","last_reported":1745997030,"current_range_meters":6800,"station_id":"ce4bhnp2rcd13ifvqgvg","pricing_plan_id":"cebpf4jnsgd1na2vs0mg"},{"bike_id":"87d8ee21-f698-4625-a704-b091139c556d","system_id":"levelo_inurba_marseille","lat":43.30319,"lon":5.40446,"is_reserved":false,"is_disabled":false,"rental_uris":{"android":"levelo://app?vid=87d8ee21-f698-4625-a704-b091139c556d","ios":"levelo://app?vid=87d8ee21-f698-4625-a704-b091139c556d"},"vehicle_type_id":"4","last_reported":1745997030,"current_range_meters":6800,"station_id":"ce4bh012rcd13ifvqd10","pricing_plan_id":"cebpf4jnsgd1na2vs0mg"},{"bike_id":"58d96813-51d9-4691-82e4-fd7df8625fb2","system_id":"levelo_inurba_marseille","lat":43.30372,"lon":5.4251,"is_reserved":false,"is_disabled":false,"rental_uris":{"android":"levelo://app?vid=58d96813-51d9-4691-82e4-fd7df8625fb2","ios":"levelo://app?vid=58d96813-51d9-4691-82e4-fd7df8625fb2"},"vehicle_type_id":"4","last_reported":1745997030,"current_range_meters":6800,"station_id":"ce4bhoh2rcd13ifvqh6g","pricing_plan_id":"cebpf4jnsgd1na2vs0mg"},{"bike_id":"f30e3f7f-09ca-4f10-81ce-3d826e2b8f0e","system_id":"levelo_inurba_marseille","lat":43.29867,"lon":5.39736,"is_reserved":false,"is_disabled":true,"rental_uris":{"android":"levelo://app?vid=f30e3f7f-09ca-4f10-81ce-3d826e2b8f0e","ios":"levelo://app?vid=f30e3f7f-09ca-4f10-81ce-3d826e2b8f0e"},"vehicle_type_id":"4","last_reported":1745997030,"current_range_meters":6800,"station_id":"ce4bh0h2rcd13ifvqd50","pricing_plan_id":"cebpf4jnsgd1na2vs0mg"},{"bike_id":"2019af53-fe8e-4db7-bebc-45fe5bc66cba","system_id":"levelo_inurba_marseille","lat":43.24997,"lon":5.3893,"is_reserved":false,"is_disabled":false,"rental_uris":{"android":"levelo://app?vid=2019af53-fe8e-4db7-bebc-45fe5bc66cba","ios":"levelo://app?vid=2019af53-fe8e-4db7-bebc-45fe5bc66cba"},"vehicle_type_id":"4","last_reported":1745997030,"current_range_meters":6800,"station_id":"ce4bhgp2rcd13ifvqfd0","pricing_plan_id":"cebpf4jnsgd1na2vs0mg"},{"bike_id":"7497e739-0c50-4aa1-9f39-dfb008e37b83","system_id":"levelo_inurba_marseille","lat":43.30946,"lon":5.37148,"is_reserved":false,"is_disabled":false,"rental_uris":{"android":"levelo://app?vid=7497e739-0c50-4aa1-9f39-dfb008e37b83","ios":"levelo://app?vid=7497e739-0c50-4aa1-9f39-dfb008e37b83"},"vehicle_type_id":"4","last_reported":1745997030,"current_range_meters":6800,"station_id":"","pricing_plan_id":"cebpf4jnsgd1na2vs0mg"},{"bike_id":"2793ced2-5460-4602-a9e8-99318c402b13","system_id":"levelo_inurba_marseille","lat":43.2606,"lon":5.39396,"is_reserved":false,"is_disabled":false,"rental_uris":{"android":"levelo://app?vid=2793ced2-5460-4602-a9e8-99318c402b13","ios":"levelo://app?vid=2793ced2-5460-4602-a9e8-99318c402b13"},"vehicle_type_id":"4","last_reported":1745997030,"current_range_meters":8000,"station_id":"ce4bhh92rcd13ifvqfj0","pricing_plan_id":"cebpf4jnsgd1na2vs0mg"},{"bike_id":"f7d434d6-c94a-44aa-85df-690d8ef2922e","system_id":"levelo_inurba_marseille","lat":43.32478,"lon":5.36575,"is_reserved":false,"is_disabled":false,"rental_uris":{"android":"levelo://app?vid=f7d434d6-c94a-44aa-85df-690d8ef2922e","ios":"levelo://app?vid=f7d434d6-c94a-44aa-85df-690d8ef2922e"},"vehicle_type_id":"4","last_reported":1745997030,"current_range_meters":7200,"station_id":"ce4bhs12rcd13ifvqhvg","pricing_plan_id":"cebpf4jnsgd1na2vs0mg"},{"bike_id":"78092922-4f55-4fc4-ad58-8899eaee720a","system_id":"levelo_inurba_marseille","lat":43.31334,"lon":5.36722,"is_reserved":false,"is_disabled":false,"rental_uris":{"android":"levelo://app?vid=78092922-4f55-4fc4-ad58-8899eaee720a","ios":"levelo://app?vid=78092922-4f55-4fc4-ad58-8899eaee720a"},"vehicle_type_id":"4","last_reported":1745997030,"current_range_meters":7200,"station_id":"ce4bgr92rcd13ifvqc6g","pricing_plan_id":"cebpf4jnsgd1na2vs0mg"},{"bike_id":"6b014de0-1d20-4694-a92f-6ae438be1750","system_id":"levelo_inurba_marseille","lat":43.336,"lon":5.41032,"is_reserved":false,"is_disabled":false,"rental_uris":{"android":"levelo://app?vid=6b014de0-1d20-4694-a92f-6ae438be1750","ios":"levelo://app?vid=6b014de0-1d20-4694-a92f-6ae438be1750"},"vehicle_type_id":"4","last_reported":1745997030,"current_range_meters":8000,"station_id":"ce4bhqh2rcd13ifvqhmg","pricing_plan_id":"cebpf4jnsgd1na2vs0mg"},{"bike_id":"715f7c9a-ba82-476e-a819-2bdde5a2a04a","system_id":"levelo_inurba_marseille","lat":43.33615,"lon":5.41019,"is_reserved":false,"is_disabled":false,"rental_uris":{"android":"levelo://app?vid=715f7c9a-ba82-476e-a819-2bdde5a2a04a","ios":"levelo://app?vid=715f7c9a-ba82-476e-a819-2bdde5a2a04a"},"vehicle_type_id":"4","last_reported":1745997030,"current_range_meters":8000,"station_id":"ce4bhqh2rcd13ifvqhmg","pricing_plan_id":"cebpf4jnsgd1na2vs0mg"},{"bike_id":"36e70963-796a-4894-b1db-372ce060bbaa","system_id":"levelo_inurba_marseille","lat":43.30141,"lon":5.37421,"is_reserved":false,"is_disabled":false,"rental_uris":{"android":"levelo://app?vid=36e70963-796a-4894-b1db-372ce060bbaa","ios":"levelo://app?vid=36e70963-796a-4894-b1db-372ce060bbaa"},"vehicle_type_id":"4","last_reported":1745997030,"current_range_meters":8000,"station_id":"ce4bgs92rcd13ifvqcc0","pricing_plan_id":"cebpf4jnsgd1na2vs0mg"},{"bike_id":"4d6c3840-1214-4108-9b23-9d72575a9d95","system_id":"levelo_inurba_marseille","lat":43.25725,"lon":5.41109,"is_reserved":false,"is_disabled":false,"rental_uris":{"android":"levelo://app?vid=4d6c3840-1214-4108-9b23-9d72575a9d95","ios":"levelo://app?vid=4d6c3840-1214-4108-9b23-9d72575a9d95"},"vehicle_type_id":"4","last_reported":1745997030,"current_range_meters":7200,"station_id":"ce4bhkp2rcd13ifvqgd0","pricing_plan_id":"cebpf4jnsgd1na2vs0mg"},{"bike_id":"6b60bf79-15ce-44ac-ae2b-e41f2863a48b","system_id":"levelo_inurba_marseille","lat":43.30232,"lon":5.40027,"is_reserved":false,"is_disabled":false,"rental_uris":{"android":"levelo://app?vid=6b60bf79-15ce-44ac-ae2b-e41f2863a48b","ios":"levelo://app?vid=6b60bf79-15ce-44ac-ae2b-e41f2863a48b"},"vehicle_type_id":"4","last_reported":1745997030,"current_range_meters":8000,"station_id":"ce4bgvh2rcd13ifvqcs0","pricing_plan_id":"cebpf4jnsgd1na2vs0mg"},{"bike_id":"8b56f60d-8e72-44d4-b264-a95f9233998c","system_id":"levelo_inurba_marseille","lat":43.24647,"lon":5.38889,"is_reserved":false,"is_disabled":false,"rental_uris":{"android":"levelo://app?vid=8b56f60d-8e72-44d4-b264-a95f9233998c","ios":"levelo://app?vid=8b56f60d-8e72-44d4-b264-a95f9233998c"},"vehicle_type_id":"4","last_reported":1745997030,"current_range_meters":8000,"station_id":"ce4bhg12rcd13ifvqf60","pricing_plan_id":"cebpf4jnsgd1na2vs0mg"},{"bike_id":"684e90fb-fe84-40c6-baf5-394ed775bb76","system_id":"levelo_inurba_marseille","lat":43.28075,"lon":5.39656,"is_reserved":false,"is_disabled":false,"rental_uris":{"android":"levelo://app?vid=684e90fb-fe84-40c6-baf5-394ed775bb76","ios":"levelo://app?vid=684e90fb-fe84-40c6-baf5-394ed775bb76"},"vehicle_type_id":"4","last_reported":1745997030,"current_range_meters":8000,"station_id":"ce4bho12rcd13ifvqh2g","pricing_plan_id":"cebpf4jnsgd1na2vs0mg"},{"bike_id":"38b0a9f0-c61d-4c7c-b673-e675344dea51","system_id":"levelo_inurba_marseille","lat":43.33604,"lon":5.4103,"is_reserved":false,"is_disabled":false,"rental_uris":{"android":"levelo://app?vid=38b0a9f0-c61d-4c7c-b673-e675344dea51","ios":"levelo://app?vid=38b0a9f0-c61d-4c7c-b673-e675344dea51"},"vehicle_type_id":"4","last_reported":1745997030,"current_range_meters":8000,"station_id":"ce4bhqh2rcd13ifvqhmg","pricing_plan_id":"cebpf4jnsgd1na2vs0mg"},{"bike_id":"7c2b2c51-7de9-43d1-a81f-6c9378455d9d","system_id":"levelo_inurba_marseille","lat":43.30148,"lon":5.38096,"is_reserved":false,"is_disabled":true,"rental_uris":{"android":"levelo://app?vid=7c2b2c51-7de9-43d1-a81f-6c9378455d9d","ios":"levelo://app?vid=7c2b2c51-7de9-43d1-a81f-6c9378455d9d"},"vehicle_type_id":"4","last_reported":1745997030,"current_range_meters":8000,"station_id":"ce4bgjp2rcd13ifvqbh0","pricing_plan_id":"cebpf4jnsgd1na2vs0mg"},{"bike_id":"1862fb6f-61c4-4c09-a828-864ab246ea11","system_id":"levelo_inurba_marseille","lat":43.235205,"lon":5.403409,"is_reserved":false,"is_disabled":false,"rental_uris":{"android":"levelo://app?vid=1862fb6f-61c4-4c09-a828-864ab246ea11","ios":"levelo://app?vid=1862fb6f-61c4-4c09-a828-864ab246ea11"},"vehicle_type_id":"4","last_reported":1745997030,"current_range_meters":8000,"station_id":"","pricing_plan_id":"cebpf4jnsgd1na2vs0mg"},{"bike_id":"c7d4ca92-020f-4c6f-815a-ddc6fdf77b1f","system_id":"levelo_inurba_marseille","lat":43.23471,"lon":5.38032,"is_reserved":false,"is_disabled":false,"rental_uris":{"android":"levelo://app?vid=c7d4ca92-020f-4c6f-815a-ddc6fdf77b1f","ios":"levelo://app?vid=c7d4ca92-020f-4c6f-815a-ddc6fdf77b1f"},"vehicle_type_id":"4","last_reported":1745997030,"current_range_meters":8400,"station_id":"","pricing_plan_id":"cebpf4jnsgd1na2vs0mg"},{"bike_id":"b5718135-12dd-46d9-a786-ed6813857efc","system_id":"levelo_inurba_marseille","lat":43.29556,"lon":5.3752,"is_reserved":false,"is_disabled":false,"rental_uris":{"android":"levelo://app?vid=b5718135-12dd-46d9-a786-ed6813857efc","ios":"levelo://app?vid=b5718135-12dd-46d9-a786-ed6813857efc"},"vehicle_type_id":"4","last_reported":1745997030,"current_range_meters":8400,"station_id":"ce4bgh92rcd13ifvqb50","pricing_plan_id":"cebpf4jnsgd1na2vs0mg"},{"bike_id":"1be6b8de-5ed4-4d8a-9cd6-aeff3b5c0661","system_id":"levelo_inurba_marseille","lat":43.28979,"lon":5.37836,"is_reserved":false,"is_disabled":true,"rental_uris":{"android":"levelo://app?vid=1be6b8de-5ed4-4d8a-9cd6-aeff3b5c0661","ios":"levelo://app?vid=1be6b8de-5ed4-4d8a-9cd6-aeff3b5c0661"},"vehicle_type_id":"4","last_reported":1745997030,"current_range_meters":8800,"station_id":"ce4bh9p2rcd13ifvqed0","pricing_plan_id":"cebpf4jnsgd1na2vs0mg"},{"bike_id":"131ff8bc-4481-4fa3-9b86-ace5b02ecd60","system_id":"levelo_inurba_marseille","lat":43.24088,"lon":5.37748,"is_reserved":false,"is_disabled":false,"rental_uris":{"android":"levelo://app?vid=131ff8bc-4481-4fa3-9b86-ace5b02ecd60","ios":"levelo://app?vid=131ff8bc-4481-4fa3-9b86-ace5b02ecd60"},"vehicle_type_id":"4","last_reported":1745997030,"current_range_meters":8800,"station_id":"ce4bhnp2rcd13ifvqgvg","pricing_plan_id":"cebpf4jnsgd1na2vs0mg"},{"bike_id":"aa633b79-fe17-4442-a8be-a57f766d74e2","system_id":"levelo_inurba_marseille","lat":43.316977,"lon":5.40459,"is_reserved":false,"is_disabled":false,"rental_uris":{"android":"levelo://app?vid=aa633b79-fe17-4442-a8be-a57f766d74e2","ios":"levelo://app?vid=aa633b79-fe17-4442-a8be-a57f766d74e2"},"vehicle_type_id":"4","last_reported":1745997030,"current_range_meters":6800,"station_id":"ce4bh012rcd13ifvqd00","pricing_plan_id":"cebpf4jnsgd1na2vs0mg"},{"bike_id":"9ac7577f-732d-41d4-b57a-e09b6f9bcd68","system_id":"levelo_inurba_marseille","lat":43.2408,"lon":5.3775,"is_reserved":false,"is_disabled":false,"rental_uris":{"android":"levelo://app?vid=9ac7577f-732d-41d4-b57a-e09b6f9bcd68","ios":"levelo://app?vid=9ac7577f-732d-41d4-b57a-e09b6f9bcd68"},"vehicle_type_id":"4","last_reported":1745997030,"current_range_meters":8800,"station_id":"ce4bhnp2rcd13ifvqgvg","pricing_plan_id":"cebpf4jnsgd1na2vs0mg"},{"bike_id":"89eab37f-a9ed-45c4-b830-f2255730261a","system_id":"levelo_inurba_marseille","lat":43.26213,"lon":5.3744,"is_reserved":false,"is_disabled":false,"rental_uris":{"android":"levelo://app?vid=89eab37f-a9ed-45c4-b830-f2255730261a","ios":"levelo://app?vid=89eab37f-a9ed-45c4-b830-f2255730261a"},"vehicle_type_id":"4","last_reported":1745997030,"current_range_meters":8800,"station_id":"ce4bhgp2rcd13ifvqfc0","pricing_plan_id":"cebpf4jnsgd1na2vs0mg"},{"bike_id":"fb40b080-9e6b-4d35-8510-d117e5d15ebf","system_id":"levelo_inurba_marseille","lat":43.31494,"lon":5.37303,"is_reserved":false,"is_disabled":true,"rental_uris":{"android":"levelo://app?vid=fb40b080-9e6b-4d35-8510-d117e5d15ebf","ios":"levelo://app?vid=fb40b080-9e6b-4d35-8510-d117e5d15ebf"},"vehicle_type_id":"4","last_reported":1745997030,"current_range_meters":8800,"station_id":"ce4bgt12rcd13ifvqcd0","pricing_plan_id":"cebpf4jnsgd1na2vs0mg"},{"bike_id":"35da3075-3137-4b3e-a711-fd3461b33500","system_id":"levelo_inurba_marseille","lat":43.28036,"lon":5.36942,"is_reserved":false,"is_disabled":true,"rental_uris":{"android":"levelo://app?vid=35da3075-3137-4b3e-a711-fd3461b33500","ios":"levelo://app?vid=35da3075-3137-4b3e-a711-fd3461b33500"},"vehicle_type_id":"4","last_reported":1745997030,"current_range_meters":8800,"station_id":"ce4bha12rcd13ifvqef0","pricing_plan_id":"cebpf4jnsgd1na2vs0mg"},{"bike_id":"9f4a623e-f5da-4ce8-8a09-5e7161e7255f","system_id":"levelo_inurba_marseille","lat":43.27495,"lon":5.42456,"is_reserved":false,"is_disabled":false,"rental_uris":{"android":"levelo://app?vid=9f4a623e-f5da-4ce8-8a09-5e7161e7255f","ios":"levelo://app?vid=9f4a623e-f5da-4ce8-8a09-5e7161e7255f"},"vehicle_type_id":"4","last_reported":1745997030,"current_range_meters":8800,"station_id":"","pricing_plan_id":"cebpf4jnsgd1na2vs0mg"},{"bike_id":"9a17a8ae-2ab4-4695-9359-18bfdd2dd544","system_id":"levelo_inurba_marseille","lat":43.26209,"lon":5.37441,"is_reserved":false,"is_disabled":false,"rental_uris":{"android":"levelo://app?vid=9a17a8ae-2ab4-4695-9359-18bfdd2dd544","ios":"levelo://app?vid=9a17a8ae-2ab4-4695-9359-18bfdd2dd544"},"vehicle_type_id":"4","last_reported":1745997030,"current_range_meters":8800,"station_id":"ce4bhgp2rcd13ifvqfc0","pricing_plan_id":"cebpf4jnsgd1na2vs0mg"},{"bike_id":"f5c9e254-60b8-4db0-a08d-3560436a0634","system_id":"levelo_inurba_marseille","lat":43.24085,"lon":5.37749,"is_reserved":false,"is_disabled":false,"rental_uris":{"android":"levelo://app?vid=f5c9e254-60b8-4db0-a08d-3560436a0634","ios":"levelo://app?vid=f5c9e254-60b8-4db0-a08d-3560436a0634"},"vehicle_type_id":"4","last_reported":1745997030,"current_range_meters":8800,"station_id":"ce4bhnp2rcd13ifvqgvg","pricing_plan_id":"cebpf4jnsgd1na2vs0mg"},{"bike_id":"91c533d0-e52e-4d85-bf53-16e672a56984","system_id":"levelo_inurba_marseille","lat":43.308887,"lon":5.372027,"is_reserved":false,"is_disabled":true,"rental_uris":{"android":"levelo://app?vid=91c533d0-e52e-4d85-bf53-16e672a56984","ios":"levelo://app?vid=91c533d0-e52e-4d85-bf53-16e672a56984"},"vehicle_type_id":"4","last_reported":1745997030,"current_range_meters":9200,"station_id":"ce4bguh2rcd13ifvqckg","pricing_plan_id":"cebpf4jnsgd1na2vs0mg"},{"bike_id":"f6afadf8-e6ff-4c7a-8692-5caf68fd0b71","system_id":"levelo_inurba_marseille","lat":43.22931,"lon":5.3538,"is_reserved":false,"is_disabled":true,"rental_uris":{"android":"levelo://app?vid=f6afadf8-e6ff-4c7a-8692-5caf68fd0b71","ios":"levelo://app?vid=f6afadf8-e6ff-4c7a-8692-5caf68fd0b71"},"vehicle_type_id":"4","last_reported":1745997030,"current_range_meters":9200,"station_id":"cpo3532slgdg3j2ikp40","pricing_plan_id":"cebpf4jnsgd1na2vs0mg"},{"bike_id":"bd144d6f-b971-4b9c-ac00-3ff747426117","system_id":"levelo_inurba_marseille","lat":43.32535,"lon":5.41449,"is_reserved":false,"is_disabled":false,"rental_uris":{"android":"levelo://app?vid=bd144d6f-b971-4b9c-ac00-3ff747426117","ios":"levelo://app?vid=bd144d6f-b971-4b9c-ac00-3ff747426117"},"vehicle_type_id":"4","last_reported":1745997030,"current_range_meters":8800,"station_id":"ce4bhq12rcd13ifvqhhg","pricing_plan_id":"cebpf4jnsgd1na2vs0mg"},{"bike_id":"e2418363-9a88-483a-adcc-4695c2840aa1","system_id":"levelo_inurba_marseille","lat":43.29872,"lon":5.36278,"is_reserved":false,"is_disabled":false,"rental_uris":{"android":"levelo://app?vid=e2418363-9a88-483a-adcc-4695c2840aa1","ios":"levelo://app?vid=e2418363-9a88-483a-adcc-4695c2840aa1"},"vehicle_type_id":"4","last_reported":1745997030,"current_range_meters":9600,"station_id":"ce4bgpp2rcd13ifvqc3g","pricing_plan_id":"cebpf4jnsgd1na2vs0mg"},{"bike_id":"6461f39d-bb67-478e-8f03-c75ed0f387e0","system_id":"levelo_inurba_marseille","lat":43.26684,"lon":5.38277,"is_reserved":false,"is_disabled":false,"rental_uris":{"android":"levelo://app?vid=6461f39d-bb67-478e-8f03-c75ed0f387e0","ios":"levelo://app?vid=6461f39d-bb67-478e-8f03-c75ed0f387e0"},"vehicle_type_id":"4","last_reported":1745997030,"current_range_meters":9600,"station_id":"ce4bhg92rcd13ifvqf90","pricing_plan_id":"cebpf4jnsgd1na2vs0mg"},{"bike_id":"63d677dd-43a2-4f8a-86ae-1f86b907f8df","system_id":"levelo_inurba_marseille","lat":43.28369,"lon":5.38638,"is_reserved":false,"is_disabled":true,"rental_uris":{"android":"levelo://app?vid=63d677dd-43a2-4f8a-86ae-1f86b907f8df","ios":"levelo://app?vid=63d677dd-43a2-4f8a-86ae-1f86b907f8df"},"vehicle_type_id":"4","last_reported":1745997030,"current_range_meters":9600,"station_id":"ce4bh492rcd13ifvqdvg","pricing_plan_id":"cebpf4jnsgd1na2vs0mg"},{"bike_id":"12622737-a800-4b58-a685-d3f69938f562","system_id":"levelo_inurba_marseille","lat":43.30965,"lon":5.39064,"is_reserved":false,"is_disabled":false,"rental_uris":{"android":"levelo://app?vid=12622737-a800-4b58-a685-d3f69938f562","ios":"levelo://app?vid=12622737-a800-4b58-a685-d3f69938f562"},"vehicle_type_id":"4","last_reported":1745997030,"current_range_meters":9600,"station_id":"ce4bgup2rcd13ifvqco0","pricing_plan_id":"cebpf4jnsgd1na2vs0mg"},{"bike_id":"1c6e2801-d406-4688-a913-a775da6b0f13","system_id":"levelo_inurba_marseille","lat":43.22923,"lon":5.35397,"is_reserved":false,"is_disabled":false,"rental_uris":{"android":"levelo://app?vid=1c6e2801-d406-4688-a913-a775da6b0f13","ios":"levelo://app?vid=1c6e2801-d406-4688-a913-a775da6b0f13"},"vehicle_type_id":"4","last_reported":1745997030,"current_range_meters":9600,"station_id":"cpo3532slgdg3j2ikp40","pricing_plan_id":"cebpf4jnsgd1na2vs0mg"},{"bike_id":"489415b8-9254-45c1-b00c-e7554d56755c","system_id":"levelo_inurba_marseille","lat":43.245208,"lon":5.412226,"is_reserved":false,"is_disabled":false,"rental_uris":{"android":"levelo://app?vid=489415b8-9254-45c1-b00c-e7554d56755c","ios":"levelo://app?vid=489415b8-9254-45c1-b00c-e7554d56755c"},"vehicle_type_id":"4","last_reported":1745997030,"current_range_meters":10000,"station_id":"","pricing_plan_id":"cebpf4jnsgd1na2vs0mg"},{"bike_id":"3ae641eb-772b-47f4-9c6f-a55115e8b3d3","system_id":"levelo_inurba_marseille","lat":43.29176,"lon":5.35815,"is_reserved":false,"is_disabled":true,"rental_uris":{"android":"levelo://app?vid=3ae641eb-772b-47f4-9c6f-a55115e8b3d3","ios":"levelo://app?vid=3ae641eb-772b-47f4-9c6f-a55115e8b3d3"},"vehicle_type_id":"4","last_reported":1745997030,"current_range_meters":10000,"station_id":"ce4bhb12rcd13ifvqel0","pricing_plan_id":"cebpf4jnsgd1na2vs0mg"},{"bike_id":"312629db-7553-4f57-8655-a25196d01b88","system_id":"levelo_inurba_marseille","lat":43.30372,"lon":5.42476,"is_reserved":false,"is_disabled":false,"rental_uris":{"android":"levelo://app?vid=312629db-7553-4f57-8655-a25196d01b88","ios":"levelo://app?vid=312629db-7553-4f57-8655-a25196d01b88"},"vehicle_type_id":"4","last_reported":1745997030,"current_range_meters":10000,"station_id":"ce4bhoh2rcd13ifvqh6g","pricing_plan_id":"cebpf4jnsgd1na2vs0mg"},{"bike_id":"612fbb44-90d3-4a99-89f2-3801a3eff76c","system_id":"levelo_inurba_marseille","lat":43.298637,"lon":5.39737,"is_reserved":false,"is_disabled":false,"rental_uris":{"android":"levelo://app?vid=612fbb44-90d3-4a99-89f2-3801a3eff76c","ios":"levelo://app?vid=612fbb44-90d3-4a99-89f2-3801a3eff76c"},"vehicle_type_id":"4","last_reported":1745997030,"current_range_meters":9600,"station_id":"ce4bh0h2rcd13ifvqd50","pricing_plan_id":"cebpf4jnsgd1na2vs0mg"},{"bike_id":"07edfd45-c3fa-4b57-b865-cf1bf9963264","system_id":"levelo_inurba_marseille","lat":43.23381,"lon":5.36429,"is_reserved":false,"is_disabled":false,"rental_uris":{"android":"levelo://app?vid=07edfd45-c3fa-4b57-b865-cf1bf9963264","ios":"levelo://app?vid=07edfd45-c3fa-4b57-b865-cf1bf9963264"},"vehicle_type_id":"4","last_reported":1745997030,"current_range_meters":10000,"station_id":"","pricing_plan_id":"cebpf4jnsgd1na2vs0mg"},{"bike_id":"ddf42e2f-5ba3-456f-b6b9-71a4fb220f7c","system_id":"levelo_inurba_marseille","lat":43.217464,"lon":5.346205,"is_reserved":false,"is_disabled":false,"rental_uris":{"android":"levelo://app?vid=ddf42e2f-5ba3-456f-b6b9-71a4fb220f7c","ios":"levelo://app?vid=ddf42e2f-5ba3-456f-b6b9-71a4fb220f7c"},"vehicle_type_id":"4","last_reported":1745997030,"current_range_meters":10800,"station_id":"st_cvj6r9ubvosntc0bgbag","pricing_plan_id":"cebpf4jnsgd1na2vs0mg"},{"bike_id":"ba5eea2b-d161-4fc5-bc47-d65e909e5c65","system_id":"levelo_inurba_marseille","lat":43.26949,"lon":5.38634,"is_reserved":false,"is_disabled":false,"rental_uris":{"android":"levelo://app?vid=ba5eea2b-d161-4fc5-bc47-d65e909e5c65","ios":"levelo://app?vid=ba5eea2b-d161-4fc5-bc47-d65e909e5c65"},"vehicle_type_id":"4","last_reported":1745997030,"current_range_meters":10800,"station_id":"ce4bhh92rcd13ifvqfh0","pricing_plan_id":"cebpf4jnsgd1na2vs0mg"},{"bike_id":"9539d15d-ff21-49d1-b3d6-cfed83502aa0","system_id":"levelo_inurba_marseille","lat":43.25919,"lon":5.40865,"is_reserved":false,"is_disabled":false,"rental_uris":{"android":"levelo://app?vid=9539d15d-ff21-49d1-b3d6-cfed83502aa0","ios":"levelo://app?vid=9539d15d-ff21-49d1-b3d6-cfed83502aa0"},"vehicle_type_id":"4","last_reported":1745997030,"current_range_meters":10800,"station_id":"ce4bhm92rcd13ifvqglg","pricing_plan_id":"cebpf4jnsgd1na2vs0mg"},{"bike_id":"a8724545-85b9-47c2-aa9f-6f7333e479f0","system_id":"levelo_inurba_marseille","lat":43.2649,"lon":5.39541,"is_reserved":false,"is_disabled":false,"rental_uris":{"android":"levelo://app?vid=a8724545-85b9-47c2-aa9f-6f7333e479f0","ios":"levelo://app?vid=a8724545-85b9-47c2-aa9f-6f7333e479f0"},"vehicle_type_id":"4","last_reported":1745997030,"current_range_meters":10800,"station_id":"ce4bhi12rcd13ifvqfq0","pricing_plan_id":"cebpf4jnsgd1na2vs0mg"},{"bike_id":"4ce8f652-56ac-4b2e-be10-975121b933c3","system_id":"levelo_inurba_marseille","lat":43.24998,"lon":5.38931,"is_reserved":false,"is_disabled":false,"rental_uris":{"android":"levelo://app?vid=4ce8f652-56ac-4b2e-be10-975121b933c3","ios":"levelo://app?vid=4ce8f652-56ac-4b2e-be10-975121b933c3"},"vehicle_type_id":"4","last_reported":1745997030,"current_range_meters":10800,"station_id":"ce4bhgp2rcd13ifvqfd0","pricing_plan_id":"cebpf4jnsgd1na2vs0mg"},{"bike_id":"185a1102-1d8e-462a-b970-48d21eaf7f6e","system_id":"levelo_inurba_marseille","lat":43.25114,"lon":5.40318,"is_reserved":false,"is_disabled":false,"rental_uris":{"android":"levelo://app?vid=185a1102-1d8e-462a-b970-48d21eaf7f6e","ios":"levelo://app?vid=185a1102-1d8e-462a-b970-48d21eaf7f6e"},"vehicle_type_id":"4","last_reported":1745997030,"current_range_meters":10000,"station_id":"ce4bhlh2rcd13ifvqgig","pricing_plan_id":"cebpf4jnsgd1na2vs0mg"},{"bike_id":"fa3e5774-88e5-4425-a682-efb3896f3394","system_id":"levelo_inurba_marseille","lat":43.2606,"lon":5.39399,"is_reserved":false,"is_disabled":false,"rental_uris":{"android":"levelo://app?vid=fa3e5774-88e5-4425-a682-efb3896f3394","ios":"levelo://app?vid=fa3e5774-88e5-4425-a682-efb3896f3394"},"vehicle_type_id":"4","last_reported":1745997030,"current_range_meters":10800,"station_id":"ce4bhh92rcd13ifvqfj0","pricing_plan_id":"cebpf4jnsgd1na2vs0mg"},{"bike_id":"3a9bd96a-1d84-454e-b55b-a4ef583e3749","system_id":"levelo_inurba_marseille","lat":43.26687,"lon":5.38254,"is_reserved":false,"is_disabled":false,"rental_uris":{"android":"levelo://app?vid=3a9bd96a-1d84-454e-b55b-a4ef583e3749","ios":"levelo://app?vid=3a9bd96a-1d84-454e-b55b-a4ef583e3749"},"vehicle_type_id":"4","last_reported":1745997030,"current_range_meters":10800,"station_id":"ce4bhg92rcd13ifvqf90","pricing_plan_id":"cebpf4jnsgd1na2vs0mg"},{"bike_id":"80930f6b-65cd-47eb-95b6-88a6bf215a1d","system_id":"levelo_inurba_marseille","lat":43.28936,"lon":5.3963,"is_reserved":false,"is_disabled":false,"rental_uris":{"android":"levelo://app?vid=80930f6b-65cd-47eb-95b6-88a6bf215a1d","ios":"levelo://app?vid=80930f6b-65cd-47eb-95b6-88a6bf215a1d"},"vehicle_type_id":"4","last_reported":1745997030,"current_range_meters":10000,"station_id":"ce4bh3h2rcd13ifvqdn0","pricing_plan_id":"cebpf4jnsgd1na2vs0mg"},{"bike_id":"579f5b44-0254-43e1-8d84-2b7449bd76ed","system_id":"levelo_inurba_marseille","lat":43.26202,"lon":5.37932,"is_reserved":false,"is_disabled":false,"rental_uris":{"android":"levelo://app?vid=579f5b44-0254-43e1-8d84-2b7449bd76ed","ios":"levelo://app?vid=579f5b44-0254-43e1-8d84-2b7449bd76ed"},"vehicle_type_id":"4","last_reported":1745997030,"current_range_meters":10800,"station_id":"ce4bhjp2rcd13ifvqg90","pricing_plan_id":"cebpf4jnsgd1na2vs0mg"},{"bike_id":"ac80e985-cfdf-4940-bf6d-bf2ebe2c2fd0","system_id":"levelo_inurba_marseille","lat":43.32118,"lon":5.36786,"is_reserved":false,"is_disabled":false,"rental_uris":{"android":"levelo://app?vid=ac80e985-cfdf-4940-bf6d-bf2ebe2c2fd0","ios":"levelo://app?vid=ac80e985-cfdf-4940-bf6d-bf2ebe2c2fd0"},"vehicle_type_id":"4","last_reported":1745997030,"current_range_meters":11200,"station_id":"ce4bhrh2rcd13ifvqhug","pricing_plan_id":"cebpf4jnsgd1na2vs0mg"},{"bike_id":"c9a387d0-5680-453e-9e3d-29299546eeac","system_id":"levelo_inurba_marseille","lat":43.26952,"lon":5.38633,"is_reserved":false,"is_disabled":false,"rental_uris":{"android":"levelo://app?vid=c9a387d0-5680-453e-9e3d-29299546eeac","ios":"levelo://app?vid=c9a387d0-5680-453e-9e3d-29299546eeac"},"vehicle_type_id":"4","last_reported":1745997030,"current_range_meters":11200,"station_id":"ce4bhh92rcd13ifvqfh0","pricing_plan_id":"cebpf4jnsgd1na2vs0mg"},{"bike_id":"1e6d26b8-fc5d-475f-92ce-0b8d4bd486a5","system_id":"levelo_inurba_marseille","lat":43.30885,"lon":5.36872,"is_reserved":false,"is_disabled":false,"rental_uris":{"android":"levelo://app?vid=1e6d26b8-fc5d-475f-92ce-0b8d4bd486a5","ios":"levelo://app?vid=1e6d26b8-fc5d-475f-92ce-0b8d4bd486a5"},"vehicle_type_id":"4","last_reported":1745997030,"current_range_meters":11600,"station_id":"ce4bgn92rcd13ifvqbvg","pricing_plan_id":"cebpf4jnsgd1na2vs0mg"},{"bike_id":"896a9ae8-2ba0-47fb-9ac1-599a24dc8f59","system_id":"levelo_inurba_marseille","lat":43.29534,"lon":5.39045,"is_reserved":false,"is_disabled":false,"rental_uris":{"android":"levelo://app?vid=896a9ae8-2ba0-47fb-9ac1-599a24dc8f59","ios":"levelo://app?vid=896a9ae8-2ba0-47fb-9ac1-599a24dc8f59"},"vehicle_type_id":"4","last_reported":1745997030,"current_range_meters":11600,"station_id":"ce4bh3p2rcd13ifvqdp0","pricing_plan_id":"cebpf4jnsgd1na2vs0mg"},{"bike_id":"dcb0b990-89f9-495c-a9c1-10b17ae39667","system_id":"levelo_inurba_marseille","lat":43.23493,"lon":5.38035,"is_reserved":false,"is_disabled":false,"rental_uris":{"android":"levelo://app?vid=dcb0b990-89f9-495c-a9c1-10b17ae39667","ios":"levelo://app?vid=dcb0b990-89f9-495c-a9c1-10b17ae39667"},"vehicle_type_id":"4","last_reported":1745997030,"current_range_meters":11600,"station_id":"","pricing_plan_id":"cebpf4jnsgd1na2vs0mg"},{"bike_id":"74cdae9f-98df-44bd-ad12-4876c436eccb","system_id":"levelo_inurba_marseille","lat":43.29374,"lon":5.37842,"is_reserved":false,"is_disabled":false,"rental_uris":{"android":"levelo://app?vid=74cdae9f-98df-44bd-ad12-4876c436eccb","ios":"levelo://app?vid=74cdae9f-98df-44bd-ad12-4876c436eccb"},"vehicle_type_id":"4","last_reported":1745997030,"current_range_meters":11600,"station_id":"ce4bgjh2rcd13ifvqbf0","pricing_plan_id":"cebpf4jnsgd1na2vs0mg"},{"bike_id":"b9c3f7a3-b4aa-4a25-88a4-95c08bea8755","system_id":"levelo_inurba_marseille","lat":43.31221,"lon":5.36857,"is_reserved":false,"is_disabled":false,"rental_uris":{"android":"levelo://app?vid=b9c3f7a3-b4aa-4a25-88a4-95c08bea8755","ios":"levelo://app?vid=b9c3f7a3-b4aa-4a25-88a4-95c08bea8755"},"vehicle_type_id":"4","last_reported":1745997030,"current_range_meters":11200,"station_id":"ce4bgl92rcd13ifvqbq0","pricing_plan_id":"cebpf4jnsgd1na2vs0mg"},{"bike_id":"45a89a7e-0939-4222-8009-804870b292c1","system_id":"levelo_inurba_marseille","lat":43.28268,"lon":5.35065,"is_reserved":false,"is_disabled":false,"rental_uris":{"android":"levelo://app?vid=45a89a7e-0939-4222-8009-804870b292c1","ios":"levelo://app?vid=45a89a7e-0939-4222-8009-804870b292c1"},"vehicle_type_id":"4","last_reported":1745997030,"current_range_meters":11600,"station_id":"ce4bhbp2rcd13ifvqerg","pricing_plan_id":"cebpf4jnsgd1na2vs0mg"},{"bike_id":"ace8e9c6-ba38-4bdc-8cb7-2f900dd8ea3c","system_id":"levelo_inurba_marseille","lat":43.31681,"lon":5.40463,"is_reserved":false,"is_disabled":false,"rental_uris":{"android":"levelo://app?vid=ace8e9c6-ba38-4bdc-8cb7-2f900dd8ea3c","ios":"levelo://app?vid=ace8e9c6-ba38-4bdc-8cb7-2f900dd8ea3c"},"vehicle_type_id":"4","last_reported":1745997030,"current_range_meters":11600,"station_id":"ce4bh012rcd13ifvqd00","pricing_plan_id":"cebpf4jnsgd1na2vs0mg"},{"bike_id":"84c3a1a5-bfbc-4eea-b825-a04fd073fd91","system_id":"levelo_inurba_marseille","lat":43.30942,"lon":5.39037,"is_reserved":false,"is_disabled":false,"rental_uris":{"android":"levelo://app?vid=84c3a1a5-bfbc-4eea-b825-a04fd073fd91","ios":"levelo://app?vid=84c3a1a5-bfbc-4eea-b825-a04fd073fd91"},"vehicle_type_id":"4","last_reported":1745997030,"current_range_meters":12400,"station_id":"ce4bgup2rcd13ifvqco0","pricing_plan_id":"cebpf4jnsgd1na2vs0mg"},{"bike_id":"222e3f8d-3b4d-4506-995d-6015b0fb3047","system_id":"levelo_inurba_marseille","lat":43.30299,"lon":5.36886,"is_reserved":false,"is_disabled":false,"rental_uris":{"android":"levelo://app?vid=222e3f8d-3b4d-4506-995d-6015b0fb3047","ios":"levelo://app?vid=222e3f8d-3b4d-4506-995d-6015b0fb3047"},"vehicle_type_id":"4","last_reported":1745997030,"current_range_meters":12400,"station_id":"ce4bgqh2rcd13ifvqc5g","pricing_plan_id":"cebpf4jnsgd1na2vs0mg"},{"bike_id":"ad58fe33-c531-4ba7-8040-7b7450caf3e5","system_id":"levelo_inurba_marseille","lat":43.29065,"lon":5.40065,"is_reserved":false,"is_disabled":false,"rental_uris":{"android":"levelo://app?vid=ad58fe33-c531-4ba7-8040-7b7450caf3e5","ios":"levelo://app?vid=ad58fe33-c531-4ba7-8040-7b7450caf3e5"},"vehicle_type_id":"4","last_reported":1745997030,"current_range_meters":12400,"station_id":"","pricing_plan_id":"cebpf4jnsgd1na2vs0mg"},{"bike_id":"7592fbbf-f071-4a62-885a-d52b8287bd52","system_id":"levelo_inurba_marseille","lat":43.30268,"lon":5.3769,"is_reserved":false,"is_disabled":false,"rental_uris":{"android":"levelo://app?vid=7592fbbf-f071-4a62-885a-d52b8287bd52","ios":"levelo://app?vid=7592fbbf-f071-4a62-885a-d52b8287bd52"},"vehicle_type_id":"4","last_reported":1745997030,"current_range_meters":12400,"station_id":"ce4bguh2rcd13ifvqcj0","pricing_plan_id":"cebpf4jnsgd1na2vs0mg"},{"bike_id":"351a10a2-c0d7-448b-acc4-bc96e28dd10d","system_id":"levelo_inurba_marseille","lat":43.30909,"lon":5.36845,"is_reserved":false,"is_disabled":false,"rental_uris":{"android":"levelo://app?vid=351a10a2-c0d7-448b-acc4-bc96e28dd10d","ios":"levelo://app?vid=351a10a2-c0d7-448b-acc4-bc96e28dd10d"},"vehicle_type_id":"4","last_reported":1745997030,"current_range_meters":12400,"station_id":"ce4bgn92rcd13ifvqbvg","pricing_plan_id":"cebpf4jnsgd1na2vs0mg"},{"bike_id":"c4bb43c3-c4a8-43f3-8976-c4a6a61946fa","system_id":"levelo_inurba_marseille","lat":43.3108,"lon":5.42429,"is_reserved":false,"is_disabled":false,"rental_uris":{"android":"levelo://app?vid=c4bb43c3-c4a8-43f3-8976-c4a6a61946fa","ios":"levelo://app?vid=c4bb43c3-c4a8-43f3-8976-c4a6a61946fa"},"vehicle_type_id":"4","last_reported":1745997030,"current_range_meters":12400,"station_id":"ce4bhp92rcd13ifvqhag","pricing_plan_id":"cebpf4jnsgd1na2vs0mg"},{"bike_id":"7910b39f-cb83-4884-92c8-59ad24444b4d","system_id":"levelo_inurba_marseille","lat":43.324588,"lon":5.365624,"is_reserved":false,"is_disabled":false,"rental_uris":{"android":"levelo://app?vid=7910b39f-cb83-4884-92c8-59ad24444b4d","ios":"levelo://app?vid=7910b39f-cb83-4884-92c8-59ad24444b4d"},"vehicle_type_id":"4","last_reported":1745997030,"current_range_meters":12400,"station_id":"ce4bhs12rcd13ifvqhvg","pricing_plan_id":"cebpf4jnsgd1na2vs0mg"},{"bike_id":"34b484ab-c0f1-4e55-b51a-e2bafdafb63e","system_id":"levelo_inurba_marseille","lat":43.240768,"lon":5.377285,"is_reserved":false,"is_disabled":false,"rental_uris":{"android":"levelo://app?vid=34b484ab-c0f1-4e55-b51a-e2bafdafb63e","ios":"levelo://app?vid=34b484ab-c0f1-4e55-b51a-e2bafdafb63e"},"vehicle_type_id":"4","last_reported":1745997030,"current_range_meters":12000,"station_id":"ce4bhnp2rcd13ifvqgvg","pricing_plan_id":"cebpf4jnsgd1na2vs0mg"},{"bike_id":"1db9ca2a-10b1-4b9e-aa56-164f2c2ac111","system_id":"levelo_inurba_marseille","lat":43.28373,"lon":5.418506,"is_reserved":false,"is_disabled":false,"rental_uris":{"android":"levelo://app?vid=1db9ca2a-10b1-4b9e-aa56-164f2c2ac111","ios":"levelo://app?vid=1db9ca2a-10b1-4b9e-aa56-164f2c2ac111"},"vehicle_type_id":"4","last_reported":1745997030,"current_range_meters":12400,"station_id":"","pricing_plan_id":"cebpf4jnsgd1na2vs0mg"},{"bike_id":"54ff77d3-1e34-4636-8c3f-49d34b4cf2cd","system_id":"levelo_inurba_marseille","lat":43.26493,"lon":5.39545,"is_reserved":false,"is_disabled":false,"rental_uris":{"android":"levelo://app?vid=54ff77d3-1e34-4636-8c3f-49d34b4cf2cd","ios":"levelo://app?vid=54ff77d3-1e34-4636-8c3f-49d34b4cf2cd"},"vehicle_type_id":"4","last_reported":1745997030,"current_range_meters":12800,"station_id":"ce4bhi12rcd13ifvqfq0","pricing_plan_id":"cebpf4jnsgd1na2vs0mg"},{"bike_id":"19bc52c3-74db-454f-9839-b056878a7608","system_id":"levelo_inurba_marseille","lat":43.266963,"lon":5.382707,"is_reserved":false,"is_disabled":false,"rental_uris":{"android":"levelo://app?vid=19bc52c3-74db-454f-9839-b056878a7608","ios":"levelo://app?vid=19bc52c3-74db-454f-9839-b056878a7608"},"vehicle_type_id":"4","last_reported":1745997030,"current_range_meters":12800,"station_id":"ce4bhg92rcd13ifvqf90","pricing_plan_id":"cebpf4jnsgd1na2vs0mg"},{"bike_id":"672e0d06-6402-44bd-9fe3-79b30c1fa0d1","system_id":"levelo_inurba_marseille","lat":43.28103,"lon":5.37841,"is_reserved":false,"is_disabled":false,"rental_uris":{"android":"levelo://app?vid=672e0d06-6402-44bd-9fe3-79b30c1fa0d1","ios":"levelo://app?vid=672e0d06-6402-44bd-9fe3-79b30c1fa0d1"},"vehicle_type_id":"4","last_reported":1745997030,"current_range_meters":12800,"station_id":"ce4bha12rcd13ifvqee0","pricing_plan_id":"cebpf4jnsgd1na2vs0mg"},{"bike_id":"5c4040f9-47de-4679-a290-7c008949c76f","system_id":"levelo_inurba_marseille","lat":43.27832,"lon":5.392084,"is_reserved":false,"is_disabled":false,"rental_uris":{"android":"levelo://app?vid=5c4040f9-47de-4679-a290-7c008949c76f","ios":"levelo://app?vid=5c4040f9-47de-4679-a290-7c008949c76f"},"vehicle_type_id":"4","last_reported":1745997030,"current_range_meters":12800,"station_id":"ce4bhjp2rcd13ifvqga0","pricing_plan_id":"cebpf4jnsgd1na2vs0mg"},{"bike_id":"8e66df2a-406f-4431-a7b3-e75cded4023f","system_id":"levelo_inurba_marseille","lat":43.24167,"lon":5.364,"is_reserved":false,"is_disabled":false,"rental_uris":{"android":"levelo://app?vid=8e66df2a-406f-4431-a7b3-e75cded4023f","ios":"levelo://app?vid=8e66df2a-406f-4431-a7b3-e75cded4023f"},"vehicle_type_id":"4","last_reported":1745997030,"current_range_meters":12800,"station_id":"cpo36qri1sfpv3e86is0","pricing_plan_id":"cebpf4jnsgd1na2vs0mg"},{"bike_id":"4828ebfb-7fea-443f-b2b7-15ba5d47bae5","system_id":"levelo_inurba_marseille","lat":43.24067,"lon":5.3776,"is_reserved":false,"is_disabled":false,"rental_uris":{"android":"levelo://app?vid=4828ebfb-7fea-443f-b2b7-15ba5d47bae5","ios":"levelo://app?vid=4828ebfb-7fea-443f-b2b7-15ba5d47bae5"},"vehicle_type_id":"4","last_reported":1745997030,"current_range_meters":12800,"station_id":"ce4bhnp2rcd13ifvqgvg","pricing_plan_id":"cebpf4jnsgd1na2vs0mg"},{"bike_id":"1ec295d3-ad10-4906-82af-c2b51c243122","system_id":"levelo_inurba_marseille","lat":43.32475,"lon":5.36569,"is_reserved":false,"is_disabled":false,"rental_uris":{"android":"levelo://app?vid=1ec295d3-ad10-4906-82af-c2b51c243122","ios":"levelo://app?vid=1ec295d3-ad10-4906-82af-c2b51c243122"},"vehicle_type_id":"4","last_reported":1745997030,"current_range_meters":13600,"station_id":"ce4bhs12rcd13ifvqhvg","pricing_plan_id":"cebpf4jnsgd1na2vs0mg"},{"bike_id":"6ec7b1fb-b1e0-4ebc-93b1-4d5741467733","system_id":"levelo_inurba_marseille","lat":43.27321,"lon":5.39082,"is_reserved":false,"is_disabled":false,"rental_uris":{"android":"levelo://app?vid=6ec7b1fb-b1e0-4ebc-93b1-4d5741467733","ios":"levelo://app?vid=6ec7b1fb-b1e0-4ebc-93b1-4d5741467733"},"vehicle_type_id":"4","last_reported":1745997030,"current_range_meters":12800,"station_id":"ce4bhgp2rcd13ifvqfe0","pricing_plan_id":"cebpf4jnsgd1na2vs0mg"},{"bike_id":"1022adec-b739-4aad-8467-c13dc00ecbe3","system_id":"levelo_inurba_marseille","lat":43.29579,"lon":5.37736,"is_reserved":false,"is_disabled":false,"rental_uris":{"android":"levelo://app?vid=1022adec-b739-4aad-8467-c13dc00ecbe3","ios":"levelo://app?vid=1022adec-b739-4aad-8467-c13dc00ecbe3"},"vehicle_type_id":"4","last_reported":1745997030,"current_range_meters":13600,"station_id":"","pricing_plan_id":"cebpf4jnsgd1na2vs0mg"},{"bike_id":"70dba677-3a9b-4802-881b-d9f2df263bfe","system_id":"levelo_inurba_marseille","lat":43.290195,"lon":5.399433,"is_reserved":false,"is_disabled":false,"rental_uris":{"android":"levelo://app?vid=70dba677-3a9b-4802-881b-d9f2df263bfe","ios":"levelo://app?vid=70dba677-3a9b-4802-881b-d9f2df263bfe"},"vehicle_type_id":"4","last_reported":1745997030,"current_range_meters":15200,"station_id":"","pricing_plan_id":"cebpf4jnsgd1na2vs0mg"},{"bike_id":"8e5e2c19-ba36-4f14-9873-ad98967d7a5b","system_id":"levelo_inurba_marseille","lat":43.324713,"lon":5.36591,"is_reserved":false,"is_disabled":true,"rental_uris":{"android":"levelo://app?vid=8e5e2c19-ba36-4f14-9873-ad98967d7a5b","ios":"levelo://app?vid=8e5e2c19-ba36-4f14-9873-ad98967d7a5b"},"vehicle_type_id":"4","last_reported":1745997030,"current_range_meters":13600,"station_id":"ce4bhs12rcd13ifvqhvg","pricing_plan_id":"cebpf4jnsgd1na2vs0mg"},{"bike_id":"e5e92a64-e709-4b1a-a9b1-cbffe85789ca","system_id":"levelo_inurba_marseille","lat":43.2554,"lon":5.38143,"is_reserved":false,"is_disabled":false,"rental_uris":{"android":"levelo://app?vid=e5e92a64-e709-4b1a-a9b1-cbffe85789ca","ios":"levelo://app?vid=e5e92a64-e709-4b1a-a9b1-cbffe85789ca"},"vehicle_type_id":"4","last_reported":1745997030,"current_range_meters":13600,"station_id":"","pricing_plan_id":"cebpf4jnsgd1na2vs0mg"},{"bike_id":"a774d14e-b3be-49b5-b08d-00c78f7c65f8","system_id":"levelo_inurba_marseille","lat":43.29513,"lon":5.37515,"is_reserved":false,"is_disabled":false,"rental_uris":{"android":"levelo://app?vid=a774d14e-b3be-49b5-b08d-00c78f7c65f8","ios":"levelo://app?vid=a774d14e-b3be-49b5-b08d-00c78f7c65f8"},"vehicle_type_id":"4","last_reported":1745997030,"current_range_meters":14000,"station_id":"ce4bgkp2rcd13ifvqbmg","pricing_plan_id":"cebpf4jnsgd1na2vs0mg"},{"bike_id":"2cbe2fab-72a1-4bcd-8c44-98069ca26f60","system_id":"levelo_inurba_marseille","lat":43.30907,"lon":5.36851,"is_reserved":false,"is_disabled":false,"rental_uris":{"android":"levelo://app?vid=2cbe2fab-72a1-4bcd-8c44-98069ca26f60","ios":"levelo://app?vid=2cbe2fab-72a1-4bcd-8c44-98069ca26f60"},"vehicle_type_id":"4","last_reported":1745997030,"current_range_meters":14000,"station_id":"ce4bgn92rcd13ifvqbvg","pricing_plan_id":"cebpf4jnsgd1na2vs0mg"},{"bike_id":"a9d1eec8-9802-409e-9097-25bff9c95096","system_id":"levelo_inurba_marseille","lat":43.24068,"lon":5.37761,"is_reserved":false,"is_disabled":false,"rental_uris":{"android":"levelo://app?vid=a9d1eec8-9802-409e-9097-25bff9c95096","ios":"levelo://app?vid=a9d1eec8-9802-409e-9097-25bff9c95096"},"vehicle_type_id":"4","last_reported":1745997030,"current_range_meters":14000,"station_id":"ce4bhnp2rcd13ifvqgvg","pricing_plan_id":"cebpf4jnsgd1na2vs0mg"},{"bike_id":"5b8df32b-6bd3-46c5-92f6-95932c59353e","system_id":"levelo_inurba_marseille","lat":43.32532,"lon":5.41449,"is_reserved":false,"is_disabled":false,"rental_uris":{"android":"levelo://app?vid=5b8df32b-6bd3-46c5-92f6-95932c59353e","ios":"levelo://app?vid=5b8df32b-6bd3-46c5-92f6-95932c59353e"},"vehicle_type_id":"4","last_reported":1745997030,"current_range_meters":14400,"station_id":"ce4bhq12rcd13ifvqhhg","pricing_plan_id":"cebpf4jnsgd1na2vs0mg"},{"bike_id":"2867f576-ffe9-44c4-ae52-1a100a86cb79","system_id":"levelo_inurba_marseille","lat":43.30111,"lon":5.37453,"is_reserved":false,"is_disabled":false,"rental_uris":{"android":"levelo://app?vid=2867f576-ffe9-44c4-ae52-1a100a86cb79","ios":"levelo://app?vid=2867f576-ffe9-44c4-ae52-1a100a86cb79"},"vehicle_type_id":"4","last_reported":1745997030,"current_range_meters":14400,"station_id":"ce4bgs92rcd13ifvqcc0","pricing_plan_id":"cebpf4jnsgd1na2vs0mg"},{"bike_id":"1f675daf-e2a2-4afe-8393-80cf2c3b8b30","system_id":"levelo_inurba_marseille","lat":43.25935,"lon":5.4091,"is_reserved":false,"is_disabled":false,"rental_uris":{"android":"levelo://app?vid=1f675daf-e2a2-4afe-8393-80cf2c3b8b30","ios":"levelo://app?vid=1f675daf-e2a2-4afe-8393-80cf2c3b8b30"},"vehicle_type_id":"4","last_reported":1745997030,"current_range_meters":14400,"station_id":"ce4bhm92rcd13ifvqglg","pricing_plan_id":"cebpf4jnsgd1na2vs0mg"},{"bike_id":"a3f2095f-a859-4c20-a8aa-beb539d184ea","system_id":"levelo_inurba_marseille","lat":43.29029,"lon":5.39973,"is_reserved":false,"is_disabled":false,"rental_uris":{"android":"levelo://app?vid=a3f2095f-a859-4c20-a8aa-beb539d184ea","ios":"levelo://app?vid=a3f2095f-a859-4c20-a8aa-beb539d184ea"},"vehicle_type_id":"4","last_reported":1745997030,"current_range_meters":14400,"station_id":"ce4bh392rcd13ifvqdm0","pricing_plan_id":"cebpf4jnsgd1na2vs0mg"},{"bike_id":"e276162c-74f9-41af-bf87-3fe276ad21e4","system_id":"levelo_inurba_marseille","lat":43.2931,"lon":5.37162,"is_reserved":false,"is_disabled":false,"rental_uris":{"android":"levelo://app?vid=e276162c-74f9-41af-bf87-3fe276ad21e4","ios":"levelo://app?vid=e276162c-74f9-41af-bf87-3fe276ad21e4"},"vehicle_type_id":"4","last_reported":1745997030,"current_range_meters":14400,"station_id":"ce4bgh92rcd13ifvqb40","pricing_plan_id":"cebpf4jnsgd1na2vs0mg"},{"bike_id":"54815a4c-46f7-4c12-bd28-d0daa828129a","system_id":"levelo_inurba_marseille","lat":43.33596,"lon":5.41027,"is_reserved":false,"is_disabled":false,"rental_uris":{"android":"levelo://app?vid=54815a4c-46f7-4c12-bd28-d0daa828129a","ios":"levelo://app?vid=54815a4c-46f7-4c12-bd28-d0daa828129a"},"vehicle_type_id":"4","last_reported":1745997030,"current_range_meters":14800,"station_id":"ce4bhqh2rcd13ifvqhmg","pricing_plan_id":"cebpf4jnsgd1na2vs0mg"},{"bike_id":"e5c9e410-09a2-4a8b-8618-7674c87d16f0","system_id":"levelo_inurba_marseille","lat":43.29311,"lon":5.37443,"is_reserved":false,"is_disabled":false,"rental_uris":{"android":"levelo://app?vid=e5c9e410-09a2-4a8b-8618-7674c87d16f0","ios":"levelo://app?vid=e5c9e410-09a2-4a8b-8618-7674c87d16f0"},"vehicle_type_id":"4","last_reported":1745997030,"current_range_meters":14800,"station_id":"ce4bgi12rcd13ifvqb70","pricing_plan_id":"cebpf4jnsgd1na2vs0mg"},{"bike_id":"bd98dea7-1bf8-403f-af9d-4a32a280a923","system_id":"levelo_inurba_marseille","lat":43.25933,"lon":5.40913,"is_reserved":false,"is_disabled":false,"rental_uris":{"android":"levelo://app?vid=bd98dea7-1bf8-403f-af9d-4a32a280a923","ios":"levelo://app?vid=bd98dea7-1bf8-403f-af9d-4a32a280a923"},"vehicle_type_id":"4","last_reported":1745997030,"current_range_meters":14800,"station_id":"ce4bhm92rcd13ifvqglg","pricing_plan_id":"cebpf4jnsgd1na2vs0mg"},{"bike_id":"24cf5416-a619-45f8-9450-70eb737a2fcf","system_id":"levelo_inurba_marseille","lat":43.28038,"lon":5.3694,"is_reserved":false,"is_disabled":true,"rental_uris":{"android":"levelo://app?vid=24cf5416-a619-45f8-9450-70eb737a2fcf","ios":"levelo://app?vid=24cf5416-a619-45f8-9450-70eb737a2fcf"},"vehicle_type_id":"4","last_reported":1745997030,"current_range_meters":14800,"station_id":"ce4bha12rcd13ifvqef0","pricing_plan_id":"cebpf4jnsgd1na2vs0mg"},{"bike_id":"a64fa11c-6c29-433a-897f-89d76ac11d7a","system_id":"levelo_inurba_marseille","lat":43.31348,"lon":5.36724,"is_reserved":false,"is_disabled":false,"rental_uris":{"android":"levelo://app?vid=a64fa11c-6c29-433a-897f-89d76ac11d7a","ios":"levelo://app?vid=a64fa11c-6c29-433a-897f-89d76ac11d7a"},"vehicle_type_id":"4","last_reported":1745997030,"current_range_meters":15200,"station_id":"ce4bgr92rcd13ifvqc6g","pricing_plan_id":"cebpf4jnsgd1na2vs0mg"},{"bike_id":"fc37ea2f-e7ef-49c4-9fd9-32c1b5af5cc2","system_id":"levelo_inurba_marseille","lat":43.29025,"lon":5.39982,"is_reserved":false,"is_disabled":false,"rental_uris":{"android":"levelo://app?vid=fc37ea2f-e7ef-49c4-9fd9-32c1b5af5cc2","ios":"levelo://app?vid=fc37ea2f-e7ef-49c4-9fd9-32c1b5af5cc2"},"vehicle_type_id":"4","last_reported":1745997030,"current_range_meters":15200,"station_id":"ce4bh392rcd13ifvqdm0","pricing_plan_id":"cebpf4jnsgd1na2vs0mg"},{"bike_id":"4fda502e-8180-4eb2-97e5-6521d9824005","system_id":"levelo_inurba_marseille","lat":43.30516,"lon":5.38088,"is_reserved":false,"is_disabled":false,"rental_uris":{"android":"levelo://app?vid=4fda502e-8180-4eb2-97e5-6521d9824005","ios":"levelo://app?vid=4fda502e-8180-4eb2-97e5-6521d9824005"},"vehicle_type_id":"4","last_reported":1745997030,"current_range_meters":15200,"station_id":"","pricing_plan_id":"cebpf4jnsgd1na2vs0mg"},{"bike_id":"0f8cb726-5d3a-4eae-b154-bd9b8164cca6","system_id":"levelo_inurba_marseille","lat":43.31218,"lon":5.36854,"is_reserved":false,"is_disabled":false,"rental_uris":{"android":"levelo://app?vid=0f8cb726-5d3a-4eae-b154-bd9b8164cca6","ios":"levelo://app?vid=0f8cb726-5d3a-4eae-b154-bd9b8164cca6"},"vehicle_type_id":"4","last_reported":1745997030,"current_range_meters":15200,"station_id":"ce4bgl92rcd13ifvqbq0","pricing_plan_id":"cebpf4jnsgd1na2vs0mg"},{"bike_id":"b58385b2-d1b2-4ecc-af75-eb7cf4772905","system_id":"levelo_inurba_marseille","lat":43.24071,"lon":5.37709,"is_reserved":false,"is_disabled":false,"rental_uris":{"android":"levelo://app?vid=b58385b2-d1b2-4ecc-af75-eb7cf4772905","ios":"levelo://app?vid=b58385b2-d1b2-4ecc-af75-eb7cf4772905"},"vehicle_type_id":"4","last_reported":1745997030,"current_range_meters":15200,"station_id":"ce4bhnp2rcd13ifvqgvg","pricing_plan_id":"cebpf4jnsgd1na2vs0mg"},{"bike_id":"13838789-0d99-4ed1-9967-dfe518e240d5","system_id":"levelo_inurba_marseille","lat":43.24075,"lon":5.37765,"is_reserved":false,"is_disabled":false,"rental_uris":{"android":"levelo://app?vid=13838789-0d99-4ed1-9967-dfe518e240d5","ios":"levelo://app?vid=13838789-0d99-4ed1-9967-dfe518e240d5"},"vehicle_type_id":"4","last_reported":1745997030,"current_range_meters":16000,"station_id":"ce4bhnp2rcd13ifvqgvg","pricing_plan_id":"cebpf4jnsgd1na2vs0mg"},{"bike_id":"d88f1c89-45c5-49a2-9923-ca805a5fb6a9","system_id":"levelo_inurba_marseille","lat":43.30544,"lon":5.3652,"is_reserved":false,"is_disabled":false,"rental_uris":{"android":"levelo://app?vid=d88f1c89-45c5-49a2-9923-ca805a5fb6a9","ios":"levelo://app?vid=d88f1c89-45c5-49a2-9923-ca805a5fb6a9"},"vehicle_type_id":"4","last_reported":1745997030,"current_range_meters":16000,"station_id":"ce4bgs12rcd13ifvqcag","pricing_plan_id":"cebpf4jnsgd1na2vs0mg"},{"bike_id":"c125d997-153d-4eac-8b95-443ec4d61b97","system_id":"levelo_inurba_marseille","lat":43.29978,"lon":5.37168,"is_reserved":false,"is_disabled":false,"rental_uris":{"android":"levelo://app?vid=c125d997-153d-4eac-8b95-443ec4d61b97","ios":"levelo://app?vid=c125d997-153d-4eac-8b95-443ec4d61b97"},"vehicle_type_id":"4","last_reported":1745997030,"current_range_meters":16000,"station_id":"ce4bgr92rcd13ifvqc7g","pricing_plan_id":"cebpf4jnsgd1na2vs0mg"},{"bike_id":"c8ceb8e9-785b-4de9-9930-3fbc66d30b00","system_id":"levelo_inurba_marseille","lat":43.217493,"lon":5.3463,"is_reserved":false,"is_disabled":true,"rental_uris":{"android":"levelo://app?vid=c8ceb8e9-785b-4de9-9930-3fbc66d30b00","ios":"levelo://app?vid=c8ceb8e9-785b-4de9-9930-3fbc66d30b00"},"vehicle_type_id":"4","last_reported":1745997030,"current_range_meters":16000,"station_id":"st_cvj6r9ubvosntc0bgbag","pricing_plan_id":"cebpf4jnsgd1na2vs0mg"},{"bike_id":"7a20820b-b872-41ea-b20c-60be071ffdca","system_id":"levelo_inurba_marseille","lat":43.30933,"lon":5.40143,"is_reserved":false,"is_disabled":false,"rental_uris":{"android":"levelo://app?vid=7a20820b-b872-41ea-b20c-60be071ffdca","ios":"levelo://app?vid=7a20820b-b872-41ea-b20c-60be071ffdca"},"vehicle_type_id":"4","last_reported":1745997030,"current_range_meters":14800,"station_id":"ce4bgvp2rcd13ifvqct0","pricing_plan_id":"cebpf4jnsgd1na2vs0mg"},{"bike_id":"94b76c1d-3df7-4429-aaa0-663328cc75e1","system_id":"levelo_inurba_marseille","lat":43.258544,"lon":5.39889,"is_reserved":false,"is_disabled":false,"rental_uris":{"android":"levelo://app?vid=94b76c1d-3df7-4429-aaa0-663328cc75e1","ios":"levelo://app?vid=94b76c1d-3df7-4429-aaa0-663328cc75e1"},"vehicle_type_id":"4","last_reported":1745997030,"current_range_meters":16000,"station_id":"ce4bhl92rcd13ifvqghg","pricing_plan_id":"cebpf4jnsgd1na2vs0mg"},{"bike_id":"d115ad1b-5370-4c95-970d-d7a052c42dc9","system_id":"levelo_inurba_marseille","lat":43.30148,"lon":5.38104,"is_reserved":false,"is_disabled":true,"rental_uris":{"android":"levelo://app?vid=d115ad1b-5370-4c95-970d-d7a052c42dc9","ios":"levelo://app?vid=d115ad1b-5370-4c95-970d-d7a052c42dc9"},"vehicle_type_id":"4","last_reported":1745997030,"current_range_meters":16000,"station_id":"ce4bgjp2rcd13ifvqbh0","pricing_plan_id":"cebpf4jnsgd1na2vs0mg"},{"bike_id":"35e6842a-a259-4059-924b-81959edb9697","system_id":"levelo_inurba_marseille","lat":43.24178,"lon":5.3973,"is_reserved":false,"is_disabled":false,"rental_uris":{"android":"levelo://app?vid=35e6842a-a259-4059-924b-81959edb9697","ios":"levelo://app?vid=35e6842a-a259-4059-924b-81959edb9697"},"vehicle_type_id":"4","last_reported":1745997030,"current_range_meters":16400,"station_id":"ce4bhn12rcd13ifvqgpg","pricing_plan_id":"cebpf4jnsgd1na2vs0mg"},{"bike_id":"d922f650-9e4b-464c-a3a2-1e63c0ed7dd9","system_id":"levelo_inurba_marseille","lat":43.23144,"lon":5.43719,"is_reserved":false,"is_disabled":false,"rental_uris":{"android":"levelo://app?vid=d922f650-9e4b-464c-a3a2-1e63c0ed7dd9","ios":"levelo://app?vid=d922f650-9e4b-464c-a3a2-1e63c0ed7dd9"},"vehicle_type_id":"4","last_reported":1745997030,"current_range_meters":16000,"station_id":"ce4bhmp2rcd13ifvqgog","pricing_plan_id":"cebpf4jnsgd1na2vs0mg"},{"bike_id":"86c2979e-8cf6-48ed-bdb1-835ff11e3adc","system_id":"levelo_inurba_marseille","lat":43.253886,"lon":5.418464,"is_reserved":false,"is_disabled":false,"rental_uris":{"android":"levelo://app?vid=86c2979e-8cf6-48ed-bdb1-835ff11e3adc","ios":"levelo://app?vid=86c2979e-8cf6-48ed-bdb1-835ff11e3adc"},"vehicle_type_id":"4","last_reported":1745997030,"current_range_meters":16800,"station_id":"","pricing_plan_id":"cebpf4jnsgd1na2vs0mg"},{"bike_id":"bdf4fb20-568b-4392-bff0-0c01a9a3d528","system_id":"levelo_inurba_marseille","lat":43.241791,"lon":5.397241,"is_reserved":false,"is_disabled":false,"rental_uris":{"android":"levelo://app?vid=bdf4fb20-568b-4392-bff0-0c01a9a3d528","ios":"levelo://app?vid=bdf4fb20-568b-4392-bff0-0c01a9a3d528"},"vehicle_type_id":"4","last_reported":1745997030,"current_range_meters":16800,"station_id":"ce4bhn12rcd13ifvqgpg","pricing_plan_id":"cebpf4jnsgd1na2vs0mg"},{"bike_id":"6144245e-6d9a-4968-8c71-9a3600eff47b","system_id":"levelo_inurba_marseille","lat":43.30887,"lon":5.39656,"is_reserved":false,"is_disabled":false,"rental_uris":{"android":"levelo://app?vid=6144245e-6d9a-4968-8c71-9a3600eff47b","ios":"levelo://app?vid=6144245e-6d9a-4968-8c71-9a3600eff47b"},"vehicle_type_id":"4","last_reported":1745997030,"current_range_meters":16400,"station_id":"ce4bh012rcd13ifvqcv0","pricing_plan_id":"cebpf4jnsgd1na2vs0mg"},{"bike_id":"f31545c1-49c8-450c-b2bd-4b1efdcf5062","system_id":"levelo_inurba_marseille","lat":43.2953,"lon":5.390506,"is_reserved":false,"is_disabled":false,"rental_uris":{"android":"levelo://app?vid=f31545c1-49c8-450c-b2bd-4b1efdcf5062","ios":"levelo://app?vid=f31545c1-49c8-450c-b2bd-4b1efdcf5062"},"vehicle_type_id":"4","last_reported":1745997030,"current_range_meters":17600,"station_id":"ce4bh3p2rcd13ifvqdp0","pricing_plan_id":"cebpf4jnsgd1na2vs0mg"},{"bike_id":"7bd04a01-6eed-4d67-9937-0bb30053b572","system_id":"levelo_inurba_marseille","lat":43.32042,"lon":5.41544,"is_reserved":false,"is_disabled":false,"rental_uris":{"android":"levelo://app?vid=7bd04a01-6eed-4d67-9937-0bb30053b572","ios":"levelo://app?vid=7bd04a01-6eed-4d67-9937-0bb30053b572"},"vehicle_type_id":"4","last_reported":1745997030,"current_range_meters":18000,"station_id":"ce4bhq92rcd13ifvqhkg","pricing_plan_id":"cebpf4jnsgd1na2vs0mg"},{"bike_id":"d2f39118-f947-4041-abbb-1fc876b39814","system_id":"levelo_inurba_marseille","lat":43.31065,"lon":5.40093,"is_reserved":false,"is_disabled":false,"rental_uris":{"android":"levelo://app?vid=d2f39118-f947-4041-abbb-1fc876b39814","ios":"levelo://app?vid=d2f39118-f947-4041-abbb-1fc876b39814"},"vehicle_type_id":"4","last_reported":1745997030,"current_range_meters":17600,"station_id":"","pricing_plan_id":"cebpf4jnsgd1na2vs0mg"},{"bike_id":"58f5bb1f-7b05-4138-b344-39f4bcec881c","system_id":"levelo_inurba_marseille","lat":43.24077,"lon":5.37757,"is_reserved":false,"is_disabled":false,"rental_uris":{"android":"levelo://app?vid=58f5bb1f-7b05-4138-b344-39f4bcec881c","ios":"levelo://app?vid=58f5bb1f-7b05-4138-b344-39f4bcec881c"},"vehicle_type_id":"4","last_reported":1745997030,"current_range_meters":17600,"station_id":"ce4bhnp2rcd13ifvqgvg","pricing_plan_id":"cebpf4jnsgd1na2vs0mg"},{"bike_id":"17f79166-ebe9-436e-9ec5-00018224ee4b","system_id":"levelo_inurba_marseille","lat":43.32474,"lon":5.36573,"is_reserved":false,"is_disabled":false,"rental_uris":{"android":"levelo://app?vid=17f79166-ebe9-436e-9ec5-00018224ee4b","ios":"levelo://app?vid=17f79166-ebe9-436e-9ec5-00018224ee4b"},"vehicle_type_id":"4","last_reported":1745997030,"current_range_meters":17600,"station_id":"ce4bhs12rcd13ifvqhvg","pricing_plan_id":"cebpf4jnsgd1na2vs0mg"},{"bike_id":"0c9e4d09-31d9-4325-8d9f-13a37129f6e4","system_id":"levelo_inurba_marseille","lat":43.30598,"lon":5.37213,"is_reserved":false,"is_disabled":false,"rental_uris":{"android":"levelo://app?vid=0c9e4d09-31d9-4325-8d9f-13a37129f6e4","ios":"levelo://app?vid=0c9e4d09-31d9-4325-8d9f-13a37129f6e4"},"vehicle_type_id":"4","last_reported":1745997030,"current_range_meters":17600,"station_id":"ce4bgqh2rcd13ifvqc4g","pricing_plan_id":"cebpf4jnsgd1na2vs0mg"},{"bike_id":"a8edf93b-2de3-4611-801a-b2db580174cb","system_id":"levelo_inurba_marseille","lat":43.24388,"lon":5.37053,"is_reserved":false,"is_disabled":false,"rental_uris":{"android":"levelo://app?vid=a8edf93b-2de3-4611-801a-b2db580174cb","ios":"levelo://app?vid=a8edf93b-2de3-4611-801a-b2db580174cb"},"vehicle_type_id":"4","last_reported":1745997030,"current_range_meters":17600,"station_id":"ce4bhhh2rcd13ifvqfk0","pricing_plan_id":"cebpf4jnsgd1na2vs0mg"},{"bike_id":"7940bc1b-eaa7-4f49-a435-46dc9391f6a1","system_id":"levelo_inurba_marseille","lat":43.211947,"lon":5.350824,"is_reserved":false,"is_disabled":false,"rental_uris":{"android":"levelo://app?vid=7940bc1b-eaa7-4f49-a435-46dc9391f6a1","ios":"levelo://app?vid=7940bc1b-eaa7-4f49-a435-46dc9391f6a1"},"vehicle_type_id":"4","last_reported":1745997030,"current_range_meters":17600,"station_id":"st_cvj6sg6p6f1abm77japg","pricing_plan_id":"cebpf4jnsgd1na2vs0mg"},{"bike_id":"1d750c6c-bec1-4b3f-9930-a056073563f4","system_id":"levelo_inurba_marseille","lat":43.27987,"lon":5.4165,"is_reserved":false,"is_disabled":true,"rental_uris":{"android":"levelo://app?vid=1d750c6c-bec1-4b3f-9930-a056073563f4","ios":"levelo://app?vid=1d750c6c-bec1-4b3f-9930-a056073563f4"},"vehicle_type_id":"4","last_reported":1745997030,"current_range_meters":17600,"station_id":"ce4bho12rcd13ifvqh1g","pricing_plan_id":"cebpf4jnsgd1na2vs0mg"},{"bike_id":"dc1ed819-5907-4497-8368-8b16a59e64ca","system_id":"levelo_inurba_marseille","lat":43.31477,"lon":5.3729,"is_reserved":false,"is_disabled":false,"rental_uris":{"android":"levelo://app?vid=dc1ed819-5907-4497-8368-8b16a59e64ca","ios":"levelo://app?vid=dc1ed819-5907-4497-8368-8b16a59e64ca"},"vehicle_type_id":"4","last_reported":1745997030,"current_range_meters":17600,"station_id":"ce4bgt12rcd13ifvqcd0","pricing_plan_id":"cebpf4jnsgd1na2vs0mg"},{"bike_id":"f71602a5-919d-45ab-8b7b-f5d2fe5d3890","system_id":"levelo_inurba_marseille","lat":43.284511,"lon":5.358727,"is_reserved":false,"is_disabled":false,"rental_uris":{"android":"levelo://app?vid=f71602a5-919d-45ab-8b7b-f5d2fe5d3890","ios":"levelo://app?vid=f71602a5-919d-45ab-8b7b-f5d2fe5d3890"},"vehicle_type_id":"4","last_reported":1745997030,"current_range_meters":17600,"station_id":"","pricing_plan_id":"cebpf4jnsgd1na2vs0mg"},{"bike_id":"9ba2f262-f093-449d-928f-af7ba0a01409","system_id":"levelo_inurba_marseille","lat":43.31222,"lon":5.36853,"is_reserved":false,"is_disabled":false,"rental_uris":{"android":"levelo://app?vid=9ba2f262-f093-449d-928f-af7ba0a01409","ios":"levelo://app?vid=9ba2f262-f093-449d-928f-af7ba0a01409"},"vehicle_type_id":"4","last_reported":1745997030,"current_range_meters":18000,"station_id":"ce4bgl92rcd13ifvqbq0","pricing_plan_id":"cebpf4jnsgd1na2vs0mg"},{"bike_id":"abca8f9f-01a3-4843-936e-ed4dbb984bee","system_id":"levelo_inurba_marseille","lat":43.30306,"lon":5.36897,"is_reserved":false,"is_disabled":false,"rental_uris":{"android":"levelo://app?vid=abca8f9f-01a3-4843-936e-ed4dbb984bee","ios":"levelo://app?vid=abca8f9f-01a3-4843-936e-ed4dbb984bee"},"vehicle_type_id":"4","last_reported":1745997030,"current_range_meters":18000,"station_id":"ce4bgqh2rcd13ifvqc5g","pricing_plan_id":"cebpf4jnsgd1na2vs0mg"},{"bike_id":"1197ea5e-c1b7-4a74-88b7-06654a658162","system_id":"levelo_inurba_marseille","lat":43.284076,"lon":5.37528,"is_reserved":false,"is_disabled":true,"rental_uris":{"android":"levelo://app?vid=1197ea5e-c1b7-4a74-88b7-06654a658162","ios":"levelo://app?vid=1197ea5e-c1b7-4a74-88b7-06654a658162"},"vehicle_type_id":"4","last_reported":1745997030,"current_range_meters":18800,"station_id":"ce4bh412rcd13ifvqds0","pricing_plan_id":"cebpf4jnsgd1na2vs0mg"},{"bike_id":"85a18947-6ea4-4ce3-9800-77bfbc145068","system_id":"levelo_inurba_marseille","lat":43.2407,"lon":5.37752,"is_reserved":false,"is_disabled":false,"rental_uris":{"android":"levelo://app?vid=85a18947-6ea4-4ce3-9800-77bfbc145068","ios":"levelo://app?vid=85a18947-6ea4-4ce3-9800-77bfbc145068"},"vehicle_type_id":"4","last_reported":1745997030,"current_range_meters":18800,"station_id":"ce4bhnp2rcd13ifvqgvg","pricing_plan_id":"cebpf4jnsgd1na2vs0mg"},{"bike_id":"330ae0d8-2228-407b-80de-905ccac38fed","system_id":"levelo_inurba_marseille","lat":43.31515,"lon":5.37289,"is_reserved":false,"is_disabled":false,"rental_uris":{"android":"levelo://app?vid=330ae0d8-2228-407b-80de-905ccac38fed","ios":"levelo://app?vid=330ae0d8-2228-407b-80de-905ccac38fed"},"vehicle_type_id":"4","last_reported":1745997030,"current_range_meters":18800,"station_id":"ce4bgt12rcd13ifvqcd0","pricing_plan_id":"cebpf4jnsgd1na2vs0mg"},{"bike_id":"fb8f5ab3-6254-4648-8532-b536beecb0cc","system_id":"levelo_inurba_marseille","lat":43.30909,"lon":5.36849,"is_reserved":false,"is_disabled":false,"rental_uris":{"android":"levelo://app?vid=fb8f5ab3-6254-4648-8532-b536beecb0cc","ios":"levelo://app?vid=fb8f5ab3-6254-4648-8532-b536beecb0cc"},"vehicle_type_id":"4","last_reported":1745997030,"current_range_meters":18800,"station_id":"ce4bgn92rcd13ifvqbvg","pricing_plan_id":"cebpf4jnsgd1na2vs0mg"},{"bike_id":"8711dcb0-b2b4-4a94-a7c4-5bd1ceca9917","system_id":"levelo_inurba_marseille","lat":43.27494,"lon":5.42464,"is_reserved":false,"is_disabled":false,"rental_uris":{"android":"levelo://app?vid=8711dcb0-b2b4-4a94-a7c4-5bd1ceca9917","ios":"levelo://app?vid=8711dcb0-b2b4-4a94-a7c4-5bd1ceca9917"},"vehicle_type_id":"4","last_reported":1745997030,"current_range_meters":18800,"station_id":"","pricing_plan_id":"cebpf4jnsgd1na2vs0mg"},{"bike_id":"eb57741f-414f-4d53-842d-385673ad4bf7","system_id":"levelo_inurba_marseille","lat":43.29274,"lon":5.40184,"is_reserved":false,"is_disabled":true,"rental_uris":{"android":"levelo://app?vid=eb57741f-414f-4d53-842d-385673ad4bf7","ios":"levelo://app?vid=eb57741f-414f-4d53-842d-385673ad4bf7"},"vehicle_type_id":"4","last_reported":1745997030,"current_range_meters":19200,"station_id":"ce4bh312rcd13ifvqdk0","pricing_plan_id":"cebpf4jnsgd1na2vs0mg"},{"bike_id":"88b0e47a-d43f-44bb-bd7e-80d8fc6d69de","system_id":"levelo_inurba_marseille","lat":43.28137,"lon":5.4016,"is_reserved":false,"is_disabled":false,"rental_uris":{"android":"levelo://app?vid=88b0e47a-d43f-44bb-bd7e-80d8fc6d69de","ios":"levelo://app?vid=88b0e47a-d43f-44bb-bd7e-80d8fc6d69de"},"vehicle_type_id":"4","last_reported":1745997030,"current_range_meters":19200,"station_id":"","pricing_plan_id":"cebpf4jnsgd1na2vs0mg"},{"bike_id":"f4b73246-afac-4a27-884b-4e385d8fcdf4","system_id":"levelo_inurba_marseille","lat":43.25924,"lon":5.40896,"is_reserved":false,"is_disabled":false,"rental_uris":{"android":"levelo://app?vid=f4b73246-afac-4a27-884b-4e385d8fcdf4","ios":"levelo://app?vid=f4b73246-afac-4a27-884b-4e385d8fcdf4"},"vehicle_type_id":"4","last_reported":1745997030,"current_range_meters":19200,"station_id":"ce4bhm92rcd13ifvqglg","pricing_plan_id":"cebpf4jnsgd1na2vs0mg"},{"bike_id":"d032c030-f60b-4b2a-af53-46a97491e6d4","system_id":"levelo_inurba_marseille","lat":43.25116,"lon":5.40318,"is_reserved":false,"is_disabled":false,"rental_uris":{"android":"levelo://app?vid=d032c030-f60b-4b2a-af53-46a97491e6d4","ios":"levelo://app?vid=d032c030-f60b-4b2a-af53-46a97491e6d4"},"vehicle_type_id":"4","last_reported":1745997030,"current_range_meters":18800,"station_id":"ce4bhlh2rcd13ifvqgig","pricing_plan_id":"cebpf4jnsgd1na2vs0mg"},{"bike_id":"ef177e83-30cb-4f01-a7b8-e243e6d71b33","system_id":"levelo_inurba_marseille","lat":43.32542,"lon":5.41443,"is_reserved":false,"is_disabled":false,"rental_uris":{"android":"levelo://app?vid=ef177e83-30cb-4f01-a7b8-e243e6d71b33","ios":"levelo://app?vid=ef177e83-30cb-4f01-a7b8-e243e6d71b33"},"vehicle_type_id":"4","last_reported":1745997030,"current_range_meters":18800,"station_id":"ce4bhq12rcd13ifvqhhg","pricing_plan_id":"cebpf4jnsgd1na2vs0mg"},{"bike_id":"c3217e4d-4236-47b2-b9bb-027cd2e44e52","system_id":"levelo_inurba_marseille","lat":43.24996,"lon":5.38929,"is_reserved":false,"is_disabled":false,"rental_uris":{"android":"levelo://app?vid=c3217e4d-4236-47b2-b9bb-027cd2e44e52","ios":"levelo://app?vid=c3217e4d-4236-47b2-b9bb-027cd2e44e52"},"vehicle_type_id":"4","last_reported":1745997030,"current_range_meters":19200,"station_id":"ce4bhgp2rcd13ifvqfd0","pricing_plan_id":"cebpf4jnsgd1na2vs0mg"},{"bike_id":"3ed5c2c4-e9d1-406a-8758-470ad1a743a6","system_id":"levelo_inurba_marseille","lat":43.30914,"lon":5.36843,"is_reserved":false,"is_disabled":false,"rental_uris":{"android":"levelo://app?vid=3ed5c2c4-e9d1-406a-8758-470ad1a743a6","ios":"levelo://app?vid=3ed5c2c4-e9d1-406a-8758-470ad1a743a6"},"vehicle_type_id":"4","last_reported":1745997030,"current_range_meters":19200,"station_id":"ce4bgn92rcd13ifvqbvg","pricing_plan_id":"cebpf4jnsgd1na2vs0mg"},{"bike_id":"50a2f814-2b1e-4974-baf1-fded4d0b73a4","system_id":"levelo_inurba_marseille","lat":43.27492,"lon":5.42453,"is_reserved":false,"is_disabled":false,"rental_uris":{"android":"levelo://app?vid=50a2f814-2b1e-4974-baf1-fded4d0b73a4","ios":"levelo://app?vid=50a2f814-2b1e-4974-baf1-fded4d0b73a4"},"vehicle_type_id":"4","last_reported":1745997030,"current_range_meters":19200,"station_id":"ce4bhn92rcd13ifvqgrg","pricing_plan_id":"cebpf4jnsgd1na2vs0mg"},{"bike_id":"40725d8a-d923-488f-b4c0-2c13233522c2","system_id":"levelo_inurba_marseille","lat":43.29518,"lon":5.39037,"is_reserved":false,"is_disabled":false,"rental_uris":{"android":"levelo://app?vid=40725d8a-d923-488f-b4c0-2c13233522c2","ios":"levelo://app?vid=40725d8a-d923-488f-b4c0-2c13233522c2"},"vehicle_type_id":"4","last_reported":1745997030,"current_range_meters":19200,"station_id":"ce4bh3p2rcd13ifvqdp0","pricing_plan_id":"cebpf4jnsgd1na2vs0mg"},{"bike_id":"b5c68a5c-e7ab-431f-928e-95fcc43be5c3","system_id":"levelo_inurba_marseille","lat":43.24068,"lon":5.37722,"is_reserved":false,"is_disabled":false,"rental_uris":{"android":"levelo://app?vid=b5c68a5c-e7ab-431f-928e-95fcc43be5c3","ios":"levelo://app?vid=b5c68a5c-e7ab-431f-928e-95fcc43be5c3"},"vehicle_type_id":"4","last_reported":1745997030,"current_range_meters":19200,"station_id":"ce4bhnp2rcd13ifvqgvg","pricing_plan_id":"cebpf4jnsgd1na2vs0mg"},{"bike_id":"c34532d5-141d-48e8-9d8b-58b77076c366","system_id":"levelo_inurba_marseille","lat":43.29262,"lon":5.36844,"is_reserved":false,"is_disabled":true,"rental_uris":{"android":"levelo://app?vid=c34532d5-141d-48e8-9d8b-58b77076c366","ios":"levelo://app?vid=c34532d5-141d-48e8-9d8b-58b77076c366"},"vehicle_type_id":"4","last_reported":1745997030,"current_range_meters":19600,"station_id":"ce4bhbp2rcd13ifvqesg","pricing_plan_id":"cebpf4jnsgd1na2vs0mg"},{"bike_id":"86ad024e-8eb5-4adf-989a-eba2aa16fbdc","system_id":"levelo_inurba_marseille","lat":43.25001,"lon":5.3893,"is_reserved":false,"is_disabled":false,"rental_uris":{"android":"levelo://app?vid=86ad024e-8eb5-4adf-989a-eba2aa16fbdc","ios":"levelo://app?vid=86ad024e-8eb5-4adf-989a-eba2aa16fbdc"},"vehicle_type_id":"4","last_reported":1745997030,"current_range_meters":19600,"station_id":"ce4bhgp2rcd13ifvqfd0","pricing_plan_id":"cebpf4jnsgd1na2vs0mg"},{"bike_id":"2c0cd1ba-66d8-474b-85b8-87cb48ccc6ec","system_id":"levelo_inurba_marseille","lat":43.325507,"lon":5.41466,"is_reserved":false,"is_disabled":false,"rental_uris":{"android":"levelo://app?vid=2c0cd1ba-66d8-474b-85b8-87cb48ccc6ec","ios":"levelo://app?vid=2c0cd1ba-66d8-474b-85b8-87cb48ccc6ec"},"vehicle_type_id":"4","last_reported":1745997030,"current_range_meters":19600,"station_id":"ce4bhq12rcd13ifvqhhg","pricing_plan_id":"cebpf4jnsgd1na2vs0mg"},{"bike_id":"6044dd1a-88b2-4997-a9f7-f55faba9dc9e","system_id":"levelo_inurba_marseille","lat":43.25936,"lon":5.40909,"is_reserved":false,"is_disabled":false,"rental_uris":{"android":"levelo://app?vid=6044dd1a-88b2-4997-a9f7-f55faba9dc9e","ios":"levelo://app?vid=6044dd1a-88b2-4997-a9f7-f55faba9dc9e"},"vehicle_type_id":"4","last_reported":1745997030,"current_range_meters":19600,"station_id":"ce4bhm92rcd13ifvqglg","pricing_plan_id":"cebpf4jnsgd1na2vs0mg"},{"bike_id":"aaa8bb1a-08fb-446b-813e-81f5068ba6d1","system_id":"levelo_inurba_marseille","lat":43.2992,"lon":5.37462,"is_reserved":false,"is_disabled":false,"rental_uris":{"android":"levelo://app?vid=aaa8bb1a-08fb-446b-813e-81f5068ba6d1","ios":"levelo://app?vid=aaa8bb1a-08fb-446b-813e-81f5068ba6d1"},"vehicle_type_id":"4","last_reported":1745997030,"current_range_meters":19600,"station_id":"ce4bgjh2rcd13ifvqbg0","pricing_plan_id":"cebpf4jnsgd1na2vs0mg"},{"bike_id":"892f8c94-7cfa-45ba-9cfa-d2798936e0c7","system_id":"levelo_inurba_marseille","lat":43.23967,"lon":5.36637,"is_reserved":false,"is_disabled":false,"rental_uris":{"android":"levelo://app?vid=892f8c94-7cfa-45ba-9cfa-d2798936e0c7","ios":"levelo://app?vid=892f8c94-7cfa-45ba-9cfa-d2798936e0c7"},"vehicle_type_id":"4","last_reported":1745997030,"current_range_meters":20000,"station_id":"ce4bhi12rcd13ifvqfp0","pricing_plan_id":"cebpf4jnsgd1na2vs0mg"},{"bike_id":"188d3150-fbd1-498d-a25e-1e8ea9ec27a6","system_id":"levelo_inurba_marseille","lat":43.30885,"lon":5.37192,"is_reserved":false,"is_disabled":false,"rental_uris":{"android":"levelo://app?vid=188d3150-fbd1-498d-a25e-1e8ea9ec27a6","ios":"levelo://app?vid=188d3150-fbd1-498d-a25e-1e8ea9ec27a6"},"vehicle_type_id":"4","last_reported":1745997030,"current_range_meters":20000,"station_id":"ce4bguh2rcd13ifvqckg","pricing_plan_id":"cebpf4jnsgd1na2vs0mg"},{"bike_id":"c7b0bdba-a9c5-4f80-8b43-cf236db597d7","system_id":"levelo_inurba_marseille","lat":43.30947,"lon":5.390407,"is_reserved":false,"is_disabled":false,"rental_uris":{"android":"levelo://app?vid=c7b0bdba-a9c5-4f80-8b43-cf236db597d7","ios":"levelo://app?vid=c7b0bdba-a9c5-4f80-8b43-cf236db597d7"},"vehicle_type_id":"4","last_reported":1745997030,"current_range_meters":20000,"station_id":"ce4bgup2rcd13ifvqco0","pricing_plan_id":"cebpf4jnsgd1na2vs0mg"},{"bike_id":"dd761f0b-a343-4069-8ed4-8566f51a6c87","system_id":"levelo_inurba_marseille","lat":43.267792,"lon":5.383597,"is_reserved":false,"is_disabled":true,"rental_uris":{"android":"levelo://app?vid=dd761f0b-a343-4069-8ed4-8566f51a6c87","ios":"levelo://app?vid=dd761f0b-a343-4069-8ed4-8566f51a6c87"},"vehicle_type_id":"4","last_reported":1745997030,"current_range_meters":20400,"station_id":"","pricing_plan_id":"cebpf4jnsgd1na2vs0mg"},{"bike_id":"cdcb50a2-3beb-4586-94ea-c6962ac3cbe5","system_id":"levelo_inurba_marseille","lat":43.24186,"lon":5.39716,"is_reserved":false,"is_disabled":false,"rental_uris":{"android":"levelo://app?vid=cdcb50a2-3beb-4586-94ea-c6962ac3cbe5","ios":"levelo://app?vid=cdcb50a2-3beb-4586-94ea-c6962ac3cbe5"},"vehicle_type_id":"4","last_reported":1745997030,"current_range_meters":20400,"station_id":"ce4bhn12rcd13ifvqgpg","pricing_plan_id":"cebpf4jnsgd1na2vs0mg"},{"bike_id":"79936ac1-cc4f-4405-9d47-5d60b38e92e6","system_id":"levelo_inurba_marseille","lat":43.30904,"lon":5.36844,"is_reserved":false,"is_disabled":false,"rental_uris":{"android":"levelo://app?vid=79936ac1-cc4f-4405-9d47-5d60b38e92e6","ios":"levelo://app?vid=79936ac1-cc4f-4405-9d47-5d60b38e92e6"},"vehicle_type_id":"4","last_reported":1745997030,"current_range_meters":20400,"station_id":"ce4bgn92rcd13ifvqbvg","pricing_plan_id":"cebpf4jnsgd1na2vs0mg"},{"bike_id":"bb5f559b-807a-49b2-a96f-25f4918b8513","system_id":"levelo_inurba_marseille","lat":43.30953,"lon":5.39033,"is_reserved":false,"is_disabled":false,"rental_uris":{"android":"levelo://app?vid=bb5f559b-807a-49b2-a96f-25f4918b8513","ios":"levelo://app?vid=bb5f559b-807a-49b2-a96f-25f4918b8513"},"vehicle_type_id":"4","last_reported":1745997030,"current_range_meters":20400,"station_id":"ce4bgup2rcd13ifvqco0","pricing_plan_id":"cebpf4jnsgd1na2vs0mg"},{"bike_id":"f0bec75b-dc3c-4f27-9b3d-c184f53cd93b","system_id":"levelo_inurba_marseille","lat":43.30958,"lon":5.39031,"is_reserved":false,"is_disabled":false,"rental_uris":{"android":"levelo://app?vid=f0bec75b-dc3c-4f27-9b3d-c184f53cd93b","ios":"levelo://app?vid=f0bec75b-dc3c-4f27-9b3d-c184f53cd93b"},"vehicle_type_id":"4","last_reported":1745997030,"current_range_meters":20400,"station_id":"ce4bgup2rcd13ifvqco0","pricing_plan_id":"cebpf4jnsgd1na2vs0mg"},{"bike_id":"8a5ef15b-08e5-4866-9542-282ce1544826","system_id":"levelo_inurba_marseille","lat":43.23154,"lon":5.40009,"is_reserved":false,"is_disabled":false,"rental_uris":{"android":"levelo://app?vid=8a5ef15b-08e5-4866-9542-282ce1544826","ios":"levelo://app?vid=8a5ef15b-08e5-4866-9542-282ce1544826"},"vehicle_type_id":"4","last_reported":1745997030,"current_range_meters":20400,"station_id":"ce4bhn12rcd13ifvqgqg","pricing_plan_id":"cebpf4jnsgd1na2vs0mg"},{"bike_id":"005d8b83-f7dc-439f-9d44-022f87a19a1d","system_id":"levelo_inurba_marseille","lat":43.2911,"lon":5.40189,"is_reserved":false,"is_disabled":false,"rental_uris":{"android":"levelo://app?vid=005d8b83-f7dc-439f-9d44-022f87a19a1d","ios":"levelo://app?vid=005d8b83-f7dc-439f-9d44-022f87a19a1d"},"vehicle_type_id":"4","last_reported":1745997030,"current_range_meters":20400,"station_id":"","pricing_plan_id":"cebpf4jnsgd1na2vs0mg"},{"bike_id":"eeefc486-18c5-44e2-94f5-1fff6bb971e7","system_id":"levelo_inurba_marseille","lat":43.29268,"lon":5.37627,"is_reserved":false,"is_disabled":false,"rental_uris":{"android":"levelo://app?vid=eeefc486-18c5-44e2-94f5-1fff6bb971e7","ios":"levelo://app?vid=eeefc486-18c5-44e2-94f5-1fff6bb971e7"},"vehicle_type_id":"4","last_reported":1745997030,"current_range_meters":20400,"station_id":"ce4bgi12rcd13ifvqb80","pricing_plan_id":"cebpf4jnsgd1na2vs0mg"},{"bike_id":"2d90d92c-e010-4034-9c8a-92ec848e2a6f","system_id":"levelo_inurba_marseille","lat":43.30313,"lon":5.36898,"is_reserved":false,"is_disabled":false,"rental_uris":{"android":"levelo://app?vid=2d90d92c-e010-4034-9c8a-92ec848e2a6f","ios":"levelo://app?vid=2d90d92c-e010-4034-9c8a-92ec848e2a6f"},"vehicle_type_id":"4","last_reported":1745997030,"current_range_meters":20800,"station_id":"ce4bgqh2rcd13ifvqc5g","pricing_plan_id":"cebpf4jnsgd1na2vs0mg"},{"bike_id":"5d355be3-113e-46d3-aa06-76865de79fae","system_id":"levelo_inurba_marseille","lat":43.29363,"lon":5.37858,"is_reserved":false,"is_disabled":false,"rental_uris":{"android":"levelo://app?vid=5d355be3-113e-46d3-aa06-76865de79fae","ios":"levelo://app?vid=5d355be3-113e-46d3-aa06-76865de79fae"},"vehicle_type_id":"4","last_reported":1745997030,"current_range_meters":20800,"station_id":"ce4bgjh2rcd13ifvqbf0","pricing_plan_id":"cebpf4jnsgd1na2vs0mg"},{"bike_id":"445c2b2f-3f48-4e0e-a1b4-69807fa6eda0","system_id":"levelo_inurba_marseille","lat":43.30129,"lon":5.38794,"is_reserved":false,"is_disabled":false,"rental_uris":{"android":"levelo://app?vid=445c2b2f-3f48-4e0e-a1b4-69807fa6eda0","ios":"levelo://app?vid=445c2b2f-3f48-4e0e-a1b4-69807fa6eda0"},"vehicle_type_id":"4","last_reported":1745997030,"current_range_meters":20800,"station_id":"ce4bghh2rcd13ifvqb60","pricing_plan_id":"cebpf4jnsgd1na2vs0mg"},{"bike_id":"c23c24c9-d17f-4afa-8f9e-642b8f012b3e","system_id":"levelo_inurba_marseille","lat":43.30302,"lon":5.3688,"is_reserved":false,"is_disabled":false,"rental_uris":{"android":"levelo://app?vid=c23c24c9-d17f-4afa-8f9e-642b8f012b3e","ios":"levelo://app?vid=c23c24c9-d17f-4afa-8f9e-642b8f012b3e"},"vehicle_type_id":"4","last_reported":1745997030,"current_range_meters":20800,"station_id":"ce4bgqh2rcd13ifvqc5g","pricing_plan_id":"cebpf4jnsgd1na2vs0mg"},{"bike_id":"a2e84648-4c41-4500-8cb4-c6622101464c","system_id":"levelo_inurba_marseille","lat":43.31488,"lon":5.37278,"is_reserved":false,"is_disabled":false,"rental_uris":{"android":"levelo://app?vid=a2e84648-4c41-4500-8cb4-c6622101464c","ios":"levelo://app?vid=a2e84648-4c41-4500-8cb4-c6622101464c"},"vehicle_type_id":"4","last_reported":1745997030,"current_range_meters":20800,"station_id":"ce4bgt12rcd13ifvqcd0","pricing_plan_id":"cebpf4jnsgd1na2vs0mg"},{"bike_id":"804c672c-117d-4c6f-ae97-83c9869977f3","system_id":"levelo_inurba_marseille","lat":43.25348,"lon":5.39464,"is_reserved":false,"is_disabled":false,"rental_uris":{"android":"levelo://app?vid=804c672c-117d-4c6f-ae97-83c9869977f3","ios":"levelo://app?vid=804c672c-117d-4c6f-ae97-83c9869977f3"},"vehicle_type_id":"4","last_reported":1745997030,"current_range_meters":20800,"station_id":"","pricing_plan_id":"cebpf4jnsgd1na2vs0mg"},{"bike_id":"dfda6650-cbd0-452d-aba0-b39189b1cc52","system_id":"levelo_inurba_marseille","lat":43.25943,"lon":5.40896,"is_reserved":false,"is_disabled":false,"rental_uris":{"android":"levelo://app?vid=dfda6650-cbd0-452d-aba0-b39189b1cc52","ios":"levelo://app?vid=dfda6650-cbd0-452d-aba0-b39189b1cc52"},"vehicle_type_id":"4","last_reported":1745997030,"current_range_meters":21600,"station_id":"ce4bhm92rcd13ifvqglg","pricing_plan_id":"cebpf4jnsgd1na2vs0mg"},{"bike_id":"cde443bb-9a98-4dfc-a82f-cbb08d6f149e","system_id":"levelo_inurba_marseille","lat":43.24181,"lon":5.39698,"is_reserved":false,"is_disabled":false,"rental_uris":{"android":"levelo://app?vid=cde443bb-9a98-4dfc-a82f-cbb08d6f149e","ios":"levelo://app?vid=cde443bb-9a98-4dfc-a82f-cbb08d6f149e"},"vehicle_type_id":"4","last_reported":1745997030,"current_range_meters":21600,"station_id":"ce4bhn12rcd13ifvqgpg","pricing_plan_id":"cebpf4jnsgd1na2vs0mg"},{"bike_id":"f1d6f623-dc7e-452d-93e8-bcb8756ed483","system_id":"levelo_inurba_marseille","lat":43.30534,"lon":5.36554,"is_reserved":false,"is_disabled":false,"rental_uris":{"android":"levelo://app?vid=f1d6f623-dc7e-452d-93e8-bcb8756ed483","ios":"levelo://app?vid=f1d6f623-dc7e-452d-93e8-bcb8756ed483"},"vehicle_type_id":"4","last_reported":1745997030,"current_range_meters":21600,"station_id":"ce4bgs12rcd13ifvqcag","pricing_plan_id":"cebpf4jnsgd1na2vs0mg"},{"bike_id":"1a1caba8-4685-4de5-95f3-e5178d1fc085","system_id":"levelo_inurba_marseille","lat":43.299114,"lon":5.374668,"is_reserved":false,"is_disabled":false,"rental_uris":{"android":"levelo://app?vid=1a1caba8-4685-4de5-95f3-e5178d1fc085","ios":"levelo://app?vid=1a1caba8-4685-4de5-95f3-e5178d1fc085"},"vehicle_type_id":"4","last_reported":1745997030,"current_range_meters":20800,"station_id":"ce4bgjh2rcd13ifvqbg0","pricing_plan_id":"cebpf4jnsgd1na2vs0mg"},{"bike_id":"3a1c6b65-5f0e-4cf0-b640-52fefa98b0b8","system_id":"levelo_inurba_marseille","lat":43.320352,"lon":5.415874,"is_reserved":false,"is_disabled":false,"rental_uris":{"android":"levelo://app?vid=3a1c6b65-5f0e-4cf0-b640-52fefa98b0b8","ios":"levelo://app?vid=3a1c6b65-5f0e-4cf0-b640-52fefa98b0b8"},"vehicle_type_id":"4","last_reported":1745997030,"current_range_meters":21600,"station_id":"ce4bhq92rcd13ifvqhkg","pricing_plan_id":"cebpf4jnsgd1na2vs0mg"},{"bike_id":"d7b25056-172e-4634-9a40-a03a5fd3d998","system_id":"levelo_inurba_marseille","lat":43.25935,"lon":5.40914,"is_reserved":false,"is_disabled":false,"rental_uris":{"android":"levelo://app?vid=d7b25056-172e-4634-9a40-a03a5fd3d998","ios":"levelo://app?vid=d7b25056-172e-4634-9a40-a03a5fd3d998"},"vehicle_type_id":"4","last_reported":1745997030,"current_range_meters":21600,"station_id":"ce4bhm92rcd13ifvqglg","pricing_plan_id":"cebpf4jnsgd1na2vs0mg"},{"bike_id":"18dc33f3-1416-445e-84ec-91d3f914e351","system_id":"levelo_inurba_marseille","lat":43.23143,"lon":5.43725,"is_reserved":false,"is_disabled":false,"rental_uris":{"android":"levelo://app?vid=18dc33f3-1416-445e-84ec-91d3f914e351","ios":"levelo://app?vid=18dc33f3-1416-445e-84ec-91d3f914e351"},"vehicle_type_id":"4","last_reported":1745997030,"current_range_meters":21600,"station_id":"ce4bhmp2rcd13ifvqgog","pricing_plan_id":"cebpf4jnsgd1na2vs0mg"},{"bike_id":"b94cf06f-2766-4146-91f6-f8807712900a","system_id":"levelo_inurba_marseille","lat":43.30905,"lon":5.36847,"is_reserved":false,"is_disabled":false,"rental_uris":{"android":"levelo://app?vid=b94cf06f-2766-4146-91f6-f8807712900a","ios":"levelo://app?vid=b94cf06f-2766-4146-91f6-f8807712900a"},"vehicle_type_id":"4","last_reported":1745997030,"current_range_meters":21600,"station_id":"ce4bgn92rcd13ifvqbvg","pricing_plan_id":"cebpf4jnsgd1na2vs0mg"},{"bike_id":"d5046189-0fb2-40d3-9ca2-25c5936499aa","system_id":"levelo_inurba_marseille","lat":43.28421,"lon":5.34978,"is_reserved":false,"is_disabled":true,"rental_uris":{"android":"levelo://app?vid=d5046189-0fb2-40d3-9ca2-25c5936499aa","ios":"levelo://app?vid=d5046189-0fb2-40d3-9ca2-25c5936499aa"},"vehicle_type_id":"4","last_reported":1745997030,"current_range_meters":21600,"station_id":"ce4bhbh2rcd13ifvqepg","pricing_plan_id":"cebpf4jnsgd1na2vs0mg"},{"bike_id":"9ab479a6-d618-4a90-9be9-5beac4f54bfe","system_id":"levelo_inurba_marseille","lat":43.24659,"lon":5.38164,"is_reserved":false,"is_disabled":false,"rental_uris":{"android":"levelo://app?vid=9ab479a6-d618-4a90-9be9-5beac4f54bfe","ios":"levelo://app?vid=9ab479a6-d618-4a90-9be9-5beac4f54bfe"},"vehicle_type_id":"4","last_reported":1745997030,"current_range_meters":20800,"station_id":"ce4bhih2rcd13ifvqfr0","pricing_plan_id":"cebpf4jnsgd1na2vs0mg"},{"bike_id":"cebca503-dafd-44a5-845b-437ef572e62e","system_id":"levelo_inurba_marseille","lat":43.30947,"lon":5.39049,"is_reserved":false,"is_disabled":false,"rental_uris":{"android":"levelo://app?vid=cebca503-dafd-44a5-845b-437ef572e62e","ios":"levelo://app?vid=cebca503-dafd-44a5-845b-437ef572e62e"},"vehicle_type_id":"4","last_reported":1745997030,"current_range_meters":22000,"station_id":"ce4bgup2rcd13ifvqco0","pricing_plan_id":"cebpf4jnsgd1na2vs0mg"},{"bike_id":"ad150e14-1dc9-40ac-b402-7a462a91c8f3","system_id":"levelo_inurba_marseille","lat":43.27316,"lon":5.39066,"is_reserved":false,"is_disabled":false,"rental_uris":{"android":"levelo://app?vid=ad150e14-1dc9-40ac-b402-7a462a91c8f3","ios":"levelo://app?vid=ad150e14-1dc9-40ac-b402-7a462a91c8f3"},"vehicle_type_id":"4","last_reported":1745997030,"current_range_meters":22000,"station_id":"ce4bhgp2rcd13ifvqfe0","pricing_plan_id":"cebpf4jnsgd1na2vs0mg"},{"bike_id":"9a6d1a0d-0520-4c44-b0a9-74ddbe754418","system_id":"levelo_inurba_marseille","lat":43.25812,"lon":5.41035,"is_reserved":false,"is_disabled":false,"rental_uris":{"android":"levelo://app?vid=9a6d1a0d-0520-4c44-b0a9-74ddbe754418","ios":"levelo://app?vid=9a6d1a0d-0520-4c44-b0a9-74ddbe754418"},"vehicle_type_id":"4","last_reported":1745997030,"current_range_meters":22000,"station_id":"","pricing_plan_id":"cebpf4jnsgd1na2vs0mg"},{"bike_id":"85ed9630-f5ea-445a-9f6f-4a2866addab8","system_id":"levelo_inurba_marseille","lat":43.25001,"lon":5.38926,"is_reserved":false,"is_disabled":false,"rental_uris":{"android":"levelo://app?vid=85ed9630-f5ea-445a-9f6f-4a2866addab8","ios":"levelo://app?vid=85ed9630-f5ea-445a-9f6f-4a2866addab8"},"vehicle_type_id":"4","last_reported":1745997030,"current_range_meters":22000,"station_id":"ce4bhgp2rcd13ifvqfd0","pricing_plan_id":"cebpf4jnsgd1na2vs0mg"},{"bike_id":"7ce0fc30-0282-4892-b7fd-24815bdbc668","system_id":"levelo_inurba_marseille","lat":43.30537,"lon":5.36548,"is_reserved":false,"is_disabled":false,"rental_uris":{"android":"levelo://app?vid=7ce0fc30-0282-4892-b7fd-24815bdbc668","ios":"levelo://app?vid=7ce0fc30-0282-4892-b7fd-24815bdbc668"},"vehicle_type_id":"4","last_reported":1745997030,"current_range_meters":22000,"station_id":"ce4bgs12rcd13ifvqcag","pricing_plan_id":"cebpf4jnsgd1na2vs0mg"},{"bike_id":"3c023b16-50e7-43a0-b7f2-324c428112fd","system_id":"levelo_inurba_marseille","lat":43.30888,"lon":5.37187,"is_reserved":false,"is_disabled":false,"rental_uris":{"android":"levelo://app?vid=3c023b16-50e7-43a0-b7f2-324c428112fd","ios":"levelo://app?vid=3c023b16-50e7-43a0-b7f2-324c428112fd"},"vehicle_type_id":"4","last_reported":1745997030,"current_range_meters":22000,"station_id":"ce4bguh2rcd13ifvqckg","pricing_plan_id":"cebpf4jnsgd1na2vs0mg"},{"bike_id":"989e02d3-b913-44aa-a612-3b9b47c38e6c","system_id":"levelo_inurba_marseille","lat":43.29087,"lon":5.38151,"is_reserved":false,"is_disabled":false,"rental_uris":{"android":"levelo://app?vid=989e02d3-b913-44aa-a612-3b9b47c38e6c","ios":"levelo://app?vid=989e02d3-b913-44aa-a612-3b9b47c38e6c"},"vehicle_type_id":"4","last_reported":1745997030,"current_range_meters":22000,"station_id":"ce4bh512rcd13ifvqe2g","pricing_plan_id":"cebpf4jnsgd1na2vs0mg"},