{"last_updated":1784384048,"ttl":60,"version":"2.2","data":{"bikes":[{"bike_id":"ba0c28b1-8732-48e2-8079-f25b2b3fbc3c","system_id":"levelo_inurba_marseille","lat":43.337444,"lon":5.374475,"is_reserved":false,"is_disabled":false,"rental_uris":{"android":"levelo://app?vid=ba0c28b1-8732-48e2-8079-f25b2b3fbc3c","ios":"levelo://app?vid=ba0c28b1-8732-48e2-8079-f25b2b3fbc3c"},"vehicle_type_id":"4","last_reported":1784384049,"current_range_meters":0,"station_id":"","pricing_plan_id":"cebpf4jnsgd1na2vs0mg"},{"bike_id":"60edfe12-15d1-4313-bbdb-954ccd45cbe2","system_id":"levelo_inurba_marseille","lat":43.2931,"lon":5.37161,"is_reserved":false,"is_disabled":false,"rental_uris":{"android":"levelo://app?vid=60edfe12-15d1-4313-bbdb-954ccd45cbe2","ios":"levelo://app?vid=60edfe12-15d1-4313-bbdb-954ccd45cbe2"},"vehicle_type_id":"4","last_reported":1784384049,"current_range_meters":35600,"station_id":"ce4bgh92rcd13ifvqb40","pricing_plan_id":"cebpf4jnsgd1na2vs0mg"},{"bike_id":"63dc20ac-90f4-4eae-ac6c-d24ae13a7929","system_id":"levelo_inurba_marseille","lat":43.25346,"lon":5.42165,"is_reserved":false,"is_disabled":false,"rental_uris":{"android":"levelo://app?vid=63dc20ac-90f4-4eae-ac6c-d24ae13a7929","ios":"levelo://app?vid=63dc20ac-90f4-4eae-ac6c-d24ae13a7929"},"vehicle_type_id":"4","last_reported":1784384049,"current_range_meters":32400,"station_id":"st_d2m65c5bi1j21697t3ng","pricing_plan_id":"cebpf4jnsgd1na2vs0mg"},{"bike_id":"a6935baa-eaca-439f-8c91-9c95f0f521d6","system_id":"levelo_inurba_marseille","lat":43.3047,"lon":5.37916,"is_reserved":false,"is_disabled":false,"rental_uris":{"android":"levelo://app?vid=a6935baa-eaca-439f-8c91-9c95f0f521d6","ios":"levelo://app?vid=a6935baa-eaca-439f-8c91-9c95f0f521d6"},"vehicle_type_id":"4","last_reported":1784384049,"current_range_meters":10000,"station_id":"ce4bgup2rcd13ifvqcn0","pricing_plan_id":"cebpf4jnsgd1na2vs0mg"},{"bike_id":"33e6a9a9-dba5-4ff9-b2d6-5d0bc9c3b28f","system_id":"levelo_inurba_marseille","lat":43.30538,"lon":5.36536,"is_reserved":false,"is_disabled":false,"rental_uris":{"android":"levelo://app?vid=33e6a9a9-dba5-4ff9-b2d6-5d0bc9c3b28f","ios":"levelo://app?vid=33e6a9a9-dba5-4ff9-b2d6-5d0bc9c3b28f"},"vehicle_type_id":"4","last_reported":1784384049,"current_range_meters":21600,"station_id":"ce4bgs12rcd13ifvqcag","pricing_plan_id":"cebpf4jnsgd1na2vs0mg"},{"bike_id":"80c4eaf8-a056-4b63-80e4-fe8c67c41580","system_id":"levelo_inurba_marseille","lat":43.30541,"lon":5.36532,"is_reserved":false,"is_disabled":false,"rental_uris":{"android":"levelo://app?vid=80c4eaf8-a056-4b63-80e4-fe8c67c41580","ios":"levelo://app?vid=80c4eaf8-a056-4b63-80e4-fe8c67c41580"},"vehicle_type_id":"4","last_reported":1784384049,"current_range_meters":39200,"station_id":"ce4bgs12rcd13ifvqcag","pricing_plan_id":"cebpf4jnsgd1na2vs0mg"},{"bike_id":"96d9dfc3-d000-45ed-a92a-b6b266fbe727","system_id":"levelo_inurba_marseille","lat":43.24172,"lon":5.39729,"is_reserved":false,"is_disabled":false,"rental_uris":{"android":"levelo://app?vid=96d9dfc3-d000-45ed-a92a-b6b266fbe727","ios":"levelo://app?vid=96d9dfc3-d000-45ed-a92a-b6b266fbe727"},"vehicle_type_id":"4","last_reported":1784384049,"current_range_meters":28400,"station_id":"ce4bhn12rcd13ifvqgpg","pricing_plan_id":"cebpf4jnsgd1na2vs0mg"},{"bike_id":"4bc585f4-7b34-4ea3-a909-abcff49c2177","system_id":"levelo_inurba_marseille","lat":43.21744,"lon":5.34601,"is_reserved":false,"is_disabled":false,"rental_uris":{"android":"levelo://app?vid=4bc585f4-7b34-4ea3-a909-abcff49c2177","ios":"levelo://app?vid=4bc585f4-7b34-4ea3-a909-abcff49c2177"},"vehicle_type_id":"4","last_reported":1784384049,"current_range_meters":10000,"station_id":"st_cvj6r9ubvosntc0bgbag","pricing_plan_id":"cebpf4jnsgd1na2vs0mg"},{"bike_id":"59891658-faa3-45db-865d-26a599d97d45","system_id":"levelo_inurba_marseille","lat":43.312356,"lon":5.368882,"is_reserved":false,"is_disabled":false,"rental_uris":{"android":"levelo://app?vid=59891658-faa3-45db-865d-26a599d97d45","ios":"levelo://app?vid=59891658-faa3-45db-865d-26a599d97d45"},"vehicle_type_id":"4","last_reported":1784384049,"current_range_meters":28400,"station_id":"ce4bgl92rcd13ifvqbq0","pricing_plan_id":"cebpf4jnsgd1na2vs0mg"},{"bike_id":"9da5cadf-cdd1-429b-9b5e-9173177dfcc4","system_id":"levelo_inurba_marseille","lat":43.24381,"lon":5.37077,"is_reserved":false,"is_disabled":false,"rental_uris":{"android":"levelo://app?vid=9da5cadf-cdd1-429b-9b5e-9173177dfcc4","ios":"levelo://app?vid=9da5cadf-cdd1-429b-9b5e-9173177dfcc4"},"vehicle_type_id":"4","last_reported":1784384049,"current_range_meters":10800,"station_id":"ce4bhhh2rcd13ifvqfk0","pricing_plan_id":"cebpf4jnsgd1na2vs0mg"},{"bike_id":"4c97a4b8-64e3-4026-b64c-e38ea480fc87","system_id":"levelo_inurba_marseille","lat":43.29191,"lon":5.35806,"is_reserved":false,"is_disabled":false,"rental_uris":{"android":"levelo://app?vid=4c97a4b8-64e3-4026-b64c-e38ea480fc87","ios":"levelo://app?vid=4c97a4b8-64e3-4026-b64c-e38ea480fc87"},"vehicle_type_id":"4","last_reported":1784384049,"current_range_meters":39200,"station_id":"ce4bhb12rcd13ifvqel0","pricing_plan_id":"cebpf4jnsgd1na2vs0mg"},{"bike_id":"e71494cd-d4a8-436a-a5c6-260a2924500e","system_id":"levelo_inurba_marseille","lat":43.26221,"lon":5.38779,"is_reserved":false,"is_disabled":true,"rental_uris":{"android":"levelo://app?vid=e71494cd-d4a8-436a-a5c6-260a2924500e","ios":"levelo://app?vid=e71494cd-d4a8-436a-a5c6-260a2924500e"},"vehicle_type_id":"4","last_reported":1784384049,"current_range_meters":28000,"station_id":"st_d8gjfg747rts73coq3b0","pricing_plan_id":"cebpf4jnsgd1na2vs0mg"},{"bike_id":"4dd83e35-73dd-44b8-9d3c-9c21e3418d4e","system_id":"levelo_inurba_marseille","lat":43.27484,"lon":5.42553,"is_reserved":false,"is_disabled":false,"rental_uris":{"android":"levelo://app?vid=4dd83e35-73dd-44b8-9d3c-9c21e3418d4e","ios":"levelo://app?vid=4dd83e35-73dd-44b8-9d3c-9c21e3418d4e"},"vehicle_type_id":"4","last_reported":1784384049,"current_range_meters":12800,"station_id":"st_d8t4bh7nbrqs73arha60","pricing_plan_id":"cebpf4jnsgd1na2vs0mg"},{"bike_id":"6666b766-2ccd-467a-ad53-5ec31fb4dec4","system_id":"levelo_inurba_marseille","lat":43.24793,"lon":5.37446,"is_reserved":false,"is_disabled":false,"rental_uris":{"android":"levelo://app?vid=6666b766-2ccd-467a-ad53-5ec31fb4dec4","ios":"levelo://app?vid=6666b766-2ccd-467a-ad53-5ec31fb4dec4"},"vehicle_type_id":"4","last_reported":1784384049,"current_range_meters":35600,"station_id":"ce4bhgh2rcd13ifvqfb0","pricing_plan_id":"cebpf4jnsgd1na2vs0mg"},{"bike_id":"46306a0d-9235-46a7-be48-833c7f44f8a2","system_id":"levelo_inurba_marseille","lat":43.29477,"lon":5.43301,"is_reserved":false,"is_disabled":false,"rental_uris":{"android":"levelo://app?vid=46306a0d-9235-46a7-be48-833c7f44f8a2","ios":"levelo://app?vid=46306a0d-9235-46a7-be48-833c7f44f8a2"},"vehicle_type_id":"4","last_reported":1784384049,"current_range_meters":31200,"station_id":"st_d3j5ugp08ojc73fj9d10","pricing_plan_id":"cebpf4jnsgd1na2vs0mg"},{"bike_id":"cf8fc643-bb9f-4bfc-8c96-35b197434132","system_id":"levelo_inurba_marseille","lat":43.28028,"lon":5.36957,"is_reserved":false,"is_disabled":false,"rental_uris":{"android":"levelo://app?vid=cf8fc643-bb9f-4bfc-8c96-35b197434132","ios":"levelo://app?vid=cf8fc643-bb9f-4bfc-8c96-35b197434132"},"vehicle_type_id":"4","last_reported":1784384049,"current_range_meters":19200,"station_id":"ce4bha12rcd13ifvqef0","pricing_plan_id":"cebpf4jnsgd1na2vs0mg"},{"bike_id":"d7da764c-850d-4748-a1c2-68e3cab24b17","system_id":"levelo_inurba_marseille","lat":43.26226,"lon":5.38764,"is_reserved":false,"is_disabled":false,"rental_uris":{"android":"levelo://app?vid=d7da764c-850d-4748-a1c2-68e3cab24b17","ios":"levelo://app?vid=d7da764c-850d-4748-a1c2-68e3cab24b17"},"vehicle_type_id":"4","last_reported":1784384049,"current_range_meters":39200,"station_id":"st_d8gjfg747rts73coq3b0","pricing_plan_id":"cebpf4jnsgd1na2vs0mg"},{"bike_id":"6341ebba-b3ad-4b3b-99aa-f86b4c0fec8a","system_id":"levelo_inurba_marseille","lat":43.26557,"lon":5.37318,"is_reserved":false,"is_disabled":false,"rental_uris":{"android":"levelo://app?vid=6341ebba-b3ad-4b3b-99aa-f86b4c0fec8a","ios":"levelo://app?vid=6341ebba-b3ad-4b3b-99aa-f86b4c0fec8a"},"vehicle_type_id":"4","last_reported":1784384049,"current_range_meters":30800,"station_id":"ce4bhg12rcd13ifvqf70","pricing_plan_id":"cebpf4jnsgd1na2vs0mg"},{"bike_id":"74db0d45-8e44-47c8-9bbb-438106ac8229","system_id":"levelo_inurba_marseille","lat":43.30808,"lon":5.3815,"is_reserved":false,"is_disabled":true,"rental_uris":{"android":"levelo://app?vid=74db0d45-8e44-47c8-9bbb-438106ac8229","ios":"levelo://app?vid=74db0d45-8e44-47c8-9bbb-438106ac8229"},"vehicle_type_id":"4","last_reported":1784384049,"current_range_meters":26800,"station_id":"ce4bgt12rcd13ifvqce0","pricing_plan_id":"cebpf4jnsgd1na2vs0mg"},{"bike_id":"c3763d08-2139-4ef6-9ac7-8be7d504c24b","system_id":"levelo_inurba_marseille","lat":43.22932,"lon":5.35372,"is_reserved":false,"is_disabled":false,"rental_uris":{"android":"levelo://app?vid=c3763d08-2139-4ef6-9ac7-8be7d504c24b","ios":"levelo://app?vid=c3763d08-2139-4ef6-9ac7-8be7d504c24b"},"vehicle_type_id":"4","last_reported":1784384049,"current_range_meters":39200,"station_id":"cpo3532slgdg3j2ikp40","pricing_plan_id":"cebpf4jnsgd1na2vs0mg"},{"bike_id":"4f867e86-9559-40c1-950f-af49ef80641d","system_id":"levelo_inurba_marseille","lat":43.26545,"lon":5.37291,"is_reserved":false,"is_disabled":false,"rental_uris":{"android":"levelo://app?vid=4f867e86-9559-40c1-950f-af49ef80641d","ios":"levelo://app?vid=4f867e86-9559-40c1-950f-af49ef80641d"},"vehicle_type_id":"4","last_reported":1784384049,"current_range_meters":39200,"station_id":"ce4bhg12rcd13ifvqf70","pricing_plan_id":"cebpf4jnsgd1na2vs0mg"},{"bike_id":"129ac767-2638-4c48-b9ca-8da71d89525b","system_id":"levelo_inurba_marseille","lat":43.23899,"lon":5.37463,"is_reserved":false,"is_disabled":false,"rental_uris":{"android":"levelo://app?vid=129ac767-2638-4c48-b9ca-8da71d89525b","ios":"levelo://app?vid=129ac767-2638-4c48-b9ca-8da71d89525b"},"vehicle_type_id":"4","last_reported":1784384049,"current_range_meters":30800,"station_id":"st_d6sm7csbq4hs73f8fpjg","pricing_plan_id":"cebpf4jnsgd1na2vs0mg"},{"bike_id":"c180bc57-12f5-435a-8219-0c0ef26aa8c0","system_id":"levelo_inurba_marseille","lat":43.22558,"lon":5.34853,"is_reserved":false,"is_disabled":false,"rental_uris":{"android":"levelo://app?vid=c180bc57-12f5-435a-8219-0c0ef26aa8c0","ios":"levelo://app?vid=c180bc57-12f5-435a-8219-0c0ef26aa8c0"},"vehicle_type_id":"4","last_reported":1784384049,"current_range_meters":35600,"station_id":"st_cvj5dfep6f1abm77gieg","pricing_plan_id":"cebpf4jnsgd1na2vs0mg"},{"bike_id":"32c95016-82d3-4943-8193-1a98c4bf18c7","system_id":"levelo_inurba_marseille","lat":43.28074,"lon":5.35654,"is_reserved":false,"is_disabled":false,"rental_uris":{"android":"levelo://app?vid=32c95016-82d3-4943-8193-1a98c4bf18c7","ios":"levelo://app?vid=32c95016-82d3-4943-8193-1a98c4bf18c7"},"vehicle_type_id":"4","last_reported":1784384049,"current_range_meters":8800,"station_id":"","pricing_plan_id":"cebpf4jnsgd1na2vs0mg"},{"bike_id":"1676da3d-f3d2-45d5-beae-71f8d8894f19","system_id":"levelo_inurba_marseille","lat":43.27373,"lon":5.3626,"is_reserved":false,"is_disabled":false,"rental_uris":{"android":"levelo://app?vid=1676da3d-f3d2-45d5-beae-71f8d8894f19","ios":"levelo://app?vid=1676da3d-f3d2-45d5-beae-71f8d8894f19"},"vehicle_type_id":"4","last_reported":1784384049,"current_range_meters":27200,"station_id":"ce4bhbh2rcd13ifvqeo0","pricing_plan_id":"cebpf4jnsgd1na2vs0mg"},{"bike_id":"a6a33a18-41c6-45de-a2d0-436ba5fa8320","system_id":"levelo_inurba_marseille","lat":43.27951,"lon":5.38719,"is_reserved":false,"is_disabled":false,"rental_uris":{"android":"levelo://app?vid=a6a33a18-41c6-45de-a2d0-436ba5fa8320","ios":"levelo://app?vid=a6a33a18-41c6-45de-a2d0-436ba5fa8320"},"vehicle_type_id":"4","last_reported":1784384049,"current_range_meters":38000,"station_id":"ce4bhg12rcd13ifvqf80","pricing_plan_id":"cebpf4jnsgd1na2vs0mg"},{"bike_id":"ad650ba3-413e-4b12-8252-f78519c6730a","system_id":"levelo_inurba_marseille","lat":43.29808,"lon":5.40401,"is_reserved":false,"is_disabled":false,"rental_uris":{"android":"levelo://app?vid=ad650ba3-413e-4b12-8252-f78519c6730a","ios":"levelo://app?vid=ad650ba3-413e-4b12-8252-f78519c6730a"},"vehicle_type_id":"4","last_reported":1784384049,"current_range_meters":23200,"station_id":"ce4bh112rcd13ifvqd90","pricing_plan_id":"cebpf4jnsgd1na2vs0mg"},{"bike_id":"ef6880d0-6944-4f6a-8f40-6662368b8f75","system_id":"levelo_inurba_marseille","lat":43.31706,"lon":5.43733,"is_reserved":false,"is_disabled":false,"rental_uris":{"android":"levelo://app?vid=ef6880d0-6944-4f6a-8f40-6662368b8f75","ios":"levelo://app?vid=ef6880d0-6944-4f6a-8f40-6662368b8f75"},"vehicle_type_id":"4","last_reported":1784384049,"current_range_meters":11600,"station_id":"ce4bhp92rcd13ifvqhcg","pricing_plan_id":"cebpf4jnsgd1na2vs0mg"},{"bike_id":"76e56128-7e8d-4151-aad9-a0fce8b3b381","system_id":"levelo_inurba_marseille","lat":43.25352,"lon":5.42185,"is_reserved":false,"is_disabled":false,"rental_uris":{"android":"levelo://app?vid=76e56128-7e8d-4151-aad9-a0fce8b3b381","ios":"levelo://app?vid=76e56128-7e8d-4151-aad9-a0fce8b3b381"},"vehicle_type_id":"4","last_reported":1784384049,"current_range_meters":39200,"station_id":"st_d2m65c5bi1j21697t3ng","pricing_plan_id":"cebpf4jnsgd1na2vs0mg"},{"bike_id":"ac73781c-7964-453a-82c7-5e417be13435","system_id":"levelo_inurba_marseille","lat":43.28612,"lon":5.37074,"is_reserved":false,"is_disabled":false,"rental_uris":{"android":"levelo://app?vid=ac73781c-7964-453a-82c7-5e417be13435","ios":"levelo://app?vid=ac73781c-7964-453a-82c7-5e417be13435"},"vehicle_type_id":"4","last_reported":1784384049,"current_range_meters":34000,"station_id":"ce4bht12rcd13ifvqi60","pricing_plan_id":"cebpf4jnsgd1na2vs0mg"},{"bike_id":"431a9582-7044-41fd-aac9-f4abde960ed9","system_id":"levelo_inurba_marseille","lat":43.24805,"lon":5.3745,"is_reserved":false,"is_disabled":false,"rental_uris":{"android":"levelo://app?vid=431a9582-7044-41fd-aac9-f4abde960ed9","ios":"levelo://app?vid=431a9582-7044-41fd-aac9-f4abde960ed9"},"vehicle_type_id":"4","last_reported":1784384049,"current_range_meters":39200,"station_id":"ce4bhgh2rcd13ifvqfb0","pricing_plan_id":"cebpf4jnsgd1na2vs0mg"},{"bike_id":"d183c213-4177-4bf2-b9e0-24872be8a9c8","system_id":"levelo_inurba_marseille","lat":43.28489,"lon":5.48382,"is_reserved":false,"is_disabled":false,"rental_uris":{"android":"levelo://app?vid=d183c213-4177-4bf2-b9e0-24872be8a9c8","ios":"levelo://app?vid=d183c213-4177-4bf2-b9e0-24872be8a9c8"},"vehicle_type_id":"4","last_reported":1784384049,"current_range_meters":17200,"station_id":"st_d3svhcjqgbts73a3dn0g","pricing_plan_id":"cebpf4jnsgd1na2vs0mg"},{"bike_id":"a687a6f3-2477-4e4a-a156-bd6355c403cd","system_id":"levelo_inurba_marseille","lat":43.24394,"lon":5.37058,"is_reserved":false,"is_disabled":false,"rental_uris":{"android":"levelo://app?vid=a687a6f3-2477-4e4a-a156-bd6355c403cd","ios":"levelo://app?vid=a687a6f3-2477-4e4a-a156-bd6355c403cd"},"vehicle_type_id":"4","last_reported":1784384049,"current_range_meters":28800,"station_id":"ce4bhhh2rcd13ifvqfk0","pricing_plan_id":"cebpf4jnsgd1na2vs0mg"},{"bike_id":"e975d81f-466f-4fbf-9278-3f973430f9dc","system_id":"levelo_inurba_marseille","lat":43.26186,"lon":5.37461,"is_reserved":false,"is_disabled":false,"rental_uris":{"android":"levelo://app?vid=e975d81f-466f-4fbf-9278-3f973430f9dc","ios":"levelo://app?vid=e975d81f-466f-4fbf-9278-3f973430f9dc"},"vehicle_type_id":"4","last_reported":1784384049,"current_range_meters":18800,"station_id":"ce4bhgp2rcd13ifvqfc0","pricing_plan_id":"cebpf4jnsgd1na2vs0mg"},{"bike_id":"2d23d12c-90da-44ae-abfb-57a80ab383a1","system_id":"levelo_inurba_marseille","lat":43.30927,"lon":5.40142,"is_reserved":false,"is_disabled":false,"rental_uris":{"android":"levelo://app?vid=2d23d12c-90da-44ae-abfb-57a80ab383a1","ios":"levelo://app?vid=2d23d12c-90da-44ae-abfb-57a80ab383a1"},"vehicle_type_id":"4","last_reported":1784384049,"current_range_meters":39200,"station_id":"ce4bgvp2rcd13ifvqct0","pricing_plan_id":"cebpf4jnsgd1na2vs0mg"},{"bike_id":"db2d5ab9-8f6f-4d12-ad4c-501953a6ebe4","system_id":"levelo_inurba_marseille","lat":43.29802,"lon":5.37925,"is_reserved":false,"is_disabled":false,"rental_uris":{"android":"levelo://app?vid=db2d5ab9-8f6f-4d12-ad4c-501953a6ebe4","ios":"levelo://app?vid=db2d5ab9-8f6f-4d12-ad4c-501953a6ebe4"},"vehicle_type_id":"4","last_reported":1784384049,"current_range_meters":24000,"station_id":"","pricing_plan_id":"cebpf4jnsgd1na2vs0mg"},{"bike_id":"45c5ced3-1cf0-4f2f-9585-5240a7b8b5d9","system_id":"levelo_inurba_marseille","lat":43.30555,"lon":5.36543,"is_reserved":false,"is_disabled":false,"rental_uris":{"android":"levelo://app?vid=45c5ced3-1cf0-4f2f-9585-5240a7b8b5d9","ios":"levelo://app?vid=45c5ced3-1cf0-4f2f-9585-5240a7b8b5d9"},"vehicle_type_id":"4","last_reported":1784384049,"current_range_meters":24800,"station_id":"ce4bgs12rcd13ifvqcag","pricing_plan_id":"cebpf4jnsgd1na2vs0mg"},{"bike_id":"66df794d-7f14-43e4-b260-a1af0c54edca","system_id":"levelo_inurba_marseille","lat":43.21757,"lon":5.34593,"is_reserved":false,"is_disabled":false,"rental_uris":{"android":"levelo://app?vid=66df794d-7f14-43e4-b260-a1af0c54edca","ios":"levelo://app?vid=66df794d-7f14-43e4-b260-a1af0c54edca"},"vehicle_type_id":"4","last_reported":1784384049,"current_range_meters":10800,"station_id":"st_cvj6r9ubvosntc0bgbag","pricing_plan_id":"cebpf4jnsgd1na2vs0mg"},{"bike_id":"e0c7065e-7f74-4b06-ae7b-f933c635df87","system_id":"levelo_inurba_marseille","lat":43.29548,"lon":5.42267,"is_reserved":false,"is_disabled":false,"rental_uris":{"android":"levelo://app?vid=e0c7065e-7f74-4b06-ae7b-f933c635df87","ios":"levelo://app?vid=e0c7065e-7f74-4b06-ae7b-f933c635df87"},"vehicle_type_id":"4","last_reported":1784384049,"current_range_meters":39200,"station_id":"ce4bhph2rcd13ifvqhdg","pricing_plan_id":"cebpf4jnsgd1na2vs0mg"},{"bike_id":"3d9d15ce-5804-4209-b92a-723f598d0341","system_id":"levelo_inurba_marseille","lat":43.21196,"lon":5.35074,"is_reserved":false,"is_disabled":false,"rental_uris":{"android":"levelo://app?vid=3d9d15ce-5804-4209-b92a-723f598d0341","ios":"levelo://app?vid=3d9d15ce-5804-4209-b92a-723f598d0341"},"vehicle_type_id":"4","last_reported":1784384049,"current_range_meters":38800,"station_id":"st_cvj6sg6p6f1abm77japg","pricing_plan_id":"cebpf4jnsgd1na2vs0mg"},{"bike_id":"ff6c8340-fd25-4964-85ef-b09e1173c088","system_id":"levelo_inurba_marseille","lat":43.28482,"lon":5.38413,"is_reserved":false,"is_disabled":false,"rental_uris":{"android":"levelo://app?vid=ff6c8340-fd25-4964-85ef-b09e1173c088","ios":"levelo://app?vid=ff6c8340-fd25-4964-85ef-b09e1173c088"},"vehicle_type_id":"4","last_reported":1784384049,"current_range_meters":33600,"station_id":"ce4bh512rcd13ifvqe3g","pricing_plan_id":"cebpf4jnsgd1na2vs0mg"},{"bike_id":"c0ef1994-b5b2-4b3d-8d66-9a943057fd35","system_id":"levelo_inurba_marseille","lat":43.29876,"lon":5.39724,"is_reserved":false,"is_disabled":true,"rental_uris":{"android":"levelo://app?vid=c0ef1994-b5b2-4b3d-8d66-9a943057fd35","ios":"levelo://app?vid=c0ef1994-b5b2-4b3d-8d66-9a943057fd35"},"vehicle_type_id":"4","last_reported":1784384049,"current_range_meters":1200,"station_id":"ce4bh0h2rcd13ifvqd50","pricing_plan_id":"cebpf4jnsgd1na2vs0mg"},{"bike_id":"197205d4-ad95-4f9d-ac75-fff28ecfc868","system_id":"levelo_inurba_marseille","lat":43.29622,"lon":5.37712,"is_reserved":false,"is_disabled":true,"rental_uris":{"android":"levelo://app?vid=197205d4-ad95-4f9d-ac75-fff28ecfc868","ios":"levelo://app?vid=197205d4-ad95-4f9d-ac75-fff28ecfc868"},"vehicle_type_id":"4","last_reported":1784384049,"current_range_meters":800,"station_id":"ce4bgi92rcd13ifvqb90","pricing_plan_id":"cebpf4jnsgd1na2vs0mg"},{"bike_id":"f8374f31-ef07-4b9b-b269-b3025197c4bb","system_id":"levelo_inurba_marseille","lat":43.261757,"lon":5.404057,"is_reserved":false,"is_disabled":false,"rental_uris":{"android":"levelo://app?vid=f8374f31-ef07-4b9b-b269-b3025197c4bb","ios":"levelo://app?vid=f8374f31-ef07-4b9b-b269-b3025197c4bb"},"vehicle_type_id":"4","last_reported":1784384049,"current_range_meters":23200,"station_id":"","pricing_plan_id":"cebpf4jnsgd1na2vs0mg"},{"bike_id":"e1bb6861-ee59-438c-aa2a-2a553b2d6f43","system_id":"levelo_inurba_marseille","lat":43.27222,"lon":5.40976,"is_reserved":false,"is_disabled":false,"rental_uris":{"android":"levelo://app?vid=e1bb6861-ee59-438c-aa2a-2a553b2d6f43","ios":"levelo://app?vid=e1bb6861-ee59-438c-aa2a-2a553b2d6f43"},"vehicle_type_id":"4","last_reported":1784384049,"current_range_meters":31200,"station_id":"","pricing_plan_id":"cebpf4jnsgd1na2vs0mg"},{"bike_id":"84579d97-62d5-423c-955f-2e18c318bf1a","system_id":"levelo_inurba_marseille","lat":43.30525,"lon":5.3655,"is_reserved":false,"is_disabled":false,"rental_uris":{"android":"levelo://app?vid=84579d97-62d5-423c-955f-2e18c318bf1a","ios":"levelo://app?vid=84579d97-62d5-423c-955f-2e18c318bf1a"},"vehicle_type_id":"4","last_reported":1784384049,"current_range_meters":32000,"station_id":"ce4bgs12rcd13ifvqcag","pricing_plan_id":"cebpf4jnsgd1na2vs0mg"},{"bike_id":"c2e7fe27-d2b0-440e-b62d-ead50feed951","system_id":"levelo_inurba_marseille","lat":43.29478,"lon":5.43305,"is_reserved":false,"is_disabled":false,"rental_uris":{"android":"levelo://app?vid=c2e7fe27-d2b0-440e-b62d-ead50feed951","ios":"levelo://app?vid=c2e7fe27-d2b0-440e-b62d-ead50feed951"},"vehicle_type_id":"4","last_reported":1784384049,"current_range_meters":8000,"station_id":"st_d3j5ugp08ojc73fj9d10","pricing_plan_id":"cebpf4jnsgd1na2vs0mg"},{"bike_id":"cd8636bf-4678-4336-a11c-b12b2f9a64d1","system_id":"levelo_inurba_marseille","lat":43.24467,"lon":5.42543,"is_reserved":false,"is_disabled":false,"rental_uris":{"android":"levelo://app?vid=cd8636bf-4678-4336-a11c-b12b2f9a64d1","ios":"levelo://app?vid=cd8636bf-4678-4336-a11c-b12b2f9a64d1"},"vehicle_type_id":"4","last_reported":1784384049,"current_range_meters":38800,"station_id":"st_d4a3vfp97mjs738cd8kg","pricing_plan_id":"cebpf4jnsgd1na2vs0mg"},{"bike_id":"99babde9-3915-452c-b14b-d4cd123ce9a3","system_id":"levelo_inurba_marseille","lat":43.26938,"lon":5.40275,"is_reserved":false,"is_disabled":false,"rental_uris":{"android":"levelo://app?vid=99babde9-3915-452c-b14b-d4cd123ce9a3","ios":"levelo://app?vid=99babde9-3915-452c-b14b-d4cd123ce9a3"},"vehicle_type_id":"4","last_reported":1784384049,"current_range_meters":9200,"station_id":"cjm6bp8fraef2m0cb0m0","pricing_plan_id":"cebpf4jnsgd1na2vs0mg"},{"bike_id":"2623e023-e953-40ac-8068-15d2169ca99d","system_id":"levelo_inurba_marseille","lat":43.287,"lon":5.46679,"is_reserved":false,"is_disabled":false,"rental_uris":{"android":"levelo://app?vid=2623e023-e953-40ac-8068-15d2169ca99d","ios":"levelo://app?vid=2623e023-e953-40ac-8068-15d2169ca99d"},"vehicle_type_id":"4","last_reported":1784384049,"current_range_meters":39200,"station_id":"st_d6tc3vkotcvc738tfjhg","pricing_plan_id":"cebpf4jnsgd1na2vs0mg"},{"bike_id":"5b4027e9-78b0-4a64-a834-78af322d2a8c","system_id":"levelo_inurba_marseille","lat":43.29041,"lon":5.3592,"is_reserved":false,"is_disabled":false,"rental_uris":{"android":"levelo://app?vid=5b4027e9-78b0-4a64-a834-78af322d2a8c","ios":"levelo://app?vid=5b4027e9-78b0-4a64-a834-78af322d2a8c"},"vehicle_type_id":"4","last_reported":1784384049,"current_range_meters":36400,"station_id":"ce4bha92rcd13ifvqeg0","pricing_plan_id":"cebpf4jnsgd1na2vs0mg"},{"bike_id":"9d27f3aa-b353-4a7a-a0fa-132f296bb47c","system_id":"levelo_inurba_marseille","lat":43.21735,"lon":5.34609,"is_reserved":false,"is_disabled":false,"rental_uris":{"android":"levelo://app?vid=9d27f3aa-b353-4a7a-a0fa-132f296bb47c","ios":"levelo://app?vid=9d27f3aa-b353-4a7a-a0fa-132f296bb47c"},"vehicle_type_id":"4","last_reported":1784384049,"current_range_meters":4000,"station_id":"st_cvj6r9ubvosntc0bgbag","pricing_plan_id":"cebpf4jnsgd1na2vs0mg"},{"bike_id":"61f8bc17-759c-4cf2-a6ae-9fb0bd83fff5","system_id":"levelo_inurba_marseille","lat":43.33025,"lon":5.39044,"is_reserved":false,"is_disabled":false,"rental_uris":{"android":"levelo://app?vid=61f8bc17-759c-4cf2-a6ae-9fb0bd83fff5","ios":"levelo://app?vid=61f8bc17-759c-4cf2-a6ae-9fb0bd83fff5"},"vehicle_type_id":"4","last_reported":1784384049,"current_range_meters":35600,"station_id":"ce4bhr92rcd13ifvqhrg","pricing_plan_id":"cebpf4jnsgd1na2vs0mg"},{"bike_id":"9a287dfb-f055-45ba-b3de-0a3c1e052c10","system_id":"levelo_inurba_marseille","lat":43.26551,"lon":5.37284,"is_reserved":false,"is_disabled":false,"rental_uris":{"android":"levelo://app?vid=9a287dfb-f055-45ba-b3de-0a3c1e052c10","ios":"levelo://app?vid=9a287dfb-f055-45ba-b3de-0a3c1e052c10"},"vehicle_type_id":"4","last_reported":1784384049,"current_range_meters":11600,"station_id":"ce4bhg12rcd13ifvqf70","pricing_plan_id":"cebpf4jnsgd1na2vs0mg"},{"bike_id":"d789cd3f-3b70-4df6-b3e4-d8a762cd95da","system_id":"levelo_inurba_marseille","lat":43.29263,"lon":5.38447,"is_reserved":false,"is_disabled":false,"rental_uris":{"android":"levelo://app?vid=d789cd3f-3b70-4df6-b3e4-d8a762cd95da","ios":"levelo://app?vid=d789cd3f-3b70-4df6-b3e4-d8a762cd95da"},"vehicle_type_id":"4","last_reported":1784384049,"current_range_meters":33200,"station_id":"ce4bh692rcd13ifvqea0","pricing_plan_id":"cebpf4jnsgd1na2vs0mg"},{"bike_id":"f8955ac0-4fb0-43de-bef9-e6c33ea71dd3","system_id":"levelo_inurba_marseille","lat":43.28612,"lon":5.35106,"is_reserved":false,"is_disabled":true,"rental_uris":{"android":"levelo://app?vid=f8955ac0-4fb0-43de-bef9-e6c33ea71dd3","ios":"levelo://app?vid=f8955ac0-4fb0-43de-bef9-e6c33ea71dd3"},"vehicle_type_id":"4","last_reported":1784384049,"current_range_meters":30400,"station_id":"ce4bhch2rcd13ifvqeug","pricing_plan_id":"cebpf4jnsgd1na2vs0mg"},{"bike_id":"1aba4b2e-71a6-4e82-8e9d-0b35db6f35c2","system_id":"levelo_inurba_marseille","lat":43.24168,"lon":5.36391,"is_reserved":false,"is_disabled":false,"rental_uris":{"android":"levelo://app?vid=1aba4b2e-71a6-4e82-8e9d-0b35db6f35c2","ios":"levelo://app?vid=1aba4b2e-71a6-4e82-8e9d-0b35db6f35c2"},"vehicle_type_id":"4","last_reported":1784384049,"current_range_meters":6400,"station_id":"cpo36qri1sfpv3e86is0","pricing_plan_id":"cebpf4jnsgd1na2vs0mg"},{"bike_id":"863d0357-9100-4091-8be6-61d932e4e898","system_id":"levelo_inurba_marseille","lat":43.33756,"lon":5.37458,"is_reserved":false,"is_disabled":false,"rental_uris":{"android":"levelo://app?vid=863d0357-9100-4091-8be6-61d932e4e898","ios":"levelo://app?vid=863d0357-9100-4091-8be6-61d932e4e898"},"vehicle_type_id":"4","last_reported":1784384049,"current_range_meters":36400,"station_id":"","pricing_plan_id":"cebpf4jnsgd1na2vs0mg"},{"bike_id":"0d249168-c1b9-4fc1-a9ca-ee81dcabf286","system_id":"levelo_inurba_marseille","lat":43.30847,"lon":5.40411,"is_reserved":false,"is_disabled":false,"rental_uris":{"android":"levelo://app?vid=0d249168-c1b9-4fc1-a9ca-ee81dcabf286","ios":"levelo://app?vid=0d249168-c1b9-4fc1-a9ca-ee81dcabf286"},"vehicle_type_id":"4","last_reported":1784384049,"current_range_meters":12000,"station_id":"","pricing_plan_id":"cebpf4jnsgd1na2vs0mg"},{"bike_id":"27699146-49cf-4831-90a6-367878143f99","system_id":"levelo_inurba_marseille","lat":43.297846,"lon":5.371004,"is_reserved":false,"is_disabled":true,"rental_uris":{"android":"levelo://app?vid=27699146-49cf-4831-90a6-367878143f99","ios":"levelo://app?vid=27699146-49cf-4831-90a6-367878143f99"},"vehicle_type_id":"4","last_reported":1784384049,"current_range_meters":1600,"station_id":"ce4bgop2rcd13ifvqc1g","pricing_plan_id":"cebpf4jnsgd1na2vs0mg"},{"bike_id":"42a06539-fa05-4673-9b8c-ca7a6023165c","system_id":"levelo_inurba_marseille","lat":43.26682,"lon":5.38264,"is_reserved":false,"is_disabled":false,"rental_uris":{"android":"levelo://app?vid=42a06539-fa05-4673-9b8c-ca7a6023165c","ios":"levelo://app?vid=42a06539-fa05-4673-9b8c-ca7a6023165c"},"vehicle_type_id":"4","last_reported":1784384049,"current_range_meters":38400,"station_id":"ce4bhg92rcd13ifvqf90","pricing_plan_id":"cebpf4jnsgd1na2vs0mg"},{"bike_id":"5af94bc8-d6db-40fc-b15b-ea1f0b1a6e1c","system_id":"levelo_inurba_marseille","lat":43.28151,"lon":5.42642,"is_reserved":false,"is_disabled":false,"rental_uris":{"android":"levelo://app?vid=5af94bc8-d6db-40fc-b15b-ea1f0b1a6e1c","ios":"levelo://app?vid=5af94bc8-d6db-40fc-b15b-ea1f0b1a6e1c"},"vehicle_type_id":"4","last_reported":1784384049,"current_range_meters":38800,"station_id":"ce4bhnh2rcd13ifvqgug","pricing_plan_id":"cebpf4jnsgd1na2vs0mg"},{"bike_id":"d1967e65-efe7-4594-ab29-6c0a30b77681","system_id":"levelo_inurba_marseille","lat":43.23964,"lon":5.36633,"is_reserved":false,"is_disabled":true,"rental_uris":{"android":"levelo://app?vid=d1967e65-efe7-4594-ab29-6c0a30b77681","ios":"levelo://app?vid=d1967e65-efe7-4594-ab29-6c0a30b77681"},"vehicle_type_id":"4","last_reported":1784384049,"current_range_meters":0,"station_id":"ce4bhi12rcd13ifvqfp0","pricing_plan_id":"cebpf4jnsgd1na2vs0mg"},{"bike_id":"8ba7f2d6-52d3-4c56-b19a-19a142e62779","system_id":"levelo_inurba_marseille","lat":43.24071,"lon":5.37755,"is_reserved":false,"is_disabled":false,"rental_uris":{"android":"levelo://app?vid=8ba7f2d6-52d3-4c56-b19a-19a142e62779","ios":"levelo://app?vid=8ba7f2d6-52d3-4c56-b19a-19a142e62779"},"vehicle_type_id":"4","last_reported":1784384049,"current_range_meters":12800,"station_id":"ce4bhnp2rcd13ifvqgvg","pricing_plan_id":"cebpf4jnsgd1na2vs0mg"},{"bike_id":"83430c1a-b44e-4fb6-9f9c-fdb69c2d228c","system_id":"levelo_inurba_marseille","lat":43.2606,"lon":5.39386,"is_reserved":false,"is_disabled":false,"rental_uris":{"android":"levelo://app?vid=83430c1a-b44e-4fb6-9f9c-fdb69c2d228c","ios":"levelo://app?vid=83430c1a-b44e-4fb6-9f9c-fdb69c2d228c"},"vehicle_type_id":"4","last_reported":1784384049,"current_range_meters":37600,"station_id":"ce4bhh92rcd13ifvqfj0","pricing_plan_id":"cebpf4jnsgd1na2vs0mg"},{"bike_id":"66afdf81-3bfc-4f74-a2b5-978630e17649","system_id":"levelo_inurba_marseille","lat":43.27913,"lon":5.37281,"is_reserved":false,"is_disabled":false,"rental_uris":{"android":"levelo://app?vid=66afdf81-3bfc-4f74-a2b5-978630e17649","ios":"levelo://app?vid=66afdf81-3bfc-4f74-a2b5-978630e17649"},"vehicle_type_id":"4","last_reported":1784384049,"current_range_meters":28400,"station_id":"","pricing_plan_id":"cebpf4jnsgd1na2vs0mg"},{"bike_id":"6663c7e2-0c53-40a9-b587-d7ab8630ddec","system_id":"levelo_inurba_marseille","lat":43.28615,"lon":5.35103,"is_reserved":false,"is_disabled":false,"rental_uris":{"android":"levelo://app?vid=6663c7e2-0c53-40a9-b587-d7ab8630ddec","ios":"levelo://app?vid=6663c7e2-0c53-40a9-b587-d7ab8630ddec"},"vehicle_type_id":"4","last_reported":1784384049,"current_range_meters":22400,"station_id":"ce4bhch2rcd13ifvqeug","pricing_plan_id":"cebpf4jnsgd1na2vs0mg"},{"bike_id":"7d07d702-b6e7-42e0-8c39-2f197a7dd36e","system_id":"levelo_inurba_marseille","lat":43.24395,"lon":5.37065,"is_reserved":false,"is_disabled":true,"rental_uris":{"android":"levelo://app?vid=7d07d702-b6e7-42e0-8c39-2f197a7dd36e","ios":"levelo://app?vid=7d07d702-b6e7-42e0-8c39-2f197a7dd36e"},"vehicle_type_id":"4","last_reported":1784384049,"current_range_meters":0,"station_id":"ce4bhhh2rcd13ifvqfk0","pricing_plan_id":"cebpf4jnsgd1na2vs0mg"},{"bike_id":"48bbb17f-3c18-45db-9934-681eaa0c91f2","system_id":"levelo_inurba_marseille","lat":43.3066,"lon":5.40079,"is_reserved":false,"is_disabled":false,"rental_uris":{"android":"levelo://app?vid=48bbb17f-3c18-45db-9934-681eaa0c91f2","ios":"levelo://app?vid=48bbb17f-3c18-45db-9934-681eaa0c91f2"},"vehicle_type_id":"4","last_reported":1784384049,"current_range_meters":18000,"station_id":"ce4bh112rcd13ifvqda0","pricing_plan_id":"cebpf4jnsgd1na2vs0mg"},{"bike_id":"e2182894-34fb-4ce9-bfe2-db105b21d29f","system_id":"levelo_inurba_marseille","lat":43.29573,"lon":5.37519,"is_reserved":false,"is_disabled":false,"rental_uris":{"android":"levelo://app?vid=e2182894-34fb-4ce9-bfe2-db105b21d29f","ios":"levelo://app?vid=e2182894-34fb-4ce9-bfe2-db105b21d29f"},"vehicle_type_id":"4","last_reported":1784384049,"current_range_meters":36400,"station_id":"ce4bgh92rcd13ifvqb50","pricing_plan_id":"cebpf4jnsgd1na2vs0mg"},{"bike_id":"eb3f6e6e-2212-49f5-86e1-efb96e52f7d6","system_id":"levelo_inurba_marseille","lat":43.29933,"lon":5.37487,"is_reserved":false,"is_disabled":false,"rental_uris":{"android":"levelo://app?vid=eb3f6e6e-2212-49f5-86e1-efb96e52f7d6","ios":"levelo://app?vid=eb3f6e6e-2212-49f5-86e1-efb96e52f7d6"},"vehicle_type_id":"4","last_reported":1784384049,"current_range_meters":27200,"station_id":"ce4bgjh2rcd13ifvqbg0","pricing_plan_id":"cebpf4jnsgd1na2vs0mg"},{"bike_id":"a2c0a829-1f20-44d6-b929-6beb07ab5d65","system_id":"levelo_inurba_marseille","lat":43.30208,"lon":5.39478,"is_reserved":false,"is_disabled":false,"rental_uris":{"android":"levelo://app?vid=a2c0a829-1f20-44d6-b929-6beb07ab5d65","ios":"levelo://app?vid=a2c0a829-1f20-44d6-b929-6beb07ab5d65"},"vehicle_type_id":"4","last_reported":1784384049,"current_range_meters":7200,"station_id":"ce4bh0p2rcd13ifvqd70","pricing_plan_id":"cebpf4jnsgd1na2vs0mg"},{"bike_id":"c552b414-4f18-4dab-a6be-0c646338c3d2","system_id":"levelo_inurba_marseille","lat":43.30547,"lon":5.38433,"is_reserved":false,"is_disabled":false,"rental_uris":{"android":"levelo://app?vid=c552b414-4f18-4dab-a6be-0c646338c3d2","ios":"levelo://app?vid=c552b414-4f18-4dab-a6be-0c646338c3d2"},"vehicle_type_id":"4","last_reported":1784384049,"current_range_meters":20000,"station_id":"ce4bgg92rcd13ifvqb30","pricing_plan_id":"cebpf4jnsgd1na2vs0mg"},{"bike_id":"4120c7d7-1403-4d50-96ed-9b7731a97efc","system_id":"levelo_inurba_marseille","lat":43.32109,"lon":5.36772,"is_reserved":false,"is_disabled":false,"rental_uris":{"android":"levelo://app?vid=4120c7d7-1403-4d50-96ed-9b7731a97efc","ios":"levelo://app?vid=4120c7d7-1403-4d50-96ed-9b7731a97efc"},"vehicle_type_id":"4","last_reported":1784384049,"current_range_meters":27200,"station_id":"ce4bhrh2rcd13ifvqhug","pricing_plan_id":"cebpf4jnsgd1na2vs0mg"},{"bike_id":"21a31c6d-ff9d-434c-94c9-c56fd7669232","system_id":"levelo_inurba_marseille","lat":43.28607,"lon":5.37061,"is_reserved":false,"is_disabled":false,"rental_uris":{"android":"levelo://app?vid=21a31c6d-ff9d-434c-94c9-c56fd7669232","ios":"levelo://app?vid=21a31c6d-ff9d-434c-94c9-c56fd7669232"},"vehicle_type_id":"4","last_reported":1784384049,"current_range_meters":24000,"station_id":"ce4bht12rcd13ifvqi60","pricing_plan_id":"cebpf4jnsgd1na2vs0mg"},{"bike_id":"6a40ca84-c49d-4131-9bc5-6627f39265f9","system_id":"levelo_inurba_marseille","lat":43.2868,"lon":5.38639,"is_reserved":false,"is_disabled":false,"rental_uris":{"android":"levelo://app?vid=6a40ca84-c49d-4131-9bc5-6627f39265f9","ios":"levelo://app?vid=6a40ca84-c49d-4131-9bc5-6627f39265f9"},"vehicle_type_id":"4","last_reported":1784384049,"current_range_meters":7200,"station_id":"ce4bh492rcd13ifvqdug","pricing_plan_id":"cebpf4jnsgd1na2vs0mg"},{"bike_id":"7e62a1e7-e43e-4c6d-97fe-eb42228edf6d","system_id":"levelo_inurba_marseille","lat":43.26544,"lon":5.39437,"is_reserved":false,"is_disabled":false,"rental_uris":{"android":"levelo://app?vid=7e62a1e7-e43e-4c6d-97fe-eb42228edf6d","ios":"levelo://app?vid=7e62a1e7-e43e-4c6d-97fe-eb42228edf6d"},"vehicle_type_id":"4","last_reported":1784384049,"current_range_meters":9600,"station_id":"","pricing_plan_id":"cebpf4jnsgd1na2vs0mg"},{"bike_id":"f8217ea6-8367-4568-a7e0-baa2605a3277","system_id":"levelo_inurba_marseille","lat":43.28257,"lon":5.35061,"is_reserved":false,"is_disabled":false,"rental_uris":{"android":"levelo://app?vid=f8217ea6-8367-4568-a7e0-baa2605a3277","ios":"levelo://app?vid=f8217ea6-8367-4568-a7e0-baa2605a3277"},"vehicle_type_id":"4","last_reported":1784384049,"current_range_meters":18800,"station_id":"ce4bhbp2rcd13ifvqerg","pricing_plan_id":"cebpf4jnsgd1na2vs0mg"},{"bike_id":"9e598366-6aff-406e-9fda-b6c0d00f0298","system_id":"levelo_inurba_marseille","lat":43.27057,"lon":5.40256,"is_reserved":false,"is_disabled":false,"rental_uris":{"android":"levelo://app?vid=9e598366-6aff-406e-9fda-b6c0d00f0298","ios":"levelo://app?vid=9e598366-6aff-406e-9fda-b6c0d00f0298"},"vehicle_type_id":"4","last_reported":1784384049,"current_range_meters":38800,"station_id":"ce4bhk92rcd13ifvqgc0","pricing_plan_id":"cebpf4jnsgd1na2vs0mg"},{"bike_id":"1a75f866-8b63-4416-807c-71f8c52bb87d","system_id":"levelo_inurba_marseille","lat":43.31231,"lon":5.36882,"is_reserved":false,"is_disabled":false,"rental_uris":{"android":"levelo://app?vid=1a75f866-8b63-4416-807c-71f8c52bb87d","ios":"levelo://app?vid=1a75f866-8b63-4416-807c-71f8c52bb87d"},"vehicle_type_id":"4","last_reported":1784384049,"current_range_meters":26800,"station_id":"ce4bgl92rcd13ifvqbq0","pricing_plan_id":"cebpf4jnsgd1na2vs0mg"},{"bike_id":"2a4171e7-4e20-41f3-941b-37780cdee558","system_id":"levelo_inurba_marseille","lat":43.31698,"lon":5.4047,"is_reserved":false,"is_disabled":false,"rental_uris":{"android":"levelo://app?vid=2a4171e7-4e20-41f3-941b-37780cdee558","ios":"levelo://app?vid=2a4171e7-4e20-41f3-941b-37780cdee558"},"vehicle_type_id":"4","last_reported":1784384049,"current_range_meters":19200,"station_id":"ce4bh012rcd13ifvqd00","pricing_plan_id":"cebpf4jnsgd1na2vs0mg"},{"bike_id":"eb285f73-deba-4482-b7c7-be983c70f482","system_id":"levelo_inurba_marseille","lat":43.26556,"lon":5.37291,"is_reserved":false,"is_disabled":false,"rental_uris":{"android":"levelo://app?vid=eb285f73-deba-4482-b7c7-be983c70f482","ios":"levelo://app?vid=eb285f73-deba-4482-b7c7-be983c70f482"},"vehicle_type_id":"4","last_reported":1784384049,"current_range_meters":16800,"station_id":"ce4bhg12rcd13ifvqf70","pricing_plan_id":"cebpf4jnsgd1na2vs0mg"},{"bike_id":"81587832-75ed-49cd-91c3-f57f9b8cec45","system_id":"levelo_inurba_marseille","lat":43.29034,"lon":5.35918,"is_reserved":false,"is_disabled":true,"rental_uris":{"android":"levelo://app?vid=81587832-75ed-49cd-91c3-f57f9b8cec45","ios":"levelo://app?vid=81587832-75ed-49cd-91c3-f57f9b8cec45"},"vehicle_type_id":"4","last_reported":1784384049,"current_range_meters":7200,"station_id":"ce4bha92rcd13ifvqeg0","pricing_plan_id":"cebpf4jnsgd1na2vs0mg"},{"bike_id":"6683ac4e-0767-479e-adb8-614de052b1c8","system_id":"levelo_inurba_marseille","lat":43.28841,"lon":5.3586,"is_reserved":false,"is_disabled":true,"rental_uris":{"android":"levelo://app?vid=6683ac4e-0767-479e-adb8-614de052b1c8","ios":"levelo://app?vid=6683ac4e-0767-479e-adb8-614de052b1c8"},"vehicle_type_id":"4","last_reported":1784384049,"current_range_meters":1200,"station_id":"ce4bhb12rcd13ifvqem0","pricing_plan_id":"cebpf4jnsgd1na2vs0mg"},{"bike_id":"c63c38ec-8e22-400e-b2e9-2243c31f13bb","system_id":"levelo_inurba_marseille","lat":43.29046,"lon":5.35905,"is_reserved":false,"is_disabled":false,"rental_uris":{"android":"levelo://app?vid=c63c38ec-8e22-400e-b2e9-2243c31f13bb","ios":"levelo://app?vid=c63c38ec-8e22-400e-b2e9-2243c31f13bb"},"vehicle_type_id":"4","last_reported":1784384049,"current_range_meters":30000,"station_id":"ce4bha92rcd13ifvqeg0","pricing_plan_id":"cebpf4jnsgd1na2vs0mg"},{"bike_id":"d7459500-649e-4541-9095-96b08f7cbb16","system_id":"levelo_inurba_marseille","lat":43.26206,"lon":5.37925,"is_reserved":false,"is_disabled":false,"rental_uris":{"android":"levelo://app?vid=d7459500-649e-4541-9095-96b08f7cbb16","ios":"levelo://app?vid=d7459500-649e-4541-9095-96b08f7cbb16"},"vehicle_type_id":"4","last_reported":1784384049,"current_range_meters":11600,"station_id":"ce4bhjp2rcd13ifvqg90","pricing_plan_id":"cebpf4jnsgd1na2vs0mg"},{"bike_id":"845894b6-8a9b-465d-9c7c-5c5f502f64fb","system_id":"levelo_inurba_marseille","lat":43.28724,"lon":5.36095,"is_reserved":false,"is_disabled":false,"rental_uris":{"android":"levelo://app?vid=845894b6-8a9b-465d-9c7c-5c5f502f64fb","ios":"levelo://app?vid=845894b6-8a9b-465d-9c7c-5c5f502f64fb"},"vehicle_type_id":"4","last_reported":1784384049,"current_range_meters":14400,"station_id":"cki0cbj6b192h4jlfktg","pricing_plan_id":"cebpf4jnsgd1na2vs0mg"},{"bike_id":"e363b584-92a2-4c61-adfd-371a2577000d","system_id":"levelo_inurba_marseille","lat":43.29895,"lon":5.43658,"is_reserved":false,"is_disabled":false,"rental_uris":{"android":"levelo://app?vid=e363b584-92a2-4c61-adfd-371a2577000d","ios":"levelo://app?vid=e363b584-92a2-4c61-adfd-371a2577000d"},"vehicle_type_id":"4","last_reported":1784384049,"current_range_meters":39200,"station_id":"ce4bhpp2rcd13ifvqhfg","pricing_plan_id":"cebpf4jnsgd1na2vs0mg"},{"bike_id":"1738dc9c-1133-48f6-bf1e-5749d0da4495","system_id":"levelo_inurba_marseille","lat":43.29225,"lon":5.36217,"is_reserved":false,"is_disabled":false,"rental_uris":{"android":"levelo://app?vid=1738dc9c-1133-48f6-bf1e-5749d0da4495","ios":"levelo://app?vid=1738dc9c-1133-48f6-bf1e-5749d0da4495"},"vehicle_type_id":"4","last_reported":1784384049,"current_range_meters":27200,"station_id":"","pricing_plan_id":"cebpf4jnsgd1na2vs0mg"},{"bike_id":"e64b8443-3e36-4708-b2a4-f5e2e1982d42","system_id":"levelo_inurba_marseille","lat":43.28259,"lon":5.35069,"is_reserved":false,"is_disabled":false,"rental_uris":{"android":"levelo://app?vid=e64b8443-3e36-4708-b2a4-f5e2e1982d42","ios":"levelo://app?vid=e64b8443-3e36-4708-b2a4-f5e2e1982d42"},"vehicle_type_id":"4","last_reported":1784384049,"current_range_meters":21600,"station_id":"ce4bhbp2rcd13ifvqerg","pricing_plan_id":"cebpf4jnsgd1na2vs0mg"},{"bike_id":"bb930763-3e69-439e-a63a-3974a101ff0d","system_id":"levelo_inurba_marseille","lat":43.30638,"lon":5.40083,"is_reserved":false,"is_disabled":false,"rental_uris":{"android":"levelo://app?vid=bb930763-3e69-439e-a63a-3974a101ff0d","ios":"levelo://app?vid=bb930763-3e69-439e-a63a-3974a101ff0d"},"vehicle_type_id":"4","last_reported":1784384049,"current_range_meters":29600,"station_id":"ce4bh112rcd13ifvqda0","pricing_plan_id":"cebpf4jnsgd1na2vs0mg"},{"bike_id":"7ff8118f-6c81-4cdf-8a1d-4753d954065d","system_id":"levelo_inurba_marseille","lat":43.2962,"lon":5.37981,"is_reserved":false,"is_disabled":false,"rental_uris":{"android":"levelo://app?vid=7ff8118f-6c81-4cdf-8a1d-4753d954065d","ios":"levelo://app?vid=7ff8118f-6c81-4cdf-8a1d-4753d954065d"},"vehicle_type_id":"4","last_reported":1784384049,"current_range_meters":6800,"station_id":"","pricing_plan_id":"cebpf4jnsgd1na2vs0mg"},{"bike_id":"8d8b9b68-1b3e-4685-955e-b8241080cd7b","system_id":"levelo_inurba_marseille","lat":43.315,"lon":5.37306,"is_reserved":false,"is_disabled":false,"rental_uris":{"android":"levelo://app?vid=8d8b9b68-1b3e-4685-955e-b8241080cd7b","ios":"levelo://app?vid=8d8b9b68-1b3e-4685-955e-b8241080cd7b"},"vehicle_type_id":"4","last_reported":1784384049,"current_range_meters":38000,"station_id":"ce4bgt12rcd13ifvqcd0","pricing_plan_id":"cebpf4jnsgd1na2vs0mg"},{"bike_id":"0efa47ee-d0bf-416e-82f3-4055cb3fadd2","system_id":"levelo_inurba_marseille","lat":43.24807,"lon":5.37453,"is_reserved":false,"is_disabled":false,"rental_uris":{"android":"levelo://app?vid=0efa47ee-d0bf-416e-82f3-4055cb3fadd2","ios":"levelo://app?vid=0efa47ee-d0bf-416e-82f3-4055cb3fadd2"},"vehicle_type_id":"4","last_reported":1784384049,"current_range_meters":38400,"station_id":"ce4bhgh2rcd13ifvqfb0","pricing_plan_id":"cebpf4jnsgd1na2vs0mg"},{"bike_id":"77200152-1df4-4327-8683-fbd10d723712","system_id":"levelo_inurba_marseille","lat":43.30733,"lon":5.38223,"is_reserved":false,"is_disabled":true,"rental_uris":{"android":"levelo://app?vid=77200152-1df4-4327-8683-fbd10d723712","ios":"levelo://app?vid=77200152-1df4-4327-8683-fbd10d723712"},"vehicle_type_id":"4","last_reported":1784384049,"current_range_meters":1600,"station_id":"","pricing_plan_id":"cebpf4jnsgd1na2vs0mg"},{"bike_id":"848a1aff-274a-4b44-93f8-df5211554a34","system_id":"levelo_inurba_marseille","lat":43.28706,"lon":5.37383,"is_reserved":false,"is_disabled":true,"rental_uris":{"android":"levelo://app?vid=848a1aff-274a-4b44-93f8-df5211554a34","ios":"levelo://app?vid=848a1aff-274a-4b44-93f8-df5211554a34"},"vehicle_type_id":"4","last_reported":1784384049,"current_range_meters":22400,"station_id":"ce4bh3p2rcd13ifvqdq0","pricing_plan_id":"cebpf4jnsgd1na2vs0mg"},{"bike_id":"179651ab-9770-4bb6-960c-7476537bd1ba","system_id":"levelo_inurba_marseille","lat":43.27374,"lon":5.36251,"is_reserved":false,"is_disabled":false,"rental_uris":{"android":"levelo://app?vid=179651ab-9770-4bb6-960c-7476537bd1ba","ios":"levelo://app?vid=179651ab-9770-4bb6-960c-7476537bd1ba"},"vehicle_type_id":"4","last_reported":1784384049,"current_range_meters":7200,"station_id":"ce4bhbh2rcd13ifvqeo0","pricing_plan_id":"cebpf4jnsgd1na2vs0mg"},{"bike_id":"7eb8ce95-4e9a-4ce3-a1cc-44081352892a","system_id":"levelo_inurba_marseille","lat":43.30534,"lon":5.3842,"is_reserved":false,"is_disabled":false,"rental_uris":{"android":"levelo://app?vid=7eb8ce95-4e9a-4ce3-a1cc-44081352892a","ios":"levelo://app?vid=7eb8ce95-4e9a-4ce3-a1cc-44081352892a"},"vehicle_type_id":"4","last_reported":1784384049,"current_range_meters":17200,"station_id":"ce4bgg92rcd13ifvqb30","pricing_plan_id":"cebpf4jnsgd1na2vs0mg"},{"bike_id":"1de5753c-f77d-4a34-b134-58bee8bc010c","system_id":"levelo_inurba_marseille","lat":43.26534,"lon":5.37309,"is_reserved":false,"is_disabled":false,"rental_uris":{"android":"levelo://app?vid=1de5753c-f77d-4a34-b134-58bee8bc010c","ios":"levelo://app?vid=1de5753c-f77d-4a34-b134-58bee8bc010c"},"vehicle_type_id":"4","last_reported":1784384049,"current_range_meters":20800,"station_id":"ce4bhg12rcd13ifvqf70","pricing_plan_id":"cebpf4jnsgd1na2vs0mg"},{"bike_id":"515084d4-7673-434a-8f32-1c911e26bfa8","system_id":"levelo_inurba_marseille","lat":43.31487,"lon":5.373,"is_reserved":false,"is_disabled":false,"rental_uris":{"android":"levelo://app?vid=515084d4-7673-434a-8f32-1c911e26bfa8","ios":"levelo://app?vid=515084d4-7673-434a-8f32-1c911e26bfa8"},"vehicle_type_id":"4","last_reported":1784384049,"current_range_meters":39200,"station_id":"ce4bgt12rcd13ifvqcd0","pricing_plan_id":"cebpf4jnsgd1na2vs0mg"},{"bike_id":"bd259e01-bc4a-46f9-a113-c4b2420c55cb","system_id":"levelo_inurba_marseille","lat":43.24394,"lon":5.37053,"is_reserved":false,"is_disabled":false,"rental_uris":{"android":"levelo://app?vid=bd259e01-bc4a-46f9-a113-c4b2420c55cb","ios":"levelo://app?vid=bd259e01-bc4a-46f9-a113-c4b2420c55cb"},"vehicle_type_id":"4","last_reported":1784384049,"current_range_meters":6400,"station_id":"ce4bhhh2rcd13ifvqfk0","pricing_plan_id":"cebpf4jnsgd1na2vs0mg"},{"bike_id":"22342dea-7b4b-4daa-9352-b6f3c6e0a8e1","system_id":"levelo_inurba_marseille","lat":43.299641,"lon":5.385025,"is_reserved":false,"is_disabled":false,"rental_uris":{"android":"levelo://app?vid=22342dea-7b4b-4daa-9352-b6f3c6e0a8e1","ios":"levelo://app?vid=22342dea-7b4b-4daa-9352-b6f3c6e0a8e1"},"vehicle_type_id":"4","last_reported":1784384049,"current_range_meters":36000,"station_id":"ce4bgj92rcd13ifvqbd0","pricing_plan_id":"cebpf4jnsgd1na2vs0mg"},{"bike_id":"12e1b09d-c63f-48ec-9e45-aca04317c26f","system_id":"levelo_inurba_marseille","lat":43.28616,"lon":5.35098,"is_reserved":false,"is_disabled":false,"rental_uris":{"android":"levelo://app?vid=12e1b09d-c63f-48ec-9e45-aca04317c26f","ios":"levelo://app?vid=12e1b09d-c63f-48ec-9e45-aca04317c26f"},"vehicle_type_id":"4","last_reported":1784384049,"current_range_meters":33600,"station_id":"ce4bhch2rcd13ifvqeug","pricing_plan_id":"cebpf4jnsgd1na2vs0mg"},{"bike_id":"4edc4148-d9b7-4b9d-9714-ef6d71a21c97","system_id":"levelo_inurba_marseille","lat":43.32294,"lon":5.38283,"is_reserved":false,"is_disabled":false,"rental_uris":{"android":"levelo://app?vid=4edc4148-d9b7-4b9d-9714-ef6d71a21c97","ios":"levelo://app?vid=4edc4148-d9b7-4b9d-9714-ef6d71a21c97"},"vehicle_type_id":"4","last_reported":1784384049,"current_range_meters":38400,"station_id":"ce4bhr12rcd13ifvqhqg","pricing_plan_id":"cebpf4jnsgd1na2vs0mg"},{"bike_id":"ae5a0ed2-8aa5-425b-99f6-2aee209ee161","system_id":"levelo_inurba_marseille","lat":43.29203,"lon":5.35819,"is_reserved":false,"is_disabled":false,"rental_uris":{"android":"levelo://app?vid=ae5a0ed2-8aa5-425b-99f6-2aee209ee161","ios":"levelo://app?vid=ae5a0ed2-8aa5-425b-99f6-2aee209ee161"},"vehicle_type_id":"4","last_reported":1784384049,"current_range_meters":38400,"station_id":"ce4bhb12rcd13ifvqel0","pricing_plan_id":"cebpf4jnsgd1na2vs0mg"},{"bike_id":"d7282232-c975-4a88-8978-14c4ed2ea27c","system_id":"levelo_inurba_marseille","lat":43.26951,"lon":5.38637,"is_reserved":false,"is_disabled":false,"rental_uris":{"android":"levelo://app?vid=d7282232-c975-4a88-8978-14c4ed2ea27c","ios":"levelo://app?vid=d7282232-c975-4a88-8978-14c4ed2ea27c"},"vehicle_type_id":"4","last_reported":1784384049,"current_range_meters":39200,"station_id":"ce4bhh92rcd13ifvqfh0","pricing_plan_id":"cebpf4jnsgd1na2vs0mg"},{"bike_id":"0f6ff1da-c9e3-42e7-a8d3-8280d1c0addc","system_id":"levelo_inurba_marseille","lat":43.33735,"lon":5.37503,"is_reserved":false,"is_disabled":false,"rental_uris":{"android":"levelo://app?vid=0f6ff1da-c9e3-42e7-a8d3-8280d1c0addc","ios":"levelo://app?vid=0f6ff1da-c9e3-42e7-a8d3-8280d1c0addc"},"vehicle_type_id":"4","last_reported":1784384049,"current_range_meters":32000,"station_id":"","pricing_plan_id":"cebpf4jnsgd1na2vs0mg"},{"bike_id":"1e628dec-3141-48e0-b510-1c285ab03f4c","system_id":"levelo_inurba_marseille","lat":43.26382,"lon":5.41084,"is_reserved":false,"is_disabled":false,"rental_uris":{"android":"levelo://app?vid=1e628dec-3141-48e0-b510-1c285ab03f4c","ios":"levelo://app?vid=1e628dec-3141-48e0-b510-1c285ab03f4c"},"vehicle_type_id":"4","last_reported":1784384049,"current_range_meters":38400,"station_id":"st_d4e5ca6na9uc73bfl5fg","pricing_plan_id":"cebpf4jnsgd1na2vs0mg"},{"bike_id":"8337f5b4-2806-4bc0-9f71-af183adb5db8","system_id":"levelo_inurba_marseille","lat":43.23822,"lon":5.43512,"is_reserved":false,"is_disabled":false,"rental_uris":{"android":"levelo://app?vid=8337f5b4-2806-4bc0-9f71-af183adb5db8","ios":"levelo://app?vid=8337f5b4-2806-4bc0-9f71-af183adb5db8"},"vehicle_type_id":"4","last_reported":1784384049,"current_range_meters":8400,"station_id":"","pricing_plan_id":"cebpf4jnsgd1na2vs0mg"},{"bike_id":"0d69c6ad-1581-485b-8bcd-d541c4976ef8","system_id":"levelo_inurba_marseille","lat":43.31885,"lon":5.36822,"is_reserved":false,"is_disabled":false,"rental_uris":{"android":"levelo://app?vid=0d69c6ad-1581-485b-8bcd-d541c4976ef8","ios":"levelo://app?vid=0d69c6ad-1581-485b-8bcd-d541c4976ef8"},"vehicle_type_id":"4","last_reported":1784384049,"current_range_meters":12400,"station_id":"st_d6o2h0d0559c73evc1b0","pricing_plan_id":"cebpf4jnsgd1na2vs0mg"},{"bike_id":"6fc8b5b0-6351-4c5d-a6ac-3a414b33f1d2","system_id":"levelo_inurba_marseille","lat":43.26026,"lon":5.37553,"is_reserved":false,"is_disabled":false,"rental_uris":{"android":"levelo://app?vid=6fc8b5b0-6351-4c5d-a6ac-3a414b33f1d2","ios":"levelo://app?vid=6fc8b5b0-6351-4c5d-a6ac-3a414b33f1d2"},"vehicle_type_id":"4","last_reported":1784384049,"current_range_meters":35200,"station_id":"ce4bhgh2rcd13ifvqfa0","pricing_plan_id":"cebpf4jnsgd1na2vs0mg"},{"bike_id":"8234e4ba-c0cc-45bb-8dac-83745f25b6f7","system_id":"levelo_inurba_marseille","lat":43.32491,"lon":5.36585,"is_reserved":false,"is_disabled":false,"rental_uris":{"android":"levelo://app?vid=8234e4ba-c0cc-45bb-8dac-83745f25b6f7","ios":"levelo://app?vid=8234e4ba-c0cc-45bb-8dac-83745f25b6f7"},"vehicle_type_id":"4","last_reported":1784384049,"current_range_meters":26800,"station_id":"ce4bhs12rcd13ifvqhvg","pricing_plan_id":"cebpf4jnsgd1na2vs0mg"},{"bike_id":"ad193227-d210-4e9a-af26-3f25b41f58db","system_id":"levelo_inurba_marseille","lat":43.239,"lon":5.37455,"is_reserved":false,"is_disabled":false,"rental_uris":{"android":"levelo://app?vid=ad193227-d210-4e9a-af26-3f25b41f58db","ios":"levelo://app?vid=ad193227-d210-4e9a-af26-3f25b41f58db"},"vehicle_type_id":"4","last_reported":1784384049,"current_range_meters":38400,"station_id":"st_d6sm7csbq4hs73f8fpjg","pricing_plan_id":"cebpf4jnsgd1na2vs0mg"},{"bike_id":"ee06a958-7f2b-4eb7-a6b1-2d3112db17a0","system_id":"levelo_inurba_marseille","lat":43.3079,"lon":5.37158,"is_reserved":false,"is_disabled":false,"rental_uris":{"android":"levelo://app?vid=ee06a958-7f2b-4eb7-a6b1-2d3112db17a0","ios":"levelo://app?vid=ee06a958-7f2b-4eb7-a6b1-2d3112db17a0"},"vehicle_type_id":"4","last_reported":1784384049,"current_range_meters":20000,"station_id":"","pricing_plan_id":"cebpf4jnsgd1na2vs0mg"},{"bike_id":"e8c7d6b8-2ce9-47d1-8cd4-1c08bfe3cca7","system_id":"levelo_inurba_marseille","lat":43.29001,"lon":5.35596,"is_reserved":false,"is_disabled":false,"rental_uris":{"android":"levelo://app?vid=e8c7d6b8-2ce9-47d1-8cd4-1c08bfe3cca7","ios":"levelo://app?vid=e8c7d6b8-2ce9-47d1-8cd4-1c08bfe3cca7"},"vehicle_type_id":"4","last_reported":1784384049,"current_range_meters":28800,"station_id":"ce4bhb92rcd13ifvqen0","pricing_plan_id":"cebpf4jnsgd1na2vs0mg"},{"bike_id":"fc339925-cd70-4d23-9c12-997e9544ccfd","system_id":"levelo_inurba_marseille","lat":43.2847,"lon":5.38418,"is_reserved":false,"is_disabled":false,"rental_uris":{"android":"levelo://app?vid=fc339925-cd70-4d23-9c12-997e9544ccfd","ios":"levelo://app?vid=fc339925-cd70-4d23-9c12-997e9544ccfd"},"vehicle_type_id":"4","last_reported":1784384049,"current_range_meters":2800,"station_id":"ce4bh512rcd13ifvqe3g","pricing_plan_id":"cebpf4jnsgd1na2vs0mg"},{"bike_id":"942148f9-90f2-4171-8f05-98ba0ca85bcb","system_id":"levelo_inurba_marseille","lat":43.28477,"lon":5.48404,"is_reserved":false,"is_disabled":false,"rental_uris":{"android":"levelo://app?vid=942148f9-90f2-4171-8f05-98ba0ca85bcb","ios":"levelo://app?vid=942148f9-90f2-4171-8f05-98ba0ca85bcb"},"vehicle_type_id":"4","last_reported":1784384049,"current_range_meters":4400,"station_id":"st_d3svhcjqgbts73a3dn0g","pricing_plan_id":"cebpf4jnsgd1na2vs0mg"},{"bike_id":"c810f4d1-b4da-406c-8d26-e38927a8150c","system_id":"levelo_inurba_marseille","lat":43.26688,"lon":5.38279,"is_reserved":false,"is_disabled":false,"rental_uris":{"android":"levelo://app?vid=c810f4d1-b4da-406c-8d26-e38927a8150c","ios":"levelo://app?vid=c810f4d1-b4da-406c-8d26-e38927a8150c"},"vehicle_type_id":"4","last_reported":1784384049,"current_range_meters":30800,"station_id":"ce4bhg92rcd13ifvqf90","pricing_plan_id":"cebpf4jnsgd1na2vs0mg"},{"bike_id":"b2b194ed-86a5-4dc8-b828-5b80e1681197","system_id":"levelo_inurba_marseille","lat":43.28528,"lon":5.44101,"is_reserved":false,"is_disabled":false,"rental_uris":{"android":"levelo://app?vid=b2b194ed-86a5-4dc8-b828-5b80e1681197","ios":"levelo://app?vid=b2b194ed-86a5-4dc8-b828-5b80e1681197"},"vehicle_type_id":"4","last_reported":1784384049,"current_range_meters":38800,"station_id":"st_d3j3df2ikq2c7380ej80","pricing_plan_id":"cebpf4jnsgd1na2vs0mg"},{"bike_id":"2a93def1-9840-4751-b465-b53bb0ce6123","system_id":"levelo_inurba_marseille","lat":43.22555,"lon":5.41632,"is_reserved":false,"is_disabled":false,"rental_uris":{"android":"levelo://app?vid=2a93def1-9840-4751-b465-b53bb0ce6123","ios":"levelo://app?vid=2a93def1-9840-4751-b465-b53bb0ce6123"},"vehicle_type_id":"4","last_reported":1784384049,"current_range_meters":12000,"station_id":"st_d2o4gvlbi1j2169b742g","pricing_plan_id":"cebpf4jnsgd1na2vs0mg"},{"bike_id":"edf2de48-0e02-4593-b7d3-e5418dcef451","system_id":"levelo_inurba_marseille","lat":43.30474,"lon":5.37906,"is_reserved":false,"is_disabled":false,"rental_uris":{"android":"levelo://app?vid=edf2de48-0e02-4593-b7d3-e5418dcef451","ios":"levelo://app?vid=edf2de48-0e02-4593-b7d3-e5418dcef451"},"vehicle_type_id":"4","last_reported":1784384049,"current_range_meters":27200,"station_id":"ce4bgup2rcd13ifvqcn0","pricing_plan_id":"cebpf4jnsgd1na2vs0mg"},{"bike_id":"d2b08bfe-8d05-4397-91e9-fe938a2b845f","system_id":"levelo_inurba_marseille","lat":43.2749,"lon":5.42452,"is_reserved":false,"is_disabled":false,"rental_uris":{"android":"levelo://app?vid=d2b08bfe-8d05-4397-91e9-fe938a2b845f","ios":"levelo://app?vid=d2b08bfe-8d05-4397-91e9-fe938a2b845f"},"vehicle_type_id":"4","last_reported":1784384049,"current_range_meters":31200,"station_id":"ce4bhn92rcd13ifvqgrg","pricing_plan_id":"cebpf4jnsgd1na2vs0mg"},{"bike_id":"23b107ce-b6cc-45b7-bbb8-6fc6a6cbc260","system_id":"levelo_inurba_marseille","lat":43.31748,"lon":5.39029,"is_reserved":false,"is_disabled":false,"rental_uris":{"android":"levelo://app?vid=23b107ce-b6cc-45b7-bbb8-6fc6a6cbc260","ios":"levelo://app?vid=23b107ce-b6cc-45b7-bbb8-6fc6a6cbc260"},"vehicle_type_id":"4","last_reported":1784384049,"current_range_meters":16800,"station_id":"ce4bhqp2rcd13ifvqhng","pricing_plan_id":"cebpf4jnsgd1na2vs0mg"},{"bike_id":"67fe41d8-7e3c-44ef-97a2-403aa062ead3","system_id":"levelo_inurba_marseille","lat":43.28409,"lon":5.34983,"is_reserved":false,"is_disabled":false,"rental_uris":{"android":"levelo://app?vid=67fe41d8-7e3c-44ef-97a2-403aa062ead3","ios":"levelo://app?vid=67fe41d8-7e3c-44ef-97a2-403aa062ead3"},"vehicle_type_id":"4","last_reported":1784384049,"current_range_meters":16400,"station_id":"ce4bhbh2rcd13ifvqepg","pricing_plan_id":"cebpf4jnsgd1na2vs0mg"},{"bike_id":"e97d923d-d560-461e-94e7-6b746b3d8d92","system_id":"levelo_inurba_marseille","lat":43.32114,"lon":5.36773,"is_reserved":false,"is_disabled":false,"rental_uris":{"android":"levelo://app?vid=e97d923d-d560-461e-94e7-6b746b3d8d92","ios":"levelo://app?vid=e97d923d-d560-461e-94e7-6b746b3d8d92"},"vehicle_type_id":"4","last_reported":1784384049,"current_range_meters":26000,"station_id":"ce4bhrh2rcd13ifvqhug","pricing_plan_id":"cebpf4jnsgd1na2vs0mg"},{"bike_id":"eb97f188-bf77-4cfa-82f5-3cc624843059","system_id":"levelo_inurba_marseille","lat":43.26939,"lon":5.38658,"is_reserved":false,"is_disabled":false,"rental_uris":{"android":"levelo://app?vid=eb97f188-bf77-4cfa-82f5-3cc624843059","ios":"levelo://app?vid=eb97f188-bf77-4cfa-82f5-3cc624843059"},"vehicle_type_id":"4","last_reported":1784384049,"current_range_meters":39200,"station_id":"ce4bhh92rcd13ifvqfh0","pricing_plan_id":"cebpf4jnsgd1na2vs0mg"},{"bike_id":"34d4b69a-01e7-4040-b6b5-985a245a6631","system_id":"levelo_inurba_marseille","lat":43.27214,"lon":5.39185,"is_reserved":false,"is_disabled":false,"rental_uris":{"android":"levelo://app?vid=34d4b69a-01e7-4040-b6b5-985a245a6631","ios":"levelo://app?vid=34d4b69a-01e7-4040-b6b5-985a245a6631"},"vehicle_type_id":"4","last_reported":1784384049,"current_range_meters":38000,"station_id":"ce4bhhp2rcd13ifvqfm0","pricing_plan_id":"cebpf4jnsgd1na2vs0mg"},{"bike_id":"48837646-8c52-45de-9e76-9ec9cdd47775","system_id":"levelo_inurba_marseille","lat":43.2876,"lon":5.38542,"is_reserved":false,"is_disabled":false,"rental_uris":{"android":"levelo://app?vid=48837646-8c52-45de-9e76-9ec9cdd47775","ios":"levelo://app?vid=48837646-8c52-45de-9e76-9ec9cdd47775"},"vehicle_type_id":"4","last_reported":1784384049,"current_range_meters":10000,"station_id":"","pricing_plan_id":"cebpf4jnsgd1na2vs0mg"},{"bike_id":"aea5e7b6-070d-40f2-910e-ed36e3d2a61b","system_id":"levelo_inurba_marseille","lat":43.31988,"lon":5.38151,"is_reserved":false,"is_disabled":false,"rental_uris":{"android":"levelo://app?vid=aea5e7b6-070d-40f2-910e-ed36e3d2a61b","ios":"levelo://app?vid=aea5e7b6-070d-40f2-910e-ed36e3d2a61b"},"vehicle_type_id":"4","last_reported":1784384049,"current_range_meters":28800,"station_id":"ce4bhr12rcd13ifvqhpg","pricing_plan_id":"cebpf4jnsgd1na2vs0mg"},{"bike_id":"9ded3aaf-3123-4885-b287-bf61b9d86866","system_id":"levelo_inurba_marseille","lat":43.21751,"lon":5.34596,"is_reserved":false,"is_disabled":false,"rental_uris":{"android":"levelo://app?vid=9ded3aaf-3123-4885-b287-bf61b9d86866","ios":"levelo://app?vid=9ded3aaf-3123-4885-b287-bf61b9d86866"},"vehicle_type_id":"4","last_reported":1784384049,"current_range_meters":6800,"station_id":"st_cvj6r9ubvosntc0bgbag","pricing_plan_id":"cebpf4jnsgd1na2vs0mg"},{"bike_id":"4d4f8116-b78d-45df-894b-0d08a3cd82b5","system_id":"levelo_inurba_marseille","lat":43.30729,"lon":5.38411,"is_reserved":false,"is_disabled":false,"rental_uris":{"android":"levelo://app?vid=4d4f8116-b78d-45df-894b-0d08a3cd82b5","ios":"levelo://app?vid=4d4f8116-b78d-45df-894b-0d08a3cd82b5"},"vehicle_type_id":"4","last_reported":1784384049,"current_range_meters":4000,"station_id":"","pricing_plan_id":"cebpf4jnsgd1na2vs0mg"},{"bike_id":"18256c94-24be-4e07-b52e-f4481a7cf54d","system_id":"levelo_inurba_marseille","lat":43.28261,"lon":5.35059,"is_reserved":false,"is_disabled":false,"rental_uris":{"android":"levelo://app?vid=18256c94-24be-4e07-b52e-f4481a7cf54d","ios":"levelo://app?vid=18256c94-24be-4e07-b52e-f4481a7cf54d"},"vehicle_type_id":"4","last_reported":1784384049,"current_range_meters":8400,"station_id":"ce4bhbp2rcd13ifvqerg","pricing_plan_id":"cebpf4jnsgd1na2vs0mg"},{"bike_id":"827731d7-f74b-4d7e-8636-6b7de4356843","system_id":"levelo_inurba_marseille","lat":43.2755,"lon":5.3843,"is_reserved":false,"is_disabled":false,"rental_uris":{"android":"levelo://app?vid=827731d7-f74b-4d7e-8636-6b7de4356843","ios":"levelo://app?vid=827731d7-f74b-4d7e-8636-6b7de4356843"},"vehicle_type_id":"4","last_reported":1784384049,"current_range_meters":40000,"station_id":"ce4bhh92rcd13ifvqfi0","pricing_plan_id":"cebpf4jnsgd1na2vs0mg"},{"bike_id":"b64426df-a3f7-424e-923a-a5218fc5bce4","system_id":"levelo_inurba_marseille","lat":43.27673,"lon":5.38925,"is_reserved":false,"is_disabled":false,"rental_uris":{"android":"levelo://app?vid=b64426df-a3f7-424e-923a-a5218fc5bce4","ios":"levelo://app?vid=b64426df-a3f7-424e-923a-a5218fc5bce4"},"vehicle_type_id":"4","last_reported":1784384049,"current_range_meters":27200,"station_id":"ce4bhi12rcd13ifvqfo0","pricing_plan_id":"cebpf4jnsgd1na2vs0mg"},{"bike_id":"3d4aa178-44db-467e-a1bd-4fcdf991f22c","system_id":"levelo_inurba_marseille","lat":43.3171,"lon":5.43716,"is_reserved":false,"is_disabled":false,"rental_uris":{"android":"levelo://app?vid=3d4aa178-44db-467e-a1bd-4fcdf991f22c","ios":"levelo://app?vid=3d4aa178-44db-467e-a1bd-4fcdf991f22c"},"vehicle_type_id":"4","last_reported":1784384049,"current_range_meters":40000,"station_id":"ce4bhp92rcd13ifvqhcg","pricing_plan_id":"cebpf4jnsgd1na2vs0mg"},{"bike_id":"78b472ae-7ca1-438d-a65f-f93d06645001","system_id":"levelo_inurba_marseille","lat":43.29257,"lon":5.3607,"is_reserved":false,"is_disabled":true,"rental_uris":{"android":"levelo://app?vid=78b472ae-7ca1-438d-a65f-f93d06645001","ios":"levelo://app?vid=78b472ae-7ca1-438d-a65f-f93d06645001"},"vehicle_type_id":"4","last_reported":1784384049,"current_range_meters":3600,"station_id":"","pricing_plan_id":"cebpf4jnsgd1na2vs0mg"},{"bike_id":"a11a6339-dae6-4a13-a6a7-f99c0b5ddda5","system_id":"levelo_inurba_marseille","lat":43.29043,"lon":5.37551,"is_reserved":false,"is_disabled":false,"rental_uris":{"android":"levelo://app?vid=a11a6339-dae6-4a13-a6a7-f99c0b5ddda5","ios":"levelo://app?vid=a11a6339-dae6-4a13-a6a7-f99c0b5ddda5"},"vehicle_type_id":"4","last_reported":1784384049,"current_range_meters":10800,"station_id":"ce4bh692rcd13ifvqe90","pricing_plan_id":"cebpf4jnsgd1na2vs0mg"},{"bike_id":"52d6507e-4360-4df2-84ca-98b32ae53d8d","system_id":"levelo_inurba_marseille","lat":43.28474,"lon":5.38442,"is_reserved":false,"is_disabled":false,"rental_uris":{"android":"levelo://app?vid=52d6507e-4360-4df2-84ca-98b32ae53d8d","ios":"levelo://app?vid=52d6507e-4360-4df2-84ca-98b32ae53d8d"},"vehicle_type_id":"4","last_reported":1784384049,"current_range_meters":5600,"station_id":"ce4bh512rcd13ifvqe3g","pricing_plan_id":"cebpf4jnsgd1na2vs0mg"},{"bike_id":"c4665151-98a2-4227-8f6a-217c35178aa4","system_id":"levelo_inurba_marseille","lat":43.273777,"lon":5.362602,"is_reserved":false,"is_disabled":false,"rental_uris":{"android":"levelo://app?vid=c4665151-98a2-4227-8f6a-217c35178aa4","ios":"levelo://app?vid=c4665151-98a2-4227-8f6a-217c35178aa4"},"vehicle_type_id":"4","last_reported":1784384049,"current_range_meters":16400,"station_id":"ce4bhbh2rcd13ifvqeo0","pricing_plan_id":"cebpf4jnsgd1na2vs0mg"},{"bike_id":"348caf77-82d6-4562-a72e-c7becae0b0ae","system_id":"levelo_inurba_marseille","lat":43.230549,"lon":5.354901,"is_reserved":false,"is_disabled":false,"rental_uris":{"android":"levelo://app?vid=348caf77-82d6-4562-a72e-c7becae0b0ae","ios":"levelo://app?vid=348caf77-82d6-4562-a72e-c7becae0b0ae"},"vehicle_type_id":"4","last_reported":1784384049,"current_range_meters":38800,"station_id":"cpo3342slgdg3j2ifvpg","pricing_plan_id":"cebpf4jnsgd1na2vs0mg"},{"bike_id":"88b3333d-68df-42df-8ef7-a9a4f08abce5","system_id":"levelo_inurba_marseille","lat":43.22914,"lon":5.41501,"is_reserved":false,"is_disabled":false,"rental_uris":{"android":"levelo://app?vid=88b3333d-68df-42df-8ef7-a9a4f08abce5","ios":"levelo://app?vid=88b3333d-68df-42df-8ef7-a9a4f08abce5"},"vehicle_type_id":"4","last_reported":1784384049,"current_range_meters":22800,"station_id":"","pricing_plan_id":"cebpf4jnsgd1na2vs0mg"},{"bike_id":"f160515b-0b5b-4bb7-9662-e82e0b140ef2","system_id":"levelo_inurba_marseille","lat":43.21751,"lon":5.34597,"is_reserved":false,"is_disabled":false,"rental_uris":{"android":"levelo://app?vid=f160515b-0b5b-4bb7-9662-e82e0b140ef2","ios":"levelo://app?vid=f160515b-0b5b-4bb7-9662-e82e0b140ef2"},"vehicle_type_id":"4","last_reported":1784384049,"current_range_meters":19600,"station_id":"st_cvj6r9ubvosntc0bgbag","pricing_plan_id":"cebpf4jnsgd1na2vs0mg"},{"bike_id":"cbf57bb6-373a-442c-9860-92cf9215a1bb","system_id":"levelo_inurba_marseille","lat":43.3056,"lon":5.36509,"is_reserved":false,"is_disabled":true,"rental_uris":{"android":"levelo://app?vid=cbf57bb6-373a-442c-9860-92cf9215a1bb","ios":"levelo://app?vid=cbf57bb6-373a-442c-9860-92cf9215a1bb"},"vehicle_type_id":"4","last_reported":1784384049,"current_range_meters":24800,"station_id":"ce4bgs12rcd13ifvqcag","pricing_plan_id":"cebpf4jnsgd1na2vs0mg"},{"bike_id":"58657c2c-f213-4763-bf6c-55283490b915","system_id":"levelo_inurba_marseille","lat":43.26215,"lon":5.37431,"is_reserved":false,"is_disabled":false,"rental_uris":{"android":"levelo://app?vid=58657c2c-f213-4763-bf6c-55283490b915","ios":"levelo://app?vid=58657c2c-f213-4763-bf6c-55283490b915"},"vehicle_type_id":"4","last_reported":1784384049,"current_range_meters":38800,"station_id":"ce4bhgp2rcd13ifvqfc0","pricing_plan_id":"cebpf4jnsgd1na2vs0mg"},{"bike_id":"f75b05bf-3e88-42f3-a603-b5d4d5c0ecf6","system_id":"levelo_inurba_marseille","lat":43.28441,"lon":5.39182,"is_reserved":false,"is_disabled":false,"rental_uris":{"android":"levelo://app?vid=f75b05bf-3e88-42f3-a603-b5d4d5c0ecf6","ios":"levelo://app?vid=f75b05bf-3e88-42f3-a603-b5d4d5c0ecf6"},"vehicle_type_id":"4","last_reported":1784384049,"current_range_meters":10000,"station_id":"ce4bhoh2rcd13ifvqh5g","pricing_plan_id":"cebpf4jnsgd1na2vs0mg"},{"bike_id":"d9632fc5-4f25-4268-8d79-87fd6d52e7c0","system_id":"levelo_inurba_marseille","lat":43.24813,"lon":5.37462,"is_reserved":false,"is_disabled":false,"rental_uris":{"android":"levelo://app?vid=d9632fc5-4f25-4268-8d79-87fd6d52e7c0","ios":"levelo://app?vid=d9632fc5-4f25-4268-8d79-87fd6d52e7c0"},"vehicle_type_id":"4","last_reported":1784384049,"current_range_meters":20000,"station_id":"ce4bhgh2rcd13ifvqfb0","pricing_plan_id":"cebpf4jnsgd1na2vs0mg"},{"bike_id":"3f9db431-9b3b-43d8-b562-90443c4b2ea7","system_id":"levelo_inurba_marseille","lat":43.26951,"lon":5.38638,"is_reserved":false,"is_disabled":false,"rental_uris":{"android":"levelo://app?vid=3f9db431-9b3b-43d8-b562-90443c4b2ea7","ios":"levelo://app?vid=3f9db431-9b3b-43d8-b562-90443c4b2ea7"},"vehicle_type_id":"4","last_reported":1784384049,"current_range_meters":39200,"station_id":"ce4bhh92rcd13ifvqfh0","pricing_plan_id":"cebpf4jnsgd1na2vs0mg"},{"bike_id":"e8b2132e-2e2f-4678-bd27-ce3f9f11f158","system_id":"levelo_inurba_marseille","lat":43.30457,"lon":5.37905,"is_reserved":false,"is_disabled":false,"rental_uris":{"android":"levelo://app?vid=e8b2132e-2e2f-4678-bd27-ce3f9f11f158","ios":"levelo://app?vid=e8b2132e-2e2f-4678-bd27-ce3f9f11f158"},"vehicle_type_id":"4","last_reported":1784384049,"current_range_meters":16000,"station_id":"ce4bgup2rcd13ifvqcn0","pricing_plan_id":"cebpf4jnsgd1na2vs0mg"},{"bike_id":"d19ace81-dbf6-4745-a8d7-9c83e4ca53bc","system_id":"levelo_inurba_marseille","lat":43.23061,"lon":5.3546,"is_reserved":false,"is_disabled":false,"rental_uris":{"android":"levelo://app?vid=d19ace81-dbf6-4745-a8d7-9c83e4ca53bc","ios":"levelo://app?vid=d19ace81-dbf6-4745-a8d7-9c83e4ca53bc"},"vehicle_type_id":"4","last_reported":1784384049,"current_range_meters":31200,"station_id":"cpo3342slgdg3j2ifvpg","pricing_plan_id":"cebpf4jnsgd1na2vs0mg"},{"bike_id":"d0689963-1360-4eec-9974-1c99b2ed8187","system_id":"levelo_inurba_marseille","lat":43.30602,"lon":5.37216,"is_reserved":false,"is_disabled":true,"rental_uris":{"android":"levelo://app?vid=d0689963-1360-4eec-9974-1c99b2ed8187","ios":"levelo://app?vid=d0689963-1360-4eec-9974-1c99b2ed8187"},"vehicle_type_id":"4","last_reported":1784384049,"current_range_meters":36800,"station_id":"ce4bgqh2rcd13ifvqc4g","pricing_plan_id":"cebpf4jnsgd1na2vs0mg"},{"bike_id":"4f54c651-15d1-492f-8d09-70f1f809ad4f","system_id":"levelo_inurba_marseille","lat":43.27486,"lon":5.42551,"is_reserved":false,"is_disabled":false,"rental_uris":{"android":"levelo://app?vid=4f54c651-15d1-492f-8d09-70f1f809ad4f","ios":"levelo://app?vid=4f54c651-15d1-492f-8d09-70f1f809ad4f"},"vehicle_type_id":"4","last_reported":1784384049,"current_range_meters":21600,"station_id":"st_d8t4bh7nbrqs73arha60","pricing_plan_id":"cebpf4jnsgd1na2vs0mg"},{"bike_id":"7065528a-f292-4b1d-9927-6e05933d2cf0","system_id":"levelo_inurba_marseille","lat":43.22564,"lon":5.41624,"is_reserved":false,"is_disabled":false,"rental_uris":{"android":"levelo://app?vid=7065528a-f292-4b1d-9927-6e05933d2cf0","ios":"levelo://app?vid=7065528a-f292-4b1d-9927-6e05933d2cf0"},"vehicle_type_id":"4","last_reported":1784384049,"current_range_meters":27600,"station_id":"st_d2o4gvlbi1j2169b742g","pricing_plan_id":"cebpf4jnsgd1na2vs0mg"},{"bike_id":"e6734acc-296f-407e-890a-2f2e688cd6a0","system_id":"levelo_inurba_marseille","lat":43.29034,"lon":5.3592,"is_reserved":false,"is_disabled":false,"rental_uris":{"android":"levelo://app?vid=e6734acc-296f-407e-890a-2f2e688cd6a0","ios":"levelo://app?vid=e6734acc-296f-407e-890a-2f2e688cd6a0"},"vehicle_type_id":"4","last_reported":1784384049,"current_range_meters":36000,"station_id":"ce4bha92rcd13ifvqeg0","pricing_plan_id":"cebpf4jnsgd1na2vs0mg"},{"bike_id":"a21c1dba-9af9-497d-86de-500a284e4f1c","system_id":"levelo_inurba_marseille","lat":43.26195,"lon":5.37916,"is_reserved":false,"is_disabled":false,"rental_uris":{"android":"levelo://app?vid=a21c1dba-9af9-497d-86de-500a284e4f1c","ios":"levelo://app?vid=a21c1dba-9af9-497d-86de-500a284e4f1c"},"vehicle_type_id":"4","last_reported":1784384049,"current_range_meters":40000,"station_id":"ce4bhjp2rcd13ifvqg90","pricing_plan_id":"cebpf4jnsgd1na2vs0mg"},{"bike_id":"155e6389-cda9-43eb-993e-eb81b307637f","system_id":"levelo_inurba_marseille","lat":43.28411,"lon":5.34982,"is_reserved":false,"is_disabled":true,"rental_uris":{"android":"levelo://app?vid=155e6389-cda9-43eb-993e-eb81b307637f","ios":"levelo://app?vid=155e6389-cda9-43eb-993e-eb81b307637f"},"vehicle_type_id":"4","last_reported":1784384049,"current_range_meters":0,"station_id":"ce4bhbh2rcd13ifvqepg","pricing_plan_id":"cebpf4jnsgd1na2vs0mg"},{"bike_id":"770145a2-9967-4e6e-9bd4-86eb4c462ae3","system_id":"levelo_inurba_marseille","lat":43.29072,"lon":5.37144,"is_reserved":false,"is_disabled":false,"rental_uris":{"android":"levelo://app?vid=770145a2-9967-4e6e-9bd4-86eb4c462ae3","ios":"levelo://app?vid=770145a2-9967-4e6e-9bd4-86eb4c462ae3"},"vehicle_type_id":"4","last_reported":1784384049,"current_range_meters":22800,"station_id":"ce4bh5p2rcd13ifvqe4g","pricing_plan_id":"cebpf4jnsgd1na2vs0mg"},{"bike_id":"e35b3037-ccf2-48a7-b6f2-14a77143bba4","system_id":"levelo_inurba_marseille","lat":43.32362,"lon":5.36746,"is_reserved":false,"is_disabled":false,"rental_uris":{"android":"levelo://app?vid=e35b3037-ccf2-48a7-b6f2-14a77143bba4","ios":"levelo://app?vid=e35b3037-ccf2-48a7-b6f2-14a77143bba4"},"vehicle_type_id":"4","last_reported":1784384049,"current_range_meters":30400,"station_id":"ce4bhsh2rcd13ifvqi2g","pricing_plan_id":"cebpf4jnsgd1na2vs0mg"},{"bike_id":"8454aefc-4114-47fa-b607-77d573f7bf60","system_id":"levelo_inurba_marseille","lat":43.29025,"lon":5.35604,"is_reserved":false,"is_disabled":false,"rental_uris":{"android":"levelo://app?vid=8454aefc-4114-47fa-b607-77d573f7bf60","ios":"levelo://app?vid=8454aefc-4114-47fa-b607-77d573f7bf60"},"vehicle_type_id":"4","last_reported":1784384049,"current_range_meters":7200,"station_id":"ce4bhgp2rcd13ifvqfc0","pricing_plan_id":"cebpf4jnsgd1na2vs0mg"},{"bike_id":"27e47b1c-c6c8-4c7a-9057-a30a031a40ae","system_id":"levelo_inurba_marseille","lat":43.28935,"lon":5.36625,"is_reserved":false,"is_disabled":false,"rental_uris":{"android":"levelo://app?vid=27e47b1c-c6c8-4c7a-9057-a30a031a40ae","ios":"levelo://app?vid=27e47b1c-c6c8-4c7a-9057-a30a031a40ae"},"vehicle_type_id":"4","last_reported":1784384049,"current_range_meters":39200,"station_id":"ce4bhap2rcd13ifvqek0","pricing_plan_id":"cebpf4jnsgd1na2vs0mg"},{"bike_id":"4fbc1513-b8de-4f35-90b5-6d3503675302","system_id":"levelo_inurba_marseille","lat":43.290065,"lon":5.356125,"is_reserved":false,"is_disabled":false,"rental_uris":{"android":"levelo://app?vid=4fbc1513-b8de-4f35-90b5-6d3503675302","ios":"levelo://app?vid=4fbc1513-b8de-4f35-90b5-6d3503675302"},"vehicle_type_id":"4","last_reported":1784384049,"current_range_meters":30000,"station_id":"ce4bhgp2rcd13ifvqfc0","pricing_plan_id":"cebpf4jnsgd1na2vs0mg"},{"bike_id":"8a5b5926-5b7c-4967-a056-f045c6911e68","system_id":"levelo_inurba_marseille","lat":43.29009,"lon":5.35609,"is_reserved":false,"is_disabled":false,"rental_uris":{"android":"levelo://app?vid=8a5b5926-5b7c-4967-a056-f045c6911e68","ios":"levelo://app?vid=8a5b5926-5b7c-4967-a056-f045c6911e68"},"vehicle_type_id":"4","last_reported":1784384049,"current_range_meters":33600,"station_id":"ce4bhb92rcd13ifvqen0","pricing_plan_id":"cebpf4jnsgd1na2vs0mg"},{"bike_id":"a76afbb3-315e-4cde-950d-e68da615192d","system_id":"levelo_inurba_marseille","lat":43.31082,"lon":5.37844,"is_reserved":false,"is_disabled":false,"rental_uris":{"android":"levelo://app?vid=a76afbb3-315e-4cde-950d-e68da615192d","ios":"levelo://app?vid=a76afbb3-315e-4cde-950d-e68da615192d"},"vehicle_type_id":"4","last_reported":1784384049,"current_range_meters":38000,"station_id":"","pricing_plan_id":"cebpf4jnsgd1na2vs0mg"},{"bike_id":"b6a421c5-0a7e-421d-963d-d4011c45ca73","system_id":"levelo_inurba_marseille","lat":43.29294,"lon":5.37145,"is_reserved":false,"is_disabled":false,"rental_uris":{"android":"levelo://app?vid=b6a421c5-0a7e-421d-963d-d4011c45ca73","ios":"levelo://app?vid=b6a421c5-0a7e-421d-963d-d4011c45ca73"},"vehicle_type_id":"4","last_reported":1784384049,"current_range_meters":38000,"station_id":"ce4bgh92rcd13ifvqb40","pricing_plan_id":"cebpf4jnsgd1na2vs0mg"},{"bike_id":"5a291042-51a9-4959-b385-2a5b93f4d326","system_id":"levelo_inurba_marseille","lat":43.23145,"lon":5.43717,"is_reserved":false,"is_disabled":true,"rental_uris":{"android":"levelo://app?vid=5a291042-51a9-4959-b385-2a5b93f4d326","ios":"levelo://app?vid=5a291042-51a9-4959-b385-2a5b93f4d326"},"vehicle_type_id":"4","last_reported":1784384049,"current_range_meters":0,"station_id":"ce4bhmp2rcd13ifvqgog","pricing_plan_id":"cebpf4jnsgd1na2vs0mg"},{"bike_id":"a4f3d12e-d0e8-4430-a71a-ee8bb8f52212","system_id":"levelo_inurba_marseille","lat":43.26209,"lon":5.37437,"is_reserved":false,"is_disabled":false,"rental_uris":{"android":"levelo://app?vid=a4f3d12e-d0e8-4430-a71a-ee8bb8f52212","ios":"levelo://app?vid=a4f3d12e-d0e8-4430-a71a-ee8bb8f52212"},"vehicle_type_id":"4","last_reported":1784384049,"current_range_meters":27600,"station_id":"ce4bhgp2rcd13ifvqfc0","pricing_plan_id":"cebpf4jnsgd1na2vs0mg"},{"bike_id":"202f9ad0-42a8-41b4-9ba7-c7ec0280e620","system_id":"levelo_inurba_marseille","lat":43.23178,"lon":5.35555,"is_reserved":false,"is_disabled":false,"rental_uris":{"android":"levelo://app?vid=202f9ad0-42a8-41b4-9ba7-c7ec0280e620","ios":"levelo://app?vid=202f9ad0-42a8-41b4-9ba7-c7ec0280e620"},"vehicle_type_id":"4","last_reported":1784384049,"current_range_meters":35600,"station_id":"ce4bhu92rcd13ifvqi70","pricing_plan_id":"cebpf4jnsgd1na2vs0mg"},{"bike_id":"e6433a6e-cc80-477f-b636-f3290127fd74","system_id":"levelo_inurba_marseille","lat":43.29194,"lon":5.35805,"is_reserved":false,"is_disabled":false,"rental_uris":{"android":"levelo://app?vid=e6433a6e-cc80-477f-b636-f3290127fd74","ios":"levelo://app?vid=e6433a6e-cc80-477f-b636-f3290127fd74"},"vehicle_type_id":"4","last_reported":1784384049,"current_range_meters":10000,"station_id":"ce4bhb12rcd13ifvqel0","pricing_plan_id":"cebpf4jnsgd1na2vs0mg"},{"bike_id":"2726284d-cc1a-49bc-9ffe-a3897a1521f4","system_id":"levelo_inurba_marseille","lat":43.29009,"lon":5.35613,"is_reserved":false,"is_disabled":false,"rental_uris":{"android":"levelo://app?vid=2726284d-cc1a-49bc-9ffe-a3897a1521f4","ios":"levelo://app?vid=2726284d-cc1a-49bc-9ffe-a3897a1521f4"},"vehicle_type_id":"4","last_reported":1784384049,"current_range_meters":28400,"station_id":"ce4bhgp2rcd13ifvqfc0","pricing_plan_id":"cebpf4jnsgd1na2vs0mg"},{"bike_id":"f3955824-bc9b-40e3-bb4b-91c4e41aa833","system_id":"levelo_inurba_marseille","lat":43.30151,"lon":5.37413,"is_reserved":false,"is_disabled":false,"rental_uris":{"android":"levelo://app?vid=f3955824-bc9b-40e3-bb4b-91c4e41aa833","ios":"levelo://app?vid=f3955824-bc9b-40e3-bb4b-91c4e41aa833"},"vehicle_type_id":"4","last_reported":1784384049,"current_range_meters":11600,"station_id":"ce4bgs92rcd13ifvqcc0","pricing_plan_id":"cebpf4jnsgd1na2vs0mg"},{"bike_id":"08032647-4e4b-4d46-b2bb-1df2e3cbec8b","system_id":"levelo_inurba_marseille","lat":43.28356,"lon":5.43303,"is_reserved":false,"is_disabled":true,"rental_uris":{"android":"levelo://app?vid=08032647-4e4b-4d46-b2bb-1df2e3cbec8b","ios":"levelo://app?vid=08032647-4e4b-4d46-b2bb-1df2e3cbec8b"},"vehicle_type_id":"4","last_reported":1784384049,"current_range_meters":0,"station_id":"","pricing_plan_id":"cebpf4jnsgd1na2vs0mg"},{"bike_id":"d6ae1383-319b-4de2-a1e4-9da7dabd9a92","system_id":"levelo_inurba_marseille","lat":43.25499,"lon":5.37647,"is_reserved":false,"is_disabled":false,"rental_uris":{"android":"levelo://app?vid=d6ae1383-319b-4de2-a1e4-9da7dabd9a92","ios":"levelo://app?vid=d6ae1383-319b-4de2-a1e4-9da7dabd9a92"},"vehicle_type_id":"4","last_reported":1784384049,"current_range_meters":27600,"station_id":"ce4bhh12rcd13ifvqff0","pricing_plan_id":"cebpf4jnsgd1na2vs0mg"},{"bike_id":"e4da44a5-167c-40db-af83-df82ead5b0dd","system_id":"levelo_inurba_marseille","lat":43.29035,"lon":5.35917,"is_reserved":false,"is_disabled":false,"rental_uris":{"android":"levelo://app?vid=e4da44a5-167c-40db-af83-df82ead5b0dd","ios":"levelo://app?vid=e4da44a5-167c-40db-af83-df82ead5b0dd"},"vehicle_type_id":"4","last_reported":1784384049,"current_range_meters":18800,"station_id":"ce4bha92rcd13ifvqeg0","pricing_plan_id":"cebpf4jnsgd1na2vs0mg"},{"bike_id":"2fd3fd2a-5afd-41dc-a0e5-4abd957555d4","system_id":"levelo_inurba_marseille","lat":43.26682,"lon":5.38269,"is_reserved":false,"is_disabled":false,"rental_uris":{"android":"levelo://app?vid=2fd3fd2a-5afd-41dc-a0e5-4abd957555d4","ios":"levelo://app?vid=2fd3fd2a-5afd-41dc-a0e5-4abd957555d4"},"vehicle_type_id":"4","last_reported":1784384049,"current_range_meters":16800,"station_id":"ce4bhg92rcd13ifvqf90","pricing_plan_id":"cebpf4jnsgd1na2vs0mg"},{"bike_id":"8b6331b3-2914-4282-8a4c-45cca24291f2","system_id":"levelo_inurba_marseille","lat":43.30919,"lon":5.40142,"is_reserved":false,"is_disabled":false,"rental_uris":{"android":"levelo://app?vid=8b6331b3-2914-4282-8a4c-45cca24291f2","ios":"levelo://app?vid=8b6331b3-2914-4282-8a4c-45cca24291f2"},"vehicle_type_id":"4","last_reported":1784384049,"current_range_meters":25600,"station_id":"","pricing_plan_id":"cebpf4jnsgd1na2vs0mg"},{"bike_id":"e342b9f1-a6f4-474a-88a4-70e56cc058cc","system_id":"levelo_inurba_marseille","lat":43.31905,"lon":5.36823,"is_reserved":false,"is_disabled":false,"rental_uris":{"android":"levelo://app?vid=e342b9f1-a6f4-474a-88a4-70e56cc058cc","ios":"levelo://app?vid=e342b9f1-a6f4-474a-88a4-70e56cc058cc"},"vehicle_type_id":"4","last_reported":1784384049,"current_range_meters":38400,"station_id":"st_d6o2h0d0559c73evc1b0","pricing_plan_id":"cebpf4jnsgd1na2vs0mg"},{"bike_id":"a287babe-2875-4e47-a1fc-a71e0666296b","system_id":"levelo_inurba_marseille","lat":43.260263,"lon":5.375491,"is_reserved":false,"is_disabled":false,"rental_uris":{"android":"levelo://app?vid=a287babe-2875-4e47-a1fc-a71e0666296b","ios":"levelo://app?vid=a287babe-2875-4e47-a1fc-a71e0666296b"},"vehicle_type_id":"4","last_reported":1784384049,"current_range_meters":25200,"station_id":"ce4bh392rcd13ifvqdm0","pricing_plan_id":"cebpf4jnsgd1na2vs0mg"},{"bike_id":"617c4c83-0e69-4bbc-81ae-440d1263eae2","system_id":"levelo_inurba_marseille","lat":43.2846,"lon":5.35889,"is_reserved":false,"is_disabled":false,"rental_uris":{"android":"levelo://app?vid=617c4c83-0e69-4bbc-81ae-440d1263eae2","ios":"levelo://app?vid=617c4c83-0e69-4bbc-81ae-440d1263eae2"},"vehicle_type_id":"4","last_reported":1784384049,"current_range_meters":37600,"station_id":"ce4bhah2rcd13ifvqei0","pricing_plan_id":"cebpf4jnsgd1na2vs0mg"},{"bike_id":"0d3e100f-48fe-47e1-bef7-0a1dcfcc4955","system_id":"levelo_inurba_marseille","lat":43.33737,"lon":5.39181,"is_reserved":false,"is_disabled":false,"rental_uris":{"android":"levelo://app?vid=0d3e100f-48fe-47e1-bef7-0a1dcfcc4955","ios":"levelo://app?vid=0d3e100f-48fe-47e1-bef7-0a1dcfcc4955"},"vehicle_type_id":"4","last_reported":1784384049,"current_range_meters":39200,"station_id":"ce4bhr92rcd13ifvqhsg","pricing_plan_id":"cebpf4jnsgd1na2vs0mg"},{"bike_id":"f994dddc-9194-4b4c-a02e-45b8c9c31ce1","system_id":"levelo_inurba_marseille","lat":43.29596,"lon":5.37096,"is_reserved":false,"is_disabled":false,"rental_uris":{"android":"levelo://app?vid=f994dddc-9194-4b4c-a02e-45b8c9c31ce1","ios":"levelo://app?vid=f994dddc-9194-4b4c-a02e-45b8c9c31ce1"},"vehicle_type_id":"4","last_reported":1784384049,"current_range_meters":24800,"station_id":"","pricing_plan_id":"cebpf4jnsgd1na2vs0mg"},{"bike_id":"3397ff29-6abf-49e2-bd9e-9eca79bef693","system_id":"levelo_inurba_marseille","lat":43.28087,"lon":5.39633,"is_reserved":false,"is_disabled":false,"rental_uris":{"android":"levelo://app?vid=3397ff29-6abf-49e2-bd9e-9eca79bef693","ios":"levelo://app?vid=3397ff29-6abf-49e2-bd9e-9eca79bef693"},"vehicle_type_id":"4","last_reported":1784384049,"current_range_meters":11600,"station_id":"ce4bho12rcd13ifvqh2g","pricing_plan_id":"cebpf4jnsgd1na2vs0mg"},{"bike_id":"43cc2f92-ad1b-4327-8065-e76aa2a090bf","system_id":"levelo_inurba_marseille","lat":43.28408,"lon":5.34994,"is_reserved":false,"is_disabled":false,"rental_uris":{"android":"levelo://app?vid=43cc2f92-ad1b-4327-8065-e76aa2a090bf","ios":"levelo://app?vid=43cc2f92-ad1b-4327-8065-e76aa2a090bf"},"vehicle_type_id":"4","last_reported":1784384049,"current_range_meters":31200,"station_id":"ce4bhbh2rcd13ifvqepg","pricing_plan_id":"cebpf4jnsgd1na2vs0mg"},{"bike_id":"92b62e92-a3b5-4d5e-aa5b-d9dc426c7871","system_id":"levelo_inurba_marseille","lat":43.31355,"lon":5.38483,"is_reserved":false,"is_disabled":false,"rental_uris":{"android":"levelo://app?vid=92b62e92-a3b5-4d5e-aa5b-d9dc426c7871","ios":"levelo://app?vid=92b62e92-a3b5-4d5e-aa5b-d9dc426c7871"},"vehicle_type_id":"4","last_reported":1784384049,"current_range_meters":39200,"station_id":"ce4bgt92rcd13ifvqcf0","pricing_plan_id":"cebpf4jnsgd1na2vs0mg"},{"bike_id":"43649b46-4dc1-4a21-856f-940f23b1a83b","system_id":"levelo_inurba_marseille","lat":43.29942,"lon":5.36547,"is_reserved":false,"is_disabled":false,"rental_uris":{"android":"levelo://app?vid=43649b46-4dc1-4a21-856f-940f23b1a83b","ios":"levelo://app?vid=43649b46-4dc1-4a21-856f-940f23b1a83b"},"vehicle_type_id":"4","last_reported":1784384049,"current_range_meters":36400,"station_id":"ce4bgm92rcd13ifvqbr0","pricing_plan_id":"cebpf4jnsgd1na2vs0mg"},{"bike_id":"9a4c1917-12d5-4fd0-beb9-9df30b58299b","system_id":"levelo_inurba_marseille","lat":43.23191,"lon":5.3555,"is_reserved":false,"is_disabled":false,"rental_uris":{"android":"levelo://app?vid=9a4c1917-12d5-4fd0-beb9-9df30b58299b","ios":"levelo://app?vid=9a4c1917-12d5-4fd0-beb9-9df30b58299b"},"vehicle_type_id":"4","last_reported":1784384049,"current_range_meters":38800,"station_id":"ce4bhu92rcd13ifvqi70","pricing_plan_id":"cebpf4jnsgd1na2vs0mg"},{"bike_id":"91f0e4ce-79d8-4655-828a-63e54a2d5488","system_id":"levelo_inurba_marseille","lat":43.24806,"lon":5.37445,"is_reserved":false,"is_disabled":false,"rental_uris":{"android":"levelo://app?vid=91f0e4ce-79d8-4655-828a-63e54a2d5488","ios":"levelo://app?vid=91f0e4ce-79d8-4655-828a-63e54a2d5488"},"vehicle_type_id":"4","last_reported":1784384049,"current_range_meters":4800,"station_id":"ce4bhgh2rcd13ifvqfb0","pricing_plan_id":"cebpf4jnsgd1na2vs0mg"},{"bike_id":"89778773-ee3b-49b0-b121-cdfa0fbecd5e","system_id":"levelo_inurba_marseille","lat":43.28272,"lon":5.35075,"is_reserved":false,"is_disabled":false,"rental_uris":{"android":"levelo://app?vid=89778773-ee3b-49b0-b121-cdfa0fbecd5e","ios":"levelo://app?vid=89778773-ee3b-49b0-b121-cdfa0fbecd5e"},"vehicle_type_id":"4","last_reported":1784384049,"current_range_meters":3200,"station_id":"ce4bhbp2rcd13ifvqerg","pricing_plan_id":"cebpf4jnsgd1na2vs0mg"},{"bike_id":"08e37548-b939-4c95-ad3e-38d80489c90b","system_id":"levelo_inurba_marseille","lat":43.21638,"lon":5.34346,"is_reserved":false,"is_disabled":false,"rental_uris":{"android":"levelo://app?vid=08e37548-b939-4c95-ad3e-38d80489c90b","ios":"levelo://app?vid=08e37548-b939-4c95-ad3e-38d80489c90b"},"vehicle_type_id":"4","last_reported":1784384049,"current_range_meters":4800,"station_id":"","pricing_plan_id":"cebpf4jnsgd1na2vs0mg"},{"bike_id":"daa023e8-7cb3-46f6-99b4-3cf66be94332","system_id":"levelo_inurba_marseille","lat":43.293077,"lon":5.371798,"is_reserved":false,"is_disabled":true,"rental_uris":{"android":"levelo://app?vid=daa023e8-7cb3-46f6-99b4-3cf66be94332","ios":"levelo://app?vid=daa023e8-7cb3-46f6-99b4-3cf66be94332"},"vehicle_type_id":"4","last_reported":1784384049,"current_range_meters":38400,"station_id":"ce4bgh92rcd13ifvqb40","pricing_plan_id":"cebpf4jnsgd1na2vs0mg"},{"bike_id":"98bce0f5-25e4-4db3-b698-d3dcf6d7b213","system_id":"levelo_inurba_marseille","lat":43.24829,"lon":5.3746,"is_reserved":false,"is_disabled":false,"rental_uris":{"android":"levelo://app?vid=98bce0f5-25e4-4db3-b698-d3dcf6d7b213","ios":"levelo://app?vid=98bce0f5-25e4-4db3-b698-d3dcf6d7b213"},"vehicle_type_id":"4","last_reported":1784384049,"current_range_meters":27200,"station_id":"ce4bhgh2rcd13ifvqfb0","pricing_plan_id":"cebpf4jnsgd1na2vs0mg"},{"bike_id":"c1a5a6ac-f8ac-46f8-912d-f52960c1edb5","system_id":"levelo_inurba_marseille","lat":43.30473,"lon":5.37898,"is_reserved":false,"is_disabled":false,"rental_uris":{"android":"levelo://app?vid=c1a5a6ac-f8ac-46f8-912d-f52960c1edb5","ios":"levelo://app?vid=c1a5a6ac-f8ac-46f8-912d-f52960c1edb5"},"vehicle_type_id":"4","last_reported":1784384049,"current_range_meters":37600,"station_id":"ce4bgup2rcd13ifvqcn0","pricing_plan_id":"cebpf4jnsgd1na2vs0mg"},{"bike_id":"942a9480-064e-4b5f-bf10-79045f0f763d","system_id":"levelo_inurba_marseille","lat":43.292741,"lon":5.368464,"is_reserved":false,"is_disabled":false,"rental_uris":{"android":"levelo://app?vid=942a9480-064e-4b5f-bf10-79045f0f763d","ios":"levelo://app?vid=942a9480-064e-4b5f-bf10-79045f0f763d"},"vehicle_type_id":"4","last_reported":1784384049,"current_range_meters":38400,"station_id":"","pricing_plan_id":"cebpf4jnsgd1na2vs0mg"},{"bike_id":"5f6b1ae6-492b-48bf-96a7-6bd84d108e0b","system_id":"levelo_inurba_marseille","lat":43.23197,"lon":5.3555,"is_reserved":false,"is_disabled":false,"rental_uris":{"android":"levelo://app?vid=5f6b1ae6-492b-48bf-96a7-6bd84d108e0b","ios":"levelo://app?vid=5f6b1ae6-492b-48bf-96a7-6bd84d108e0b"},"vehicle_type_id":"4","last_reported":1784384049,"current_range_meters":40000,"station_id":"ce4bhu92rcd13ifvqi70","pricing_plan_id":"cebpf4jnsgd1na2vs0mg"},{"bike_id":"f6b25135-3528-4195-8c77-8c14487cde9a","system_id":"levelo_inurba_marseille","lat":43.25509,"lon":5.37657,"is_reserved":false,"is_disabled":false,"rental_uris":{"android":"levelo://app?vid=f6b25135-3528-4195-8c77-8c14487cde9a","ios":"levelo://app?vid=f6b25135-3528-4195-8c77-8c14487cde9a"},"vehicle_type_id":"4","last_reported":1784384049,"current_range_meters":38800,"station_id":"ce4bhh12rcd13ifvqff0","pricing_plan_id":"cebpf4jnsgd1na2vs0mg"},{"bike_id":"e3d9bbcb-54c4-4817-8697-66fcc50a141c","system_id":"levelo_inurba_marseille","lat":43.30004,"lon":5.38796,"is_reserved":false,"is_disabled":false,"rental_uris":{"android":"levelo://app?vid=e3d9bbcb-54c4-4817-8697-66fcc50a141c","ios":"levelo://app?vid=e3d9bbcb-54c4-4817-8697-66fcc50a141c"},"vehicle_type_id":"4","last_reported":1784384049,"current_range_meters":35600,"station_id":"","pricing_plan_id":"cebpf4jnsgd1na2vs0mg"},{"bike_id":"cdce83dd-8a5a-4200-9c76-1a86b9c61463","system_id":"levelo_inurba_marseille","lat":43.29579,"lon":5.37515,"is_reserved":false,"is_disabled":false,"rental_uris":{"android":"levelo://app?vid=cdce83dd-8a5a-4200-9c76-1a86b9c61463","ios":"levelo://app?vid=cdce83dd-8a5a-4200-9c76-1a86b9c61463"},"vehicle_type_id":"4","last_reported":1784384049,"current_range_meters":38400,"station_id":"ce4bgh92rcd13ifvqb50","pricing_plan_id":"cebpf4jnsgd1na2vs0mg"},{"bike_id":"aa899d6f-0408-4a23-8d3b-ffb1059b430c","system_id":"levelo_inurba_marseille","lat":43.23958,"lon":5.3665,"is_reserved":false,"is_disabled":false,"rental_uris":{"android":"levelo://app?vid=aa899d6f-0408-4a23-8d3b-ffb1059b430c","ios":"levelo://app?vid=aa899d6f-0408-4a23-8d3b-ffb1059b430c"},"vehicle_type_id":"4","last_reported":1784384049,"current_range_meters":10000,"station_id":"ce4bhi12rcd13ifvqfp0","pricing_plan_id":"cebpf4jnsgd1na2vs0mg"},{"bike_id":"9fc8cbab-c7f1-4b0c-8deb-d790633e930c","system_id":"levelo_inurba_marseille","lat":43.30921,"lon":5.40175,"is_reserved":false,"is_disabled":false,"rental_uris":{"android":"levelo://app?vid=9fc8cbab-c7f1-4b0c-8deb-d790633e930c","ios":"levelo://app?vid=9fc8cbab-c7f1-4b0c-8deb-d790633e930c"},"vehicle_type_id":"4","last_reported":1784384049,"current_range_meters":4000,"station_id":"ce4bgvp2rcd13ifvqct0","pricing_plan_id":"cebpf4jnsgd1na2vs0mg"},{"bike_id":"7260152f-f3cf-49e0-9287-9ad5db050a87","system_id":"levelo_inurba_marseille","lat":43.24988,"lon":5.38928,"is_reserved":false,"is_disabled":false,"rental_uris":{"android":"levelo://app?vid=7260152f-f3cf-49e0-9287-9ad5db050a87","ios":"levelo://app?vid=7260152f-f3cf-49e0-9287-9ad5db050a87"},"vehicle_type_id":"4","last_reported":1784384049,"current_range_meters":36400,"station_id":"ce4bhgp2rcd13ifvqfd0","pricing_plan_id":"cebpf4jnsgd1na2vs0mg"},{"bike_id":"7604574c-06cb-407e-9e16-b7858411e1bc","system_id":"levelo_inurba_marseille","lat":43.27821,"lon":5.40719,"is_reserved":false,"is_disabled":true,"rental_uris":{"android":"levelo://app?vid=7604574c-06cb-407e-9e16-b7858411e1bc","ios":"levelo://app?vid=7604574c-06cb-407e-9e16-b7858411e1bc"},"vehicle_type_id":"4","last_reported":1784384049,"current_range_meters":18800,"station_id":"ce4bhnh2rcd13ifvqgtg","pricing_plan_id":"cebpf4jnsgd1na2vs0mg"},{"bike_id":"600d3649-4b6d-473c-a715-d27921e00684","system_id":"levelo_inurba_marseille","lat":43.23289,"lon":5.35667,"is_reserved":false,"is_disabled":false,"rental_uris":{"android":"levelo://app?vid=600d3649-4b6d-473c-a715-d27921e00684","ios":"levelo://app?vid=600d3649-4b6d-473c-a715-d27921e00684"},"vehicle_type_id":"4","last_reported":1784384049,"current_range_meters":22400,"station_id":"","pricing_plan_id":"cebpf4jnsgd1na2vs0mg"},{"bike_id":"c1eed1c1-ec73-46cd-b3d8-0fed6bc9a76a","system_id":"levelo_inurba_marseille","lat":43.23182,"lon":5.35578,"is_reserved":false,"is_disabled":false,"rental_uris":{"android":"levelo://app?vid=c1eed1c1-ec73-46cd-b3d8-0fed6bc9a76a","ios":"levelo://app?vid=c1eed1c1-ec73-46cd-b3d8-0fed6bc9a76a"},"vehicle_type_id":"4","last_reported":1784384049,"current_range_meters":27600,"station_id":"ce4bhu92rcd13ifvqi70","pricing_plan_id":"cebpf4jnsgd1na2vs0mg"},{"bike_id":"8601b829-59f8-4eab-bab2-2f8e891d8617","system_id":"levelo_inurba_marseille","lat":43.254993,"lon":5.376487,"is_reserved":false,"is_disabled":false,"rental_uris":{"android":"levelo://app?vid=8601b829-59f8-4eab-bab2-2f8e891d8617","ios":"levelo://app?vid=8601b829-59f8-4eab-bab2-2f8e891d8617"},"vehicle_type_id":"4","last_reported":1784384049,"current_range_meters":25200,"station_id":"ce4bhh12rcd13ifvqff0","pricing_plan_id":"cebpf4jnsgd1na2vs0mg"},{"bike_id":"717aff13-3264-4f2e-9ef3-a9b4abe17129","system_id":"levelo_inurba_marseille","lat":43.3028,"lon":5.37713,"is_reserved":false,"is_disabled":false,"rental_uris":{"android":"levelo://app?vid=717aff13-3264-4f2e-9ef3-a9b4abe17129","ios":"levelo://app?vid=717aff13-3264-4f2e-9ef3-a9b4abe17129"},"vehicle_type_id":"4","last_reported":1784384049,"current_range_meters":37600,"station_id":"ce4bguh2rcd13ifvqcj0","pricing_plan_id":"cebpf4jnsgd1na2vs0mg"},{"bike_id":"81959744-4786-4515-8028-caa8a3c86e5c","system_id":"levelo_inurba_marseille","lat":43.23923,"lon":5.37457,"is_reserved":false,"is_disabled":false,"rental_uris":{"android":"levelo://app?vid=81959744-4786-4515-8028-caa8a3c86e5c","ios":"levelo://app?vid=81959744-4786-4515-8028-caa8a3c86e5c"},"vehicle_type_id":"4","last_reported":1784384049,"current_range_meters":38400,"station_id":"st_d6sm7csbq4hs73f8fpjg","pricing_plan_id":"cebpf4jnsgd1na2vs0mg"},{"bike_id":"b2b9e44f-936b-4d75-88dd-3231574844b2","system_id":"levelo_inurba_marseille","lat":43.29933,"lon":5.36552,"is_reserved":false,"is_disabled":false,"rental_uris":{"android":"levelo://app?vid=b2b9e44f-936b-4d75-88dd-3231574844b2","ios":"levelo://app?vid=b2b9e44f-936b-4d75-88dd-3231574844b2"},"vehicle_type_id":"4","last_reported":1784384049,"current_range_meters":19600,"station_id":"ce4bgm92rcd13ifvqbr0","pricing_plan_id":"cebpf4jnsgd1na2vs0mg"},{"bike_id":"625b633d-f8de-424b-ba0e-8c9213c1a102","system_id":"levelo_inurba_marseille","lat":43.29958,"lon":5.41331,"is_reserved":false,"is_disabled":false,"rental_uris":{"android":"levelo://app?vid=625b633d-f8de-424b-ba0e-8c9213c1a102","ios":"levelo://app?vid=625b633d-f8de-424b-ba0e-8c9213c1a102"},"vehicle_type_id":"4","last_reported":1784384049,"current_range_meters":38800,"station_id":"ce4bhp12rcd13ifvqh9g","pricing_plan_id":"cebpf4jnsgd1na2vs0mg"},{"bike_id":"f0c9de47-5e4d-4c29-af85-57b80ffdd421","system_id":"levelo_inurba_marseille","lat":43.24167,"lon":5.36396,"is_reserved":false,"is_disabled":false,"rental_uris":{"android":"levelo://app?vid=f0c9de47-5e4d-4c29-af85-57b80ffdd421","ios":"levelo://app?vid=f0c9de47-5e4d-4c29-af85-57b80ffdd421"},"vehicle_type_id":"4","last_reported":1784384049,"current_range_meters":18800,"station_id":"cpo36qri1sfpv3e86is0","pricing_plan_id":"cebpf4jnsgd1na2vs0mg"},{"bike_id":"5bf8fd03-5641-4b4e-8cff-c9770cdb9f21","system_id":"levelo_inurba_marseille","lat":43.28407,"lon":5.34999,"is_reserved":false,"is_disabled":false,"rental_uris":{"android":"levelo://app?vid=5bf8fd03-5641-4b4e-8cff-c9770cdb9f21","ios":"levelo://app?vid=5bf8fd03-5641-4b4e-8cff-c9770cdb9f21"},"vehicle_type_id":"4","last_reported":1784384049,"current_range_meters":8400,"station_id":"ce4bhbh2rcd13ifvqepg","pricing_plan_id":"cebpf4jnsgd1na2vs0mg"},{"bike_id":"a8449df9-3dcb-423e-8663-39e92b6c6df2","system_id":"levelo_inurba_marseille","lat":43.24811,"lon":5.37461,"is_reserved":false,"is_disabled":false,"rental_uris":{"android":"levelo://app?vid=a8449df9-3dcb-423e-8663-39e92b6c6df2","ios":"levelo://app?vid=a8449df9-3dcb-423e-8663-39e92b6c6df2"},"vehicle_type_id":"4","last_reported":1784384049,"current_range_meters":39200,"station_id":"ce4bhgh2rcd13ifvqfb0","pricing_plan_id":"cebpf4jnsgd1na2vs0mg"},{"bike_id":"6815261d-d85f-4ad0-bb1f-1e36f11a17eb","system_id":"levelo_inurba_marseille","lat":43.3048,"lon":5.37917,"is_reserved":false,"is_disabled":false,"rental_uris":{"android":"levelo://app?vid=6815261d-d85f-4ad0-bb1f-1e36f11a17eb","ios":"levelo://app?vid=6815261d-d85f-4ad0-bb1f-1e36f11a17eb"},"vehicle_type_id":"4","last_reported":1784384049,"current_range_meters":28400,"station_id":"ce4bgup2rcd13ifvqcn0","pricing_plan_id":"cebpf4jnsgd1na2vs0mg"},{"bike_id":"327631c4-acc4-45e0-9e91-316b42cf11ee","system_id":"levelo_inurba_marseille","lat":43.26944,"lon":5.38642,"is_reserved":false,"is_disabled":false,"rental_uris":{"android":"levelo://app?vid=327631c4-acc4-45e0-9e91-316b42cf11ee","ios":"levelo://app?vid=327631c4-acc4-45e0-9e91-316b42cf11ee"},"vehicle_type_id":"4","last_reported":1784384049,"current_range_meters":33600,"station_id":"ce4bhh92rcd13ifvqfh0","pricing_plan_id":"cebpf4jnsgd1na2vs0mg"},{"bike_id":"5bbd6903-de96-460e-8bff-9777b4fbccd8","system_id":"levelo_inurba_marseille","lat":43.23187,"lon":5.39981,"is_reserved":false,"is_disabled":false,"rental_uris":{"android":"levelo://app?vid=5bbd6903-de96-460e-8bff-9777b4fbccd8","ios":"levelo://app?vid=5bbd6903-de96-460e-8bff-9777b4fbccd8"},"vehicle_type_id":"4","last_reported":1784384049,"current_range_meters":34000,"station_id":"ce4bhn12rcd13ifvqgqg","pricing_plan_id":"cebpf4jnsgd1na2vs0mg"},{"bike_id":"3a7bc097-3d28-4f52-88ed-d3904da59c29","system_id":"levelo_inurba_marseille","lat":43.24477,"lon":5.42529,"is_reserved":false,"is_disabled":false,"rental_uris":{"android":"levelo://app?vid=3a7bc097-3d28-4f52-88ed-d3904da59c29","ios":"levelo://app?vid=3a7bc097-3d28-4f52-88ed-d3904da59c29"},"vehicle_type_id":"4","last_reported":1784384049,"current_range_meters":6400,"station_id":"st_d4a3vfp97mjs738cd8kg","pricing_plan_id":"cebpf4jnsgd1na2vs0mg"},{"bike_id":"dd68f0d2-2405-425c-8bb2-3b99c67d8450","system_id":"levelo_inurba_marseille","lat":43.23897,"lon":5.37456,"is_reserved":false,"is_disabled":false,"rental_uris":{"android":"levelo://app?vid=dd68f0d2-2405-425c-8bb2-3b99c67d8450","ios":"levelo://app?vid=dd68f0d2-2405-425c-8bb2-3b99c67d8450"},"vehicle_type_id":"4","last_reported":1784384049,"current_range_meters":7200,"station_id":"st_d6sm7csbq4hs73f8fpjg","pricing_plan_id":"cebpf4jnsgd1na2vs0mg"},{"bike_id":"098cb1b0-aa89-454f-9bc2-2c4ea2f0e0ee","system_id":"levelo_inurba_marseille","lat":43.31559,"lon":5.4055,"is_reserved":false,"is_disabled":false,"rental_uris":{"android":"levelo://app?vid=098cb1b0-aa89-454f-9bc2-2c4ea2f0e0ee","ios":"levelo://app?vid=098cb1b0-aa89-454f-9bc2-2c4ea2f0e0ee"},"vehicle_type_id":"4","last_reported":1784384049,"current_range_meters":16800,"station_id":"","pricing_plan_id":"cebpf4jnsgd1na2vs0mg"},{"bike_id":"a4d19a78-4795-4080-9f7a-38bcb20e87f0","system_id":"levelo_inurba_marseille","lat":43.25721,"lon":5.4111,"is_reserved":false,"is_disabled":false,"rental_uris":{"android":"levelo://app?vid=a4d19a78-4795-4080-9f7a-38bcb20e87f0","ios":"levelo://app?vid=a4d19a78-4795-4080-9f7a-38bcb20e87f0"},"vehicle_type_id":"4","last_reported":1784384049,"current_range_meters":37600,"station_id":"ce4bhkp2rcd13ifvqgd0","pricing_plan_id":"cebpf4jnsgd1na2vs0mg"},{"bike_id":"b999c4de-71e5-49f1-adc8-530bd4aa9637","system_id":"levelo_inurba_marseille","lat":43.21205,"lon":5.35069,"is_reserved":false,"is_disabled":false,"rental_uris":{"android":"levelo://app?vid=b999c4de-71e5-49f1-adc8-530bd4aa9637","ios":"levelo://app?vid=b999c4de-71e5-49f1-adc8-530bd4aa9637"},"vehicle_type_id":"4","last_reported":1784384049,"current_range_meters":38000,"station_id":"st_cvj6sg6p6f1abm77japg","pricing_plan_id":"cebpf4jnsgd1na2vs0mg"},{"bike_id":"be6bb617-0345-47d0-a9a1-2dfad3491c00","system_id":"levelo_inurba_marseille","lat":43.25518,"lon":5.37643,"is_reserved":false,"is_disabled":false,"rental_uris":{"android":"levelo://app?vid=be6bb617-0345-47d0-a9a1-2dfad3491c00","ios":"levelo://app?vid=be6bb617-0345-47d0-a9a1-2dfad3491c00"},"vehicle_type_id":"4","last_reported":1784384049,"current_range_meters":38000,"station_id":"ce4bhh12rcd13ifvqff0","pricing_plan_id":"cebpf4jnsgd1na2vs0mg"},{"bike_id":"aeadc001-b838-45ac-ab10-da795bb8945b","system_id":"levelo_inurba_marseille","lat":43.30455,"lon":5.41293,"is_reserved":false,"is_disabled":false,"rental_uris":{"android":"levelo://app?vid=aeadc001-b838-45ac-ab10-da795bb8945b","ios":"levelo://app?vid=aeadc001-b838-45ac-ab10-da795bb8945b"},"vehicle_type_id":"4","last_reported":1784384049,"current_range_meters":18800,"station_id":"ce4bhop2rcd13ifvqh8g","pricing_plan_id":"cebpf4jnsgd1na2vs0mg"},{"bike_id":"5a29e6f3-d0ba-49e7-af5d-f8e60471c1fc","system_id":"levelo_inurba_marseille","lat":43.27451,"lon":5.42493,"is_reserved":false,"is_disabled":true,"rental_uris":{"android":"levelo://app?vid=5a29e6f3-d0ba-49e7-af5d-f8e60471c1fc","ios":"levelo://app?vid=5a29e6f3-d0ba-49e7-af5d-f8e60471c1fc"},