{"last_updated":1770945432,"ttl":60,"version":"2.2","data":{"bikes":[{"bike_id":"d96f1086-8d9b-4b38-8774-136993319875","system_id":"levelo_inurba_marseille","lat":43.246437,"lon":5.388938,"is_reserved":false,"is_disabled":false,"rental_uris":{"android":"levelo://app?vid=d96f1086-8d9b-4b38-8774-136993319875","ios":"levelo://app?vid=d96f1086-8d9b-4b38-8774-136993319875"},"vehicle_type_id":"4","last_reported":1770945432,"current_range_meters":27200,"station_id":"ce4bhg12rcd13ifvqf60","pricing_plan_id":"cebpf4jnsgd1na2vs0mg"},{"bike_id":"c5571452-c3a9-4836-8b2a-9d93f59b5759","system_id":"levelo_inurba_marseille","lat":43.284716,"lon":5.484011,"is_reserved":false,"is_disabled":false,"rental_uris":{"android":"levelo://app?vid=c5571452-c3a9-4836-8b2a-9d93f59b5759","ios":"levelo://app?vid=c5571452-c3a9-4836-8b2a-9d93f59b5759"},"vehicle_type_id":"4","last_reported":1770945432,"current_range_meters":12800,"station_id":"st_d3svhcjqgbts73a3dn0g","pricing_plan_id":"cebpf4jnsgd1na2vs0mg"},{"bike_id":"597ba019-6a14-4724-bfeb-cc559411f270","system_id":"levelo_inurba_marseille","lat":43.27616,"lon":5.36116,"is_reserved":false,"is_disabled":false,"rental_uris":{"android":"levelo://app?vid=597ba019-6a14-4724-bfeb-cc559411f270","ios":"levelo://app?vid=597ba019-6a14-4724-bfeb-cc559411f270"},"vehicle_type_id":"4","last_reported":1770945432,"current_range_meters":39200,"station_id":"ce4bgj92rcd13ifvqbe0","pricing_plan_id":"cebpf4jnsgd1na2vs0mg"},{"bike_id":"e2cc566c-f335-4387-aad5-54e79bf09a33","system_id":"levelo_inurba_marseille","lat":43.30253,"lon":5.40048,"is_reserved":false,"is_disabled":false,"rental_uris":{"android":"levelo://app?vid=e2cc566c-f335-4387-aad5-54e79bf09a33","ios":"levelo://app?vid=e2cc566c-f335-4387-aad5-54e79bf09a33"},"vehicle_type_id":"4","last_reported":1770945432,"current_range_meters":24000,"station_id":"ce4bgvh2rcd13ifvqcs0","pricing_plan_id":"cebpf4jnsgd1na2vs0mg"},{"bike_id":"16b6a5c1-5836-4824-afce-dc154cffff82","system_id":"levelo_inurba_marseille","lat":43.312735,"lon":5.40173,"is_reserved":false,"is_disabled":false,"rental_uris":{"android":"levelo://app?vid=16b6a5c1-5836-4824-afce-dc154cffff82","ios":"levelo://app?vid=16b6a5c1-5836-4824-afce-dc154cffff82"},"vehicle_type_id":"4","last_reported":1770945432,"current_range_meters":18000,"station_id":"ce4bh092rcd13ifvqd30","pricing_plan_id":"cebpf4jnsgd1na2vs0mg"},{"bike_id":"fc148e1b-2eeb-4bb0-8155-e98e097f71ae","system_id":"levelo_inurba_marseille","lat":43.283246,"lon":5.38982,"is_reserved":false,"is_disabled":false,"rental_uris":{"android":"levelo://app?vid=fc148e1b-2eeb-4bb0-8155-e98e097f71ae","ios":"levelo://app?vid=fc148e1b-2eeb-4bb0-8155-e98e097f71ae"},"vehicle_type_id":"4","last_reported":1770945432,"current_range_meters":30000,"station_id":"","pricing_plan_id":"cebpf4jnsgd1na2vs0mg"},{"bike_id":"007dd422-bd9c-4750-828e-10e5b1290676","system_id":"levelo_inurba_marseille","lat":43.28646,"lon":5.38875,"is_reserved":false,"is_disabled":false,"rental_uris":{"android":"levelo://app?vid=007dd422-bd9c-4750-828e-10e5b1290676","ios":"levelo://app?vid=007dd422-bd9c-4750-828e-10e5b1290676"},"vehicle_type_id":"4","last_reported":1770945432,"current_range_meters":30000,"station_id":"","pricing_plan_id":"cebpf4jnsgd1na2vs0mg"},{"bike_id":"b4ed104e-788d-4b33-aad1-d33937fae292","system_id":"levelo_inurba_marseille","lat":43.28947,"lon":5.39623,"is_reserved":false,"is_disabled":true,"rental_uris":{"android":"levelo://app?vid=b4ed104e-788d-4b33-aad1-d33937fae292","ios":"levelo://app?vid=b4ed104e-788d-4b33-aad1-d33937fae292"},"vehicle_type_id":"4","last_reported":1770945432,"current_range_meters":29600,"station_id":"ce4bh3h2rcd13ifvqdn0","pricing_plan_id":"cebpf4jnsgd1na2vs0mg"},{"bike_id":"022767c9-f523-4ead-b102-658b025cab8d","system_id":"levelo_inurba_marseille","lat":43.24866,"lon":5.37456,"is_reserved":false,"is_disabled":false,"rental_uris":{"android":"levelo://app?vid=022767c9-f523-4ead-b102-658b025cab8d","ios":"levelo://app?vid=022767c9-f523-4ead-b102-658b025cab8d"},"vehicle_type_id":"4","last_reported":1770945432,"current_range_meters":38400,"station_id":"","pricing_plan_id":"cebpf4jnsgd1na2vs0mg"},{"bike_id":"c846e3b6-4824-4a07-9aea-802b0ace4a02","system_id":"levelo_inurba_marseille","lat":43.27959,"lon":5.38703,"is_reserved":false,"is_disabled":false,"rental_uris":{"android":"levelo://app?vid=c846e3b6-4824-4a07-9aea-802b0ace4a02","ios":"levelo://app?vid=c846e3b6-4824-4a07-9aea-802b0ace4a02"},"vehicle_type_id":"4","last_reported":1770945432,"current_range_meters":38000,"station_id":"ce4bhg12rcd13ifvqf80","pricing_plan_id":"cebpf4jnsgd1na2vs0mg"},{"bike_id":"c4642fce-6679-473d-841d-309d722b18fd","system_id":"levelo_inurba_marseille","lat":43.29547,"lon":5.36772,"is_reserved":false,"is_disabled":false,"rental_uris":{"android":"levelo://app?vid=c4642fce-6679-473d-841d-309d722b18fd","ios":"levelo://app?vid=c4642fce-6679-473d-841d-309d722b18fd"},"vehicle_type_id":"4","last_reported":1770945432,"current_range_meters":36400,"station_id":"ce4bgph2rcd13ifvqc2g","pricing_plan_id":"cebpf4jnsgd1na2vs0mg"},{"bike_id":"245d8399-0abe-420d-bc4b-93336612c814","system_id":"levelo_inurba_marseille","lat":43.25863,"lon":5.39897,"is_reserved":false,"is_disabled":false,"rental_uris":{"android":"levelo://app?vid=245d8399-0abe-420d-bc4b-93336612c814","ios":"levelo://app?vid=245d8399-0abe-420d-bc4b-93336612c814"},"vehicle_type_id":"4","last_reported":1770945432,"current_range_meters":24000,"station_id":"ce4bhl92rcd13ifvqghg","pricing_plan_id":"cebpf4jnsgd1na2vs0mg"},{"bike_id":"eceb30dd-f202-4183-92b0-f3face85ee0f","system_id":"levelo_inurba_marseille","lat":43.262138,"lon":5.37441,"is_reserved":false,"is_disabled":false,"rental_uris":{"android":"levelo://app?vid=eceb30dd-f202-4183-92b0-f3face85ee0f","ios":"levelo://app?vid=eceb30dd-f202-4183-92b0-f3face85ee0f"},"vehicle_type_id":"4","last_reported":1770945432,"current_range_meters":12000,"station_id":"ce4bhgp2rcd13ifvqfc0","pricing_plan_id":"cebpf4jnsgd1na2vs0mg"},{"bike_id":"8db296e1-6b6a-4c6d-8f82-f43c21884e25","system_id":"levelo_inurba_marseille","lat":43.33034,"lon":5.39048,"is_reserved":false,"is_disabled":false,"rental_uris":{"android":"levelo://app?vid=8db296e1-6b6a-4c6d-8f82-f43c21884e25","ios":"levelo://app?vid=8db296e1-6b6a-4c6d-8f82-f43c21884e25"},"vehicle_type_id":"4","last_reported":1770945432,"current_range_meters":14400,"station_id":"ce4bhr92rcd13ifvqhrg","pricing_plan_id":"cebpf4jnsgd1na2vs0mg"},{"bike_id":"26e1f116-11fa-42b9-928c-4d2fb88853f6","system_id":"levelo_inurba_marseille","lat":43.302,"lon":5.39487,"is_reserved":false,"is_disabled":false,"rental_uris":{"android":"levelo://app?vid=26e1f116-11fa-42b9-928c-4d2fb88853f6","ios":"levelo://app?vid=26e1f116-11fa-42b9-928c-4d2fb88853f6"},"vehicle_type_id":"4","last_reported":1770945432,"current_range_meters":39200,"station_id":"ce4bh0p2rcd13ifvqd70","pricing_plan_id":"cebpf4jnsgd1na2vs0mg"},{"bike_id":"c57a3473-db26-4825-b0c3-9acd480d89cc","system_id":"levelo_inurba_marseille","lat":43.30737,"lon":5.42443,"is_reserved":false,"is_disabled":false,"rental_uris":{"android":"levelo://app?vid=c57a3473-db26-4825-b0c3-9acd480d89cc","ios":"levelo://app?vid=c57a3473-db26-4825-b0c3-9acd480d89cc"},"vehicle_type_id":"4","last_reported":1770945432,"current_range_meters":20400,"station_id":"st_cvj6ca6bvosntc0bfgr0","pricing_plan_id":"cebpf4jnsgd1na2vs0mg"},{"bike_id":"581a942e-7f4c-4b59-961d-e47e562daab6","system_id":"levelo_inurba_marseille","lat":43.33529,"lon":5.37459,"is_reserved":false,"is_disabled":false,"rental_uris":{"android":"levelo://app?vid=581a942e-7f4c-4b59-961d-e47e562daab6","ios":"levelo://app?vid=581a942e-7f4c-4b59-961d-e47e562daab6"},"vehicle_type_id":"4","last_reported":1770945432,"current_range_meters":27600,"station_id":"st_d46tts09ee8s73dlu43g","pricing_plan_id":"cebpf4jnsgd1na2vs0mg"},{"bike_id":"42ec1b08-4ea1-4b89-8312-7958b7ae7f2e","system_id":"levelo_inurba_marseille","lat":43.29206,"lon":5.39298,"is_reserved":false,"is_disabled":true,"rental_uris":{"android":"levelo://app?vid=42ec1b08-4ea1-4b89-8312-7958b7ae7f2e","ios":"levelo://app?vid=42ec1b08-4ea1-4b89-8312-7958b7ae7f2e"},"vehicle_type_id":"4","last_reported":1770945432,"current_range_meters":26000,"station_id":"ce4bh192rcd13ifvqdd0","pricing_plan_id":"cebpf4jnsgd1na2vs0mg"},{"bike_id":"8bdaefbd-4792-4e98-a33e-13831766efc7","system_id":"levelo_inurba_marseille","lat":43.246672,"lon":5.381501,"is_reserved":false,"is_disabled":false,"rental_uris":{"android":"levelo://app?vid=8bdaefbd-4792-4e98-a33e-13831766efc7","ios":"levelo://app?vid=8bdaefbd-4792-4e98-a33e-13831766efc7"},"vehicle_type_id":"4","last_reported":1770945432,"current_range_meters":14800,"station_id":"ce4bhih2rcd13ifvqfr0","pricing_plan_id":"cebpf4jnsgd1na2vs0mg"},{"bike_id":"375dea6e-9d0d-4201-bab5-e343be855177","system_id":"levelo_inurba_marseille","lat":43.2955,"lon":5.4227,"is_reserved":false,"is_disabled":false,"rental_uris":{"android":"levelo://app?vid=375dea6e-9d0d-4201-bab5-e343be855177","ios":"levelo://app?vid=375dea6e-9d0d-4201-bab5-e343be855177"},"vehicle_type_id":"4","last_reported":1770945432,"current_range_meters":22800,"station_id":"ce4bhph2rcd13ifvqhdg","pricing_plan_id":"cebpf4jnsgd1na2vs0mg"},{"bike_id":"3e3231f6-7f34-4e79-a208-8e160f324ca7","system_id":"levelo_inurba_marseille","lat":43.31128,"lon":5.3776,"is_reserved":false,"is_disabled":false,"rental_uris":{"android":"levelo://app?vid=3e3231f6-7f34-4e79-a208-8e160f324ca7","ios":"levelo://app?vid=3e3231f6-7f34-4e79-a208-8e160f324ca7"},"vehicle_type_id":"4","last_reported":1770945432,"current_range_meters":18800,"station_id":"ce4bgt92rcd13ifvqcg0","pricing_plan_id":"cebpf4jnsgd1na2vs0mg"},{"bike_id":"a4be4eed-32c8-419a-8fa0-bd3decf6c558","system_id":"levelo_inurba_marseille","lat":43.300058,"lon":5.380886,"is_reserved":false,"is_disabled":false,"rental_uris":{"android":"levelo://app?vid=a4be4eed-32c8-419a-8fa0-bd3decf6c558","ios":"levelo://app?vid=a4be4eed-32c8-419a-8fa0-bd3decf6c558"},"vehicle_type_id":"4","last_reported":1770945432,"current_range_meters":24400,"station_id":"ce4bgjp2rcd13ifvqbh0","pricing_plan_id":"cebpf4jnsgd1na2vs0mg"},{"bike_id":"a34fd21e-938f-42e8-aee8-e723b46b6ece","system_id":"levelo_inurba_marseille","lat":43.30603,"lon":5.39358,"is_reserved":false,"is_disabled":false,"rental_uris":{"android":"levelo://app?vid=a34fd21e-938f-42e8-aee8-e723b46b6ece","ios":"levelo://app?vid=a34fd21e-938f-42e8-aee8-e723b46b6ece"},"vehicle_type_id":"4","last_reported":1770945432,"current_range_meters":8000,"station_id":"ce4bh0p2rcd13ifvqd80","pricing_plan_id":"cebpf4jnsgd1na2vs0mg"},{"bike_id":"53321d4a-f3db-430c-a673-3345893d2050","system_id":"levelo_inurba_marseille","lat":43.29052,"lon":5.37581,"is_reserved":false,"is_disabled":false,"rental_uris":{"android":"levelo://app?vid=53321d4a-f3db-430c-a673-3345893d2050","ios":"levelo://app?vid=53321d4a-f3db-430c-a673-3345893d2050"},"vehicle_type_id":"4","last_reported":1770945432,"current_range_meters":38800,"station_id":"ce4bh692rcd13ifvqe90","pricing_plan_id":"cebpf4jnsgd1na2vs0mg"},{"bike_id":"b63675df-139e-4786-ae44-dbe7061c1fdb","system_id":"levelo_inurba_marseille","lat":43.28449,"lon":5.35901,"is_reserved":false,"is_disabled":false,"rental_uris":{"android":"levelo://app?vid=b63675df-139e-4786-ae44-dbe7061c1fdb","ios":"levelo://app?vid=b63675df-139e-4786-ae44-dbe7061c1fdb"},"vehicle_type_id":"4","last_reported":1770945432,"current_range_meters":19600,"station_id":"ce4bhah2rcd13ifvqei0","pricing_plan_id":"cebpf4jnsgd1na2vs0mg"},{"bike_id":"6d22b095-ac89-44fb-a85d-e5f85c2365e2","system_id":"levelo_inurba_marseille","lat":43.32114,"lon":5.36759,"is_reserved":false,"is_disabled":false,"rental_uris":{"android":"levelo://app?vid=6d22b095-ac89-44fb-a85d-e5f85c2365e2","ios":"levelo://app?vid=6d22b095-ac89-44fb-a85d-e5f85c2365e2"},"vehicle_type_id":"4","last_reported":1770945432,"current_range_meters":35200,"station_id":"ce4bhrh2rcd13ifvqhug","pricing_plan_id":"cebpf4jnsgd1na2vs0mg"},{"bike_id":"53fadabc-c99e-4229-8390-1aef31b8f88b","system_id":"levelo_inurba_marseille","lat":43.28682,"lon":5.38652,"is_reserved":false,"is_disabled":true,"rental_uris":{"android":"levelo://app?vid=53fadabc-c99e-4229-8390-1aef31b8f88b","ios":"levelo://app?vid=53fadabc-c99e-4229-8390-1aef31b8f88b"},"vehicle_type_id":"4","last_reported":1770945432,"current_range_meters":0,"station_id":"ce4bh492rcd13ifvqdug","pricing_plan_id":"cebpf4jnsgd1na2vs0mg"},{"bike_id":"da6d29e8-9360-4ed3-8562-2408c1cf78c6","system_id":"levelo_inurba_marseille","lat":43.27806,"lon":5.40715,"is_reserved":false,"is_disabled":false,"rental_uris":{"android":"levelo://app?vid=da6d29e8-9360-4ed3-8562-2408c1cf78c6","ios":"levelo://app?vid=da6d29e8-9360-4ed3-8562-2408c1cf78c6"},"vehicle_type_id":"4","last_reported":1770945432,"current_range_meters":34800,"station_id":"ce4bhnh2rcd13ifvqgtg","pricing_plan_id":"cebpf4jnsgd1na2vs0mg"},{"bike_id":"c70613bb-0fb4-4214-9810-e4d4c22df343","system_id":"levelo_inurba_marseille","lat":43.2853,"lon":5.39555,"is_reserved":false,"is_disabled":false,"rental_uris":{"android":"levelo://app?vid=c70613bb-0fb4-4214-9810-e4d4c22df343","ios":"levelo://app?vid=c70613bb-0fb4-4214-9810-e4d4c22df343"},"vehicle_type_id":"4","last_reported":1770945432,"current_range_meters":27600,"station_id":"","pricing_plan_id":"cebpf4jnsgd1na2vs0mg"},{"bike_id":"63e5475a-c84d-49cf-b48c-553fbca4bc0e","system_id":"levelo_inurba_marseille","lat":43.28264,"lon":5.35078,"is_reserved":false,"is_disabled":false,"rental_uris":{"android":"levelo://app?vid=63e5475a-c84d-49cf-b48c-553fbca4bc0e","ios":"levelo://app?vid=63e5475a-c84d-49cf-b48c-553fbca4bc0e"},"vehicle_type_id":"4","last_reported":1770945432,"current_range_meters":12800,"station_id":"ce4bhbp2rcd13ifvqerg","pricing_plan_id":"cebpf4jnsgd1na2vs0mg"},{"bike_id":"8b06d2f9-1f63-41aa-a9b1-7b3be7e68ff4","system_id":"levelo_inurba_marseille","lat":43.2827,"lon":5.35076,"is_reserved":false,"is_disabled":false,"rental_uris":{"android":"levelo://app?vid=8b06d2f9-1f63-41aa-a9b1-7b3be7e68ff4","ios":"levelo://app?vid=8b06d2f9-1f63-41aa-a9b1-7b3be7e68ff4"},"vehicle_type_id":"4","last_reported":1770945432,"current_range_meters":19200,"station_id":"ce4bhbp2rcd13ifvqerg","pricing_plan_id":"cebpf4jnsgd1na2vs0mg"},{"bike_id":"f522a37b-7b1a-4bf2-902e-61d1ad81f21a","system_id":"levelo_inurba_marseille","lat":43.312104,"lon":5.368431,"is_reserved":false,"is_disabled":false,"rental_uris":{"android":"levelo://app?vid=f522a37b-7b1a-4bf2-902e-61d1ad81f21a","ios":"levelo://app?vid=f522a37b-7b1a-4bf2-902e-61d1ad81f21a"},"vehicle_type_id":"4","last_reported":1770945432,"current_range_meters":37600,"station_id":"ce4bgl92rcd13ifvqbq0","pricing_plan_id":"cebpf4jnsgd1na2vs0mg"},{"bike_id":"5f8b2072-38eb-4d09-864c-862c31eaae8f","system_id":"levelo_inurba_marseille","lat":43.29261,"lon":5.40907,"is_reserved":false,"is_disabled":false,"rental_uris":{"android":"levelo://app?vid=5f8b2072-38eb-4d09-864c-862c31eaae8f","ios":"levelo://app?vid=5f8b2072-38eb-4d09-864c-862c31eaae8f"},"vehicle_type_id":"4","last_reported":1770945432,"current_range_meters":38000,"station_id":"ce4bh192rcd13ifvqdc0","pricing_plan_id":"cebpf4jnsgd1na2vs0mg"},{"bike_id":"727904f8-1bd1-455c-b4d3-c46a58221b5f","system_id":"levelo_inurba_marseille","lat":43.28464,"lon":5.3588,"is_reserved":false,"is_disabled":false,"rental_uris":{"android":"levelo://app?vid=727904f8-1bd1-455c-b4d3-c46a58221b5f","ios":"levelo://app?vid=727904f8-1bd1-455c-b4d3-c46a58221b5f"},"vehicle_type_id":"4","last_reported":1770945432,"current_range_meters":34800,"station_id":"ce4bhah2rcd13ifvqei0","pricing_plan_id":"cebpf4jnsgd1na2vs0mg"},{"bike_id":"a5fe1c20-72b4-4682-b620-89adcd4da9ee","system_id":"levelo_inurba_marseille","lat":43.30099,"lon":5.39068,"is_reserved":false,"is_disabled":false,"rental_uris":{"android":"levelo://app?vid=a5fe1c20-72b4-4682-b620-89adcd4da9ee","ios":"levelo://app?vid=a5fe1c20-72b4-4682-b620-89adcd4da9ee"},"vehicle_type_id":"4","last_reported":1770945432,"current_range_meters":19600,"station_id":"ce4bh192rcd13ifvqdb0","pricing_plan_id":"cebpf4jnsgd1na2vs0mg"},{"bike_id":"d7e55b74-244d-40ff-92ca-08279a596dd1","system_id":"levelo_inurba_marseille","lat":43.29896,"lon":5.43673,"is_reserved":false,"is_disabled":false,"rental_uris":{"android":"levelo://app?vid=d7e55b74-244d-40ff-92ca-08279a596dd1","ios":"levelo://app?vid=d7e55b74-244d-40ff-92ca-08279a596dd1"},"vehicle_type_id":"4","last_reported":1770945432,"current_range_meters":37600,"station_id":"ce4bhpp2rcd13ifvqhfg","pricing_plan_id":"cebpf4jnsgd1na2vs0mg"},{"bike_id":"34597344-3517-4161-8c4e-ad3953cc8cfb","system_id":"levelo_inurba_marseille","lat":43.28725,"lon":5.37392,"is_reserved":false,"is_disabled":false,"rental_uris":{"android":"levelo://app?vid=34597344-3517-4161-8c4e-ad3953cc8cfb","ios":"levelo://app?vid=34597344-3517-4161-8c4e-ad3953cc8cfb"},"vehicle_type_id":"4","last_reported":1770945432,"current_range_meters":10000,"station_id":"ce4bh3p2rcd13ifvqdq0","pricing_plan_id":"cebpf4jnsgd1na2vs0mg"},{"bike_id":"6d761bb5-7ab8-45e9-be07-540108f494e4","system_id":"levelo_inurba_marseille","lat":43.26945,"lon":5.40251,"is_reserved":false,"is_disabled":false,"rental_uris":{"android":"levelo://app?vid=6d761bb5-7ab8-45e9-be07-540108f494e4","ios":"levelo://app?vid=6d761bb5-7ab8-45e9-be07-540108f494e4"},"vehicle_type_id":"4","last_reported":1770945432,"current_range_meters":18800,"station_id":"cjm6bp8fraef2m0cb0m0","pricing_plan_id":"cebpf4jnsgd1na2vs0mg"},{"bike_id":"f300d22b-b3ab-42d6-ad72-e92af3306e75","system_id":"levelo_inurba_marseille","lat":43.310534,"lon":5.371791,"is_reserved":false,"is_disabled":false,"rental_uris":{"android":"levelo://app?vid=f300d22b-b3ab-42d6-ad72-e92af3306e75","ios":"levelo://app?vid=f300d22b-b3ab-42d6-ad72-e92af3306e75"},"vehicle_type_id":"4","last_reported":1770945432,"current_range_meters":24000,"station_id":"st_d4kl2rp97mjs73e7tdfg","pricing_plan_id":"cebpf4jnsgd1na2vs0mg"},{"bike_id":"16043a8d-73b7-4097-a9bf-9de096bbe7c6","system_id":"levelo_inurba_marseille","lat":43.31535,"lon":5.38034,"is_reserved":false,"is_disabled":false,"rental_uris":{"android":"levelo://app?vid=16043a8d-73b7-4097-a9bf-9de096bbe7c6","ios":"levelo://app?vid=16043a8d-73b7-4097-a9bf-9de096bbe7c6"},"vehicle_type_id":"4","last_reported":1770945432,"current_range_meters":36400,"station_id":"ce4bhsp2rcd13ifvqi50","pricing_plan_id":"cebpf4jnsgd1na2vs0mg"},{"bike_id":"827d9cc5-5a68-4366-b1e5-3c6d00dec312","system_id":"levelo_inurba_marseille","lat":43.27418,"lon":5.39407,"is_reserved":false,"is_disabled":false,"rental_uris":{"android":"levelo://app?vid=827d9cc5-5a68-4366-b1e5-3c6d00dec312","ios":"levelo://app?vid=827d9cc5-5a68-4366-b1e5-3c6d00dec312"},"vehicle_type_id":"4","last_reported":1770945432,"current_range_meters":26800,"station_id":"ce4bhdp2rcd13ifvqf20","pricing_plan_id":"cebpf4jnsgd1na2vs0mg"},{"bike_id":"241b3e74-a71f-4c45-8122-0768114fc5a0","system_id":"levelo_inurba_marseille","lat":43.29847,"lon":5.362818,"is_reserved":false,"is_disabled":false,"rental_uris":{"android":"levelo://app?vid=241b3e74-a71f-4c45-8122-0768114fc5a0","ios":"levelo://app?vid=241b3e74-a71f-4c45-8122-0768114fc5a0"},"vehicle_type_id":"4","last_reported":1770945432,"current_range_meters":39200,"station_id":"ce4bgpp2rcd13ifvqc3g","pricing_plan_id":"cebpf4jnsgd1na2vs0mg"},{"bike_id":"263c3f01-3edb-40a1-83fb-093dde8e9282","system_id":"levelo_inurba_marseille","lat":43.33733,"lon":5.39175,"is_reserved":false,"is_disabled":false,"rental_uris":{"android":"levelo://app?vid=263c3f01-3edb-40a1-83fb-093dde8e9282","ios":"levelo://app?vid=263c3f01-3edb-40a1-83fb-093dde8e9282"},"vehicle_type_id":"4","last_reported":1770945432,"current_range_meters":30400,"station_id":"ce4bhr92rcd13ifvqhsg","pricing_plan_id":"cebpf4jnsgd1na2vs0mg"},{"bike_id":"b8b273a9-ad07-47df-8f89-3ea01ba1e037","system_id":"levelo_inurba_marseille","lat":43.27568,"lon":5.38415,"is_reserved":false,"is_disabled":false,"rental_uris":{"android":"levelo://app?vid=b8b273a9-ad07-47df-8f89-3ea01ba1e037","ios":"levelo://app?vid=b8b273a9-ad07-47df-8f89-3ea01ba1e037"},"vehicle_type_id":"4","last_reported":1770945432,"current_range_meters":40000,"station_id":"ce4bhh92rcd13ifvqfi0","pricing_plan_id":"cebpf4jnsgd1na2vs0mg"},{"bike_id":"f38fccb3-9422-4c98-b4a5-9320cdfa4c27","system_id":"levelo_inurba_marseille","lat":43.28289,"lon":5.35058,"is_reserved":false,"is_disabled":false,"rental_uris":{"android":"levelo://app?vid=f38fccb3-9422-4c98-b4a5-9320cdfa4c27","ios":"levelo://app?vid=f38fccb3-9422-4c98-b4a5-9320cdfa4c27"},"vehicle_type_id":"4","last_reported":1770945432,"current_range_meters":27600,"station_id":"ce4bhbp2rcd13ifvqerg","pricing_plan_id":"cebpf4jnsgd1na2vs0mg"},{"bike_id":"6e2fc0d4-a25b-4469-96ca-042c68399b84","system_id":"levelo_inurba_marseille","lat":43.2909,"lon":5.3716,"is_reserved":false,"is_disabled":false,"rental_uris":{"android":"levelo://app?vid=6e2fc0d4-a25b-4469-96ca-042c68399b84","ios":"levelo://app?vid=6e2fc0d4-a25b-4469-96ca-042c68399b84"},"vehicle_type_id":"4","last_reported":1770945432,"current_range_meters":5600,"station_id":"ce4bh5p2rcd13ifvqe4g","pricing_plan_id":"cebpf4jnsgd1na2vs0mg"},{"bike_id":"6888d293-0d81-4cf8-b7da-18b5fd60abad","system_id":"levelo_inurba_marseille","lat":43.2932,"lon":5.37231,"is_reserved":false,"is_disabled":false,"rental_uris":{"android":"levelo://app?vid=6888d293-0d81-4cf8-b7da-18b5fd60abad","ios":"levelo://app?vid=6888d293-0d81-4cf8-b7da-18b5fd60abad"},"vehicle_type_id":"4","last_reported":1770945432,"current_range_meters":25600,"station_id":"","pricing_plan_id":"cebpf4jnsgd1na2vs0mg"},{"bike_id":"24ac8c5e-ac37-4368-97b9-bf6b356acccc","system_id":"levelo_inurba_marseille","lat":43.25107,"lon":5.40335,"is_reserved":false,"is_disabled":false,"rental_uris":{"android":"levelo://app?vid=24ac8c5e-ac37-4368-97b9-bf6b356acccc","ios":"levelo://app?vid=24ac8c5e-ac37-4368-97b9-bf6b356acccc"},"vehicle_type_id":"4","last_reported":1770945432,"current_range_meters":24400,"station_id":"ce4bhlh2rcd13ifvqgig","pricing_plan_id":"cebpf4jnsgd1na2vs0mg"},{"bike_id":"32b27b47-6c8b-49c6-8b48-fbeace627871","system_id":"levelo_inurba_marseille","lat":43.312226,"lon":5.368537,"is_reserved":false,"is_disabled":true,"rental_uris":{"android":"levelo://app?vid=32b27b47-6c8b-49c6-8b48-fbeace627871","ios":"levelo://app?vid=32b27b47-6c8b-49c6-8b48-fbeace627871"},"vehicle_type_id":"4","last_reported":1770945432,"current_range_meters":0,"station_id":"ce4bgl92rcd13ifvqbq0","pricing_plan_id":"cebpf4jnsgd1na2vs0mg"},{"bike_id":"54174f9a-82c6-4185-9348-2931b546c925","system_id":"levelo_inurba_marseille","lat":43.29285,"lon":5.36819,"is_reserved":false,"is_disabled":false,"rental_uris":{"android":"levelo://app?vid=54174f9a-82c6-4185-9348-2931b546c925","ios":"levelo://app?vid=54174f9a-82c6-4185-9348-2931b546c925"},"vehicle_type_id":"4","last_reported":1770945432,"current_range_meters":32400,"station_id":"ce4bhbp2rcd13ifvqesg","pricing_plan_id":"cebpf4jnsgd1na2vs0mg"},{"bike_id":"b7fcb2da-5243-440b-926b-4edc89af4b76","system_id":"levelo_inurba_marseille","lat":43.27992,"lon":5.40005,"is_reserved":false,"is_disabled":false,"rental_uris":{"android":"levelo://app?vid=b7fcb2da-5243-440b-926b-4edc89af4b76","ios":"levelo://app?vid=b7fcb2da-5243-440b-926b-4edc89af4b76"},"vehicle_type_id":"4","last_reported":1770945432,"current_range_meters":31200,"station_id":"ce4bho92rcd13ifvqh4g","pricing_plan_id":"cebpf4jnsgd1na2vs0mg"},{"bike_id":"a93a13c8-036e-4c71-a80c-bf5cd069a0b6","system_id":"levelo_inurba_marseille","lat":43.28634,"lon":5.35101,"is_reserved":false,"is_disabled":false,"rental_uris":{"android":"levelo://app?vid=a93a13c8-036e-4c71-a80c-bf5cd069a0b6","ios":"levelo://app?vid=a93a13c8-036e-4c71-a80c-bf5cd069a0b6"},"vehicle_type_id":"4","last_reported":1770945432,"current_range_meters":30400,"station_id":"ce4bhch2rcd13ifvqeug","pricing_plan_id":"cebpf4jnsgd1na2vs0mg"},{"bike_id":"48d4a83c-c716-41c6-8fd3-cb0153dd2afb","system_id":"levelo_inurba_marseille","lat":43.312086,"lon":5.368934,"is_reserved":false,"is_disabled":false,"rental_uris":{"android":"levelo://app?vid=48d4a83c-c716-41c6-8fd3-cb0153dd2afb","ios":"levelo://app?vid=48d4a83c-c716-41c6-8fd3-cb0153dd2afb"},"vehicle_type_id":"4","last_reported":1770945432,"current_range_meters":34800,"station_id":"ce4bgl92rcd13ifvqbq0","pricing_plan_id":"cebpf4jnsgd1na2vs0mg"},{"bike_id":"e532d849-9da4-492c-974e-21e564fe6f6a","system_id":"levelo_inurba_marseille","lat":43.31056,"lon":5.37173,"is_reserved":false,"is_disabled":false,"rental_uris":{"android":"levelo://app?vid=e532d849-9da4-492c-974e-21e564fe6f6a","ios":"levelo://app?vid=e532d849-9da4-492c-974e-21e564fe6f6a"},"vehicle_type_id":"4","last_reported":1770945432,"current_range_meters":36400,"station_id":"st_d4kl2rp97mjs73e7tdfg","pricing_plan_id":"cebpf4jnsgd1na2vs0mg"},{"bike_id":"1abbadd6-2e69-43c8-83af-b993d8b481b8","system_id":"levelo_inurba_marseille","lat":43.2992,"lon":5.36546,"is_reserved":false,"is_disabled":false,"rental_uris":{"android":"levelo://app?vid=1abbadd6-2e69-43c8-83af-b993d8b481b8","ios":"levelo://app?vid=1abbadd6-2e69-43c8-83af-b993d8b481b8"},"vehicle_type_id":"4","last_reported":1770945432,"current_range_meters":38400,"station_id":"ce4bgm92rcd13ifvqbr0","pricing_plan_id":"cebpf4jnsgd1na2vs0mg"},{"bike_id":"991c13dc-fd9f-4b28-9c78-fd5b4127837e","system_id":"levelo_inurba_marseille","lat":43.269434,"lon":5.4024,"is_reserved":false,"is_disabled":false,"rental_uris":{"android":"levelo://app?vid=991c13dc-fd9f-4b28-9c78-fd5b4127837e","ios":"levelo://app?vid=991c13dc-fd9f-4b28-9c78-fd5b4127837e"},"vehicle_type_id":"4","last_reported":1770945432,"current_range_meters":39200,"station_id":"cjm6bp8fraef2m0cb0m0","pricing_plan_id":"cebpf4jnsgd1na2vs0mg"},{"bike_id":"603e2fd3-7aea-4ce6-b28e-1e2a09dc79f8","system_id":"levelo_inurba_marseille","lat":43.30135,"lon":5.39861,"is_reserved":false,"is_disabled":false,"rental_uris":{"android":"levelo://app?vid=603e2fd3-7aea-4ce6-b28e-1e2a09dc79f8","ios":"levelo://app?vid=603e2fd3-7aea-4ce6-b28e-1e2a09dc79f8"},"vehicle_type_id":"4","last_reported":1770945432,"current_range_meters":39200,"station_id":"ce4bh0h2rcd13ifvqd40","pricing_plan_id":"cebpf4jnsgd1na2vs0mg"},{"bike_id":"5d6b226c-0296-4bc0-9929-39689db3e4b1","system_id":"levelo_inurba_marseille","lat":43.32099,"lon":5.36795,"is_reserved":false,"is_disabled":false,"rental_uris":{"android":"levelo://app?vid=5d6b226c-0296-4bc0-9929-39689db3e4b1","ios":"levelo://app?vid=5d6b226c-0296-4bc0-9929-39689db3e4b1"},"vehicle_type_id":"4","last_reported":1770945432,"current_range_meters":23200,"station_id":"ce4bhrh2rcd13ifvqhug","pricing_plan_id":"cebpf4jnsgd1na2vs0mg"},{"bike_id":"f9036967-be2e-4b3a-b296-f81c635f7c21","system_id":"levelo_inurba_marseille","lat":43.28707,"lon":5.39999,"is_reserved":false,"is_disabled":false,"rental_uris":{"android":"levelo://app?vid=f9036967-be2e-4b3a-b296-f81c635f7c21","ios":"levelo://app?vid=f9036967-be2e-4b3a-b296-f81c635f7c21"},"vehicle_type_id":"4","last_reported":1770945432,"current_range_meters":36400,"station_id":"ce4bho92rcd13ifvqh3g","pricing_plan_id":"cebpf4jnsgd1na2vs0mg"},{"bike_id":"9664a5c4-41bd-49a0-bca7-ccecab569b6a","system_id":"levelo_inurba_marseille","lat":43.32097,"lon":5.4152,"is_reserved":false,"is_disabled":false,"rental_uris":{"android":"levelo://app?vid=9664a5c4-41bd-49a0-bca7-ccecab569b6a","ios":"levelo://app?vid=9664a5c4-41bd-49a0-bca7-ccecab569b6a"},"vehicle_type_id":"4","last_reported":1770945432,"current_range_meters":38800,"station_id":"ce4bhq92rcd13ifvqhkg","pricing_plan_id":"cebpf4jnsgd1na2vs0mg"},{"bike_id":"5c8c3d05-5a98-4394-b47e-3e04535ddbbc","system_id":"levelo_inurba_marseille","lat":43.25499,"lon":5.37659,"is_reserved":false,"is_disabled":false,"rental_uris":{"android":"levelo://app?vid=5c8c3d05-5a98-4394-b47e-3e04535ddbbc","ios":"levelo://app?vid=5c8c3d05-5a98-4394-b47e-3e04535ddbbc"},"vehicle_type_id":"4","last_reported":1770945432,"current_range_meters":24800,"station_id":"ce4bhh12rcd13ifvqff0","pricing_plan_id":"cebpf4jnsgd1na2vs0mg"},{"bike_id":"054dfe09-6850-42bc-929a-9e19a7bd09ca","system_id":"levelo_inurba_marseille","lat":43.31109,"lon":5.3778,"is_reserved":false,"is_disabled":false,"rental_uris":{"android":"levelo://app?vid=054dfe09-6850-42bc-929a-9e19a7bd09ca","ios":"levelo://app?vid=054dfe09-6850-42bc-929a-9e19a7bd09ca"},"vehicle_type_id":"4","last_reported":1770945432,"current_range_meters":22000,"station_id":"ce4bgt92rcd13ifvqcg0","pricing_plan_id":"cebpf4jnsgd1na2vs0mg"},{"bike_id":"1666b265-643d-41e7-bcc3-6167a6d49f91","system_id":"levelo_inurba_marseille","lat":43.22537,"lon":5.34837,"is_reserved":false,"is_disabled":false,"rental_uris":{"android":"levelo://app?vid=1666b265-643d-41e7-bcc3-6167a6d49f91","ios":"levelo://app?vid=1666b265-643d-41e7-bcc3-6167a6d49f91"},"vehicle_type_id":"4","last_reported":1770945432,"current_range_meters":6800,"station_id":"","pricing_plan_id":"cebpf4jnsgd1na2vs0mg"},{"bike_id":"0686c1cd-6b47-4403-9258-151597036ac0","system_id":"levelo_inurba_marseille","lat":43.29982,"lon":5.37191,"is_reserved":false,"is_disabled":false,"rental_uris":{"android":"levelo://app?vid=0686c1cd-6b47-4403-9258-151597036ac0","ios":"levelo://app?vid=0686c1cd-6b47-4403-9258-151597036ac0"},"vehicle_type_id":"4","last_reported":1770945432,"current_range_meters":27200,"station_id":"ce4bgr92rcd13ifvqc7g","pricing_plan_id":"cebpf4jnsgd1na2vs0mg"},{"bike_id":"0cef8616-1d65-4182-99dc-824443a67ce0","system_id":"levelo_inurba_marseille","lat":43.24478,"lon":5.42531,"is_reserved":false,"is_disabled":false,"rental_uris":{"android":"levelo://app?vid=0cef8616-1d65-4182-99dc-824443a67ce0","ios":"levelo://app?vid=0cef8616-1d65-4182-99dc-824443a67ce0"},"vehicle_type_id":"4","last_reported":1770945432,"current_range_meters":11200,"station_id":"st_d4a3vfp97mjs738cd8kg","pricing_plan_id":"cebpf4jnsgd1na2vs0mg"},{"bike_id":"5f12005e-04e5-44aa-9036-56a982f265e1","system_id":"levelo_inurba_marseille","lat":43.29222,"lon":5.36052,"is_reserved":false,"is_disabled":false,"rental_uris":{"android":"levelo://app?vid=5f12005e-04e5-44aa-9036-56a982f265e1","ios":"levelo://app?vid=5f12005e-04e5-44aa-9036-56a982f265e1"},"vehicle_type_id":"4","last_reported":1770945432,"current_range_meters":35200,"station_id":"ce4bhbh2rcd13ifvqeqg","pricing_plan_id":"cebpf4jnsgd1na2vs0mg"},{"bike_id":"9eaba793-1048-4356-b61b-744ee2b1ebbc","system_id":"levelo_inurba_marseille","lat":43.29195,"lon":5.36013,"is_reserved":false,"is_disabled":false,"rental_uris":{"android":"levelo://app?vid=9eaba793-1048-4356-b61b-744ee2b1ebbc","ios":"levelo://app?vid=9eaba793-1048-4356-b61b-744ee2b1ebbc"},"vehicle_type_id":"4","last_reported":1770945432,"current_range_meters":36000,"station_id":"","pricing_plan_id":"cebpf4jnsgd1na2vs0mg"},{"bike_id":"6684f561-c8e5-447e-b2b4-87fceaf4640b","system_id":"levelo_inurba_marseille","lat":43.26574,"lon":5.39016,"is_reserved":false,"is_disabled":false,"rental_uris":{"android":"levelo://app?vid=6684f561-c8e5-447e-b2b4-87fceaf4640b","ios":"levelo://app?vid=6684f561-c8e5-447e-b2b4-87fceaf4640b"},"vehicle_type_id":"4","last_reported":1770945432,"current_range_meters":22800,"station_id":"ce4bhe12rcd13ifvqf30","pricing_plan_id":"cebpf4jnsgd1na2vs0mg"},{"bike_id":"05e02630-2abe-4591-ba0b-2fbc6348cd43","system_id":"levelo_inurba_marseille","lat":43.28341,"lon":5.38101,"is_reserved":false,"is_disabled":false,"rental_uris":{"android":"levelo://app?vid=05e02630-2abe-4591-ba0b-2fbc6348cd43","ios":"levelo://app?vid=05e02630-2abe-4591-ba0b-2fbc6348cd43"},"vehicle_type_id":"4","last_reported":1770945432,"current_range_meters":40000,"station_id":"ce4bh412rcd13ifvqdr0","pricing_plan_id":"cebpf4jnsgd1na2vs0mg"},{"bike_id":"705379f0-9f22-461e-8900-3556f13ec82c","system_id":"levelo_inurba_marseille","lat":43.31684,"lon":5.37766,"is_reserved":false,"is_disabled":false,"rental_uris":{"android":"levelo://app?vid=705379f0-9f22-461e-8900-3556f13ec82c","ios":"levelo://app?vid=705379f0-9f22-461e-8900-3556f13ec82c"},"vehicle_type_id":"4","last_reported":1770945432,"current_range_meters":36800,"station_id":"ce4bgth2rcd13ifvqch0","pricing_plan_id":"cebpf4jnsgd1na2vs0mg"},{"bike_id":"bcad26e7-801b-45a3-9a6f-b11851106eac","system_id":"levelo_inurba_marseille","lat":43.28608,"lon":5.38331,"is_reserved":false,"is_disabled":false,"rental_uris":{"android":"levelo://app?vid=bcad26e7-801b-45a3-9a6f-b11851106eac","ios":"levelo://app?vid=bcad26e7-801b-45a3-9a6f-b11851106eac"},"vehicle_type_id":"4","last_reported":1770945432,"current_range_meters":9600,"station_id":"","pricing_plan_id":"cebpf4jnsgd1na2vs0mg"},{"bike_id":"35e4b27f-bf66-4c05-b34c-6458f1faa95d","system_id":"levelo_inurba_marseille","lat":43.24637,"lon":5.43137,"is_reserved":false,"is_disabled":false,"rental_uris":{"android":"levelo://app?vid=35e4b27f-bf66-4c05-b34c-6458f1faa95d","ios":"levelo://app?vid=35e4b27f-bf66-4c05-b34c-6458f1faa95d"},"vehicle_type_id":"4","last_reported":1770945432,"current_range_meters":27600,"station_id":"st_d2m6c4gdas8pm72e190g","pricing_plan_id":"cebpf4jnsgd1na2vs0mg"},{"bike_id":"6068ab39-5054-4c82-bfb6-3a4eef3bba44","system_id":"levelo_inurba_marseille","lat":43.23147,"lon":5.43729,"is_reserved":false,"is_disabled":false,"rental_uris":{"android":"levelo://app?vid=6068ab39-5054-4c82-bfb6-3a4eef3bba44","ios":"levelo://app?vid=6068ab39-5054-4c82-bfb6-3a4eef3bba44"},"vehicle_type_id":"4","last_reported":1770945432,"current_range_meters":24400,"station_id":"ce4bhmp2rcd13ifvqgog","pricing_plan_id":"cebpf4jnsgd1na2vs0mg"},{"bike_id":"ff497dc8-f7f3-4f09-a73a-6eee12b8475a","system_id":"levelo_inurba_marseille","lat":43.28344,"lon":5.38127,"is_reserved":false,"is_disabled":false,"rental_uris":{"android":"levelo://app?vid=ff497dc8-f7f3-4f09-a73a-6eee12b8475a","ios":"levelo://app?vid=ff497dc8-f7f3-4f09-a73a-6eee12b8475a"},"vehicle_type_id":"4","last_reported":1770945432,"current_range_meters":35600,"station_id":"ce4bh412rcd13ifvqdr0","pricing_plan_id":"cebpf4jnsgd1na2vs0mg"},{"bike_id":"9608066a-cdb2-49b3-a28b-2cea2519cf49","system_id":"levelo_inurba_marseille","lat":43.305331,"lon":5.365339,"is_reserved":false,"is_disabled":false,"rental_uris":{"android":"levelo://app?vid=9608066a-cdb2-49b3-a28b-2cea2519cf49","ios":"levelo://app?vid=9608066a-cdb2-49b3-a28b-2cea2519cf49"},"vehicle_type_id":"4","last_reported":1770945432,"current_range_meters":38800,"station_id":"ce4bgs12rcd13ifvqcag","pricing_plan_id":"cebpf4jnsgd1na2vs0mg"},{"bike_id":"7add6c40-4260-44ba-be97-0842098e9c4e","system_id":"levelo_inurba_marseille","lat":43.24671,"lon":5.38158,"is_reserved":false,"is_disabled":false,"rental_uris":{"android":"levelo://app?vid=7add6c40-4260-44ba-be97-0842098e9c4e","ios":"levelo://app?vid=7add6c40-4260-44ba-be97-0842098e9c4e"},"vehicle_type_id":"4","last_reported":1770945432,"current_range_meters":36400,"station_id":"ce4bhih2rcd13ifvqfr0","pricing_plan_id":"cebpf4jnsgd1na2vs0mg"},{"bike_id":"bb22b417-2211-49a2-8f12-7d2df92428b1","system_id":"levelo_inurba_marseille","lat":43.31184,"lon":5.38706,"is_reserved":false,"is_disabled":false,"rental_uris":{"android":"levelo://app?vid=bb22b417-2211-49a2-8f12-7d2df92428b1","ios":"levelo://app?vid=bb22b417-2211-49a2-8f12-7d2df92428b1"},"vehicle_type_id":"4","last_reported":1770945432,"current_range_meters":38400,"station_id":"ce4bgv12rcd13ifvqcp0","pricing_plan_id":"cebpf4jnsgd1na2vs0mg"},{"bike_id":"65692a0b-6fff-4898-810f-59e1ffae1d1d","system_id":"levelo_inurba_marseille","lat":43.28453,"lon":5.3588,"is_reserved":false,"is_disabled":false,"rental_uris":{"android":"levelo://app?vid=65692a0b-6fff-4898-810f-59e1ffae1d1d","ios":"levelo://app?vid=65692a0b-6fff-4898-810f-59e1ffae1d1d"},"vehicle_type_id":"4","last_reported":1770945432,"current_range_meters":38800,"station_id":"ce4bhah2rcd13ifvqei0","pricing_plan_id":"cebpf4jnsgd1na2vs0mg"},{"bike_id":"89897b2f-390b-4435-8a27-ee6fe48891c5","system_id":"levelo_inurba_marseille","lat":43.2978,"lon":5.39362,"is_reserved":false,"is_disabled":false,"rental_uris":{"android":"levelo://app?vid=89897b2f-390b-4435-8a27-ee6fe48891c5","ios":"levelo://app?vid=89897b2f-390b-4435-8a27-ee6fe48891c5"},"vehicle_type_id":"4","last_reported":1770945432,"current_range_meters":39200,"station_id":"chh1huq6cuj3fo74tm60","pricing_plan_id":"cebpf4jnsgd1na2vs0mg"},{"bike_id":"b59d9f9b-fec0-4bfc-9f83-31c8ed5f5ebd","system_id":"levelo_inurba_marseille","lat":43.281,"lon":5.37832,"is_reserved":false,"is_disabled":false,"rental_uris":{"android":"levelo://app?vid=b59d9f9b-fec0-4bfc-9f83-31c8ed5f5ebd","ios":"levelo://app?vid=b59d9f9b-fec0-4bfc-9f83-31c8ed5f5ebd"},"vehicle_type_id":"4","last_reported":1770945432,"current_range_meters":36800,"station_id":"ce4bha12rcd13ifvqee0","pricing_plan_id":"cebpf4jnsgd1na2vs0mg"},{"bike_id":"a18aa286-269e-4963-b039-81f99ce774de","system_id":"levelo_inurba_marseille","lat":43.28866,"lon":5.35835,"is_reserved":false,"is_disabled":false,"rental_uris":{"android":"levelo://app?vid=a18aa286-269e-4963-b039-81f99ce774de","ios":"levelo://app?vid=a18aa286-269e-4963-b039-81f99ce774de"},"vehicle_type_id":"4","last_reported":1770945432,"current_range_meters":9200,"station_id":"ce4bhb12rcd13ifvqem0","pricing_plan_id":"cebpf4jnsgd1na2vs0mg"},{"bike_id":"2707734e-33a5-4bb7-9e75-871e3e06a9a7","system_id":"levelo_inurba_marseille","lat":43.29003,"lon":5.35593,"is_reserved":false,"is_disabled":false,"rental_uris":{"android":"levelo://app?vid=2707734e-33a5-4bb7-9e75-871e3e06a9a7","ios":"levelo://app?vid=2707734e-33a5-4bb7-9e75-871e3e06a9a7"},"vehicle_type_id":"4","last_reported":1770945432,"current_range_meters":11600,"station_id":"ce4bhb92rcd13ifvqen0","pricing_plan_id":"cebpf4jnsgd1na2vs0mg"},{"bike_id":"ac0b6a02-f142-481f-ae2c-756fa64d98fa","system_id":"levelo_inurba_marseille","lat":43.29936,"lon":5.36534,"is_reserved":false,"is_disabled":false,"rental_uris":{"android":"levelo://app?vid=ac0b6a02-f142-481f-ae2c-756fa64d98fa","ios":"levelo://app?vid=ac0b6a02-f142-481f-ae2c-756fa64d98fa"},"vehicle_type_id":"4","last_reported":1770945432,"current_range_meters":27600,"station_id":"ce4bgm92rcd13ifvqbr0","pricing_plan_id":"cebpf4jnsgd1na2vs0mg"},{"bike_id":"1b166688-417c-495d-82c5-e7b7d7f6c39a","system_id":"levelo_inurba_marseille","lat":43.29703,"lon":5.36612,"is_reserved":false,"is_disabled":false,"rental_uris":{"android":"levelo://app?vid=1b166688-417c-495d-82c5-e7b7d7f6c39a","ios":"levelo://app?vid=1b166688-417c-495d-82c5-e7b7d7f6c39a"},"vehicle_type_id":"4","last_reported":1770945432,"current_range_meters":27600,"station_id":"ce4bgn12rcd13ifvqbt0","pricing_plan_id":"cebpf4jnsgd1na2vs0mg"},{"bike_id":"01e3a05a-3083-4175-91c1-2026bf669a88","system_id":"levelo_inurba_marseille","lat":43.284097,"lon":5.375218,"is_reserved":false,"is_disabled":true,"rental_uris":{"android":"levelo://app?vid=01e3a05a-3083-4175-91c1-2026bf669a88","ios":"levelo://app?vid=01e3a05a-3083-4175-91c1-2026bf669a88"},"vehicle_type_id":"4","last_reported":1770945432,"current_range_meters":16000,"station_id":"ce4bh412rcd13ifvqds0","pricing_plan_id":"cebpf4jnsgd1na2vs0mg"},{"bike_id":"6a77d0ea-d435-4de7-9919-85676c5866e3","system_id":"levelo_inurba_marseille","lat":43.299916,"lon":5.371821,"is_reserved":false,"is_disabled":false,"rental_uris":{"android":"levelo://app?vid=6a77d0ea-d435-4de7-9919-85676c5866e3","ios":"levelo://app?vid=6a77d0ea-d435-4de7-9919-85676c5866e3"},"vehicle_type_id":"4","last_reported":1770945432,"current_range_meters":38000,"station_id":"ce4bgr92rcd13ifvqc7g","pricing_plan_id":"cebpf4jnsgd1na2vs0mg"},{"bike_id":"8e2a6bdd-3868-4795-80f0-6045872e16c6","system_id":"levelo_inurba_marseille","lat":43.24664,"lon":5.38156,"is_reserved":false,"is_disabled":false,"rental_uris":{"android":"levelo://app?vid=8e2a6bdd-3868-4795-80f0-6045872e16c6","ios":"levelo://app?vid=8e2a6bdd-3868-4795-80f0-6045872e16c6"},"vehicle_type_id":"4","last_reported":1770945432,"current_range_meters":28000,"station_id":"ce4bhih2rcd13ifvqfr0","pricing_plan_id":"cebpf4jnsgd1na2vs0mg"},{"bike_id":"cae3340b-dabf-42ee-b29f-fab64d3e6b2c","system_id":"levelo_inurba_marseille","lat":43.24075,"lon":5.3774,"is_reserved":false,"is_disabled":false,"rental_uris":{"android":"levelo://app?vid=cae3340b-dabf-42ee-b29f-fab64d3e6b2c","ios":"levelo://app?vid=cae3340b-dabf-42ee-b29f-fab64d3e6b2c"},"vehicle_type_id":"4","last_reported":1770945432,"current_range_meters":8800,"station_id":"ce4bhnp2rcd13ifvqgvg","pricing_plan_id":"cebpf4jnsgd1na2vs0mg"},{"bike_id":"c0705002-253b-4e3a-9a9f-bf195343afde","system_id":"levelo_inurba_marseille","lat":43.28105,"lon":5.37846,"is_reserved":false,"is_disabled":false,"rental_uris":{"android":"levelo://app?vid=c0705002-253b-4e3a-9a9f-bf195343afde","ios":"levelo://app?vid=c0705002-253b-4e3a-9a9f-bf195343afde"},"vehicle_type_id":"4","last_reported":1770945432,"current_range_meters":3200,"station_id":"ce4bha12rcd13ifvqee0","pricing_plan_id":"cebpf4jnsgd1na2vs0mg"},{"bike_id":"2d6e8cd5-0d48-401a-a050-b47b7abe2881","system_id":"levelo_inurba_marseille","lat":43.29034,"lon":5.35941,"is_reserved":false,"is_disabled":false,"rental_uris":{"android":"levelo://app?vid=2d6e8cd5-0d48-401a-a050-b47b7abe2881","ios":"levelo://app?vid=2d6e8cd5-0d48-401a-a050-b47b7abe2881"},"vehicle_type_id":"4","last_reported":1770945432,"current_range_meters":34000,"station_id":"ce4bha92rcd13ifvqeg0","pricing_plan_id":"cebpf4jnsgd1na2vs0mg"},{"bike_id":"01adf697-a0b1-4672-92f7-51b13b766b4e","system_id":"levelo_inurba_marseille","lat":43.27051,"lon":5.40265,"is_reserved":false,"is_disabled":true,"rental_uris":{"android":"levelo://app?vid=01adf697-a0b1-4672-92f7-51b13b766b4e","ios":"levelo://app?vid=01adf697-a0b1-4672-92f7-51b13b766b4e"},"vehicle_type_id":"4","last_reported":1770945432,"current_range_meters":32000,"station_id":"ce4bhk92rcd13ifvqgc0","pricing_plan_id":"cebpf4jnsgd1na2vs0mg"},{"bike_id":"70adca96-bb6c-4152-966a-66ff8ce4576a","system_id":"levelo_inurba_marseille","lat":43.26501,"lon":5.3954,"is_reserved":false,"is_disabled":false,"rental_uris":{"android":"levelo://app?vid=70adca96-bb6c-4152-966a-66ff8ce4576a","ios":"levelo://app?vid=70adca96-bb6c-4152-966a-66ff8ce4576a"},"vehicle_type_id":"4","last_reported":1770945432,"current_range_meters":36400,"station_id":"ce4bhi12rcd13ifvqfq0","pricing_plan_id":"cebpf4jnsgd1na2vs0mg"},{"bike_id":"60815d74-cf24-4748-be74-0881db2c8042","system_id":"levelo_inurba_marseille","lat":43.31972,"lon":5.3812,"is_reserved":false,"is_disabled":false,"rental_uris":{"android":"levelo://app?vid=60815d74-cf24-4748-be74-0881db2c8042","ios":"levelo://app?vid=60815d74-cf24-4748-be74-0881db2c8042"},"vehicle_type_id":"4","last_reported":1770945432,"current_range_meters":24800,"station_id":"ce4bhr12rcd13ifvqhpg","pricing_plan_id":"cebpf4jnsgd1na2vs0mg"},{"bike_id":"e2cd456a-7b24-41a8-9c55-b22191217c47","system_id":"levelo_inurba_marseille","lat":43.29721,"lon":5.36601,"is_reserved":false,"is_disabled":false,"rental_uris":{"android":"levelo://app?vid=e2cd456a-7b24-41a8-9c55-b22191217c47","ios":"levelo://app?vid=e2cd456a-7b24-41a8-9c55-b22191217c47"},"vehicle_type_id":"4","last_reported":1770945432,"current_range_meters":6800,"station_id":"ce4bgn12rcd13ifvqbt0","pricing_plan_id":"cebpf4jnsgd1na2vs0mg"},{"bike_id":"451234f1-1684-4d00-8320-1607318757d2","system_id":"levelo_inurba_marseille","lat":43.331558,"lon":5.376898,"is_reserved":false,"is_disabled":false,"rental_uris":{"android":"levelo://app?vid=451234f1-1684-4d00-8320-1607318757d2","ios":"levelo://app?vid=451234f1-1684-4d00-8320-1607318757d2"},"vehicle_type_id":"4","last_reported":1770945432,"current_range_meters":18800,"station_id":"st_d46cu089ee8s73dldbu0","pricing_plan_id":"cebpf4jnsgd1na2vs0mg"},{"bike_id":"f4388598-0fe9-4895-90f2-b32d9b275360","system_id":"levelo_inurba_marseille","lat":43.301023,"lon":5.390802,"is_reserved":false,"is_disabled":false,"rental_uris":{"android":"levelo://app?vid=f4388598-0fe9-4895-90f2-b32d9b275360","ios":"levelo://app?vid=f4388598-0fe9-4895-90f2-b32d9b275360"},"vehicle_type_id":"4","last_reported":1770945432,"current_range_meters":8400,"station_id":"ce4bh192rcd13ifvqdb0","pricing_plan_id":"cebpf4jnsgd1na2vs0mg"},{"bike_id":"917d9683-a902-48d9-9f0b-4231358e812e","system_id":"levelo_inurba_marseille","lat":43.33517,"lon":5.37473,"is_reserved":false,"is_disabled":false,"rental_uris":{"android":"levelo://app?vid=917d9683-a902-48d9-9f0b-4231358e812e","ios":"levelo://app?vid=917d9683-a902-48d9-9f0b-4231358e812e"},"vehicle_type_id":"4","last_reported":1770945432,"current_range_meters":21600,"station_id":"st_d46tts09ee8s73dlu43g","pricing_plan_id":"cebpf4jnsgd1na2vs0mg"},{"bike_id":"35acab90-84ba-4560-801f-445890a09ed0","system_id":"levelo_inurba_marseille","lat":43.24994,"lon":5.389305,"is_reserved":false,"is_disabled":false,"rental_uris":{"android":"levelo://app?vid=35acab90-84ba-4560-801f-445890a09ed0","ios":"levelo://app?vid=35acab90-84ba-4560-801f-445890a09ed0"},"vehicle_type_id":"4","last_reported":1770945432,"current_range_meters":38000,"station_id":"ce4bhgp2rcd13ifvqfd0","pricing_plan_id":"cebpf4jnsgd1na2vs0mg"},{"bike_id":"6e09a5ce-1df5-4c34-80f5-a3db09bca322","system_id":"levelo_inurba_marseille","lat":43.30096,"lon":5.39096,"is_reserved":false,"is_disabled":false,"rental_uris":{"android":"levelo://app?vid=6e09a5ce-1df5-4c34-80f5-a3db09bca322","ios":"levelo://app?vid=6e09a5ce-1df5-4c34-80f5-a3db09bca322"},"vehicle_type_id":"4","last_reported":1770945432,"current_range_meters":21600,"station_id":"ce4bh192rcd13ifvqdb0","pricing_plan_id":"cebpf4jnsgd1na2vs0mg"},{"bike_id":"926eeb80-8d6b-46b8-8031-175f7acbffd0","system_id":"levelo_inurba_marseille","lat":43.322833,"lon":5.38277,"is_reserved":false,"is_disabled":false,"rental_uris":{"android":"levelo://app?vid=926eeb80-8d6b-46b8-8031-175f7acbffd0","ios":"levelo://app?vid=926eeb80-8d6b-46b8-8031-175f7acbffd0"},"vehicle_type_id":"4","last_reported":1770945432,"current_range_meters":39200,"station_id":"ce4bhr12rcd13ifvqhqg","pricing_plan_id":"cebpf4jnsgd1na2vs0mg"},{"bike_id":"475cfc23-5a34-425e-92b9-71aca854f7da","system_id":"levelo_inurba_marseille","lat":43.29263,"lon":5.40898,"is_reserved":false,"is_disabled":false,"rental_uris":{"android":"levelo://app?vid=475cfc23-5a34-425e-92b9-71aca854f7da","ios":"levelo://app?vid=475cfc23-5a34-425e-92b9-71aca854f7da"},"vehicle_type_id":"4","last_reported":1770945432,"current_range_meters":39200,"station_id":"ce4bh192rcd13ifvqdc0","pricing_plan_id":"cebpf4jnsgd1na2vs0mg"},{"bike_id":"ae51de62-5f74-41bb-a9ae-ad08fb6bc18e","system_id":"levelo_inurba_marseille","lat":43.25938,"lon":5.40898,"is_reserved":false,"is_disabled":false,"rental_uris":{"android":"levelo://app?vid=ae51de62-5f74-41bb-a9ae-ad08fb6bc18e","ios":"levelo://app?vid=ae51de62-5f74-41bb-a9ae-ad08fb6bc18e"},"vehicle_type_id":"4","last_reported":1770945432,"current_range_meters":24400,"station_id":"ce4bhm92rcd13ifvqglg","pricing_plan_id":"cebpf4jnsgd1na2vs0mg"},{"bike_id":"b32b0732-e4d0-4f51-ba0c-c2f5e5ffe7be","system_id":"levelo_inurba_marseille","lat":43.33721,"lon":5.37402,"is_reserved":false,"is_disabled":true,"rental_uris":{"android":"levelo://app?vid=b32b0732-e4d0-4f51-ba0c-c2f5e5ffe7be","ios":"levelo://app?vid=b32b0732-e4d0-4f51-ba0c-c2f5e5ffe7be"},"vehicle_type_id":"4","last_reported":1770945432,"current_range_meters":0,"station_id":"","pricing_plan_id":"cebpf4jnsgd1na2vs0mg"},{"bike_id":"eb153995-5d33-4b1d-a5c0-ee8cc4302ea8","system_id":"levelo_inurba_marseille","lat":43.26556,"lon":5.39011,"is_reserved":false,"is_disabled":false,"rental_uris":{"android":"levelo://app?vid=eb153995-5d33-4b1d-a5c0-ee8cc4302ea8","ios":"levelo://app?vid=eb153995-5d33-4b1d-a5c0-ee8cc4302ea8"},"vehicle_type_id":"4","last_reported":1770945432,"current_range_meters":4000,"station_id":"ce4bhe12rcd13ifvqf30","pricing_plan_id":"cebpf4jnsgd1na2vs0mg"},{"bike_id":"d70814e4-d968-4b8e-817b-88544a1bc9d1","system_id":"levelo_inurba_marseille","lat":43.25002,"lon":5.38923,"is_reserved":false,"is_disabled":false,"rental_uris":{"android":"levelo://app?vid=d70814e4-d968-4b8e-817b-88544a1bc9d1","ios":"levelo://app?vid=d70814e4-d968-4b8e-817b-88544a1bc9d1"},"vehicle_type_id":"4","last_reported":1770945432,"current_range_meters":39200,"station_id":"ce4bhgp2rcd13ifvqfd0","pricing_plan_id":"cebpf4jnsgd1na2vs0mg"},{"bike_id":"6f0148b8-f53f-49a4-a9cc-467182e29110","system_id":"levelo_inurba_marseille","lat":43.246564,"lon":5.381684,"is_reserved":false,"is_disabled":false,"rental_uris":{"android":"levelo://app?vid=6f0148b8-f53f-49a4-a9cc-467182e29110","ios":"levelo://app?vid=6f0148b8-f53f-49a4-a9cc-467182e29110"},"vehicle_type_id":"4","last_reported":1770945432,"current_range_meters":27600,"station_id":"ce4bhih2rcd13ifvqfr0","pricing_plan_id":"cebpf4jnsgd1na2vs0mg"},{"bike_id":"ae5b5494-76f1-4d54-9e14-d5637e617585","system_id":"levelo_inurba_marseille","lat":43.28346,"lon":5.38183,"is_reserved":false,"is_disabled":false,"rental_uris":{"android":"levelo://app?vid=ae5b5494-76f1-4d54-9e14-d5637e617585","ios":"levelo://app?vid=ae5b5494-76f1-4d54-9e14-d5637e617585"},"vehicle_type_id":"4","last_reported":1770945432,"current_range_meters":38000,"station_id":"","pricing_plan_id":"cebpf4jnsgd1na2vs0mg"},{"bike_id":"45ef4cb1-1a7b-4aba-b84c-4d3de631715f","system_id":"levelo_inurba_marseille","lat":43.301541,"lon":5.38584,"is_reserved":false,"is_disabled":false,"rental_uris":{"android":"levelo://app?vid=45ef4cb1-1a7b-4aba-b84c-4d3de631715f","ios":"levelo://app?vid=45ef4cb1-1a7b-4aba-b84c-4d3de631715f"},"vehicle_type_id":"4","last_reported":1770945432,"current_range_meters":29600,"station_id":"","pricing_plan_id":"cebpf4jnsgd1na2vs0mg"},{"bike_id":"c02ef371-4425-4fa5-a74b-6b52b60b9c45","system_id":"levelo_inurba_marseille","lat":43.31103,"lon":5.37791,"is_reserved":false,"is_disabled":false,"rental_uris":{"android":"levelo://app?vid=c02ef371-4425-4fa5-a74b-6b52b60b9c45","ios":"levelo://app?vid=c02ef371-4425-4fa5-a74b-6b52b60b9c45"},"vehicle_type_id":"4","last_reported":1770945432,"current_range_meters":36800,"station_id":"ce4bgt92rcd13ifvqcg0","pricing_plan_id":"cebpf4jnsgd1na2vs0mg"},{"bike_id":"e85900b6-be3c-455e-bed5-93376dfddf1a","system_id":"levelo_inurba_marseille","lat":43.29708,"lon":5.36583,"is_reserved":false,"is_disabled":false,"rental_uris":{"android":"levelo://app?vid=e85900b6-be3c-455e-bed5-93376dfddf1a","ios":"levelo://app?vid=e85900b6-be3c-455e-bed5-93376dfddf1a"},"vehicle_type_id":"4","last_reported":1770945432,"current_range_meters":37600,"station_id":"ce4bgn12rcd13ifvqbt0","pricing_plan_id":"cebpf4jnsgd1na2vs0mg"},{"bike_id":"da0e2d24-584f-41fd-a38b-655c395c13a2","system_id":"levelo_inurba_marseille","lat":43.30252,"lon":5.40065,"is_reserved":false,"is_disabled":false,"rental_uris":{"android":"levelo://app?vid=da0e2d24-584f-41fd-a38b-655c395c13a2","ios":"levelo://app?vid=da0e2d24-584f-41fd-a38b-655c395c13a2"},"vehicle_type_id":"4","last_reported":1770945432,"current_range_meters":14400,"station_id":"ce4bgvh2rcd13ifvqcs0","pricing_plan_id":"cebpf4jnsgd1na2vs0mg"},{"bike_id":"301746f6-125c-4bdf-bbf9-cba390153d9c","system_id":"levelo_inurba_marseille","lat":43.28703,"lon":5.37383,"is_reserved":false,"is_disabled":false,"rental_uris":{"android":"levelo://app?vid=301746f6-125c-4bdf-bbf9-cba390153d9c","ios":"levelo://app?vid=301746f6-125c-4bdf-bbf9-cba390153d9c"},"vehicle_type_id":"4","last_reported":1770945432,"current_range_meters":36000,"station_id":"ce4bh3p2rcd13ifvqdq0","pricing_plan_id":"cebpf4jnsgd1na2vs0mg"},{"bike_id":"2646436a-3916-4749-b0c4-4e2a11063978","system_id":"levelo_inurba_marseille","lat":43.297078,"lon":5.376799,"is_reserved":false,"is_disabled":true,"rental_uris":{"android":"levelo://app?vid=2646436a-3916-4749-b0c4-4e2a11063978","ios":"levelo://app?vid=2646436a-3916-4749-b0c4-4e2a11063978"},"vehicle_type_id":"4","last_reported":1770945432,"current_range_meters":39200,"station_id":"ce4bgkh2rcd13ifvqbl0","pricing_plan_id":"cebpf4jnsgd1na2vs0mg"},{"bike_id":"d6513438-5bdb-499c-85d0-a58f2a8cda31","system_id":"levelo_inurba_marseille","lat":43.24949,"lon":5.40501,"is_reserved":false,"is_disabled":false,"rental_uris":{"android":"levelo://app?vid=d6513438-5bdb-499c-85d0-a58f2a8cda31","ios":"levelo://app?vid=d6513438-5bdb-499c-85d0-a58f2a8cda31"},"vehicle_type_id":"4","last_reported":1770945432,"current_range_meters":24400,"station_id":"st_d2ngiaodas8pm72gd1h0","pricing_plan_id":"cebpf4jnsgd1na2vs0mg"},{"bike_id":"8d6a5e90-b09f-4cf7-a432-f2daefeda48b","system_id":"levelo_inurba_marseille","lat":43.296795,"lon":5.372905,"is_reserved":false,"is_disabled":false,"rental_uris":{"android":"levelo://app?vid=8d6a5e90-b09f-4cf7-a432-f2daefeda48b","ios":"levelo://app?vid=8d6a5e90-b09f-4cf7-a432-f2daefeda48b"},"vehicle_type_id":"4","last_reported":1770945432,"current_range_meters":38800,"station_id":"ce4bgk12rcd13ifvqbj0","pricing_plan_id":"cebpf4jnsgd1na2vs0mg"},{"bike_id":"4e8e0241-acb1-4e10-a2b7-feb0952472c9","system_id":"levelo_inurba_marseille","lat":43.31771,"lon":5.40413,"is_reserved":false,"is_disabled":false,"rental_uris":{"android":"levelo://app?vid=4e8e0241-acb1-4e10-a2b7-feb0952472c9","ios":"levelo://app?vid=4e8e0241-acb1-4e10-a2b7-feb0952472c9"},"vehicle_type_id":"4","last_reported":1770945432,"current_range_meters":35600,"station_id":"ce4bh012rcd13ifvqd00","pricing_plan_id":"cebpf4jnsgd1na2vs0mg"},{"bike_id":"ea494f1f-4b4c-46ff-9864-08ab0b3b0bbb","system_id":"levelo_inurba_marseille","lat":43.26571,"lon":5.4032,"is_reserved":false,"is_disabled":false,"rental_uris":{"android":"levelo://app?vid=ea494f1f-4b4c-46ff-9864-08ab0b3b0bbb","ios":"levelo://app?vid=ea494f1f-4b4c-46ff-9864-08ab0b3b0bbb"},"vehicle_type_id":"4","last_reported":1770945432,"current_range_meters":29600,"station_id":"ce4bhmp2rcd13ifvqgng","pricing_plan_id":"cebpf4jnsgd1na2vs0mg"},{"bike_id":"a677308b-2ed1-419e-910c-6b11ded7bc88","system_id":"levelo_inurba_marseille","lat":43.301404,"lon":5.398562,"is_reserved":false,"is_disabled":false,"rental_uris":{"android":"levelo://app?vid=a677308b-2ed1-419e-910c-6b11ded7bc88","ios":"levelo://app?vid=a677308b-2ed1-419e-910c-6b11ded7bc88"},"vehicle_type_id":"4","last_reported":1770945432,"current_range_meters":38000,"station_id":"ce4bh0h2rcd13ifvqd40","pricing_plan_id":"cebpf4jnsgd1na2vs0mg"},{"bike_id":"28aca305-7f7d-4b12-a0ae-cfabbf96c8f2","system_id":"levelo_inurba_marseille","lat":43.24668,"lon":5.38163,"is_reserved":false,"is_disabled":false,"rental_uris":{"android":"levelo://app?vid=28aca305-7f7d-4b12-a0ae-cfabbf96c8f2","ios":"levelo://app?vid=28aca305-7f7d-4b12-a0ae-cfabbf96c8f2"},"vehicle_type_id":"4","last_reported":1770945432,"current_range_meters":8400,"station_id":"ce4bhih2rcd13ifvqfr0","pricing_plan_id":"cebpf4jnsgd1na2vs0mg"},{"bike_id":"014613de-69aa-4aca-9291-67750cce2e69","system_id":"levelo_inurba_marseille","lat":43.28482,"lon":5.48392,"is_reserved":false,"is_disabled":false,"rental_uris":{"android":"levelo://app?vid=014613de-69aa-4aca-9291-67750cce2e69","ios":"levelo://app?vid=014613de-69aa-4aca-9291-67750cce2e69"},"vehicle_type_id":"4","last_reported":1770945432,"current_range_meters":8800,"station_id":"","pricing_plan_id":"cebpf4jnsgd1na2vs0mg"},{"bike_id":"ceafdd97-9709-4666-acdc-c6b8a34aace5","system_id":"levelo_inurba_marseille","lat":43.27193,"lon":5.409944,"is_reserved":false,"is_disabled":true,"rental_uris":{"android":"levelo://app?vid=ceafdd97-9709-4666-acdc-c6b8a34aace5","ios":"levelo://app?vid=ceafdd97-9709-4666-acdc-c6b8a34aace5"},"vehicle_type_id":"4","last_reported":1770945432,"current_range_meters":9200,"station_id":"ce4bhl12rcd13ifvqgf0","pricing_plan_id":"cebpf4jnsgd1na2vs0mg"},{"bike_id":"528542a7-5e47-427f-bf00-27a8775d2794","system_id":"levelo_inurba_marseille","lat":43.31532,"lon":5.38026,"is_reserved":false,"is_disabled":false,"rental_uris":{"android":"levelo://app?vid=528542a7-5e47-427f-bf00-27a8775d2794","ios":"levelo://app?vid=528542a7-5e47-427f-bf00-27a8775d2794"},"vehicle_type_id":"4","last_reported":1770945432,"current_range_meters":34000,"station_id":"ce4bhsp2rcd13ifvqi50","pricing_plan_id":"cebpf4jnsgd1na2vs0mg"},{"bike_id":"9ed7300e-a4d4-493c-95a2-a0b857cf6348","system_id":"levelo_inurba_marseille","lat":43.22557,"lon":5.41622,"is_reserved":false,"is_disabled":false,"rental_uris":{"android":"levelo://app?vid=9ed7300e-a4d4-493c-95a2-a0b857cf6348","ios":"levelo://app?vid=9ed7300e-a4d4-493c-95a2-a0b857cf6348"},"vehicle_type_id":"4","last_reported":1770945432,"current_range_meters":25600,"station_id":"st_d2o4gvlbi1j2169b742g","pricing_plan_id":"cebpf4jnsgd1na2vs0mg"},{"bike_id":"ce7f455d-43e5-4e79-a273-d77ed686dc20","system_id":"levelo_inurba_marseille","lat":43.29779,"lon":5.39359,"is_reserved":false,"is_disabled":false,"rental_uris":{"android":"levelo://app?vid=ce7f455d-43e5-4e79-a273-d77ed686dc20","ios":"levelo://app?vid=ce7f455d-43e5-4e79-a273-d77ed686dc20"},"vehicle_type_id":"4","last_reported":1770945432,"current_range_meters":39200,"station_id":"chh1huq6cuj3fo74tm60","pricing_plan_id":"cebpf4jnsgd1na2vs0mg"},{"bike_id":"603ec718-9201-43e0-8396-ece58cf1c462","system_id":"levelo_inurba_marseille","lat":43.29762,"lon":5.42756,"is_reserved":false,"is_disabled":false,"rental_uris":{"android":"levelo://app?vid=603ec718-9201-43e0-8396-ece58cf1c462","ios":"levelo://app?vid=603ec718-9201-43e0-8396-ece58cf1c462"},"vehicle_type_id":"4","last_reported":1770945432,"current_range_meters":16400,"station_id":"st_d3md5207bmas73dh9klg","pricing_plan_id":"cebpf4jnsgd1na2vs0mg"},{"bike_id":"d2ae2440-e92a-40be-b95d-c1574a1fed11","system_id":"levelo_inurba_marseille","lat":43.33146,"lon":5.37719,"is_reserved":false,"is_disabled":false,"rental_uris":{"android":"levelo://app?vid=d2ae2440-e92a-40be-b95d-c1574a1fed11","ios":"levelo://app?vid=d2ae2440-e92a-40be-b95d-c1574a1fed11"},"vehicle_type_id":"4","last_reported":1770945432,"current_range_meters":22400,"station_id":"st_d46cu089ee8s73dldbu0","pricing_plan_id":"cebpf4jnsgd1na2vs0mg"},{"bike_id":"bd9b5e04-3abe-4098-a415-308df53cc83b","system_id":"levelo_inurba_marseille","lat":43.30306,"lon":5.39201,"is_reserved":false,"is_disabled":true,"rental_uris":{"android":"levelo://app?vid=bd9b5e04-3abe-4098-a415-308df53cc83b","ios":"levelo://app?vid=bd9b5e04-3abe-4098-a415-308df53cc83b"},"vehicle_type_id":"4","last_reported":1770945432,"current_range_meters":35600,"station_id":"ce4bgkh2rcd13ifvqbk0","pricing_plan_id":"cebpf4jnsgd1na2vs0mg"},{"bike_id":"f8471a2c-87e1-4cbd-bb5b-57438b2e01d6","system_id":"levelo_inurba_marseille","lat":43.29271,"lon":5.36849,"is_reserved":false,"is_disabled":false,"rental_uris":{"android":"levelo://app?vid=f8471a2c-87e1-4cbd-bb5b-57438b2e01d6","ios":"levelo://app?vid=f8471a2c-87e1-4cbd-bb5b-57438b2e01d6"},"vehicle_type_id":"4","last_reported":1770945432,"current_range_meters":8000,"station_id":"ce4bhbp2rcd13ifvqesg","pricing_plan_id":"cebpf4jnsgd1na2vs0mg"},{"bike_id":"7c3214e4-011e-406b-980a-35e392dbba5a","system_id":"levelo_inurba_marseille","lat":43.31311,"lon":5.39724,"is_reserved":false,"is_disabled":false,"rental_uris":{"android":"levelo://app?vid=7c3214e4-011e-406b-980a-35e392dbba5a","ios":"levelo://app?vid=7c3214e4-011e-406b-980a-35e392dbba5a"},"vehicle_type_id":"4","last_reported":1770945432,"current_range_meters":17600,"station_id":"ce4bgvp2rcd13ifvqcu0","pricing_plan_id":"cebpf4jnsgd1na2vs0mg"},{"bike_id":"db473b28-2923-43be-a5b8-27a3cb55c92a","system_id":"levelo_inurba_marseille","lat":43.295076,"lon":5.394132,"is_reserved":false,"is_disabled":false,"rental_uris":{"android":"levelo://app?vid=db473b28-2923-43be-a5b8-27a3cb55c92a","ios":"levelo://app?vid=db473b28-2923-43be-a5b8-27a3cb55c92a"},"vehicle_type_id":"4","last_reported":1770945432,"current_range_meters":40000,"station_id":"ce4bh292rcd13ifvqdf0","pricing_plan_id":"cebpf4jnsgd1na2vs0mg"},{"bike_id":"485340dc-805a-4777-95bd-384b16fa6b7a","system_id":"levelo_inurba_marseille","lat":43.30145,"lon":5.39873,"is_reserved":false,"is_disabled":false,"rental_uris":{"android":"levelo://app?vid=485340dc-805a-4777-95bd-384b16fa6b7a","ios":"levelo://app?vid=485340dc-805a-4777-95bd-384b16fa6b7a"},"vehicle_type_id":"4","last_reported":1770945432,"current_range_meters":17600,"station_id":"ce4bh0h2rcd13ifvqd40","pricing_plan_id":"cebpf4jnsgd1na2vs0mg"},{"bike_id":"50654183-b1f8-4460-be30-4796b7df6d9d","system_id":"levelo_inurba_marseille","lat":43.26785,"lon":5.39415,"is_reserved":false,"is_disabled":false,"rental_uris":{"android":"levelo://app?vid=50654183-b1f8-4460-be30-4796b7df6d9d","ios":"levelo://app?vid=50654183-b1f8-4460-be30-4796b7df6d9d"},"vehicle_type_id":"4","last_reported":1770945432,"current_range_meters":28000,"station_id":"ce4bhh12rcd13ifvqfg0","pricing_plan_id":"cebpf4jnsgd1na2vs0mg"},{"bike_id":"01f78c5a-3be0-4e2e-96cf-84a67ad0e642","system_id":"levelo_inurba_marseille","lat":43.27553,"lon":5.38428,"is_reserved":false,"is_disabled":false,"rental_uris":{"android":"levelo://app?vid=01f78c5a-3be0-4e2e-96cf-84a67ad0e642","ios":"levelo://app?vid=01f78c5a-3be0-4e2e-96cf-84a67ad0e642"},"vehicle_type_id":"4","last_reported":1770945432,"current_range_meters":38000,"station_id":"ce4bhh92rcd13ifvqfi0","pricing_plan_id":"cebpf4jnsgd1na2vs0mg"},{"bike_id":"59db9114-896d-40ef-9452-d2ba8d74bb7e","system_id":"levelo_inurba_marseille","lat":43.309262,"lon":5.401493,"is_reserved":false,"is_disabled":false,"rental_uris":{"android":"levelo://app?vid=59db9114-896d-40ef-9452-d2ba8d74bb7e","ios":"levelo://app?vid=59db9114-896d-40ef-9452-d2ba8d74bb7e"},"vehicle_type_id":"4","last_reported":1770945432,"current_range_meters":28800,"station_id":"ce4bgvp2rcd13ifvqct0","pricing_plan_id":"cebpf4jnsgd1na2vs0mg"},{"bike_id":"e0ceb215-62dc-4988-894b-5ac7cda2130c","system_id":"levelo_inurba_marseille","lat":43.29012,"lon":5.38637,"is_reserved":false,"is_disabled":false,"rental_uris":{"android":"levelo://app?vid=e0ceb215-62dc-4988-894b-5ac7cda2130c","ios":"levelo://app?vid=e0ceb215-62dc-4988-894b-5ac7cda2130c"},"vehicle_type_id":"4","last_reported":1770945432,"current_range_meters":16400,"station_id":"ce4bh4p2rcd13ifvqe0g","pricing_plan_id":"cebpf4jnsgd1na2vs0mg"},{"bike_id":"3a20a61d-5223-462c-b0fd-75aac98af7b4","system_id":"levelo_inurba_marseille","lat":43.30152,"lon":5.38768,"is_reserved":false,"is_disabled":true,"rental_uris":{"android":"levelo://app?vid=3a20a61d-5223-462c-b0fd-75aac98af7b4","ios":"levelo://app?vid=3a20a61d-5223-462c-b0fd-75aac98af7b4"},"vehicle_type_id":"4","last_reported":1770945432,"current_range_meters":25200,"station_id":"ce4bghh2rcd13ifvqb60","pricing_plan_id":"cebpf4jnsgd1na2vs0mg"},{"bike_id":"d8bbcb80-4405-4339-94e8-a3a4a59ae180","system_id":"levelo_inurba_marseille","lat":43.302169,"lon":5.394755,"is_reserved":false,"is_disabled":false,"rental_uris":{"android":"levelo://app?vid=d8bbcb80-4405-4339-94e8-a3a4a59ae180","ios":"levelo://app?vid=d8bbcb80-4405-4339-94e8-a3a4a59ae180"},"vehicle_type_id":"4","last_reported":1770945432,"current_range_meters":37600,"station_id":"ce4bh0p2rcd13ifvqd70","pricing_plan_id":"cebpf4jnsgd1na2vs0mg"},{"bike_id":"ffe3fbd4-6746-48bb-b0b5-fa7f3d6ff56c","system_id":"levelo_inurba_marseille","lat":43.310647,"lon":5.371847,"is_reserved":false,"is_disabled":false,"rental_uris":{"android":"levelo://app?vid=ffe3fbd4-6746-48bb-b0b5-fa7f3d6ff56c","ios":"levelo://app?vid=ffe3fbd4-6746-48bb-b0b5-fa7f3d6ff56c"},"vehicle_type_id":"4","last_reported":1770945432,"current_range_meters":22400,"station_id":"st_d4kl2rp97mjs73e7tdfg","pricing_plan_id":"cebpf4jnsgd1na2vs0mg"},{"bike_id":"5071b43d-0bf5-4c33-bee0-7bb9b5d21dc9","system_id":"levelo_inurba_marseille","lat":43.25022,"lon":5.3892,"is_reserved":false,"is_disabled":false,"rental_uris":{"android":"levelo://app?vid=5071b43d-0bf5-4c33-bee0-7bb9b5d21dc9","ios":"levelo://app?vid=5071b43d-0bf5-4c33-bee0-7bb9b5d21dc9"},"vehicle_type_id":"4","last_reported":1770945432,"current_range_meters":31200,"station_id":"ce4bhgp2rcd13ifvqfd0","pricing_plan_id":"cebpf4jnsgd1na2vs0mg"},{"bike_id":"51ad0198-092e-4860-b994-3420575955f1","system_id":"levelo_inurba_marseille","lat":43.22527,"lon":5.34833,"is_reserved":false,"is_disabled":false,"rental_uris":{"android":"levelo://app?vid=51ad0198-092e-4860-b994-3420575955f1","ios":"levelo://app?vid=51ad0198-092e-4860-b994-3420575955f1"},"vehicle_type_id":"4","last_reported":1770945432,"current_range_meters":7200,"station_id":"st_cvj5dfep6f1abm77gieg","pricing_plan_id":"cebpf4jnsgd1na2vs0mg"},{"bike_id":"313d98b7-e392-4489-8902-a504e0cb6171","system_id":"levelo_inurba_marseille","lat":43.29628,"lon":5.40586,"is_reserved":false,"is_disabled":false,"rental_uris":{"android":"levelo://app?vid=313d98b7-e392-4489-8902-a504e0cb6171","ios":"levelo://app?vid=313d98b7-e392-4489-8902-a504e0cb6171"},"vehicle_type_id":"4","last_reported":1770945432,"current_range_meters":32400,"station_id":"ce4bh0h2rcd13ifvqd60","pricing_plan_id":"cebpf4jnsgd1na2vs0mg"},{"bike_id":"96dce03c-0583-4126-9bf0-45335884c78e","system_id":"levelo_inurba_marseille","lat":43.32291,"lon":5.3827,"is_reserved":false,"is_disabled":false,"rental_uris":{"android":"levelo://app?vid=96dce03c-0583-4126-9bf0-45335884c78e","ios":"levelo://app?vid=96dce03c-0583-4126-9bf0-45335884c78e"},"vehicle_type_id":"4","last_reported":1770945432,"current_range_meters":39200,"station_id":"ce4bhr12rcd13ifvqhqg","pricing_plan_id":"cebpf4jnsgd1na2vs0mg"},{"bike_id":"2aa05e06-5366-4cfd-80c1-a6e66487250b","system_id":"levelo_inurba_marseille","lat":43.284787,"lon":5.48391,"is_reserved":false,"is_disabled":false,"rental_uris":{"android":"levelo://app?vid=2aa05e06-5366-4cfd-80c1-a6e66487250b","ios":"levelo://app?vid=2aa05e06-5366-4cfd-80c1-a6e66487250b"},"vehicle_type_id":"4","last_reported":1770945432,"current_range_meters":32000,"station_id":"st_d3svhcjqgbts73a3dn0g","pricing_plan_id":"cebpf4jnsgd1na2vs0mg"},{"bike_id":"617e2e84-c111-47e9-a490-28fb3c5ade73","system_id":"levelo_inurba_marseille","lat":43.29199,"lon":5.39306,"is_reserved":false,"is_disabled":false,"rental_uris":{"android":"levelo://app?vid=617e2e84-c111-47e9-a490-28fb3c5ade73","ios":"levelo://app?vid=617e2e84-c111-47e9-a490-28fb3c5ade73"},"vehicle_type_id":"4","last_reported":1770945432,"current_range_meters":34800,"station_id":"ce4bh192rcd13ifvqdd0","pricing_plan_id":"cebpf4jnsgd1na2vs0mg"},{"bike_id":"ecb39c78-a132-4b24-a1ed-3bbd4e6e80ca","system_id":"levelo_inurba_marseille","lat":43.28112,"lon":5.37865,"is_reserved":false,"is_disabled":true,"rental_uris":{"android":"levelo://app?vid=ecb39c78-a132-4b24-a1ed-3bbd4e6e80ca","ios":"levelo://app?vid=ecb39c78-a132-4b24-a1ed-3bbd4e6e80ca"},"vehicle_type_id":"4","last_reported":1770945432,"current_range_meters":0,"station_id":"ce4bha12rcd13ifvqee0","pricing_plan_id":"cebpf4jnsgd1na2vs0mg"},{"bike_id":"541fff98-b96f-4b5d-94af-a1127f2e4454","system_id":"levelo_inurba_marseille","lat":43.2952,"lon":5.39384,"is_reserved":false,"is_disabled":false,"rental_uris":{"android":"levelo://app?vid=541fff98-b96f-4b5d-94af-a1127f2e4454","ios":"levelo://app?vid=541fff98-b96f-4b5d-94af-a1127f2e4454"},"vehicle_type_id":"4","last_reported":1770945432,"current_range_meters":26800,"station_id":"ce4bh292rcd13ifvqdf0","pricing_plan_id":"cebpf4jnsgd1na2vs0mg"},{"bike_id":"eee3b56e-14ba-425a-9dc1-5dcaeeae6056","system_id":"levelo_inurba_marseille","lat":43.2495,"lon":5.40489,"is_reserved":false,"is_disabled":false,"rental_uris":{"android":"levelo://app?vid=eee3b56e-14ba-425a-9dc1-5dcaeeae6056","ios":"levelo://app?vid=eee3b56e-14ba-425a-9dc1-5dcaeeae6056"},"vehicle_type_id":"4","last_reported":1770945432,"current_range_meters":7200,"station_id":"st_d2ngiaodas8pm72gd1h0","pricing_plan_id":"cebpf4jnsgd1na2vs0mg"},{"bike_id":"6fb6e675-460f-4429-987e-5c8d5ca05444","system_id":"levelo_inurba_marseille","lat":43.32361,"lon":5.36739,"is_reserved":false,"is_disabled":false,"rental_uris":{"android":"levelo://app?vid=6fb6e675-460f-4429-987e-5c8d5ca05444","ios":"levelo://app?vid=6fb6e675-460f-4429-987e-5c8d5ca05444"},"vehicle_type_id":"4","last_reported":1770945432,"current_range_meters":20000,"station_id":"ce4bhsh2rcd13ifvqi2g","pricing_plan_id":"cebpf4jnsgd1na2vs0mg"},{"bike_id":"bf3cb6e8-1a91-4ca0-b7f3-fc8011ca9cd8","system_id":"levelo_inurba_marseille","lat":43.308911,"lon":5.396326,"is_reserved":false,"is_disabled":false,"rental_uris":{"android":"levelo://app?vid=bf3cb6e8-1a91-4ca0-b7f3-fc8011ca9cd8","ios":"levelo://app?vid=bf3cb6e8-1a91-4ca0-b7f3-fc8011ca9cd8"},"vehicle_type_id":"4","last_reported":1770945432,"current_range_meters":38400,"station_id":"ce4bh012rcd13ifvqcv0","pricing_plan_id":"cebpf4jnsgd1na2vs0mg"},{"bike_id":"8864f6b7-1b6c-416e-9bf7-d904161c6757","system_id":"levelo_inurba_marseille","lat":43.25816,"lon":5.39422,"is_reserved":false,"is_disabled":false,"rental_uris":{"android":"levelo://app?vid=8864f6b7-1b6c-416e-9bf7-d904161c6757","ios":"levelo://app?vid=8864f6b7-1b6c-416e-9bf7-d904161c6757"},"vehicle_type_id":"4","last_reported":1770945432,"current_range_meters":18000,"station_id":"ce4bhip2rcd13ifvqft0","pricing_plan_id":"cebpf4jnsgd1na2vs0mg"},{"bike_id":"7ff8f1b8-aa67-4d09-9b1e-6734c846f83c","system_id":"levelo_inurba_marseille","lat":43.26566,"lon":5.39022,"is_reserved":false,"is_disabled":true,"rental_uris":{"android":"levelo://app?vid=7ff8f1b8-aa67-4d09-9b1e-6734c846f83c","ios":"levelo://app?vid=7ff8f1b8-aa67-4d09-9b1e-6734c846f83c"},"vehicle_type_id":"4","last_reported":1770945432,"current_range_meters":14800,"station_id":"ce4bhe12rcd13ifvqf30","pricing_plan_id":"cebpf4jnsgd1na2vs0mg"},{"bike_id":"e44616d2-0949-4941-adde-d5514a4c8e20","system_id":"levelo_inurba_marseille","lat":43.28106,"lon":5.37839,"is_reserved":false,"is_disabled":false,"rental_uris":{"android":"levelo://app?vid=e44616d2-0949-4941-adde-d5514a4c8e20","ios":"levelo://app?vid=e44616d2-0949-4941-adde-d5514a4c8e20"},"vehicle_type_id":"4","last_reported":1770945432,"current_range_meters":8800,"station_id":"ce4bha12rcd13ifvqee0","pricing_plan_id":"cebpf4jnsgd1na2vs0mg"},{"bike_id":"bc39af2e-f995-4080-81bb-b48ae08bae95","system_id":"levelo_inurba_marseille","lat":43.30728,"lon":5.42435,"is_reserved":false,"is_disabled":false,"rental_uris":{"android":"levelo://app?vid=bc39af2e-f995-4080-81bb-b48ae08bae95","ios":"levelo://app?vid=bc39af2e-f995-4080-81bb-b48ae08bae95"},"vehicle_type_id":"4","last_reported":1770945432,"current_range_meters":39200,"station_id":"st_cvj6ca6bvosntc0bfgr0","pricing_plan_id":"cebpf4jnsgd1na2vs0mg"},{"bike_id":"0b4aaea2-35f7-42c2-b087-ed81f1658c46","system_id":"levelo_inurba_marseille","lat":43.29612,"lon":5.36736,"is_reserved":false,"is_disabled":false,"rental_uris":{"android":"levelo://app?vid=0b4aaea2-35f7-42c2-b087-ed81f1658c46","ios":"levelo://app?vid=0b4aaea2-35f7-42c2-b087-ed81f1658c46"},"vehicle_type_id":"4","last_reported":1770945432,"current_range_meters":12800,"station_id":"ce4bgph2rcd13ifvqc2g","pricing_plan_id":"cebpf4jnsgd1na2vs0mg"},{"bike_id":"7be9b5cd-2937-447d-86be-539a0c97ddbd","system_id":"levelo_inurba_marseille","lat":43.28711,"lon":5.37389,"is_reserved":false,"is_disabled":false,"rental_uris":{"android":"levelo://app?vid=7be9b5cd-2937-447d-86be-539a0c97ddbd","ios":"levelo://app?vid=7be9b5cd-2937-447d-86be-539a0c97ddbd"},"vehicle_type_id":"4","last_reported":1770945432,"current_range_meters":11200,"station_id":"ce4bh3p2rcd13ifvqdq0","pricing_plan_id":"cebpf4jnsgd1na2vs0mg"},{"bike_id":"2a6c10cf-0d47-485e-bda1-55d6c3f306fc","system_id":"levelo_inurba_marseille","lat":43.28457,"lon":5.35883,"is_reserved":false,"is_disabled":false,"rental_uris":{"android":"levelo://app?vid=2a6c10cf-0d47-485e-bda1-55d6c3f306fc","ios":"levelo://app?vid=2a6c10cf-0d47-485e-bda1-55d6c3f306fc"},"vehicle_type_id":"4","last_reported":1770945432,"current_range_meters":15200,"station_id":"ce4bhah2rcd13ifvqei0","pricing_plan_id":"cebpf4jnsgd1na2vs0mg"},{"bike_id":"52683c27-ad63-43c1-8a50-a75fb84808e6","system_id":"levelo_inurba_marseille","lat":43.25111,"lon":5.39512,"is_reserved":false,"is_disabled":false,"rental_uris":{"android":"levelo://app?vid=52683c27-ad63-43c1-8a50-a75fb84808e6","ios":"levelo://app?vid=52683c27-ad63-43c1-8a50-a75fb84808e6"},"vehicle_type_id":"4","last_reported":1770945432,"current_range_meters":4000,"station_id":"ce4bhm12rcd13ifvqgkg","pricing_plan_id":"cebpf4jnsgd1na2vs0mg"},{"bike_id":"38e9429c-24b7-4c3a-b36d-b0b7647ab822","system_id":"levelo_inurba_marseille","lat":43.31523,"lon":5.38051,"is_reserved":false,"is_disabled":false,"rental_uris":{"android":"levelo://app?vid=38e9429c-24b7-4c3a-b36d-b0b7647ab822","ios":"levelo://app?vid=38e9429c-24b7-4c3a-b36d-b0b7647ab822"},"vehicle_type_id":"4","last_reported":1770945432,"current_range_meters":36400,"station_id":"ce4bhsp2rcd13ifvqi50","pricing_plan_id":"cebpf4jnsgd1na2vs0mg"},{"bike_id":"91a16e74-f75c-43e6-9998-5c1ca801894b","system_id":"levelo_inurba_marseille","lat":43.29044,"lon":5.37548,"is_reserved":false,"is_disabled":true,"rental_uris":{"android":"levelo://app?vid=91a16e74-f75c-43e6-9998-5c1ca801894b","ios":"levelo://app?vid=91a16e74-f75c-43e6-9998-5c1ca801894b"},"vehicle_type_id":"4","last_reported":1770945432,"current_range_meters":22800,"station_id":"ce4bh692rcd13ifvqe90","pricing_plan_id":"cebpf4jnsgd1na2vs0mg"},{"bike_id":"dccfc238-30d1-44f3-9713-c1cc91044624","system_id":"levelo_inurba_marseille","lat":43.30425,"lon":5.397514,"is_reserved":false,"is_disabled":false,"rental_uris":{"android":"levelo://app?vid=dccfc238-30d1-44f3-9713-c1cc91044624","ios":"levelo://app?vid=dccfc238-30d1-44f3-9713-c1cc91044624"},"vehicle_type_id":"4","last_reported":1770945432,"current_range_meters":24000,"station_id":"ce4bh092rcd13ifvqd20","pricing_plan_id":"cebpf4jnsgd1na2vs0mg"},{"bike_id":"e29024b3-288c-4d8b-ba32-8553041a7294","system_id":"levelo_inurba_marseille","lat":43.25946,"lon":5.408888,"is_reserved":false,"is_disabled":false,"rental_uris":{"android":"levelo://app?vid=e29024b3-288c-4d8b-ba32-8553041a7294","ios":"levelo://app?vid=e29024b3-288c-4d8b-ba32-8553041a7294"},"vehicle_type_id":"4","last_reported":1770945432,"current_range_meters":9200,"station_id":"ce4bhm92rcd13ifvqglg","pricing_plan_id":"cebpf4jnsgd1na2vs0mg"},{"bike_id":"dfa42615-cf49-4c98-8217-a89505bcbda5","system_id":"levelo_inurba_marseille","lat":43.28852,"lon":5.358557,"is_reserved":false,"is_disabled":false,"rental_uris":{"android":"levelo://app?vid=dfa42615-cf49-4c98-8217-a89505bcbda5","ios":"levelo://app?vid=dfa42615-cf49-4c98-8217-a89505bcbda5"},"vehicle_type_id":"4","last_reported":1770945432,"current_range_meters":39200,"station_id":"ce4bhb12rcd13ifvqem0","pricing_plan_id":"cebpf4jnsgd1na2vs0mg"},{"bike_id":"3c189d89-9ba1-4956-b004-0844860e5628","system_id":"levelo_inurba_marseille","lat":43.28555,"lon":5.35149,"is_reserved":false,"is_disabled":false,"rental_uris":{"android":"levelo://app?vid=3c189d89-9ba1-4956-b004-0844860e5628","ios":"levelo://app?vid=3c189d89-9ba1-4956-b004-0844860e5628"},"vehicle_type_id":"4","last_reported":1770945432,"current_range_meters":39200,"station_id":"ce4bhch2rcd13ifvqeug","pricing_plan_id":"cebpf4jnsgd1na2vs0mg"},{"bike_id":"d4078c0d-0ab2-4898-ba9f-81aff7cd2cef","system_id":"levelo_inurba_marseille","lat":43.30532,"lon":5.36537,"is_reserved":false,"is_disabled":false,"rental_uris":{"android":"levelo://app?vid=d4078c0d-0ab2-4898-ba9f-81aff7cd2cef","ios":"levelo://app?vid=d4078c0d-0ab2-4898-ba9f-81aff7cd2cef"},"vehicle_type_id":"4","last_reported":1770945432,"current_range_meters":38800,"station_id":"ce4bgs12rcd13ifvqcag","pricing_plan_id":"cebpf4jnsgd1na2vs0mg"},{"bike_id":"3029fd03-fcab-4cd9-9277-025369248c19","system_id":"levelo_inurba_marseille","lat":43.26188,"lon":5.37446,"is_reserved":false,"is_disabled":false,"rental_uris":{"android":"levelo://app?vid=3029fd03-fcab-4cd9-9277-025369248c19","ios":"levelo://app?vid=3029fd03-fcab-4cd9-9277-025369248c19"},"vehicle_type_id":"4","last_reported":1770945432,"current_range_meters":25600,"station_id":"ce4bhgp2rcd13ifvqfc0","pricing_plan_id":"cebpf4jnsgd1na2vs0mg"},{"bike_id":"41397c74-628a-48f0-8f2e-0081339ef4c9","system_id":"levelo_inurba_marseille","lat":43.29286,"lon":5.38481,"is_reserved":false,"is_disabled":false,"rental_uris":{"android":"levelo://app?vid=41397c74-628a-48f0-8f2e-0081339ef4c9","ios":"levelo://app?vid=41397c74-628a-48f0-8f2e-0081339ef4c9"},"vehicle_type_id":"4","last_reported":1770945432,"current_range_meters":19200,"station_id":"","pricing_plan_id":"cebpf4jnsgd1na2vs0mg"},{"bike_id":"921b0057-d893-4ab5-aa0e-ecd53624d92c","system_id":"levelo_inurba_marseille","lat":43.29194,"lon":5.35815,"is_reserved":false,"is_disabled":false,"rental_uris":{"android":"levelo://app?vid=921b0057-d893-4ab5-aa0e-ecd53624d92c","ios":"levelo://app?vid=921b0057-d893-4ab5-aa0e-ecd53624d92c"},"vehicle_type_id":"4","last_reported":1770945432,"current_range_meters":16800,"station_id":"ce4bhb12rcd13ifvqel0","pricing_plan_id":"cebpf4jnsgd1na2vs0mg"},{"bike_id":"397ed6fc-1199-48c5-967c-38ee35525083","system_id":"levelo_inurba_marseille","lat":43.28661,"lon":5.36359,"is_reserved":false,"is_disabled":false,"rental_uris":{"android":"levelo://app?vid=397ed6fc-1199-48c5-967c-38ee35525083","ios":"levelo://app?vid=397ed6fc-1199-48c5-967c-38ee35525083"},"vehicle_type_id":"4","last_reported":1770945432,"current_range_meters":26000,"station_id":"ce4bhah2rcd13ifvqej0","pricing_plan_id":"cebpf4jnsgd1na2vs0mg"},{"bike_id":"9ef7c1f7-2341-4bfa-8b00-eef4bbbdbfcb","system_id":"levelo_inurba_marseille","lat":43.26808,"lon":5.40258,"is_reserved":false,"is_disabled":false,"rental_uris":{"android":"levelo://app?vid=9ef7c1f7-2341-4bfa-8b00-eef4bbbdbfcb","ios":"levelo://app?vid=9ef7c1f7-2341-4bfa-8b00-eef4bbbdbfcb"},"vehicle_type_id":"4","last_reported":1770945432,"current_range_meters":22400,"station_id":"ce501612rcd8frsf0b60","pricing_plan_id":"cebpf4jnsgd1na2vs0mg"},{"bike_id":"f06d538b-97fe-4530-9d3d-a633bac60e6e","system_id":"levelo_inurba_marseille","lat":43.269288,"lon":5.402569,"is_reserved":false,"is_disabled":false,"rental_uris":{"android":"levelo://app?vid=f06d538b-97fe-4530-9d3d-a633bac60e6e","ios":"levelo://app?vid=f06d538b-97fe-4530-9d3d-a633bac60e6e"},"vehicle_type_id":"4","last_reported":1770945432,"current_range_meters":9200,"station_id":"cjm6bp8fraef2m0cb0m0","pricing_plan_id":"cebpf4jnsgd1na2vs0mg"},{"bike_id":"f0c79e1e-cbee-4a27-8ee6-70d2ba36f872","system_id":"levelo_inurba_marseille","lat":43.29028,"lon":5.35603,"is_reserved":false,"is_disabled":false,"rental_uris":{"android":"levelo://app?vid=f0c79e1e-cbee-4a27-8ee6-70d2ba36f872","ios":"levelo://app?vid=f0c79e1e-cbee-4a27-8ee6-70d2ba36f872"},"vehicle_type_id":"4","last_reported":1770945432,"current_range_meters":6400,"station_id":"ce4bhb92rcd13ifvqen0","pricing_plan_id":"cebpf4jnsgd1na2vs0mg"},{"bike_id":"0f15744b-0709-4e51-83fe-16a870824f44","system_id":"levelo_inurba_marseille","lat":43.25825,"lon":5.39433,"is_reserved":false,"is_disabled":false,"rental_uris":{"android":"levelo://app?vid=0f15744b-0709-4e51-83fe-16a870824f44","ios":"levelo://app?vid=0f15744b-0709-4e51-83fe-16a870824f44"},"vehicle_type_id":"4","last_reported":1770945432,"current_range_meters":38800,"station_id":"ce4bhip2rcd13ifvqft0","pricing_plan_id":"cebpf4jnsgd1na2vs0mg"},{"bike_id":"74f94a67-e011-404f-98b5-f3a8a330be7c","system_id":"levelo_inurba_marseille","lat":43.28569,"lon":5.394962,"is_reserved":false,"is_disabled":false,"rental_uris":{"android":"levelo://app?vid=74f94a67-e011-404f-98b5-f3a8a330be7c","ios":"levelo://app?vid=74f94a67-e011-404f-98b5-f3a8a330be7c"},"vehicle_type_id":"4","last_reported":1770945432,"current_range_meters":39200,"station_id":"ce4bh292rcd13ifvqdg0","pricing_plan_id":"cebpf4jnsgd1na2vs0mg"},{"bike_id":"11bbe498-cd8f-4b2e-8e45-54529a7a0a47","system_id":"levelo_inurba_marseille","lat":43.29745,"lon":5.42778,"is_reserved":false,"is_disabled":false,"rental_uris":{"android":"levelo://app?vid=11bbe498-cd8f-4b2e-8e45-54529a7a0a47","ios":"levelo://app?vid=11bbe498-cd8f-4b2e-8e45-54529a7a0a47"},"vehicle_type_id":"4","last_reported":1770945432,"current_range_meters":20000,"station_id":"st_d3md5207bmas73dh9klg","pricing_plan_id":"cebpf4jnsgd1na2vs0mg"},{"bike_id":"31f296ea-cff6-49b5-89b1-3475fa6fea1c","system_id":"levelo_inurba_marseille","lat":43.288591,"lon":5.393326,"is_reserved":false,"is_disabled":false,"rental_uris":{"android":"levelo://app?vid=31f296ea-cff6-49b5-89b1-3475fa6fea1c","ios":"levelo://app?vid=31f296ea-cff6-49b5-89b1-3475fa6fea1c"},"vehicle_type_id":"4","last_reported":1770945432,"current_range_meters":34800,"station_id":"ce4bh2p2rcd13ifvqdi0","pricing_plan_id":"cebpf4jnsgd1na2vs0mg"},{"bike_id":"90b2eb3d-b8cf-47c7-bcb8-5d5b5f49b9b7","system_id":"levelo_inurba_marseille","lat":43.26584,"lon":5.39027,"is_reserved":false,"is_disabled":true,"rental_uris":{"android":"levelo://app?vid=90b2eb3d-b8cf-47c7-bcb8-5d5b5f49b9b7","ios":"levelo://app?vid=90b2eb3d-b8cf-47c7-bcb8-5d5b5f49b9b7"},"vehicle_type_id":"4","last_reported":1770945432,"current_range_meters":36800,"station_id":"ce4bhe12rcd13ifvqf30","pricing_plan_id":"cebpf4jnsgd1na2vs0mg"},{"bike_id":"e57a4ebc-623c-4649-942c-2656f94045ed","system_id":"levelo_inurba_marseille","lat":43.31323,"lon":5.39697,"is_reserved":false,"is_disabled":false,"rental_uris":{"android":"levelo://app?vid=e57a4ebc-623c-4649-942c-2656f94045ed","ios":"levelo://app?vid=e57a4ebc-623c-4649-942c-2656f94045ed"},"vehicle_type_id":"4","last_reported":1770945432,"current_range_meters":14800,"station_id":"ce4bgvp2rcd13ifvqcu0","pricing_plan_id":"cebpf4jnsgd1na2vs0mg"},{"bike_id":"3b0df29d-e46d-46e4-9466-eae7eb8e20d8","system_id":"levelo_inurba_marseille","lat":43.30118,"lon":5.39899,"is_reserved":false,"is_disabled":false,"rental_uris":{"android":"levelo://app?vid=3b0df29d-e46d-46e4-9466-eae7eb8e20d8","ios":"levelo://app?vid=3b0df29d-e46d-46e4-9466-eae7eb8e20d8"},"vehicle_type_id":"4","last_reported":1770945432,"current_range_meters":39200,"station_id":"ce4bh0h2rcd13ifvqd40","pricing_plan_id":"cebpf4jnsgd1na2vs0mg"},{"bike_id":"6f6a04ad-dd00-4f4a-bdfd-a835cfa0cc11","system_id":"levelo_inurba_marseille","lat":43.27086,"lon":5.38316,"is_reserved":false,"is_disabled":false,"rental_uris":{"android":"levelo://app?vid=6f6a04ad-dd00-4f4a-bdfd-a835cfa0cc11","ios":"levelo://app?vid=6f6a04ad-dd00-4f4a-bdfd-a835cfa0cc11"},"vehicle_type_id":"4","last_reported":1770945432,"current_range_meters":39200,"station_id":"st_d3n2fo6cfp8s73cte1j0","pricing_plan_id":"cebpf4jnsgd1na2vs0mg"},{"bike_id":"8d7d1d86-2929-4d09-8785-2003fa754588","system_id":"levelo_inurba_marseille","lat":43.30286,"lon":5.39252,"is_reserved":false,"is_disabled":false,"rental_uris":{"android":"levelo://app?vid=8d7d1d86-2929-4d09-8785-2003fa754588","ios":"levelo://app?vid=8d7d1d86-2929-4d09-8785-2003fa754588"},"vehicle_type_id":"4","last_reported":1770945432,"current_range_meters":25600,"station_id":"ce4bgkh2rcd13ifvqbk0","pricing_plan_id":"cebpf4jnsgd1na2vs0mg"},{"bike_id":"4e4c79b4-286f-458a-a494-98664f2e8591","system_id":"levelo_inurba_marseille","lat":43.33009,"lon":5.39028,"is_reserved":false,"is_disabled":false,"rental_uris":{"android":"levelo://app?vid=4e4c79b4-286f-458a-a494-98664f2e8591","ios":"levelo://app?vid=4e4c79b4-286f-458a-a494-98664f2e8591"},"vehicle_type_id":"4","last_reported":1770945432,"current_range_meters":39200,"station_id":"ce4bhr92rcd13ifvqhrg","pricing_plan_id":"cebpf4jnsgd1na2vs0mg"},{"bike_id":"9a33d1bd-abfc-489f-948a-79a1516c3474","system_id":"levelo_inurba_marseille","lat":43.27316,"lon":5.3908,"is_reserved":false,"is_disabled":false,"rental_uris":{"android":"levelo://app?vid=9a33d1bd-abfc-489f-948a-79a1516c3474","ios":"levelo://app?vid=9a33d1bd-abfc-489f-948a-79a1516c3474"},"vehicle_type_id":"4","last_reported":1770945432,"current_range_meters":38000,"station_id":"ce4bhgp2rcd13ifvqfe0","pricing_plan_id":"cebpf4jnsgd1na2vs0mg"},{"bike_id":"76d60a75-dcac-494e-a96c-1212b660edc7","system_id":"levelo_inurba_marseille","lat":43.30304,"lon":5.3691,"is_reserved":false,"is_disabled":false,"rental_uris":{"android":"levelo://app?vid=76d60a75-dcac-494e-a96c-1212b660edc7","ios":"levelo://app?vid=76d60a75-dcac-494e-a96c-1212b660edc7"},"vehicle_type_id":"4","last_reported":1770945432,"current_range_meters":35200,"station_id":"ce4bgqh2rcd13ifvqc5g","pricing_plan_id":"cebpf4jnsgd1na2vs0mg"},{"bike_id":"c8d3deb4-912b-417b-a80c-9490cc095215","system_id":"levelo_inurba_marseille","lat":43.298053,"lon":5.376481,"is_reserved":false,"is_disabled":false,"rental_uris":{"android":"levelo://app?vid=c8d3deb4-912b-417b-a80c-9490cc095215","ios":"levelo://app?vid=c8d3deb4-912b-417b-a80c-9490cc095215"},"vehicle_type_id":"4","last_reported":1770945432,"current_range_meters":36400,"station_id":"","pricing_plan_id":"cebpf4jnsgd1na2vs0mg"},{"bike_id":"dbd40afb-0d84-4f0f-b160-b60a14900963","system_id":"levelo_inurba_marseille","lat":43.260576,"lon":5.393964,"is_reserved":false,"is_disabled":false,"rental_uris":{"android":"levelo://app?vid=dbd40afb-0d84-4f0f-b160-b60a14900963","ios":"levelo://app?vid=dbd40afb-0d84-4f0f-b160-b60a14900963"},"vehicle_type_id":"4","last_reported":1770945432,"current_range_meters":38800,"station_id":"ce4bhh92rcd13ifvqfj0","pricing_plan_id":"cebpf4jnsgd1na2vs0mg"},{"bike_id":"36c5e8b7-81fd-45d9-8e6d-03b19edce201","system_id":"levelo_inurba_marseille","lat":43.30226,"lon":5.3656,"is_reserved":false,"is_disabled":false,"rental_uris":{"android":"levelo://app?vid=36c5e8b7-81fd-45d9-8e6d-03b19edce201","ios":"levelo://app?vid=36c5e8b7-81fd-45d9-8e6d-03b19edce201"},"vehicle_type_id":"4","last_reported":1770945432,"current_range_meters":36400,"station_id":"ce4bgrh2rcd13ifvqc8g","pricing_plan_id":"cebpf4jnsgd1na2vs0mg"},{"bike_id":"beb8391b-c8c1-405a-b527-a4be01cb6949","system_id":"levelo_inurba_marseille","lat":43.248036,"lon":5.374558,"is_reserved":false,"is_disabled":false,"rental_uris":{"android":"levelo://app?vid=beb8391b-c8c1-405a-b527-a4be01cb6949","ios":"levelo://app?vid=beb8391b-c8c1-405a-b527-a4be01cb6949"},"vehicle_type_id":"4","last_reported":1770945432,"current_range_meters":30400,"station_id":"ce4bhgh2rcd13ifvqfb0","pricing_plan_id":"cebpf4jnsgd1na2vs0mg"},{"bike_id":"d8a21cf0-3eda-42f6-b76b-99e4c0602b17","system_id":"levelo_inurba_marseille","lat":43.24468,"lon":5.37649,"is_reserved":false,"is_disabled":false,"rental_uris":{"android":"levelo://app?vid=d8a21cf0-3eda-42f6-b76b-99e4c0602b17","ios":"levelo://app?vid=d8a21cf0-3eda-42f6-b76b-99e4c0602b17"},"vehicle_type_id":"4","last_reported":1770945432,"current_range_meters":36800,"station_id":"","pricing_plan_id":"cebpf4jnsgd1na2vs0mg"},{"bike_id":"bb9d4fa8-a6c6-4b37-8296-006d271da3f9","system_id":"levelo_inurba_marseille","lat":43.25013,"lon":5.3894,"is_reserved":false,"is_disabled":false,"rental_uris":{"android":"levelo://app?vid=bb9d4fa8-a6c6-4b37-8296-006d271da3f9","ios":"levelo://app?vid=bb9d4fa8-a6c6-4b37-8296-006d271da3f9"},"vehicle_type_id":"4","last_reported":1770945432,"current_range_meters":32400,"station_id":"ce4bhgp2rcd13ifvqfd0","pricing_plan_id":"cebpf4jnsgd1na2vs0mg"},{"bike_id":"9326bb6a-10f4-4219-97c3-64d7c59774cf","system_id":"levelo_inurba_marseille","lat":43.31047,"lon":5.37171,"is_reserved":false,"is_disabled":false,"rental_uris":{"android":"levelo://app?vid=9326bb6a-10f4-4219-97c3-64d7c59774cf","ios":"levelo://app?vid=9326bb6a-10f4-4219-97c3-64d7c59774cf"},"vehicle_type_id":"4","last_reported":1770945432,"current_range_meters":12000,"station_id":"st_d4kl2rp97mjs73e7tdfg","pricing_plan_id":"cebpf4jnsgd1na2vs0mg"},{"bike_id":"8ae1aee6-ac8a-4eca-88d1-3b74d9a44fff","system_id":"levelo_inurba_marseille","lat":43.288549,"lon":5.358511,"is_reserved":false,"is_disabled":false,"rental_uris":{"android":"levelo://app?vid=8ae1aee6-ac8a-4eca-88d1-3b74d9a44fff","ios":"levelo://app?vid=8ae1aee6-ac8a-4eca-88d1-3b74d9a44fff"},"vehicle_type_id":"4","last_reported":1770945432,"current_range_meters":32400,"station_id":"ce4bhb12rcd13ifvqem0","pricing_plan_id":"cebpf4jnsgd1na2vs0mg"},{"bike_id":"978d2f99-2f31-4c4e-be2a-4e68224c9eda","system_id":"levelo_inurba_marseille","lat":43.26815,"lon":5.40274,"is_reserved":false,"is_disabled":false,"rental_uris":{"android":"levelo://app?vid=978d2f99-2f31-4c4e-be2a-4e68224c9eda","ios":"levelo://app?vid=978d2f99-2f31-4c4e-be2a-4e68224c9eda"},"vehicle_type_id":"4","last_reported":1770945432,"current_range_meters":32000,"station_id":"ce501612rcd8frsf0b60","pricing_plan_id":"cebpf4jnsgd1na2vs0mg"},{"bike_id":"db4f636e-b232-46b1-867e-c76f4ae9dc3e","system_id":"levelo_inurba_marseille","lat":43.321037,"lon":5.367773,"is_reserved":false,"is_disabled":false,"rental_uris":{"android":"levelo://app?vid=db4f636e-b232-46b1-867e-c76f4ae9dc3e","ios":"levelo://app?vid=db4f636e-b232-46b1-867e-c76f4ae9dc3e"},"vehicle_type_id":"4","last_reported":1770945432,"current_range_meters":24400,"station_id":"ce4bhrh2rcd13ifvqhug","pricing_plan_id":"cebpf4jnsgd1na2vs0mg"},{"bike_id":"b0216917-7a6a-43d4-828a-3d19c993f376","system_id":"levelo_inurba_marseille","lat":43.286716,"lon":5.363526,"is_reserved":false,"is_disabled":false,"rental_uris":{"android":"levelo://app?vid=b0216917-7a6a-43d4-828a-3d19c993f376","ios":"levelo://app?vid=b0216917-7a6a-43d4-828a-3d19c993f376"},"vehicle_type_id":"4","last_reported":1770945432,"current_range_meters":40000,"station_id":"ce4bhah2rcd13ifvqej0","pricing_plan_id":"cebpf4jnsgd1na2vs0mg"},{"bike_id":"28a28a42-0d8d-46c3-9354-ee02589636db","system_id":"levelo_inurba_marseille","lat":43.308907,"lon":5.396503,"is_reserved":false,"is_disabled":false,"rental_uris":{"android":"levelo://app?vid=28a28a42-0d8d-46c3-9354-ee02589636db","ios":"levelo://app?vid=28a28a42-0d8d-46c3-9354-ee02589636db"},"vehicle_type_id":"4","last_reported":1770945432,"current_range_meters":3600,"station_id":"ce4bh012rcd13ifvqcv0","pricing_plan_id":"cebpf4jnsgd1na2vs0mg"},{"bike_id":"24404e2f-7907-4c0b-a8da-161f9e441968","system_id":"levelo_inurba_marseille","lat":43.26925,"lon":5.40274,"is_reserved":false,"is_disabled":true,"rental_uris":{"android":"levelo://app?vid=24404e2f-7907-4c0b-a8da-161f9e441968","ios":"levelo://app?vid=24404e2f-7907-4c0b-a8da-161f9e441968"},"vehicle_type_id":"4","last_reported":1770945432,"current_range_meters":36800,"station_id":"cjm6bp8fraef2m0cb0m0","pricing_plan_id":"cebpf4jnsgd1na2vs0mg"},{"bike_id":"b6a4ae12-cc81-4607-8145-d7be5d177912","system_id":"levelo_inurba_marseille","lat":43.29806,"lon":5.38096,"is_reserved":false,"is_disabled":false,"rental_uris":{"android":"levelo://app?vid=b6a4ae12-cc81-4607-8145-d7be5d177912","ios":"levelo://app?vid=b6a4ae12-cc81-4607-8145-d7be5d177912"},"vehicle_type_id":"4","last_reported":1770945432,"current_range_meters":10800,"station_id":"ce4bgip2rcd13ifvqbb0","pricing_plan_id":"cebpf4jnsgd1na2vs0mg"},{"bike_id":"88ff9439-db02-4be2-a9f2-dbfd8e7a5968","system_id":"levelo_inurba_marseille","lat":43.25851,"lon":5.39905,"is_reserved":false,"is_disabled":false,"rental_uris":{"android":"levelo://app?vid=88ff9439-db02-4be2-a9f2-dbfd8e7a5968","ios":"levelo://app?vid=88ff9439-db02-4be2-a9f2-dbfd8e7a5968"},"vehicle_type_id":"4","last_reported":1770945432,"current_range_meters":38800,"station_id":"ce4bhl92rcd13ifvqghg","pricing_plan_id":"cebpf4jnsgd1na2vs0mg"},{"bike_id":"fb6e3715-5cf4-44c9-b456-0645a8903b17","system_id":"levelo_inurba_marseille","lat":43.27816,"lon":5.40679,"is_reserved":false,"is_disabled":false,"rental_uris":{"android":"levelo://app?vid=fb6e3715-5cf4-44c9-b456-0645a8903b17","ios":"levelo://app?vid=fb6e3715-5cf4-44c9-b456-0645a8903b17"},"vehicle_type_id":"4","last_reported":1770945432,"current_range_meters":32800,"station_id":"ce4bhnh2rcd13ifvqgtg","pricing_plan_id":"cebpf4jnsgd1na2vs0mg"},{"bike_id":"d30d7d9e-611d-4920-9b2d-b4a912454982","system_id":"levelo_inurba_marseille","lat":43.31279,"lon":5.37757,"is_reserved":false,"is_disabled":false,"rental_uris":{"android":"levelo://app?vid=d30d7d9e-611d-4920-9b2d-b4a912454982","ios":"levelo://app?vid=d30d7d9e-611d-4920-9b2d-b4a912454982"},"vehicle_type_id":"4","last_reported":1770945432,"current_range_meters":8000,"station_id":"","pricing_plan_id":"cebpf4jnsgd1na2vs0mg"},{"bike_id":"4af5268c-ca5d-4006-a3b3-566120e542f5","system_id":"levelo_inurba_marseille","lat":43.28692,"lon":5.39982,"is_reserved":false,"is_disabled":false,"rental_uris":{"android":"levelo://app?vid=4af5268c-ca5d-4006-a3b3-566120e542f5","ios":"levelo://app?vid=4af5268c-ca5d-4006-a3b3-566120e542f5"},"vehicle_type_id":"4","last_reported":1770945432,"current_range_meters":39200,"station_id":"ce4bho92rcd13ifvqh3g","pricing_plan_id":"cebpf4jnsgd1na2vs0mg"},{"bike_id":"37e8122a-c89a-431e-828d-072ace026f01","system_id":"levelo_inurba_marseille","lat":43.24791,"lon":5.37451,"is_reserved":false,"is_disabled":false,"rental_uris":{"android":"levelo://app?vid=37e8122a-c89a-431e-828d-072ace026f01","ios":"levelo://app?vid=37e8122a-c89a-431e-828d-072ace026f01"},"vehicle_type_id":"4","last_reported":1770945432,"current_range_meters":10800,"station_id":"ce4bhgh2rcd13ifvqfb0","pricing_plan_id":"cebpf4jnsgd1na2vs0mg"},{"bike_id":"aa05541f-dbbf-4d07-b9e8-f608612bc596","system_id":"levelo_inurba_marseille","lat":43.29642,"lon":5.40598,"is_reserved":false,"is_disabled":false,"rental_uris":{"android":"levelo://app?vid=aa05541f-dbbf-4d07-b9e8-f608612bc596","ios":"levelo://app?vid=aa05541f-dbbf-4d07-b9e8-f608612bc596"},"vehicle_type_id":"4","last_reported":1770945432,"current_range_meters":38000,"station_id":"ce4bh0h2rcd13ifvqd60","pricing_plan_id":"cebpf4jnsgd1na2vs0mg"},{"bike_id":"8fd4569f-4513-4bcf-9440-02144f737ba7","system_id":"levelo_inurba_marseille","lat":43.31065,"lon":5.37167,"is_reserved":false,"is_disabled":false,"rental_uris":{"android":"levelo://app?vid=8fd4569f-4513-4bcf-9440-02144f737ba7","ios":"levelo://app?vid=8fd4569f-4513-4bcf-9440-02144f737ba7"},"vehicle_type_id":"4","last_reported":1770945432,"current_range_meters":24400,"station_id":"st_d4kl2rp97mjs73e7tdfg","pricing_plan_id":"cebpf4jnsgd1na2vs0mg"},{"bike_id":"8491b334-0ba7-4277-9797-3edac002b21f","system_id":"levelo_inurba_marseille","lat":43.26212,"lon":5.404436,"is_reserved":false,"is_disabled":true,"rental_uris":{"android":"levelo://app?vid=8491b334-0ba7-4277-9797-3edac002b21f","ios":"levelo://app?vid=8491b334-0ba7-4277-9797-3edac002b21f"},"vehicle_type_id":"4","last_reported":1770945432,"current_range_meters":19600,"station_id":"ce4bhmh2rcd13ifvqgmg","pricing_plan_id":"cebpf4jnsgd1na2vs0mg"},{"bike_id":"6c78efb4-21ea-48b6-a077-5447702c0f63","system_id":"levelo_inurba_marseille","lat":43.29891,"lon":5.43668,"is_reserved":false,"is_disabled":false,"rental_uris":{"android":"levelo://app?vid=6c78efb4-21ea-48b6-a077-5447702c0f63","ios":"levelo://app?vid=6c78efb4-21ea-48b6-a077-5447702c0f63"},"vehicle_type_id":"4","last_reported":1770945432,"current_range_meters":36000,"station_id":"ce4bhpp2rcd13ifvqhfg","pricing_plan_id":"cebpf4jnsgd1na2vs0mg"},{"bike_id":"87e52233-7157-484b-968d-b0beff0b44bb","system_id":"levelo_inurba_marseille","lat":43.269431,"lon":5.402702,"is_reserved":false,"is_disabled":false,"rental_uris":{"android":"levelo://app?vid=87e52233-7157-484b-968d-b0beff0b44bb","ios":"levelo://app?vid=87e52233-7157-484b-968d-b0beff0b44bb"},"vehicle_type_id":"4","last_reported":1770945432,"current_range_meters":29600,"station_id":"cjm6bp8fraef2m0cb0m0","pricing_plan_id":"cebpf4jnsgd1na2vs0mg"},{"bike_id":"1ada22f9-5027-45d1-bf0f-6aaf8ce92ed1","system_id":"levelo_inurba_marseille","lat":43.30589,"lon":5.39347,"is_reserved":false,"is_disabled":false,"rental_uris":{"android":"levelo://app?vid=1ada22f9-5027-45d1-bf0f-6aaf8ce92ed1","ios":"levelo://app?vid=1ada22f9-5027-45d1-bf0f-6aaf8ce92ed1"},"vehicle_type_id":"4","last_reported":1770945432,"current_range_meters":14400,"station_id":"ce4bh0p2rcd13ifvqd80","pricing_plan_id":"cebpf4jnsgd1na2vs0mg"},{"bike_id":"8b377953-fd2c-48a1-8649-b79517c278f6","system_id":"levelo_inurba_marseille","lat":43.28091,"lon":5.37832,"is_reserved":false,"is_disabled":false,"rental_uris":{"android":"levelo://app?vid=8b377953-fd2c-48a1-8649-b79517c278f6","ios":"levelo://app?vid=8b377953-fd2c-48a1-8649-b79517c278f6"},"vehicle_type_id":"4","last_reported":1770945432,"current_range_meters":28800,"station_id":"ce4bha12rcd13ifvqee0","pricing_plan_id":"cebpf4jnsgd1na2vs0mg"},{"bike_id":"97a62e35-510e-4a73-8eca-01c7ca2af946","system_id":"levelo_inurba_marseille","lat":43.31712,"lon":5.37795,"is_reserved":false,"is_disabled":false,"rental_uris":{"android":"levelo://app?vid=97a62e35-510e-4a73-8eca-01c7ca2af946","ios":"levelo://app?vid=97a62e35-510e-4a73-8eca-01c7ca2af946"},"vehicle_type_id":"4","last_reported":1770945432,"current_range_meters":25200,"station_id":"ce4bgth2rcd13ifvqch0","pricing_plan_id":"cebpf4jnsgd1na2vs0mg"},{"bike_id":"fb018fac-6eef-49af-bd5b-057049b63181","system_id":"levelo_inurba_marseille","lat":43.28644,"lon":5.35121,"is_reserved":false,"is_disabled":false,"rental_uris":{"android":"levelo://app?vid=fb018fac-6eef-49af-bd5b-057049b63181","ios":"levelo://app?vid=fb018fac-6eef-49af-bd5b-057049b63181"},"vehicle_type_id":"4","last_reported":1770945432,"current_range_meters":20400,"station_id":"ce4bhch2rcd13ifvqeug","pricing_plan_id":"cebpf4jnsgd1na2vs0mg"},{"bike_id":"3bb5bc67-1d0a-4908-8016-273223517602","system_id":"levelo_inurba_marseille","lat":43.260613,"lon":5.393935,"is_reserved":false,"is_disabled":false,"rental_uris":{"android":"levelo://app?vid=3bb5bc67-1d0a-4908-8016-273223517602","ios":"levelo://app?vid=3bb5bc67-1d0a-4908-8016-273223517602"},"vehicle_type_id":"4","last_reported":1770945432,"current_range_meters":12400,"station_id":"ce4bhh92rcd13ifvqfj0","pricing_plan_id":"cebpf4jnsgd1na2vs0mg"},{"bike_id":"2343f786-5218-4a99-8de9-4404ca433701","system_id":"levelo_inurba_marseille","lat":43.26237,"lon":5.37434,"is_reserved":false,"is_disabled":false,"rental_uris":{"android":"levelo://app?vid=2343f786-5218-4a99-8de9-4404ca433701","ios":"levelo://app?vid=2343f786-5218-4a99-8de9-4404ca433701"},"vehicle_type_id":"4","last_reported":1770945432,"current_range_meters":35600,"station_id":"","pricing_plan_id":"cebpf4jnsgd1na2vs0mg"},{"bike_id":"c1b36981-2407-4376-85d9-fb3bd1a789c0","system_id":"levelo_inurba_marseille","lat":43.28028,"lon":5.36947,"is_reserved":false,"is_disabled":false,"rental_uris":{"android":"levelo://app?vid=c1b36981-2407-4376-85d9-fb3bd1a789c0","ios":"levelo://app?vid=c1b36981-2407-4376-85d9-fb3bd1a789c0"},"vehicle_type_id":"4","last_reported":1770945432,"current_range_meters":38400,"station_id":"ce4bha12rcd13ifvqef0","pricing_plan_id":"cebpf4jnsgd1na2vs0mg"},{"bike_id":"daf88a4a-38c1-4a48-9faf-8edd173ac368","system_id":"levelo_inurba_marseille","lat":43.31184,"lon":5.38714,"is_reserved":false,"is_disabled":true,"rental_uris":{"android":"levelo://app?vid=daf88a4a-38c1-4a48-9faf-8edd173ac368","ios":"levelo://app?vid=daf88a4a-38c1-4a48-9faf-8edd173ac368"},"vehicle_type_id":"4","last_reported":1770945432,"current_range_meters":34800,"station_id":"ce4bgv12rcd13ifvqcp0","pricing_plan_id":"cebpf4jnsgd1na2vs0mg"},{"bike_id":"24beea5a-2b5a-498b-8ea8-a6b69dfa911e","system_id":"levelo_inurba_marseille","lat":43.24635,"lon":5.4315,"is_reserved":false,"is_disabled":false,"rental_uris":{"android":"levelo://app?vid=24beea5a-2b5a-498b-8ea8-a6b69dfa911e","ios":"levelo://app?vid=24beea5a-2b5a-498b-8ea8-a6b69dfa911e"},"vehicle_type_id":"4","last_reported":1770945432,"current_range_meters":36800,"station_id":"st_d2m6c4gdas8pm72e190g","pricing_plan_id":"cebpf4jnsgd1na2vs0mg"},{"bike_id":"244dce9a-d954-4b37-ae15-1ed94931cff6","system_id":"levelo_inurba_marseille","lat":43.30404,"lon":5.41302,"is_reserved":false,"is_disabled":false,"rental_uris":{"android":"levelo://app?vid=244dce9a-d954-4b37-ae15-1ed94931cff6","ios":"levelo://app?vid=244dce9a-d954-4b37-ae15-1ed94931cff6"},"vehicle_type_id":"4","last_reported":1770945432,"current_range_meters":25200,"station_id":"ce4bhop2rcd13ifvqh8g","pricing_plan_id":"cebpf4jnsgd1na2vs0mg"},{"bike_id":"b83bc942-822a-4d1e-8290-a8b480c1b19e","system_id":"levelo_inurba_marseille","lat":43.27908,"lon":5.37982,"is_reserved":false,"is_disabled":false,"rental_uris":{"android":"levelo://app?vid=b83bc942-822a-4d1e-8290-a8b480c1b19e","ios":"levelo://app?vid=b83bc942-822a-4d1e-8290-a8b480c1b19e"},"vehicle_type_id":"4","last_reported":1770945432,"current_range_meters":33600,"station_id":"ce4bhf92rcd13ifvqf50","pricing_plan_id":"cebpf4jnsgd1na2vs0mg"},{"bike_id":"9f3a6d64-6b02-4bc8-a9be-fbbd12ece560","system_id":"levelo_inurba_marseille","lat":43.27667,"lon":5.38918,"is_reserved":false,"is_disabled":false,"rental_uris":{"android":"levelo://app?vid=9f3a6d64-6b02-4bc8-a9be-fbbd12ece560","ios":"levelo://app?vid=9f3a6d64-6b02-4bc8-a9be-fbbd12ece560"},"vehicle_type_id":"4","last_reported":1770945432,"current_range_meters":36000,"station_id":"ce4bhi12rcd13ifvqfo0","pricing_plan_id":"cebpf4jnsgd1na2vs0mg"},